{"data": {"bikes": [{"fusion_lat": 0.0, "name": "086104b777e09e197b352dcad6cb67ae", "is_disabled": 0, "rental_uris": {"android": "https://dc.lft.to/lastmile_qr_scan", "ios": "https://dc.lft.to/lastmile_qr_scan"}, "fusion_lon": 0.0, "lat": 38.89300433333333, "bike_id": "086104b777e09e197b352dcad6cb67ae", "type": "electric_scooter", "is_reserved": 0, "lon": -77.012473}, {"fusion_lat": 0.0, "name": "7bd84ef047cf66b2de8d4dc05d938d59", "is_disabled": 0, "rental_uris": {"android": "https://dc.lft.to/lastmile_qr_scan", "ios": "https://dc.lft.to/lastmile_qr_scan"}, "fusion_lon": 0.0, "lat": 38.904095833333336, "bike_id": "7bd84ef047cf66b2de8d4dc05d938d59", "type": "electric_scooter", "is_reserved": 0, "lon": -77.0259}, {"fusion_lat": 0.0, "name": "781b0f7e754bf0363e9be3d0851dead9", "is_disabled": 0, "rental_uris": {"android": "https://dc.lft.to/lastmile_qr_scan", "ios": "https://dc.lft.to/lastmile_qr_scan"}, "fusion_lon": 0.0, "lat": 38.892899166666666, "bike_id": "781b0f7e754bf0363e9be3d0851dead9", "type": "electric_scooter", "is_reserved": 0, "lon": -77.031915}, {"fusion_lat": 0.0, "name": "08ac466b498d5044d6d7c15254c140e7", "is_disabled": 0, "rental_uris": {"android": "https://dc.lft.to/lastmile_qr_scan", "ios": "https://dc.lft.to/lastmile_qr_scan"}, "fusion_lon": 0.0, "lat": 38.87164116666667, "bike_id": "08ac466b498d5044d6d7c15254c140e7", "type": "electric_scooter", "is_reserved": 0, "lon": -77.0056765}, {"fusion_lat": 0.0, "name": "73a69882e8ac3ed1b8ab07f1a521b3d6", "is_disabled": 0, "rental_uris": {"android": "https://dc.lft.to/lastmile_qr_scan", "ios": "https://dc.lft.to/lastmile_qr_scan"}, "fusion_lon": 0.0, "lat": 38.862249, "bike_id": "73a69882e8ac3ed1b8ab07f1a521b3d6", "type": "electric_bike", "is_reserved": 0, "lon": -77.05983116666667}, {"fusion_lat": 0.0, "name": "01828e222f5b746378a1fb97e435fa1c", "is_disabled": 0, "rental_uris": {"android": "https://dc.lft.to/lastmile_qr_scan", "ios": "https://dc.lft.to/lastmile_qr_scan"}, "fusion_lon": 0.0, "lat": 38.86666316666667, "bike_id": "01828e222f5b746378a1fb97e435fa1c", "type": "electric_scooter", "is_reserved": 0, "lon": -76.98904533333334}, {"fusion_lat": 0.0, "name": "84d9c0b79cb27207d361476953b4c973", "is_disabled": 0, "rental_uris": {"android": "https://dc.lft.to/lastmile_qr_scan", "ios": "https://dc.lft.to/lastmile_qr_scan"}, "fusion_lon": 0.0, "lat": 38.928474666666666, "bike_id": "84d9c0b79cb27207d361476953b4c973", "type": "electric_scooter", "is_reserved": 0, "lon": -77.029593}, {"fusion_lat": 0.0, "name": "7ab567a7a6afe2db8e798fbd0c3a9d20", "is_disabled": 0, "rental_uris": {"android": "https://dc.lft.to/lastmile_qr_scan", "ios": "https://dc.lft.to/lastmile_qr_scan"}, "fusion_lon": 0.0, "lat": 38.91760433333334, "bike_id": "7ab567a7a6afe2db8e798fbd0c3a9d20", "type": "electric_scooter", "is_reserved": 0, "lon": -77.03211383333333}, {"fusion_lat": 0.0, "name": "930f7058df4b32bc8684484e29b1b7b6", "is_disabled": 0, "rental_uris": {"android": "https://dc.lft.to/lastmile_qr_scan", "ios": "https://dc.lft.to/lastmile_qr_scan"}, "fusion_lon": 0.0, "lat": 38.929865666666664, "bike_id": "930f7058df4b32bc8684484e29b1b7b6", "type": "electric_scooter", "is_reserved": 0, "lon": -77.03242883333333}, {"fusion_lat": 0.0, "name": "c8ab9592283a7e9dd5f846488a8e5aea", "is_disabled": 0, "rental_uris": {"android": "https://dc.lft.to/lastmile_qr_scan", "ios": "https://dc.lft.to/lastmile_qr_scan"}, "fusion_lon": 0.0, "lat": 38.90299066666667, "bike_id": "c8ab9592283a7e9dd5f846488a8e5aea", "type": "electric_scooter", "is_reserved": 0, "lon": -77.049522}, {"fusion_lat": 0.0, "name": "a1bd76cbc2856ee3c48865491bd0928c", "is_disabled": 0, "rental_uris": {"android": "https://dc.lft.to/lastmile_qr_scan", "ios": "https://dc.lft.to/lastmile_qr_scan"}, "fusion_lon": 0.0, "lat": 38.8979965, "bike_id": "a1bd76cbc2856ee3c48865491bd0928c", "type": "electric_scooter", "is_reserved": 0, "lon": -76.9845885}, {"fusion_lat": 0.0, "name": "66e818a52c336aa3b975d73c3eaae0c1", "is_disabled": 0, "rental_uris": {"android": "https://dc.lft.to/lastmile_qr_scan", "ios": "https://dc.lft.to/lastmile_qr_scan"}, "fusion_lon": 0.0, "lat": 38.9169015, "bike_id": "66e818a52c336aa3b975d73c3eaae0c1", "type": "electric_scooter", "is_reserved": 0, "lon": -77.0384485}, {"fusion_lat": 0.0, "name": "4ab6728be358e5ca65f8514d60e74cf7", "is_disabled": 0, "rental_uris": {"android": "https://dc.lft.to/lastmile_qr_scan", "ios": "https://dc.lft.to/lastmile_qr_scan"}, "fusion_lon": 0.0, "lat": 38.858758, "bike_id": "4ab6728be358e5ca65f8514d60e74cf7", "type": "electric_bike", "is_reserved": 0, "lon": -77.09557716666667}, {"fusion_lat": 0.0, "name": "53953719ea6432848b342454515f55df", "is_disabled": 0, "rental_uris": {"android": "https://dc.lft.to/lastmile_qr_scan", "ios": "https://dc.lft.to/lastmile_qr_scan"}, "fusion_lon": 0.0, "lat": 38.900182, "bike_id": "53953719ea6432848b342454515f55df", "type": "electric_scooter", "is_reserved": 0, "lon": -76.98812366666667}, {"fusion_lat": 0.0, "name": "49acec00e28e1e5c7508872a039fe480", "is_disabled": 0, "rental_uris": {"android": "https://dc.lft.to/lastmile_qr_scan", "ios": "https://dc.lft.to/lastmile_qr_scan"}, "fusion_lon": 0.0, "lat": 38.9180205, "bike_id": "49acec00e28e1e5c7508872a039fe480", "type": "electric_scooter", "is_reserved": 0, "lon": -77.03444966666666}, {"fusion_lat": 0.0, "name": "262b81012388cb92a2f110dfa454d46a", "is_disabled": 0, "rental_uris": {"android": "https://dc.lft.to/lastmile_qr_scan", "ios": "https://dc.lft.to/lastmile_qr_scan"}, "fusion_lon": 0.0, "lat": 38.898368833333336, "bike_id": "262b81012388cb92a2f110dfa454d46a", "type": "electric_scooter", "is_reserved": 0, "lon": -77.03036483333334}, {"fusion_lat": 0.0, "name": "c247660e7737168212d849214e5669bc", "is_disabled": 0, "rental_uris": {"android": "https://dc.lft.to/lastmile_qr_scan", "ios": "https://dc.lft.to/lastmile_qr_scan"}, "fusion_lon": 0.0, "lat": 38.90230916666667, "bike_id": "c247660e7737168212d849214e5669bc", "type": "electric_scooter", "is_reserved": 0, "lon": -77.05295433333333}, {"fusion_lat": 0.0, "name": "cea55c9cdcc8c96f9a73539e225a95e6", "is_disabled": 0, "rental_uris": {"android": "https://dc.lft.to/lastmile_qr_scan", "ios": "https://dc.lft.to/lastmile_qr_scan"}, "fusion_lon": 0.0, "lat": 38.92725433333333, "bike_id": "cea55c9cdcc8c96f9a73539e225a95e6", "type": "electric_scooter", "is_reserved": 0, "lon": -77.0306465}, {"fusion_lat": 0.0, "name": "f603c7ecf71e22bd5eea63067430d1db", "is_disabled": 0, "rental_uris": {"android": "https://dc.lft.to/lastmile_qr_scan", "ios": "https://dc.lft.to/lastmile_qr_scan"}, "fusion_lon": 0.0, "lat": 38.87391016666667, "bike_id": "f603c7ecf71e22bd5eea63067430d1db", "type": "electric_scooter", "is_reserved": 0, "lon": -77.00128383333333}, {"fusion_lat": 0.0, "name": "d55d6b14dee94299d0c9059656c9d5ed", "is_disabled": 0, "rental_uris": {"android": "https://dc.lft.to/lastmile_qr_scan", "ios": "https://dc.lft.to/lastmile_qr_scan"}, "fusion_lon": 0.0, "lat": 38.81250766666667, "bike_id": "d55d6b14dee94299d0c9059656c9d5ed", "type": "electric_bike", "is_reserved": 0, "lon": -77.11762066666667}, {"fusion_lat": 0.0, "name": "d113792e21ce5b35e84616d25c1d5be2", "is_disabled": 0, "rental_uris": {"android": "https://dc.lft.to/lastmile_qr_scan", "ios": "https://dc.lft.to/lastmile_qr_scan"}, "fusion_lon": 0.0, "lat": 38.8928815, "bike_id": "d113792e21ce5b35e84616d25c1d5be2", "type": "electric_scooter", "is_reserved": 0, "lon": -76.93002666666666}, {"fusion_lat": 0.0, "name": "31ff592bfe9e4143365bfed6361c1ed6", "is_disabled": 0, "rental_uris": {"android": "https://dc.lft.to/lastmile_qr_scan", "ios": "https://dc.lft.to/lastmile_qr_scan"}, "fusion_lon": 0.0, "lat": 38.807077666666665, "bike_id": "31ff592bfe9e4143365bfed6361c1ed6", "type": "electric_bike", "is_reserved": 0, "lon": -77.06171}, {"fusion_lat": 0.0, "name": "6999bd22b8d342b4d39e81b34b3a66ba", "is_disabled": 0, "rental_uris": {"android": "https://dc.lft.to/lastmile_qr_scan", "ios": "https://dc.lft.to/lastmile_qr_scan"}, "fusion_lon": 0.0, "lat": 38.917746666666666, "bike_id": "6999bd22b8d342b4d39e81b34b3a66ba", "type": "electric_scooter", "is_reserved": 0, "lon": -77.02286233333334}, {"fusion_lat": 0.0, "name": "71d599901f807e3bc3078bdb540b2679", "is_disabled": 0, "rental_uris": {"android": "https://dc.lft.to/lastmile_qr_scan", "ios": "https://dc.lft.to/lastmile_qr_scan"}, "fusion_lon": 0.0, "lat": 38.900386833333336, "bike_id": "71d599901f807e3bc3078bdb540b2679", "type": "electric_scooter", "is_reserved": 0, "lon": -76.991581}, {"fusion_lat": 0.0, "name": "98e929e9bd468b42b87f99bf28be428e", "is_disabled": 0, "rental_uris": {"android": "https://dc.lft.to/lastmile_qr_scan", "ios": "https://dc.lft.to/lastmile_qr_scan"}, "fusion_lon": 0.0, "lat": 38.90402, "bike_id": "98e929e9bd468b42b87f99bf28be428e", "type": "electric_scooter", "is_reserved": 0, "lon": -77.06820366666666}, {"fusion_lat": 0.0, "name": "f596a7d2be82ba80fa053c9cfbf35ff3", "is_disabled": 0, "rental_uris": {"android": "https://dc.lft.to/lastmile_qr_scan", "ios": "https://dc.lft.to/lastmile_qr_scan"}, "fusion_lon": 0.0, "lat": 38.92671833333333, "bike_id": "f596a7d2be82ba80fa053c9cfbf35ff3", "type": "electric_scooter", "is_reserved": 0, "lon": -77.01473766666666}, {"fusion_lat": 0.0, "name": "ba3ac4d723c0a4c67a359e2978100641", "is_disabled": 0, "rental_uris": {"android": "https://dc.lft.to/lastmile_qr_scan", "ios": "https://dc.lft.to/lastmile_qr_scan"}, "fusion_lon": 0.0, "lat": 38.90750366666666, "bike_id": "ba3ac4d723c0a4c67a359e2978100641", "type": "electric_scooter", "is_reserved": 0, "lon": -76.93548016666666}, {"fusion_lat": 0.0, "name": "9bc8d7fb49b88377f3514aeaccab2e81", "is_disabled": 0, "rental_uris": {"android": "https://dc.lft.to/lastmile_qr_scan", "ios": "https://dc.lft.to/lastmile_qr_scan"}, "fusion_lon": 0.0, "lat": 38.819175333333334, "bike_id": "9bc8d7fb49b88377f3514aeaccab2e81", "type": "electric_bike", "is_reserved": 0, "lon": -77.04800816666666}, {"fusion_lat": 0.0, "name": "1bce15c37db7bf6458dd08d61edef572", "is_disabled": 0, "rental_uris": {"android": "https://dc.lft.to/lastmile_qr_scan", "ios": "https://dc.lft.to/lastmile_qr_scan"}, "fusion_lon": 0.0, "lat": 38.92236466666667, "bike_id": "1bce15c37db7bf6458dd08d61edef572", "type": "electric_scooter", "is_reserved": 0, "lon": -77.04244083333333}, {"fusion_lat": 0.0, "name": "5eae995a4e2bcb60195a7f3aa1521f38", "is_disabled": 0, "rental_uris": {"android": "https://dc.lft.to/lastmile_qr_scan", "ios": "https://dc.lft.to/lastmile_qr_scan"}, "fusion_lon": 0.0, "lat": 38.87947583333333, "bike_id": "5eae995a4e2bcb60195a7f3aa1521f38", "type": "electric_scooter", "is_reserved": 0, "lon": -77.00622916666667}, {"fusion_lat": 0.0, "name": "8b3ccba3542e016c43d2eae8bbcc9bac", "is_disabled": 0, "rental_uris": {"android": "https://dc.lft.to/lastmile_qr_scan", "ios": "https://dc.lft.to/lastmile_qr_scan"}, "fusion_lon": 0.0, "lat": 38.89221766666667, "bike_id": "8b3ccba3542e016c43d2eae8bbcc9bac", "type": "electric_scooter", "is_reserved": 0, "lon": -77.033378}, {"fusion_lat": 0.0, "name": "943063a9e2dacce3cc3f23b8714c75f3", "is_disabled": 0, "rental_uris": {"android": "https://dc.lft.to/lastmile_qr_scan", "ios": "https://dc.lft.to/lastmile_qr_scan"}, "fusion_lon": 0.0, "lat": 38.87485816666667, "bike_id": "943063a9e2dacce3cc3f23b8714c75f3", "type": "electric_scooter", "is_reserved": 0, "lon": -77.00606283333333}, {"fusion_lat": 0.0, "name": "72c326999d43d058cbb627b252102eaf", "is_disabled": 0, "rental_uris": {"android": "https://dc.lft.to/lastmile_qr_scan", "ios": "https://dc.lft.to/lastmile_qr_scan"}, "fusion_lon": 0.0, "lat": 38.88771066666666, "bike_id": "72c326999d43d058cbb627b252102eaf", "type": "electric_scooter", "is_reserved": 0, "lon": -76.99158083333333}, {"fusion_lat": 0.0, "name": "1612d28196f9139004ce10442d5ffc40", "is_disabled": 0, "rental_uris": {"android": "https://dc.lft.to/lastmile_qr_scan", "ios": "https://dc.lft.to/lastmile_qr_scan"}, "fusion_lon": 0.0, "lat": 38.88732916666667, "bike_id": "1612d28196f9139004ce10442d5ffc40", "type": "electric_scooter", "is_reserved": 0, "lon": -77.03173533333333}, {"fusion_lat": 0.0, "name": "a9f131dc236ba3ea7780e83cd13a0635", "is_disabled": 0, "rental_uris": {"android": "https://dc.lft.to/lastmile_qr_scan", "ios": "https://dc.lft.to/lastmile_qr_scan"}, "fusion_lon": 0.0, "lat": 38.92156266666667, "bike_id": "a9f131dc236ba3ea7780e83cd13a0635", "type": "electric_scooter", "is_reserved": 0, "lon": -77.04350683333334}, {"fusion_lat": 0.0, "name": "c5c4a49a6cf8c2cd6f8249644eead661", "is_disabled": 0, "rental_uris": {"android": "https://dc.lft.to/lastmile_qr_scan", "ios": "https://dc.lft.to/lastmile_qr_scan"}, "fusion_lon": 0.0, "lat": 38.9018295, "bike_id": "c5c4a49a6cf8c2cd6f8249644eead661", "type": "electric_scooter", "is_reserved": 0, "lon": -77.0505495}, {"fusion_lat": 0.0, "name": "c801925d2c902fd48e90f7d9d5f377e1", "is_disabled": 0, "rental_uris": {"android": "https://dc.lft.to/lastmile_qr_scan", "ios": "https://dc.lft.to/lastmile_qr_scan"}, "fusion_lon": 0.0, "lat": 38.912633166666666, "bike_id": "c801925d2c902fd48e90f7d9d5f377e1", "type": "electric_scooter", "is_reserved": 0, "lon": -77.0385875}, {"fusion_lat": 0.0, "name": "4905a667cede5c6eeaf3444b111dcfa9", "is_disabled": 0, "rental_uris": {"android": "https://dc.lft.to/lastmile_qr_scan", "ios": "https://dc.lft.to/lastmile_qr_scan"}, "fusion_lon": 0.0, "lat": 38.89928783333333, "bike_id": "4905a667cede5c6eeaf3444b111dcfa9", "type": "electric_scooter", "is_reserved": 0, "lon": -77.03887966666667}, {"fusion_lat": 0.0, "name": "750a13e3db362b767312af35158cbddb", "is_disabled": 0, "rental_uris": {"android": "https://dc.lft.to/lastmile_qr_scan", "ios": "https://dc.lft.to/lastmile_qr_scan"}, "fusion_lon": 0.0, "lat": 38.921342833333334, "bike_id": "750a13e3db362b767312af35158cbddb", "type": "electric_scooter", "is_reserved": 0, "lon": -77.00397533333333}, {"fusion_lat": 0.0, "name": "c0557301fd0fcb0646906576ec0dca2f", "is_disabled": 0, "rental_uris": {"android": "https://dc.lft.to/lastmile_qr_scan", "ios": "https://dc.lft.to/lastmile_qr_scan"}, "fusion_lon": 0.0, "lat": 38.978819, "bike_id": "c0557301fd0fcb0646906576ec0dca2f", "type": "electric_bike", "is_reserved": 0, "lon": -77.0602465}, {"fusion_lat": 0.0, "name": "f2a493f16c57c155f758acdbf6a90baf", "is_disabled": 0, "rental_uris": {"android": "https://dc.lft.to/lastmile_qr_scan", "ios": "https://dc.lft.to/lastmile_qr_scan"}, "fusion_lon": 0.0, "lat": 38.93984, "bike_id": "f2a493f16c57c155f758acdbf6a90baf", "type": "electric_scooter", "is_reserved": 0, "lon": -77.02901583333333}, {"fusion_lat": 0.0, "name": "6ecce452390636807d823c2f1146ef37", "is_disabled": 0, "rental_uris": {"android": "https://dc.lft.to/lastmile_qr_scan", "ios": "https://dc.lft.to/lastmile_qr_scan"}, "fusion_lon": 0.0, "lat": 38.90205666666667, "bike_id": "6ecce452390636807d823c2f1146ef37", "type": "electric_scooter", "is_reserved": 0, "lon": -77.0221495}, {"fusion_lat": 0.0, "name": "936f03d7f62273179b0e36a8de28fdf2", "is_disabled": 0, "rental_uris": {"android": "https://dc.lft.to/lastmile_qr_scan", "ios": "https://dc.lft.to/lastmile_qr_scan"}, "fusion_lon": 0.0, "lat": 38.9170305, "bike_id": "936f03d7f62273179b0e36a8de28fdf2", "type": "electric_scooter", "is_reserved": 0, "lon": -77.02864}, {"fusion_lat": 0.0, "name": "4268641ef8c05c14c9acf3fdd5b63777", "is_disabled": 0, "rental_uris": {"android": "https://dc.lft.to/lastmile_qr_scan", "ios": "https://dc.lft.to/lastmile_qr_scan"}, "fusion_lon": 0.0, "lat": 38.92345783333333, "bike_id": "4268641ef8c05c14c9acf3fdd5b63777", "type": "electric_scooter", "is_reserved": 0, "lon": -77.051716}, {"fusion_lat": 0.0, "name": "afc41132f09a6902f95f72d0c3ce48b5", "is_disabled": 0, "rental_uris": {"android": "https://dc.lft.to/lastmile_qr_scan", "ios": "https://dc.lft.to/lastmile_qr_scan"}, "fusion_lon": 0.0, "lat": 38.837532, "bike_id": "afc41132f09a6902f95f72d0c3ce48b5", "type": "electric_bike", "is_reserved": 0, "lon": -77.09298916666667}, {"fusion_lat": 0.0, "name": "b3ce7113b6cd3f57aea05d0b82481fba", "is_disabled": 0, "rental_uris": {"android": "https://dc.lft.to/lastmile_qr_scan", "ios": "https://dc.lft.to/lastmile_qr_scan"}, "fusion_lon": 0.0, "lat": 38.899860333333336, "bike_id": "b3ce7113b6cd3f57aea05d0b82481fba", "type": "electric_scooter", "is_reserved": 0, "lon": -77.0220945}, {"fusion_lat": 0.0, "name": "3a93ee48eaad707db29e7affd6d3e4ee", "is_disabled": 0, "rental_uris": {"android": "https://dc.lft.to/lastmile_qr_scan", "ios": "https://dc.lft.to/lastmile_qr_scan"}, "fusion_lon": 0.0, "lat": 38.935863499999996, "bike_id": "3a93ee48eaad707db29e7affd6d3e4ee", "type": "electric_scooter", "is_reserved": 0, "lon": -77.02847316666667}, {"fusion_lat": 0.0, "name": "f2c72aec5ef4370e9948ee49d06669c2", "is_disabled": 0, "rental_uris": {"android": "https://dc.lft.to/lastmile_qr_scan", "ios": "https://dc.lft.to/lastmile_qr_scan"}, "fusion_lon": 0.0, "lat": 38.9056625, "bike_id": "f2c72aec5ef4370e9948ee49d06669c2", "type": "electric_scooter", "is_reserved": 0, "lon": -77.0058085}, {"fusion_lat": 0.0, "name": "6de53ef3c87da081a06d7b50cdcc2cb9", "is_disabled": 0, "rental_uris": {"android": "https://dc.lft.to/lastmile_qr_scan", "ios": "https://dc.lft.to/lastmile_qr_scan"}, "fusion_lon": 0.0, "lat": 38.95761183333333, "bike_id": "6de53ef3c87da081a06d7b50cdcc2cb9", "type": "electric_scooter", "is_reserved": 0, "lon": -77.02059233333334}, {"fusion_lat": 0.0, "name": "8a92b045f77f1cbdfd8b8fba598e1f7e", "is_disabled": 0, "rental_uris": {"android": "https://dc.lft.to/lastmile_qr_scan", "ios": "https://dc.lft.to/lastmile_qr_scan"}, "fusion_lon": 0.0, "lat": 38.896747833333336, "bike_id": "8a92b045f77f1cbdfd8b8fba598e1f7e", "type": "electric_scooter", "is_reserved": 0, "lon": -77.05171916666667}, {"fusion_lat": 0.0, "name": "7d6ff4abb49326b882a7f2dc4e2c516d", "is_disabled": 0, "rental_uris": {"android": "https://dc.lft.to/lastmile_qr_scan", "ios": "https://dc.lft.to/lastmile_qr_scan"}, "fusion_lon": 0.0, "lat": 38.96153916666667, "bike_id": "7d6ff4abb49326b882a7f2dc4e2c516d", "type": "electric_scooter", "is_reserved": 0, "lon": -77.03240983333333}, {"fusion_lat": 0.0, "name": "21736dc9986aceee23a74ee22767613e", "is_disabled": 0, "rental_uris": {"android": "https://dc.lft.to/lastmile_qr_scan", "ios": "https://dc.lft.to/lastmile_qr_scan"}, "fusion_lon": 0.0, "lat": 38.92361266666666, "bike_id": "21736dc9986aceee23a74ee22767613e", "type": "electric_scooter", "is_reserved": 0, "lon": -77.05050683333333}, {"fusion_lat": 0.0, "name": "485ca0ffd302f6efabfea0991cc6e63e", "is_disabled": 0, "rental_uris": {"android": "https://dc.lft.to/lastmile_qr_scan", "ios": "https://dc.lft.to/lastmile_qr_scan"}, "fusion_lon": 0.0, "lat": 38.9199675, "bike_id": "485ca0ffd302f6efabfea0991cc6e63e", "type": "electric_bike", "is_reserved": 0, "lon": -77.04759366666667}, {"fusion_lat": 0.0, "name": "b726fc9475e47f5d03355114b1a9dd2f", "is_disabled": 0, "rental_uris": {"android": "https://dc.lft.to/lastmile_qr_scan", "ios": "https://dc.lft.to/lastmile_qr_scan"}, "fusion_lon": 0.0, "lat": 38.927525833333334, "bike_id": "b726fc9475e47f5d03355114b1a9dd2f", "type": "electric_scooter", "is_reserved": 0, "lon": -77.02425366666667}, {"fusion_lat": 0.0, "name": "133900c744e3722fd0bd44e718cd58f1", "is_disabled": 0, "rental_uris": {"android": "https://dc.lft.to/lastmile_qr_scan", "ios": "https://dc.lft.to/lastmile_qr_scan"}, "fusion_lon": 0.0, "lat": 38.9013085, "bike_id": "133900c744e3722fd0bd44e718cd58f1", "type": "electric_scooter", "is_reserved": 0, "lon": -77.00214733333334}, {"fusion_lat": 0.0, "name": "0db22a861f649c497cfd58f25aae390b", "is_disabled": 0, "rental_uris": {"android": "https://dc.lft.to/lastmile_qr_scan", "ios": "https://dc.lft.to/lastmile_qr_scan"}, "fusion_lon": 0.0, "lat": 38.916904333333335, "bike_id": "0db22a861f649c497cfd58f25aae390b", "type": "electric_scooter", "is_reserved": 0, "lon": -77.03767633333334}, {"fusion_lat": 0.0, "name": "6f6e7f4715244d7d89a9a3e9a3a54cf3", "is_disabled": 0, "rental_uris": {"android": "https://dc.lft.to/lastmile_qr_scan", "ios": "https://dc.lft.to/lastmile_qr_scan"}, "fusion_lon": 0.0, "lat": 38.875342333333336, "bike_id": "6f6e7f4715244d7d89a9a3e9a3a54cf3", "type": "electric_scooter", "is_reserved": 0, "lon": -77.00508116666667}, {"fusion_lat": 0.0, "name": "9e1b16e5d9a329ef4505daec1334dd47", "is_disabled": 0, "rental_uris": {"android": "https://dc.lft.to/lastmile_qr_scan", "ios": "https://dc.lft.to/lastmile_qr_scan"}, "fusion_lon": 0.0, "lat": 38.89545533333333, "bike_id": "9e1b16e5d9a329ef4505daec1334dd47", "type": "electric_scooter", "is_reserved": 0, "lon": -76.94944866666667}, {"fusion_lat": 0.0, "name": "ab9ae8ad754a050816115bf3eaee964b", "is_disabled": 0, "rental_uris": {"android": "https://dc.lft.to/lastmile_qr_scan", "ios": "https://dc.lft.to/lastmile_qr_scan"}, "fusion_lon": 0.0, "lat": 38.8718115, "bike_id": "ab9ae8ad754a050816115bf3eaee964b", "type": "electric_scooter", "is_reserved": 0, "lon": -77.00612383333333}, {"fusion_lat": 0.0, "name": "242ba3753a8fd8e17bef69e380ca6082", "is_disabled": 0, "rental_uris": {"android": "https://dc.lft.to/lastmile_qr_scan", "ios": "https://dc.lft.to/lastmile_qr_scan"}, "fusion_lon": 0.0, "lat": 38.936991666666664, "bike_id": "242ba3753a8fd8e17bef69e380ca6082", "type": "electric_scooter", "is_reserved": 0, "lon": -77.05596233333333}, {"fusion_lat": 0.0, "name": "10367cadcd7984e235ba638350d48ab4", "is_disabled": 0, "rental_uris": {"android": "https://dc.lft.to/lastmile_qr_scan", "ios": "https://dc.lft.to/lastmile_qr_scan"}, "fusion_lon": 0.0, "lat": 38.89661516666666, "bike_id": "10367cadcd7984e235ba638350d48ab4", "type": "electric_scooter", "is_reserved": 0, "lon": -77.033446}, {"fusion_lat": 0.0, "name": "982cb365d6be57f8d0c81fc19255c2aa", "is_disabled": 0, "rental_uris": {"android": "https://dc.lft.to/lastmile_qr_scan", "ios": "https://dc.lft.to/lastmile_qr_scan"}, "fusion_lon": 0.0, "lat": 38.88771333333333, "bike_id": "982cb365d6be57f8d0c81fc19255c2aa", "type": "electric_scooter", "is_reserved": 0, "lon": -77.02370633333334}, {"fusion_lat": 0.0, "name": "ee965b3e5aba110cdc202a92dfebdf98", "is_disabled": 0, "rental_uris": {"android": "https://dc.lft.to/lastmile_qr_scan", "ios": "https://dc.lft.to/lastmile_qr_scan"}, "fusion_lon": 0.0, "lat": 38.8853065, "bike_id": "ee965b3e5aba110cdc202a92dfebdf98", "type": "electric_scooter", "is_reserved": 0, "lon": -76.98267183333333}, {"fusion_lat": 0.0, "name": "8756fc2d85401f927b7a6389826fc676", "is_disabled": 0, "rental_uris": {"android": "https://dc.lft.to/lastmile_qr_scan", "ios": "https://dc.lft.to/lastmile_qr_scan"}, "fusion_lon": 0.0, "lat": 38.88734266666667, "bike_id": "8756fc2d85401f927b7a6389826fc676", "type": "electric_scooter", "is_reserved": 0, "lon": -77.01520666666667}, {"fusion_lat": 0.0, "name": "7399982ae32777e306e248f89f0020b9", "is_disabled": 0, "rental_uris": {"android": "https://dc.lft.to/lastmile_qr_scan", "ios": "https://dc.lft.to/lastmile_qr_scan"}, "fusion_lon": 0.0, "lat": 38.921261, "bike_id": "7399982ae32777e306e248f89f0020b9", "type": "electric_scooter", "is_reserved": 0, "lon": -77.0468225}, {"fusion_lat": 0.0, "name": "bffe9f1dd2417b2ffbe401e075c8e2ad", "is_disabled": 0, "rental_uris": {"android": "https://dc.lft.to/lastmile_qr_scan", "ios": "https://dc.lft.to/lastmile_qr_scan"}, "fusion_lon": 0.0, "lat": 38.891991166666664, "bike_id": "bffe9f1dd2417b2ffbe401e075c8e2ad", "type": "electric_scooter", "is_reserved": 0, "lon": -77.02221583333333}, {"fusion_lat": 0.0, "name": "8c63c7208e2038319e25b89cbf066c78", "is_disabled": 0, "rental_uris": {"android": "https://dc.lft.to/lastmile_qr_scan", "ios": "https://dc.lft.to/lastmile_qr_scan"}, "fusion_lon": 0.0, "lat": 38.887297, "bike_id": "8c63c7208e2038319e25b89cbf066c78", "type": "electric_scooter", "is_reserved": 0, "lon": -77.017695}, {"fusion_lat": 0.0, "name": "e6fbfcc3c4298440a0378b6a08d2dd57", "is_disabled": 0, "rental_uris": {"android": "https://dc.lft.to/lastmile_qr_scan", "ios": "https://dc.lft.to/lastmile_qr_scan"}, "fusion_lon": 0.0, "lat": 38.900674, "bike_id": "e6fbfcc3c4298440a0378b6a08d2dd57", "type": "electric_scooter", "is_reserved": 0, "lon": -76.92751233333334}, {"fusion_lat": 0.0, "name": "4c812e0f0f6c0b3a1e652cfa5eb57f72", "is_disabled": 0, "rental_uris": {"android": "https://dc.lft.to/lastmile_qr_scan", "ios": "https://dc.lft.to/lastmile_qr_scan"}, "fusion_lon": 0.0, "lat": 38.80762716666667, "bike_id": "4c812e0f0f6c0b3a1e652cfa5eb57f72", "type": "electric_bike", "is_reserved": 0, "lon": -77.12982183333334}, {"fusion_lat": 0.0, "name": "8aa61542ebe763aa9888d8688a7eedc3", "is_disabled": 0, "rental_uris": {"android": "https://dc.lft.to/lastmile_qr_scan", "ios": "https://dc.lft.to/lastmile_qr_scan"}, "fusion_lon": 0.0, "lat": 38.897310166666664, "bike_id": "8aa61542ebe763aa9888d8688a7eedc3", "type": "electric_scooter", "is_reserved": 0, "lon": -77.01912733333333}, {"fusion_lat": 0.0, "name": "0449f17fb92eddd13129efd068b7b200", "is_disabled": 0, "rental_uris": {"android": "https://dc.lft.to/lastmile_qr_scan", "ios": "https://dc.lft.to/lastmile_qr_scan"}, "fusion_lon": 0.0, "lat": 38.90973283333334, "bike_id": "0449f17fb92eddd13129efd068b7b200", "type": "electric_scooter", "is_reserved": 0, "lon": -77.03206016666667}, {"fusion_lat": 0.0, "name": "0d51bf49da54e8e32b27f337ada8aef5", "is_disabled": 0, "rental_uris": {"android": "https://dc.lft.to/lastmile_qr_scan", "ios": "https://dc.lft.to/lastmile_qr_scan"}, "fusion_lon": 0.0, "lat": 38.9272275, "bike_id": "0d51bf49da54e8e32b27f337ada8aef5", "type": "electric_bike", "is_reserved": 0, "lon": -77.02960933333334}, {"fusion_lat": 0.0, "name": "0ee6ee030d5cf4fa90e6ac38d7c67b45", "is_disabled": 0, "rental_uris": {"android": "https://dc.lft.to/lastmile_qr_scan", "ios": "https://dc.lft.to/lastmile_qr_scan"}, "fusion_lon": 0.0, "lat": 38.909384333333335, "bike_id": "0ee6ee030d5cf4fa90e6ac38d7c67b45", "type": "electric_scooter", "is_reserved": 0, "lon": -77.028204}, {"fusion_lat": 0.0, "name": "053707af88fa98b0644b3295f6234d0f", "is_disabled": 0, "rental_uris": {"android": "https://dc.lft.to/lastmile_qr_scan", "ios": "https://dc.lft.to/lastmile_qr_scan"}, "fusion_lon": 0.0, "lat": 38.90332, "bike_id": "053707af88fa98b0644b3295f6234d0f", "type": "electric_scooter", "is_reserved": 0, "lon": -77.04483266666666}, {"fusion_lat": 0.0, "name": "ba779e431b2cf4027431a9bbc750cf94", "is_disabled": 0, "rental_uris": {"android": "https://dc.lft.to/lastmile_qr_scan", "ios": "https://dc.lft.to/lastmile_qr_scan"}, "fusion_lon": 0.0, "lat": 38.90806366666666, "bike_id": "ba779e431b2cf4027431a9bbc750cf94", "type": "electric_scooter", "is_reserved": 0, "lon": -77.0295065}, {"fusion_lat": 0.0, "name": "4bbea2a3db498f86d60c25b931b9bbfc", "is_disabled": 0, "rental_uris": {"android": "https://dc.lft.to/lastmile_qr_scan", "ios": "https://dc.lft.to/lastmile_qr_scan"}, "fusion_lon": 0.0, "lat": 38.91255566666667, "bike_id": "4bbea2a3db498f86d60c25b931b9bbfc", "type": "electric_scooter", "is_reserved": 0, "lon": -77.028146}, {"fusion_lat": 0.0, "name": "628018b0a91d49f65c884d4d179d50ab", "is_disabled": 0, "rental_uris": {"android": "https://dc.lft.to/lastmile_qr_scan", "ios": "https://dc.lft.to/lastmile_qr_scan"}, "fusion_lon": 0.0, "lat": 38.895567166666666, "bike_id": "628018b0a91d49f65c884d4d179d50ab", "type": "electric_scooter", "is_reserved": 0, "lon": -76.948756}, {"fusion_lat": 0.0, "name": "28a930f2d169faccbe6c48883817258c", "is_disabled": 0, "rental_uris": {"android": "https://dc.lft.to/lastmile_qr_scan", "ios": "https://dc.lft.to/lastmile_qr_scan"}, "fusion_lon": 0.0, "lat": 38.9232025, "bike_id": "28a930f2d169faccbe6c48883817258c", "type": "electric_scooter", "is_reserved": 0, "lon": -77.04025516666667}, {"fusion_lat": 0.0, "name": "a8900ce10a15938a3df254f1b9f55bef", "is_disabled": 0, "rental_uris": {"android": "https://dc.lft.to/lastmile_qr_scan", "ios": "https://dc.lft.to/lastmile_qr_scan"}, "fusion_lon": 0.0, "lat": 38.899270666666666, "bike_id": "a8900ce10a15938a3df254f1b9f55bef", "type": "electric_scooter", "is_reserved": 0, "lon": -77.03888166666667}, {"fusion_lat": 0.0, "name": "cda5f9ea5e9e306d162c4109157c38d9", "is_disabled": 0, "rental_uris": {"android": "https://dc.lft.to/lastmile_qr_scan", "ios": "https://dc.lft.to/lastmile_qr_scan"}, "fusion_lon": 0.0, "lat": 38.91738216666667, "bike_id": "cda5f9ea5e9e306d162c4109157c38d9", "type": "electric_scooter", "is_reserved": 0, "lon": -77.0230445}, {"fusion_lat": 0.0, "name": "ef5124ba368ead1287934ebd646b2901", "is_disabled": 0, "rental_uris": {"android": "https://dc.lft.to/lastmile_qr_scan", "ios": "https://dc.lft.to/lastmile_qr_scan"}, "fusion_lon": 0.0, "lat": 38.90538816666667, "bike_id": "ef5124ba368ead1287934ebd646b2901", "type": "electric_bike", "is_reserved": 0, "lon": -76.998091}, {"fusion_lat": 0.0, "name": "4213b7af97878926a7fbe1c7f1714cbe", "is_disabled": 0, "rental_uris": {"android": "https://dc.lft.to/lastmile_qr_scan", "ios": "https://dc.lft.to/lastmile_qr_scan"}, "fusion_lon": 0.0, "lat": 38.900332166666665, "bike_id": "4213b7af97878926a7fbe1c7f1714cbe", "type": "electric_scooter", "is_reserved": 0, "lon": -76.99638516666667}, {"fusion_lat": 0.0, "name": "879d3c8cc80cda22c91b2b3f46682269", "is_disabled": 0, "rental_uris": {"android": "https://dc.lft.to/lastmile_qr_scan", "ios": "https://dc.lft.to/lastmile_qr_scan"}, "fusion_lon": 0.0, "lat": 38.87747483333333, "bike_id": "879d3c8cc80cda22c91b2b3f46682269", "type": "electric_scooter", "is_reserved": 0, "lon": -77.00340416666667}, {"fusion_lat": 0.0, "name": "59ac74a5db746d9ac3b7f0719d2ccd64", "is_disabled": 0, "rental_uris": {"android": "https://dc.lft.to/lastmile_qr_scan", "ios": "https://dc.lft.to/lastmile_qr_scan"}, "fusion_lon": 0.0, "lat": 38.9130765, "bike_id": "59ac74a5db746d9ac3b7f0719d2ccd64", "type": "electric_scooter", "is_reserved": 0, "lon": -77.0416795}, {"fusion_lat": 0.0, "name": "03763ef3291e04f495c0d1a8adcc0b40", "is_disabled": 0, "rental_uris": {"android": "https://dc.lft.to/lastmile_qr_scan", "ios": "https://dc.lft.to/lastmile_qr_scan"}, "fusion_lon": 0.0, "lat": 38.902746, "bike_id": "03763ef3291e04f495c0d1a8adcc0b40", "type": "electric_scooter", "is_reserved": 0, "lon": -77.00536183333334}, {"fusion_lat": 0.0, "name": "082fc063cdf158ef7006584be893bb26", "is_disabled": 0, "rental_uris": {"android": "https://dc.lft.to/lastmile_qr_scan", "ios": "https://dc.lft.to/lastmile_qr_scan"}, "fusion_lon": 0.0, "lat": 38.912004, "bike_id": "082fc063cdf158ef7006584be893bb26", "type": "electric_scooter", "is_reserved": 0, "lon": -77.0018715}, {"fusion_lat": 0.0, "name": "60a9648f16616c4d4ea7d40429fd5e51", "is_disabled": 0, "rental_uris": {"android": "https://dc.lft.to/lastmile_qr_scan", "ios": "https://dc.lft.to/lastmile_qr_scan"}, "fusion_lon": 0.0, "lat": 38.92727466666667, "bike_id": "60a9648f16616c4d4ea7d40429fd5e51", "type": "electric_scooter", "is_reserved": 0, "lon": -77.02309216666667}, {"fusion_lat": 0.0, "name": "b4059c6f193eb401e52a750c5f1d446c", "is_disabled": 0, "rental_uris": {"android": "https://dc.lft.to/lastmile_qr_scan", "ios": "https://dc.lft.to/lastmile_qr_scan"}, "fusion_lon": 0.0, "lat": 38.8784305, "bike_id": "b4059c6f193eb401e52a750c5f1d446c", "type": "electric_scooter", "is_reserved": 0, "lon": -77.001111}, {"fusion_lat": 0.0, "name": "37131c7fe42568779ded0ab53a736ec5", "is_disabled": 0, "rental_uris": {"android": "https://dc.lft.to/lastmile_qr_scan", "ios": "https://dc.lft.to/lastmile_qr_scan"}, "fusion_lon": 0.0, "lat": 38.90733, "bike_id": "37131c7fe42568779ded0ab53a736ec5", "type": "electric_scooter", "is_reserved": 0, "lon": -77.04148416666666}, {"fusion_lat": 0.0, "name": "e0ed0451fd11c65cde03dce80f17026d", "is_disabled": 0, "rental_uris": {"android": "https://dc.lft.to/lastmile_qr_scan", "ios": "https://dc.lft.to/lastmile_qr_scan"}, "fusion_lon": 0.0, "lat": 38.874692333333336, "bike_id": "e0ed0451fd11c65cde03dce80f17026d", "type": "electric_scooter", "is_reserved": 0, "lon": -77.00465083333333}, {"fusion_lat": 0.0, "name": "b2930f839531a63c70e37b86f71919ed", "is_disabled": 0, "rental_uris": {"android": "https://dc.lft.to/lastmile_qr_scan", "ios": "https://dc.lft.to/lastmile_qr_scan"}, "fusion_lon": 0.0, "lat": 38.903908666666666, "bike_id": "b2930f839531a63c70e37b86f71919ed", "type": "electric_scooter", "is_reserved": 0, "lon": -77.03441816666667}, {"fusion_lat": 0.0, "name": "6c54389759b9ecc5a455ec55c027ed65", "is_disabled": 0, "rental_uris": {"android": "https://dc.lft.to/lastmile_qr_scan", "ios": "https://dc.lft.to/lastmile_qr_scan"}, "fusion_lon": 0.0, "lat": 38.92092916666667, "bike_id": "6c54389759b9ecc5a455ec55c027ed65", "type": "electric_scooter", "is_reserved": 0, "lon": -77.02407933333333}, {"fusion_lat": 0.0, "name": "12b768b759e7647b91ff4c0c38a704d3", "is_disabled": 0, "rental_uris": {"android": "https://dc.lft.to/lastmile_qr_scan", "ios": "https://dc.lft.to/lastmile_qr_scan"}, "fusion_lon": 0.0, "lat": 38.907307, "bike_id": "12b768b759e7647b91ff4c0c38a704d3", "type": "electric_scooter", "is_reserved": 0, "lon": -77.03252566666667}, {"fusion_lat": 0.0, "name": "7ca49986d23a07898bcbc3faa294d9f5", "is_disabled": 0, "rental_uris": {"android": "https://dc.lft.to/lastmile_qr_scan", "ios": "https://dc.lft.to/lastmile_qr_scan"}, "fusion_lon": 0.0, "lat": 38.908422333333334, "bike_id": "7ca49986d23a07898bcbc3faa294d9f5", "type": "electric_scooter", "is_reserved": 0, "lon": -77.03832883333334}, {"fusion_lat": 0.0, "name": "9aa940b7c362057961ade4dc1116216a", "is_disabled": 0, "rental_uris": {"android": "https://dc.lft.to/lastmile_qr_scan", "ios": "https://dc.lft.to/lastmile_qr_scan"}, "fusion_lon": 0.0, "lat": 38.921371, "bike_id": "9aa940b7c362057961ade4dc1116216a", "type": "electric_scooter", "is_reserved": 0, "lon": -77.0250945}, {"fusion_lat": 0.0, "name": "e695e7a66a86cb394ea604d585ea00ce", "is_disabled": 0, "rental_uris": {"android": "https://dc.lft.to/lastmile_qr_scan", "ios": "https://dc.lft.to/lastmile_qr_scan"}, "fusion_lon": 0.0, "lat": 38.923144, "bike_id": "e695e7a66a86cb394ea604d585ea00ce", "type": "electric_bike", "is_reserved": 0, "lon": -76.99360816666666}, {"fusion_lat": 0.0, "name": "5d652a804ea505c3e7c4e2338ee83887", "is_disabled": 0, "rental_uris": {"android": "https://dc.lft.to/lastmile_qr_scan", "ios": "https://dc.lft.to/lastmile_qr_scan"}, "fusion_lon": 0.0, "lat": 38.912588, "bike_id": "5d652a804ea505c3e7c4e2338ee83887", "type": "electric_scooter", "is_reserved": 0, "lon": -77.03497333333334}, {"fusion_lat": 0.0, "name": "1d0f980b79cf9bbf95e05729c17460a2", "is_disabled": 0, "rental_uris": {"android": "https://dc.lft.to/lastmile_qr_scan", "ios": "https://dc.lft.to/lastmile_qr_scan"}, "fusion_lon": 0.0, "lat": 38.937059166666664, "bike_id": "1d0f980b79cf9bbf95e05729c17460a2", "type": "electric_scooter", "is_reserved": 0, "lon": -77.02427916666667}, {"fusion_lat": 0.0, "name": "b7f69231226c6ce6bf1216f9cf31119a", "is_disabled": 0, "rental_uris": {"android": "https://dc.lft.to/lastmile_qr_scan", "ios": "https://dc.lft.to/lastmile_qr_scan"}, "fusion_lon": 0.0, "lat": 38.92876433333333, "bike_id": "b7f69231226c6ce6bf1216f9cf31119a", "type": "electric_scooter", "is_reserved": 0, "lon": -77.01358516666667}, {"fusion_lat": 0.0, "name": "ed2c4ac50c6f74964148b28b93d11c34", "is_disabled": 0, "rental_uris": {"android": "https://dc.lft.to/lastmile_qr_scan", "ios": "https://dc.lft.to/lastmile_qr_scan"}, "fusion_lon": 0.0, "lat": 38.89922166666667, "bike_id": "ed2c4ac50c6f74964148b28b93d11c34", "type": "electric_scooter", "is_reserved": 0, "lon": -77.03896966666667}, {"fusion_lat": 0.0, "name": "639f243a59eef88bedb7908f10280e20", "is_disabled": 0, "rental_uris": {"android": "https://dc.lft.to/lastmile_qr_scan", "ios": "https://dc.lft.to/lastmile_qr_scan"}, "fusion_lon": 0.0, "lat": 38.88994433333333, "bike_id": "639f243a59eef88bedb7908f10280e20", "type": "electric_scooter", "is_reserved": 0, "lon": -76.983785}, {"fusion_lat": 0.0, "name": "9c6698d08b27bb95f085f41512a6069e", "is_disabled": 0, "rental_uris": {"android": "https://dc.lft.to/lastmile_qr_scan", "ios": "https://dc.lft.to/lastmile_qr_scan"}, "fusion_lon": 0.0, "lat": 38.91565416666667, "bike_id": "9c6698d08b27bb95f085f41512a6069e", "type": "electric_scooter", "is_reserved": 0, "lon": -77.03851416666667}, {"fusion_lat": 0.0, "name": "62d1507480ae6289addf64f888a84365", "is_disabled": 0, "rental_uris": {"android": "https://dc.lft.to/lastmile_qr_scan", "ios": "https://dc.lft.to/lastmile_qr_scan"}, "fusion_lon": 0.0, "lat": 38.903770333333334, "bike_id": "62d1507480ae6289addf64f888a84365", "type": "electric_scooter", "is_reserved": 0, "lon": -77.04006283333334}, {"fusion_lat": 0.0, "name": "438d3c6cfb62fbd396650680147dda47", "is_disabled": 0, "rental_uris": {"android": "https://dc.lft.to/lastmile_qr_scan", "ios": "https://dc.lft.to/lastmile_qr_scan"}, "fusion_lon": 0.0, "lat": 38.89778283333333, "bike_id": "438d3c6cfb62fbd396650680147dda47", "type": "electric_scooter", "is_reserved": 0, "lon": -77.02730316666667}, {"fusion_lat": 0.0, "name": "709e8b5eaf30f16bcf713bd283f57bea", "is_disabled": 0, "rental_uris": {"android": "https://dc.lft.to/lastmile_qr_scan", "ios": "https://dc.lft.to/lastmile_qr_scan"}, "fusion_lon": 0.0, "lat": 38.9163605, "bike_id": "709e8b5eaf30f16bcf713bd283f57bea", "type": "electric_scooter", "is_reserved": 0, "lon": -77.05075183333334}, {"fusion_lat": 0.0, "name": "75a9e132c2716f0fc3b4bb975d6f4c9c", "is_disabled": 0, "rental_uris": {"android": "https://dc.lft.to/lastmile_qr_scan", "ios": "https://dc.lft.to/lastmile_qr_scan"}, "fusion_lon": 0.0, "lat": 38.89355116666667, "bike_id": "75a9e132c2716f0fc3b4bb975d6f4c9c", "type": "electric_scooter", "is_reserved": 0, "lon": -76.98654983333333}, {"fusion_lat": 0.0, "name": "308f9e1f30178cf206cf6eb4d6704130", "is_disabled": 0, "rental_uris": {"android": "https://dc.lft.to/lastmile_qr_scan", "ios": "https://dc.lft.to/lastmile_qr_scan"}, "fusion_lon": 0.0, "lat": 38.900007, "bike_id": "308f9e1f30178cf206cf6eb4d6704130", "type": "electric_scooter", "is_reserved": 0, "lon": -76.99837633333334}, {"fusion_lat": 0.0, "name": "ce2e2db22c2640b6aa6f33525001a79e", "is_disabled": 0, "rental_uris": {"android": "https://dc.lft.to/lastmile_qr_scan", "ios": "https://dc.lft.to/lastmile_qr_scan"}, "fusion_lon": 0.0, "lat": 38.898450833333335, "bike_id": "ce2e2db22c2640b6aa6f33525001a79e", "type": "electric_scooter", "is_reserved": 0, "lon": -76.94258583333334}, {"fusion_lat": 0.0, "name": "b34547f9681d1139a176b9d73b491c06", "is_disabled": 0, "rental_uris": {"android": "https://dc.lft.to/lastmile_qr_scan", "ios": "https://dc.lft.to/lastmile_qr_scan"}, "fusion_lon": 0.0, "lat": 38.931831833333334, "bike_id": "b34547f9681d1139a176b9d73b491c06", "type": "electric_scooter", "is_reserved": 0, "lon": -77.033006}, {"fusion_lat": 0.0, "name": "0e031b1cb7ad4aa328bc1340582528e6", "is_disabled": 0, "rental_uris": {"android": "https://dc.lft.to/lastmile_qr_scan", "ios": "https://dc.lft.to/lastmile_qr_scan"}, "fusion_lon": 0.0, "lat": 38.918527, "bike_id": "0e031b1cb7ad4aa328bc1340582528e6", "type": "electric_scooter", "is_reserved": 0, "lon": -77.02307683333333}, {"fusion_lat": 0.0, "name": "881412c1adca48cc86ff5d2ef3a3adbe", "is_disabled": 0, "rental_uris": {"android": "https://dc.lft.to/lastmile_qr_scan", "ios": "https://dc.lft.to/lastmile_qr_scan"}, "fusion_lon": 0.0, "lat": 38.92289016666667, "bike_id": "881412c1adca48cc86ff5d2ef3a3adbe", "type": "electric_scooter", "is_reserved": 0, "lon": -77.02950383333334}, {"fusion_lat": 0.0, "name": "4ff245517c6dff9fc1bb603cc0cbca55", "is_disabled": 0, "rental_uris": {"android": "https://dc.lft.to/lastmile_qr_scan", "ios": "https://dc.lft.to/lastmile_qr_scan"}, "fusion_lon": 0.0, "lat": 38.897171, "bike_id": "4ff245517c6dff9fc1bb603cc0cbca55", "type": "electric_scooter", "is_reserved": 0, "lon": -77.007939}, {"fusion_lat": 0.0, "name": "2185ca8dd25cc1d7c98678eb1a5528a8", "is_disabled": 0, "rental_uris": {"android": "https://dc.lft.to/lastmile_qr_scan", "ios": "https://dc.lft.to/lastmile_qr_scan"}, "fusion_lon": 0.0, "lat": 38.901657666666665, "bike_id": "2185ca8dd25cc1d7c98678eb1a5528a8", "type": "electric_scooter", "is_reserved": 0, "lon": -77.026118}, {"fusion_lat": 0.0, "name": "15ea0efef1feb02c87fae7f958131577", "is_disabled": 0, "rental_uris": {"android": "https://dc.lft.to/lastmile_qr_scan", "ios": "https://dc.lft.to/lastmile_qr_scan"}, "fusion_lon": 0.0, "lat": 38.892185166666664, "bike_id": "15ea0efef1feb02c87fae7f958131577", "type": "electric_scooter", "is_reserved": 0, "lon": -77.0230805}, {"fusion_lat": 0.0, "name": "416eaf73cbdb15cbbc61e56f8033ccfd", "is_disabled": 0, "rental_uris": {"android": "https://dc.lft.to/lastmile_qr_scan", "ios": "https://dc.lft.to/lastmile_qr_scan"}, "fusion_lon": 0.0, "lat": 38.9226155, "bike_id": "416eaf73cbdb15cbbc61e56f8033ccfd", "type": "electric_bike", "is_reserved": 0, "lon": -76.98651316666667}, {"fusion_lat": 0.0, "name": "d34e12898df1ff47448681f24e09054b", "is_disabled": 0, "rental_uris": {"android": "https://dc.lft.to/lastmile_qr_scan", "ios": "https://dc.lft.to/lastmile_qr_scan"}, "fusion_lon": 0.0, "lat": 38.93414966666667, "bike_id": "d34e12898df1ff47448681f24e09054b", "type": "electric_scooter", "is_reserved": 0, "lon": -77.02202166666666}, {"fusion_lat": 0.0, "name": "763ba77be5c51a5d50ed391d7bda9f95", "is_disabled": 0, "rental_uris": {"android": "https://dc.lft.to/lastmile_qr_scan", "ios": "https://dc.lft.to/lastmile_qr_scan"}, "fusion_lon": 0.0, "lat": 38.9023465, "bike_id": "763ba77be5c51a5d50ed391d7bda9f95", "type": "electric_scooter", "is_reserved": 0, "lon": -77.03243683333334}, {"fusion_lat": 0.0, "name": "5975e157a66a71eec943f7dce493642f", "is_disabled": 0, "rental_uris": {"android": "https://dc.lft.to/lastmile_qr_scan", "ios": "https://dc.lft.to/lastmile_qr_scan"}, "fusion_lon": 0.0, "lat": 38.905617166666666, "bike_id": "5975e157a66a71eec943f7dce493642f", "type": "electric_scooter", "is_reserved": 0, "lon": -77.04666016666667}, {"fusion_lat": 0.0, "name": "721a80c322575bb163d45e84c7dafdba", "is_disabled": 0, "rental_uris": {"android": "https://dc.lft.to/lastmile_qr_scan", "ios": "https://dc.lft.to/lastmile_qr_scan"}, "fusion_lon": 0.0, "lat": 38.9011185, "bike_id": "721a80c322575bb163d45e84c7dafdba", "type": "electric_scooter", "is_reserved": 0, "lon": -77.0335455}, {"fusion_lat": 0.0, "name": "b0079df1f7548273b9973842a7a8f2d6", "is_disabled": 0, "rental_uris": {"android": "https://dc.lft.to/lastmile_qr_scan", "ios": "https://dc.lft.to/lastmile_qr_scan"}, "fusion_lon": 0.0, "lat": 38.908984333333336, "bike_id": "b0079df1f7548273b9973842a7a8f2d6", "type": "electric_scooter", "is_reserved": 0, "lon": -77.0440295}, {"fusion_lat": 0.0, "name": "07396532f0d48c7aa0736499c7993287", "is_disabled": 0, "rental_uris": {"android": "https://dc.lft.to/lastmile_qr_scan", "ios": "https://dc.lft.to/lastmile_qr_scan"}, "fusion_lon": 0.0, "lat": 38.90020483333333, "bike_id": "07396532f0d48c7aa0736499c7993287", "type": "electric_scooter", "is_reserved": 0, "lon": -76.99328166666666}, {"fusion_lat": 0.0, "name": "b0a52ce14d1fe85914fe345ec6dc511a", "is_disabled": 0, "rental_uris": {"android": "https://dc.lft.to/lastmile_qr_scan", "ios": "https://dc.lft.to/lastmile_qr_scan"}, "fusion_lon": 0.0, "lat": 38.95419, "bike_id": "b0a52ce14d1fe85914fe345ec6dc511a", "type": "electric_scooter", "is_reserved": 0, "lon": -77.02770316666667}, {"fusion_lat": 0.0, "name": "d5f4e0f08ed20b25038accaea7a80653", "is_disabled": 0, "rental_uris": {"android": "https://dc.lft.to/lastmile_qr_scan", "ios": "https://dc.lft.to/lastmile_qr_scan"}, "fusion_lon": 0.0, "lat": 38.914622333333334, "bike_id": "d5f4e0f08ed20b25038accaea7a80653", "type": "electric_scooter", "is_reserved": 0, "lon": -77.00215466666667}, {"fusion_lat": 0.0, "name": "2a6c5d5523d58f57c282611372638d6e", "is_disabled": 0, "rental_uris": {"android": "https://dc.lft.to/lastmile_qr_scan", "ios": "https://dc.lft.to/lastmile_qr_scan"}, "fusion_lon": 0.0, "lat": 38.9004175, "bike_id": "2a6c5d5523d58f57c282611372638d6e", "type": "electric_scooter", "is_reserved": 0, "lon": -76.99149783333333}, {"fusion_lat": 0.0, "name": "f56e5e6cc17d0ddbe526c17389ff6142", "is_disabled": 0, "rental_uris": {"android": "https://dc.lft.to/lastmile_qr_scan", "ios": "https://dc.lft.to/lastmile_qr_scan"}, "fusion_lon": 0.0, "lat": 38.95031683333333, "bike_id": "f56e5e6cc17d0ddbe526c17389ff6142", "type": "electric_scooter", "is_reserved": 0, "lon": -77.08031933333334}, {"fusion_lat": 0.0, "name": "0b39d82eb30a8871ae0b2132a42a0ee3", "is_disabled": 0, "rental_uris": {"android": "https://dc.lft.to/lastmile_qr_scan", "ios": "https://dc.lft.to/lastmile_qr_scan"}, "fusion_lon": 0.0, "lat": 38.9037445, "bike_id": "0b39d82eb30a8871ae0b2132a42a0ee3", "type": "electric_scooter", "is_reserved": 0, "lon": -77.009803}, {"fusion_lat": 0.0, "name": "b0026f1cb400f977683de3347a214770", "is_disabled": 0, "rental_uris": {"android": "https://dc.lft.to/lastmile_qr_scan", "ios": "https://dc.lft.to/lastmile_qr_scan"}, "fusion_lon": 0.0, "lat": 38.88378733333333, "bike_id": "b0026f1cb400f977683de3347a214770", "type": "electric_scooter", "is_reserved": 0, "lon": -76.9951235}, {"fusion_lat": 0.0, "name": "f509fda4155682d2846752edcab18f87", "is_disabled": 0, "rental_uris": {"android": "https://dc.lft.to/lastmile_qr_scan", "ios": "https://dc.lft.to/lastmile_qr_scan"}, "fusion_lon": 0.0, "lat": 38.892207666666664, "bike_id": "f509fda4155682d2846752edcab18f87", "type": "electric_scooter", "is_reserved": 0, "lon": -77.02661466666666}, {"fusion_lat": 0.0, "name": "ac1bc289ad133759fc7c25019180367d", "is_disabled": 0, "rental_uris": {"android": "https://dc.lft.to/lastmile_qr_scan", "ios": "https://dc.lft.to/lastmile_qr_scan"}, "fusion_lon": 0.0, "lat": 38.941849, "bike_id": "ac1bc289ad133759fc7c25019180367d", "type": "electric_scooter", "is_reserved": 0, "lon": -77.0261425}, {"fusion_lat": 0.0, "name": "e2c092bc690c1eba16e8cdc5e4d83db5", "is_disabled": 0, "rental_uris": {"android": "https://dc.lft.to/lastmile_qr_scan", "ios": "https://dc.lft.to/lastmile_qr_scan"}, "fusion_lon": 0.0, "lat": 38.9283575, "bike_id": "e2c092bc690c1eba16e8cdc5e4d83db5", "type": "electric_scooter", "is_reserved": 0, "lon": -77.03271216666667}, {"fusion_lat": 0.0, "name": "8be2fa2bded15b46bc4a1674bb22b987", "is_disabled": 0, "rental_uris": {"android": "https://dc.lft.to/lastmile_qr_scan", "ios": "https://dc.lft.to/lastmile_qr_scan"}, "fusion_lon": 0.0, "lat": 38.9172385, "bike_id": "8be2fa2bded15b46bc4a1674bb22b987", "type": "electric_scooter", "is_reserved": 0, "lon": -77.02298666666667}, {"fusion_lat": 0.0, "name": "caa717e8e3e4f9aa1ccc5d9be85216b5", "is_disabled": 0, "rental_uris": {"android": "https://dc.lft.to/lastmile_qr_scan", "ios": "https://dc.lft.to/lastmile_qr_scan"}, "fusion_lon": 0.0, "lat": 38.90014866666667, "bike_id": "caa717e8e3e4f9aa1ccc5d9be85216b5", "type": "electric_scooter", "is_reserved": 0, "lon": -77.04478666666667}, {"fusion_lat": 0.0, "name": "3979760cf60c0d39f4e0230f56f21dca", "is_disabled": 0, "rental_uris": {"android": "https://dc.lft.to/lastmile_qr_scan", "ios": "https://dc.lft.to/lastmile_qr_scan"}, "fusion_lon": 0.0, "lat": 38.92416016666667, "bike_id": "3979760cf60c0d39f4e0230f56f21dca", "type": "electric_scooter", "is_reserved": 0, "lon": -77.02704766666666}, {"fusion_lat": 0.0, "name": "ac5b489491964dc676d6c09cf72c70fb", "is_disabled": 0, "rental_uris": {"android": "https://dc.lft.to/lastmile_qr_scan", "ios": "https://dc.lft.to/lastmile_qr_scan"}, "fusion_lon": 0.0, "lat": 38.900399666666665, "bike_id": "ac5b489491964dc676d6c09cf72c70fb", "type": "electric_scooter", "is_reserved": 0, "lon": -77.001977}, {"fusion_lat": 0.0, "name": "16c633fcfb4f36faacdadb9d7d91c108", "is_disabled": 0, "rental_uris": {"android": "https://dc.lft.to/lastmile_qr_scan", "ios": "https://dc.lft.to/lastmile_qr_scan"}, "fusion_lon": 0.0, "lat": 38.92133533333333, "bike_id": "16c633fcfb4f36faacdadb9d7d91c108", "type": "electric_scooter", "is_reserved": 0, "lon": -77.02524133333333}, {"fusion_lat": 0.0, "name": "ce546589b0c444608768e9e116cf56b9", "is_disabled": 0, "rental_uris": {"android": "https://dc.lft.to/lastmile_qr_scan", "ios": "https://dc.lft.to/lastmile_qr_scan"}, "fusion_lon": 0.0, "lat": 38.916539, "bike_id": "ce546589b0c444608768e9e116cf56b9", "type": "electric_scooter", "is_reserved": 0, "lon": -77.02271416666666}, {"fusion_lat": 0.0, "name": "88f2df82ed0313528854d57dac5a6e54", "is_disabled": 0, "rental_uris": {"android": "https://dc.lft.to/lastmile_qr_scan", "ios": "https://dc.lft.to/lastmile_qr_scan"}, "fusion_lon": 0.0, "lat": 38.884590333333335, "bike_id": "88f2df82ed0313528854d57dac5a6e54", "type": "electric_bike", "is_reserved": 0, "lon": -76.95225566666667}, {"fusion_lat": 0.0, "name": "e81656f5d47a14badadeac6d3b096192", "is_disabled": 0, "rental_uris": {"android": "https://dc.lft.to/lastmile_qr_scan", "ios": "https://dc.lft.to/lastmile_qr_scan"}, "fusion_lon": 0.0, "lat": 38.93088516666667, "bike_id": "e81656f5d47a14badadeac6d3b096192", "type": "electric_scooter", "is_reserved": 0, "lon": -77.0199775}, {"fusion_lat": 0.0, "name": "d5c3cc0274fc3389fb55b4bd8b3c5e64", "is_disabled": 0, "rental_uris": {"android": "https://dc.lft.to/lastmile_qr_scan", "ios": "https://dc.lft.to/lastmile_qr_scan"}, "fusion_lon": 0.0, "lat": 38.9224075, "bike_id": "d5c3cc0274fc3389fb55b4bd8b3c5e64", "type": "electric_scooter", "is_reserved": 0, "lon": -77.0366095}, {"fusion_lat": 0.0, "name": "396bfe297a7d3387301b1e8b4e1a2938", "is_disabled": 0, "rental_uris": {"android": "https://dc.lft.to/lastmile_qr_scan", "ios": "https://dc.lft.to/lastmile_qr_scan"}, "fusion_lon": 0.0, "lat": 38.993860166666664, "bike_id": "396bfe297a7d3387301b1e8b4e1a2938", "type": "electric_bike", "is_reserved": 0, "lon": -76.928841}, {"fusion_lat": 0.0, "name": "d8161f42b0e946d6e1c34ca3199fd37c", "is_disabled": 0, "rental_uris": {"android": "https://dc.lft.to/lastmile_qr_scan", "ios": "https://dc.lft.to/lastmile_qr_scan"}, "fusion_lon": 0.0, "lat": 38.949233, "bike_id": "d8161f42b0e946d6e1c34ca3199fd37c", "type": "electric_bike", "is_reserved": 0, "lon": -77.00794916666666}, {"fusion_lat": 0.0, "name": "88aaec0425a19b8b1f33c0908d082cef", "is_disabled": 0, "rental_uris": {"android": "https://dc.lft.to/lastmile_qr_scan", "ios": "https://dc.lft.to/lastmile_qr_scan"}, "fusion_lon": 0.0, "lat": 38.92477933333333, "bike_id": "88aaec0425a19b8b1f33c0908d082cef", "type": "electric_scooter", "is_reserved": 0, "lon": -77.03526816666667}, {"fusion_lat": 0.0, "name": "d73edfe77a0c00db82911d43e9fd46a8", "is_disabled": 0, "rental_uris": {"android": "https://dc.lft.to/lastmile_qr_scan", "ios": "https://dc.lft.to/lastmile_qr_scan"}, "fusion_lon": 0.0, "lat": 38.920862666666665, "bike_id": "d73edfe77a0c00db82911d43e9fd46a8", "type": "electric_scooter", "is_reserved": 0, "lon": -77.024065}, {"fusion_lat": 0.0, "name": "320b09dac9f58436ad756ed016019756", "is_disabled": 0, "rental_uris": {"android": "https://dc.lft.to/lastmile_qr_scan", "ios": "https://dc.lft.to/lastmile_qr_scan"}, "fusion_lon": 0.0, "lat": 38.901287833333335, "bike_id": "320b09dac9f58436ad756ed016019756", "type": "electric_scooter", "is_reserved": 0, "lon": -77.044858}, {"fusion_lat": 0.0, "name": "7f2963800d0a5ab87b449c5a99267c79", "is_disabled": 0, "rental_uris": {"android": "https://dc.lft.to/lastmile_qr_scan", "ios": "https://dc.lft.to/lastmile_qr_scan"}, "fusion_lon": 0.0, "lat": 38.898348, "bike_id": "7f2963800d0a5ab87b449c5a99267c79", "type": "electric_scooter", "is_reserved": 0, "lon": -77.02984033333334}, {"fusion_lat": 0.0, "name": "f48b99e322911e2cce0d768e1141ea1f", "is_disabled": 0, "rental_uris": {"android": "https://dc.lft.to/lastmile_qr_scan", "ios": "https://dc.lft.to/lastmile_qr_scan"}, "fusion_lon": 0.0, "lat": 38.9167255, "bike_id": "f48b99e322911e2cce0d768e1141ea1f", "type": "electric_scooter", "is_reserved": 0, "lon": -77.02714666666667}, {"fusion_lat": 0.0, "name": "b548676ccdcee7a4a263a0b8afffa999", "is_disabled": 0, "rental_uris": {"android": "https://dc.lft.to/lastmile_qr_scan", "ios": "https://dc.lft.to/lastmile_qr_scan"}, "fusion_lon": 0.0, "lat": 38.988204, "bike_id": "b548676ccdcee7a4a263a0b8afffa999", "type": "electric_bike", "is_reserved": 0, "lon": -77.026622}, {"fusion_lat": 0.0, "name": "7322158640d051dda26d1199396568d8", "is_disabled": 0, "rental_uris": {"android": "https://dc.lft.to/lastmile_qr_scan", "ios": "https://dc.lft.to/lastmile_qr_scan"}, "fusion_lon": 0.0, "lat": 38.92129666666666, "bike_id": "7322158640d051dda26d1199396568d8", "type": "electric_scooter", "is_reserved": 0, "lon": -77.0422675}, {"fusion_lat": 0.0, "name": "27fc13468e92cdd265d3ead463f0d437", "is_disabled": 0, "rental_uris": {"android": "https://dc.lft.to/lastmile_qr_scan", "ios": "https://dc.lft.to/lastmile_qr_scan"}, "fusion_lon": 0.0, "lat": 38.872236, "bike_id": "27fc13468e92cdd265d3ead463f0d437", "type": "electric_scooter", "is_reserved": 0, "lon": -77.01765466666667}, {"fusion_lat": 0.0, "name": "41be3a221c9d1b11296ddb724761035f", "is_disabled": 0, "rental_uris": {"android": "https://dc.lft.to/lastmile_qr_scan", "ios": "https://dc.lft.to/lastmile_qr_scan"}, "fusion_lon": 0.0, "lat": 38.836286333333334, "bike_id": "41be3a221c9d1b11296ddb724761035f", "type": "electric_bike", "is_reserved": 0, "lon": -77.06946183333334}, {"fusion_lat": 0.0, "name": "3ecd0bdb327fd0df7758221a393dec90", "is_disabled": 0, "rental_uris": {"android": "https://dc.lft.to/lastmile_qr_scan", "ios": "https://dc.lft.to/lastmile_qr_scan"}, "fusion_lon": 0.0, "lat": 38.8718095, "bike_id": "3ecd0bdb327fd0df7758221a393dec90", "type": "electric_scooter", "is_reserved": 0, "lon": -77.0057195}, {"fusion_lat": 0.0, "name": "bae8971ffdf53339d35c543822f55781", "is_disabled": 0, "rental_uris": {"android": "https://dc.lft.to/lastmile_qr_scan", "ios": "https://dc.lft.to/lastmile_qr_scan"}, "fusion_lon": 0.0, "lat": 38.9068945, "bike_id": "bae8971ffdf53339d35c543822f55781", "type": "electric_scooter", "is_reserved": 0, "lon": -76.95189766666667}, {"fusion_lat": 0.0, "name": "4351c6f629bed7a5c3288a31af478ba3", "is_disabled": 0, "rental_uris": {"android": "https://dc.lft.to/lastmile_qr_scan", "ios": "https://dc.lft.to/lastmile_qr_scan"}, "fusion_lon": 0.0, "lat": 38.90714583333333, "bike_id": "4351c6f629bed7a5c3288a31af478ba3", "type": "electric_scooter", "is_reserved": 0, "lon": -77.02715366666666}, {"fusion_lat": 0.0, "name": "a7b5de21d71d64b6cf6e6695530adb72", "is_disabled": 0, "rental_uris": {"android": "https://dc.lft.to/lastmile_qr_scan", "ios": "https://dc.lft.to/lastmile_qr_scan"}, "fusion_lon": 0.0, "lat": 38.91859983333333, "bike_id": "a7b5de21d71d64b6cf6e6695530adb72", "type": "electric_bike", "is_reserved": 0, "lon": -76.96086933333333}, {"fusion_lat": 0.0, "name": "efe674da0f1f1434bb9f90ae3ede4ce3", "is_disabled": 0, "rental_uris": {"android": "https://dc.lft.to/lastmile_qr_scan", "ios": "https://dc.lft.to/lastmile_qr_scan"}, "fusion_lon": 0.0, "lat": 38.897133, "bike_id": "efe674da0f1f1434bb9f90ae3ede4ce3", "type": "electric_scooter", "is_reserved": 0, "lon": -77.0473465}, {"fusion_lat": 0.0, "name": "12fd0d35de26d887e2cf598d357c7e07", "is_disabled": 0, "rental_uris": {"android": "https://dc.lft.to/lastmile_qr_scan", "ios": "https://dc.lft.to/lastmile_qr_scan"}, "fusion_lon": 0.0, "lat": 38.90659866666667, "bike_id": "12fd0d35de26d887e2cf598d357c7e07", "type": "electric_scooter", "is_reserved": 0, "lon": -77.00962633333333}, {"fusion_lat": 0.0, "name": "63af154af132f9a2cbd1e62fb14764f0", "is_disabled": 0, "rental_uris": {"android": "https://dc.lft.to/lastmile_qr_scan", "ios": "https://dc.lft.to/lastmile_qr_scan"}, "fusion_lon": 0.0, "lat": 38.90711783333333, "bike_id": "63af154af132f9a2cbd1e62fb14764f0", "type": "electric_scooter", "is_reserved": 0, "lon": -77.02378866666666}, {"fusion_lat": 0.0, "name": "61e47024d2489035465724be6703b5c2", "is_disabled": 0, "rental_uris": {"android": "https://dc.lft.to/lastmile_qr_scan", "ios": "https://dc.lft.to/lastmile_qr_scan"}, "fusion_lon": 0.0, "lat": 38.92015683333333, "bike_id": "61e47024d2489035465724be6703b5c2", "type": "electric_scooter", "is_reserved": 0, "lon": -77.04398716666667}, {"fusion_lat": 0.0, "name": "96e9ffa84e253362345c13c7cf6e9f52", "is_disabled": 0, "rental_uris": {"android": "https://dc.lft.to/lastmile_qr_scan", "ios": "https://dc.lft.to/lastmile_qr_scan"}, "fusion_lon": 0.0, "lat": 38.887452, "bike_id": "96e9ffa84e253362345c13c7cf6e9f52", "type": "electric_scooter", "is_reserved": 0, "lon": -77.025631}, {"fusion_lat": 0.0, "name": "97ffcbb06ebc17e4b280881848f2f54d", "is_disabled": 0, "rental_uris": {"android": "https://dc.lft.to/lastmile_qr_scan", "ios": "https://dc.lft.to/lastmile_qr_scan"}, "fusion_lon": 0.0, "lat": 38.9248585, "bike_id": "97ffcbb06ebc17e4b280881848f2f54d", "type": "electric_scooter", "is_reserved": 0, "lon": -77.0213355}, {"fusion_lat": 0.0, "name": "bf594f386f38cc5332cc360e1e54f13e", "is_disabled": 0, "rental_uris": {"android": "https://dc.lft.to/lastmile_qr_scan", "ios": "https://dc.lft.to/lastmile_qr_scan"}, "fusion_lon": 0.0, "lat": 38.93496666666667, "bike_id": "bf594f386f38cc5332cc360e1e54f13e", "type": "electric_scooter", "is_reserved": 0, "lon": -77.07271916666667}, {"fusion_lat": 0.0, "name": "768417edabbbef5b60705827e1d31cf7", "is_disabled": 0, "rental_uris": {"android": "https://dc.lft.to/lastmile_qr_scan", "ios": "https://dc.lft.to/lastmile_qr_scan"}, "fusion_lon": 0.0, "lat": 38.9056045, "bike_id": "768417edabbbef5b60705827e1d31cf7", "type": "electric_scooter", "is_reserved": 0, "lon": -77.02093866666667}, {"fusion_lat": 0.0, "name": "e7b689d81d667c74d395a35d475a1996", "is_disabled": 0, "rental_uris": {"android": "https://dc.lft.to/lastmile_qr_scan", "ios": "https://dc.lft.to/lastmile_qr_scan"}, "fusion_lon": 0.0, "lat": 38.91907116666667, "bike_id": "e7b689d81d667c74d395a35d475a1996", "type": "electric_scooter", "is_reserved": 0, "lon": -77.03223583333333}, {"fusion_lat": 0.0, "name": "a79f5947ccea3120c01c029fe7274bc6", "is_disabled": 0, "rental_uris": {"android": "https://dc.lft.to/lastmile_qr_scan", "ios": "https://dc.lft.to/lastmile_qr_scan"}, "fusion_lon": 0.0, "lat": 38.91605283333333, "bike_id": "a79f5947ccea3120c01c029fe7274bc6", "type": "electric_scooter", "is_reserved": 0, "lon": -77.03190616666667}, {"fusion_lat": 0.0, "name": "c3f5331a15302174541f3ba07d99d695", "is_disabled": 0, "rental_uris": {"android": "https://dc.lft.to/lastmile_qr_scan", "ios": "https://dc.lft.to/lastmile_qr_scan"}, "fusion_lon": 0.0, "lat": 38.92915816666667, "bike_id": "c3f5331a15302174541f3ba07d99d695", "type": "electric_scooter", "is_reserved": 0, "lon": -77.0328565}, {"fusion_lat": 0.0, "name": "c30949f01493eaa678d2e87f17196a63", "is_disabled": 0, "rental_uris": {"android": "https://dc.lft.to/lastmile_qr_scan", "ios": "https://dc.lft.to/lastmile_qr_scan"}, "fusion_lon": 0.0, "lat": 38.90054516666667, "bike_id": "c30949f01493eaa678d2e87f17196a63", "type": "electric_scooter", "is_reserved": 0, "lon": -77.00065016666667}, {"fusion_lat": 0.0, "name": "bf4f17140a0e4e3a31739a2c356d3bf3", "is_disabled": 0, "rental_uris": {"android": "https://dc.lft.to/lastmile_qr_scan", "ios": "https://dc.lft.to/lastmile_qr_scan"}, "fusion_lon": 0.0, "lat": 38.908871833333336, "bike_id": "bf4f17140a0e4e3a31739a2c356d3bf3", "type": "electric_scooter", "is_reserved": 0, "lon": -77.03223366666667}, {"fusion_lat": 0.0, "name": "fe391d11d3be246fd4b6f1316438d6d8", "is_disabled": 0, "rental_uris": {"android": "https://dc.lft.to/lastmile_qr_scan", "ios": "https://dc.lft.to/lastmile_qr_scan"}, "fusion_lon": 0.0, "lat": 38.91713083333333, "bike_id": "fe391d11d3be246fd4b6f1316438d6d8", "type": "electric_scooter", "is_reserved": 0, "lon": -77.03042333333333}, {"fusion_lat": 0.0, "name": "1be22e039b51648011bc717f40e62fe6", "is_disabled": 0, "rental_uris": {"android": "https://dc.lft.to/lastmile_qr_scan", "ios": "https://dc.lft.to/lastmile_qr_scan"}, "fusion_lon": 0.0, "lat": 38.87933133333333, "bike_id": "1be22e039b51648011bc717f40e62fe6", "type": "electric_scooter", "is_reserved": 0, "lon": -77.0061485}, {"fusion_lat": 0.0, "name": "1f11401827d44421800d317b85c302ea", "is_disabled": 0, "rental_uris": {"android": "https://dc.lft.to/lastmile_qr_scan", "ios": "https://dc.lft.to/lastmile_qr_scan"}, "fusion_lon": 0.0, "lat": 38.92539383333333, "bike_id": "1f11401827d44421800d317b85c302ea", "type": "electric_scooter", "is_reserved": 0, "lon": -77.03486566666666}, {"fusion_lat": 0.0, "name": "5bab12243ca8c54d54491244cf238a3d", "is_disabled": 0, "rental_uris": {"android": "https://dc.lft.to/lastmile_qr_scan", "ios": "https://dc.lft.to/lastmile_qr_scan"}, "fusion_lon": 0.0, "lat": 38.93010733333333, "bike_id": "5bab12243ca8c54d54491244cf238a3d", "type": "electric_scooter", "is_reserved": 0, "lon": -77.055495}, {"fusion_lat": 0.0, "name": "1802d7661e8de47a3de3102708e6db05", "is_disabled": 0, "rental_uris": {"android": "https://dc.lft.to/lastmile_qr_scan", "ios": "https://dc.lft.to/lastmile_qr_scan"}, "fusion_lon": 0.0, "lat": 38.883747, "bike_id": "1802d7661e8de47a3de3102708e6db05", "type": "electric_scooter", "is_reserved": 0, "lon": -77.01988516666667}, {"fusion_lat": 0.0, "name": "e660c50b324757dfeac7a45566f95ef3", "is_disabled": 0, "rental_uris": {"android": "https://dc.lft.to/lastmile_qr_scan", "ios": "https://dc.lft.to/lastmile_qr_scan"}, "fusion_lon": 0.0, "lat": 38.94179966666667, "bike_id": "e660c50b324757dfeac7a45566f95ef3", "type": "electric_scooter", "is_reserved": 0, "lon": -77.03654216666666}, {"fusion_lat": 0.0, "name": "ea764e660770261ca5cf0f568384846f", "is_disabled": 0, "rental_uris": {"android": "https://dc.lft.to/lastmile_qr_scan", "ios": "https://dc.lft.to/lastmile_qr_scan"}, "fusion_lon": 0.0, "lat": 38.903965, "bike_id": "ea764e660770261ca5cf0f568384846f", "type": "electric_scooter", "is_reserved": 0, "lon": -76.99007883333333}, {"fusion_lat": 0.0, "name": "491ffc0817d6b1df8115b716ab735708", "is_disabled": 0, "rental_uris": {"android": "https://dc.lft.to/lastmile_qr_scan", "ios": "https://dc.lft.to/lastmile_qr_scan"}, "fusion_lon": 0.0, "lat": 38.901011, "bike_id": "491ffc0817d6b1df8115b716ab735708", "type": "electric_scooter", "is_reserved": 0, "lon": -77.01978833333334}, {"fusion_lat": 0.0, "name": "87a7175526d3670265a77db67832d0f7", "is_disabled": 0, "rental_uris": {"android": "https://dc.lft.to/lastmile_qr_scan", "ios": "https://dc.lft.to/lastmile_qr_scan"}, "fusion_lon": 0.0, "lat": 38.91811283333333, "bike_id": "87a7175526d3670265a77db67832d0f7", "type": "electric_scooter", "is_reserved": 0, "lon": -77.04008733333333}, {"fusion_lat": 0.0, "name": "42b2f385fcda07479227686354123593", "is_disabled": 0, "rental_uris": {"android": "https://dc.lft.to/lastmile_qr_scan", "ios": "https://dc.lft.to/lastmile_qr_scan"}, "fusion_lon": 0.0, "lat": 38.85808016666667, "bike_id": "42b2f385fcda07479227686354123593", "type": "electric_bike", "is_reserved": 0, "lon": -76.98727916666667}, {"fusion_lat": 0.0, "name": "85e3d5a05593564c4f06a31d4e8a97c5", "is_disabled": 0, "rental_uris": {"android": "https://dc.lft.to/lastmile_qr_scan", "ios": "https://dc.lft.to/lastmile_qr_scan"}, "fusion_lon": 0.0, "lat": 38.92384933333334, "bike_id": "85e3d5a05593564c4f06a31d4e8a97c5", "type": "electric_scooter", "is_reserved": 0, "lon": -77.03654583333334}, {"fusion_lat": 0.0, "name": "9187dd229db728682f9ec3d1c38a6ad7", "is_disabled": 0, "rental_uris": {"android": "https://dc.lft.to/lastmile_qr_scan", "ios": "https://dc.lft.to/lastmile_qr_scan"}, "fusion_lon": 0.0, "lat": 38.92062083333333, "bike_id": "9187dd229db728682f9ec3d1c38a6ad7", "type": "electric_scooter", "is_reserved": 0, "lon": -77.0324275}, {"fusion_lat": 0.0, "name": "328eda83d55b99229a9830c333a8e9b1", "is_disabled": 0, "rental_uris": {"android": "https://dc.lft.to/lastmile_qr_scan", "ios": "https://dc.lft.to/lastmile_qr_scan"}, "fusion_lon": 0.0, "lat": 38.89546683333333, "bike_id": "328eda83d55b99229a9830c333a8e9b1", "type": "electric_scooter", "is_reserved": 0, "lon": -76.98339433333334}, {"fusion_lat": 0.0, "name": "71c67fbe6c8943011b4d035dfdd2fdde", "is_disabled": 0, "rental_uris": {"android": "https://dc.lft.to/lastmile_qr_scan", "ios": "https://dc.lft.to/lastmile_qr_scan"}, "fusion_lon": 0.0, "lat": 38.92183583333333, "bike_id": "71c67fbe6c8943011b4d035dfdd2fdde", "type": "electric_scooter", "is_reserved": 0, "lon": -76.9968455}, {"fusion_lat": 0.0, "name": "73b3f89ce680e0cc8d37954b8235e828", "is_disabled": 0, "rental_uris": {"android": "https://dc.lft.to/lastmile_qr_scan", "ios": "https://dc.lft.to/lastmile_qr_scan"}, "fusion_lon": 0.0, "lat": 38.862565833333335, "bike_id": "73b3f89ce680e0cc8d37954b8235e828", "type": "electric_bike", "is_reserved": 0, "lon": -76.98328966666666}, {"fusion_lat": 0.0, "name": "b08bd8aae501bc80ca52b997db336d1d", "is_disabled": 0, "rental_uris": {"android": "https://dc.lft.to/lastmile_qr_scan", "ios": "https://dc.lft.to/lastmile_qr_scan"}, "fusion_lon": 0.0, "lat": 38.821821, "bike_id": "b08bd8aae501bc80ca52b997db336d1d", "type": "electric_bike", "is_reserved": 0, "lon": -77.00134166666666}, {"fusion_lat": 0.0, "name": "188a80525b698bd243b25685c36336ca", "is_disabled": 0, "rental_uris": {"android": "https://dc.lft.to/lastmile_qr_scan", "ios": "https://dc.lft.to/lastmile_qr_scan"}, "fusion_lon": 0.0, "lat": 38.89609733333333, "bike_id": "188a80525b698bd243b25685c36336ca", "type": "electric_scooter", "is_reserved": 0, "lon": -77.00930416666667}, {"fusion_lat": 0.0, "name": "628735b96bee1dc52d0379f0353e26c8", "is_disabled": 0, "rental_uris": {"android": "https://dc.lft.to/lastmile_qr_scan", "ios": "https://dc.lft.to/lastmile_qr_scan"}, "fusion_lon": 0.0, "lat": 38.917688166666665, "bike_id": "628735b96bee1dc52d0379f0353e26c8", "type": "electric_scooter", "is_reserved": 0, "lon": -77.01472666666666}, {"fusion_lat": 0.0, "name": "f2b74f7f671bece7a19412a174d36fd5", "is_disabled": 0, "rental_uris": {"android": "https://dc.lft.to/lastmile_qr_scan", "ios": "https://dc.lft.to/lastmile_qr_scan"}, "fusion_lon": 0.0, "lat": 38.92154683333333, "bike_id": "f2b74f7f671bece7a19412a174d36fd5", "type": "electric_scooter", "is_reserved": 0, "lon": -77.0401065}, {"fusion_lat": 0.0, "name": "37fad6cf107c82b07fd6370b91742efc", "is_disabled": 0, "rental_uris": {"android": "https://dc.lft.to/lastmile_qr_scan", "ios": "https://dc.lft.to/lastmile_qr_scan"}, "fusion_lon": 0.0, "lat": 38.89854233333333, "bike_id": "37fad6cf107c82b07fd6370b91742efc", "type": "electric_scooter", "is_reserved": 0, "lon": -77.021782}, {"fusion_lat": 0.0, "name": "81e2c64f4816964194942c081ca145d6", "is_disabled": 0, "rental_uris": {"android": "https://dc.lft.to/lastmile_qr_scan", "ios": "https://dc.lft.to/lastmile_qr_scan"}, "fusion_lon": 0.0, "lat": 38.941899166666666, "bike_id": "81e2c64f4816964194942c081ca145d6", "type": "electric_scooter", "is_reserved": 0, "lon": -77.04110933333334}, {"fusion_lat": 0.0, "name": "2ccacd061a62ea8dfb4e556b0bd6bd99", "is_disabled": 0, "rental_uris": {"android": "https://dc.lft.to/lastmile_qr_scan", "ios": "https://dc.lft.to/lastmile_qr_scan"}, "fusion_lon": 0.0, "lat": 38.9140275, "bike_id": "2ccacd061a62ea8dfb4e556b0bd6bd99", "type": "electric_scooter", "is_reserved": 0, "lon": -77.03211416666667}, {"fusion_lat": 0.0, "name": "887172c1325f15f33b6c3c0be37287f5", "is_disabled": 0, "rental_uris": {"android": "https://dc.lft.to/lastmile_qr_scan", "ios": "https://dc.lft.to/lastmile_qr_scan"}, "fusion_lon": 0.0, "lat": 38.92065266666667, "bike_id": "887172c1325f15f33b6c3c0be37287f5", "type": "electric_scooter", "is_reserved": 0, "lon": -77.02299716666667}, {"fusion_lat": 0.0, "name": "9b67a4c408de621823df19e50513bd21", "is_disabled": 0, "rental_uris": {"android": "https://dc.lft.to/lastmile_qr_scan", "ios": "https://dc.lft.to/lastmile_qr_scan"}, "fusion_lon": 0.0, "lat": 38.9318475, "bike_id": "9b67a4c408de621823df19e50513bd21", "type": "electric_scooter", "is_reserved": 0, "lon": -77.03844983333333}, {"fusion_lat": 0.0, "name": "63bbf312abbcbb74cd468e5dbc77035b", "is_disabled": 0, "rental_uris": {"android": "https://dc.lft.to/lastmile_qr_scan", "ios": "https://dc.lft.to/lastmile_qr_scan"}, "fusion_lon": 0.0, "lat": 38.9236045, "bike_id": "63bbf312abbcbb74cd468e5dbc77035b", "type": "electric_scooter", "is_reserved": 0, "lon": -77.07303316666666}, {"fusion_lat": 0.0, "name": "2df26d5e73783222690b78db53b8d574", "is_disabled": 0, "rental_uris": {"android": "https://dc.lft.to/lastmile_qr_scan", "ios": "https://dc.lft.to/lastmile_qr_scan"}, "fusion_lon": 0.0, "lat": 38.902714333333336, "bike_id": "2df26d5e73783222690b78db53b8d574", "type": "electric_scooter", "is_reserved": 0, "lon": -77.05312333333333}, {"fusion_lat": 0.0, "name": "e60dcfb19e6b45b027c2703259540ffe", "is_disabled": 0, "rental_uris": {"android": "https://dc.lft.to/lastmile_qr_scan", "ios": "https://dc.lft.to/lastmile_qr_scan"}, "fusion_lon": 0.0, "lat": 38.938438166666664, "bike_id": "e60dcfb19e6b45b027c2703259540ffe", "type": "electric_scooter", "is_reserved": 0, "lon": -77.02488266666667}, {"fusion_lat": 0.0, "name": "5d66947997b4889fbbe9a2aeac0e8c5c", "is_disabled": 0, "rental_uris": {"android": "https://dc.lft.to/lastmile_qr_scan", "ios": "https://dc.lft.to/lastmile_qr_scan"}, "fusion_lon": 0.0, "lat": 38.89199083333333, "bike_id": "5d66947997b4889fbbe9a2aeac0e8c5c", "type": "electric_scooter", "is_reserved": 0, "lon": -77.02218566666667}, {"fusion_lat": 0.0, "name": "9204ea8f75d151e1814a8d40117de989", "is_disabled": 0, "rental_uris": {"android": "https://dc.lft.to/lastmile_qr_scan", "ios": "https://dc.lft.to/lastmile_qr_scan"}, "fusion_lon": 0.0, "lat": 38.914649833333335, "bike_id": "9204ea8f75d151e1814a8d40117de989", "type": "electric_scooter", "is_reserved": 0, "lon": -77.038326}, {"fusion_lat": 0.0, "name": "bc2e0b216a0920f9bc0d6c3709c57858", "is_disabled": 0, "rental_uris": {"android": "https://dc.lft.to/lastmile_qr_scan", "ios": "https://dc.lft.to/lastmile_qr_scan"}, "fusion_lon": 0.0, "lat": 38.91133633333333, "bike_id": "bc2e0b216a0920f9bc0d6c3709c57858", "type": "electric_scooter", "is_reserved": 0, "lon": -77.03840083333333}, {"fusion_lat": 0.0, "name": "da0e8a2ec78de246266504dc84dc048b", "is_disabled": 0, "rental_uris": {"android": "https://dc.lft.to/lastmile_qr_scan", "ios": "https://dc.lft.to/lastmile_qr_scan"}, "fusion_lon": 0.0, "lat": 38.980574, "bike_id": "da0e8a2ec78de246266504dc84dc048b", "type": "electric_bike", "is_reserved": 0, "lon": -76.95801833333333}, {"fusion_lat": 0.0, "name": "9992724f95f6b30bdea1268a6273f4d6", "is_disabled": 0, "rental_uris": {"android": "https://dc.lft.to/lastmile_qr_scan", "ios": "https://dc.lft.to/lastmile_qr_scan"}, "fusion_lon": 0.0, "lat": 38.949776, "bike_id": "9992724f95f6b30bdea1268a6273f4d6", "type": "electric_scooter", "is_reserved": 0, "lon": -77.02447166666667}, {"fusion_lat": 0.0, "name": "9cc1489d25df29c90ee32ed80058a3a3", "is_disabled": 0, "rental_uris": {"android": "https://dc.lft.to/lastmile_qr_scan", "ios": "https://dc.lft.to/lastmile_qr_scan"}, "fusion_lon": 0.0, "lat": 38.904759166666665, "bike_id": "9cc1489d25df29c90ee32ed80058a3a3", "type": "electric_scooter", "is_reserved": 0, "lon": -77.02708666666666}, {"fusion_lat": 0.0, "name": "502b74b8b2e626cf8b632fb587e8aade", "is_disabled": 0, "rental_uris": {"android": "https://dc.lft.to/lastmile_qr_scan", "ios": "https://dc.lft.to/lastmile_qr_scan"}, "fusion_lon": 0.0, "lat": 38.892553666666664, "bike_id": "502b74b8b2e626cf8b632fb587e8aade", "type": "electric_bike", "is_reserved": 0, "lon": -76.98552133333334}, {"fusion_lat": 0.0, "name": "f99074fa8fa2115fb2d28ba88a09ac6e", "is_disabled": 0, "rental_uris": {"android": "https://dc.lft.to/lastmile_qr_scan", "ios": "https://dc.lft.to/lastmile_qr_scan"}, "fusion_lon": 0.0, "lat": 38.89227283333334, "bike_id": "f99074fa8fa2115fb2d28ba88a09ac6e", "type": "electric_scooter", "is_reserved": 0, "lon": -77.0432235}, {"fusion_lat": 0.0, "name": "a8749aea7b6b7ec9f5213487d0e8ca57", "is_disabled": 0, "rental_uris": {"android": "https://dc.lft.to/lastmile_qr_scan", "ios": "https://dc.lft.to/lastmile_qr_scan"}, "fusion_lon": 0.0, "lat": 38.901305, "bike_id": "a8749aea7b6b7ec9f5213487d0e8ca57", "type": "electric_scooter", "is_reserved": 0, "lon": -77.04601883333333}, {"fusion_lat": 0.0, "name": "102344035a63c87b72a35f30b1d5eb34", "is_disabled": 0, "rental_uris": {"android": "https://dc.lft.to/lastmile_qr_scan", "ios": "https://dc.lft.to/lastmile_qr_scan"}, "fusion_lon": 0.0, "lat": 38.90191933333333, "bike_id": "102344035a63c87b72a35f30b1d5eb34", "type": "electric_scooter", "is_reserved": 0, "lon": -77.02395333333334}, {"fusion_lat": 0.0, "name": "d824c70c3675a6fab2dccc3ecf454f1a", "is_disabled": 0, "rental_uris": {"android": "https://dc.lft.to/lastmile_qr_scan", "ios": "https://dc.lft.to/lastmile_qr_scan"}, "fusion_lon": 0.0, "lat": 38.90066483333333, "bike_id": "d824c70c3675a6fab2dccc3ecf454f1a", "type": "electric_scooter", "is_reserved": 0, "lon": -76.933879}, {"fusion_lat": 0.0, "name": "1323e09fcd0bac30b5e2c2f9f21a648a", "is_disabled": 0, "rental_uris": {"android": "https://dc.lft.to/lastmile_qr_scan", "ios": "https://dc.lft.to/lastmile_qr_scan"}, "fusion_lon": 0.0, "lat": 38.890445666666665, "bike_id": "1323e09fcd0bac30b5e2c2f9f21a648a", "type": "electric_scooter", "is_reserved": 0, "lon": -77.01508183333333}, {"fusion_lat": 0.0, "name": "4b0a74fd41510a9be7bd6016d9714f9a", "is_disabled": 0, "rental_uris": {"android": "https://dc.lft.to/lastmile_qr_scan", "ios": "https://dc.lft.to/lastmile_qr_scan"}, "fusion_lon": 0.0, "lat": 38.88745683333333, "bike_id": "4b0a74fd41510a9be7bd6016d9714f9a", "type": "electric_scooter", "is_reserved": 0, "lon": -77.01777016666666}, {"fusion_lat": 0.0, "name": "940b4a51bab8b004e83c53e4abf6cad2", "is_disabled": 0, "rental_uris": {"android": "https://dc.lft.to/lastmile_qr_scan", "ios": "https://dc.lft.to/lastmile_qr_scan"}, "fusion_lon": 0.0, "lat": 38.942743166666666, "bike_id": "940b4a51bab8b004e83c53e4abf6cad2", "type": "electric_scooter", "is_reserved": 0, "lon": -77.032612}, {"fusion_lat": 0.0, "name": "c0461d9349c4383e57e7f105a612a967", "is_disabled": 0, "rental_uris": {"android": "https://dc.lft.to/lastmile_qr_scan", "ios": "https://dc.lft.to/lastmile_qr_scan"}, "fusion_lon": 0.0, "lat": 38.91411866666667, "bike_id": "c0461d9349c4383e57e7f105a612a967", "type": "electric_scooter", "is_reserved": 0, "lon": -77.02976}, {"fusion_lat": 0.0, "name": "8f8161b82dbbebdc32423795aaa64d2f", "is_disabled": 0, "rental_uris": {"android": "https://dc.lft.to/lastmile_qr_scan", "ios": "https://dc.lft.to/lastmile_qr_scan"}, "fusion_lon": 0.0, "lat": 38.89221766666667, "bike_id": "8f8161b82dbbebdc32423795aaa64d2f", "type": "electric_scooter", "is_reserved": 0, "lon": -77.02224233333334}, {"fusion_lat": 0.0, "name": "65202d178c046d019312de90edba6742", "is_disabled": 0, "rental_uris": {"android": "https://dc.lft.to/lastmile_qr_scan", "ios": "https://dc.lft.to/lastmile_qr_scan"}, "fusion_lon": 0.0, "lat": 38.92502183333333, "bike_id": "65202d178c046d019312de90edba6742", "type": "electric_scooter", "is_reserved": 0, "lon": -77.02402183333334}, {"fusion_lat": 0.0, "name": "eb49724e71be58045a21fd38c7b6850a", "is_disabled": 0, "rental_uris": {"android": "https://dc.lft.to/lastmile_qr_scan", "ios": "https://dc.lft.to/lastmile_qr_scan"}, "fusion_lon": 0.0, "lat": 38.890037, "bike_id": "eb49724e71be58045a21fd38c7b6850a", "type": "electric_scooter", "is_reserved": 0, "lon": -76.95432766666667}, {"fusion_lat": 0.0, "name": "78c708303764ca93a1598a824b144e96", "is_disabled": 0, "rental_uris": {"android": "https://dc.lft.to/lastmile_qr_scan", "ios": "https://dc.lft.to/lastmile_qr_scan"}, "fusion_lon": 0.0, "lat": 38.83516633333333, "bike_id": "78c708303764ca93a1598a824b144e96", "type": "electric_bike", "is_reserved": 0, "lon": -76.98684033333333}, {"fusion_lat": 0.0, "name": "00a13803693ce228fecdb069bf774e81", "is_disabled": 0, "rental_uris": {"android": "https://dc.lft.to/lastmile_qr_scan", "ios": "https://dc.lft.to/lastmile_qr_scan"}, "fusion_lon": 0.0, "lat": 38.90682983333333, "bike_id": "00a13803693ce228fecdb069bf774e81", "type": "electric_bike", "is_reserved": 0, "lon": -76.94494816666666}, {"fusion_lat": 0.0, "name": "532dd835859c10f9ff6937aca77555e0", "is_disabled": 0, "rental_uris": {"android": "https://dc.lft.to/lastmile_qr_scan", "ios": "https://dc.lft.to/lastmile_qr_scan"}, "fusion_lon": 0.0, "lat": 38.938316666666665, "bike_id": "532dd835859c10f9ff6937aca77555e0", "type": "electric_scooter", "is_reserved": 0, "lon": -77.03047483333333}, {"fusion_lat": 0.0, "name": "50a7e780eff0b5ebcfc8ce3f49b46f1e", "is_disabled": 0, "rental_uris": {"android": "https://dc.lft.to/lastmile_qr_scan", "ios": "https://dc.lft.to/lastmile_qr_scan"}, "fusion_lon": 0.0, "lat": 38.90150366666667, "bike_id": "50a7e780eff0b5ebcfc8ce3f49b46f1e", "type": "electric_scooter", "is_reserved": 0, "lon": -76.93068283333334}, {"fusion_lat": 0.0, "name": "a90a5949a15f31644bb72e26876a3a26", "is_disabled": 0, "rental_uris": {"android": "https://dc.lft.to/lastmile_qr_scan", "ios": "https://dc.lft.to/lastmile_qr_scan"}, "fusion_lon": 0.0, "lat": 38.9084625, "bike_id": "a90a5949a15f31644bb72e26876a3a26", "type": "electric_scooter", "is_reserved": 0, "lon": -76.99751783333333}, {"fusion_lat": 0.0, "name": "d18f9c048e3b2b7d922f44c64387b6d8", "is_disabled": 0, "rental_uris": {"android": "https://dc.lft.to/lastmile_qr_scan", "ios": "https://dc.lft.to/lastmile_qr_scan"}, "fusion_lon": 0.0, "lat": 38.92321333333334, "bike_id": "d18f9c048e3b2b7d922f44c64387b6d8", "type": "electric_scooter", "is_reserved": 0, "lon": -77.0414885}, {"fusion_lat": 0.0, "name": "70f819d0fe0dd8737846fc2aaf6d797d", "is_disabled": 0, "rental_uris": {"android": "https://dc.lft.to/lastmile_qr_scan", "ios": "https://dc.lft.to/lastmile_qr_scan"}, "fusion_lon": 0.0, "lat": 38.9223315, "bike_id": "70f819d0fe0dd8737846fc2aaf6d797d", "type": "electric_scooter", "is_reserved": 0, "lon": -77.04247516666666}, {"fusion_lat": 0.0, "name": "e6c93575fe1ac3c97c50f5a6295e0b08", "is_disabled": 0, "rental_uris": {"android": "https://dc.lft.to/lastmile_qr_scan", "ios": "https://dc.lft.to/lastmile_qr_scan"}, "fusion_lon": 0.0, "lat": 38.87579983333333, "bike_id": "e6c93575fe1ac3c97c50f5a6295e0b08", "type": "electric_scooter", "is_reserved": 0, "lon": -77.005657}, {"fusion_lat": 0.0, "name": "8c1a1b38c3d5f5666636e6bc25f77a52", "is_disabled": 0, "rental_uris": {"android": "https://dc.lft.to/lastmile_qr_scan", "ios": "https://dc.lft.to/lastmile_qr_scan"}, "fusion_lon": 0.0, "lat": 38.9206925, "bike_id": "8c1a1b38c3d5f5666636e6bc25f77a52", "type": "electric_scooter", "is_reserved": 0, "lon": -77.04241633333334}, {"fusion_lat": 0.0, "name": "e7e8bc6a01ccb58f50f6ced397fdff1b", "is_disabled": 0, "rental_uris": {"android": "https://dc.lft.to/lastmile_qr_scan", "ios": "https://dc.lft.to/lastmile_qr_scan"}, "fusion_lon": 0.0, "lat": 38.917044833333335, "bike_id": "e7e8bc6a01ccb58f50f6ced397fdff1b", "type": "electric_scooter", "is_reserved": 0, "lon": -77.024531}, {"fusion_lat": 0.0, "name": "d48c8e2d7438d6c953e406bd62a0448d", "is_disabled": 0, "rental_uris": {"android": "https://dc.lft.to/lastmile_qr_scan", "ios": "https://dc.lft.to/lastmile_qr_scan"}, "fusion_lon": 0.0, "lat": 38.871589166666666, "bike_id": "d48c8e2d7438d6c953e406bd62a0448d", "type": "electric_bike", "is_reserved": 0, "lon": -77.0118665}, {"fusion_lat": 0.0, "name": "66122102a30faed21167a87050c0bff7", "is_disabled": 0, "rental_uris": {"android": "https://dc.lft.to/lastmile_qr_scan", "ios": "https://dc.lft.to/lastmile_qr_scan"}, "fusion_lon": 0.0, "lat": 38.917751833333334, "bike_id": "66122102a30faed21167a87050c0bff7", "type": "electric_scooter", "is_reserved": 0, "lon": -77.045462}, {"fusion_lat": 0.0, "name": "9fd871a5c215a17872dcd6047d56a2e7", "is_disabled": 0, "rental_uris": {"android": "https://dc.lft.to/lastmile_qr_scan", "ios": "https://dc.lft.to/lastmile_qr_scan"}, "fusion_lon": 0.0, "lat": 38.95059366666667, "bike_id": "9fd871a5c215a17872dcd6047d56a2e7", "type": "electric_scooter", "is_reserved": 0, "lon": -77.08025483333333}, {"fusion_lat": 0.0, "name": "2bdb00b54aa49efaa5307e1b7312a944", "is_disabled": 0, "rental_uris": {"android": "https://dc.lft.to/lastmile_qr_scan", "ios": "https://dc.lft.to/lastmile_qr_scan"}, "fusion_lon": 0.0, "lat": 38.916893, "bike_id": "2bdb00b54aa49efaa5307e1b7312a944", "type": "electric_scooter", "is_reserved": 0, "lon": -77.03670916666667}, {"fusion_lat": 0.0, "name": "5baedc66526ebd92894dd5625b0bb76f", "is_disabled": 0, "rental_uris": {"android": "https://dc.lft.to/lastmile_qr_scan", "ios": "https://dc.lft.to/lastmile_qr_scan"}, "fusion_lon": 0.0, "lat": 38.875709666666665, "bike_id": "5baedc66526ebd92894dd5625b0bb76f", "type": "electric_scooter", "is_reserved": 0, "lon": -77.00587083333333}, {"fusion_lat": 0.0, "name": "27626057850aa7239d44737824c97180", "is_disabled": 0, "rental_uris": {"android": "https://dc.lft.to/lastmile_qr_scan", "ios": "https://dc.lft.to/lastmile_qr_scan"}, "fusion_lon": 0.0, "lat": 38.90201233333333, "bike_id": "27626057850aa7239d44737824c97180", "type": "electric_scooter", "is_reserved": 0, "lon": -77.0237835}, {"fusion_lat": 0.0, "name": "6fdb5be4856ab798d4cc529eeed58a61", "is_disabled": 0, "rental_uris": {"android": "https://dc.lft.to/lastmile_qr_scan", "ios": "https://dc.lft.to/lastmile_qr_scan"}, "fusion_lon": 0.0, "lat": 38.89561333333333, "bike_id": "6fdb5be4856ab798d4cc529eeed58a61", "type": "electric_bike", "is_reserved": 0, "lon": -77.12732}, {"fusion_lat": 0.0, "name": "d67384628d04ac24bc93b75ba6cf3999", "is_disabled": 0, "rental_uris": {"android": "https://dc.lft.to/lastmile_qr_scan", "ios": "https://dc.lft.to/lastmile_qr_scan"}, "fusion_lon": 0.0, "lat": 38.899636, "bike_id": "d67384628d04ac24bc93b75ba6cf3999", "type": "electric_scooter", "is_reserved": 0, "lon": -77.02147866666667}, {"fusion_lat": 0.0, "name": "fab664e3692b28bb340125de3a6626ef", "is_disabled": 0, "rental_uris": {"android": "https://dc.lft.to/lastmile_qr_scan", "ios": "https://dc.lft.to/lastmile_qr_scan"}, "fusion_lon": 0.0, "lat": 38.955635666666666, "bike_id": "fab664e3692b28bb340125de3a6626ef", "type": "electric_bike", "is_reserved": 0, "lon": -77.02441983333334}, {"fusion_lat": 0.0, "name": "264ccf1d70f6ccc096c3603cd1b14376", "is_disabled": 0, "rental_uris": {"android": "https://dc.lft.to/lastmile_qr_scan", "ios": "https://dc.lft.to/lastmile_qr_scan"}, "fusion_lon": 0.0, "lat": 38.93586783333333, "bike_id": "264ccf1d70f6ccc096c3603cd1b14376", "type": "electric_bike", "is_reserved": 0, "lon": -77.02121183333334}, {"fusion_lat": 0.0, "name": "a2ac2ed8e0f985c6bda0e4727f971ef1", "is_disabled": 0, "rental_uris": {"android": "https://dc.lft.to/lastmile_qr_scan", "ios": "https://dc.lft.to/lastmile_qr_scan"}, "fusion_lon": 0.0, "lat": 39.01417, "bike_id": "a2ac2ed8e0f985c6bda0e4727f971ef1", "type": "electric_bike", "is_reserved": 0, "lon": -77.044942}, {"fusion_lat": 0.0, "name": "0f8900924fb55fc550a54fab6f3fe80c", "is_disabled": 0, "rental_uris": {"android": "https://dc.lft.to/lastmile_qr_scan", "ios": "https://dc.lft.to/lastmile_qr_scan"}, "fusion_lon": 0.0, "lat": 38.90208066666667, "bike_id": "0f8900924fb55fc550a54fab6f3fe80c", "type": "electric_scooter", "is_reserved": 0, "lon": -77.02212666666667}, {"fusion_lat": 0.0, "name": "08bbf6a46dae51a29e39a37fbf6cd510", "is_disabled": 0, "rental_uris": {"android": "https://dc.lft.to/lastmile_qr_scan", "ios": "https://dc.lft.to/lastmile_qr_scan"}, "fusion_lon": 0.0, "lat": 38.912647166666666, "bike_id": "08bbf6a46dae51a29e39a37fbf6cd510", "type": "electric_scooter", "is_reserved": 0, "lon": -77.03045116666667}, {"fusion_lat": 0.0, "name": "28d03f2c19b656d1618ff7a6449b8313", "is_disabled": 0, "rental_uris": {"android": "https://dc.lft.to/lastmile_qr_scan", "ios": "https://dc.lft.to/lastmile_qr_scan"}, "fusion_lon": 0.0, "lat": 38.9552895, "bike_id": "28d03f2c19b656d1618ff7a6449b8313", "type": "electric_bike", "is_reserved": 0, "lon": -77.02475933333334}, {"fusion_lat": 0.0, "name": "de72c368dd5252c2483ea802ba1c1625", "is_disabled": 0, "rental_uris": {"android": "https://dc.lft.to/lastmile_qr_scan", "ios": "https://dc.lft.to/lastmile_qr_scan"}, "fusion_lon": 0.0, "lat": 38.905714333333336, "bike_id": "de72c368dd5252c2483ea802ba1c1625", "type": "electric_scooter", "is_reserved": 0, "lon": -77.01677466666666}, {"fusion_lat": 0.0, "name": "3ba2a418020e708a4fd090f0cd8e0df7", "is_disabled": 0, "rental_uris": {"android": "https://dc.lft.to/lastmile_qr_scan", "ios": "https://dc.lft.to/lastmile_qr_scan"}, "fusion_lon": 0.0, "lat": 38.873885333333334, "bike_id": "3ba2a418020e708a4fd090f0cd8e0df7", "type": "electric_scooter", "is_reserved": 0, "lon": -77.00138416666667}, {"fusion_lat": 0.0, "name": "b21c26d3d7ab34b62def2fe39b760868", "is_disabled": 0, "rental_uris": {"android": "https://dc.lft.to/lastmile_qr_scan", "ios": "https://dc.lft.to/lastmile_qr_scan"}, "fusion_lon": 0.0, "lat": 38.91549583333333, "bike_id": "b21c26d3d7ab34b62def2fe39b760868", "type": "electric_scooter", "is_reserved": 0, "lon": -77.03857466666666}, {"fusion_lat": 0.0, "name": "6f5ec643e81cefef7ec10e85af54839f", "is_disabled": 0, "rental_uris": {"android": "https://dc.lft.to/lastmile_qr_scan", "ios": "https://dc.lft.to/lastmile_qr_scan"}, "fusion_lon": 0.0, "lat": 38.88179916666667, "bike_id": "6f5ec643e81cefef7ec10e85af54839f", "type": "electric_scooter", "is_reserved": 0, "lon": -77.02796716666667}, {"fusion_lat": 0.0, "name": "37b64cf02976bc2f39e61bd1986b0dca", "is_disabled": 0, "rental_uris": {"android": "https://dc.lft.to/lastmile_qr_scan", "ios": "https://dc.lft.to/lastmile_qr_scan"}, "fusion_lon": 0.0, "lat": 38.9023325, "bike_id": "37b64cf02976bc2f39e61bd1986b0dca", "type": "electric_scooter", "is_reserved": 0, "lon": -77.00555866666667}, {"fusion_lat": 0.0, "name": "6d9d58d9776cb554a94fd35497c16425", "is_disabled": 0, "rental_uris": {"android": "https://dc.lft.to/lastmile_qr_scan", "ios": "https://dc.lft.to/lastmile_qr_scan"}, "fusion_lon": 0.0, "lat": 38.91389916666667, "bike_id": "6d9d58d9776cb554a94fd35497c16425", "type": "electric_scooter", "is_reserved": 0, "lon": -76.98411366666667}, {"fusion_lat": 0.0, "name": "c133dae3ab2e824783d99501f629cc31", "is_disabled": 0, "rental_uris": {"android": "https://dc.lft.to/lastmile_qr_scan", "ios": "https://dc.lft.to/lastmile_qr_scan"}, "fusion_lon": 0.0, "lat": 38.897316000000004, "bike_id": "c133dae3ab2e824783d99501f629cc31", "type": "electric_scooter", "is_reserved": 0, "lon": -77.02753216666666}, {"fusion_lat": 0.0, "name": "fd67364be728ae0781422a65adecbc05", "is_disabled": 0, "rental_uris": {"android": "https://dc.lft.to/lastmile_qr_scan", "ios": "https://dc.lft.to/lastmile_qr_scan"}, "fusion_lon": 0.0, "lat": 38.8718395, "bike_id": "fd67364be728ae0781422a65adecbc05", "type": "electric_scooter", "is_reserved": 0, "lon": -77.00653616666666}, {"fusion_lat": 0.0, "name": "8f8179408a4c10a975ab339171bda2bc", "is_disabled": 0, "rental_uris": {"android": "https://dc.lft.to/lastmile_qr_scan", "ios": "https://dc.lft.to/lastmile_qr_scan"}, "fusion_lon": 0.0, "lat": 38.91165266666667, "bike_id": "8f8179408a4c10a975ab339171bda2bc", "type": "electric_scooter", "is_reserved": 0, "lon": -77.0199625}, {"fusion_lat": 0.0, "name": "911982f4e3a3416b25ea983a49372c00", "is_disabled": 0, "rental_uris": {"android": "https://dc.lft.to/lastmile_qr_scan", "ios": "https://dc.lft.to/lastmile_qr_scan"}, "fusion_lon": 0.0, "lat": 38.917266166666664, "bike_id": "911982f4e3a3416b25ea983a49372c00", "type": "electric_scooter", "is_reserved": 0, "lon": -77.026993}, {"fusion_lat": 0.0, "name": "c1da8c5c8aff034d31e410005abadc99", "is_disabled": 0, "rental_uris": {"android": "https://dc.lft.to/lastmile_qr_scan", "ios": "https://dc.lft.to/lastmile_qr_scan"}, "fusion_lon": 0.0, "lat": 38.85770683333333, "bike_id": "c1da8c5c8aff034d31e410005abadc99", "type": "electric_bike", "is_reserved": 0, "lon": -76.98762766666667}, {"fusion_lat": 0.0, "name": "e4a8ea5bcbad317055d89eddb9d7416d", "is_disabled": 0, "rental_uris": {"android": "https://dc.lft.to/lastmile_qr_scan", "ios": "https://dc.lft.to/lastmile_qr_scan"}, "fusion_lon": 0.0, "lat": 38.90023466666667, "bike_id": "e4a8ea5bcbad317055d89eddb9d7416d", "type": "electric_scooter", "is_reserved": 0, "lon": -76.99856366666667}, {"fusion_lat": 0.0, "name": "f28eb6d15f2936398811a1e1b436136b", "is_disabled": 0, "rental_uris": {"android": "https://dc.lft.to/lastmile_qr_scan", "ios": "https://dc.lft.to/lastmile_qr_scan"}, "fusion_lon": 0.0, "lat": 38.911774333333334, "bike_id": "f28eb6d15f2936398811a1e1b436136b", "type": "electric_scooter", "is_reserved": 0, "lon": -77.011201}, {"fusion_lat": 0.0, "name": "3e7b07fbbf4198cc0a5ee203b3c0e91e", "is_disabled": 0, "rental_uris": {"android": "https://dc.lft.to/lastmile_qr_scan", "ios": "https://dc.lft.to/lastmile_qr_scan"}, "fusion_lon": 0.0, "lat": 38.91693883333333, "bike_id": "3e7b07fbbf4198cc0a5ee203b3c0e91e", "type": "electric_scooter", "is_reserved": 0, "lon": -77.03854916666667}, {"fusion_lat": 0.0, "name": "8a439dce9eaefcd0281ee79892fcd86b", "is_disabled": 0, "rental_uris": {"android": "https://dc.lft.to/lastmile_qr_scan", "ios": "https://dc.lft.to/lastmile_qr_scan"}, "fusion_lon": 0.0, "lat": 38.897288833333334, "bike_id": "8a439dce9eaefcd0281ee79892fcd86b", "type": "electric_scooter", "is_reserved": 0, "lon": -77.05522233333333}, {"fusion_lat": 0.0, "name": "5a07b2963b7bb98988b6d3b97fc5377e", "is_disabled": 0, "rental_uris": {"android": "https://dc.lft.to/lastmile_qr_scan", "ios": "https://dc.lft.to/lastmile_qr_scan"}, "fusion_lon": 0.0, "lat": 38.89854883333334, "bike_id": "5a07b2963b7bb98988b6d3b97fc5377e", "type": "electric_bike", "is_reserved": 0, "lon": -76.9318875}, {"fusion_lat": 0.0, "name": "af1896b70abb1cc8d78d615d9e6f6f9b", "is_disabled": 0, "rental_uris": {"android": "https://dc.lft.to/lastmile_qr_scan", "ios": "https://dc.lft.to/lastmile_qr_scan"}, "fusion_lon": 0.0, "lat": 38.91112416666667, "bike_id": "af1896b70abb1cc8d78d615d9e6f6f9b", "type": "electric_scooter", "is_reserved": 0, "lon": -77.03164733333334}, {"fusion_lat": 0.0, "name": "553d19758f325e6129c5ee768ed3ef1b", "is_disabled": 0, "rental_uris": {"android": "https://dc.lft.to/lastmile_qr_scan", "ios": "https://dc.lft.to/lastmile_qr_scan"}, "fusion_lon": 0.0, "lat": 38.924754, "bike_id": "553d19758f325e6129c5ee768ed3ef1b", "type": "electric_scooter", "is_reserved": 0, "lon": -77.0207695}, {"fusion_lat": 0.0, "name": "c4fd6a019e267566af09903392e3a601", "is_disabled": 0, "rental_uris": {"android": "https://dc.lft.to/lastmile_qr_scan", "ios": "https://dc.lft.to/lastmile_qr_scan"}, "fusion_lon": 0.0, "lat": 38.931819, "bike_id": "c4fd6a019e267566af09903392e3a601", "type": "electric_scooter", "is_reserved": 0, "lon": -77.0200655}, {"fusion_lat": 0.0, "name": "99f47892b93c30bfe82770e611991d1a", "is_disabled": 0, "rental_uris": {"android": "https://dc.lft.to/lastmile_qr_scan", "ios": "https://dc.lft.to/lastmile_qr_scan"}, "fusion_lon": 0.0, "lat": 38.92244633333333, "bike_id": "99f47892b93c30bfe82770e611991d1a", "type": "electric_scooter", "is_reserved": 0, "lon": -77.03887966666667}, {"fusion_lat": 0.0, "name": "94c9747471ff6b631bee0203ccd9470d", "is_disabled": 0, "rental_uris": {"android": "https://dc.lft.to/lastmile_qr_scan", "ios": "https://dc.lft.to/lastmile_qr_scan"}, "fusion_lon": 0.0, "lat": 38.9222205, "bike_id": "94c9747471ff6b631bee0203ccd9470d", "type": "electric_scooter", "is_reserved": 0, "lon": -77.02105816666666}, {"fusion_lat": 0.0, "name": "dd3778a8a5ab97684735649083b5f8f3", "is_disabled": 0, "rental_uris": {"android": "https://dc.lft.to/lastmile_qr_scan", "ios": "https://dc.lft.to/lastmile_qr_scan"}, "fusion_lon": 0.0, "lat": 38.923233, "bike_id": "dd3778a8a5ab97684735649083b5f8f3", "type": "electric_scooter", "is_reserved": 0, "lon": -77.040496}, {"fusion_lat": 0.0, "name": "0f5d099dcf0cab45bb21b89c06795c0a", "is_disabled": 0, "rental_uris": {"android": "https://dc.lft.to/lastmile_qr_scan", "ios": "https://dc.lft.to/lastmile_qr_scan"}, "fusion_lon": 0.0, "lat": 38.90645383333333, "bike_id": "0f5d099dcf0cab45bb21b89c06795c0a", "type": "electric_scooter", "is_reserved": 0, "lon": -77.03441683333334}, {"fusion_lat": 0.0, "name": "2777c1ff7b73b8bdf64fb5f2be293ee6", "is_disabled": 0, "rental_uris": {"android": "https://dc.lft.to/lastmile_qr_scan", "ios": "https://dc.lft.to/lastmile_qr_scan"}, "fusion_lon": 0.0, "lat": 38.904663666666664, "bike_id": "2777c1ff7b73b8bdf64fb5f2be293ee6", "type": "electric_scooter", "is_reserved": 0, "lon": -77.02813133333333}, {"fusion_lat": 0.0, "name": "12291ffa6c66a38c5fee9dba9e6f69e0", "is_disabled": 0, "rental_uris": {"android": "https://dc.lft.to/lastmile_qr_scan", "ios": "https://dc.lft.to/lastmile_qr_scan"}, "fusion_lon": 0.0, "lat": 38.89415, "bike_id": "12291ffa6c66a38c5fee9dba9e6f69e0", "type": "electric_scooter", "is_reserved": 0, "lon": -77.02179833333334}, {"fusion_lat": 0.0, "name": "7c9784bab9e93d091e8e65e75834f5e5", "is_disabled": 0, "rental_uris": {"android": "https://dc.lft.to/lastmile_qr_scan", "ios": "https://dc.lft.to/lastmile_qr_scan"}, "fusion_lon": 0.0, "lat": 38.860138666666664, "bike_id": "7c9784bab9e93d091e8e65e75834f5e5", "type": "electric_scooter", "is_reserved": 0, "lon": -76.96709783333333}, {"fusion_lat": 0.0, "name": "855e5503f3b1a780430db0de49cf7f9c", "is_disabled": 0, "rental_uris": {"android": "https://dc.lft.to/lastmile_qr_scan", "ios": "https://dc.lft.to/lastmile_qr_scan"}, "fusion_lon": 0.0, "lat": 38.8730385, "bike_id": "855e5503f3b1a780430db0de49cf7f9c", "type": "electric_scooter", "is_reserved": 0, "lon": -76.978036}, {"fusion_lat": 0.0, "name": "3b56021fdc746355a6e88434ae371c6f", "is_disabled": 0, "rental_uris": {"android": "https://dc.lft.to/lastmile_qr_scan", "ios": "https://dc.lft.to/lastmile_qr_scan"}, "fusion_lon": 0.0, "lat": 38.8997705, "bike_id": "3b56021fdc746355a6e88434ae371c6f", "type": "electric_scooter", "is_reserved": 0, "lon": -77.05269733333333}, {"fusion_lat": 0.0, "name": "fa31735d29e868508e9ac1cb589ff012", "is_disabled": 0, "rental_uris": {"android": "https://dc.lft.to/lastmile_qr_scan", "ios": "https://dc.lft.to/lastmile_qr_scan"}, "fusion_lon": 0.0, "lat": 38.901007166666666, "bike_id": "fa31735d29e868508e9ac1cb589ff012", "type": "electric_scooter", "is_reserved": 0, "lon": -76.93060266666667}, {"fusion_lat": 0.0, "name": "a3892b68952dd6d7734bdd44add3dec9", "is_disabled": 0, "rental_uris": {"android": "https://dc.lft.to/lastmile_qr_scan", "ios": "https://dc.lft.to/lastmile_qr_scan"}, "fusion_lon": 0.0, "lat": 38.923404833333336, "bike_id": "a3892b68952dd6d7734bdd44add3dec9", "type": "electric_scooter", "is_reserved": 0, "lon": -77.05219466666667}, {"fusion_lat": 0.0, "name": "6791291755057a8601d79fcc24af716a", "is_disabled": 0, "rental_uris": {"android": "https://dc.lft.to/lastmile_qr_scan", "ios": "https://dc.lft.to/lastmile_qr_scan"}, "fusion_lon": 0.0, "lat": 38.90791083333333, "bike_id": "6791291755057a8601d79fcc24af716a", "type": "electric_scooter", "is_reserved": 0, "lon": -77.0427445}, {"fusion_lat": 0.0, "name": "64a1dd48d46325f4772c7ce6f8b6de6f", "is_disabled": 0, "rental_uris": {"android": "https://dc.lft.to/lastmile_qr_scan", "ios": "https://dc.lft.to/lastmile_qr_scan"}, "fusion_lon": 0.0, "lat": 38.903601333333334, "bike_id": "64a1dd48d46325f4772c7ce6f8b6de6f", "type": "electric_scooter", "is_reserved": 0, "lon": -77.01786633333333}, {"fusion_lat": 0.0, "name": "b38ce044b9173de6c61d9d30cf3c33d7", "is_disabled": 0, "rental_uris": {"android": "https://dc.lft.to/lastmile_qr_scan", "ios": "https://dc.lft.to/lastmile_qr_scan"}, "fusion_lon": 0.0, "lat": 38.89715533333333, "bike_id": "b38ce044b9173de6c61d9d30cf3c33d7", "type": "electric_scooter", "is_reserved": 0, "lon": -77.02455433333333}, {"fusion_lat": 0.0, "name": "895ad5dbd23815de303b5cdaa83961ef", "is_disabled": 0, "rental_uris": {"android": "https://dc.lft.to/lastmile_qr_scan", "ios": "https://dc.lft.to/lastmile_qr_scan"}, "fusion_lon": 0.0, "lat": 38.93092, "bike_id": "895ad5dbd23815de303b5cdaa83961ef", "type": "electric_scooter", "is_reserved": 0, "lon": -77.01990216666667}, {"fusion_lat": 0.0, "name": "c47b781c361242ad2eb99f805455c69e", "is_disabled": 0, "rental_uris": {"android": "https://dc.lft.to/lastmile_qr_scan", "ios": "https://dc.lft.to/lastmile_qr_scan"}, "fusion_lon": 0.0, "lat": 38.92386916666667, "bike_id": "c47b781c361242ad2eb99f805455c69e", "type": "electric_scooter", "is_reserved": 0, "lon": -77.02738816666667}, {"fusion_lat": 0.0, "name": "fd481f89ea23adff4ad6d7780dfcd1b1", "is_disabled": 0, "rental_uris": {"android": "https://dc.lft.to/lastmile_qr_scan", "ios": "https://dc.lft.to/lastmile_qr_scan"}, "fusion_lon": 0.0, "lat": 38.878876166666664, "bike_id": "fd481f89ea23adff4ad6d7780dfcd1b1", "type": "electric_scooter", "is_reserved": 0, "lon": -76.9654225}, {"fusion_lat": 0.0, "name": "01b722d5e940af26cf36db6a6c1072e1", "is_disabled": 0, "rental_uris": {"android": "https://dc.lft.to/lastmile_qr_scan", "ios": "https://dc.lft.to/lastmile_qr_scan"}, "fusion_lon": 0.0, "lat": 38.90405116666667, "bike_id": "01b722d5e940af26cf36db6a6c1072e1", "type": "electric_scooter", "is_reserved": 0, "lon": -77.03652083333333}, {"fusion_lat": 0.0, "name": "5869882937dfc1ab0429587bf0455931", "is_disabled": 0, "rental_uris": {"android": "https://dc.lft.to/lastmile_qr_scan", "ios": "https://dc.lft.to/lastmile_qr_scan"}, "fusion_lon": 0.0, "lat": 38.89824433333333, "bike_id": "5869882937dfc1ab0429587bf0455931", "type": "electric_scooter", "is_reserved": 0, "lon": -77.02709566666667}, {"fusion_lat": 0.0, "name": "678582ecc9a0852ada332fc2794a26e0", "is_disabled": 0, "rental_uris": {"android": "https://dc.lft.to/lastmile_qr_scan", "ios": "https://dc.lft.to/lastmile_qr_scan"}, "fusion_lon": 0.0, "lat": 38.924868000000004, "bike_id": "678582ecc9a0852ada332fc2794a26e0", "type": "electric_scooter", "is_reserved": 0, "lon": -77.0271405}, {"fusion_lat": 0.0, "name": "ec1c39016ee19a3b705070614312916d", "is_disabled": 0, "rental_uris": {"android": "https://dc.lft.to/lastmile_qr_scan", "ios": "https://dc.lft.to/lastmile_qr_scan"}, "fusion_lon": 0.0, "lat": 38.912558, "bike_id": "ec1c39016ee19a3b705070614312916d", "type": "electric_scooter", "is_reserved": 0, "lon": -77.00671983333334}, {"fusion_lat": 0.0, "name": "7de83067ed67e36956bf1ba3fce9300a", "is_disabled": 0, "rental_uris": {"android": "https://dc.lft.to/lastmile_qr_scan", "ios": "https://dc.lft.to/lastmile_qr_scan"}, "fusion_lon": 0.0, "lat": 38.93843016666667, "bike_id": "7de83067ed67e36956bf1ba3fce9300a", "type": "electric_scooter", "is_reserved": 0, "lon": -77.02465733333334}, {"fusion_lat": 0.0, "name": "aca4f70222da6e42d9e629e3bab38980", "is_disabled": 0, "rental_uris": {"android": "https://dc.lft.to/lastmile_qr_scan", "ios": "https://dc.lft.to/lastmile_qr_scan"}, "fusion_lon": 0.0, "lat": 38.91579866666667, "bike_id": "aca4f70222da6e42d9e629e3bab38980", "type": "electric_scooter", "is_reserved": 0, "lon": -77.04655766666667}, {"fusion_lat": 0.0, "name": "9de5cf3fd1021832f10bafd9a7af07a7", "is_disabled": 0, "rental_uris": {"android": "https://dc.lft.to/lastmile_qr_scan", "ios": "https://dc.lft.to/lastmile_qr_scan"}, "fusion_lon": 0.0, "lat": 38.89852583333333, "bike_id": "9de5cf3fd1021832f10bafd9a7af07a7", "type": "electric_scooter", "is_reserved": 0, "lon": -77.0221685}, {"fusion_lat": 0.0, "name": "357ceb48cda8cb3d102d266ed28f11bc", "is_disabled": 0, "rental_uris": {"android": "https://dc.lft.to/lastmile_qr_scan", "ios": "https://dc.lft.to/lastmile_qr_scan"}, "fusion_lon": 0.0, "lat": 38.871839, "bike_id": "357ceb48cda8cb3d102d266ed28f11bc", "type": "electric_scooter", "is_reserved": 0, "lon": -77.00612216666667}, {"fusion_lat": 0.0, "name": "5feb1bd276d3366568276a9b8f3b52ca", "is_disabled": 0, "rental_uris": {"android": "https://dc.lft.to/lastmile_qr_scan", "ios": "https://dc.lft.to/lastmile_qr_scan"}, "fusion_lon": 0.0, "lat": 38.9549055, "bike_id": "5feb1bd276d3366568276a9b8f3b52ca", "type": "electric_bike", "is_reserved": 0, "lon": -77.02671166666667}, {"fusion_lat": 0.0, "name": "a8a0ca7093d2aebb1242fde929237eae", "is_disabled": 0, "rental_uris": {"android": "https://dc.lft.to/lastmile_qr_scan", "ios": "https://dc.lft.to/lastmile_qr_scan"}, "fusion_lon": 0.0, "lat": 38.917181166666666, "bike_id": "a8a0ca7093d2aebb1242fde929237eae", "type": "electric_scooter", "is_reserved": 0, "lon": -77.028194},