{"data": {"bikes": [{"is_disabled": 0, "fusion_lon": 0.0, "fusion_lat": 0.0, "lat": 38.9180735, "type": "electric_scooter", "lon": -77.02445533333334, "bike_id": "076d11b3f4d00970adc9a126b26857b9", "rental_uris": {"android": "https://dc.lft.to/lastmile_qr_scan", "ios": "https://dc.lft.to/lastmile_qr_scan"}, "name": "076d11b3f4d00970adc9a126b26857b9", "is_reserved": 0}, {"is_disabled": 0, "fusion_lon": 0.0, "fusion_lat": 0.0, "lat": 38.9325455, "type": "electric_scooter", "lon": -77.0327255, "bike_id": "8a94a39d0d723d4bff29fe3cf0430810", "rental_uris": {"android": "https://dc.lft.to/lastmile_qr_scan", "ios": "https://dc.lft.to/lastmile_qr_scan"}, "name": "8a94a39d0d723d4bff29fe3cf0430810", "is_reserved": 0}, {"is_disabled": 0, "fusion_lon": 0.0, "fusion_lat": 0.0, "lat": 38.8634565, "type": "electric_scooter", "lon": -76.99061183333333, "bike_id": "aad423bb6935c8862fed46b552488c3d", "rental_uris": {"android": "https://dc.lft.to/lastmile_qr_scan", "ios": "https://dc.lft.to/lastmile_qr_scan"}, "name": "aad423bb6935c8862fed46b552488c3d", "is_reserved": 0}, {"is_disabled": 0, "fusion_lon": 0.0, "fusion_lat": 0.0, "lat": 38.93704966666667, "type": "electric_scooter", "lon": -77.061005, "bike_id": "3ba519a11747339b5851ea40a825d153", "rental_uris": {"android": "https://dc.lft.to/lastmile_qr_scan", "ios": "https://dc.lft.to/lastmile_qr_scan"}, "name": "3ba519a11747339b5851ea40a825d153", "is_reserved": 0}, {"is_disabled": 0, "fusion_lon": 0.0, "fusion_lat": 0.0, "lat": 38.90178216666666, "type": "electric_scooter", "lon": -77.050137, "bike_id": "15bf90fee901757cbf866a8182246d45", "rental_uris": {"android": "https://dc.lft.to/lastmile_qr_scan", "ios": "https://dc.lft.to/lastmile_qr_scan"}, "name": "15bf90fee901757cbf866a8182246d45", "is_reserved": 0}, {"is_disabled": 0, "fusion_lon": 0.0, "fusion_lat": 0.0, "lat": 38.915756333333334, "type": "electric_scooter", "lon": -77.02099116666666, "bike_id": "471eb8dbeedb4adc59fac6e1d992095b", "rental_uris": {"android": "https://dc.lft.to/lastmile_qr_scan", "ios": "https://dc.lft.to/lastmile_qr_scan"}, "name": "471eb8dbeedb4adc59fac6e1d992095b", "is_reserved": 0}, {"is_disabled": 0, "fusion_lon": 0.0, "fusion_lat": 0.0, "lat": 38.898216, "type": "electric_scooter", "lon": -77.0436025, "bike_id": "a2ed039b37d8f03416143824b8d0b9f6", "rental_uris": {"android": "https://dc.lft.to/lastmile_qr_scan", "ios": "https://dc.lft.to/lastmile_qr_scan"}, "name": "a2ed039b37d8f03416143824b8d0b9f6", "is_reserved": 0}, {"is_disabled": 0, "fusion_lon": 0.0, "fusion_lat": 0.0, "lat": 38.895351166666664, "type": "electric_bike", "lon": -77.04054583333334, "bike_id": "929230db299cfaf37f45db8b7e8c2a83", "rental_uris": {"android": "https://dc.lft.to/lastmile_qr_scan", "ios": "https://dc.lft.to/lastmile_qr_scan"}, "name": "929230db299cfaf37f45db8b7e8c2a83", "is_reserved": 0}, {"is_disabled": 0, "fusion_lon": 0.0, "fusion_lat": 0.0, "lat": 38.92738683333334, "type": "electric_bike", "lon": -76.993633, "bike_id": "1fc7104767ded0f71b361023fc1baa41", "rental_uris": {"android": "https://dc.lft.to/lastmile_qr_scan", "ios": "https://dc.lft.to/lastmile_qr_scan"}, "name": "1fc7104767ded0f71b361023fc1baa41", "is_reserved": 0}, {"is_disabled": 0, "fusion_lon": 0.0, "fusion_lat": 0.0, "lat": 38.91721533333333, "type": "electric_scooter", "lon": -77.02870816666666, "bike_id": "96bf20f6628d51c75b3f42d2598f86a6", "rental_uris": {"android": "https://dc.lft.to/lastmile_qr_scan", "ios": "https://dc.lft.to/lastmile_qr_scan"}, "name": "96bf20f6628d51c75b3f42d2598f86a6", "is_reserved": 0}, {"is_disabled": 0, "fusion_lon": 0.0, "fusion_lat": 0.0, "lat": 38.95630516666667, "type": "electric_scooter", "lon": -77.02980216666667, "bike_id": "026e2852f0390776cb4d5fa4d7a885ad", "rental_uris": {"android": "https://dc.lft.to/lastmile_qr_scan", "ios": "https://dc.lft.to/lastmile_qr_scan"}, "name": "026e2852f0390776cb4d5fa4d7a885ad", "is_reserved": 0}, {"is_disabled": 0, "fusion_lon": 0.0, "fusion_lat": 0.0, "lat": 38.88141266666667, "type": "electric_scooter", "lon": -77.00832383333334, "bike_id": "67e55c74af40bb8fc5d38622236e1c50", "rental_uris": {"android": "https://dc.lft.to/lastmile_qr_scan", "ios": "https://dc.lft.to/lastmile_qr_scan"}, "name": "67e55c74af40bb8fc5d38622236e1c50", "is_reserved": 0}, {"is_disabled": 0, "fusion_lon": 0.0, "fusion_lat": 0.0, "lat": 38.85064416666667, "type": "electric_bike", "lon": -76.97328383333334, "bike_id": "ddb9449d1a5256969b9023b8d9f94f7f", "rental_uris": {"android": "https://dc.lft.to/lastmile_qr_scan", "ios": "https://dc.lft.to/lastmile_qr_scan"}, "name": "ddb9449d1a5256969b9023b8d9f94f7f", "is_reserved": 0}, {"is_disabled": 0, "fusion_lon": 0.0, "fusion_lat": 0.0, "lat": 38.859648166666666, "type": "electric_scooter", "lon": -76.98416866666666, "bike_id": "7dc593dad4aa700b2cafad5059bf9da9", "rental_uris": {"android": "https://dc.lft.to/lastmile_qr_scan", "ios": "https://dc.lft.to/lastmile_qr_scan"}, "name": "7dc593dad4aa700b2cafad5059bf9da9", "is_reserved": 0}, {"is_disabled": 0, "fusion_lon": 0.0, "fusion_lat": 0.0, "lat": 38.902597, "type": "electric_scooter", "lon": -77.03448933333334, "bike_id": "74cfb82aafee08daa85266a11641d5f9", "rental_uris": {"android": "https://dc.lft.to/lastmile_qr_scan", "ios": "https://dc.lft.to/lastmile_qr_scan"}, "name": "74cfb82aafee08daa85266a11641d5f9", "is_reserved": 0}, {"is_disabled": 0, "fusion_lon": 0.0, "fusion_lat": 0.0, "lat": 38.9190105, "type": "electric_scooter", "lon": -77.02757166666666, "bike_id": "6dd3ff05b481256b88638de296954c3a", "rental_uris": {"android": "https://dc.lft.to/lastmile_qr_scan", "ios": "https://dc.lft.to/lastmile_qr_scan"}, "name": "6dd3ff05b481256b88638de296954c3a", "is_reserved": 0}, {"is_disabled": 0, "fusion_lon": 0.0, "fusion_lat": 0.0, "lat": 38.92793833333333, "type": "electric_scooter", "lon": -77.0229855, "bike_id": "d783f17eda4c6af5724feb4e95bae784", "rental_uris": {"android": "https://dc.lft.to/lastmile_qr_scan", "ios": "https://dc.lft.to/lastmile_qr_scan"}, "name": "d783f17eda4c6af5724feb4e95bae784", "is_reserved": 0}, {"is_disabled": 0, "fusion_lon": 0.0, "fusion_lat": 0.0, "lat": 38.91792433333333, "type": "electric_scooter", "lon": -77.03550966666667, "bike_id": "1d63d546cc0dea2344d0fa7945cadfa2", "rental_uris": {"android": "https://dc.lft.to/lastmile_qr_scan", "ios": "https://dc.lft.to/lastmile_qr_scan"}, "name": "1d63d546cc0dea2344d0fa7945cadfa2", "is_reserved": 0}, {"is_disabled": 0, "fusion_lon": 0.0, "fusion_lat": 0.0, "lat": 38.904999333333336, "type": "electric_scooter", "lon": -77.029601, "bike_id": "4812b56ad5616d290c1a35efe8bf0eb1", "rental_uris": {"android": "https://dc.lft.to/lastmile_qr_scan", "ios": "https://dc.lft.to/lastmile_qr_scan"}, "name": "4812b56ad5616d290c1a35efe8bf0eb1", "is_reserved": 0}, {"is_disabled": 0, "fusion_lon": 0.0, "fusion_lat": 0.0, "lat": 38.918202666666666, "type": "electric_scooter", "lon": -77.0417295, "bike_id": "7721a45e1c1b280ef933174072fde1ff", "rental_uris": {"android": "https://dc.lft.to/lastmile_qr_scan", "ios": "https://dc.lft.to/lastmile_qr_scan"}, "name": "7721a45e1c1b280ef933174072fde1ff", "is_reserved": 0}, {"is_disabled": 0, "fusion_lon": 0.0, "fusion_lat": 0.0, "lat": 38.91011483333333, "type": "electric_scooter", "lon": -77.02090233333334, "bike_id": "24670e60d71a266b4429b637c59b0b81", "rental_uris": {"android": "https://dc.lft.to/lastmile_qr_scan", "ios": "https://dc.lft.to/lastmile_qr_scan"}, "name": "24670e60d71a266b4429b637c59b0b81", "is_reserved": 0}, {"is_disabled": 0, "fusion_lon": 0.0, "fusion_lat": 0.0, "lat": 38.9209245, "type": "electric_scooter", "lon": -77.02593616666667, "bike_id": "1b8f91b7b8bbc93eded57a9c30aa87a8", "rental_uris": {"android": "https://dc.lft.to/lastmile_qr_scan", "ios": "https://dc.lft.to/lastmile_qr_scan"}, "name": "1b8f91b7b8bbc93eded57a9c30aa87a8", "is_reserved": 0}, {"is_disabled": 0, "fusion_lon": 0.0, "fusion_lat": 0.0, "lat": 38.884475333333334, "type": "electric_scooter", "lon": -76.950956, "bike_id": "3aa98d79bdc3147575e214cf5988a659", "rental_uris": {"android": "https://dc.lft.to/lastmile_qr_scan", "ios": "https://dc.lft.to/lastmile_qr_scan"}, "name": "3aa98d79bdc3147575e214cf5988a659", "is_reserved": 0}, {"is_disabled": 0, "fusion_lon": 0.0, "fusion_lat": 0.0, "lat": 38.89781216666667, "type": "electric_scooter", "lon": -77.04749683333333, "bike_id": "b3b6082ffe45eb1763b2cde8e80aad78", "rental_uris": {"android": "https://dc.lft.to/lastmile_qr_scan", "ios": "https://dc.lft.to/lastmile_qr_scan"}, "name": "b3b6082ffe45eb1763b2cde8e80aad78", "is_reserved": 0}, {"is_disabled": 0, "fusion_lon": 0.0, "fusion_lat": 0.0, "lat": 38.8957445, "type": "electric_bike", "lon": -76.97623733333333, "bike_id": "c360f33de4b124bff37823f5eef91e15", "rental_uris": {"android": "https://dc.lft.to/lastmile_qr_scan", "ios": "https://dc.lft.to/lastmile_qr_scan"}, "name": "c360f33de4b124bff37823f5eef91e15", "is_reserved": 0}, {"is_disabled": 0, "fusion_lon": 0.0, "fusion_lat": 0.0, "lat": 38.923528, "type": "electric_scooter", "lon": -77.03889133333334, "bike_id": "62934caec6130d00a86ee5c7e8cbbf9a", "rental_uris": {"android": "https://dc.lft.to/lastmile_qr_scan", "ios": "https://dc.lft.to/lastmile_qr_scan"}, "name": "62934caec6130d00a86ee5c7e8cbbf9a", "is_reserved": 0}, {"is_disabled": 0, "fusion_lon": 0.0, "fusion_lat": 0.0, "lat": 38.90259533333333, "type": "electric_scooter", "lon": -77.03951766666667, "bike_id": "7f7d40a04d67da47fd39599db46c2c89", "rental_uris": {"android": "https://dc.lft.to/lastmile_qr_scan", "ios": "https://dc.lft.to/lastmile_qr_scan"}, "name": "7f7d40a04d67da47fd39599db46c2c89", "is_reserved": 0}, {"is_disabled": 0, "fusion_lon": 0.0, "fusion_lat": 0.0, "lat": 38.93411566666666, "type": "electric_scooter", "lon": -77.04263966666667, "bike_id": "f0b139a05aaf9f9bd165e2a9f52954a3", "rental_uris": {"android": "https://dc.lft.to/lastmile_qr_scan", "ios": "https://dc.lft.to/lastmile_qr_scan"}, "name": "f0b139a05aaf9f9bd165e2a9f52954a3", "is_reserved": 0}, {"is_disabled": 0, "fusion_lon": 0.0, "fusion_lat": 0.0, "lat": 38.9053205, "type": "electric_scooter", "lon": -77.02686766666666, "bike_id": "a6213f26334b4a4c3a78e09ea145710e", "rental_uris": {"android": "https://dc.lft.to/lastmile_qr_scan", "ios": "https://dc.lft.to/lastmile_qr_scan"}, "name": "a6213f26334b4a4c3a78e09ea145710e", "is_reserved": 0}, {"is_disabled": 0, "fusion_lon": 0.0, "fusion_lat": 0.0, "lat": 38.996666, "type": "electric_bike", "lon": -76.99143733333334, "bike_id": "7666f7015cd7db82a4b4ee7c6ff96030", "rental_uris": {"android": "https://dc.lft.to/lastmile_qr_scan", "ios": "https://dc.lft.to/lastmile_qr_scan"}, "name": "7666f7015cd7db82a4b4ee7c6ff96030", "is_reserved": 0}, {"is_disabled": 0, "fusion_lon": 0.0, "fusion_lat": 0.0, "lat": 38.896624833333334, "type": "electric_scooter", "lon": -77.04345966666666, "bike_id": "55d92195b01241a8610983b94106af27", "rental_uris": {"android": "https://dc.lft.to/lastmile_qr_scan", "ios": "https://dc.lft.to/lastmile_qr_scan"}, "name": "55d92195b01241a8610983b94106af27", "is_reserved": 0}, {"is_disabled": 0, "fusion_lon": 0.0, "fusion_lat": 0.0, "lat": 38.9262445, "type": "electric_scooter", "lon": -77.04194183333334, "bike_id": "81bb5ff6b24b2c836db2ecf920518b6e", "rental_uris": {"android": "https://dc.lft.to/lastmile_qr_scan", "ios": "https://dc.lft.to/lastmile_qr_scan"}, "name": "81bb5ff6b24b2c836db2ecf920518b6e", "is_reserved": 0}, {"is_disabled": 0, "fusion_lon": 0.0, "fusion_lat": 0.0, "lat": 38.8751395, "type": "electric_scooter", "lon": -77.01381916666666, "bike_id": "6897fad7398fa363ccd2ffe52f71b808", "rental_uris": {"android": "https://dc.lft.to/lastmile_qr_scan", "ios": "https://dc.lft.to/lastmile_qr_scan"}, "name": "6897fad7398fa363ccd2ffe52f71b808", "is_reserved": 0}, {"is_disabled": 0, "fusion_lon": 0.0, "fusion_lat": 0.0, "lat": 38.9445785, "type": "electric_scooter", "lon": -77.06021183333333, "bike_id": "e137ace0578738909838c81f178d48e6", "rental_uris": {"android": "https://dc.lft.to/lastmile_qr_scan", "ios": "https://dc.lft.to/lastmile_qr_scan"}, "name": "e137ace0578738909838c81f178d48e6", "is_reserved": 0}, {"is_disabled": 0, "fusion_lon": 0.0, "fusion_lat": 0.0, "lat": 38.926343333333335, "type": "electric_scooter", "lon": -77.04263616666667, "bike_id": "d469d6007e4c816df94ee90b9e3aad1f", "rental_uris": {"android": "https://dc.lft.to/lastmile_qr_scan", "ios": "https://dc.lft.to/lastmile_qr_scan"}, "name": "d469d6007e4c816df94ee90b9e3aad1f", "is_reserved": 0}, {"is_disabled": 0, "fusion_lon": 0.0, "fusion_lat": 0.0, "lat": 38.906678666666664, "type": "electric_scooter", "lon": -77.0270895, "bike_id": "25400c2e6daa001534e692c1eaba0595", "rental_uris": {"android": "https://dc.lft.to/lastmile_qr_scan", "ios": "https://dc.lft.to/lastmile_qr_scan"}, "name": "25400c2e6daa001534e692c1eaba0595", "is_reserved": 0}, {"is_disabled": 0, "fusion_lon": 0.0, "fusion_lat": 0.0, "lat": 38.844272833333335, "type": "electric_scooter", "lon": -76.99778166666667, "bike_id": "f7e2e5bf6cfe433b0b5f880b31df201d", "rental_uris": {"android": "https://dc.lft.to/lastmile_qr_scan", "ios": "https://dc.lft.to/lastmile_qr_scan"}, "name": "f7e2e5bf6cfe433b0b5f880b31df201d", "is_reserved": 0}, {"is_disabled": 0, "fusion_lon": 0.0, "fusion_lat": 0.0, "lat": 38.946076833333336, "type": "electric_scooter", "lon": -77.0345775, "bike_id": "849deac1ae7b819e4a72d3e92ae30e78", "rental_uris": {"android": "https://dc.lft.to/lastmile_qr_scan", "ios": "https://dc.lft.to/lastmile_qr_scan"}, "name": "849deac1ae7b819e4a72d3e92ae30e78", "is_reserved": 0}, {"is_disabled": 0, "fusion_lon": 0.0, "fusion_lat": 0.0, "lat": 38.90415333333333, "type": "electric_scooter", "lon": -76.98546733333333, "bike_id": "b2654345e3f1dd6c7500e5f7b8095933", "rental_uris": {"android": "https://dc.lft.to/lastmile_qr_scan", "ios": "https://dc.lft.to/lastmile_qr_scan"}, "name": "b2654345e3f1dd6c7500e5f7b8095933", "is_reserved": 0}, {"is_disabled": 0, "fusion_lon": 0.0, "fusion_lat": 0.0, "lat": 38.913054, "type": "electric_scooter", "lon": -77.0466175, "bike_id": "7628bf7caf24c2e6ee920b8c7ce97342", "rental_uris": {"android": "https://dc.lft.to/lastmile_qr_scan", "ios": "https://dc.lft.to/lastmile_qr_scan"}, "name": "7628bf7caf24c2e6ee920b8c7ce97342", "is_reserved": 0}, {"is_disabled": 0, "fusion_lon": 0.0, "fusion_lat": 0.0, "lat": 38.89354983333333, "type": "electric_scooter", "lon": -77.02180666666666, "bike_id": "2cd12762caa83df34ce3f8f6ae72d91a", "rental_uris": {"android": "https://dc.lft.to/lastmile_qr_scan", "ios": "https://dc.lft.to/lastmile_qr_scan"}, "name": "2cd12762caa83df34ce3f8f6ae72d91a", "is_reserved": 0}, {"is_disabled": 0, "fusion_lon": 0.0, "fusion_lat": 0.0, "lat": 38.89499466666667, "type": "electric_scooter", "lon": -76.94877433333333, "bike_id": "b4f321513fdabf7f285362a32ff2905d", "rental_uris": {"android": "https://dc.lft.to/lastmile_qr_scan", "ios": "https://dc.lft.to/lastmile_qr_scan"}, "name": "b4f321513fdabf7f285362a32ff2905d", "is_reserved": 0}, {"is_disabled": 0, "fusion_lon": 0.0, "fusion_lat": 0.0, "lat": 38.92967983333333, "type": "electric_scooter", "lon": -77.04112016666667, "bike_id": "2dd90451638c65c045f81374ac62dd78", "rental_uris": {"android": "https://dc.lft.to/lastmile_qr_scan", "ios": "https://dc.lft.to/lastmile_qr_scan"}, "name": "2dd90451638c65c045f81374ac62dd78", "is_reserved": 0}, {"is_disabled": 0, "fusion_lon": 0.0, "fusion_lat": 0.0, "lat": 38.915575, "type": "electric_scooter", "lon": -77.01999283333333, "bike_id": "97275f558ce4ea2d782de695a1cad4e5", "rental_uris": {"android": "https://dc.lft.to/lastmile_qr_scan", "ios": "https://dc.lft.to/lastmile_qr_scan"}, "name": "97275f558ce4ea2d782de695a1cad4e5", "is_reserved": 0}, {"is_disabled": 0, "fusion_lon": 0.0, "fusion_lat": 0.0, "lat": 38.91442416666667, "type": "electric_bike", "lon": -77.02076916666667, "bike_id": "a73e4e96c75acb6bfc8a46e3c35a3716", "rental_uris": {"android": "https://dc.lft.to/lastmile_qr_scan", "ios": "https://dc.lft.to/lastmile_qr_scan"}, "name": "a73e4e96c75acb6bfc8a46e3c35a3716", "is_reserved": 0}, {"is_disabled": 0, "fusion_lon": 0.0, "fusion_lat": 0.0, "lat": 38.90502883333333, "type": "electric_scooter", "lon": -77.02949133333334, "bike_id": "80579bfc1a58173b664d2f082ce1005b", "rental_uris": {"android": "https://dc.lft.to/lastmile_qr_scan", "ios": "https://dc.lft.to/lastmile_qr_scan"}, "name": "80579bfc1a58173b664d2f082ce1005b", "is_reserved": 0}, {"is_disabled": 0, "fusion_lon": 0.0, "fusion_lat": 0.0, "lat": 38.92532416666667, "type": "electric_scooter", "lon": -77.073236, "bike_id": "4bf8c932926dae36442d270fbe3e73af", "rental_uris": {"android": "https://dc.lft.to/lastmile_qr_scan", "ios": "https://dc.lft.to/lastmile_qr_scan"}, "name": "4bf8c932926dae36442d270fbe3e73af", "is_reserved": 0}, {"is_disabled": 0, "fusion_lon": 0.0, "fusion_lat": 0.0, "lat": 38.89776483333333, "type": "electric_scooter", "lon": -77.024851, "bike_id": "5e9539e14000fa821929132c4d325850", "rental_uris": {"android": "https://dc.lft.to/lastmile_qr_scan", "ios": "https://dc.lft.to/lastmile_qr_scan"}, "name": "5e9539e14000fa821929132c4d325850", "is_reserved": 0}, {"is_disabled": 0, "fusion_lon": 0.0, "fusion_lat": 0.0, "lat": 38.876724, "type": "electric_bike", "lon": -77.0145415, "bike_id": "ff8fbad14bf5675a492ddad419f252fd", "rental_uris": {"android": "https://dc.lft.to/lastmile_qr_scan", "ios": "https://dc.lft.to/lastmile_qr_scan"}, "name": "ff8fbad14bf5675a492ddad419f252fd", "is_reserved": 0}, {"is_disabled": 0, "fusion_lon": 0.0, "fusion_lat": 0.0, "lat": 38.90539483333333, "type": "electric_scooter", "lon": -77.04349783333333, "bike_id": "dbc722b4c36c44de7d8620deb1333b1b", "rental_uris": {"android": "https://dc.lft.to/lastmile_qr_scan", "ios": "https://dc.lft.to/lastmile_qr_scan"}, "name": "dbc722b4c36c44de7d8620deb1333b1b", "is_reserved": 0}, {"is_disabled": 0, "fusion_lon": 0.0, "fusion_lat": 0.0, "lat": 38.956836, "type": "electric_scooter", "lon": -77.02406566666667, "bike_id": "9261d3290f11ffded0959702fcf8d42c", "rental_uris": {"android": "https://dc.lft.to/lastmile_qr_scan", "ios": "https://dc.lft.to/lastmile_qr_scan"}, "name": "9261d3290f11ffded0959702fcf8d42c", "is_reserved": 0}, {"is_disabled": 0, "fusion_lon": 0.0, "fusion_lat": 0.0, "lat": 38.89643433333333, "type": "electric_scooter", "lon": -77.04339766666666, "bike_id": "316c35bd522dec2cee4a6c92066a627b", "rental_uris": {"android": "https://dc.lft.to/lastmile_qr_scan", "ios": "https://dc.lft.to/lastmile_qr_scan"}, "name": "316c35bd522dec2cee4a6c92066a627b", "is_reserved": 0}, {"is_disabled": 0, "fusion_lon": 0.0, "fusion_lat": 0.0, "lat": 38.9345245, "type": "electric_scooter", "lon": -77.03055883333333, "bike_id": "6b7764f4a505d202f51bfc651e2cb2ec", "rental_uris": {"android": "https://dc.lft.to/lastmile_qr_scan", "ios": "https://dc.lft.to/lastmile_qr_scan"}, "name": "6b7764f4a505d202f51bfc651e2cb2ec", "is_reserved": 0}, {"is_disabled": 0, "fusion_lon": 0.0, "fusion_lat": 0.0, "lat": 38.928813166666664, "type": "electric_scooter", "lon": -77.032174, "bike_id": "22baa2c62d3ab2d3c77d4bb5a4bd608e", "rental_uris": {"android": "https://dc.lft.to/lastmile_qr_scan", "ios": "https://dc.lft.to/lastmile_qr_scan"}, "name": "22baa2c62d3ab2d3c77d4bb5a4bd608e", "is_reserved": 0}, {"is_disabled": 0, "fusion_lon": 0.0, "fusion_lat": 0.0, "lat": 38.91815716666667, "type": "electric_scooter", "lon": -77.03806833333333, "bike_id": "6111e266a1661fb8cc28adee39e6d078", "rental_uris": {"android": "https://dc.lft.to/lastmile_qr_scan", "ios": "https://dc.lft.to/lastmile_qr_scan"}, "name": "6111e266a1661fb8cc28adee39e6d078", "is_reserved": 0}, {"is_disabled": 0, "fusion_lon": 0.0, "fusion_lat": 0.0, "lat": 38.9235705, "type": "electric_scooter", "lon": -77.05132533333334, "bike_id": "f87fa92a4339f680fe0a1562194f407d", "rental_uris": {"android": "https://dc.lft.to/lastmile_qr_scan", "ios": "https://dc.lft.to/lastmile_qr_scan"}, "name": "f87fa92a4339f680fe0a1562194f407d", "is_reserved": 0}, {"is_disabled": 0, "fusion_lon": 0.0, "fusion_lat": 0.0, "lat": 38.91690633333333, "type": "electric_scooter", "lon": -77.02521066666667, "bike_id": "794ba90f79023028859b6b38ccf31ded", "rental_uris": {"android": "https://dc.lft.to/lastmile_qr_scan", "ios": "https://dc.lft.to/lastmile_qr_scan"}, "name": "794ba90f79023028859b6b38ccf31ded", "is_reserved": 0}, {"is_disabled": 0, "fusion_lon": 0.0, "fusion_lat": 0.0, "lat": 38.9038855, "type": "electric_scooter", "lon": -77.01870983333333, "bike_id": "205f1f1970068e46a1df821df29b0716", "rental_uris": {"android": "https://dc.lft.to/lastmile_qr_scan", "ios": "https://dc.lft.to/lastmile_qr_scan"}, "name": "205f1f1970068e46a1df821df29b0716", "is_reserved": 0}, {"is_disabled": 0, "fusion_lon": 0.0, "fusion_lat": 0.0, "lat": 38.9168695, "type": "electric_scooter", "lon": -77.016099, "bike_id": "61a6aac6b1464e488f44a87125b153dd", "rental_uris": {"android": "https://dc.lft.to/lastmile_qr_scan", "ios": "https://dc.lft.to/lastmile_qr_scan"}, "name": "61a6aac6b1464e488f44a87125b153dd", "is_reserved": 0}, {"is_disabled": 0, "fusion_lon": 0.0, "fusion_lat": 0.0, "lat": 38.91629116666667, "type": "electric_scooter", "lon": -77.04875516666667, "bike_id": "02e844bcb4eea39db2af3b930f027977", "rental_uris": {"android": "https://dc.lft.to/lastmile_qr_scan", "ios": "https://dc.lft.to/lastmile_qr_scan"}, "name": "02e844bcb4eea39db2af3b930f027977", "is_reserved": 0}, {"is_disabled": 0, "fusion_lon": 0.0, "fusion_lat": 0.0, "lat": 38.914242333333334, "type": "electric_scooter", "lon": -77.03463033333334, "bike_id": "e0e83714a922107929aecf63dd7888e1", "rental_uris": {"android": "https://dc.lft.to/lastmile_qr_scan", "ios": "https://dc.lft.to/lastmile_qr_scan"}, "name": "e0e83714a922107929aecf63dd7888e1", "is_reserved": 0}, {"is_disabled": 0, "fusion_lon": 0.0, "fusion_lat": 0.0, "lat": 38.920466, "type": "electric_scooter", "lon": -77.03395766666667, "bike_id": "787d003c5c0e23f24ad8c9509b6c18f6", "rental_uris": {"android": "https://dc.lft.to/lastmile_qr_scan", "ios": "https://dc.lft.to/lastmile_qr_scan"}, "name": "787d003c5c0e23f24ad8c9509b6c18f6", "is_reserved": 0}, {"is_disabled": 0, "fusion_lon": 0.0, "fusion_lat": 0.0, "lat": 38.94174816666667, "type": "electric_scooter", "lon": -77.02388766666667, "bike_id": "d4a87f3cac2e6af759a8710e81fd63e2", "rental_uris": {"android": "https://dc.lft.to/lastmile_qr_scan", "ios": "https://dc.lft.to/lastmile_qr_scan"}, "name": "d4a87f3cac2e6af759a8710e81fd63e2", "is_reserved": 0}, {"is_disabled": 0, "fusion_lon": 0.0, "fusion_lat": 0.0, "lat": 38.892483, "type": "electric_scooter", "lon": -77.033479, "bike_id": "3b3a938cf990246660e8d4b2498c7d6d", "rental_uris": {"android": "https://dc.lft.to/lastmile_qr_scan", "ios": "https://dc.lft.to/lastmile_qr_scan"}, "name": "3b3a938cf990246660e8d4b2498c7d6d", "is_reserved": 0}, {"is_disabled": 0, "fusion_lon": 0.0, "fusion_lat": 0.0, "lat": 38.90094916666666, "type": "electric_scooter", "lon": -76.988348, "bike_id": "eeaa217ef8450a80f443e1e7d73627ee", "rental_uris": {"android": "https://dc.lft.to/lastmile_qr_scan", "ios": "https://dc.lft.to/lastmile_qr_scan"}, "name": "eeaa217ef8450a80f443e1e7d73627ee", "is_reserved": 0}, {"is_disabled": 0, "fusion_lon": 0.0, "fusion_lat": 0.0, "lat": 38.833762, "type": "electric_scooter", "lon": -76.9928745, "bike_id": "b0da69f87741a08c25f631347fc8a74f", "rental_uris": {"android": "https://dc.lft.to/lastmile_qr_scan", "ios": "https://dc.lft.to/lastmile_qr_scan"}, "name": "b0da69f87741a08c25f631347fc8a74f", "is_reserved": 0}, {"is_disabled": 0, "fusion_lon": 0.0, "fusion_lat": 0.0, "lat": 38.919046, "type": "electric_scooter", "lon": -77.01760633333333, "bike_id": "ed8e22c22da18368b07846e5081ccd9e", "rental_uris": {"android": "https://dc.lft.to/lastmile_qr_scan", "ios": "https://dc.lft.to/lastmile_qr_scan"}, "name": "ed8e22c22da18368b07846e5081ccd9e", "is_reserved": 0}, {"is_disabled": 0, "fusion_lon": 0.0, "fusion_lat": 0.0, "lat": 38.9155275, "type": "electric_scooter", "lon": -77.03148133333333, "bike_id": "8c9655346877cb25863e140eb182ade2", "rental_uris": {"android": "https://dc.lft.to/lastmile_qr_scan", "ios": "https://dc.lft.to/lastmile_qr_scan"}, "name": "8c9655346877cb25863e140eb182ade2", "is_reserved": 0}, {"is_disabled": 0, "fusion_lon": 0.0, "fusion_lat": 0.0, "lat": 38.91795416666667, "type": "electric_scooter", "lon": -77.034476, "bike_id": "3c8badad1a2638f717a6bf2834607592", "rental_uris": {"android": "https://dc.lft.to/lastmile_qr_scan", "ios": "https://dc.lft.to/lastmile_qr_scan"}, "name": "3c8badad1a2638f717a6bf2834607592", "is_reserved": 0}, {"is_disabled": 0, "fusion_lon": 0.0, "fusion_lat": 0.0, "lat": 38.94547083333333, "type": "electric_scooter", "lon": -77.04251383333333, "bike_id": "ff1049aa2a2a72a8e40d00ba80644a61", "rental_uris": {"android": "https://dc.lft.to/lastmile_qr_scan", "ios": "https://dc.lft.to/lastmile_qr_scan"}, "name": "ff1049aa2a2a72a8e40d00ba80644a61", "is_reserved": 0}, {"is_disabled": 0, "fusion_lon": 0.0, "fusion_lat": 0.0, "lat": 38.92958016666667, "type": "electric_scooter", "lon": -77.02342316666666, "bike_id": "49fa8eb1b8410d8ea18ec52e75d7878a", "rental_uris": {"android": "https://dc.lft.to/lastmile_qr_scan", "ios": "https://dc.lft.to/lastmile_qr_scan"}, "name": "49fa8eb1b8410d8ea18ec52e75d7878a", "is_reserved": 0}, {"is_disabled": 0, "fusion_lon": 0.0, "fusion_lat": 0.0, "lat": 38.87344016666667, "type": "electric_scooter", "lon": -77.01358416666666, "bike_id": "6f6d4edac359608b7fcdfcb11e20a5ab", "rental_uris": {"android": "https://dc.lft.to/lastmile_qr_scan", "ios": "https://dc.lft.to/lastmile_qr_scan"}, "name": "6f6d4edac359608b7fcdfcb11e20a5ab", "is_reserved": 0}, {"is_disabled": 0, "fusion_lon": 0.0, "fusion_lat": 0.0, "lat": 38.92180066666667, "type": "electric_scooter", "lon": -77.04331166666667, "bike_id": "adf36246ed9fe05b645f0d71f0ea096d", "rental_uris": {"android": "https://dc.lft.to/lastmile_qr_scan", "ios": "https://dc.lft.to/lastmile_qr_scan"}, "name": "adf36246ed9fe05b645f0d71f0ea096d", "is_reserved": 0}, {"is_disabled": 0, "fusion_lon": 0.0, "fusion_lat": 0.0, "lat": 38.870797, "type": "electric_bike", "lon": -77.01203383333333, "bike_id": "f628e331b2da4e9e5afece3094fbb01b", "rental_uris": {"android": "https://dc.lft.to/lastmile_qr_scan", "ios": "https://dc.lft.to/lastmile_qr_scan"}, "name": "f628e331b2da4e9e5afece3094fbb01b", "is_reserved": 0}, {"is_disabled": 0, "fusion_lon": 0.0, "fusion_lat": 0.0, "lat": 38.91495, "type": "electric_scooter", "lon": -76.983604, "bike_id": "315b2ff2c4049bed1481c812192e3a8a", "rental_uris": {"android": "https://dc.lft.to/lastmile_qr_scan", "ios": "https://dc.lft.to/lastmile_qr_scan"}, "name": "315b2ff2c4049bed1481c812192e3a8a", "is_reserved": 0}, {"is_disabled": 0, "fusion_lon": 0.0, "fusion_lat": 0.0, "lat": 38.9141395, "type": "electric_scooter", "lon": -77.02230016666667, "bike_id": "7602e71265ca90fc1710a2fc05fc075c", "rental_uris": {"android": "https://dc.lft.to/lastmile_qr_scan", "ios": "https://dc.lft.to/lastmile_qr_scan"}, "name": "7602e71265ca90fc1710a2fc05fc075c", "is_reserved": 0}, {"is_disabled": 0, "fusion_lon": 0.0, "fusion_lat": 0.0, "lat": 38.876783833333334, "type": "electric_scooter", "lon": -77.01787516666667, "bike_id": "1c9b6b5fc336bd23583828e02bd970ab", "rental_uris": {"android": "https://dc.lft.to/lastmile_qr_scan", "ios": "https://dc.lft.to/lastmile_qr_scan"}, "name": "1c9b6b5fc336bd23583828e02bd970ab", "is_reserved": 0}, {"is_disabled": 0, "fusion_lon": 0.0, "fusion_lat": 0.0, "lat": 38.92656216666666, "type": "electric_scooter", "lon": -77.043057, "bike_id": "18194014edb5fea5750ed17c5c805948", "rental_uris": {"android": "https://dc.lft.to/lastmile_qr_scan", "ios": "https://dc.lft.to/lastmile_qr_scan"}, "name": "18194014edb5fea5750ed17c5c805948", "is_reserved": 0}, {"is_disabled": 0, "fusion_lon": 0.0, "fusion_lat": 0.0, "lat": 38.918544833333335, "type": "electric_bike", "lon": -76.96085816666667, "bike_id": "60439e2a739f411857a30a3f30dc3ad8", "rental_uris": {"android": "https://dc.lft.to/lastmile_qr_scan", "ios": "https://dc.lft.to/lastmile_qr_scan"}, "name": "60439e2a739f411857a30a3f30dc3ad8", "is_reserved": 0}, {"is_disabled": 0, "fusion_lon": 0.0, "fusion_lat": 0.0, "lat": 38.905648666666664, "type": "electric_scooter", "lon": -77.0246865, "bike_id": "013aabb4878518d5b5c951f7cb9bd994", "rental_uris": {"android": "https://dc.lft.to/lastmile_qr_scan", "ios": "https://dc.lft.to/lastmile_qr_scan"}, "name": "013aabb4878518d5b5c951f7cb9bd994", "is_reserved": 0}, {"is_disabled": 0, "fusion_lon": 0.0, "fusion_lat": 0.0, "lat": 38.92841333333333, "type": "electric_scooter", "lon": -77.05620066666667, "bike_id": "e20181dc58369fc9f714903237625368", "rental_uris": {"android": "https://dc.lft.to/lastmile_qr_scan", "ios": "https://dc.lft.to/lastmile_qr_scan"}, "name": "e20181dc58369fc9f714903237625368", "is_reserved": 0}, {"is_disabled": 0, "fusion_lon": 0.0, "fusion_lat": 0.0, "lat": 38.884336833333336, "type": "electric_scooter", "lon": -77.025041, "bike_id": "403b31f1b49e7b530f16b7e7e419b45f", "rental_uris": {"android": "https://dc.lft.to/lastmile_qr_scan", "ios": "https://dc.lft.to/lastmile_qr_scan"}, "name": "403b31f1b49e7b530f16b7e7e419b45f", "is_reserved": 0}, {"is_disabled": 0, "fusion_lon": 0.0, "fusion_lat": 0.0, "lat": 38.911183, "type": "electric_scooter", "lon": -77.038355, "bike_id": "c7e9d6d0e62ded991d0ce5870009efd9", "rental_uris": {"android": "https://dc.lft.to/lastmile_qr_scan", "ios": "https://dc.lft.to/lastmile_qr_scan"}, "name": "c7e9d6d0e62ded991d0ce5870009efd9", "is_reserved": 0}, {"is_disabled": 0, "fusion_lon": 0.0, "fusion_lat": 0.0, "lat": 38.925649, "type": "electric_scooter", "lon": -77.05271366666666, "bike_id": "4f486978021d2b97f20cc4722ffa3262", "rental_uris": {"android": "https://dc.lft.to/lastmile_qr_scan", "ios": "https://dc.lft.to/lastmile_qr_scan"}, "name": "4f486978021d2b97f20cc4722ffa3262", "is_reserved": 0}, {"is_disabled": 0, "fusion_lon": 0.0, "fusion_lat": 0.0, "lat": 38.9180505, "type": "electric_scooter", "lon": -77.03441816666667, "bike_id": "f6dfb9473552e3d1f1b23977e808215a", "rental_uris": {"android": "https://dc.lft.to/lastmile_qr_scan", "ios": "https://dc.lft.to/lastmile_qr_scan"}, "name": "f6dfb9473552e3d1f1b23977e808215a", "is_reserved": 0}, {"is_disabled": 0, "fusion_lon": 0.0, "fusion_lat": 0.0, "lat": 38.883768, "type": "electric_scooter", "lon": -76.9237255, "bike_id": "4b0394be97ed66d35e3e3a022150b451", "rental_uris": {"android": "https://dc.lft.to/lastmile_qr_scan", "ios": "https://dc.lft.to/lastmile_qr_scan"}, "name": "4b0394be97ed66d35e3e3a022150b451", "is_reserved": 0}, {"is_disabled": 0, "fusion_lon": 0.0, "fusion_lat": 0.0, "lat": 38.901900499999996, "type": "electric_scooter", "lon": -77.05024683333333, "bike_id": "e09c7dcd47eae66e3d362d8885387591", "rental_uris": {"android": "https://dc.lft.to/lastmile_qr_scan", "ios": "https://dc.lft.to/lastmile_qr_scan"}, "name": "e09c7dcd47eae66e3d362d8885387591", "is_reserved": 0}, {"is_disabled": 0, "fusion_lon": 0.0, "fusion_lat": 0.0, "lat": 38.9163035, "type": "electric_scooter", "lon": -77.04089, "bike_id": "cbca34ffc0f82bde62ed7707a5e265ce", "rental_uris": {"android": "https://dc.lft.to/lastmile_qr_scan", "ios": "https://dc.lft.to/lastmile_qr_scan"}, "name": "cbca34ffc0f82bde62ed7707a5e265ce", "is_reserved": 0}, {"is_disabled": 0, "fusion_lon": 0.0, "fusion_lat": 0.0, "lat": 38.91290766666667, "type": "electric_scooter", "lon": -77.0318855, "bike_id": "5e7055e0f24a1814d017f93839446b8f", "rental_uris": {"android": "https://dc.lft.to/lastmile_qr_scan", "ios": "https://dc.lft.to/lastmile_qr_scan"}, "name": "5e7055e0f24a1814d017f93839446b8f", "is_reserved": 0}, {"is_disabled": 0, "fusion_lon": 0.0, "fusion_lat": 0.0, "lat": 38.9071955, "type": "electric_scooter", "lon": -77.0287265, "bike_id": "7f487a86c467e84dec60c32118cfd20d", "rental_uris": {"android": "https://dc.lft.to/lastmile_qr_scan", "ios": "https://dc.lft.to/lastmile_qr_scan"}, "name": "7f487a86c467e84dec60c32118cfd20d", "is_reserved": 0}, {"is_disabled": 0, "fusion_lon": 0.0, "fusion_lat": 0.0, "lat": 38.91091683333333, "type": "electric_bike", "lon": -77.08769933333333, "bike_id": "34cf581ac081b0932eeda93b524f5e87", "rental_uris": {"android": "https://dc.lft.to/lastmile_qr_scan", "ios": "https://dc.lft.to/lastmile_qr_scan"}, "name": "34cf581ac081b0932eeda93b524f5e87", "is_reserved": 0}, {"is_disabled": 0, "fusion_lon": 0.0, "fusion_lat": 0.0, "lat": 38.945218, "type": "electric_scooter", "lon": -77.02981616666666, "bike_id": "83d99fbf3084b89523358eed77aa586b", "rental_uris": {"android": "https://dc.lft.to/lastmile_qr_scan", "ios": "https://dc.lft.to/lastmile_qr_scan"}, "name": "83d99fbf3084b89523358eed77aa586b", "is_reserved": 0}, {"is_disabled": 0, "fusion_lon": 0.0, "fusion_lat": 0.0, "lat": 38.908365333333336, "type": "electric_scooter", "lon": -77.02696683333333, "bike_id": "cc8c95efdf8485e636317900a018af26", "rental_uris": {"android": "https://dc.lft.to/lastmile_qr_scan", "ios": "https://dc.lft.to/lastmile_qr_scan"}, "name": "cc8c95efdf8485e636317900a018af26", "is_reserved": 0}, {"is_disabled": 0, "fusion_lon": 0.0, "fusion_lat": 0.0, "lat": 38.94490616666667, "type": "electric_bike", "lon": -76.9865805, "bike_id": "b2d29492a4fe395af659a841cc947eb9", "rental_uris": {"android": "https://dc.lft.to/lastmile_qr_scan", "ios": "https://dc.lft.to/lastmile_qr_scan"}, "name": "b2d29492a4fe395af659a841cc947eb9", "is_reserved": 0}, {"is_disabled": 0, "fusion_lon": 0.0, "fusion_lat": 0.0, "lat": 38.91720733333333, "type": "electric_scooter", "lon": -77.03448166666666, "bike_id": "ddbcfcfd7ee01b76008ad68e1169ff39", "rental_uris": {"android": "https://dc.lft.to/lastmile_qr_scan", "ios": "https://dc.lft.to/lastmile_qr_scan"}, "name": "ddbcfcfd7ee01b76008ad68e1169ff39", "is_reserved": 0}, {"is_disabled": 0, "fusion_lon": 0.0, "fusion_lat": 0.0, "lat": 38.907702666666665, "type": "electric_scooter", "lon": -77.03185733333333, "bike_id": "ef8122e75eda184b3b196bc63f7579b7", "rental_uris": {"android": "https://dc.lft.to/lastmile_qr_scan", "ios": "https://dc.lft.to/lastmile_qr_scan"}, "name": "ef8122e75eda184b3b196bc63f7579b7", "is_reserved": 0}, {"is_disabled": 0, "fusion_lon": 0.0, "fusion_lat": 0.0, "lat": 38.917772666666664, "type": "electric_scooter", "lon": -77.0429635, "bike_id": "4e404d9d8dab71214c04622306aecb67", "rental_uris": {"android": "https://dc.lft.to/lastmile_qr_scan", "ios": "https://dc.lft.to/lastmile_qr_scan"}, "name": "4e404d9d8dab71214c04622306aecb67", "is_reserved": 0}, {"is_disabled": 0, "fusion_lon": 0.0, "fusion_lat": 0.0, "lat": 38.86593166666667, "type": "electric_bike", "lon": -76.974474, "bike_id": "fbea026efc838b3f4cd0283a506f6cf3", "rental_uris": {"android": "https://dc.lft.to/lastmile_qr_scan", "ios": "https://dc.lft.to/lastmile_qr_scan"}, "name": "fbea026efc838b3f4cd0283a506f6cf3", "is_reserved": 0}, {"is_disabled": 0, "fusion_lon": 0.0, "fusion_lat": 0.0, "lat": 38.96439783333334, "type": "electric_bike", "lon": -76.97733916666667, "bike_id": "40f576d11185d9cb93073aa7c173c05d", "rental_uris": {"android": "https://dc.lft.to/lastmile_qr_scan", "ios": "https://dc.lft.to/lastmile_qr_scan"}, "name": "40f576d11185d9cb93073aa7c173c05d", "is_reserved": 0}, {"is_disabled": 0, "fusion_lon": 0.0, "fusion_lat": 0.0, "lat": 38.911857, "type": "electric_scooter", "lon": -77.01092316666667, "bike_id": "fe54ec6d1ab0a413b6811e939d00fb2f", "rental_uris": {"android": "https://dc.lft.to/lastmile_qr_scan", "ios": "https://dc.lft.to/lastmile_qr_scan"}, "name": "fe54ec6d1ab0a413b6811e939d00fb2f", "is_reserved": 0}, {"is_disabled": 0, "fusion_lon": 0.0, "fusion_lat": 0.0, "lat": 39.030022, "type": "electric_bike", "lon": -77.106548, "bike_id": "28ca554ca0250555d7173a5a0bb4334f", "rental_uris": {"android": "https://dc.lft.to/lastmile_qr_scan", "ios": "https://dc.lft.to/lastmile_qr_scan"}, "name": "28ca554ca0250555d7173a5a0bb4334f", "is_reserved": 0}, {"is_disabled": 0, "fusion_lon": 0.0, "fusion_lat": 0.0, "lat": 38.858523, "type": "electric_bike", "lon": -77.09748683333333, "bike_id": "c5ff37d3760ae2a44bccb480fc5b0326", "rental_uris": {"android": "https://dc.lft.to/lastmile_qr_scan", "ios": "https://dc.lft.to/lastmile_qr_scan"}, "name": "c5ff37d3760ae2a44bccb480fc5b0326", "is_reserved": 0}, {"is_disabled": 0, "fusion_lon": 0.0, "fusion_lat": 0.0, "lat": 38.94265816666667, "type": "electric_scooter", "lon": -77.03256183333333, "bike_id": "899c0aee2e1b341acb4be927c727e1e9", "rental_uris": {"android": "https://dc.lft.to/lastmile_qr_scan", "ios": "https://dc.lft.to/lastmile_qr_scan"}, "name": "899c0aee2e1b341acb4be927c727e1e9", "is_reserved": 0}, {"is_disabled": 0, "fusion_lon": 0.0, "fusion_lat": 0.0, "lat": 38.92977366666667, "type": "electric_scooter", "lon": -77.03219866666667, "bike_id": "394128fce9d4d6fc8c1fd54508a648be", "rental_uris": {"android": "https://dc.lft.to/lastmile_qr_scan", "ios": "https://dc.lft.to/lastmile_qr_scan"}, "name": "394128fce9d4d6fc8c1fd54508a648be", "is_reserved": 0}, {"is_disabled": 0, "fusion_lon": 0.0, "fusion_lat": 0.0, "lat": 38.842907, "type": "electric_scooter", "lon": -76.99950583333333, "bike_id": "05053edd41812683639350b375009f4b", "rental_uris": {"android": "https://dc.lft.to/lastmile_qr_scan", "ios": "https://dc.lft.to/lastmile_qr_scan"}, "name": "05053edd41812683639350b375009f4b", "is_reserved": 0}, {"is_disabled": 0, "fusion_lon": 0.0, "fusion_lat": 0.0, "lat": 38.913409333333334, "type": "electric_scooter", "lon": -77.0316975, "bike_id": "0166da73f087b7a540586357b1805750", "rental_uris": {"android": "https://dc.lft.to/lastmile_qr_scan", "ios": "https://dc.lft.to/lastmile_qr_scan"}, "name": "0166da73f087b7a540586357b1805750", "is_reserved": 0}, {"is_disabled": 0, "fusion_lon": 0.0, "fusion_lat": 0.0, "lat": 38.92031766666667, "type": "electric_scooter", "lon": -77.03127233333333, "bike_id": "68869cba0ae42cd95a5810be3baa8e5f", "rental_uris": {"android": "https://dc.lft.to/lastmile_qr_scan", "ios": "https://dc.lft.to/lastmile_qr_scan"}, "name": "68869cba0ae42cd95a5810be3baa8e5f", "is_reserved": 0}, {"is_disabled": 0, "fusion_lon": 0.0, "fusion_lat": 0.0, "lat": 38.88740966666667, "type": "electric_scooter", "lon": -77.01602933333334, "bike_id": "a7c6621c46e840319d1873879f92c645", "rental_uris": {"android": "https://dc.lft.to/lastmile_qr_scan", "ios": "https://dc.lft.to/lastmile_qr_scan"}, "name": "a7c6621c46e840319d1873879f92c645", "is_reserved": 0}, {"is_disabled": 0, "fusion_lon": 0.0, "fusion_lat": 0.0, "lat": 38.94046866666667, "type": "electric_scooter", "lon": -77.0250095, "bike_id": "5315fb90253865cc649e1b26834376ec", "rental_uris": {"android": "https://dc.lft.to/lastmile_qr_scan", "ios": "https://dc.lft.to/lastmile_qr_scan"}, "name": "5315fb90253865cc649e1b26834376ec", "is_reserved": 0}, {"is_disabled": 0, "fusion_lon": 0.0, "fusion_lat": 0.0, "lat": 38.89909133333333, "type": "electric_scooter", "lon": -76.933883, "bike_id": "0e65aeb8ac2f78ebf5474cb11c95f3f3", "rental_uris": {"android": "https://dc.lft.to/lastmile_qr_scan", "ios": "https://dc.lft.to/lastmile_qr_scan"}, "name": "0e65aeb8ac2f78ebf5474cb11c95f3f3", "is_reserved": 0}, {"is_disabled": 0, "fusion_lon": 0.0, "fusion_lat": 0.0, "lat": 38.934114666666666, "type": "electric_bike", "lon": -77.0250885, "bike_id": "56c1c68b31c57602b53b0a3ef342833b", "rental_uris": {"android": "https://dc.lft.to/lastmile_qr_scan", "ios": "https://dc.lft.to/lastmile_qr_scan"}, "name": "56c1c68b31c57602b53b0a3ef342833b", "is_reserved": 0}, {"is_disabled": 0, "fusion_lon": 0.0, "fusion_lat": 0.0, "lat": 38.94082733333333, "type": "electric_scooter", "lon": -77.03815016666667, "bike_id": "7f9b22801952f43a98273c3c7d0e3184", "rental_uris": {"android": "https://dc.lft.to/lastmile_qr_scan", "ios": "https://dc.lft.to/lastmile_qr_scan"}, "name": "7f9b22801952f43a98273c3c7d0e3184", "is_reserved": 0}, {"is_disabled": 0, "fusion_lon": 0.0, "fusion_lat": 0.0, "lat": 38.90141066666666, "type": "electric_scooter", "lon": -77.0176455, "bike_id": "8074da05f2bf104cfee9f42b182696be", "rental_uris": {"android": "https://dc.lft.to/lastmile_qr_scan", "ios": "https://dc.lft.to/lastmile_qr_scan"}, "name": "8074da05f2bf104cfee9f42b182696be", "is_reserved": 0}, {"is_disabled": 0, "fusion_lon": 0.0, "fusion_lat": 0.0, "lat": 38.893514333333336, "type": "electric_scooter", "lon": -76.98469916666667, "bike_id": "327a23f80db1f2c08c7374b1db46d115", "rental_uris": {"android": "https://dc.lft.to/lastmile_qr_scan", "ios": "https://dc.lft.to/lastmile_qr_scan"}, "name": "327a23f80db1f2c08c7374b1db46d115", "is_reserved": 0}, {"is_disabled": 0, "fusion_lon": 0.0, "fusion_lat": 0.0, "lat": 38.939620833333336, "type": "electric_scooter", "lon": -77.02748683333333, "bike_id": "fb77b2b861f845a7c28a4cc2b7186d93", "rental_uris": {"android": "https://dc.lft.to/lastmile_qr_scan", "ios": "https://dc.lft.to/lastmile_qr_scan"}, "name": "fb77b2b861f845a7c28a4cc2b7186d93", "is_reserved": 0}, {"is_disabled": 0, "fusion_lon": 0.0, "fusion_lat": 0.0, "lat": 38.91495183333333, "type": "electric_scooter", "lon": -77.03211333333333, "bike_id": "5f0ef7fdb55e408149aeb4e13db847bd", "rental_uris": {"android": "https://dc.lft.to/lastmile_qr_scan", "ios": "https://dc.lft.to/lastmile_qr_scan"}, "name": "5f0ef7fdb55e408149aeb4e13db847bd", "is_reserved": 0}, {"is_disabled": 0, "fusion_lon": 0.0, "fusion_lat": 0.0, "lat": 38.96807416666667, "type": "electric_scooter", "lon": -77.021218, "bike_id": "258aa6e79463d03266ff24c13a71ffb2", "rental_uris": {"android": "https://dc.lft.to/lastmile_qr_scan", "ios": "https://dc.lft.to/lastmile_qr_scan"}, "name": "258aa6e79463d03266ff24c13a71ffb2", "is_reserved": 0}, {"is_disabled": 0, "fusion_lon": 0.0, "fusion_lat": 0.0, "lat": 38.88019666666667, "type": "electric_scooter", "lon": -76.98237766666666, "bike_id": "5396fef96fd8dcd99c50f285b56b6a14", "rental_uris": {"android": "https://dc.lft.to/lastmile_qr_scan", "ios": "https://dc.lft.to/lastmile_qr_scan"}, "name": "5396fef96fd8dcd99c50f285b56b6a14", "is_reserved": 0}, {"is_disabled": 0, "fusion_lon": 0.0, "fusion_lat": 0.0, "lat": 38.88321166666667, "type": "electric_scooter", "lon": -77.0165825, "bike_id": "84561a0d2d6f56afc2c6bfaf00128ae9", "rental_uris": {"android": "https://dc.lft.to/lastmile_qr_scan", "ios": "https://dc.lft.to/lastmile_qr_scan"}, "name": "84561a0d2d6f56afc2c6bfaf00128ae9", "is_reserved": 0}, {"is_disabled": 0, "fusion_lon": 0.0, "fusion_lat": 0.0, "lat": 38.971642, "type": "electric_bike", "lon": -76.9801885, "bike_id": "fd6385ee5f612dd113581796ffc578a2", "rental_uris": {"android": "https://dc.lft.to/lastmile_qr_scan", "ios": "https://dc.lft.to/lastmile_qr_scan"}, "name": "fd6385ee5f612dd113581796ffc578a2", "is_reserved": 0}, {"is_disabled": 0, "fusion_lon": 0.0, "fusion_lat": 0.0, "lat": 38.90159416666667, "type": "electric_scooter", "lon": -77.0399945, "bike_id": "a2afb51732fe961f40e382ff1bc93835", "rental_uris": {"android": "https://dc.lft.to/lastmile_qr_scan", "ios": "https://dc.lft.to/lastmile_qr_scan"}, "name": "a2afb51732fe961f40e382ff1bc93835", "is_reserved": 0}, {"is_disabled": 0, "fusion_lon": 0.0, "fusion_lat": 0.0, "lat": 38.888641, "type": "electric_scooter", "lon": -76.9773545, "bike_id": "b3d7c1bfde9ba3fdb70165d41c79c78a", "rental_uris": {"android": "https://dc.lft.to/lastmile_qr_scan", "ios": "https://dc.lft.to/lastmile_qr_scan"}, "name": "b3d7c1bfde9ba3fdb70165d41c79c78a", "is_reserved": 0}, {"is_disabled": 0, "fusion_lon": 0.0, "fusion_lat": 0.0, "lat": 38.93125283333333, "type": "electric_scooter", "lon": -77.05711533333333, "bike_id": "47ae30c98b4016e2dcb5d53b23b6c81c", "rental_uris": {"android": "https://dc.lft.to/lastmile_qr_scan", "ios": "https://dc.lft.to/lastmile_qr_scan"}, "name": "47ae30c98b4016e2dcb5d53b23b6c81c", "is_reserved": 0}, {"is_disabled": 0, "fusion_lon": 0.0, "fusion_lat": 0.0, "lat": 38.912696333333336, "type": "electric_scooter", "lon": -77.0223305, "bike_id": "726e65f12aad696580218c891923c72f", "rental_uris": {"android": "https://dc.lft.to/lastmile_qr_scan", "ios": "https://dc.lft.to/lastmile_qr_scan"}, "name": "726e65f12aad696580218c891923c72f", "is_reserved": 0}, {"is_disabled": 0, "fusion_lon": 0.0, "fusion_lat": 0.0, "lat": 38.9208165, "type": "electric_bike", "lon": -77.00339833333334, "bike_id": "01587b27b3cbd01764b7dc77baa80455", "rental_uris": {"android": "https://dc.lft.to/lastmile_qr_scan", "ios": "https://dc.lft.to/lastmile_qr_scan"}, "name": "01587b27b3cbd01764b7dc77baa80455", "is_reserved": 0}, {"is_disabled": 0, "fusion_lon": 0.0, "fusion_lat": 0.0, "lat": 38.827271333333336, "type": "electric_bike", "lon": -77.00866766666667, "bike_id": "7baf5709992f584ad383000dbb63ab7d", "rental_uris": {"android": "https://dc.lft.to/lastmile_qr_scan", "ios": "https://dc.lft.to/lastmile_qr_scan"}, "name": "7baf5709992f584ad383000dbb63ab7d", "is_reserved": 0}, {"is_disabled": 0, "fusion_lon": 0.0, "fusion_lat": 0.0, "lat": 38.896405, "type": "electric_scooter", "lon": -77.0434725, "bike_id": "a35dafc588ffecc42498cda7c63b338d", "rental_uris": {"android": "https://dc.lft.to/lastmile_qr_scan", "ios": "https://dc.lft.to/lastmile_qr_scan"}, "name": "a35dafc588ffecc42498cda7c63b338d", "is_reserved": 0}, {"is_disabled": 0, "fusion_lon": 0.0, "fusion_lat": 0.0, "lat": 38.912581, "type": "electric_scooter", "lon": -77.03073566666667, "bike_id": "ecc82759721fd7a5c0ee4f213006008d", "rental_uris": {"android": "https://dc.lft.to/lastmile_qr_scan", "ios": "https://dc.lft.to/lastmile_qr_scan"}, "name": "ecc82759721fd7a5c0ee4f213006008d", "is_reserved": 0}, {"is_disabled": 0, "fusion_lon": 0.0, "fusion_lat": 0.0, "lat": 38.90674583333333, "type": "electric_scooter", "lon": -77.02689366666667, "bike_id": "4715b0e5feeafc3172a8107f8f9664e1", "rental_uris": {"android": "https://dc.lft.to/lastmile_qr_scan", "ios": "https://dc.lft.to/lastmile_qr_scan"}, "name": "4715b0e5feeafc3172a8107f8f9664e1", "is_reserved": 0}, {"is_disabled": 0, "fusion_lon": 0.0, "fusion_lat": 0.0, "lat": 38.93521466666667, "type": "electric_scooter", "lon": -77.02381733333333, "bike_id": "254171e74f5b735b126185bd6a3bbb38", "rental_uris": {"android": "https://dc.lft.to/lastmile_qr_scan", "ios": "https://dc.lft.to/lastmile_qr_scan"}, "name": "254171e74f5b735b126185bd6a3bbb38", "is_reserved": 0}, {"is_disabled": 0, "fusion_lon": 0.0, "fusion_lat": 0.0, "lat": 38.905783666666665, "type": "electric_scooter", "lon": -77.0412355, "bike_id": "8a97fab807c8c5b925870d9c1e9fedea", "rental_uris": {"android": "https://dc.lft.to/lastmile_qr_scan", "ios": "https://dc.lft.to/lastmile_qr_scan"}, "name": "8a97fab807c8c5b925870d9c1e9fedea", "is_reserved": 0}, {"is_disabled": 0, "fusion_lon": 0.0, "fusion_lat": 0.0, "lat": 38.90714116666667, "type": "electric_scooter", "lon": -77.03062833333334, "bike_id": "31c4ca4fb1bfb0dbe79a372f661e15fa", "rental_uris": {"android": "https://dc.lft.to/lastmile_qr_scan", "ios": "https://dc.lft.to/lastmile_qr_scan"}, "name": "31c4ca4fb1bfb0dbe79a372f661e15fa", "is_reserved": 0}, {"is_disabled": 0, "fusion_lon": 0.0, "fusion_lat": 0.0, "lat": 38.8936555, "type": "electric_scooter", "lon": -77.0226735, "bike_id": "39e7e13d4700978a17cbb48b676db585", "rental_uris": {"android": "https://dc.lft.to/lastmile_qr_scan", "ios": "https://dc.lft.to/lastmile_qr_scan"}, "name": "39e7e13d4700978a17cbb48b676db585", "is_reserved": 0}, {"is_disabled": 0, "fusion_lon": 0.0, "fusion_lat": 0.0, "lat": 38.90546633333334, "type": "electric_scooter", "lon": -77.03011516666666, "bike_id": "86687a4ab2d63c3f58c36bee3b109668", "rental_uris": {"android": "https://dc.lft.to/lastmile_qr_scan", "ios": "https://dc.lft.to/lastmile_qr_scan"}, "name": "86687a4ab2d63c3f58c36bee3b109668", "is_reserved": 0}, {"is_disabled": 0, "fusion_lon": 0.0, "fusion_lat": 0.0, "lat": 38.8920365, "type": "electric_scooter", "lon": -76.988092, "bike_id": "45e3807f9ad07e256dd144ef2edcbe2d", "rental_uris": {"android": "https://dc.lft.to/lastmile_qr_scan", "ios": "https://dc.lft.to/lastmile_qr_scan"}, "name": "45e3807f9ad07e256dd144ef2edcbe2d", "is_reserved": 0}, {"is_disabled": 0, "fusion_lon": 0.0, "fusion_lat": 0.0, "lat": 39.08841283333334, "type": "electric_bike", "lon": -77.17802583333334, "bike_id": "ce3285df48bae393ed75f11c59fa3fa5", "rental_uris": {"android": "https://dc.lft.to/lastmile_qr_scan", "ios": "https://dc.lft.to/lastmile_qr_scan"}, "name": "ce3285df48bae393ed75f11c59fa3fa5", "is_reserved": 0}, {"is_disabled": 0, "fusion_lon": 0.0, "fusion_lat": 0.0, "lat": 38.884000666666665, "type": "electric_scooter", "lon": -76.9541245, "bike_id": "951aa9d7b064d7afd198673b20612576", "rental_uris": {"android": "https://dc.lft.to/lastmile_qr_scan", "ios": "https://dc.lft.to/lastmile_qr_scan"}, "name": "951aa9d7b064d7afd198673b20612576", "is_reserved": 0}, {"is_disabled": 0, "fusion_lon": 0.0, "fusion_lat": 0.0, "lat": 38.91481016666667, "type": "electric_scooter", "lon": -77.03470416666667, "bike_id": "0aad2deecca466a58d7acc837e242ffa", "rental_uris": {"android": "https://dc.lft.to/lastmile_qr_scan", "ios": "https://dc.lft.to/lastmile_qr_scan"}, "name": "0aad2deecca466a58d7acc837e242ffa", "is_reserved": 0}, {"is_disabled": 0, "fusion_lon": 0.0, "fusion_lat": 0.0, "lat": 38.91101583333333, "type": "electric_scooter", "lon": -77.06602133333334, "bike_id": "89eb5a38dbd76c411652b157b48a62ea", "rental_uris": {"android": "https://dc.lft.to/lastmile_qr_scan", "ios": "https://dc.lft.to/lastmile_qr_scan"}, "name": "89eb5a38dbd76c411652b157b48a62ea", "is_reserved": 0}, {"is_disabled": 0, "fusion_lon": 0.0, "fusion_lat": 0.0, "lat": 38.8980925, "type": "electric_scooter", "lon": -77.03162266666666, "bike_id": "9d5166a3ec72451bc5f65fe09e5eead7", "rental_uris": {"android": "https://dc.lft.to/lastmile_qr_scan", "ios": "https://dc.lft.to/lastmile_qr_scan"}, "name": "9d5166a3ec72451bc5f65fe09e5eead7", "is_reserved": 0}, {"is_disabled": 0, "fusion_lon": 0.0, "fusion_lat": 0.0, "lat": 38.923673, "type": "electric_scooter", "lon": -77.02804283333333, "bike_id": "1a437b4a21de6aed6dde907bb5b1bbf5", "rental_uris": {"android": "https://dc.lft.to/lastmile_qr_scan", "ios": "https://dc.lft.to/lastmile_qr_scan"}, "name": "1a437b4a21de6aed6dde907bb5b1bbf5", "is_reserved": 0}, {"is_disabled": 0, "fusion_lon": 0.0, "fusion_lat": 0.0, "lat": 38.923715333333334, "type": "electric_scooter", "lon": -77.0313135, "bike_id": "7fa011ed728a8cf737c6a230a19bd52a", "rental_uris": {"android": "https://dc.lft.to/lastmile_qr_scan", "ios": "https://dc.lft.to/lastmile_qr_scan"}, "name": "7fa011ed728a8cf737c6a230a19bd52a", "is_reserved": 0}, {"is_disabled": 0, "fusion_lon": 0.0, "fusion_lat": 0.0, "lat": 38.932283166666664, "type": "electric_scooter", "lon": -76.99932383333334, "bike_id": "6ce512ab4d21171fef5df13e139a2f0a", "rental_uris": {"android": "https://dc.lft.to/lastmile_qr_scan", "ios": "https://dc.lft.to/lastmile_qr_scan"}, "name": "6ce512ab4d21171fef5df13e139a2f0a", "is_reserved": 0}, {"is_disabled": 0, "fusion_lon": 0.0, "fusion_lat": 0.0, "lat": 38.90601783333334, "type": "electric_scooter", "lon": -77.046768, "bike_id": "20ea7ee4e4cab4e64de6bf48da2ccb99", "rental_uris": {"android": "https://dc.lft.to/lastmile_qr_scan", "ios": "https://dc.lft.to/lastmile_qr_scan"}, "name": "20ea7ee4e4cab4e64de6bf48da2ccb99", "is_reserved": 0}, {"is_disabled": 0, "fusion_lon": 0.0, "fusion_lat": 0.0, "lat": 38.916571833333336, "type": "electric_scooter", "lon": -77.02963416666667, "bike_id": "904e7e0839ac8f3babdcbf91a657cb0f", "rental_uris": {"android": "https://dc.lft.to/lastmile_qr_scan", "ios": "https://dc.lft.to/lastmile_qr_scan"}, "name": "904e7e0839ac8f3babdcbf91a657cb0f", "is_reserved": 0}, {"is_disabled": 0, "fusion_lon": 0.0, "fusion_lat": 0.0, "lat": 38.91822483333333, "type": "electric_scooter", "lon": -77.04535033333333, "bike_id": "76bcfab2b5d96350144df743762d5dd4", "rental_uris": {"android": "https://dc.lft.to/lastmile_qr_scan", "ios": "https://dc.lft.to/lastmile_qr_scan"}, "name": "76bcfab2b5d96350144df743762d5dd4", "is_reserved": 0}, {"is_disabled": 0, "fusion_lon": 0.0, "fusion_lat": 0.0, "lat": 38.936663833333334, "type": "electric_scooter", "lon": -77.036475, "bike_id": "f48c4fc8db5497f09da43c525c25ca58", "rental_uris": {"android": "https://dc.lft.to/lastmile_qr_scan", "ios": "https://dc.lft.to/lastmile_qr_scan"}, "name": "f48c4fc8db5497f09da43c525c25ca58", "is_reserved": 0}, {"is_disabled": 0, "fusion_lon": 0.0, "fusion_lat": 0.0, "lat": 38.83120866666667, "type": "electric_bike", "lon": -77.04328083333333, "bike_id": "e38dd97cdf03093ab300fadf781cb40f", "rental_uris": {"android": "https://dc.lft.to/lastmile_qr_scan", "ios": "https://dc.lft.to/lastmile_qr_scan"}, "name": "e38dd97cdf03093ab300fadf781cb40f", "is_reserved": 0}, {"is_disabled": 0, "fusion_lon": 0.0, "fusion_lat": 0.0, "lat": 38.948922, "type": "electric_bike", "lon": -76.96372033333333, "bike_id": "66fe7488d577479d2b506a7249afaec5", "rental_uris": {"android": "https://dc.lft.to/lastmile_qr_scan", "ios": "https://dc.lft.to/lastmile_qr_scan"}, "name": "66fe7488d577479d2b506a7249afaec5", "is_reserved": 0}, {"is_disabled": 0, "fusion_lon": 0.0, "fusion_lat": 0.0, "lat": 38.917863, "type": "electric_scooter", "lon": -77.04356583333333, "bike_id": "eadb4c73b5fb4919ba9f54e3f15266db", "rental_uris": {"android": "https://dc.lft.to/lastmile_qr_scan", "ios": "https://dc.lft.to/lastmile_qr_scan"}, "name": "eadb4c73b5fb4919ba9f54e3f15266db", "is_reserved": 0}, {"is_disabled": 0, "fusion_lon": 0.0, "fusion_lat": 0.0, "lat": 38.939275, "type": "electric_bike", "lon": -76.99517166666666, "bike_id": "9a9aa3aab0d18f4d569902a0766d9bef", "rental_uris": {"android": "https://dc.lft.to/lastmile_qr_scan", "ios": "https://dc.lft.to/lastmile_qr_scan"}, "name": "9a9aa3aab0d18f4d569902a0766d9bef", "is_reserved": 0}, {"is_disabled": 0, "fusion_lon": 0.0, "fusion_lat": 0.0, "lat": 38.888323666666665, "type": "electric_scooter", "lon": -76.91783983333333, "bike_id": "eac2df7c7d148c24e9555eb4ebd05303", "rental_uris": {"android": "https://dc.lft.to/lastmile_qr_scan", "ios": "https://dc.lft.to/lastmile_qr_scan"}, "name": "eac2df7c7d148c24e9555eb4ebd05303", "is_reserved": 0}, {"is_disabled": 0, "fusion_lon": 0.0, "fusion_lat": 0.0, "lat": 38.89841333333333, "type": "electric_scooter", "lon": -77.0217615, "bike_id": "8a6dbdaaf15ba65112684e25670fa578", "rental_uris": {"android": "https://dc.lft.to/lastmile_qr_scan", "ios": "https://dc.lft.to/lastmile_qr_scan"}, "name": "8a6dbdaaf15ba65112684e25670fa578", "is_reserved": 0}, {"is_disabled": 0, "fusion_lon": 0.0, "fusion_lat": 0.0, "lat": 38.88633, "type": "electric_scooter", "lon": -76.955067, "bike_id": "c977f11f68f8e21258152819f5291bc2", "rental_uris": {"android": "https://dc.lft.to/lastmile_qr_scan", "ios": "https://dc.lft.to/lastmile_qr_scan"}, "name": "c977f11f68f8e21258152819f5291bc2", "is_reserved": 0}, {"is_disabled": 0, "fusion_lon": 0.0, "fusion_lat": 0.0, "lat": 38.85531833333334, "type": "electric_bike", "lon": -77.1071125, "bike_id": "2f65ac7bc25db1788880fdc0c2b28bcd", "rental_uris": {"android": "https://dc.lft.to/lastmile_qr_scan", "ios": "https://dc.lft.to/lastmile_qr_scan"}, "name": "2f65ac7bc25db1788880fdc0c2b28bcd", "is_reserved": 0}, {"is_disabled": 0, "fusion_lon": 0.0, "fusion_lat": 0.0, "lat": 38.92473533333333, "type": "electric_scooter", "lon": -77.03780983333333, "bike_id": "72aa52100fc16a4ab0651f02629a829e", "rental_uris": {"android": "https://dc.lft.to/lastmile_qr_scan", "ios": "https://dc.lft.to/lastmile_qr_scan"}, "name": "72aa52100fc16a4ab0651f02629a829e", "is_reserved": 0}, {"is_disabled": 0, "fusion_lon": 0.0, "fusion_lat": 0.0, "lat": 38.91680983333333, "type": "electric_scooter", "lon": -77.027197, "bike_id": "415f4cc284c5c398676465606f252e17", "rental_uris": {"android": "https://dc.lft.to/lastmile_qr_scan", "ios": "https://dc.lft.to/lastmile_qr_scan"}, "name": "415f4cc284c5c398676465606f252e17", "is_reserved": 0}, {"is_disabled": 0, "fusion_lon": 0.0, "fusion_lat": 0.0, "lat": 38.94551533333333, "type": "electric_bike", "lon": -77.05125266666667, "bike_id": "a68e36d27bfc114f05c12f83f743fd83", "rental_uris": {"android": "https://dc.lft.to/lastmile_qr_scan", "ios": "https://dc.lft.to/lastmile_qr_scan"}, "name": "a68e36d27bfc114f05c12f83f743fd83", "is_reserved": 0}, {"is_disabled": 0, "fusion_lon": 0.0, "fusion_lat": 0.0, "lat": 38.913439833333335, "type": "electric_scooter", "lon": -77.06412633333333, "bike_id": "48f7a1eb7fc02a04559acdcefc353df0", "rental_uris": {"android": "https://dc.lft.to/lastmile_qr_scan", "ios": "https://dc.lft.to/lastmile_qr_scan"}, "name": "48f7a1eb7fc02a04559acdcefc353df0", "is_reserved": 0}, {"is_disabled": 0, "fusion_lon": 0.0, "fusion_lat": 0.0, "lat": 38.8979635, "type": "electric_scooter", "lon": -76.93055083333333, "bike_id": "34216fa2fc457e2f5abca7eba5671a91", "rental_uris": {"android": "https://dc.lft.to/lastmile_qr_scan", "ios": "https://dc.lft.to/lastmile_qr_scan"}, "name": "34216fa2fc457e2f5abca7eba5671a91", "is_reserved": 0}, {"is_disabled": 0, "fusion_lon": 0.0, "fusion_lat": 0.0, "lat": 38.9149515, "type": "electric_scooter", "lon": -77.0321065, "bike_id": "f23708feade10bf2f19f9bb57c22d9ec", "rental_uris": {"android": "https://dc.lft.to/lastmile_qr_scan", "ios": "https://dc.lft.to/lastmile_qr_scan"}, "name": "f23708feade10bf2f19f9bb57c22d9ec", "is_reserved": 0}, {"is_disabled": 0, "fusion_lon": 0.0, "fusion_lat": 0.0, "lat": 38.8673245, "type": "electric_scooter", "lon": -76.98846516666667, "bike_id": "8744d668529dd286343a0c325433e473", "rental_uris": {"android": "https://dc.lft.to/lastmile_qr_scan", "ios": "https://dc.lft.to/lastmile_qr_scan"}, "name": "8744d668529dd286343a0c325433e473", "is_reserved": 0}, {"is_disabled": 0, "fusion_lon": 0.0, "fusion_lat": 0.0, "lat": 38.949811, "type": "electric_scooter", "lon": -77.02703583333333, "bike_id": "e78d9138367403dc96ad948387ef7b0f", "rental_uris": {"android": "https://dc.lft.to/lastmile_qr_scan", "ios": "https://dc.lft.to/lastmile_qr_scan"}, "name": "e78d9138367403dc96ad948387ef7b0f", "is_reserved": 0}, {"is_disabled": 0, "fusion_lon": 0.0, "fusion_lat": 0.0, "lat": 38.83153033333333, "type": "electric_bike", "lon": -76.9969205, "bike_id": "aec4185283008cf3f31e7a3b58192b9a", "rental_uris": {"android": "https://dc.lft.to/lastmile_qr_scan", "ios": "https://dc.lft.to/lastmile_qr_scan"}, "name": "aec4185283008cf3f31e7a3b58192b9a", "is_reserved": 0}, {"is_disabled": 0, "fusion_lon": 0.0, "fusion_lat": 0.0, "lat": 38.988154, "type": "electric_bike", "lon": -77.02650433333334, "bike_id": "21267948ce47a1027b05de8fac99096b", "rental_uris": {"android": "https://dc.lft.to/lastmile_qr_scan", "ios": "https://dc.lft.to/lastmile_qr_scan"}, "name": "21267948ce47a1027b05de8fac99096b", "is_reserved": 0}, {"is_disabled": 0, "fusion_lon": 0.0, "fusion_lat": 0.0, "lat": 38.942457, "type": "electric_scooter", "lon": -77.02171466666667, "bike_id": "82423c0ebb6b136fefd006fa7db9056e", "rental_uris": {"android": "https://dc.lft.to/lastmile_qr_scan", "ios": "https://dc.lft.to/lastmile_qr_scan"}, "name": "82423c0ebb6b136fefd006fa7db9056e", "is_reserved": 0}, {"is_disabled": 0, "fusion_lon": 0.0, "fusion_lat": 0.0, "lat": 38.93480233333333, "type": "electric_scooter", "lon": -77.02396933333333, "bike_id": "de40ebba78bacd72d1cbbe787dbac817", "rental_uris": {"android": "https://dc.lft.to/lastmile_qr_scan", "ios": "https://dc.lft.to/lastmile_qr_scan"}, "name": "de40ebba78bacd72d1cbbe787dbac817", "is_reserved": 0}, {"is_disabled": 0, "fusion_lon": 0.0, "fusion_lat": 0.0, "lat": 38.906696333333336, "type": "electric_scooter", "lon": -77.03437483333333, "bike_id": "aefc028faa8a9c7ea53955b8a4b08484", "rental_uris": {"android": "https://dc.lft.to/lastmile_qr_scan", "ios": "https://dc.lft.to/lastmile_qr_scan"}, "name": "aefc028faa8a9c7ea53955b8a4b08484", "is_reserved": 0}, {"is_disabled": 0, "fusion_lon": 0.0, "fusion_lat": 0.0, "lat": 38.8954895, "type": "electric_bike", "lon": -76.98368933333333, "bike_id": "c4c8d5da1a7822d92cbb0e1d5d4a9746", "rental_uris": {"android": "https://dc.lft.to/lastmile_qr_scan", "ios": "https://dc.lft.to/lastmile_qr_scan"}, "name": "c4c8d5da1a7822d92cbb0e1d5d4a9746", "is_reserved": 0}, {"is_disabled": 0, "fusion_lon": 0.0, "fusion_lat": 0.0, "lat": 38.91713516666667, "type": "electric_scooter", "lon": -77.0288985, "bike_id": "346dcafb40ca4f01417690139000ab08", "rental_uris": {"android": "https://dc.lft.to/lastmile_qr_scan", "ios": "https://dc.lft.to/lastmile_qr_scan"}, "name": "346dcafb40ca4f01417690139000ab08", "is_reserved": 0}, {"is_disabled": 0, "fusion_lon": 0.0, "fusion_lat": 0.0, "lat": 38.93606583333333, "type": "electric_scooter", "lon": -77.05587866666667, "bike_id": "6713339fec764498cbf2ef6088a7bd92", "rental_uris": {"android": "https://dc.lft.to/lastmile_qr_scan", "ios": "https://dc.lft.to/lastmile_qr_scan"}, "name": "6713339fec764498cbf2ef6088a7bd92", "is_reserved": 0}, {"is_disabled": 0, "fusion_lon": 0.0, "fusion_lat": 0.0, "lat": 38.9221, "type": "electric_scooter", "lon": -77.0424065, "bike_id": "fe992ad46fac5f76d5e1ad0d42cda886", "rental_uris": {"android": "https://dc.lft.to/lastmile_qr_scan", "ios": "https://dc.lft.to/lastmile_qr_scan"}, "name": "fe992ad46fac5f76d5e1ad0d42cda886", "is_reserved": 0}, {"is_disabled": 0, "fusion_lon": 0.0, "fusion_lat": 0.0, "lat": 38.915366666666664, "type": "electric_scooter", "lon": -77.03792, "bike_id": "aebabd39b978cf687d5d83bdf987e093", "rental_uris": {"android": "https://dc.lft.to/lastmile_qr_scan", "ios": "https://dc.lft.to/lastmile_qr_scan"}, "name": "aebabd39b978cf687d5d83bdf987e093", "is_reserved": 0}, {"is_disabled": 0, "fusion_lon": 0.0, "fusion_lat": 0.0, "lat": 38.80294266666667, "type": "electric_bike", "lon": -77.03985783333333, "bike_id": "b6f87ffd7972b852ba7a32482c9e6d36", "rental_uris": {"android": "https://dc.lft.to/lastmile_qr_scan", "ios": "https://dc.lft.to/lastmile_qr_scan"}, "name": "b6f87ffd7972b852ba7a32482c9e6d36", "is_reserved": 0}, {"is_disabled": 0, "fusion_lon": 0.0, "fusion_lat": 0.0, "lat": 38.908014, "type": "electric_scooter", "lon": -77.03397666666666, "bike_id": "cb8eee5399a3620ce1a9c78acb540bc3", "rental_uris": {"android": "https://dc.lft.to/lastmile_qr_scan", "ios": "https://dc.lft.to/lastmile_qr_scan"}, "name": "cb8eee5399a3620ce1a9c78acb540bc3", "is_reserved": 0}, {"is_disabled": 0, "fusion_lon": 0.0, "fusion_lat": 0.0, "lat": 38.854909166666665, "type": "electric_bike", "lon": -77.12040966666666, "bike_id": "08884bde01dd2f3078e16873695bfe06", "rental_uris": {"android": "https://dc.lft.to/lastmile_qr_scan", "ios": "https://dc.lft.to/lastmile_qr_scan"}, "name": "08884bde01dd2f3078e16873695bfe06", "is_reserved": 0}, {"is_disabled": 0, "fusion_lon": 0.0, "fusion_lat": 0.0, "lat": 38.93658966666667, "type": "electric_scooter", "lon": -77.05923233333333, "bike_id": "24690d01e89a0e1b6f610dde0b43ecdb", "rental_uris": {"android": "https://dc.lft.to/lastmile_qr_scan", "ios": "https://dc.lft.to/lastmile_qr_scan"}, "name": "24690d01e89a0e1b6f610dde0b43ecdb", "is_reserved": 0}, {"is_disabled": 0, "fusion_lon": 0.0, "fusion_lat": 0.0, "lat": 38.92229916666667, "type": "electric_scooter", "lon": -77.03314716666667, "bike_id": "626d71fdebfedec0dee0cfce1497a926", "rental_uris": {"android": "https://dc.lft.to/lastmile_qr_scan", "ios": "https://dc.lft.to/lastmile_qr_scan"}, "name": "626d71fdebfedec0dee0cfce1497a926", "is_reserved": 0}, {"is_disabled": 0, "fusion_lon": 0.0, "fusion_lat": 0.0, "lat": 38.906688833333334, "type": "electric_scooter", "lon": -77.024014, "bike_id": "ab4f8a24a5c1edd801ca5ddf359076cd", "rental_uris": {"android": "https://dc.lft.to/lastmile_qr_scan", "ios": "https://dc.lft.to/lastmile_qr_scan"}, "name": "ab4f8a24a5c1edd801ca5ddf359076cd", "is_reserved": 0}, {"is_disabled": 0, "fusion_lon": 0.0, "fusion_lat": 0.0, "lat": 38.912674, "type": "electric_scooter", "lon": -77.0106885, "bike_id": "94c7195e056220ebbc9bdc18247a2bd8", "rental_uris": {"android": "https://dc.lft.to/lastmile_qr_scan", "ios": "https://dc.lft.to/lastmile_qr_scan"}, "name": "94c7195e056220ebbc9bdc18247a2bd8", "is_reserved": 0}, {"is_disabled": 0, "fusion_lon": 0.0, "fusion_lat": 0.0, "lat": 38.887392, "type": "electric_scooter", "lon": -77.0153415, "bike_id": "89f18327d753c89a42f521fd798ed648", "rental_uris": {"android": "https://dc.lft.to/lastmile_qr_scan", "ios": "https://dc.lft.to/lastmile_qr_scan"}, "name": "89f18327d753c89a42f521fd798ed648", "is_reserved": 0}, {"is_disabled": 0, "fusion_lon": 0.0, "fusion_lat": 0.0, "lat": 38.91950583333333, "type": "electric_scooter", "lon": -77.01383983333334, "bike_id": "8e145a62d8f641de3fe3ba2ad83ea78b", "rental_uris": {"android": "https://dc.lft.to/lastmile_qr_scan", "ios": "https://dc.lft.to/lastmile_qr_scan"}, "name": "8e145a62d8f641de3fe3ba2ad83ea78b", "is_reserved": 0}, {"is_disabled": 0, "fusion_lon": 0.0, "fusion_lat": 0.0, "lat": 38.88387516666667, "type": "electric_scooter", "lon": -77.02516016666667, "bike_id": "69a2834d807d1eb0a1e54a53d3f518a0", "rental_uris": {"android": "https://dc.lft.to/lastmile_qr_scan", "ios": "https://dc.lft.to/lastmile_qr_scan"}, "name": "69a2834d807d1eb0a1e54a53d3f518a0", "is_reserved": 0}, {"is_disabled": 0, "fusion_lon": 0.0, "fusion_lat": 0.0, "lat": 38.90701933333333, "type": "electric_scooter", "lon": -77.02694666666666, "bike_id": "6a1807b4cbed30895e12a3e0cb8eab9a", "rental_uris": {"android": "https://dc.lft.to/lastmile_qr_scan", "ios": "https://dc.lft.to/lastmile_qr_scan"}, "name": "6a1807b4cbed30895e12a3e0cb8eab9a", "is_reserved": 0}, {"is_disabled": 0, "fusion_lon": 0.0, "fusion_lat": 0.0, "lat": 38.98823316666667, "type": "electric_bike", "lon": -76.98750833333334, "bike_id": "f7d33d18eca58c6d082eb7e935e2aa73", "rental_uris": {"android": "https://dc.lft.to/lastmile_qr_scan", "ios": "https://dc.lft.to/lastmile_qr_scan"}, "name": "f7d33d18eca58c6d082eb7e935e2aa73", "is_reserved": 0}, {"is_disabled": 0, "fusion_lon": 0.0, "fusion_lat": 0.0, "lat": 38.92031133333333, "type": "electric_scooter", "lon": -77.02582633333333, "bike_id": "7ed6683be696800da63ea774baf614f0", "rental_uris": {"android": "https://dc.lft.to/lastmile_qr_scan", "ios": "https://dc.lft.to/lastmile_qr_scan"}, "name": "7ed6683be696800da63ea774baf614f0", "is_reserved": 0}, {"is_disabled": 0, "fusion_lon": 0.0, "fusion_lat": 0.0, "lat": 38.88512516666667, "type": "electric_scooter", "lon": -76.99850283333333, "bike_id": "44a073df7bdc2981f8190c89ba17ebc7", "rental_uris": {"android": "https://dc.lft.to/lastmile_qr_scan", "ios": "https://dc.lft.to/lastmile_qr_scan"}, "name": "44a073df7bdc2981f8190c89ba17ebc7", "is_reserved": 0}, {"is_disabled": 0, "fusion_lon": 0.0, "fusion_lat": 0.0, "lat": 38.87925216666667, "type": "electric_scooter", "lon": -77.01342316666667, "bike_id": "cc45d027d3fc0fbf910e797e97f78b3e", "rental_uris": {"android": "https://dc.lft.to/lastmile_qr_scan", "ios": "https://dc.lft.to/lastmile_qr_scan"}, "name": "cc45d027d3fc0fbf910e797e97f78b3e", "is_reserved": 0}, {"is_disabled": 0, "fusion_lon": 0.0, "fusion_lat": 0.0, "lat": 38.92029816666667, "type": "electric_scooter", "lon": -77.03885133333333, "bike_id": "b2e8f17a985f3693c0f153e250e13b16", "rental_uris": {"android": "https://dc.lft.to/lastmile_qr_scan", "ios": "https://dc.lft.to/lastmile_qr_scan"}, "name": "b2e8f17a985f3693c0f153e250e13b16", "is_reserved": 0}, {"is_disabled": 0, "fusion_lon": 0.0, "fusion_lat": 0.0, "lat": 38.909560666666664, "type": "electric_scooter", "lon": -77.02306933333334, "bike_id": "a1d22167a5cce9d5331583eba500d04b", "rental_uris": {"android": "https://dc.lft.to/lastmile_qr_scan", "ios": "https://dc.lft.to/lastmile_qr_scan"}, "name": "a1d22167a5cce9d5331583eba500d04b", "is_reserved": 0}, {"is_disabled": 0, "fusion_lon": 0.0, "fusion_lat": 0.0, "lat": 38.949267, "type": "electric_scooter", "lon": -77.0194155, "bike_id": "58fb7afd51407ea83602ba98e68e3e18", "rental_uris": {"android": "https://dc.lft.to/lastmile_qr_scan", "ios": "https://dc.lft.to/lastmile_qr_scan"}, "name": "58fb7afd51407ea83602ba98e68e3e18", "is_reserved": 0}, {"is_disabled": 0, "fusion_lon": 0.0, "fusion_lat": 0.0, "lat": 38.908928333333336, "type": "electric_scooter", "lon": -76.998633, "bike_id": "d398d5d685effa5bac581dee678b8cbf", "rental_uris": {"android": "https://dc.lft.to/lastmile_qr_scan", "ios": "https://dc.lft.to/lastmile_qr_scan"}, "name": "d398d5d685effa5bac581dee678b8cbf", "is_reserved": 0}, {"is_disabled": 0, "fusion_lon": 0.0, "fusion_lat": 0.0, "lat": 38.852063333333334, "type": "electric_bike", "lon": -77.12764966666667, "bike_id": "d33bc8056dcfa478c130f4d500090831", "rental_uris": {"android": "https://dc.lft.to/lastmile_qr_scan", "ios": "https://dc.lft.to/lastmile_qr_scan"}, "name": "d33bc8056dcfa478c130f4d500090831", "is_reserved": 0}, {"is_disabled": 0, "fusion_lon": 0.0, "fusion_lat": 0.0, "lat": 38.89249433333333, "type": "electric_scooter", "lon": -76.9984975, "bike_id": "bebd28d512cebec01bb80940fe3966b4", "rental_uris": {"android": "https://dc.lft.to/lastmile_qr_scan", "ios": "https://dc.lft.to/lastmile_qr_scan"}, "name": "bebd28d512cebec01bb80940fe3966b4", "is_reserved": 0}, {"is_disabled": 0, "fusion_lon": 0.0, "fusion_lat": 0.0, "lat": 38.903001833333335, "type": "electric_scooter", "lon": -77.0507835, "bike_id": "e09e1762a8e69970fe6a199a0263391a", "rental_uris": {"android": "https://dc.lft.to/lastmile_qr_scan", "ios": "https://dc.lft.to/lastmile_qr_scan"}, "name": "e09e1762a8e69970fe6a199a0263391a", "is_reserved": 0}, {"is_disabled": 0, "fusion_lon": 0.0, "fusion_lat": 0.0, "lat": 38.926901666666666, "type": "electric_scooter", "lon": -77.0377365, "bike_id": "55f73148954d2b970f33db538ef592b5", "rental_uris": {"android": "https://dc.lft.to/lastmile_qr_scan", "ios": "https://dc.lft.to/lastmile_qr_scan"}, "name": "55f73148954d2b970f33db538ef592b5", "is_reserved": 0}, {"is_disabled": 0, "fusion_lon": 0.0, "fusion_lat": 0.0, "lat": 38.897482333333336, "type": "electric_scooter", "lon": -77.05093966666666, "bike_id": "d975b1a1365eab4f98f6ffadf666a33e", "rental_uris": {"android": "https://dc.lft.to/lastmile_qr_scan", "ios": "https://dc.lft.to/lastmile_qr_scan"}, "name": "d975b1a1365eab4f98f6ffadf666a33e", "is_reserved": 0}, {"is_disabled": 0, "fusion_lon": 0.0, "fusion_lat": 0.0, "lat": 38.93606066666667, "type": "electric_scooter", "lon": -77.0585685, "bike_id": "e439a91dfe20c31a832eea0995bb7a9c", "rental_uris": {"android": "https://dc.lft.to/lastmile_qr_scan", "ios": "https://dc.lft.to/lastmile_qr_scan"}, "name": "e439a91dfe20c31a832eea0995bb7a9c", "is_reserved": 0}, {"is_disabled": 0, "fusion_lon": 0.0, "fusion_lat": 0.0, "lat": 38.9493955, "type": "electric_bike", "lon": -77.0076445, "bike_id": "1d0a02ef1956c4ab1ad3c8d271f74db0", "rental_uris": {"android": "https://dc.lft.to/lastmile_qr_scan", "ios": "https://dc.lft.to/lastmile_qr_scan"}, "name": "1d0a02ef1956c4ab1ad3c8d271f74db0", "is_reserved": 0}, {"is_disabled": 0, "fusion_lon": 0.0, "fusion_lat": 0.0, "lat": 38.90028, "type": "electric_scooter", "lon": -76.99161983333333, "bike_id": "6abec3c1b5d75576869255c45ac28dfb", "rental_uris": {"android": "https://dc.lft.to/lastmile_qr_scan", "ios": "https://dc.lft.to/lastmile_qr_scan"}, "name": "6abec3c1b5d75576869255c45ac28dfb", "is_reserved": 0}, {"is_disabled": 0, "fusion_lon": 0.0, "fusion_lat": 0.0, "lat": 38.91108033333333, "type": "electric_scooter", "lon": -77.0450175, "bike_id": "3a952f1adf0e382a135c2d0388536806", "rental_uris": {"android": "https://dc.lft.to/lastmile_qr_scan", "ios": "https://dc.lft.to/lastmile_qr_scan"}, "name": "3a952f1adf0e382a135c2d0388536806", "is_reserved": 0}, {"is_disabled": 0, "fusion_lon": 0.0, "fusion_lat": 0.0, "lat": 38.914228333333334, "type": "electric_scooter", "lon": -77.0141715, "bike_id": "2f4a478ffcbf234e85fbe4175fd17c5f", "rental_uris": {"android": "https://dc.lft.to/lastmile_qr_scan", "ios": "https://dc.lft.to/lastmile_qr_scan"}, "name": "2f4a478ffcbf234e85fbe4175fd17c5f", "is_reserved": 0}, {"is_disabled": 0, "fusion_lon": 0.0, "fusion_lat": 0.0, "lat": 38.916960333333336, "type": "electric_scooter", "lon": -77.00643283333333, "bike_id": "425b1bfd54f8ec988142124d8f85cea3", "rental_uris": {"android": "https://dc.lft.to/lastmile_qr_scan", "ios": "https://dc.lft.to/lastmile_qr_scan"}, "name": "425b1bfd54f8ec988142124d8f85cea3", "is_reserved": 0}, {"is_disabled": 0, "fusion_lon": 0.0, "fusion_lat": 0.0, "lat": 38.911350666666664, "type": "electric_scooter", "lon": -77.041944, "bike_id": "be9656ef52e15758993445fdd50b6cf3", "rental_uris": {"android": "https://dc.lft.to/lastmile_qr_scan", "ios": "https://dc.lft.to/lastmile_qr_scan"}, "name": "be9656ef52e15758993445fdd50b6cf3", "is_reserved": 0}, {"is_disabled": 0, "fusion_lon": 0.0, "fusion_lat": 0.0, "lat": 38.86599233333333, "type": "electric_bike", "lon": -76.9321275, "bike_id": "946e2daae3ea66ddefeaff3eb0cbf83e", "rental_uris": {"android": "https://dc.lft.to/lastmile_qr_scan", "ios": "https://dc.lft.to/lastmile_qr_scan"}, "name": "946e2daae3ea66ddefeaff3eb0cbf83e", "is_reserved": 0}, {"is_disabled": 0, "fusion_lon": 0.0, "fusion_lat": 0.0, "lat": 38.92845033333333, "type": "electric_scooter", "lon": -77.01405866666667, "bike_id": "400efd3d3ad38bb0f734725994b74620", "rental_uris": {"android": "https://dc.lft.to/lastmile_qr_scan", "ios": "https://dc.lft.to/lastmile_qr_scan"}, "name": "400efd3d3ad38bb0f734725994b74620", "is_reserved": 0}, {"is_disabled": 0, "fusion_lon": 0.0, "fusion_lat": 0.0, "lat": 38.96754883333333, "type": "electric_bike", "lon": -77.09156383333334, "bike_id": "2b12bf6bcc167f3e51853c91e20e8fee", "rental_uris": {"android": "https://dc.lft.to/lastmile_qr_scan", "ios": "https://dc.lft.to/lastmile_qr_scan"}, "name": "2b12bf6bcc167f3e51853c91e20e8fee", "is_reserved": 0}, {"is_disabled": 0, "fusion_lon": 0.0, "fusion_lat": 0.0, "lat": 38.92370966666667, "type": "electric_scooter", "lon": -77.0409595, "bike_id": "038d7f9c1682a18292b89fdaf5aef0bf", "rental_uris": {"android": "https://dc.lft.to/lastmile_qr_scan", "ios": "https://dc.lft.to/lastmile_qr_scan"}, "name": "038d7f9c1682a18292b89fdaf5aef0bf", "is_reserved": 0}, {"is_disabled": 0, "fusion_lon": 0.0, "fusion_lat": 0.0, "lat": 38.924799, "type": "electric_scooter", "lon": -77.034929, "bike_id": "597bb2c0e224d20bb1090310321d5724", "rental_uris": {"android": "https://dc.lft.to/lastmile_qr_scan", "ios": "https://dc.lft.to/lastmile_qr_scan"}, "name": "597bb2c0e224d20bb1090310321d5724", "is_reserved": 0}, {"is_disabled": 0, "fusion_lon": 0.0, "fusion_lat": 0.0, "lat": 38.8419915, "type": "electric_bike", "lon": -77.1068025, "bike_id": "a79a96e4a2f467b8e908df7e5df6d5b0", "rental_uris": {"android": "https://dc.lft.to/lastmile_qr_scan", "ios": "https://dc.lft.to/lastmile_qr_scan"}, "name": "a79a96e4a2f467b8e908df7e5df6d5b0", "is_reserved": 0}, {"is_disabled": 0, "fusion_lon": 0.0, "fusion_lat": 0.0, "lat": 38.8631655, "type": "electric_scooter", "lon": -76.99029283333333, "bike_id": "9c53a7b365cddf3e2e1361a7e5b08bdf", "rental_uris": {"android": "https://dc.lft.to/lastmile_qr_scan", "ios": "https://dc.lft.to/lastmile_qr_scan"}, "name": "9c53a7b365cddf3e2e1361a7e5b08bdf", "is_reserved": 0}, {"is_disabled": 0, "fusion_lon": 0.0, "fusion_lat": 0.0, "lat": 38.89365133333333, "type": "electric_scooter", "lon": -77.02263233333333, "bike_id": "54603df034a62cbf25e906ae1b416060", "rental_uris": {"android": "https://dc.lft.to/lastmile_qr_scan", "ios": "https://dc.lft.to/lastmile_qr_scan"}, "name": "54603df034a62cbf25e906ae1b416060", "is_reserved": 0}, {"is_disabled": 0, "fusion_lon": 0.0, "fusion_lat": 0.0, "lat": 38.99874333333333, "type": "electric_bike", "lon": -77.02883016666667, "bike_id": "00e54d5a5b54f9955a57d6876c59e92e", "rental_uris": {"android": "https://dc.lft.to/lastmile_qr_scan", "ios": "https://dc.lft.to/lastmile_qr_scan"}, "name": "00e54d5a5b54f9955a57d6876c59e92e", "is_reserved": 0}, {"is_disabled": 0, "fusion_lon": 0.0, "fusion_lat": 0.0, "lat": 38.919546, "type": "electric_scooter", "lon": -77.02371733333334, "bike_id": "cd392acf847229e5812ae502a6342553", "rental_uris": {"android": "https://dc.lft.to/lastmile_qr_scan", "ios": "https://dc.lft.to/lastmile_qr_scan"}, "name": "cd392acf847229e5812ae502a6342553", "is_reserved": 0}, {"is_disabled": 0, "fusion_lon": 0.0, "fusion_lat": 0.0, "lat": 38.85807416666667, "type": "electric_scooter", "lon": -76.98655233333334, "bike_id": "da26ccde89224d2e8328db55403cb6ab", "rental_uris": {"android": "https://dc.lft.to/lastmile_qr_scan", "ios": "https://dc.lft.to/lastmile_qr_scan"}, "name": "da26ccde89224d2e8328db55403cb6ab", "is_reserved": 0}, {"is_disabled": 0, "fusion_lon": 0.0, "fusion_lat": 0.0, "lat": 38.915808, "type": "electric_scooter", "lon": -76.98110183333333, "bike_id": "554a4cbc6f045793ee9dfb2ab80d50bb", "rental_uris": {"android": "https://dc.lft.to/lastmile_qr_scan", "ios": "https://dc.lft.to/lastmile_qr_scan"}, "name": "554a4cbc6f045793ee9dfb2ab80d50bb", "is_reserved": 0}, {"is_disabled": 0, "fusion_lon": 0.0, "fusion_lat": 0.0, "lat": 38.845997833333335, "type": "electric_bike", "lon": -76.968762, "bike_id": "365481da642d147ee2b4e8e4d057e0e6", "rental_uris": {"android": "https://dc.lft.to/lastmile_qr_scan", "ios": "https://dc.lft.to/lastmile_qr_scan"}, "name": "365481da642d147ee2b4e8e4d057e0e6", "is_reserved": 0}, {"is_disabled": 0, "fusion_lon": 0.0, "fusion_lat": 0.0, "lat": 38.931875166666664, "type": "electric_bike", "lon": -77.2293585, "bike_id": "eaadd90e13d1d4800d9473fd2437a80c", "rental_uris": {"android": "https://dc.lft.to/lastmile_qr_scan", "ios": "https://dc.lft.to/lastmile_qr_scan"}, "name": "eaadd90e13d1d4800d9473fd2437a80c", "is_reserved": 0}, {"is_disabled": 0, "fusion_lon": 0.0, "fusion_lat": 0.0, "lat": 38.8962115, "type": "electric_scooter", "lon": -76.95635666666666, "bike_id": "1078b419247f15f4fcea22131cfb3180", "rental_uris": {"android": "https://dc.lft.to/lastmile_qr_scan", "ios": "https://dc.lft.to/lastmile_qr_scan"}, "name": "1078b419247f15f4fcea22131cfb3180", "is_reserved": 0}, {"is_disabled": 0, "fusion_lon": 0.0, "fusion_lat": 0.0, "lat": 38.91325616666666, "type": "electric_scooter", "lon": -77.04012983333334, "bike_id": "401b0fbd865b08c01b44e79f729c7df7", "rental_uris": {"android": "https://dc.lft.to/lastmile_qr_scan", "ios": "https://dc.lft.to/lastmile_qr_scan"}, "name": "401b0fbd865b08c01b44e79f729c7df7", "is_reserved": 0}, {"is_disabled": 0, "fusion_lon": 0.0, "fusion_lat": 0.0, "lat": 38.950771833333334, "type": "electric_scooter", "lon": -77.02875316666666, "bike_id": "7a22215401d6a9b83d6eea26b0b0f832", "rental_uris": {"android": "https://dc.lft.to/lastmile_qr_scan", "ios": "https://dc.lft.to/lastmile_qr_scan"}, "name": "7a22215401d6a9b83d6eea26b0b0f832", "is_reserved": 0}, {"is_disabled": 0, "fusion_lon": 0.0, "fusion_lat": 0.0, "lat": 38.992553666666666, "type": "electric_bike", "lon": -77.04998333333333, "bike_id": "376e5c179a078b60461cdbdb8ce732c0", "rental_uris": {"android": "https://dc.lft.to/lastmile_qr_scan", "ios": "https://dc.lft.to/lastmile_qr_scan"}, "name": "376e5c179a078b60461cdbdb8ce732c0", "is_reserved": 0}, {"is_disabled": 0, "fusion_lon": 0.0, "fusion_lat": 0.0, "lat": 38.920559833333336, "type": "electric_scooter", "lon": -76.99873883333333, "bike_id": "4caa07a24638d49cdde73df944c8e568", "rental_uris": {"android": "https://dc.lft.to/lastmile_qr_scan", "ios": "https://dc.lft.to/lastmile_qr_scan"}, "name": "4caa07a24638d49cdde73df944c8e568", "is_reserved": 0}, {"is_disabled": 0, "fusion_lon": 0.0, "fusion_lat": 0.0, "lat": 38.917586666666665, "type": "electric_scooter", "lon": -77.03590266666667, "bike_id": "9f4f124d6f08a077119d208b430edd80", "rental_uris": {"android": "https://dc.lft.to/lastmile_qr_scan", "ios": "https://dc.lft.to/lastmile_qr_scan"}, "name": "9f4f124d6f08a077119d208b430edd80", "is_reserved": 0}, {"is_disabled": 0, "fusion_lon": 0.0, "fusion_lat": 0.0, "lat": 38.883721, "type": "electric_scooter", "lon": -76.92645283333333, "bike_id": "0beb3f09d97e50c80812d1b7ac6b9bfb", "rental_uris": {"android": "https://dc.lft.to/lastmile_qr_scan", "ios": "https://dc.lft.to/lastmile_qr_scan"}, "name": "0beb3f09d97e50c80812d1b7ac6b9bfb", "is_reserved": 0}, {"is_disabled": 0, "fusion_lon": 0.0, "fusion_lat": 0.0, "lat": 38.91883466666667, "type": "electric_scooter", "lon": -77.01592933333333, "bike_id": "299b30e532821ce43340a85bc424d477", "rental_uris": {"android": "https://dc.lft.to/lastmile_qr_scan", "ios": "https://dc.lft.to/lastmile_qr_scan"}, "name": "299b30e532821ce43340a85bc424d477", "is_reserved": 0}, {"is_disabled": 0, "fusion_lon": 0.0, "fusion_lat": 0.0, "lat": 38.897356333333335, "type": "electric_scooter", "lon": -77.026903, "bike_id": "ad5d1d63bbe4168fe6680d96c7525039", "rental_uris": {"android": "https://dc.lft.to/lastmile_qr_scan", "ios": "https://dc.lft.to/lastmile_qr_scan"}, "name": "ad5d1d63bbe4168fe6680d96c7525039", "is_reserved": 0}, {"is_disabled": 0, "fusion_lon": 0.0, "fusion_lat": 0.0, "lat": 38.922854, "type": "electric_scooter", "lon": -77.04474316666666, "bike_id": "07a67513124e2c1db3d61a66412fa205", "rental_uris": {"android": "https://dc.lft.to/lastmile_qr_scan", "ios": "https://dc.lft.to/lastmile_qr_scan"}, "name": "07a67513124e2c1db3d61a66412fa205", "is_reserved": 0}, {"is_disabled": 0, "fusion_lon": 0.0, "fusion_lat": 0.0, "lat": 38.92461133333333, "type": "electric_scooter", "lon": -77.07863183333333, "bike_id": "74d9082d895cc3b339410ce4c5a60c5e", "rental_uris": {"android": "https://dc.lft.to/lastmile_qr_scan", "ios": "https://dc.lft.to/lastmile_qr_scan"}, "name": "74d9082d895cc3b339410ce4c5a60c5e", "is_reserved": 0}, {"is_disabled": 0, "fusion_lon": 0.0, "fusion_lat": 0.0, "lat": 38.94063216666667, "type": "electric_scooter", "lon": -77.028682, "bike_id": "05f3bda1274a878292d7d71449df13b1", "rental_uris": {"android": "https://dc.lft.to/lastmile_qr_scan", "ios": "https://dc.lft.to/lastmile_qr_scan"}, "name": "05f3bda1274a878292d7d71449df13b1", "is_reserved": 0}, {"is_disabled": 0, "fusion_lon": 0.0, "fusion_lat": 0.0, "lat": 38.9057435, "type": "electric_scooter", "lon": -77.05595016666666, "bike_id": "f32ef6861b424088e6eecb3ff91cfff9", "rental_uris": {"android": "https://dc.lft.to/lastmile_qr_scan", "ios": "https://dc.lft.to/lastmile_qr_scan"}, "name": "f32ef6861b424088e6eecb3ff91cfff9", "is_reserved": 0}, {"is_disabled": 0, "fusion_lon": 0.0, "fusion_lat": 0.0, "lat": 38.89841416666667, "type": "electric_scooter", "lon": -77.021922, "bike_id": "576ae147498c0578f41a6d4c66054100", "rental_uris": {"android": "https://dc.lft.to/lastmile_qr_scan", "ios": "https://dc.lft.to/lastmile_qr_scan"}, "name": "576ae147498c0578f41a6d4c66054100", "is_reserved": 0}, {"is_disabled": 0, "fusion_lon": 0.0, "fusion_lat": 0.0, "lat": 38.895304, "type": "electric_scooter", "lon": -77.04860166666667, "bike_id": "ce1cc4cd8631057468007546387c9cf0", "rental_uris": {"android": "https://dc.lft.to/lastmile_qr_scan", "ios": "https://dc.lft.to/lastmile_qr_scan"}, "name": "ce1cc4cd8631057468007546387c9cf0", "is_reserved": 0}, {"is_disabled": 0, "fusion_lon": 0.0, "fusion_lat": 0.0, "lat": 38.902945, "type": "electric_scooter", "lon": -77.04880433333334, "bike_id": "317c974f6abf3450e1f341d399af0459", "rental_uris": {"android": "https://dc.lft.to/lastmile_qr_scan", "ios": "https://dc.lft.to/lastmile_qr_scan"}, "name": "317c974f6abf3450e1f341d399af0459", "is_reserved": 0}, {"is_disabled": 0, "fusion_lon": 0.0, "fusion_lat": 0.0, "lat": 38.8775465, "type": "electric_bike", "lon": -76.98002916666667, "bike_id": "6cf17338f45f4694c6ee45edfc49b0a8", "rental_uris": {"android": "https://dc.lft.to/lastmile_qr_scan", "ios": "https://dc.lft.to/lastmile_qr_scan"}, "name": "6cf17338f45f4694c6ee45edfc49b0a8", "is_reserved": 0}, {"is_disabled": 0, "fusion_lon": 0.0, "fusion_lat": 0.0, "lat": 38.92105, "type": "electric_scooter", "lon": -77.01771333333333, "bike_id": "a953ed0cc16ab0760b1499d937e9ee74", "rental_uris": {"android": "https://dc.lft.to/lastmile_qr_scan", "ios": "https://dc.lft.to/lastmile_qr_scan"}, "name": "a953ed0cc16ab0760b1499d937e9ee74", "is_reserved": 0}, {"is_disabled": 0, "fusion_lon": 0.0, "fusion_lat": 0.0, "lat": 38.853191333333335, "type": "electric_bike", "lon": -77.05331066666666, "bike_id": "41ac5507ec8a7fef642461794af3f40e", "rental_uris": {"android": "https://dc.lft.to/lastmile_qr_scan", "ios": "https://dc.lft.to/lastmile_qr_scan"}, "name": "41ac5507ec8a7fef642461794af3f40e", "is_reserved": 0}, {"is_disabled": 0, "fusion_lon": 0.0, "fusion_lat": 0.0, "lat": 38.92562483333333, "type": "electric_scooter", "lon": -77.0806135, "bike_id": "5c6726fef14c024b6fa3d8dac559cbe8", "rental_uris": {"android": "https://dc.lft.to/lastmile_qr_scan", "ios": "https://dc.lft.to/lastmile_qr_scan"}, "name": "5c6726fef14c024b6fa3d8dac559cbe8", "is_reserved": 0}, {"is_disabled": 0, "fusion_lon": 0.0, "fusion_lat": 0.0, "lat": 38.93960916666666, "type": "electric_bike", "lon": -77.36093033333333, "bike_id": "d8306ccd515defd02f7a70fd0bfceca0", "rental_uris": {"android": "https://dc.lft.to/lastmile_qr_scan", "ios": "https://dc.lft.to/lastmile_qr_scan"}, "name": "d8306ccd515defd02f7a70fd0bfceca0", "is_reserved": 0}, {"is_disabled": 0, "fusion_lon": 0.0, "fusion_lat": 0.0, "lat": 38.87195033333333, "type": "electric_scooter", "lon": -76.9782255, "bike_id": "94cc3706d7ffe790d3479ae6df8ebccc", "rental_uris": {"android": "https://dc.lft.to/lastmile_qr_scan", "ios": "https://dc.lft.to/lastmile_qr_scan"}, "name": "94cc3706d7ffe790d3479ae6df8ebccc", "is_reserved": 0}, {"is_disabled": 0, "fusion_lon": 0.0, "fusion_lat": 0.0, "lat": 38.8966305, "type": "electric_scooter", "lon": -77.01192683333333, "bike_id": "ca0d0e8ca0f566a8703c2f4d773057cf", "rental_uris": {"android": "https://dc.lft.to/lastmile_qr_scan", "ios": "https://dc.lft.to/lastmile_qr_scan"}, "name": "ca0d0e8ca0f566a8703c2f4d773057cf", "is_reserved": 0}, {"is_disabled": 0, "fusion_lon": 0.0, "fusion_lat": 0.0, "lat": 38.904223333333334, "type": "electric_scooter", "lon": -77.06859133333333, "bike_id": "b4caa50b640d91902602a427ce0b6fd9", "rental_uris": {"android": "https://dc.lft.to/lastmile_qr_scan", "ios": "https://dc.lft.to/lastmile_qr_scan"}, "name": "b4caa50b640d91902602a427ce0b6fd9", "is_reserved": 0}, {"is_disabled": 0, "fusion_lon": 0.0, "fusion_lat": 0.0, "lat": 38.905828666666665, "type": "electric_scooter", "lon": -77.069172, "bike_id": "d5b95f8b106b97b5cdb3a38da91f8d3b", "rental_uris": {"android": "https://dc.lft.to/lastmile_qr_scan", "ios": "https://dc.lft.to/lastmile_qr_scan"}, "name": "d5b95f8b106b97b5cdb3a38da91f8d3b", "is_reserved": 0}, {"is_disabled": 0, "fusion_lon": 0.0, "fusion_lat": 0.0, "lat": 38.961463333333334, "type": "electric_scooter", "lon": -77.02786916666666, "bike_id": "b40f1cc5471248e81911778bce2037de", "rental_uris": {"android": "https://dc.lft.to/lastmile_qr_scan", "ios": "https://dc.lft.to/lastmile_qr_scan"}, "name": "b40f1cc5471248e81911778bce2037de", "is_reserved": 0}, {"is_disabled": 0, "fusion_lon": 0.0, "fusion_lat": 0.0, "lat": 38.90811166666667, "type": "electric_scooter", "lon": -77.001393, "bike_id": "7bc56e9edbc8a6b351c47da427d24135", "rental_uris": {"android": "https://dc.lft.to/lastmile_qr_scan", "ios": "https://dc.lft.to/lastmile_qr_scan"}, "name": "7bc56e9edbc8a6b351c47da427d24135", "is_reserved": 0}, {"is_disabled": 0, "fusion_lon": 0.0, "fusion_lat": 0.0, "lat": 38.8891425, "type": "electric_scooter", "lon": -76.979995, "bike_id": "27a7d3aebad25eae6bf76fcb7a6d93c5", "rental_uris": {"android": "https://dc.lft.to/lastmile_qr_scan", "ios": "https://dc.lft.to/lastmile_qr_scan"}, "name": "27a7d3aebad25eae6bf76fcb7a6d93c5", "is_reserved": 0}, {"is_disabled": 0, "fusion_lon": 0.0, "fusion_lat": 0.0, "lat": 38.928805, "type": "electric_scooter", "lon": -77.03737016666666, "bike_id": "f316b7afdd7721bd924b86540ea088ac", "rental_uris": {"android": "https://dc.lft.to/lastmile_qr_scan", "ios": "https://dc.lft.to/lastmile_qr_scan"}, "name": "f316b7afdd7721bd924b86540ea088ac", "is_reserved": 0}, {"is_disabled": 0, "fusion_lon": 0.0, "fusion_lat": 0.0, "lat": 38.90340783333333, "type": "electric_scooter", "lon": -77.03865266666666, "bike_id": "287bec2e618360fef826e59106eda646", "rental_uris": {"android": "https://dc.lft.to/lastmile_qr_scan", "ios": "https://dc.lft.to/lastmile_qr_scan"}, "name": "287bec2e618360fef826e59106eda646", "is_reserved": 0}, {"is_disabled": 0, "fusion_lon": 0.0, "fusion_lat": 0.0, "lat": 38.92435016666667, "type": "electric_bike", "lon": -76.90760216666666, "bike_id": "c1516c3692ea65a0ed1bb20d49c16bdc", "rental_uris": {"android": "https://dc.lft.to/lastmile_qr_scan", "ios": "https://dc.lft.to/lastmile_qr_scan"}, "name": "c1516c3692ea65a0ed1bb20d49c16bdc", "is_reserved": 0}, {"is_disabled": 0, "fusion_lon": 0.0, "fusion_lat": 0.0, "lat": 38.89999483333333, "type": "electric_scooter", "lon": -77.03387983333333, "bike_id": "d79e27fb265fda7efde277853182bd52", "rental_uris": {"android": "https://dc.lft.to/lastmile_qr_scan", "ios": "https://dc.lft.to/lastmile_qr_scan"}, "name": "d79e27fb265fda7efde277853182bd52", "is_reserved": 0}, {"is_disabled": 0, "fusion_lon": 0.0, "fusion_lat": 0.0, "lat": 38.89948416666667, "type": "electric_scooter", "lon": -77.002086, "bike_id": "a2dc26adcdcd60790c7be0b0866b13d7", "rental_uris": {"android": "https://dc.lft.to/lastmile_qr_scan", "ios": "https://dc.lft.to/lastmile_qr_scan"}, "name": "a2dc26adcdcd60790c7be0b0866b13d7", "is_reserved": 0}, {"is_disabled": 0, "fusion_lon": 0.0, "fusion_lat": 0.0, "lat": 38.8859865, "type": "electric_scooter", "lon": -77.022035, "bike_id": "73828871d7b05caf18f9ddf98040531f", "rental_uris": {"android": "https://dc.lft.to/lastmile_qr_scan", "ios": "https://dc.lft.to/lastmile_qr_scan"}, "name": "73828871d7b05caf18f9ddf98040531f", "is_reserved": 0}, {"is_disabled": 0, "fusion_lon": 0.0, "fusion_lat": 0.0, "lat": 38.89192033333333, "type": "electric_scooter", "lon": -76.98828533333334, "bike_id": "c907b0c4a02746219f89b0c3a914f83c", "rental_uris": {"android": "https://dc.lft.to/lastmile_qr_scan", "ios": "https://dc.lft.to/lastmile_qr_scan"}, "name": "c907b0c4a02746219f89b0c3a914f83c", "is_reserved": 0}, {"is_disabled": 0, "fusion_lon": 0.0, "fusion_lat": 0.0, "lat": 38.935063666666665, "type": "electric_scooter", "lon": -77.02409316666666, "bike_id": "f39ebf1af856167bd7bc5b3cc8357127", "rental_uris": {"android": "https://dc.lft.to/lastmile_qr_scan", "ios": "https://dc.lft.to/lastmile_qr_scan"}, "name": "f39ebf1af856167bd7bc5b3cc8357127", "is_reserved": 0}, {"is_disabled": 0, "fusion_lon": 0.0, "fusion_lat": 0.0, "lat": 38.913369333333335, "type": "electric_scooter", "lon": -77.0324055, "bike_id": "3f9e826c86bb30ecc3460e4218fd4761", "rental_uris": {"android": "https://dc.lft.to/lastmile_qr_scan", "ios": "https://dc.lft.to/lastmile_qr_scan"}, "name": "3f9e826c86bb30ecc3460e4218fd4761", "is_reserved": 0}, {"is_disabled": 0, "fusion_lon": 0.0, "fusion_lat": 0.0, "lat": 38.9061025, "type": "electric_scooter", "lon": -77.03429316666667, "bike_id": "4e5d48c7d51fc2ce7af19cd2427840a4", "rental_uris": {"android": "https://dc.lft.to/lastmile_qr_scan", "ios": "https://dc.lft.to/lastmile_qr_scan"}, "name": "4e5d48c7d51fc2ce7af19cd2427840a4", "is_reserved": 0}, {"is_disabled": 0, "fusion_lon": 0.0, "fusion_lat": 0.0, "lat": 38.90542466666667, "type": "electric_scooter", "lon": -77.03408216666666, "bike_id": "43c2da1fed3a732673d168e9fb003603", "rental_uris": {"android": "https://dc.lft.to/lastmile_qr_scan", "ios": "https://dc.lft.to/lastmile_qr_scan"}, "name": "43c2da1fed3a732673d168e9fb003603", "is_reserved": 0}, {"is_disabled": 0, "fusion_lon": 0.0, "fusion_lat": 0.0, "lat": 38.90542216666667, "type": "electric_scooter", "lon": -77.03404116666667, "bike_id": "35ea56f0515a80cbb133d72dbbeea9cc", "rental_uris": {"android": "https://dc.lft.to/lastmile_qr_scan", "ios": "https://dc.lft.to/lastmile_qr_scan"}, "name": "35ea56f0515a80cbb133d72dbbeea9cc", "is_reserved": 0}, {"is_disabled": 0, "fusion_lon": 0.0, "fusion_lat": 0.0, "lat": 38.92229283333333, "type": "electric_scooter", "lon": -76.97529933333334, "bike_id": "d1c04c139e860e8c811988172f754cba", "rental_uris": {"android": "https://dc.lft.to/lastmile_qr_scan", "ios": "https://dc.lft.to/lastmile_qr_scan"}, "name": "d1c04c139e860e8c811988172f754cba", "is_reserved": 0}, {"is_disabled": 0, "fusion_lon": 0.0, "fusion_lat": 0.0, "lat": 38.9107845, "type": "electric_scooter", "lon": -77.01511183333334, "bike_id": "bef1be1f5791624d24c7bd6237e29dff", "rental_uris": {"android": "https://dc.lft.to/lastmile_qr_scan", "ios": "https://dc.lft.to/lastmile_qr_scan"}, "name": "bef1be1f5791624d24c7bd6237e29dff", "is_reserved": 0}, {"is_disabled": 0, "fusion_lon": 0.0, "fusion_lat": 0.0, "lat": 38.924570833333334, "type": "electric_scooter", "lon": -77.02151516666666, "bike_id": "61029f4e6d033d22dd8b3d6c56eb708c", "rental_uris": {"android": "https://dc.lft.to/lastmile_qr_scan", "ios": "https://dc.lft.to/lastmile_qr_scan"}, "name": "61029f4e6d033d22dd8b3d6c56eb708c", "is_reserved": 0}, {"is_disabled": 0, "fusion_lon": 0.0, "fusion_lat": 0.0, "lat": 38.9051375, "type": "electric_scooter", "lon": -77.029774, "bike_id": "f5f4d92b9c6f01773006f7577039d7ee", "rental_uris": {"android": "https://dc.lft.to/lastmile_qr_scan", "ios": "https://dc.lft.to/lastmile_qr_scan"}, "name": "f5f4d92b9c6f01773006f7577039d7ee", "is_reserved": 0}, {"is_disabled": 0, "fusion_lon": 0.0, "fusion_lat": 0.0, "lat": 38.91228066666667, "type": "electric_scooter", "lon": -76.98448033333334, "bike_id": "920ab12d13b260f2c520afa312cb1992", "rental_uris": {"android": "https://dc.lft.to/lastmile_qr_scan", "ios": "https://dc.lft.to/lastmile_qr_scan"}, "name": "920ab12d13b260f2c520afa312cb1992", "is_reserved": 0}, {"is_disabled": 0, "fusion_lon": 0.0, "fusion_lat": 0.0, "lat": 38.88472483333334, "type": "electric_scooter", "lon": -76.95227366666667, "bike_id": "c056b0b95188bbfcb00d17bd77568f3f", "rental_uris": {"android": "https://dc.lft.to/lastmile_qr_scan", "ios": "https://dc.lft.to/lastmile_qr_scan"}, "name": "c056b0b95188bbfcb00d17bd77568f3f", "is_reserved": 0}, {"is_disabled": 0, "fusion_lon": 0.0, "fusion_lat": 0.0, "lat": 38.926703833333335, "type": "electric_scooter", "lon": -77.10312433333333, "bike_id": "d39e08dd6d618f7e118549cddf8ef2ac", "rental_uris": {"android": "https://dc.lft.to/lastmile_qr_scan", "ios": "https://dc.lft.to/lastmile_qr_scan"}, "name": "d39e08dd6d618f7e118549cddf8ef2ac", "is_reserved": 0}, {"is_disabled": 0, "fusion_lon": 0.0, "fusion_lat": 0.0, "lat": 38.946997833333334, "type": "electric_scooter", "lon": -77.01942783333334, "bike_id": "0748fd7476d7b7f821aa0f1b1e87809a", "rental_uris": {"android": "https://dc.lft.to/lastmile_qr_scan", "ios": "https://dc.lft.to/lastmile_qr_scan"}, "name": "0748fd7476d7b7f821aa0f1b1e87809a", "is_reserved": 0}, {"is_disabled": 0, "fusion_lon": 0.0, "fusion_lat": 0.0, "lat": 38.90613583333333, "type": "electric_scooter", "lon": -77.05724866666667, "bike_id": "52a526f569fa38eb778eb5376e9f1c95", "rental_uris": {"android": "https://dc.lft.to/lastmile_qr_scan", "ios": "https://dc.lft.to/lastmile_qr_scan"}, "name": "52a526f569fa38eb778eb5376e9f1c95", "is_reserved": 0}, {"is_disabled": 0, "fusion_lon": 0.0, "fusion_lat": 0.0, "lat": 38.919586, "type": "electric_scooter", "lon": -77.027054, "bike_id": "813e9fc434265d54d2be7a6ad0d2cdf5", "rental_uris": {"android": "https://dc.lft.to/lastmile_qr_scan", "ios": "https://dc.lft.to/lastmile_qr_scan"}, "name": "813e9fc434265d54d2be7a6ad0d2cdf5", "is_reserved": 0}, {"is_disabled": 0, "fusion_lon": 0.0, "fusion_lat": 0.0, "lat": 38.921691333333335, "type": "electric_scooter", "lon": -77.0553065, "bike_id": "bc677b344690545c10a4dfa134642aa0", "rental_uris": {"android": "https://dc.lft.to/lastmile_qr_scan", "ios": "https://dc.lft.to/lastmile_qr_scan"}, "name": "bc677b344690545c10a4dfa134642aa0", "is_reserved": 0}, {"is_disabled": 0, "fusion_lon": 0.0, "fusion_lat": 0.0, "lat": 38.92387333333333, "type": "electric_scooter", "lon": -77.0296305, "bike_id": "b1d215509858663ea73803c75ae91cc4", "rental_uris": {"android": "https://dc.lft.to/lastmile_qr_scan", "ios": "https://dc.lft.to/lastmile_qr_scan"}, "name": "b1d215509858663ea73803c75ae91cc4", "is_reserved": 0}, {"is_disabled": 0, "fusion_lon": 0.0, "fusion_lat": 0.0, "lat": 38.903113833333336, "type": "electric_scooter", "lon": -76.98245383333334, "bike_id": "9fa934aa94d61ded6b61a13bce79b109", "rental_uris": {"android": "https://dc.lft.to/lastmile_qr_scan", "ios": "https://dc.lft.to/lastmile_qr_scan"}, "name": "9fa934aa94d61ded6b61a13bce79b109", "is_reserved": 0}, {"is_disabled": 0, "fusion_lon": 0.0, "fusion_lat": 0.0, "lat": 38.89840316666667, "type": "electric_scooter", "lon": -76.946338, "bike_id": "a5076280150d29905f306c0391c6d380", "rental_uris": {"android": "https://dc.lft.to/lastmile_qr_scan", "ios": "https://dc.lft.to/lastmile_qr_scan"}, "name": "a5076280150d29905f306c0391c6d380", "is_reserved": 0}, {"is_disabled": 0, "fusion_lon": 0.0, "fusion_lat": 0.0, "lat": 38.950877, "type": "electric_bike", "lon": -76.9655715, "bike_id": "25ef8c9b26f4afd42fedc1681ca85001", "rental_uris": {"android": "https://dc.lft.to/lastmile_qr_scan", "ios": "https://dc.lft.to/lastmile_qr_scan"}, "name": "25ef8c9b26f4afd42fedc1681ca85001", "is_reserved": 0}, {"is_disabled": 0, "fusion_lon": 0.0, "fusion_lat": 0.0, "lat": 38.92788216666667, "type": "electric_scooter", "lon": -77.03151933333334, "bike_id": "ee740a8eb040b633b4851f8d2cb1b5ff", "rental_uris": {"android": "https://dc.lft.to/lastmile_qr_scan", "ios": "https://dc.lft.to/lastmile_qr_scan"}, "name": "ee740a8eb040b633b4851f8d2cb1b5ff", "is_reserved": 0}, {"is_disabled": 0, "fusion_lon": 0.0, "fusion_lat": 0.0, "lat": 38.907955, "type": "electric_scooter", "lon": -77.0409255, "bike_id": "98a5016852257e518dfa8bddeabf7e02", "rental_uris": {"android": "https://dc.lft.to/lastmile_qr_scan", "ios": "https://dc.lft.to/lastmile_qr_scan"}, "name": "98a5016852257e518dfa8bddeabf7e02", "is_reserved": 0}, {"is_disabled": 0, "fusion_lon": 0.0, "fusion_lat": 0.0, "lat": 38.912536333333335, "type": "electric_scooter", "lon": -77.00926433333333, "bike_id": "c179923cfae9155a6ceb24f5c473b54c", "rental_uris": {"android": "https://dc.lft.to/lastmile_qr_scan", "ios": "https://dc.lft.to/lastmile_qr_scan"}, "name": "c179923cfae9155a6ceb24f5c473b54c", "is_reserved": 0}, {"is_disabled": 0, "fusion_lon": 0.0, "fusion_lat": 0.0, "lat": 38.93176366666667, "type": "electric_scooter", "lon": -77.07254666666667, "bike_id": "3240f916aeca65efaf53d5bc1a620eb4", "rental_uris": {"android": "https://dc.lft.to/lastmile_qr_scan", "ios": "https://dc.lft.to/lastmile_qr_scan"}, "name": "3240f916aeca65efaf53d5bc1a620eb4", "is_reserved": 0}, {"is_disabled": 0, "fusion_lon": 0.0, "fusion_lat": 0.0, "lat": 38.873385166666665, "type": "electric_bike", "lon": -77.01853733333333, "bike_id": "3c6b6c073e779f306a5f25733b2291f0", "rental_uris": {"android": "https://dc.lft.to/lastmile_qr_scan", "ios": "https://dc.lft.to/lastmile_qr_scan"}, "name": "3c6b6c073e779f306a5f25733b2291f0", "is_reserved": 0}, {"is_disabled": 0, "fusion_lon": 0.0, "fusion_lat": 0.0, "lat": 38.90047833333333, "type": "electric_scooter", "lon": -76.98821466666666, "bike_id": "8eab82be51cb1b5b6902528344af3440", "rental_uris": {"android": "https://dc.lft.to/lastmile_qr_scan", "ios": "https://dc.lft.to/lastmile_qr_scan"}, "name": "8eab82be51cb1b5b6902528344af3440", "is_reserved": 0}, {"is_disabled": 0, "fusion_lon": 0.0, "fusion_lat": 0.0, "lat": 39.00787733333333, "type": "electric_bike", "lon": -76.99568416666666, "bike_id": "dfb0c9c456023166d8b5ca30706ccac1", "rental_uris": {"android": "https://dc.lft.to/lastmile_qr_scan", "ios": "https://dc.lft.to/lastmile_qr_scan"}, "name": "dfb0c9c456023166d8b5ca30706ccac1", "is_reserved": 0}, {"is_disabled": 0, "fusion_lon": 0.0, "fusion_lat": 0.0, "lat": 38.906499333333336, "type": "electric_scooter", "lon": -77.04530466666667, "bike_id": "87bfea5441e454fb299d186b658d8ad1", "rental_uris": {"android": "https://dc.lft.to/lastmile_qr_scan", "ios": "https://dc.lft.to/lastmile_qr_scan"}, "name": "87bfea5441e454fb299d186b658d8ad1", "is_reserved": 0}, {"is_disabled": 0, "fusion_lon": 0.0, "fusion_lat": 0.0, "lat": 38.905131, "type": "electric_scooter", "lon": -76.982529, "bike_id": "57c5af87e2bbf7b114ee13cc4712765a", "rental_uris": {"android": "https://dc.lft.to/lastmile_qr_scan", "ios": "https://dc.lft.to/lastmile_qr_scan"}, "name": "57c5af87e2bbf7b114ee13cc4712765a", "is_reserved": 0},