{"data": {"bikes": [{"name": "ca590a11c1bd647f443dfbc17719489a", "fusion_lat": 0.0, "type": "electric_bike", "lat": 38.942278, "is_reserved": 0, "is_disabled": 0, "fusion_lon": 0.0, "bike_id": "ca590a11c1bd647f443dfbc17719489a", "lon": -77.01388933333334, "rental_uris": {"ios": "https://dc.lft.to/lastmile_qr_scan", "android": "https://dc.lft.to/lastmile_qr_scan"}}, {"name": "b36246d9a277c92416497bc526704bc0", "fusion_lat": 0.0, "type": "electric_scooter", "lat": 38.907747666666666, "is_reserved": 0, "is_disabled": 0, "fusion_lon": 0.0, "bike_id": "b36246d9a277c92416497bc526704bc0", "lon": -77.0716645, "rental_uris": {"ios": "https://dc.lft.to/lastmile_qr_scan", "android": "https://dc.lft.to/lastmile_qr_scan"}}, {"name": "67716d1452229006e8c478ba632289c5", "fusion_lat": 0.0, "type": "electric_scooter", "lat": 38.937893, "is_reserved": 0, "is_disabled": 0, "fusion_lon": 0.0, "bike_id": "67716d1452229006e8c478ba632289c5", "lon": -77.0599085, "rental_uris": {"ios": "https://dc.lft.to/lastmile_qr_scan", "android": "https://dc.lft.to/lastmile_qr_scan"}}, {"name": "4c26f576318cd58ca90c957562494366", "fusion_lat": 0.0, "type": "electric_scooter", "lat": 38.897375833333335, "is_reserved": 0, "is_disabled": 0, "fusion_lon": 0.0, "bike_id": "4c26f576318cd58ca90c957562494366", "lon": -76.9384235, "rental_uris": {"ios": "https://dc.lft.to/lastmile_qr_scan", "android": "https://dc.lft.to/lastmile_qr_scan"}}, {"name": "afc088afa1a0c000cea0a63aae05872a", "fusion_lat": 0.0, "type": "electric_scooter", "lat": 38.92160766666667, "is_reserved": 0, "is_disabled": 0, "fusion_lon": 0.0, "bike_id": "afc088afa1a0c000cea0a63aae05872a", "lon": -77.04220433333333, "rental_uris": {"ios": "https://dc.lft.to/lastmile_qr_scan", "android": "https://dc.lft.to/lastmile_qr_scan"}}, {"name": "f826fa067fcfe5c5fe99ba582284eaf3", "fusion_lat": 0.0, "type": "electric_scooter", "lat": 38.90037233333334, "is_reserved": 0, "is_disabled": 0, "fusion_lon": 0.0, "bike_id": "f826fa067fcfe5c5fe99ba582284eaf3", "lon": -77.0019565, "rental_uris": {"ios": "https://dc.lft.to/lastmile_qr_scan", "android": "https://dc.lft.to/lastmile_qr_scan"}}, {"name": "f1390c602cfe12613d0a6c175f23527c", "fusion_lat": 0.0, "type": "electric_scooter", "lat": 38.911095, "is_reserved": 0, "is_disabled": 0, "fusion_lon": 0.0, "bike_id": "f1390c602cfe12613d0a6c175f23527c", "lon": -77.0314465, "rental_uris": {"ios": "https://dc.lft.to/lastmile_qr_scan", "android": "https://dc.lft.to/lastmile_qr_scan"}}, {"name": "8019bd0f2b2dda34d6027b94fc7b18ac", "fusion_lat": 0.0, "type": "electric_scooter", "lat": 38.85848716666667, "is_reserved": 0, "is_disabled": 0, "fusion_lon": 0.0, "bike_id": "8019bd0f2b2dda34d6027b94fc7b18ac", "lon": -76.95882033333334, "rental_uris": {"ios": "https://dc.lft.to/lastmile_qr_scan", "android": "https://dc.lft.to/lastmile_qr_scan"}}, {"name": "867a587279e46dbd30f0c70fc54ebd4d", "fusion_lat": 0.0, "type": "electric_scooter", "lat": 38.8857895, "is_reserved": 0, "is_disabled": 0, "fusion_lon": 0.0, "bike_id": "867a587279e46dbd30f0c70fc54ebd4d", "lon": -76.99617083333334, "rental_uris": {"ios": "https://dc.lft.to/lastmile_qr_scan", "android": "https://dc.lft.to/lastmile_qr_scan"}}, {"name": "9594a66ebda402c5d83b8bb42cde2c53", "fusion_lat": 0.0, "type": "electric_scooter", "lat": 38.8945005, "is_reserved": 0, "is_disabled": 0, "fusion_lon": 0.0, "bike_id": "9594a66ebda402c5d83b8bb42cde2c53", "lon": -77.0191965, "rental_uris": {"ios": "https://dc.lft.to/lastmile_qr_scan", "android": "https://dc.lft.to/lastmile_qr_scan"}}, {"name": "3d66fbdf88ae722b19b8a007827ab491", "fusion_lat": 0.0, "type": "electric_bike", "lat": 38.896543, "is_reserved": 0, "is_disabled": 0, "fusion_lon": 0.0, "bike_id": "3d66fbdf88ae722b19b8a007827ab491", "lon": -77.08638733333333, "rental_uris": {"ios": "https://dc.lft.to/lastmile_qr_scan", "android": "https://dc.lft.to/lastmile_qr_scan"}}, {"name": "6b24b328510d3c03ce21a908be7fff1a", "fusion_lat": 0.0, "type": "electric_scooter", "lat": 38.93288666666667, "is_reserved": 0, "is_disabled": 0, "fusion_lon": 0.0, "bike_id": "6b24b328510d3c03ce21a908be7fff1a", "lon": -77.0398355, "rental_uris": {"ios": "https://dc.lft.to/lastmile_qr_scan", "android": "https://dc.lft.to/lastmile_qr_scan"}}, {"name": "e9b65f04a15c6a92700d4d3d35b90b90", "fusion_lat": 0.0, "type": "electric_scooter", "lat": 38.8868925, "is_reserved": 0, "is_disabled": 0, "fusion_lon": 0.0, "bike_id": "e9b65f04a15c6a92700d4d3d35b90b90", "lon": -76.95759933333333, "rental_uris": {"ios": "https://dc.lft.to/lastmile_qr_scan", "android": "https://dc.lft.to/lastmile_qr_scan"}}, {"name": "1bfc00d87bc80e4abfb111795f00cc6b", "fusion_lat": 0.0, "type": "electric_bike", "lat": 38.838251, "is_reserved": 0, "is_disabled": 0, "fusion_lon": 0.0, "bike_id": "1bfc00d87bc80e4abfb111795f00cc6b", "lon": -76.99680183333334, "rental_uris": {"ios": "https://dc.lft.to/lastmile_qr_scan", "android": "https://dc.lft.to/lastmile_qr_scan"}}, {"name": "322eb278085a1f2432f2bcb1ca55e2b7", "fusion_lat": 0.0, "type": "electric_bike", "lat": 39.038849, "is_reserved": 0, "is_disabled": 0, "fusion_lon": 0.0, "bike_id": "322eb278085a1f2432f2bcb1ca55e2b7", "lon": -76.99041983333333, "rental_uris": {"ios": "https://dc.lft.to/lastmile_qr_scan", "android": "https://dc.lft.to/lastmile_qr_scan"}}, {"name": "90470420a5df8be502591457d8742324", "fusion_lat": 0.0, "type": "electric_scooter", "lat": 38.93913583333333, "is_reserved": 0, "is_disabled": 0, "fusion_lon": 0.0, "bike_id": "90470420a5df8be502591457d8742324", "lon": -77.06047133333334, "rental_uris": {"ios": "https://dc.lft.to/lastmile_qr_scan", "android": "https://dc.lft.to/lastmile_qr_scan"}}, {"name": "b2c3dc16329e3437dd87cae471ba57ce", "fusion_lat": 0.0, "type": "electric_scooter", "lat": 38.905718666666665, "is_reserved": 0, "is_disabled": 0, "fusion_lon": 0.0, "bike_id": "b2c3dc16329e3437dd87cae471ba57ce", "lon": -77.02986783333333, "rental_uris": {"ios": "https://dc.lft.to/lastmile_qr_scan", "android": "https://dc.lft.to/lastmile_qr_scan"}}, {"name": "ec41c54aa8340932c19a424d3d86cde8", "fusion_lat": 0.0, "type": "electric_scooter", "lat": 38.905751, "is_reserved": 0, "is_disabled": 0, "fusion_lon": 0.0, "bike_id": "ec41c54aa8340932c19a424d3d86cde8", "lon": -77.029823, "rental_uris": {"ios": "https://dc.lft.to/lastmile_qr_scan", "android": "https://dc.lft.to/lastmile_qr_scan"}}, {"name": "9fa549ba4d1273d827547c85b79bd968", "fusion_lat": 0.0, "type": "electric_bike", "lat": 38.934901333333336, "is_reserved": 0, "is_disabled": 0, "fusion_lon": 0.0, "bike_id": "9fa549ba4d1273d827547c85b79bd968", "lon": -77.0301105, "rental_uris": {"ios": "https://dc.lft.to/lastmile_qr_scan", "android": "https://dc.lft.to/lastmile_qr_scan"}}, {"name": "f19ceeaefe4d4a73cdb8b79fb3482068", "fusion_lat": 0.0, "type": "electric_scooter", "lat": 38.920526, "is_reserved": 0, "is_disabled": 0, "fusion_lon": 0.0, "bike_id": "f19ceeaefe4d4a73cdb8b79fb3482068", "lon": -77.0344345, "rental_uris": {"ios": "https://dc.lft.to/lastmile_qr_scan", "android": "https://dc.lft.to/lastmile_qr_scan"}}, {"name": "1c3d4586b287d008770ebd1498cfd0bd", "fusion_lat": 0.0, "type": "electric_scooter", "lat": 38.900668, "is_reserved": 0, "is_disabled": 0, "fusion_lon": 0.0, "bike_id": "1c3d4586b287d008770ebd1498cfd0bd", "lon": -77.04508216666666, "rental_uris": {"ios": "https://dc.lft.to/lastmile_qr_scan", "android": "https://dc.lft.to/lastmile_qr_scan"}}, {"name": "4d208f347d3647842894dd89daab8a83", "fusion_lat": 0.0, "type": "electric_scooter", "lat": 38.9187415, "is_reserved": 0, "is_disabled": 0, "fusion_lon": 0.0, "bike_id": "4d208f347d3647842894dd89daab8a83", "lon": -77.0413865, "rental_uris": {"ios": "https://dc.lft.to/lastmile_qr_scan", "android": "https://dc.lft.to/lastmile_qr_scan"}}, {"name": "034cfb36a8e1d6bd668f6de75a66dad8", "fusion_lat": 0.0, "type": "electric_scooter", "lat": 38.904611, "is_reserved": 0, "is_disabled": 0, "fusion_lon": 0.0, "bike_id": "034cfb36a8e1d6bd668f6de75a66dad8", "lon": -77.0482285, "rental_uris": {"ios": "https://dc.lft.to/lastmile_qr_scan", "android": "https://dc.lft.to/lastmile_qr_scan"}}, {"name": "c00a480a68e9371cb93cb72d68d3d189", "fusion_lat": 0.0, "type": "electric_scooter", "lat": 38.885079, "is_reserved": 0, "is_disabled": 0, "fusion_lon": 0.0, "bike_id": "c00a480a68e9371cb93cb72d68d3d189", "lon": -77.03063316666666, "rental_uris": {"ios": "https://dc.lft.to/lastmile_qr_scan", "android": "https://dc.lft.to/lastmile_qr_scan"}}, {"name": "4cc53ce10cd3411a8eff91cf579f642e", "fusion_lat": 0.0, "type": "electric_scooter", "lat": 38.914107333333334, "is_reserved": 0, "is_disabled": 0, "fusion_lon": 0.0, "bike_id": "4cc53ce10cd3411a8eff91cf579f642e", "lon": -77.0264865, "rental_uris": {"ios": "https://dc.lft.to/lastmile_qr_scan", "android": "https://dc.lft.to/lastmile_qr_scan"}}, {"name": "6960d4eabf7da4a004349a7c98911b82", "fusion_lat": 0.0, "type": "electric_scooter", "lat": 38.8840595, "is_reserved": 0, "is_disabled": 0, "fusion_lon": 0.0, "bike_id": "6960d4eabf7da4a004349a7c98911b82", "lon": -76.98587283333333, "rental_uris": {"ios": "https://dc.lft.to/lastmile_qr_scan", "android": "https://dc.lft.to/lastmile_qr_scan"}}, {"name": "ee3a7ec34337fce40af997794b1178a7", "fusion_lat": 0.0, "type": "electric_scooter", "lat": 38.864154, "is_reserved": 0, "is_disabled": 0, "fusion_lon": 0.0, "bike_id": "ee3a7ec34337fce40af997794b1178a7", "lon": -76.980525, "rental_uris": {"ios": "https://dc.lft.to/lastmile_qr_scan", "android": "https://dc.lft.to/lastmile_qr_scan"}}, {"name": "6e798fa86648e0f6ed0c93e940ececb4", "fusion_lat": 0.0, "type": "electric_scooter", "lat": 38.92487416666667, "is_reserved": 0, "is_disabled": 0, "fusion_lon": 0.0, "bike_id": "6e798fa86648e0f6ed0c93e940ececb4", "lon": -77.0348895, "rental_uris": {"ios": "https://dc.lft.to/lastmile_qr_scan", "android": "https://dc.lft.to/lastmile_qr_scan"}}, {"name": "f5f6fda9e945192f5702d8bf10caa570", "fusion_lat": 0.0, "type": "electric_scooter", "lat": 38.855301, "is_reserved": 0, "is_disabled": 0, "fusion_lon": 0.0, "bike_id": "f5f6fda9e945192f5702d8bf10caa570", "lon": -76.96917383333333, "rental_uris": {"ios": "https://dc.lft.to/lastmile_qr_scan", "android": "https://dc.lft.to/lastmile_qr_scan"}}, {"name": "5ae9e61774a9f8f8a71b41ba0ef7a27b", "fusion_lat": 0.0, "type": "electric_scooter", "lat": 38.9238855, "is_reserved": 0, "is_disabled": 0, "fusion_lon": 0.0, "bike_id": "5ae9e61774a9f8f8a71b41ba0ef7a27b", "lon": -77.029764, "rental_uris": {"ios": "https://dc.lft.to/lastmile_qr_scan", "android": "https://dc.lft.to/lastmile_qr_scan"}}, {"name": "c778e6f5c2b76856f200d639ac10013f", "fusion_lat": 0.0, "type": "electric_scooter", "lat": 38.95264816666667, "is_reserved": 0, "is_disabled": 0, "fusion_lon": 0.0, "bike_id": "c778e6f5c2b76856f200d639ac10013f", "lon": -77.02565633333333, "rental_uris": {"ios": "https://dc.lft.to/lastmile_qr_scan", "android": "https://dc.lft.to/lastmile_qr_scan"}}, {"name": "7cca70cb9365d681bd054f1a975fb5b2", "fusion_lat": 0.0, "type": "electric_scooter", "lat": 38.92606033333333, "is_reserved": 0, "is_disabled": 0, "fusion_lon": 0.0, "bike_id": "7cca70cb9365d681bd054f1a975fb5b2", "lon": -77.02152216666667, "rental_uris": {"ios": "https://dc.lft.to/lastmile_qr_scan", "android": "https://dc.lft.to/lastmile_qr_scan"}}, {"name": "1b3cc606685af77de4ca593a6d08a04b", "fusion_lat": 0.0, "type": "electric_bike", "lat": 38.94503566666667, "is_reserved": 0, "is_disabled": 0, "fusion_lon": 0.0, "bike_id": "1b3cc606685af77de4ca593a6d08a04b", "lon": -77.00664466666667, "rental_uris": {"ios": "https://dc.lft.to/lastmile_qr_scan", "android": "https://dc.lft.to/lastmile_qr_scan"}}, {"name": "86234bfaf333ac1c7d702f7c4d3e6c2c", "fusion_lat": 0.0, "type": "electric_bike", "lat": 38.89638083333333, "is_reserved": 0, "is_disabled": 0, "fusion_lon": 0.0, "bike_id": "86234bfaf333ac1c7d702f7c4d3e6c2c", "lon": -77.104571, "rental_uris": {"ios": "https://dc.lft.to/lastmile_qr_scan", "android": "https://dc.lft.to/lastmile_qr_scan"}}, {"name": "f81797fb46766017a55c083127021c89", "fusion_lat": 0.0, "type": "electric_scooter", "lat": 38.894058, "is_reserved": 0, "is_disabled": 0, "fusion_lon": 0.0, "bike_id": "f81797fb46766017a55c083127021c89", "lon": -76.94815783333334, "rental_uris": {"ios": "https://dc.lft.to/lastmile_qr_scan", "android": "https://dc.lft.to/lastmile_qr_scan"}}, {"name": "a9cc3a5658ed607ad80ed8af19027737", "fusion_lat": 0.0, "type": "electric_scooter", "lat": 38.9230305, "is_reserved": 0, "is_disabled": 0, "fusion_lon": 0.0, "bike_id": "a9cc3a5658ed607ad80ed8af19027737", "lon": -77.03518566666666, "rental_uris": {"ios": "https://dc.lft.to/lastmile_qr_scan", "android": "https://dc.lft.to/lastmile_qr_scan"}}, {"name": "ceeba9eb9deed0c91e6a3ccfe49d5e38", "fusion_lat": 0.0, "type": "electric_scooter", "lat": 38.87268366666667, "is_reserved": 0, "is_disabled": 0, "fusion_lon": 0.0, "bike_id": "ceeba9eb9deed0c91e6a3ccfe49d5e38", "lon": -77.01534933333333, "rental_uris": {"ios": "https://dc.lft.to/lastmile_qr_scan", "android": "https://dc.lft.to/lastmile_qr_scan"}}, {"name": "f1259a5cb7a6b2a8a780b1eb25692be8", "fusion_lat": 0.0, "type": "electric_scooter", "lat": 38.89773066666667, "is_reserved": 0, "is_disabled": 0, "fusion_lon": 0.0, "bike_id": "f1259a5cb7a6b2a8a780b1eb25692be8", "lon": -77.02672983333333, "rental_uris": {"ios": "https://dc.lft.to/lastmile_qr_scan", "android": "https://dc.lft.to/lastmile_qr_scan"}}, {"name": "3d2684d3bcd16b40e8387f93fb602e9c", "fusion_lat": 0.0, "type": "electric_scooter", "lat": 38.90142816666667, "is_reserved": 0, "is_disabled": 0, "fusion_lon": 0.0, "bike_id": "3d2684d3bcd16b40e8387f93fb602e9c", "lon": -77.00072566666667, "rental_uris": {"ios": "https://dc.lft.to/lastmile_qr_scan", "android": "https://dc.lft.to/lastmile_qr_scan"}}, {"name": "f02806d3c145e35b3a500edd923c0008", "fusion_lat": 0.0, "type": "electric_scooter", "lat": 38.912256, "is_reserved": 0, "is_disabled": 0, "fusion_lon": 0.0, "bike_id": "f02806d3c145e35b3a500edd923c0008", "lon": -77.02957833333333, "rental_uris": {"ios": "https://dc.lft.to/lastmile_qr_scan", "android": "https://dc.lft.to/lastmile_qr_scan"}}, {"name": "460e1d5021d5223080aba34e3c06ad65", "fusion_lat": 0.0, "type": "electric_bike", "lat": 38.923465666666665, "is_reserved": 0, "is_disabled": 0, "fusion_lon": 0.0, "bike_id": "460e1d5021d5223080aba34e3c06ad65", "lon": -76.99246483333333, "rental_uris": {"ios": "https://dc.lft.to/lastmile_qr_scan", "android": "https://dc.lft.to/lastmile_qr_scan"}}, {"name": "e49e6383fccfa01a697d84c21f4bf7c7", "fusion_lat": 0.0, "type": "electric_scooter", "lat": 38.93821766666667, "is_reserved": 0, "is_disabled": 0, "fusion_lon": 0.0, "bike_id": "e49e6383fccfa01a697d84c21f4bf7c7", "lon": -77.026382, "rental_uris": {"ios": "https://dc.lft.to/lastmile_qr_scan", "android": "https://dc.lft.to/lastmile_qr_scan"}}, {"name": "ed436689625358f13f3ef14cc19ef46e", "fusion_lat": 0.0, "type": "electric_scooter", "lat": 38.8985545, "is_reserved": 0, "is_disabled": 0, "fusion_lon": 0.0, "bike_id": "ed436689625358f13f3ef14cc19ef46e", "lon": -77.040818, "rental_uris": {"ios": "https://dc.lft.to/lastmile_qr_scan", "android": "https://dc.lft.to/lastmile_qr_scan"}}, {"name": "9bf2ec54ba9b8a89c7f41d66859aea6d", "fusion_lat": 0.0, "type": "electric_scooter", "lat": 38.94182416666666, "is_reserved": 0, "is_disabled": 0, "fusion_lon": 0.0, "bike_id": "9bf2ec54ba9b8a89c7f41d66859aea6d", "lon": -77.024882, "rental_uris": {"ios": "https://dc.lft.to/lastmile_qr_scan", "android": "https://dc.lft.to/lastmile_qr_scan"}}, {"name": "2b0049eac6b68f4d3afa84942acb0cb1", "fusion_lat": 0.0, "type": "electric_bike", "lat": 38.9518495, "is_reserved": 0, "is_disabled": 0, "fusion_lon": 0.0, "bike_id": "2b0049eac6b68f4d3afa84942acb0cb1", "lon": -76.93547433333333, "rental_uris": {"ios": "https://dc.lft.to/lastmile_qr_scan", "android": "https://dc.lft.to/lastmile_qr_scan"}}, {"name": "5b0b7440b319f15f6ac0ba4683484a32", "fusion_lat": 0.0, "type": "electric_bike", "lat": 38.96762433333333, "is_reserved": 0, "is_disabled": 0, "fusion_lon": 0.0, "bike_id": "5b0b7440b319f15f6ac0ba4683484a32", "lon": -77.09159683333333, "rental_uris": {"ios": "https://dc.lft.to/lastmile_qr_scan", "android": "https://dc.lft.to/lastmile_qr_scan"}}, {"name": "758a41698ae91d12931e71854f8005b0", "fusion_lat": 0.0, "type": "electric_scooter", "lat": 38.9125965, "is_reserved": 0, "is_disabled": 0, "fusion_lon": 0.0, "bike_id": "758a41698ae91d12931e71854f8005b0", "lon": -77.04214316666666, "rental_uris": {"ios": "https://dc.lft.to/lastmile_qr_scan", "android": "https://dc.lft.to/lastmile_qr_scan"}}, {"name": "21a4f81eae4ebd56850c2da8338f97c1", "fusion_lat": 0.0, "type": "electric_scooter", "lat": 38.909564833333334, "is_reserved": 0, "is_disabled": 0, "fusion_lon": 0.0, "bike_id": "21a4f81eae4ebd56850c2da8338f97c1", "lon": -77.04736333333334, "rental_uris": {"ios": "https://dc.lft.to/lastmile_qr_scan", "android": "https://dc.lft.to/lastmile_qr_scan"}}, {"name": "0ed0f3a6dcffa3c302ba7f9107acf65a", "fusion_lat": 0.0, "type": "electric_scooter", "lat": 38.8833645, "is_reserved": 0, "is_disabled": 0, "fusion_lon": 0.0, "bike_id": "0ed0f3a6dcffa3c302ba7f9107acf65a", "lon": -77.02320566666667, "rental_uris": {"ios": "https://dc.lft.to/lastmile_qr_scan", "android": "https://dc.lft.to/lastmile_qr_scan"}}, {"name": "fccdd61665674341215556bcc61d6735", "fusion_lat": 0.0, "type": "electric_scooter", "lat": 38.902357333333335, "is_reserved": 0, "is_disabled": 0, "fusion_lon": 0.0, "bike_id": "fccdd61665674341215556bcc61d6735", "lon": -76.97410316666667, "rental_uris": {"ios": "https://dc.lft.to/lastmile_qr_scan", "android": "https://dc.lft.to/lastmile_qr_scan"}}, {"name": "50880f5af1a98112304a2eed3676760d", "fusion_lat": 0.0, "type": "electric_scooter", "lat": 38.923519666666664, "is_reserved": 0, "is_disabled": 0, "fusion_lon": 0.0, "bike_id": "50880f5af1a98112304a2eed3676760d", "lon": -77.0336865, "rental_uris": {"ios": "https://dc.lft.to/lastmile_qr_scan", "android": "https://dc.lft.to/lastmile_qr_scan"}}, {"name": "ed453599767b508abe4fd6c3237154e3", "fusion_lat": 0.0, "type": "electric_scooter", "lat": 38.921796666666665, "is_reserved": 0, "is_disabled": 0, "fusion_lon": 0.0, "bike_id": "ed453599767b508abe4fd6c3237154e3", "lon": -77.02663366666667, "rental_uris": {"ios": "https://dc.lft.to/lastmile_qr_scan", "android": "https://dc.lft.to/lastmile_qr_scan"}}, {"name": "263817055cf981b66f44ab7a0165401d", "fusion_lat": 0.0, "type": "electric_scooter", "lat": 38.8924325, "is_reserved": 0, "is_disabled": 0, "fusion_lon": 0.0, "bike_id": "263817055cf981b66f44ab7a0165401d", "lon": -77.01786916666667, "rental_uris": {"ios": "https://dc.lft.to/lastmile_qr_scan", "android": "https://dc.lft.to/lastmile_qr_scan"}}, {"name": "08f407a3e1e7b002857aca65afc23729", "fusion_lat": 0.0, "type": "electric_scooter", "lat": 38.9347725, "is_reserved": 0, "is_disabled": 0, "fusion_lon": 0.0, "bike_id": "08f407a3e1e7b002857aca65afc23729", "lon": -77.0338835, "rental_uris": {"ios": "https://dc.lft.to/lastmile_qr_scan", "android": "https://dc.lft.to/lastmile_qr_scan"}}, {"name": "843f2617311a3c65ce2943b5f01aff65", "fusion_lat": 0.0, "type": "electric_scooter", "lat": 38.926006666666666, "is_reserved": 0, "is_disabled": 0, "fusion_lon": 0.0, "bike_id": "843f2617311a3c65ce2943b5f01aff65", "lon": -77.02155633333334, "rental_uris": {"ios": "https://dc.lft.to/lastmile_qr_scan", "android": "https://dc.lft.to/lastmile_qr_scan"}}, {"name": "b54ff53ebb4731b52142e38fd5f69096", "fusion_lat": 0.0, "type": "electric_bike", "lat": 38.86161933333333, "is_reserved": 0, "is_disabled": 0, "fusion_lon": 0.0, "bike_id": "b54ff53ebb4731b52142e38fd5f69096", "lon": -77.13092216666666, "rental_uris": {"ios": "https://dc.lft.to/lastmile_qr_scan", "android": "https://dc.lft.to/lastmile_qr_scan"}}, {"name": "f97891bbf7a11864e1c306b418626ee6", "fusion_lat": 0.0, "type": "electric_scooter", "lat": 38.905802333333334, "is_reserved": 0, "is_disabled": 0, "fusion_lon": 0.0, "bike_id": "f97891bbf7a11864e1c306b418626ee6", "lon": -77.03667133333333, "rental_uris": {"ios": "https://dc.lft.to/lastmile_qr_scan", "android": "https://dc.lft.to/lastmile_qr_scan"}}, {"name": "8e325237f6e81221d75b10e7e0b69f40", "fusion_lat": 0.0, "type": "electric_scooter", "lat": 38.914052833333336, "is_reserved": 0, "is_disabled": 0, "fusion_lon": 0.0, "bike_id": "8e325237f6e81221d75b10e7e0b69f40", "lon": -77.00809283333334, "rental_uris": {"ios": "https://dc.lft.to/lastmile_qr_scan", "android": "https://dc.lft.to/lastmile_qr_scan"}}, {"name": "58ae0fea7f70b65293f85eaa882bf058", "fusion_lat": 0.0, "type": "electric_scooter", "lat": 38.922328666666665, "is_reserved": 0, "is_disabled": 0, "fusion_lon": 0.0, "bike_id": "58ae0fea7f70b65293f85eaa882bf058", "lon": -77.04247733333334, "rental_uris": {"ios": "https://dc.lft.to/lastmile_qr_scan", "android": "https://dc.lft.to/lastmile_qr_scan"}}, {"name": "9a0e87872dd7376a9bc31c03385b420f", "fusion_lat": 0.0, "type": "electric_scooter", "lat": 38.95869416666667, "is_reserved": 0, "is_disabled": 0, "fusion_lon": 0.0, "bike_id": "9a0e87872dd7376a9bc31c03385b420f", "lon": -77.02050666666666, "rental_uris": {"ios": "https://dc.lft.to/lastmile_qr_scan", "android": "https://dc.lft.to/lastmile_qr_scan"}}, {"name": "f2b5cd59062e8d196e4fd3c75d5a4494", "fusion_lat": 0.0, "type": "electric_scooter", "lat": 38.842954166666665, "is_reserved": 0, "is_disabled": 0, "fusion_lon": 0.0, "bike_id": "f2b5cd59062e8d196e4fd3c75d5a4494", "lon": -76.999435, "rental_uris": {"ios": "https://dc.lft.to/lastmile_qr_scan", "android": "https://dc.lft.to/lastmile_qr_scan"}}, {"name": "6bbfcef8d23fa0572a3de0e8a3aef90b", "fusion_lat": 0.0, "type": "electric_scooter", "lat": 38.929005333333336, "is_reserved": 0, "is_disabled": 0, "fusion_lon": 0.0, "bike_id": "6bbfcef8d23fa0572a3de0e8a3aef90b", "lon": -77.0261655, "rental_uris": {"ios": "https://dc.lft.to/lastmile_qr_scan", "android": "https://dc.lft.to/lastmile_qr_scan"}}, {"name": "06ca983ac3cf3a524a0c7b08acdf196f", "fusion_lat": 0.0, "type": "electric_scooter", "lat": 38.909520666666666, "is_reserved": 0, "is_disabled": 0, "fusion_lon": 0.0, "bike_id": "06ca983ac3cf3a524a0c7b08acdf196f", "lon": -77.04128183333333, "rental_uris": {"ios": "https://dc.lft.to/lastmile_qr_scan", "android": "https://dc.lft.to/lastmile_qr_scan"}}, {"name": "367eb8ae3fbc54b1f418a5e491f39fb2", "fusion_lat": 0.0, "type": "electric_scooter", "lat": 38.95403916666667, "is_reserved": 0, "is_disabled": 0, "fusion_lon": 0.0, "bike_id": "367eb8ae3fbc54b1f418a5e491f39fb2", "lon": -77.02746783333333, "rental_uris": {"ios": "https://dc.lft.to/lastmile_qr_scan", "android": "https://dc.lft.to/lastmile_qr_scan"}}, {"name": "d5fa78b51f5b9d28afcae130160f5c07", "fusion_lat": 0.0, "type": "electric_bike", "lat": 38.852471333333334, "is_reserved": 0, "is_disabled": 0, "fusion_lon": 0.0, "bike_id": "d5fa78b51f5b9d28afcae130160f5c07", "lon": -77.11425733333333, "rental_uris": {"ios": "https://dc.lft.to/lastmile_qr_scan", "android": "https://dc.lft.to/lastmile_qr_scan"}}, {"name": "7914d1b361c813b4762b7c819b5262ff", "fusion_lat": 0.0, "type": "electric_scooter", "lat": 38.90272383333333, "is_reserved": 0, "is_disabled": 0, "fusion_lon": 0.0, "bike_id": "7914d1b361c813b4762b7c819b5262ff", "lon": -77.03836166666666, "rental_uris": {"ios": "https://dc.lft.to/lastmile_qr_scan", "android": "https://dc.lft.to/lastmile_qr_scan"}}, {"name": "c33b021ae23b3aa92f23ebf450b73061", "fusion_lat": 0.0, "type": "electric_scooter", "lat": 38.92713766666667, "is_reserved": 0, "is_disabled": 0, "fusion_lon": 0.0, "bike_id": "c33b021ae23b3aa92f23ebf450b73061", "lon": -77.03729466666667, "rental_uris": {"ios": "https://dc.lft.to/lastmile_qr_scan", "android": "https://dc.lft.to/lastmile_qr_scan"}}, {"name": "c5386adf5ee8f6bc1bcbb33359714097", "fusion_lat": 0.0, "type": "electric_scooter", "lat": 38.9140775, "is_reserved": 0, "is_disabled": 0, "fusion_lon": 0.0, "bike_id": "c5386adf5ee8f6bc1bcbb33359714097", "lon": -77.02725583333333, "rental_uris": {"ios": "https://dc.lft.to/lastmile_qr_scan", "android": "https://dc.lft.to/lastmile_qr_scan"}}, {"name": "6038eb26c3c5b772d3c8eb31ac8ea6a0", "fusion_lat": 0.0, "type": "electric_scooter", "lat": 38.93473566666667, "is_reserved": 0, "is_disabled": 0, "fusion_lon": 0.0, "bike_id": "6038eb26c3c5b772d3c8eb31ac8ea6a0", "lon": -77.02847166666666, "rental_uris": {"ios": "https://dc.lft.to/lastmile_qr_scan", "android": "https://dc.lft.to/lastmile_qr_scan"}}, {"name": "ed742ac116bb12084007bf366c70eca1", "fusion_lat": 0.0, "type": "electric_scooter", "lat": 38.91800683333334, "is_reserved": 0, "is_disabled": 0, "fusion_lon": 0.0, "bike_id": "ed742ac116bb12084007bf366c70eca1", "lon": -77.04011166666666, "rental_uris": {"ios": "https://dc.lft.to/lastmile_qr_scan", "android": "https://dc.lft.to/lastmile_qr_scan"}}, {"name": "ac8aab3b1a6e99513b91f141fb8d5a5e", "fusion_lat": 0.0, "type": "electric_scooter", "lat": 38.9073805, "is_reserved": 0, "is_disabled": 0, "fusion_lon": 0.0, "bike_id": "ac8aab3b1a6e99513b91f141fb8d5a5e", "lon": -77.04501483333334, "rental_uris": {"ios": "https://dc.lft.to/lastmile_qr_scan", "android": "https://dc.lft.to/lastmile_qr_scan"}}, {"name": "b61ce8c319975d3559adb88167d8de14", "fusion_lat": 0.0, "type": "electric_scooter", "lat": 38.91578466666667, "is_reserved": 0, "is_disabled": 0, "fusion_lon": 0.0, "bike_id": "b61ce8c319975d3559adb88167d8de14", "lon": -77.03197283333333, "rental_uris": {"ios": "https://dc.lft.to/lastmile_qr_scan", "android": "https://dc.lft.to/lastmile_qr_scan"}}, {"name": "acb6b3eeb6b5962c3d0041cb2b971f29", "fusion_lat": 0.0, "type": "electric_scooter", "lat": 38.90311233333333, "is_reserved": 0, "is_disabled": 0, "fusion_lon": 0.0, "bike_id": "acb6b3eeb6b5962c3d0041cb2b971f29", "lon": -77.0347345, "rental_uris": {"ios": "https://dc.lft.to/lastmile_qr_scan", "android": "https://dc.lft.to/lastmile_qr_scan"}}, {"name": "44cd1c00d4e6df5aaa80cb7191f18950", "fusion_lat": 0.0, "type": "electric_bike", "lat": 38.9200875, "is_reserved": 0, "is_disabled": 0, "fusion_lon": 0.0, "bike_id": "44cd1c00d4e6df5aaa80cb7191f18950", "lon": -76.97494433333334, "rental_uris": {"ios": "https://dc.lft.to/lastmile_qr_scan", "android": "https://dc.lft.to/lastmile_qr_scan"}}, {"name": "2cfff057faecfc6de074b37c05b9b800", "fusion_lat": 0.0, "type": "electric_scooter", "lat": 38.91273233333333, "is_reserved": 0, "is_disabled": 0, "fusion_lon": 0.0, "bike_id": "2cfff057faecfc6de074b37c05b9b800", "lon": -77.06089416666667, "rental_uris": {"ios": "https://dc.lft.to/lastmile_qr_scan", "android": "https://dc.lft.to/lastmile_qr_scan"}}, {"name": "fabf848f7e9267d42bc2a1c216ccee84", "fusion_lat": 0.0, "type": "electric_scooter", "lat": 38.918046333333336, "is_reserved": 0, "is_disabled": 0, "fusion_lon": 0.0, "bike_id": "fabf848f7e9267d42bc2a1c216ccee84", "lon": -77.01023, "rental_uris": {"ios": "https://dc.lft.to/lastmile_qr_scan", "android": "https://dc.lft.to/lastmile_qr_scan"}}, {"name": "f71e9b88407a10485af150ff1e4992e5", "fusion_lat": 0.0, "type": "electric_scooter", "lat": 38.91216166666667, "is_reserved": 0, "is_disabled": 0, "fusion_lon": 0.0, "bike_id": "f71e9b88407a10485af150ff1e4992e5", "lon": -77.07593533333333, "rental_uris": {"ios": "https://dc.lft.to/lastmile_qr_scan", "android": "https://dc.lft.to/lastmile_qr_scan"}}, {"name": "90f0e75811561a46aec230b7478d5524", "fusion_lat": 0.0, "type": "electric_scooter", "lat": 38.88069, "is_reserved": 0, "is_disabled": 0, "fusion_lon": 0.0, "bike_id": "90f0e75811561a46aec230b7478d5524", "lon": -76.93530533333333, "rental_uris": {"ios": "https://dc.lft.to/lastmile_qr_scan", "android": "https://dc.lft.to/lastmile_qr_scan"}}, {"name": "47754d73e30a4447367a883dd6ece434", "fusion_lat": 0.0, "type": "electric_scooter", "lat": 38.84294766666667, "is_reserved": 0, "is_disabled": 0, "fusion_lon": 0.0, "bike_id": "47754d73e30a4447367a883dd6ece434", "lon": -76.99941833333334, "rental_uris": {"ios": "https://dc.lft.to/lastmile_qr_scan", "android": "https://dc.lft.to/lastmile_qr_scan"}}, {"name": "e698a701c44ce7cc2cb54c7f418c6a64", "fusion_lat": 0.0, "type": "electric_scooter", "lat": 38.91824483333333, "is_reserved": 0, "is_disabled": 0, "fusion_lon": 0.0, "bike_id": "e698a701c44ce7cc2cb54c7f418c6a64", "lon": -77.01208016666666, "rental_uris": {"ios": "https://dc.lft.to/lastmile_qr_scan", "android": "https://dc.lft.to/lastmile_qr_scan"}}, {"name": "f0a618530fd9424b5746c893d9b499a8", "fusion_lat": 0.0, "type": "electric_scooter", "lat": 38.884890666666664, "is_reserved": 0, "is_disabled": 0, "fusion_lon": 0.0, "bike_id": "f0a618530fd9424b5746c893d9b499a8", "lon": -77.02197283333334, "rental_uris": {"ios": "https://dc.lft.to/lastmile_qr_scan", "android": "https://dc.lft.to/lastmile_qr_scan"}}, {"name": "ad7cfb9a3ad625f032e5429e1b6349af", "fusion_lat": 0.0, "type": "electric_scooter", "lat": 38.9182055, "is_reserved": 0, "is_disabled": 0, "fusion_lon": 0.0, "bike_id": "ad7cfb9a3ad625f032e5429e1b6349af", "lon": -77.00258316666667, "rental_uris": {"ios": "https://dc.lft.to/lastmile_qr_scan", "android": "https://dc.lft.to/lastmile_qr_scan"}}, {"name": "bedbfe7a7dba1d39eb043de119d5379f", "fusion_lat": 0.0, "type": "electric_scooter", "lat": 38.9044665, "is_reserved": 0, "is_disabled": 0, "fusion_lon": 0.0, "bike_id": "bedbfe7a7dba1d39eb043de119d5379f", "lon": -76.99624483333334, "rental_uris": {"ios": "https://dc.lft.to/lastmile_qr_scan", "android": "https://dc.lft.to/lastmile_qr_scan"}}, {"name": "df794265ba77fc580f0d05336a59e178", "fusion_lat": 0.0, "type": "electric_scooter", "lat": 38.89588616666666, "is_reserved": 0, "is_disabled": 0, "fusion_lon": 0.0, "bike_id": "df794265ba77fc580f0d05336a59e178", "lon": -76.9371575, "rental_uris": {"ios": "https://dc.lft.to/lastmile_qr_scan", "android": "https://dc.lft.to/lastmile_qr_scan"}}, {"name": "b179ad1644bb7603acbaa0ae63f229d5", "fusion_lat": 0.0, "type": "electric_scooter", "lat": 38.877550166666666, "is_reserved": 0, "is_disabled": 0, "fusion_lon": 0.0, "bike_id": "b179ad1644bb7603acbaa0ae63f229d5", "lon": -76.9942475, "rental_uris": {"ios": "https://dc.lft.to/lastmile_qr_scan", "android": "https://dc.lft.to/lastmile_qr_scan"}}, {"name": "227b81337abd25ad3bee7fe731e4c091", "fusion_lat": 0.0, "type": "electric_scooter", "lat": 38.909647166666666, "is_reserved": 0, "is_disabled": 0, "fusion_lon": 0.0, "bike_id": "227b81337abd25ad3bee7fe731e4c091", "lon": -77.04549583333333, "rental_uris": {"ios": "https://dc.lft.to/lastmile_qr_scan", "android": "https://dc.lft.to/lastmile_qr_scan"}}, {"name": "a72e2993527dbcce6216bf903cbb63bf", "fusion_lat": 0.0, "type": "electric_scooter", "lat": 38.856176, "is_reserved": 0, "is_disabled": 0, "fusion_lon": 0.0, "bike_id": "a72e2993527dbcce6216bf903cbb63bf", "lon": -76.980168, "rental_uris": {"ios": "https://dc.lft.to/lastmile_qr_scan", "android": "https://dc.lft.to/lastmile_qr_scan"}}, {"name": "ec400c7e8a45cf3972be2b120886f145", "fusion_lat": 0.0, "type": "electric_scooter", "lat": 38.919313, "is_reserved": 0, "is_disabled": 0, "fusion_lon": 0.0, "bike_id": "ec400c7e8a45cf3972be2b120886f145", "lon": -77.0322785, "rental_uris": {"ios": "https://dc.lft.to/lastmile_qr_scan", "android": "https://dc.lft.to/lastmile_qr_scan"}}, {"name": "794656326e9fa1e172e9d551170c9354", "fusion_lat": 0.0, "type": "electric_scooter", "lat": 38.916005166666665, "is_reserved": 0, "is_disabled": 0, "fusion_lon": 0.0, "bike_id": "794656326e9fa1e172e9d551170c9354", "lon": -77.04164066666667, "rental_uris": {"ios": "https://dc.lft.to/lastmile_qr_scan", "android": "https://dc.lft.to/lastmile_qr_scan"}}, {"name": "62c02e27df8bcb86dd8d564c6dabd935", "fusion_lat": 0.0, "type": "electric_scooter", "lat": 38.900457333333335, "is_reserved": 0, "is_disabled": 0, "fusion_lon": 0.0, "bike_id": "62c02e27df8bcb86dd8d564c6dabd935", "lon": -77.00068466666667, "rental_uris": {"ios": "https://dc.lft.to/lastmile_qr_scan", "android": "https://dc.lft.to/lastmile_qr_scan"}}, {"name": "0e13cfc143e7653c7039dd3916c99efd", "fusion_lat": 0.0, "type": "electric_scooter", "lat": 38.91113683333333, "is_reserved": 0, "is_disabled": 0, "fusion_lon": 0.0, "bike_id": "0e13cfc143e7653c7039dd3916c99efd", "lon": -77.03729833333334, "rental_uris": {"ios": "https://dc.lft.to/lastmile_qr_scan", "android": "https://dc.lft.to/lastmile_qr_scan"}}, {"name": "148f668a1c68a5735577623f6403a9a0", "fusion_lat": 0.0, "type": "electric_scooter", "lat": 38.88357766666667, "is_reserved": 0, "is_disabled": 0, "fusion_lon": 0.0, "bike_id": "148f668a1c68a5735577623f6403a9a0", "lon": -76.99610916666667, "rental_uris": {"ios": "https://dc.lft.to/lastmile_qr_scan", "android": "https://dc.lft.to/lastmile_qr_scan"}}, {"name": "92ba2d62da2ba7753795bd1252e02b30", "fusion_lat": 0.0, "type": "electric_scooter", "lat": 38.936090166666666, "is_reserved": 0, "is_disabled": 0, "fusion_lon": 0.0, "bike_id": "92ba2d62da2ba7753795bd1252e02b30", "lon": -77.05866216666666, "rental_uris": {"ios": "https://dc.lft.to/lastmile_qr_scan", "android": "https://dc.lft.to/lastmile_qr_scan"}}, {"name": "67804b70d6dd503b6018dfde3ea68eca", "fusion_lat": 0.0, "type": "electric_scooter", "lat": 38.923264333333336, "is_reserved": 0, "is_disabled": 0, "fusion_lon": 0.0, "bike_id": "67804b70d6dd503b6018dfde3ea68eca", "lon": -77.04185983333333, "rental_uris": {"ios": "https://dc.lft.to/lastmile_qr_scan", "android": "https://dc.lft.to/lastmile_qr_scan"}}, {"name": "9a055f31a7ef3cf0d016528c4f42533e", "fusion_lat": 0.0, "type": "electric_scooter", "lat": 38.92575866666667, "is_reserved": 0, "is_disabled": 0, "fusion_lon": 0.0, "bike_id": "9a055f31a7ef3cf0d016528c4f42533e", "lon": -77.0437155, "rental_uris": {"ios": "https://dc.lft.to/lastmile_qr_scan", "android": "https://dc.lft.to/lastmile_qr_scan"}}, {"name": "68f1d8d17043b5b098648787a3d6d9e7", "fusion_lat": 0.0, "type": "electric_scooter", "lat": 38.90950766666667, "is_reserved": 0, "is_disabled": 0, "fusion_lon": 0.0, "bike_id": "68f1d8d17043b5b098648787a3d6d9e7", "lon": -77.04927033333334, "rental_uris": {"ios": "https://dc.lft.to/lastmile_qr_scan", "android": "https://dc.lft.to/lastmile_qr_scan"}}, {"name": "e6ea8e1f36243f58fcc904f97d9eeb00", "fusion_lat": 0.0, "type": "electric_scooter", "lat": 38.91772016666667, "is_reserved": 0, "is_disabled": 0, "fusion_lon": 0.0, "bike_id": "e6ea8e1f36243f58fcc904f97d9eeb00", "lon": -77.02302033333333, "rental_uris": {"ios": "https://dc.lft.to/lastmile_qr_scan", "android": "https://dc.lft.to/lastmile_qr_scan"}}, {"name": "b98f5b28d8f6162fd40978b8ac12ec18", "fusion_lat": 0.0, "type": "electric_scooter", "lat": 38.9203975, "is_reserved": 0, "is_disabled": 0, "fusion_lon": 0.0, "bike_id": "b98f5b28d8f6162fd40978b8ac12ec18", "lon": -77.07146883333333, "rental_uris": {"ios": "https://dc.lft.to/lastmile_qr_scan", "android": "https://dc.lft.to/lastmile_qr_scan"}}, {"name": "59e638c37eea5d294e61a17fab2f4dbe", "fusion_lat": 0.0, "type": "electric_scooter", "lat": 38.8874095, "is_reserved": 0, "is_disabled": 0, "fusion_lon": 0.0, "bike_id": "59e638c37eea5d294e61a17fab2f4dbe", "lon": -77.0321715, "rental_uris": {"ios": "https://dc.lft.to/lastmile_qr_scan", "android": "https://dc.lft.to/lastmile_qr_scan"}}, {"name": "36a16a87c25357ad6e539c8c2cee34f6", "fusion_lat": 0.0, "type": "electric_scooter", "lat": 38.929292833333335, "is_reserved": 0, "is_disabled": 0, "fusion_lon": 0.0, "bike_id": "36a16a87c25357ad6e539c8c2cee34f6", "lon": -77.03647966666666, "rental_uris": {"ios": "https://dc.lft.to/lastmile_qr_scan", "android": "https://dc.lft.to/lastmile_qr_scan"}}, {"name": "5617c2ede747a9603ee3ff016cabc132", "fusion_lat": 0.0, "type": "electric_scooter", "lat": 38.901148666666664, "is_reserved": 0, "is_disabled": 0, "fusion_lon": 0.0, "bike_id": "5617c2ede747a9603ee3ff016cabc132", "lon": -77.0421605, "rental_uris": {"ios": "https://dc.lft.to/lastmile_qr_scan", "android": "https://dc.lft.to/lastmile_qr_scan"}}, {"name": "bf73a1dce9e41b4cda8d41908f95503a", "fusion_lat": 0.0, "type": "electric_scooter", "lat": 38.94603133333333, "is_reserved": 0, "is_disabled": 0, "fusion_lon": 0.0, "bike_id": "bf73a1dce9e41b4cda8d41908f95503a", "lon": -77.02981366666667, "rental_uris": {"ios": "https://dc.lft.to/lastmile_qr_scan", "android": "https://dc.lft.to/lastmile_qr_scan"}}, {"name": "3ac896a8182334f89ca09471d4d233aa", "fusion_lat": 0.0, "type": "electric_bike", "lat": 38.96860133333333, "is_reserved": 0, "is_disabled": 0, "fusion_lon": 0.0, "bike_id": "3ac896a8182334f89ca09471d4d233aa", "lon": -77.03340433333334, "rental_uris": {"ios": "https://dc.lft.to/lastmile_qr_scan", "android": "https://dc.lft.to/lastmile_qr_scan"}}, {"name": "063d8c60179f2f52885f50c9ca3f2512", "fusion_lat": 0.0, "type": "electric_scooter", "lat": 38.89579483333333, "is_reserved": 0, "is_disabled": 0, "fusion_lon": 0.0, "bike_id": "063d8c60179f2f52885f50c9ca3f2512", "lon": -76.94892666666667, "rental_uris": {"ios": "https://dc.lft.to/lastmile_qr_scan", "android": "https://dc.lft.to/lastmile_qr_scan"}}, {"name": "34834aa23bb6e3da8d5cb863d396d340", "fusion_lat": 0.0, "type": "electric_scooter", "lat": 38.9007935, "is_reserved": 0, "is_disabled": 0, "fusion_lon": 0.0, "bike_id": "34834aa23bb6e3da8d5cb863d396d340", "lon": -77.04990016666666, "rental_uris": {"ios": "https://dc.lft.to/lastmile_qr_scan", "android": "https://dc.lft.to/lastmile_qr_scan"}}, {"name": "860b5111deaf41ca6c6726d9f76bfa7f", "fusion_lat": 0.0, "type": "electric_bike", "lat": 38.958451333333336, "is_reserved": 0, "is_disabled": 0, "fusion_lon": 0.0, "bike_id": "860b5111deaf41ca6c6726d9f76bfa7f", "lon": -76.99869533333333, "rental_uris": {"ios": "https://dc.lft.to/lastmile_qr_scan", "android": "https://dc.lft.to/lastmile_qr_scan"}}, {"name": "f8dc6f4f61c1eaa24df2014061df8ff3", "fusion_lat": 0.0, "type": "electric_scooter", "lat": 38.90577966666667, "is_reserved": 0, "is_disabled": 0, "fusion_lon": 0.0, "bike_id": "f8dc6f4f61c1eaa24df2014061df8ff3", "lon": -77.03268183333333, "rental_uris": {"ios": "https://dc.lft.to/lastmile_qr_scan", "android": "https://dc.lft.to/lastmile_qr_scan"}}, {"name": "0dfff28273640eee32c85cb02149a6e1", "fusion_lat": 0.0, "type": "electric_scooter", "lat": 38.89925183333333, "is_reserved": 0, "is_disabled": 0, "fusion_lon": 0.0, "bike_id": "0dfff28273640eee32c85cb02149a6e1", "lon": -77.0311085, "rental_uris": {"ios": "https://dc.lft.to/lastmile_qr_scan", "android": "https://dc.lft.to/lastmile_qr_scan"}}, {"name": "79468f999e58ecacc5687801d104a0b3", "fusion_lat": 0.0, "type": "electric_scooter", "lat": 38.927599666666666, "is_reserved": 0, "is_disabled": 0, "fusion_lon": 0.0, "bike_id": "79468f999e58ecacc5687801d104a0b3", "lon": -77.03270516666667, "rental_uris": {"ios": "https://dc.lft.to/lastmile_qr_scan", "android": "https://dc.lft.to/lastmile_qr_scan"}}, {"name": "96bdefa1a078e72b06ef73915e64340a", "fusion_lat": 0.0, "type": "electric_scooter", "lat": 38.91872266666667, "is_reserved": 0, "is_disabled": 0, "fusion_lon": 0.0, "bike_id": "96bdefa1a078e72b06ef73915e64340a", "lon": -77.04352083333333, "rental_uris": {"ios": "https://dc.lft.to/lastmile_qr_scan", "android": "https://dc.lft.to/lastmile_qr_scan"}}, {"name": "2ae6f4aa0424dbbfbe8359c2284d7e67", "fusion_lat": 0.0, "type": "electric_scooter", "lat": 38.91118383333333, "is_reserved": 0, "is_disabled": 0, "fusion_lon": 0.0, "bike_id": "2ae6f4aa0424dbbfbe8359c2284d7e67", "lon": -77.02415716666667, "rental_uris": {"ios": "https://dc.lft.to/lastmile_qr_scan", "android": "https://dc.lft.to/lastmile_qr_scan"}}, {"name": "255de7b34b36f7a2030b15fddbf05403", "fusion_lat": 0.0, "type": "electric_scooter", "lat": 38.92240016666667, "is_reserved": 0, "is_disabled": 0, "fusion_lon": 0.0, "bike_id": "255de7b34b36f7a2030b15fddbf05403", "lon": -77.0366115, "rental_uris": {"ios": "https://dc.lft.to/lastmile_qr_scan", "android": "https://dc.lft.to/lastmile_qr_scan"}}, {"name": "abd65cc9fcb81c7f20574e7b85a9d2a0", "fusion_lat": 0.0, "type": "electric_scooter", "lat": 38.89712033333333, "is_reserved": 0, "is_disabled": 0, "fusion_lon": 0.0, "bike_id": "abd65cc9fcb81c7f20574e7b85a9d2a0", "lon": -77.0324975, "rental_uris": {"ios": "https://dc.lft.to/lastmile_qr_scan", "android": "https://dc.lft.to/lastmile_qr_scan"}}, {"name": "44a7870031169dd3ef6d42856bd8a822", "fusion_lat": 0.0, "type": "electric_scooter", "lat": 38.914811, "is_reserved": 0, "is_disabled": 0, "fusion_lon": 0.0, "bike_id": "44a7870031169dd3ef6d42856bd8a822", "lon": -77.0322285, "rental_uris": {"ios": "https://dc.lft.to/lastmile_qr_scan", "android": "https://dc.lft.to/lastmile_qr_scan"}}, {"name": "43b77410105ae3de52b330fa5f27146e", "fusion_lat": 0.0, "type": "electric_scooter", "lat": 38.91804916666667, "is_reserved": 0, "is_disabled": 0, "fusion_lon": 0.0, "bike_id": "43b77410105ae3de52b330fa5f27146e", "lon": -77.0321355, "rental_uris": {"ios": "https://dc.lft.to/lastmile_qr_scan", "android": "https://dc.lft.to/lastmile_qr_scan"}}, {"name": "92dad8702d1014bf1b692a4ffe022559", "fusion_lat": 0.0, "type": "electric_scooter", "lat": 38.86257116666667, "is_reserved": 0, "is_disabled": 0, "fusion_lon": 0.0, "bike_id": "92dad8702d1014bf1b692a4ffe022559", "lon": -76.9951385, "rental_uris": {"ios": "https://dc.lft.to/lastmile_qr_scan", "android": "https://dc.lft.to/lastmile_qr_scan"}}, {"name": "205b4368650668620fa2b43c1b8080b6", "fusion_lat": 0.0, "type": "electric_bike", "lat": 38.83143233333333, "is_reserved": 0, "is_disabled": 0, "fusion_lon": 0.0, "bike_id": "205b4368650668620fa2b43c1b8080b6", "lon": -77.11313483333333, "rental_uris": {"ios": "https://dc.lft.to/lastmile_qr_scan", "android": "https://dc.lft.to/lastmile_qr_scan"}}, {"name": "3c3438b868fc44541ff1cf9571baac4e", "fusion_lat": 0.0, "type": "electric_scooter", "lat": 38.900360166666665, "is_reserved": 0, "is_disabled": 0, "fusion_lon": 0.0, "bike_id": "3c3438b868fc44541ff1cf9571baac4e", "lon": -77.001936, "rental_uris": {"ios": "https://dc.lft.to/lastmile_qr_scan", "android": "https://dc.lft.to/lastmile_qr_scan"}}, {"name": "07c60ab457a2c514b230cb1c4a536662", "fusion_lat": 0.0, "type": "electric_bike", "lat": 38.924315166666666, "is_reserved": 0, "is_disabled": 0, "fusion_lon": 0.0, "bike_id": "07c60ab457a2c514b230cb1c4a536662", "lon": -76.99129916666666, "rental_uris": {"ios": "https://dc.lft.to/lastmile_qr_scan", "android": "https://dc.lft.to/lastmile_qr_scan"}}, {"name": "79499062ef154a046d07d9d72081dbcf", "fusion_lat": 0.0, "type": "electric_scooter", "lat": 38.92828266666667, "is_reserved": 0, "is_disabled": 0, "fusion_lon": 0.0, "bike_id": "79499062ef154a046d07d9d72081dbcf", "lon": -77.02257983333334, "rental_uris": {"ios": "https://dc.lft.to/lastmile_qr_scan", "android": "https://dc.lft.to/lastmile_qr_scan"}}, {"name": "c54c7ed77a02030c761d1b53899160c4", "fusion_lat": 0.0, "type": "electric_scooter", "lat": 38.900438, "is_reserved": 0, "is_disabled": 0, "fusion_lon": 0.0, "bike_id": "c54c7ed77a02030c761d1b53899160c4", "lon": -77.002055, "rental_uris": {"ios": "https://dc.lft.to/lastmile_qr_scan", "android": "https://dc.lft.to/lastmile_qr_scan"}}, {"name": "69a290d47cb820565ba5d9dc64abe3e2", "fusion_lat": 0.0, "type": "electric_scooter", "lat": 38.903454333333336, "is_reserved": 0, "is_disabled": 0, "fusion_lon": 0.0, "bike_id": "69a290d47cb820565ba5d9dc64abe3e2", "lon": -77.02609466666667, "rental_uris": {"ios": "https://dc.lft.to/lastmile_qr_scan", "android": "https://dc.lft.to/lastmile_qr_scan"}}, {"name": "13effaab8d4264565c776735d845fd9c", "fusion_lat": 0.0, "type": "electric_bike", "lat": 38.842723166666666, "is_reserved": 0, "is_disabled": 0, "fusion_lon": 0.0, "bike_id": "13effaab8d4264565c776735d845fd9c", "lon": -76.98840066666666, "rental_uris": {"ios": "https://dc.lft.to/lastmile_qr_scan", "android": "https://dc.lft.to/lastmile_qr_scan"}}, {"name": "c1ff0df63050095be430fe75676ea0b0", "fusion_lat": 0.0, "type": "electric_bike", "lat": 38.960071166666665, "is_reserved": 0, "is_disabled": 0, "fusion_lon": 0.0, "bike_id": "c1ff0df63050095be430fe75676ea0b0", "lon": -76.99867416666666, "rental_uris": {"ios": "https://dc.lft.to/lastmile_qr_scan", "android": "https://dc.lft.to/lastmile_qr_scan"}}, {"name": "f7a9d48805124bc5c13dd2c582b871bc", "fusion_lat": 0.0, "type": "electric_bike", "lat": 38.88121616666667, "is_reserved": 0, "is_disabled": 0, "fusion_lon": 0.0, "bike_id": "f7a9d48805124bc5c13dd2c582b871bc", "lon": -77.01347483333333, "rental_uris": {"ios": "https://dc.lft.to/lastmile_qr_scan", "android": "https://dc.lft.to/lastmile_qr_scan"}}, {"name": "d36e96657acf29d7c4b39a72a50d28c0", "fusion_lat": 0.0, "type": "electric_scooter", "lat": 38.90166466666667, "is_reserved": 0, "is_disabled": 0, "fusion_lon": 0.0, "bike_id": "d36e96657acf29d7c4b39a72a50d28c0", "lon": -77.04673633333333, "rental_uris": {"ios": "https://dc.lft.to/lastmile_qr_scan", "android": "https://dc.lft.to/lastmile_qr_scan"}}, {"name": "632f8fa72ff24a90098b70ee42367ad3", "fusion_lat": 0.0, "type": "electric_scooter", "lat": 38.94205566666667, "is_reserved": 0, "is_disabled": 0, "fusion_lon": 0.0, "bike_id": "632f8fa72ff24a90098b70ee42367ad3", "lon": -77.02513533333334, "rental_uris": {"ios": "https://dc.lft.to/lastmile_qr_scan", "android": "https://dc.lft.to/lastmile_qr_scan"}}, {"name": "061ea0c594bf49961ef72729aa2187aa", "fusion_lat": 0.0, "type": "electric_scooter", "lat": 38.90739383333333, "is_reserved": 0, "is_disabled": 0, "fusion_lon": 0.0, "bike_id": "061ea0c594bf49961ef72729aa2187aa", "lon": -77.04326333333333, "rental_uris": {"ios": "https://dc.lft.to/lastmile_qr_scan", "android": "https://dc.lft.to/lastmile_qr_scan"}}, {"name": "24261882fb49f1bc19f6bf88f52eb685", "fusion_lat": 0.0, "type": "electric_scooter", "lat": 38.92127416666666, "is_reserved": 0, "is_disabled": 0, "fusion_lon": 0.0, "bike_id": "24261882fb49f1bc19f6bf88f52eb685", "lon": -77.02532433333333, "rental_uris": {"ios": "https://dc.lft.to/lastmile_qr_scan", "android": "https://dc.lft.to/lastmile_qr_scan"}}, {"name": "a94813bf6daa6940054777f8ee473b2b", "fusion_lat": 0.0, "type": "electric_scooter", "lat": 38.90669333333334, "is_reserved": 0, "is_disabled": 0, "fusion_lon": 0.0, "bike_id": "a94813bf6daa6940054777f8ee473b2b", "lon": -77.02703416666667, "rental_uris": {"ios": "https://dc.lft.to/lastmile_qr_scan", "android": "https://dc.lft.to/lastmile_qr_scan"}}, {"name": "00e02cccdee30d1bd4ebbde1019b90b6", "fusion_lat": 0.0, "type": "electric_scooter", "lat": 38.90898766666667, "is_reserved": 0, "is_disabled": 0, "fusion_lon": 0.0, "bike_id": "00e02cccdee30d1bd4ebbde1019b90b6", "lon": -77.02820166666666, "rental_uris": {"ios": "https://dc.lft.to/lastmile_qr_scan", "android": "https://dc.lft.to/lastmile_qr_scan"}}, {"name": "511922f1f3f8c4a6a1457b8e73c686c2", "fusion_lat": 0.0, "type": "electric_bike", "lat": 38.84613233333334, "is_reserved": 0, "is_disabled": 0, "fusion_lon": 0.0, "bike_id": "511922f1f3f8c4a6a1457b8e73c686c2", "lon": -76.97826883333333, "rental_uris": {"ios": "https://dc.lft.to/lastmile_qr_scan", "android": "https://dc.lft.to/lastmile_qr_scan"}}, {"name": "5239068af80efa6792ce23d6dddd9018", "fusion_lat": 0.0, "type": "electric_scooter", "lat": 38.919661166666664, "is_reserved": 0, "is_disabled": 0, "fusion_lon": 0.0, "bike_id": "5239068af80efa6792ce23d6dddd9018", "lon": -77.03866616666667, "rental_uris": {"ios": "https://dc.lft.to/lastmile_qr_scan", "android": "https://dc.lft.to/lastmile_qr_scan"}}, {"name": "1397c2613ed6706d99dc7f0c7288e8c2", "fusion_lat": 0.0, "type": "electric_scooter", "lat": 38.903430666666665, "is_reserved": 0, "is_disabled": 0, "fusion_lon": 0.0, "bike_id": "1397c2613ed6706d99dc7f0c7288e8c2", "lon": -77.05292716666666, "rental_uris": {"ios": "https://dc.lft.to/lastmile_qr_scan", "android": "https://dc.lft.to/lastmile_qr_scan"}}, {"name": "7ec5c14b140bd15b8e06df86366f8a79", "fusion_lat": 0.0, "type": "electric_scooter", "lat": 38.941901333333334, "is_reserved": 0, "is_disabled": 0, "fusion_lon": 0.0, "bike_id": "7ec5c14b140bd15b8e06df86366f8a79", "lon": -77.03029566666666, "rental_uris": {"ios": "https://dc.lft.to/lastmile_qr_scan", "android": "https://dc.lft.to/lastmile_qr_scan"}}, {"name": "7bf96f649402acc20bca6f6a8d498b37", "fusion_lat": 0.0, "type": "electric_scooter", "lat": 38.91334, "is_reserved": 0, "is_disabled": 0, "fusion_lon": 0.0, "bike_id": "7bf96f649402acc20bca6f6a8d498b37", "lon": -77.04576166666666, "rental_uris": {"ios": "https://dc.lft.to/lastmile_qr_scan", "android": "https://dc.lft.to/lastmile_qr_scan"}}, {"name": "ad522a99e31ff77d4e9b2dc12180cda9", "fusion_lat": 0.0, "type": "electric_scooter", "lat": 38.9191505, "is_reserved": 0, "is_disabled": 0, "fusion_lon": 0.0, "bike_id": "ad522a99e31ff77d4e9b2dc12180cda9", "lon": -77.02620866666666, "rental_uris": {"ios": "https://dc.lft.to/lastmile_qr_scan", "android": "https://dc.lft.to/lastmile_qr_scan"}}, {"name": "027b12f7889419adb82e96658bb26ff1", "fusion_lat": 0.0, "type": "electric_bike", "lat": 39.0581255, "is_reserved": 0, "is_disabled": 0, "fusion_lon": 0.0, "bike_id": "027b12f7889419adb82e96658bb26ff1", "lon": -77.12625716666666, "rental_uris": {"ios": "https://dc.lft.to/lastmile_qr_scan", "android": "https://dc.lft.to/lastmile_qr_scan"}}, {"name": "89abf08a8b1f38516aea68e7cc2ad086", "fusion_lat": 0.0, "type": "electric_scooter", "lat": 38.897296833333336, "is_reserved": 0, "is_disabled": 0, "fusion_lon": 0.0, "bike_id": "89abf08a8b1f38516aea68e7cc2ad086", "lon": -77.0092615, "rental_uris": {"ios": "https://dc.lft.to/lastmile_qr_scan", "android": "https://dc.lft.to/lastmile_qr_scan"}}, {"name": "88ec391249bb34eab6fc1bbcbb03af76", "fusion_lat": 0.0, "type": "electric_scooter", "lat": 38.921573333333335, "is_reserved": 0, "is_disabled": 0, "fusion_lon": 0.0, "bike_id": "88ec391249bb34eab6fc1bbcbb03af76", "lon": -77.03387733333334, "rental_uris": {"ios": "https://dc.lft.to/lastmile_qr_scan", "android": "https://dc.lft.to/lastmile_qr_scan"}}, {"name": "860593a6f50043e9db587eeeef07418e", "fusion_lat": 0.0, "type": "electric_scooter", "lat": 38.908407, "is_reserved": 0, "is_disabled": 0, "fusion_lon": 0.0, "bike_id": "860593a6f50043e9db587eeeef07418e", "lon": -77.000983, "rental_uris": {"ios": "https://dc.lft.to/lastmile_qr_scan", "android": "https://dc.lft.to/lastmile_qr_scan"}}, {"name": "36c9c212e405701af84c2377570197a9", "fusion_lat": 0.0, "type": "electric_scooter", "lat": 38.92585733333333, "is_reserved": 0, "is_disabled": 0, "fusion_lon": 0.0, "bike_id": "36c9c212e405701af84c2377570197a9", "lon": -77.02961033333334, "rental_uris": {"ios": "https://dc.lft.to/lastmile_qr_scan", "android": "https://dc.lft.to/lastmile_qr_scan"}}, {"name": "f2cde7be0a82bea507b3809f30e905d2", "fusion_lat": 0.0, "type": "electric_scooter", "lat": 38.90148666666666, "is_reserved": 0, "is_disabled": 0, "fusion_lon": 0.0, "bike_id": "f2cde7be0a82bea507b3809f30e905d2", "lon": -77.02885433333333, "rental_uris": {"ios": "https://dc.lft.to/lastmile_qr_scan", "android": "https://dc.lft.to/lastmile_qr_scan"}}, {"name": "ea68bc1384c1026677019495b4a72b04", "fusion_lat": 0.0, "type": "electric_scooter", "lat": 38.9013325, "is_reserved": 0, "is_disabled": 0, "fusion_lon": 0.0, "bike_id": "ea68bc1384c1026677019495b4a72b04", "lon": -77.03052866666667, "rental_uris": {"ios": "https://dc.lft.to/lastmile_qr_scan", "android": "https://dc.lft.to/lastmile_qr_scan"}}, {"name": "9c018a629270eac10bd44672cf8b96d2", "fusion_lat": 0.0, "type": "electric_scooter", "lat": 38.907306, "is_reserved": 0, "is_disabled": 0, "fusion_lon": 0.0, "bike_id": "9c018a629270eac10bd44672cf8b96d2", "lon": -77.02330433333333, "rental_uris": {"ios": "https://dc.lft.to/lastmile_qr_scan", "android": "https://dc.lft.to/lastmile_qr_scan"}}, {"name": "de17a8453745ccf6cf3b425e516e9502", "fusion_lat": 0.0, "type": "electric_scooter", "lat": 38.917077, "is_reserved": 0, "is_disabled": 0, "fusion_lon": 0.0, "bike_id": "de17a8453745ccf6cf3b425e516e9502", "lon": -77.04672733333334, "rental_uris": {"ios": "https://dc.lft.to/lastmile_qr_scan", "android": "https://dc.lft.to/lastmile_qr_scan"}}, {"name": "ca4e143329c61118ca082f2342a29a42", "fusion_lat": 0.0, "type": "electric_scooter", "lat": 38.920229666666664, "is_reserved": 0, "is_disabled": 0, "fusion_lon": 0.0, "bike_id": "ca4e143329c61118ca082f2342a29a42", "lon": -77.03120666666666, "rental_uris": {"ios": "https://dc.lft.to/lastmile_qr_scan", "android": "https://dc.lft.to/lastmile_qr_scan"}}, {"name": "5368c9919dee90ad5ef9acab2aa5e01e", "fusion_lat": 0.0, "type": "electric_scooter", "lat": 38.894144833333335, "is_reserved": 0, "is_disabled": 0, "fusion_lon": 0.0, "bike_id": "5368c9919dee90ad5ef9acab2aa5e01e", "lon": -76.93957966666666, "rental_uris": {"ios": "https://dc.lft.to/lastmile_qr_scan", "android": "https://dc.lft.to/lastmile_qr_scan"}}, {"name": "c7a04236c54a3887e9c76816d9fbc9f2", "fusion_lat": 0.0, "type": "electric_bike", "lat": 38.93672183333334, "is_reserved": 0, "is_disabled": 0, "fusion_lon": 0.0, "bike_id": "c7a04236c54a3887e9c76816d9fbc9f2", "lon": -76.9520695, "rental_uris": {"ios": "https://dc.lft.to/lastmile_qr_scan", "android": "https://dc.lft.to/lastmile_qr_scan"}}, {"name": "1529ae0827cc5b32decd7c7bcba460ae", "fusion_lat": 0.0, "type": "electric_scooter", "lat": 38.88348366666666, "is_reserved": 0, "is_disabled": 0, "fusion_lon": 0.0, "bike_id": "1529ae0827cc5b32decd7c7bcba460ae", "lon": -76.9855845, "rental_uris": {"ios": "https://dc.lft.to/lastmile_qr_scan", "android": "https://dc.lft.to/lastmile_qr_scan"}}, {"name": "215413ab0d1307736086402a60487fc9", "fusion_lat": 0.0, "type": "electric_scooter", "lat": 38.90234616666667, "is_reserved": 0, "is_disabled": 0, "fusion_lon": 0.0, "bike_id": "215413ab0d1307736086402a60487fc9", "lon": -77.0533915, "rental_uris": {"ios": "https://dc.lft.to/lastmile_qr_scan", "android": "https://dc.lft.to/lastmile_qr_scan"}}, {"name": "69c4f4a97d39e9c6cb923cbb0095ec4c", "fusion_lat": 0.0, "type": "electric_scooter", "lat": 38.8620855, "is_reserved": 0, "is_disabled": 0, "fusion_lon": 0.0, "bike_id": "69c4f4a97d39e9c6cb923cbb0095ec4c", "lon": -76.9947025, "rental_uris": {"ios": "https://dc.lft.to/lastmile_qr_scan", "android": "https://dc.lft.to/lastmile_qr_scan"}}, {"name": "0e3a727dc2b94a874cd1107946285577", "fusion_lat": 0.0, "type": "electric_scooter", "lat": 38.91187766666667, "is_reserved": 0, "is_disabled": 0, "fusion_lon": 0.0, "bike_id": "0e3a727dc2b94a874cd1107946285577", "lon": -77.03246366666667, "rental_uris": {"ios": "https://dc.lft.to/lastmile_qr_scan", "android": "https://dc.lft.to/lastmile_qr_scan"}}, {"name": "2c7e54b4fab08662e7567c99a4a814ca", "fusion_lat": 0.0, "type": "electric_scooter", "lat": 38.91921116666666, "is_reserved": 0, "is_disabled": 0, "fusion_lon": 0.0, "bike_id": "2c7e54b4fab08662e7567c99a4a814ca", "lon": -77.03112316666666, "rental_uris": {"ios": "https://dc.lft.to/lastmile_qr_scan", "android": "https://dc.lft.to/lastmile_qr_scan"}}, {"name": "19ce46034930b47544cdd0bb5de7f824", "fusion_lat": 0.0, "type": "electric_scooter", "lat": 38.9096465, "is_reserved": 0, "is_disabled": 0, "fusion_lon": 0.0, "bike_id": "19ce46034930b47544cdd0bb5de7f824", "lon": -77.02685016666666, "rental_uris": {"ios": "https://dc.lft.to/lastmile_qr_scan", "android": "https://dc.lft.to/lastmile_qr_scan"}}, {"name": "32a3822453a1ab8ca6bbcb6b7707c6f1", "fusion_lat": 0.0, "type": "electric_scooter", "lat": 38.89550233333333, "is_reserved": 0, "is_disabled": 0, "fusion_lon": 0.0, "bike_id": "32a3822453a1ab8ca6bbcb6b7707c6f1", "lon": -76.9487805, "rental_uris": {"ios": "https://dc.lft.to/lastmile_qr_scan", "android": "https://dc.lft.to/lastmile_qr_scan"}}, {"name": "ea2d65b591baa2128fc1564702cdb007", "fusion_lat": 0.0, "type": "electric_scooter", "lat": 38.913458, "is_reserved": 0, "is_disabled": 0, "fusion_lon": 0.0, "bike_id": "ea2d65b591baa2128fc1564702cdb007", "lon": -77.04229316666667, "rental_uris": {"ios": "https://dc.lft.to/lastmile_qr_scan", "android": "https://dc.lft.to/lastmile_qr_scan"}}, {"name": "d692ddbdb7165cc2909dd1ffb8c7ed9d", "fusion_lat": 0.0, "type": "electric_scooter", "lat": 38.907336, "is_reserved": 0, "is_disabled": 0, "fusion_lon": 0.0, "bike_id": "d692ddbdb7165cc2909dd1ffb8c7ed9d", "lon": -77.0320515, "rental_uris": {"ios": "https://dc.lft.to/lastmile_qr_scan", "android": "https://dc.lft.to/lastmile_qr_scan"}}, {"name": "80d00a082da12b809fcc1fd0196ee42b", "fusion_lat": 0.0, "type": "electric_scooter", "lat": 38.9271365, "is_reserved": 0, "is_disabled": 0, "fusion_lon": 0.0, "bike_id": "80d00a082da12b809fcc1fd0196ee42b", "lon": -77.037305, "rental_uris": {"ios": "https://dc.lft.to/lastmile_qr_scan", "android": "https://dc.lft.to/lastmile_qr_scan"}}, {"name": "ca47655ef6f2e206de8ed061c3cb241f", "fusion_lat": 0.0, "type": "electric_scooter", "lat": 38.898930166666666, "is_reserved": 0, "is_disabled": 0, "fusion_lon": 0.0, "bike_id": "ca47655ef6f2e206de8ed061c3cb241f", "lon": -77.01493866666667, "rental_uris": {"ios": "https://dc.lft.to/lastmile_qr_scan", "android": "https://dc.lft.to/lastmile_qr_scan"}}, {"name": "985bd4d287800ed9a569e8806b33740a", "fusion_lat": 0.0, "type": "electric_bike", "lat": 38.8151285, "is_reserved": 0, "is_disabled": 0, "fusion_lon": 0.0, "bike_id": "985bd4d287800ed9a569e8806b33740a", "lon": -77.12654683333334, "rental_uris": {"ios": "https://dc.lft.to/lastmile_qr_scan", "android": "https://dc.lft.to/lastmile_qr_scan"}}, {"name": "bfe75c085f3e2f7520a140e9f3800649", "fusion_lat": 0.0, "type": "electric_bike", "lat": 38.907243666666666, "is_reserved": 0, "is_disabled": 0, "fusion_lon": 0.0, "bike_id": "bfe75c085f3e2f7520a140e9f3800649", "lon": -77.00328683333333, "rental_uris": {"ios": "https://dc.lft.to/lastmile_qr_scan", "android": "https://dc.lft.to/lastmile_qr_scan"}}, {"name": "166e983f171c1ed108cb95270d9d6df7", "fusion_lat": 0.0, "type": "electric_scooter", "lat": 38.873736666666666, "is_reserved": 0, "is_disabled": 0, "fusion_lon": 0.0, "bike_id": "166e983f171c1ed108cb95270d9d6df7", "lon": -77.00031533333333, "rental_uris": {"ios": "https://dc.lft.to/lastmile_qr_scan", "android": "https://dc.lft.to/lastmile_qr_scan"}}, {"name": "4a827a702db7fe18f1fbad3a54d5957d", "fusion_lat": 0.0, "type": "electric_scooter", "lat": 38.917249, "is_reserved": 0, "is_disabled": 0, "fusion_lon": 0.0, "bike_id": "4a827a702db7fe18f1fbad3a54d5957d", "lon": -77.00003066666666, "rental_uris": {"ios": "https://dc.lft.to/lastmile_qr_scan", "android": "https://dc.lft.to/lastmile_qr_scan"}}, {"name": "fbb2e2472c4cf293dd87711f528c8a92", "fusion_lat": 0.0, "type": "electric_scooter", "lat": 38.9001435, "is_reserved": 0, "is_disabled": 0, "fusion_lon": 0.0, "bike_id": "fbb2e2472c4cf293dd87711f528c8a92", "lon": -77.044834, "rental_uris": {"ios": "https://dc.lft.to/lastmile_qr_scan", "android": "https://dc.lft.to/lastmile_qr_scan"}}, {"name": "80b0e4509a36a2dc1d1a858706db1215", "fusion_lat": 0.0, "type": "electric_scooter", "lat": 38.9020425, "is_reserved": 0, "is_disabled": 0, "fusion_lon": 0.0, "bike_id": "80b0e4509a36a2dc1d1a858706db1215", "lon": -77.023725, "rental_uris": {"ios": "https://dc.lft.to/lastmile_qr_scan", "android": "https://dc.lft.to/lastmile_qr_scan"}}, {"name": "86ae2552aa26ad06e5ee9856b73bdaed", "fusion_lat": 0.0, "type": "electric_scooter", "lat": 38.91912833333333, "is_reserved": 0, "is_disabled": 0, "fusion_lon": 0.0, "bike_id": "86ae2552aa26ad06e5ee9856b73bdaed", "lon": -77.02132916666666, "rental_uris": {"ios": "https://dc.lft.to/lastmile_qr_scan", "android": "https://dc.lft.to/lastmile_qr_scan"}}, {"name": "aed0d94aedc3d708718a0d17c9a223fd", "fusion_lat": 0.0, "type": "electric_scooter", "lat": 38.92486916666667, "is_reserved": 0, "is_disabled": 0, "fusion_lon": 0.0, "bike_id": "aed0d94aedc3d708718a0d17c9a223fd", "lon": -77.05210083333333, "rental_uris": {"ios": "https://dc.lft.to/lastmile_qr_scan", "android": "https://dc.lft.to/lastmile_qr_scan"}}, {"name": "c0e8f3e9e7bf22778037ac8c1055864b", "fusion_lat": 0.0, "type": "electric_scooter", "lat": 38.9187445, "is_reserved": 0, "is_disabled": 0, "fusion_lon": 0.0, "bike_id": "c0e8f3e9e7bf22778037ac8c1055864b", "lon": -77.042117, "rental_uris": {"ios": "https://dc.lft.to/lastmile_qr_scan", "android": "https://dc.lft.to/lastmile_qr_scan"}}, {"name": "9537b1eedd8a0506584d8bd5f9fa489f", "fusion_lat": 0.0, "type": "electric_scooter", "lat": 38.885204333333334, "is_reserved": 0, "is_disabled": 0, "fusion_lon": 0.0, "bike_id": "9537b1eedd8a0506584d8bd5f9fa489f", "lon": -77.03353183333333, "rental_uris": {"ios": "https://dc.lft.to/lastmile_qr_scan", "android": "https://dc.lft.to/lastmile_qr_scan"}}, {"name": "cb51b51dfef51fa2ca5f98384bf7e520", "fusion_lat": 0.0, "type": "electric_scooter", "lat": 38.9034555, "is_reserved": 0, "is_disabled": 0, "fusion_lon": 0.0, "bike_id": "cb51b51dfef51fa2ca5f98384bf7e520", "lon": -76.97569933333334, "rental_uris": {"ios": "https://dc.lft.to/lastmile_qr_scan", "android": "https://dc.lft.to/lastmile_qr_scan"}}, {"name": "4dc787a76b1f15b53817cc712f082e23", "fusion_lat": 0.0, "type": "electric_scooter", "lat": 38.909695666666664, "is_reserved": 0, "is_disabled": 0, "fusion_lon": 0.0, "bike_id": "4dc787a76b1f15b53817cc712f082e23", "lon": -77.03871366666667, "rental_uris": {"ios": "https://dc.lft.to/lastmile_qr_scan", "android": "https://dc.lft.to/lastmile_qr_scan"}}, {"name": "d13eafa2d9f52033fae0ca9f4ea84fe9", "fusion_lat": 0.0, "type": "electric_scooter", "lat": 38.87651316666667, "is_reserved": 0, "is_disabled": 0, "fusion_lon": 0.0, "bike_id": "d13eafa2d9f52033fae0ca9f4ea84fe9", "lon": -76.96507266666667, "rental_uris": {"ios": "https://dc.lft.to/lastmile_qr_scan", "android": "https://dc.lft.to/lastmile_qr_scan"}}, {"name": "0d3a5cd17a187b558f5398569e09de95", "fusion_lat": 0.0, "type": "electric_scooter", "lat": 38.938313666666666, "is_reserved": 0, "is_disabled": 0, "fusion_lon": 0.0, "bike_id": "0d3a5cd17a187b558f5398569e09de95", "lon": -77.02488916666667, "rental_uris": {"ios": "https://dc.lft.to/lastmile_qr_scan", "android": "https://dc.lft.to/lastmile_qr_scan"}}, {"name": "c418c30c5a6651593718ebabac8f92ae", "fusion_lat": 0.0, "type": "electric_bike", "lat": 38.990672, "is_reserved": 0, "is_disabled": 0, "fusion_lon": 0.0, "bike_id": "c418c30c5a6651593718ebabac8f92ae", "lon": -77.100293, "rental_uris": {"ios": "https://dc.lft.to/lastmile_qr_scan", "android": "https://dc.lft.to/lastmile_qr_scan"}}, {"name": "37268892bb1600dcc96fb9cf0735f8ca", "fusion_lat": 0.0, "type": "electric_scooter", "lat": 38.899873666666664, "is_reserved": 0, "is_disabled": 0, "fusion_lon": 0.0, "bike_id": "37268892bb1600dcc96fb9cf0735f8ca", "lon": -77.02708633333333, "rental_uris": {"ios": "https://dc.lft.to/lastmile_qr_scan", "android": "https://dc.lft.to/lastmile_qr_scan"}}, {"name": "4117bdb737ee01503e766d104225e604", "fusion_lat": 0.0, "type": "electric_scooter", "lat": 38.858, "is_reserved": 0, "is_disabled": 0, "fusion_lon": 0.0, "bike_id": "4117bdb737ee01503e766d104225e604", "lon": -76.98651066666666, "rental_uris": {"ios": "https://dc.lft.to/lastmile_qr_scan", "android": "https://dc.lft.to/lastmile_qr_scan"}}, {"name": "ac65b713abac0543e4777c71625d4c9f", "fusion_lat": 0.0, "type": "electric_scooter", "lat": 38.9395235, "is_reserved": 0, "is_disabled": 0, "fusion_lon": 0.0, "bike_id": "ac65b713abac0543e4777c71625d4c9f", "lon": -77.03262566666666, "rental_uris": {"ios": "https://dc.lft.to/lastmile_qr_scan", "android": "https://dc.lft.to/lastmile_qr_scan"}}, {"name": "aca71bd10599fdeebf7b6ca5574c731d", "fusion_lat": 0.0, "type": "electric_scooter", "lat": 38.929497833333336, "is_reserved": 0, "is_disabled": 0, "fusion_lon": 0.0, "bike_id": "aca71bd10599fdeebf7b6ca5574c731d", "lon": -77.03471133333333, "rental_uris": {"ios": "https://dc.lft.to/lastmile_qr_scan", "android": "https://dc.lft.to/lastmile_qr_scan"}}, {"name": "eb57c6ed2e7c94a66408d329e1c8f286", "fusion_lat": 0.0, "type": "electric_scooter", "lat": 38.90266116666667, "is_reserved": 0, "is_disabled": 0, "fusion_lon": 0.0, "bike_id": "eb57c6ed2e7c94a66408d329e1c8f286", "lon": -77.043602, "rental_uris": {"ios": "https://dc.lft.to/lastmile_qr_scan", "android": "https://dc.lft.to/lastmile_qr_scan"}}, {"name": "91922b34a392baa116b90796d2355792", "fusion_lat": 0.0, "type": "electric_scooter", "lat": 38.91105616666667, "is_reserved": 0, "is_disabled": 0, "fusion_lon": 0.0, "bike_id": "91922b34a392baa116b90796d2355792", "lon": -77.03723466666666, "rental_uris": {"ios": "https://dc.lft.to/lastmile_qr_scan", "android": "https://dc.lft.to/lastmile_qr_scan"}}, {"name": "147a2492ba555d3c6b2d9329c83b111e", "fusion_lat": 0.0, "type": "electric_scooter", "lat": 38.90591416666667, "is_reserved": 0, "is_disabled": 0, "fusion_lon": 0.0, "bike_id": "147a2492ba555d3c6b2d9329c83b111e", "lon": -77.0700235, "rental_uris": {"ios": "https://dc.lft.to/lastmile_qr_scan", "android": "https://dc.lft.to/lastmile_qr_scan"}}, {"name": "67abd7e15811d9997ffd4c2e7a71ea69", "fusion_lat": 0.0, "type": "electric_scooter", "lat": 38.903611, "is_reserved": 0, "is_disabled": 0, "fusion_lon": 0.0, "bike_id": "67abd7e15811d9997ffd4c2e7a71ea69", "lon": -77.03991433333333, "rental_uris": {"ios": "https://dc.lft.to/lastmile_qr_scan", "android": "https://dc.lft.to/lastmile_qr_scan"}}, {"name": "bbf892c64cb1ac421ada38dd6ca381fe", "fusion_lat": 0.0, "type": "electric_scooter", "lat": 38.93789433333333, "is_reserved": 0, "is_disabled": 0, "fusion_lon": 0.0, "bike_id": "bbf892c64cb1ac421ada38dd6ca381fe", "lon": -77.059939, "rental_uris": {"ios": "https://dc.lft.to/lastmile_qr_scan", "android": "https://dc.lft.to/lastmile_qr_scan"}}, {"name": "a592f3e57a6da93889b6037c713f14b6", "fusion_lat": 0.0, "type": "electric_scooter", "lat": 38.922096833333335, "is_reserved": 0, "is_disabled": 0, "fusion_lon": 0.0, "bike_id": "a592f3e57a6da93889b6037c713f14b6", "lon": -77.0423655, "rental_uris": {"ios": "https://dc.lft.to/lastmile_qr_scan", "android": "https://dc.lft.to/lastmile_qr_scan"}}, {"name": "251d4e0fe6d8379e3a455006f8727cfa", "fusion_lat": 0.0, "type": "electric_scooter", "lat": 38.9027445, "is_reserved": 0, "is_disabled": 0, "fusion_lon": 0.0, "bike_id": "251d4e0fe6d8379e3a455006f8727cfa", "lon": -77.017637, "rental_uris": {"ios": "https://dc.lft.to/lastmile_qr_scan", "android": "https://dc.lft.to/lastmile_qr_scan"}}, {"name": "8e70a1a47356d03f1854ccc90cc13942", "fusion_lat": 0.0, "type": "electric_scooter", "lat": 38.932905, "is_reserved": 0, "is_disabled": 0, "fusion_lon": 0.0, "bike_id": "8e70a1a47356d03f1854ccc90cc13942", "lon": -77.02528566666666, "rental_uris": {"ios": "https://dc.lft.to/lastmile_qr_scan", "android": "https://dc.lft.to/lastmile_qr_scan"}}, {"name": "c09660454b258270e7ef89fd7e8daf43", "fusion_lat": 0.0, "type": "electric_bike", "lat": 38.83442933333333, "is_reserved": 0, "is_disabled": 0, "fusion_lon": 0.0, "bike_id": "c09660454b258270e7ef89fd7e8daf43", "lon": -77.008309, "rental_uris": {"ios": "https://dc.lft.to/lastmile_qr_scan", "android": "https://dc.lft.to/lastmile_qr_scan"}}, {"name": "873bee0fe437d7942b4243d7fac72795", "fusion_lat": 0.0, "type": "electric_scooter", "lat": 38.91695833333333, "is_reserved": 0, "is_disabled": 0, "fusion_lon": 0.0, "bike_id": "873bee0fe437d7942b4243d7fac72795", "lon": -77.033392, "rental_uris": {"ios": "https://dc.lft.to/lastmile_qr_scan", "android": "https://dc.lft.to/lastmile_qr_scan"}}, {"name": "4fa42b674ab7cb2c8998e71bc022a30d", "fusion_lat": 0.0, "type": "electric_scooter", "lat": 38.89222083333333, "is_reserved": 0, "is_disabled": 0, "fusion_lon": 0.0, "bike_id": "4fa42b674ab7cb2c8998e71bc022a30d", "lon": -77.01374116666666, "rental_uris": {"ios": "https://dc.lft.to/lastmile_qr_scan", "android": "https://dc.lft.to/lastmile_qr_scan"}}, {"name": "cc82fe8448f80568d7ebc4384d97dc9a", "fusion_lat": 0.0, "type": "electric_scooter", "lat": 38.90035666666667, "is_reserved": 0, "is_disabled": 0, "fusion_lon": 0.0, "bike_id": "cc82fe8448f80568d7ebc4384d97dc9a", "lon": -77.01671866666666, "rental_uris": {"ios": "https://dc.lft.to/lastmile_qr_scan", "android": "https://dc.lft.to/lastmile_qr_scan"}}, {"name": "553748b8192a5133ef953c8c260a6edc", "fusion_lat": 0.0, "type": "electric_scooter", "lat": 38.844283833333336, "is_reserved": 0, "is_disabled": 0, "fusion_lon": 0.0, "bike_id": "553748b8192a5133ef953c8c260a6edc", "lon": -76.9977725, "rental_uris": {"ios": "https://dc.lft.to/lastmile_qr_scan", "android": "https://dc.lft.to/lastmile_qr_scan"}}, {"name": "c7e1781f1626aa5a7ae1345f89c5db6d", "fusion_lat": 0.0, "type": "electric_scooter", "lat": 38.90041983333333, "is_reserved": 0, "is_disabled": 0, "fusion_lon": 0.0, "bike_id": "c7e1781f1626aa5a7ae1345f89c5db6d", "lon": -77.00182833333334, "rental_uris": {"ios": "https://dc.lft.to/lastmile_qr_scan", "android": "https://dc.lft.to/lastmile_qr_scan"}}, {"name": "eebbc4327f015c0ffa0e6fa84b30f74d", "fusion_lat": 0.0, "type": "electric_scooter", "lat": 38.9175975, "is_reserved": 0, "is_disabled": 0, "fusion_lon": 0.0, "bike_id": "eebbc4327f015c0ffa0e6fa84b30f74d", "lon": -77.02718383333334, "rental_uris": {"ios": "https://dc.lft.to/lastmile_qr_scan", "android": "https://dc.lft.to/lastmile_qr_scan"}}, {"name": "458874713b7d9d6ac463b75523b01958", "fusion_lat": 0.0, "type": "electric_scooter", "lat": 38.906443, "is_reserved": 0, "is_disabled": 0, "fusion_lon": 0.0, "bike_id": "458874713b7d9d6ac463b75523b01958", "lon": -76.98574533333333, "rental_uris": {"ios": "https://dc.lft.to/lastmile_qr_scan", "android": "https://dc.lft.to/lastmile_qr_scan"}}, {"name": "6c62025992946d417ceb7a5f697aa509", "fusion_lat": 0.0, "type": "electric_scooter", "lat": 38.89373916666667, "is_reserved": 0, "is_disabled": 0, "fusion_lon": 0.0, "bike_id": "6c62025992946d417ceb7a5f697aa509", "lon": -76.94994766666667, "rental_uris": {"ios": "https://dc.lft.to/lastmile_qr_scan", "android": "https://dc.lft.to/lastmile_qr_scan"}}, {"name": "683eb00b550b446d656ad5a576106f17", "fusion_lat": 0.0, "type": "electric_scooter", "lat": 38.89608883333333, "is_reserved": 0, "is_disabled": 0, "fusion_lon": 0.0, "bike_id": "683eb00b550b446d656ad5a576106f17", "lon": -77.02820066666666, "rental_uris": {"ios": "https://dc.lft.to/lastmile_qr_scan", "android": "https://dc.lft.to/lastmile_qr_scan"}}, {"name": "3756d8b4db4e9529683ca63b91b1c92b", "fusion_lat": 0.0, "type": "electric_bike", "lat": 38.869131333333335, "is_reserved": 0, "is_disabled": 0, "fusion_lon": 0.0, "bike_id": "3756d8b4db4e9529683ca63b91b1c92b", "lon": -77.13178583333334, "rental_uris": {"ios": "https://dc.lft.to/lastmile_qr_scan", "android": "https://dc.lft.to/lastmile_qr_scan"}}, {"name": "d30f5706c942b43b12ce7008dab1407e", "fusion_lat": 0.0, "type": "electric_scooter", "lat": 38.9111205, "is_reserved": 0, "is_disabled": 0, "fusion_lon": 0.0, "bike_id": "d30f5706c942b43b12ce7008dab1407e", "lon": -77.039156, "rental_uris": {"ios": "https://dc.lft.to/lastmile_qr_scan", "android": "https://dc.lft.to/lastmile_qr_scan"}}, {"name": "d3326024917b7129c91ae396e1778663", "fusion_lat": 0.0, "type": "electric_scooter", "lat": 38.89918566666667, "is_reserved": 0, "is_disabled": 0, "fusion_lon": 0.0, "bike_id": "d3326024917b7129c91ae396e1778663", "lon": -77.0037445, "rental_uris": {"ios": "https://dc.lft.to/lastmile_qr_scan", "android": "https://dc.lft.to/lastmile_qr_scan"}}, {"name": "b6454f4d933a34f1dd1280df6fb7361a", "fusion_lat": 0.0, "type": "electric_scooter", "lat": 38.9083985, "is_reserved": 0, "is_disabled": 0, "fusion_lon": 0.0, "bike_id": "b6454f4d933a34f1dd1280df6fb7361a", "lon": -77.03184233333333, "rental_uris": {"ios": "https://dc.lft.to/lastmile_qr_scan", "android": "https://dc.lft.to/lastmile_qr_scan"}}, {"name": "a65a714f817dc222beb97c5833728aad", "fusion_lat": 0.0, "type": "electric_scooter", "lat": 38.91116066666667, "is_reserved": 0, "is_disabled": 0, "fusion_lon": 0.0, "bike_id": "a65a714f817dc222beb97c5833728aad", "lon": -77.03732433333333, "rental_uris": {"ios": "https://dc.lft.to/lastmile_qr_scan", "android": "https://dc.lft.to/lastmile_qr_scan"}}, {"name": "773e4580f1efec21c00451bae2768306", "fusion_lat": 0.0, "type": "electric_scooter", "lat": 38.906453166666665, "is_reserved": 0, "is_disabled": 0, "fusion_lon": 0.0, "bike_id": "773e4580f1efec21c00451bae2768306", "lon": -77.05318633333333, "rental_uris": {"ios": "https://dc.lft.to/lastmile_qr_scan", "android": "https://dc.lft.to/lastmile_qr_scan"}}, {"name": "4bc859acd0566312d8b726a0407fde6d", "fusion_lat": 0.0, "type": "electric_scooter", "lat": 38.903409833333335, "is_reserved": 0, "is_disabled": 0, "fusion_lon": 0.0, "bike_id": "4bc859acd0566312d8b726a0407fde6d", "lon": -76.946639, "rental_uris": {"ios": "https://dc.lft.to/lastmile_qr_scan", "android": "https://dc.lft.to/lastmile_qr_scan"}}, {"name": "ee55087850ccd3d3482266465e24c78a", "fusion_lat": 0.0, "type": "electric_scooter", "lat": 38.9014535, "is_reserved": 0, "is_disabled": 0, "fusion_lon": 0.0, "bike_id": "ee55087850ccd3d3482266465e24c78a", "lon": -77.03971466666667, "rental_uris": {"ios": "https://dc.lft.to/lastmile_qr_scan", "android": "https://dc.lft.to/lastmile_qr_scan"}}, {"name": "89281d344d4212ada2ad3bd86deebc46", "fusion_lat": 0.0, "type": "electric_bike", "lat": 38.992288333333335, "is_reserved": 0, "is_disabled": 0, "fusion_lon": 0.0, "bike_id": "89281d344d4212ada2ad3bd86deebc46", "lon": -76.878199, "rental_uris": {"ios": "https://dc.lft.to/lastmile_qr_scan", "android": "https://dc.lft.to/lastmile_qr_scan"}}, {"name": "3f0ee7c295c7953cfc48cc7fdb4347c9", "fusion_lat": 0.0, "type": "electric_bike", "lat": 38.9436115, "is_reserved": 0, "is_disabled": 0, "fusion_lon": 0.0, "bike_id": "3f0ee7c295c7953cfc48cc7fdb4347c9", "lon": -77.0034695, "rental_uris": {"ios": "https://dc.lft.to/lastmile_qr_scan", "android": "https://dc.lft.to/lastmile_qr_scan"}}, {"name": "1f7b9a4d1c11bddb05e1f4c9f25fe998", "fusion_lat": 0.0, "type": "electric_scooter", "lat": 38.901422, "is_reserved": 0, "is_disabled": 0, "fusion_lon": 0.0, "bike_id": "1f7b9a4d1c11bddb05e1f4c9f25fe998", "lon": -77.044929, "rental_uris": {"ios": "https://dc.lft.to/lastmile_qr_scan", "android": "https://dc.lft.to/lastmile_qr_scan"}}, {"name": "ac8b7525db400269ac533575e6507553", "fusion_lat": 0.0, "type": "electric_scooter", "lat": 38.907345166666666, "is_reserved": 0, "is_disabled": 0, "fusion_lon": 0.0, "bike_id": "ac8b7525db400269ac533575e6507553", "lon": -77.034436, "rental_uris": {"ios": "https://dc.lft.to/lastmile_qr_scan", "android": "https://dc.lft.to/lastmile_qr_scan"}}, {"name": "c32db5597a9cc570851ff45da09b083f", "fusion_lat": 0.0, "type": "electric_scooter", "lat": 38.900291, "is_reserved": 0, "is_disabled": 0, "fusion_lon": 0.0, "bike_id": "c32db5597a9cc570851ff45da09b083f", "lon": -76.98847316666667, "rental_uris": {"ios": "https://dc.lft.to/lastmile_qr_scan", "android": "https://dc.lft.to/lastmile_qr_scan"}}, {"name": "3f435a38735eed68617a6f15e93ed8e4", "fusion_lat": 0.0, "type": "electric_scooter", "lat": 38.92449383333334, "is_reserved": 0, "is_disabled": 0, "fusion_lon": 0.0, "bike_id": "3f435a38735eed68617a6f15e93ed8e4", "lon": -77.03284616666667, "rental_uris": {"ios": "https://dc.lft.to/lastmile_qr_scan", "android": "https://dc.lft.to/lastmile_qr_scan"}}, {"name": "77de5514164d9f7000e5dfa2863f5005", "fusion_lat": 0.0, "type": "electric_scooter", "lat": 38.93553683333333, "is_reserved": 0, "is_disabled": 0, "fusion_lon": 0.0, "bike_id": "77de5514164d9f7000e5dfa2863f5005", "lon": -77.023715, "rental_uris": {"ios": "https://dc.lft.to/lastmile_qr_scan", "android": "https://dc.lft.to/lastmile_qr_scan"}}, {"name": "6eab18e196916d2053882479f413844d", "fusion_lat": 0.0, "type": "electric_scooter", "lat": 38.913466166666666, "is_reserved": 0, "is_disabled": 0, "fusion_lon": 0.0, "bike_id": "6eab18e196916d2053882479f413844d", "lon": -77.00342283333333, "rental_uris": {"ios": "https://dc.lft.to/lastmile_qr_scan", "android": "https://dc.lft.to/lastmile_qr_scan"}}, {"name": "cf3fb8bb6965b3345d6b01f2fa023838", "fusion_lat": 0.0, "type": "electric_scooter", "lat": 38.90870733333333, "is_reserved": 0, "is_disabled": 0, "fusion_lon": 0.0, "bike_id": "cf3fb8bb6965b3345d6b01f2fa023838", "lon": -77.085961, "rental_uris": {"ios": "https://dc.lft.to/lastmile_qr_scan", "android": "https://dc.lft.to/lastmile_qr_scan"}}, {"name": "4934461bbc7ced172201deb863955d5d", "fusion_lat": 0.0, "type": "electric_scooter", "lat": 38.9389495, "is_reserved": 0, "is_disabled": 0, "fusion_lon": 0.0, "bike_id": "4934461bbc7ced172201deb863955d5d", "lon": -77.02471933333334, "rental_uris": {"ios": "https://dc.lft.to/lastmile_qr_scan", "android": "https://dc.lft.to/lastmile_qr_scan"}}, {"name": "cc65e55a4896e8555c3bccd640539e9b", "fusion_lat": 0.0, "type": "electric_scooter", "lat": 38.93612566666667, "is_reserved": 0, "is_disabled": 0, "fusion_lon": 0.0, "bike_id": "cc65e55a4896e8555c3bccd640539e9b", "lon": -77.055866, "rental_uris": {"ios": "https://dc.lft.to/lastmile_qr_scan", "android": "https://dc.lft.to/lastmile_qr_scan"}}, {"name": "12a30a511860b54c8fc493f7b08125c3", "fusion_lat": 0.0, "type": "electric_scooter", "lat": 38.8976765, "is_reserved": 0, "is_disabled": 0, "fusion_lon": 0.0, "bike_id": "12a30a511860b54c8fc493f7b08125c3", "lon": -76.97723633333334, "rental_uris": {"ios": "https://dc.lft.to/lastmile_qr_scan", "android": "https://dc.lft.to/lastmile_qr_scan"}}, {"name": "86042e282cd8fd44c4ec877c5041e86c", "fusion_lat": 0.0, "type": "electric_scooter", "lat": 38.944380833333334, "is_reserved": 0, "is_disabled": 0, "fusion_lon": 0.0, "bike_id": "86042e282cd8fd44c4ec877c5041e86c", "lon": -77.0328225, "rental_uris": {"ios": "https://dc.lft.to/lastmile_qr_scan", "android": "https://dc.lft.to/lastmile_qr_scan"}}, {"name": "4150e71763a1c876c5fc11a2e574d189", "fusion_lat": 0.0, "type": "electric_scooter", "lat": 38.93732216666667, "is_reserved": 0, "is_disabled": 0, "fusion_lon": 0.0, "bike_id": "4150e71763a1c876c5fc11a2e574d189", "lon": -77.03261133333334, "rental_uris": {"ios": "https://dc.lft.to/lastmile_qr_scan", "android": "https://dc.lft.to/lastmile_qr_scan"}}, {"name": "00b2e2129e47cd698510e03474527fe6", "fusion_lat": 0.0, "type": "electric_scooter", "lat": 38.915584333333335, "is_reserved": 0, "is_disabled": 0, "fusion_lon": 0.0, "bike_id": "00b2e2129e47cd698510e03474527fe6", "lon": -77.01417183333334, "rental_uris": {"ios": "https://dc.lft.to/lastmile_qr_scan", "android": "https://dc.lft.to/lastmile_qr_scan"}}, {"name": "4104196477ae0a121395150d2f8a840e", "fusion_lat": 0.0, "type": "electric_bike", "lat": 38.9175805, "is_reserved": 0, "is_disabled": 0, "fusion_lon": 0.0, "bike_id": "4104196477ae0a121395150d2f8a840e", "lon": -77.0160815, "rental_uris": {"ios": "https://dc.lft.to/lastmile_qr_scan", "android": "https://dc.lft.to/lastmile_qr_scan"}}, {"name": "4f3ea4512445480e1a7604aa6cf9a7ba", "fusion_lat": 0.0, "type": "electric_scooter", "lat": 38.916495166666664, "is_reserved": 0, "is_disabled": 0, "fusion_lon": 0.0, "bike_id": "4f3ea4512445480e1a7604aa6cf9a7ba", "lon": -77.02293, "rental_uris": {"ios": "https://dc.lft.to/lastmile_qr_scan", "android": "https://dc.lft.to/lastmile_qr_scan"}}, {"name": "d57d88e440d6b5f62a4a618e39e68cbf", "fusion_lat": 0.0, "type": "electric_scooter", "lat": 38.92280066666667, "is_reserved": 0, "is_disabled": 0, "fusion_lon": 0.0, "bike_id": "d57d88e440d6b5f62a4a618e39e68cbf", "lon": -77.03659866666666, "rental_uris": {"ios": "https://dc.lft.to/lastmile_qr_scan", "android": "https://dc.lft.to/lastmile_qr_scan"}}, {"name": "c4485da1687d6241da5fdbfa8a8a7e86", "fusion_lat": 0.0, "type": "electric_scooter", "lat": 38.90953066666667, "is_reserved": 0, "is_disabled": 0, "fusion_lon": 0.0, "bike_id": "c4485da1687d6241da5fdbfa8a8a7e86", "lon": -77.01141566666666, "rental_uris": {"ios": "https://dc.lft.to/lastmile_qr_scan", "android": "https://dc.lft.to/lastmile_qr_scan"}}, {"name": "8c96b91cf38d628ad175acb4477aa1cc", "fusion_lat": 0.0, "type": "electric_bike", "lat": 38.946059166666664, "is_reserved": 0, "is_disabled": 0, "fusion_lon": 0.0, "bike_id": "8c96b91cf38d628ad175acb4477aa1cc", "lon": -77.02977083333333, "rental_uris": {"ios": "https://dc.lft.to/lastmile_qr_scan", "android": "https://dc.lft.to/lastmile_qr_scan"}}, {"name": "d08d764b313a030fce58f526d64cc0a1", "fusion_lat": 0.0, "type": "electric_scooter", "lat": 38.910355833333334, "is_reserved": 0, "is_disabled": 0, "fusion_lon": 0.0, "bike_id": "d08d764b313a030fce58f526d64cc0a1", "lon": -77.0238495, "rental_uris": {"ios": "https://dc.lft.to/lastmile_qr_scan", "android": "https://dc.lft.to/lastmile_qr_scan"}}, {"name": "2f187be060e9674f2b513e8d7c50f1e0", "fusion_lat": 0.0, "type": "electric_bike", "lat": 38.854006, "is_reserved": 0, "is_disabled": 0, "fusion_lon": 0.0, "bike_id": "2f187be060e9674f2b513e8d7c50f1e0", "lon": -77.11823116666666, "rental_uris": {"ios": "https://dc.lft.to/lastmile_qr_scan", "android": "https://dc.lft.to/lastmile_qr_scan"}}, {"name": "7c6c05afd1fdcb70f6f3f449727c6800", "fusion_lat": 0.0, "type": "electric_scooter", "lat": 38.920719166666665, "is_reserved": 0, "is_disabled": 0, "fusion_lon": 0.0, "bike_id": "7c6c05afd1fdcb70f6f3f449727c6800", "lon": -77.02211866666667, "rental_uris": {"ios": "https://dc.lft.to/lastmile_qr_scan", "android": "https://dc.lft.to/lastmile_qr_scan"}}, {"name": "1587d25585f866be30d0a912deacb933", "fusion_lat": 0.0, "type": "electric_scooter", "lat": 38.9565115, "is_reserved": 0, "is_disabled": 0, "fusion_lon": 0.0, "bike_id": "1587d25585f866be30d0a912deacb933", "lon": -77.03291683333333, "rental_uris": {"ios": "https://dc.lft.to/lastmile_qr_scan", "android": "https://dc.lft.to/lastmile_qr_scan"}}, {"name": "ff312016c421ca9f0a317cfad9d1c6d8", "fusion_lat": 0.0, "type": "electric_bike", "lat": 38.928566833333335, "is_reserved": 0, "is_disabled": 0, "fusion_lon": 0.0, "bike_id": "ff312016c421ca9f0a317cfad9d1c6d8", "lon": -77.22220666666666, "rental_uris": {"ios": "https://dc.lft.to/lastmile_qr_scan", "android": "https://dc.lft.to/lastmile_qr_scan"}}, {"name": "99bc677c0b80ec46dd3a6bf6ba140aad", "fusion_lat": 0.0, "type": "electric_scooter", "lat": 38.927428166666665, "is_reserved": 0, "is_disabled": 0, "fusion_lon": 0.0, "bike_id": "99bc677c0b80ec46dd3a6bf6ba140aad", "lon": -77.012059, "rental_uris": {"ios": "https://dc.lft.to/lastmile_qr_scan", "android": "https://dc.lft.to/lastmile_qr_scan"}}, {"name": "e9f2c6dcc294e863c253a2d61bc17af3", "fusion_lat": 0.0, "type": "electric_scooter", "lat": 38.912709166666666, "is_reserved": 0, "is_disabled": 0, "fusion_lon": 0.0, "bike_id": "e9f2c6dcc294e863c253a2d61bc17af3", "lon": -77.03257966666666, "rental_uris": {"ios": "https://dc.lft.to/lastmile_qr_scan", "android": "https://dc.lft.to/lastmile_qr_scan"}}, {"name": "636a701ab4a9cdc8834f73a8f96f2ae2", "fusion_lat": 0.0, "type": "electric_scooter", "lat": 38.8653255, "is_reserved": 0, "is_disabled": 0, "fusion_lon": 0.0, "bike_id": "636a701ab4a9cdc8834f73a8f96f2ae2", "lon": -76.98701983333333, "rental_uris": {"ios": "https://dc.lft.to/lastmile_qr_scan", "android": "https://dc.lft.to/lastmile_qr_scan"}}, {"name": "c51cd87d982f3a159b175b3c0f6e4d40", "fusion_lat": 0.0, "type": "electric_scooter", "lat": 38.90283983333333, "is_reserved": 0, "is_disabled": 0, "fusion_lon": 0.0, "bike_id": "c51cd87d982f3a159b175b3c0f6e4d40", "lon": -77.03677583333334, "rental_uris": {"ios": "https://dc.lft.to/lastmile_qr_scan", "android": "https://dc.lft.to/lastmile_qr_scan"}}, {"name": "45e3555b830c5e60a864058eb72383e7", "fusion_lat": 0.0, "type": "electric_scooter", "lat": 38.905681666666666, "is_reserved": 0, "is_disabled": 0, "fusion_lon": 0.0, "bike_id": "45e3555b830c5e60a864058eb72383e7", "lon": -77.0223205, "rental_uris": {"ios": "https://dc.lft.to/lastmile_qr_scan", "android": "https://dc.lft.to/lastmile_qr_scan"}}, {"name": "b8151d884b4e9449609fbbce2702d3a2", "fusion_lat": 0.0, "type": "electric_bike", "lat": 38.9352335, "is_reserved": 0, "is_disabled": 0, "fusion_lon": 0.0, "bike_id": "b8151d884b4e9449609fbbce2702d3a2", "lon": -76.950636, "rental_uris": {"ios": "https://dc.lft.to/lastmile_qr_scan", "android": "https://dc.lft.to/lastmile_qr_scan"}}, {"name": "a8f67c171a0cda7c388c1ae3ce0ea16b", "fusion_lat": 0.0, "type": "electric_bike", "lat": 39.08853883333333, "is_reserved": 0, "is_disabled": 0, "fusion_lon": 0.0, "bike_id": "a8f67c171a0cda7c388c1ae3ce0ea16b", "lon": -77.178454, "rental_uris": {"ios": "https://dc.lft.to/lastmile_qr_scan", "android": "https://dc.lft.to/lastmile_qr_scan"}}, {"name": "2baf95fd1cb56108537dd327af07528c", "fusion_lat": 0.0, "type": "electric_scooter", "lat": 38.907256833333335, "is_reserved": 0, "is_disabled": 0, "fusion_lon": 0.0, "bike_id": "2baf95fd1cb56108537dd327af07528c", "lon": -77.0325715, "rental_uris": {"ios": "https://dc.lft.to/lastmile_qr_scan", "android": "https://dc.lft.to/lastmile_qr_scan"}}, {"name": "86cf1d110cbf6e7830ee7b12c7a49b02", "fusion_lat": 0.0, "type": "electric_scooter", "lat": 38.9012545, "is_reserved": 0, "is_disabled": 0, "fusion_lon": 0.0, "bike_id": "86cf1d110cbf6e7830ee7b12c7a49b02", "lon": -77.04218966666667, "rental_uris": {"ios": "https://dc.lft.to/lastmile_qr_scan", "android": "https://dc.lft.to/lastmile_qr_scan"}}, {"name": "99fe78ea2d697e2d316295cb4225926e", "fusion_lat": 0.0, "type": "electric_bike", "lat": 39.05353366666667, "is_reserved": 0, "is_disabled": 0, "fusion_lon": 0.0, "bike_id": "99fe78ea2d697e2d316295cb4225926e", "lon": -77.04726633333334, "rental_uris": {"ios": "https://dc.lft.to/lastmile_qr_scan", "android": "https://dc.lft.to/lastmile_qr_scan"}}, {"name": "1ac2f2f90180f33cf95d30e4aa48218f", "fusion_lat": 0.0, "type": "electric_scooter", "lat": 38.90782316666667, "is_reserved": 0, "is_disabled": 0, "fusion_lon": 0.0, "bike_id": "1ac2f2f90180f33cf95d30e4aa48218f", "lon": -77.0385825, "rental_uris": {"ios": "https://dc.lft.to/lastmile_qr_scan", "android": "https://dc.lft.to/lastmile_qr_scan"}}, {"name": "5366679ea759ef0e1547484f876308f5", "fusion_lat": 0.0, "type": "electric_scooter", "lat": 38.911119, "is_reserved": 0, "is_disabled": 0, "fusion_lon": 0.0, "bike_id": "5366679ea759ef0e1547484f876308f5", "lon": -77.02942416666667, "rental_uris": {"ios": "https://dc.lft.to/lastmile_qr_scan", "android": "https://dc.lft.to/lastmile_qr_scan"}}, {"name": "e4912fbb724634b3c228c69d7a001abf", "fusion_lat": 0.0, "type": "electric_scooter", "lat": 38.887397, "is_reserved": 0, "is_disabled": 0, "fusion_lon": 0.0, "bike_id": "e4912fbb724634b3c228c69d7a001abf", "lon": -77.02128733333333, "rental_uris": {"ios": "https://dc.lft.to/lastmile_qr_scan", "android": "https://dc.lft.to/lastmile_qr_scan"}}, {"name": "b60a68f78dd24e5c0b306d20866010a9", "fusion_lat": 0.0, "type": "electric_scooter", "lat": 38.91628983333333, "is_reserved": 0, "is_disabled": 0, "fusion_lon": 0.0, "bike_id": "b60a68f78dd24e5c0b306d20866010a9", "lon": -77.031874, "rental_uris": {"ios": "https://dc.lft.to/lastmile_qr_scan", "android": "https://dc.lft.to/lastmile_qr_scan"}}, {"name": "220f4cb921d09d4ba74ca0b01970ef1a", "fusion_lat": 0.0, "type": "electric_scooter", "lat": 38.911832, "is_reserved": 0, "is_disabled": 0, "fusion_lon": 0.0, "bike_id": "220f4cb921d09d4ba74ca0b01970ef1a", "lon": -77.0013415, "rental_uris": {"ios": "https://dc.lft.to/lastmile_qr_scan", "android": "https://dc.lft.to/lastmile_qr_scan"}}, {"name": "d77d8a3a3002991513933184e8527306", "fusion_lat": 0.0, "type": "electric_scooter", "lat": 38.92636, "is_reserved": 0, "is_disabled": 0, "fusion_lon": 0.0, "bike_id": "d77d8a3a3002991513933184e8527306", "lon": -77.04190383333334, "rental_uris": {"ios": "https://dc.lft.to/lastmile_qr_scan", "android": "https://dc.lft.to/lastmile_qr_scan"}}, {"name": "04fe65149a4cdb4790b110037215086e", "fusion_lat": 0.0, "type": "electric_scooter", "lat": 38.90812016666667, "is_reserved": 0, "is_disabled": 0, "fusion_lon": 0.0, "bike_id": "04fe65149a4cdb4790b110037215086e", "lon": -77.04331783333333, "rental_uris": {"ios": "https://dc.lft.to/lastmile_qr_scan", "android": "https://dc.lft.to/lastmile_qr_scan"}}, {"name": "27e3f3f1a223c276305c844492dedb06", "fusion_lat": 0.0, "type": "electric_scooter", "lat": 38.9053015, "is_reserved": 0, "is_disabled": 0, "fusion_lon": 0.0, "bike_id": "27e3f3f1a223c276305c844492dedb06", "lon": -77.05766633333333, "rental_uris": {"ios": "https://dc.lft.to/lastmile_qr_scan", "android": "https://dc.lft.to/lastmile_qr_scan"}}, {"name": "7ca2c3cc34e4fe9329c68196e49f233c", "fusion_lat": 0.0, "type": "electric_scooter", "lat": 38.89406866666667, "is_reserved": 0, "is_disabled": 0, "fusion_lon": 0.0, "bike_id": "7ca2c3cc34e4fe9329c68196e49f233c", "lon": -76.94795366666666, "rental_uris": {"ios": "https://dc.lft.to/lastmile_qr_scan", "android": "https://dc.lft.to/lastmile_qr_scan"}}, {"name": "f441a9b68fe07cba0e77dce229efd328", "fusion_lat": 0.0, "type": "electric_scooter", "lat": 38.92881833333333, "is_reserved": 0, "is_disabled": 0, "fusion_lon": 0.0, "bike_id": "f441a9b68fe07cba0e77dce229efd328", "lon": -77.03336316666666, "rental_uris": {"ios": "https://dc.lft.to/lastmile_qr_scan", "android": "https://dc.lft.to/lastmile_qr_scan"}}, {"name": "699bac369be4869662a7cdf4c923d5f3", "fusion_lat": 0.0, "type": "electric_scooter", "lat": 38.93582833333333, "is_reserved": 0, "is_disabled": 0, "fusion_lon": 0.0, "bike_id": "699bac369be4869662a7cdf4c923d5f3", "lon": -76.9909935, "rental_uris": {"ios": "https://dc.lft.to/lastmile_qr_scan", "android": "https://dc.lft.to/lastmile_qr_scan"}}, {"name": "bebc7b5ef9db75ca553c8b96b9081e24", "fusion_lat": 0.0, "type": "electric_scooter", "lat": 38.919294, "is_reserved": 0, "is_disabled": 0, "fusion_lon": 0.0, "bike_id": "bebc7b5ef9db75ca553c8b96b9081e24", "lon": -77.03426933333333, "rental_uris": {"ios": "https://dc.lft.to/lastmile_qr_scan", "android": "https://dc.lft.to/lastmile_qr_scan"}}, {"name": "61447156d36c965dc7209c960b3046d1", "fusion_lat": 0.0, "type": "electric_scooter", "lat": 38.901561, "is_reserved": 0, "is_disabled": 0, "fusion_lon": 0.0, "bike_id": "61447156d36c965dc7209c960b3046d1", "lon": -76.93062483333334, "rental_uris": {"ios": "https://dc.lft.to/lastmile_qr_scan", "android": "https://dc.lft.to/lastmile_qr_scan"}}, {"name": "9dc0ebcaa0db83cf2bd717e8f5a22826", "fusion_lat": 0.0, "type": "electric_scooter", "lat": 38.925315166666664, "is_reserved": 0, "is_disabled": 0, "fusion_lon": 0.0, "bike_id": "9dc0ebcaa0db83cf2bd717e8f5a22826", "lon": -77.05524316666667, "rental_uris": {"ios": "https://dc.lft.to/lastmile_qr_scan", "android": "https://dc.lft.to/lastmile_qr_scan"}}, {"name": "b4d4d80c4b95a65873121db11c784f7c", "fusion_lat": 0.0, "type": "electric_scooter", "lat": 38.857095666666666, "is_reserved": 0, "is_disabled": 0, "fusion_lon": 0.0, "bike_id": "b4d4d80c4b95a65873121db11c784f7c", "lon": -76.98131583333333, "rental_uris": {"ios": "https://dc.lft.to/lastmile_qr_scan", "android": "https://dc.lft.to/lastmile_qr_scan"}}, {"name": "da2149fac8d8ec8dad3662d60129adf3", "fusion_lat": 0.0, "type": "electric_bike", "lat": 38.838113166666666, "is_reserved": 0, "is_disabled": 0, "fusion_lon": 0.0, "bike_id": "da2149fac8d8ec8dad3662d60129adf3", "lon": -77.09524266666666, "rental_uris": {"ios": "https://dc.lft.to/lastmile_qr_scan", "android": "https://dc.lft.to/lastmile_qr_scan"}}, {"name": "db391df12989ca1d5f68f89cf1598d93", "fusion_lat": 0.0, "type": "electric_scooter", "lat": 38.8843065, "is_reserved": 0, "is_disabled": 0, "fusion_lon": 0.0, "bike_id": "db391df12989ca1d5f68f89cf1598d93", "lon": -76.95755633333333, "rental_uris": {"ios": "https://dc.lft.to/lastmile_qr_scan", "android": "https://dc.lft.to/lastmile_qr_scan"}}, {"name": "18a064d98900edb39cd5fe53a4e803c7", "fusion_lat": 0.0, "type": "electric_scooter", "lat": 38.9234395, "is_reserved": 0, "is_disabled": 0, "fusion_lon": 0.0, "bike_id": "18a064d98900edb39cd5fe53a4e803c7", "lon": -77.035319, "rental_uris": {"ios": "https://dc.lft.to/lastmile_qr_scan", "android": "https://dc.lft.to/lastmile_qr_scan"}}, {"name": "f7b8a3ad0a58b543d002e705ae60b2c7", "fusion_lat": 0.0, "type": "electric_scooter", "lat": 38.90522516666667, "is_reserved": 0, "is_disabled": 0, "fusion_lon": 0.0, "bike_id": "f7b8a3ad0a58b543d002e705ae60b2c7", "lon": -77.02585083333334, "rental_uris": {"ios": "https://dc.lft.to/lastmile_qr_scan", "android": "https://dc.lft.to/lastmile_qr_scan"}}, {"name": "fa2574886f6a4a58318f71c0f63937b9", "fusion_lat": 0.0, "type": "electric_scooter", "lat": 38.903279, "is_reserved": 0, "is_disabled": 0, "fusion_lon": 0.0, "bike_id": "fa2574886f6a4a58318f71c0f63937b9", "lon": -77.05235416666666, "rental_uris": {"ios": "https://dc.lft.to/lastmile_qr_scan", "android": "https://dc.lft.to/lastmile_qr_scan"}}, {"name": "ae3a657fa2f70bbeb4e7a393c608f719", "fusion_lat": 0.0, "type": "electric_scooter", "lat": 38.88786866666667, "is_reserved": 0, "is_disabled": 0, "fusion_lon": 0.0, "bike_id": "ae3a657fa2f70bbeb4e7a393c608f719", "lon": -76.95523466666667, "rental_uris": {"ios": "https://dc.lft.to/lastmile_qr_scan", "android": "https://dc.lft.to/lastmile_qr_scan"}}, {"name": "136f29ec7131f225019682a67d722256", "fusion_lat": 0.0, "type": "electric_scooter", "lat": 38.9346465, "is_reserved": 0, "is_disabled": 0, "fusion_lon": 0.0, "bike_id": "136f29ec7131f225019682a67d722256", "lon": -77.08630716666667, "rental_uris": {"ios": "https://dc.lft.to/lastmile_qr_scan", "android": "https://dc.lft.to/lastmile_qr_scan"}}, {"name": "bad14f2eee3cc0e5907c6b6a304748bd", "fusion_lat": 0.0, "type": "electric_scooter", "lat": 38.905791666666666, "is_reserved": 0, "is_disabled": 0, "fusion_lon": 0.0, "bike_id": "bad14f2eee3cc0e5907c6b6a304748bd", "lon": -77.02228583333333, "rental_uris": {"ios": "https://dc.lft.to/lastmile_qr_scan", "android": "https://dc.lft.to/lastmile_qr_scan"}}, {"name": "8e7e0a7788df8407c1a7df2d2cc641a2", "fusion_lat": 0.0, "type": "electric_scooter", "lat": 38.9127405, "is_reserved": 0, "is_disabled": 0, "fusion_lon": 0.0, "bike_id": "8e7e0a7788df8407c1a7df2d2cc641a2", "lon": -77.045013, "rental_uris": {"ios": "https://dc.lft.to/lastmile_qr_scan", "android": "https://dc.lft.to/lastmile_qr_scan"}}, {"name": "6f12614575f3542be9d341b1e810772a", "fusion_lat": 0.0, "type": "electric_scooter", "lat": 38.90828416666667, "is_reserved": 0, "is_disabled": 0, "fusion_lon": 0.0, "bike_id": "6f12614575f3542be9d341b1e810772a", "lon": -77.03209766666667, "rental_uris": {"ios": "https://dc.lft.to/lastmile_qr_scan", "android": "https://dc.lft.to/lastmile_qr_scan"}}, {"name": "4f07e17592b5681f7636f2628f9582e4", "fusion_lat": 0.0, "type": "electric_scooter", "lat": 38.8994865, "is_reserved": 0, "is_disabled": 0, "fusion_lon": 0.0, "bike_id": "4f07e17592b5681f7636f2628f9582e4", "lon": -77.05277233333334, "rental_uris": {"ios": "https://dc.lft.to/lastmile_qr_scan", "android": "https://dc.lft.to/lastmile_qr_scan"}}, {"name": "a1a2543445534a9d1d8390a86bdfe006", "fusion_lat": 0.0, "type": "electric_scooter", "lat": 38.9339325, "is_reserved": 0, "is_disabled": 0, "fusion_lon": 0.0, "bike_id": "a1a2543445534a9d1d8390a86bdfe006", "lon": -77.03582016666667, "rental_uris": {"ios": "https://dc.lft.to/lastmile_qr_scan", "android": "https://dc.lft.to/lastmile_qr_scan"}}, {"name": "9ed81e30089346c40fc5b0b728bcfa8f", "fusion_lat": 0.0, "type": "electric_scooter", "lat": 38.91182416666667, "is_reserved": 0, "is_disabled": 0, "fusion_lon": 0.0, "bike_id": "9ed81e30089346c40fc5b0b728bcfa8f", "lon": -77.03872233333334, "rental_uris": {"ios": "https://dc.lft.to/lastmile_qr_scan", "android": "https://dc.lft.to/lastmile_qr_scan"}}, {"name": "c5067ff9e7949bc1b689d734ebb072d3", "fusion_lat": 0.0, "type": "electric_bike", "lat": 38.892206, "is_reserved": 0, "is_disabled": 0, "fusion_lon": 0.0, "bike_id": "c5067ff9e7949bc1b689d734ebb072d3", "lon": -77.1077765, "rental_uris": {"ios": "https://dc.lft.to/lastmile_qr_scan", "android": "https://dc.lft.to/lastmile_qr_scan"}}, {"name": "fbfc5e87a6ea45af298966ad82af6850", "fusion_lat": 0.0, "type": "electric_scooter", "lat": 38.88351816666667, "is_reserved": 0, "is_disabled": 0, "fusion_lon": 0.0, "bike_id": "fbfc5e87a6ea45af298966ad82af6850", "lon": -77.023189, "rental_uris": {"ios": "https://dc.lft.to/lastmile_qr_scan", "android": "https://dc.lft.to/lastmile_qr_scan"}}, {"name": "4f5dceec08179c1f7fce71b420742f36", "fusion_lat": 0.0, "type": "electric_scooter", "lat": 38.91099916666667, "is_reserved": 0, "is_disabled": 0, "fusion_lon": 0.0, "bike_id": "4f5dceec08179c1f7fce71b420742f36", "lon": -77.07348133333333, "rental_uris": {"ios": "https://dc.lft.to/lastmile_qr_scan", "android": "https://dc.lft.to/lastmile_qr_scan"}}, {"name": "71339f1be25a71a131a5d1e913aa0420", "fusion_lat": 0.0, "type": "electric_scooter", "lat": 38.95286466666667, "is_reserved": 0, "is_disabled": 0, "fusion_lon": 0.0, "bike_id": "71339f1be25a71a131a5d1e913aa0420", "lon": -77.0036155, "rental_uris": {"ios": "https://dc.lft.to/lastmile_qr_scan", "android": "https://dc.lft.to/lastmile_qr_scan"}}, {"name": "58a19f3fc0efcc24989f367136ce1ef2", "fusion_lat": 0.0, "type": "electric_scooter", "lat": 38.905816333333334, "is_reserved": 0, "is_disabled": 0, "fusion_lon": 0.0, "bike_id": "58a19f3fc0efcc24989f367136ce1ef2", "lon": -77.0260435, "rental_uris": {"ios": "https://dc.lft.to/lastmile_qr_scan", "android": "https://dc.lft.to/lastmile_qr_scan"}}, {"name": "032fce45dc36336bdafb2b36f21cddad", "fusion_lat": 0.0, "type": "electric_scooter", "lat": 38.9429225, "is_reserved": 0, "is_disabled": 0, "fusion_lon": 0.0, "bike_id": "032fce45dc36336bdafb2b36f21cddad", "lon": -77.02173333333333, "rental_uris": {"ios": "https://dc.lft.to/lastmile_qr_scan", "android": "https://dc.lft.to/lastmile_qr_scan"}}, {"name": "ff2ca2d2c5506c608c52479bdd5f0b2a", "fusion_lat": 0.0, "type": "electric_scooter", "lat": 38.91291116666667, "is_reserved": 0, "is_disabled": 0, "fusion_lon": 0.0, "bike_id": "ff2ca2d2c5506c608c52479bdd5f0b2a", "lon": -77.06161633333333, "rental_uris": {"ios": "https://dc.lft.to/lastmile_qr_scan", "android": "https://dc.lft.to/lastmile_qr_scan"}}, {"name": "f43ba4790b74744381380176e4b9c8e5", "fusion_lat": 0.0, "type": "electric_scooter", "lat": 38.912655666666666, "is_reserved": 0, "is_disabled": 0, "fusion_lon": 0.0, "bike_id": "f43ba4790b74744381380176e4b9c8e5", "lon": -77.0382545, "rental_uris": {"ios": "https://dc.lft.to/lastmile_qr_scan", "android": "https://dc.lft.to/lastmile_qr_scan"}}, {"name": "d93f7e762916c5cf8f523ced8402d675", "fusion_lat": 0.0, "type": "electric_scooter", "lat": 38.91261166666666, "is_reserved": 0, "is_disabled": 0, "fusion_lon": 0.0, "bike_id": "d93f7e762916c5cf8f523ced8402d675", "lon": -77.031576, "rental_uris": {"ios": "https://dc.lft.to/lastmile_qr_scan", "android": "https://dc.lft.to/lastmile_qr_scan"}}, {"name": "7304c20f82b2a1e86928f92784989491", "fusion_lat": 0.0, "type": "electric_scooter", "lat": 38.93003983333333, "is_reserved": 0, "is_disabled": 0, "fusion_lon": 0.0, "bike_id": "7304c20f82b2a1e86928f92784989491", "lon": -77.0551905, "rental_uris": {"ios": "https://dc.lft.to/lastmile_qr_scan", "android": "https://dc.lft.to/lastmile_qr_scan"}}, {"name": "8a0b15130a1da944cea3f853013c559e", "fusion_lat": 0.0, "type": "electric_scooter", "lat": 38.93664533333333, "is_reserved": 0, "is_disabled": 0, "fusion_lon": 0.0, "bike_id": "8a0b15130a1da944cea3f853013c559e", "lon": -77.0549505, "rental_uris": {"ios": "https://dc.lft.to/lastmile_qr_scan", "android": "https://dc.lft.to/lastmile_qr_scan"}}, {"name": "b9317c1dab6cc86612fd315f6d56cffa", "fusion_lat": 0.0, "type": "electric_scooter", "lat": 38.9170155, "is_reserved": 0, "is_disabled": 0, "fusion_lon": 0.0, "bike_id": "b9317c1dab6cc86612fd315f6d56cffa", "lon": -77.040837, "rental_uris": {"ios": "https://dc.lft.to/lastmile_qr_scan", "android": "https://dc.lft.to/lastmile_qr_scan"}}, {"name": "df07973696bb36139d9ba245828de490", "fusion_lat": 0.0, "type": "electric_scooter", "lat": 38.91172433333333, "is_reserved": 0, "is_disabled": 0, "fusion_lon": 0.0, "bike_id": "df07973696bb36139d9ba245828de490", "lon": -77.03186533333333, "rental_uris": {"ios": "https://dc.lft.to/lastmile_qr_scan", "android": "https://dc.lft.to/lastmile_qr_scan"}}, {"name": "a985eb004cb785d5aed265f2b4b4a369", "fusion_lat": 0.0, "type": "electric_scooter", "lat": 38.92882133333333, "is_reserved": 0, "is_disabled": 0, "fusion_lon": 0.0, "bike_id": "a985eb004cb785d5aed265f2b4b4a369", "lon": -77.0270645, "rental_uris": {"ios": "https://dc.lft.to/lastmile_qr_scan", "android": "https://dc.lft.to/lastmile_qr_scan"}},