{"data": {"bikes": [{"fusion_lat": 0.0, "bike_id": "42c1921e17a4df883e08f769e86c02d4", "fusion_lon": 0.0, "lon": -77.02960183333333, "lat": 38.924645166666664, "is_reserved": 0, "is_disabled": 0, "rental_uris": {"android": "https://dc.lft.to/lastmile_qr_scan", "ios": "https://dc.lft.to/lastmile_qr_scan"}, "name": "42c1921e17a4df883e08f769e86c02d4", "type": "electric_scooter"}, {"fusion_lat": 0.0, "bike_id": "169e3c03f5a5589fe82c3451f39175de", "fusion_lon": 0.0, "lon": -77.03198816666666, "lat": 38.91249416666667, "is_reserved": 0, "is_disabled": 0, "rental_uris": {"android": "https://dc.lft.to/lastmile_qr_scan", "ios": "https://dc.lft.to/lastmile_qr_scan"}, "name": "169e3c03f5a5589fe82c3451f39175de", "type": "electric_scooter"}, {"fusion_lat": 0.0, "bike_id": "cd5e06b3f5ad057965939825be1e2cc2", "fusion_lon": 0.0, "lon": -77.03351883333333, "lat": 38.924332166666666, "is_reserved": 0, "is_disabled": 0, "rental_uris": {"android": "https://dc.lft.to/lastmile_qr_scan", "ios": "https://dc.lft.to/lastmile_qr_scan"}, "name": "cd5e06b3f5ad057965939825be1e2cc2", "type": "electric_scooter"}, {"fusion_lat": 0.0, "bike_id": "01603dcd0e09c6573166e145f0a9d53e", "fusion_lon": 0.0, "lon": -76.99367683333334, "lat": 38.861417333333335, "is_reserved": 0, "is_disabled": 0, "rental_uris": {"android": "https://dc.lft.to/lastmile_qr_scan", "ios": "https://dc.lft.to/lastmile_qr_scan"}, "name": "01603dcd0e09c6573166e145f0a9d53e", "type": "electric_scooter"}, {"fusion_lat": 0.0, "bike_id": "41b3dc80b19618874bc7c3326ff05745", "fusion_lon": 0.0, "lon": -77.05780916666667, "lat": 38.905079, "is_reserved": 0, "is_disabled": 0, "rental_uris": {"android": "https://dc.lft.to/lastmile_qr_scan", "ios": "https://dc.lft.to/lastmile_qr_scan"}, "name": "41b3dc80b19618874bc7c3326ff05745", "type": "electric_scooter"}, {"fusion_lat": 0.0, "bike_id": "5d8d02003e0ac7667fbd4406cace776c", "fusion_lon": 0.0, "lon": -77.03175733333333, "lat": 38.9304945, "is_reserved": 0, "is_disabled": 0, "rental_uris": {"android": "https://dc.lft.to/lastmile_qr_scan", "ios": "https://dc.lft.to/lastmile_qr_scan"}, "name": "5d8d02003e0ac7667fbd4406cace776c", "type": "electric_scooter"}, {"fusion_lat": 0.0, "bike_id": "9518bd573aadb904a51de54fe3494cd0", "fusion_lon": 0.0, "lon": -77.0301385, "lat": 38.884404333333336, "is_reserved": 0, "is_disabled": 0, "rental_uris": {"android": "https://dc.lft.to/lastmile_qr_scan", "ios": "https://dc.lft.to/lastmile_qr_scan"}, "name": "9518bd573aadb904a51de54fe3494cd0", "type": "electric_scooter"}, {"fusion_lat": 0.0, "bike_id": "930573807e02404119937276c9b87795", "fusion_lon": 0.0, "lon": -77.04009583333334, "lat": 38.90377066666667, "is_reserved": 0, "is_disabled": 0, "rental_uris": {"android": "https://dc.lft.to/lastmile_qr_scan", "ios": "https://dc.lft.to/lastmile_qr_scan"}, "name": "930573807e02404119937276c9b87795", "type": "electric_scooter"}, {"fusion_lat": 0.0, "bike_id": "4f0811fbbfad99b525704f7335ed6956", "fusion_lon": 0.0, "lon": -77.0405935, "lat": 38.9094785, "is_reserved": 0, "is_disabled": 0, "rental_uris": {"android": "https://dc.lft.to/lastmile_qr_scan", "ios": "https://dc.lft.to/lastmile_qr_scan"}, "name": "4f0811fbbfad99b525704f7335ed6956", "type": "electric_scooter"}, {"fusion_lat": 0.0, "bike_id": "4753d1b06494c3872864d331a6279c0d", "fusion_lon": 0.0, "lon": -77.06887866666666, "lat": 38.904058666666664, "is_reserved": 0, "is_disabled": 0, "rental_uris": {"android": "https://dc.lft.to/lastmile_qr_scan", "ios": "https://dc.lft.to/lastmile_qr_scan"}, "name": "4753d1b06494c3872864d331a6279c0d", "type": "electric_bike"}, {"fusion_lat": 0.0, "bike_id": "81e17a8173ea97ff7237050febe4701c", "fusion_lon": 0.0, "lon": -77.00110933333333, "lat": 38.87437883333333, "is_reserved": 0, "is_disabled": 0, "rental_uris": {"android": "https://dc.lft.to/lastmile_qr_scan", "ios": "https://dc.lft.to/lastmile_qr_scan"}, "name": "81e17a8173ea97ff7237050febe4701c", "type": "electric_scooter"}, {"fusion_lat": 0.0, "bike_id": "515bab3411d70bcf5a6b9c0ca186ed0e", "fusion_lon": 0.0, "lon": -76.99019566666666, "lat": 38.901611333333335, "is_reserved": 0, "is_disabled": 0, "rental_uris": {"android": "https://dc.lft.to/lastmile_qr_scan", "ios": "https://dc.lft.to/lastmile_qr_scan"}, "name": "515bab3411d70bcf5a6b9c0ca186ed0e", "type": "electric_scooter"}, {"fusion_lat": 0.0, "bike_id": "53da5ce39ef8bb476226187d07b4f691", "fusion_lon": 0.0, "lon": -77.04406666666667, "lat": 38.909109, "is_reserved": 0, "is_disabled": 0, "rental_uris": {"android": "https://dc.lft.to/lastmile_qr_scan", "ios": "https://dc.lft.to/lastmile_qr_scan"}, "name": "53da5ce39ef8bb476226187d07b4f691", "type": "electric_scooter"}, {"fusion_lat": 0.0, "bike_id": "1b179551f9de0082e4d7a60ff3eb3e55", "fusion_lon": 0.0, "lon": -76.93068883333333, "lat": 38.889892333333336, "is_reserved": 0, "is_disabled": 0, "rental_uris": {"android": "https://dc.lft.to/lastmile_qr_scan", "ios": "https://dc.lft.to/lastmile_qr_scan"}, "name": "1b179551f9de0082e4d7a60ff3eb3e55", "type": "electric_scooter"}, {"fusion_lat": 0.0, "bike_id": "9e188dfe8f1e66a240e07d362e2cc115", "fusion_lon": 0.0, "lon": -76.957459, "lat": 38.884258833333334, "is_reserved": 0, "is_disabled": 0, "rental_uris": {"android": "https://dc.lft.to/lastmile_qr_scan", "ios": "https://dc.lft.to/lastmile_qr_scan"}, "name": "9e188dfe8f1e66a240e07d362e2cc115", "type": "electric_scooter"}, {"fusion_lat": 0.0, "bike_id": "e2440563edd70c491f0e7dd44084590a", "fusion_lon": 0.0, "lon": -77.03961933333333, "lat": 38.900214166666665, "is_reserved": 0, "is_disabled": 0, "rental_uris": {"android": "https://dc.lft.to/lastmile_qr_scan", "ios": "https://dc.lft.to/lastmile_qr_scan"}, "name": "e2440563edd70c491f0e7dd44084590a", "type": "electric_scooter"}, {"fusion_lat": 0.0, "bike_id": "7e09fc93d4d4cfbd59ca6b425acbde10", "fusion_lon": 0.0, "lon": -76.96363633333333, "lat": 38.93497216666667, "is_reserved": 0, "is_disabled": 0, "rental_uris": {"android": "https://dc.lft.to/lastmile_qr_scan", "ios": "https://dc.lft.to/lastmile_qr_scan"}, "name": "7e09fc93d4d4cfbd59ca6b425acbde10", "type": "electric_scooter"}, {"fusion_lat": 0.0, "bike_id": "000d7498133c2a4c9ce7e667ad2a4732", "fusion_lon": 0.0, "lon": -77.009196, "lat": 38.82788383333333, "is_reserved": 0, "is_disabled": 0, "rental_uris": {"android": "https://dc.lft.to/lastmile_qr_scan", "ios": "https://dc.lft.to/lastmile_qr_scan"}, "name": "000d7498133c2a4c9ce7e667ad2a4732", "type": "electric_bike"}, {"fusion_lat": 0.0, "bike_id": "4797651dcd82b282736b2b1cad5d1d7c", "fusion_lon": 0.0, "lon": -76.95894633333333, "lat": 38.890133166666665, "is_reserved": 0, "is_disabled": 0, "rental_uris": {"android": "https://dc.lft.to/lastmile_qr_scan", "ios": "https://dc.lft.to/lastmile_qr_scan"}, "name": "4797651dcd82b282736b2b1cad5d1d7c", "type": "electric_scooter"}, {"fusion_lat": 0.0, "bike_id": "c5e099cfd8e9f8c82d7f9371d3dbc52d", "fusion_lon": 0.0, "lon": -77.0330765, "lat": 38.900108, "is_reserved": 0, "is_disabled": 0, "rental_uris": {"android": "https://dc.lft.to/lastmile_qr_scan", "ios": "https://dc.lft.to/lastmile_qr_scan"}, "name": "c5e099cfd8e9f8c82d7f9371d3dbc52d", "type": "electric_scooter"}, {"fusion_lat": 0.0, "bike_id": "fdf1ec383eeb0bbe28e7523392c2e42c", "fusion_lon": 0.0, "lon": -77.02109916666667, "lat": 38.936877833333334, "is_reserved": 0, "is_disabled": 0, "rental_uris": {"android": "https://dc.lft.to/lastmile_qr_scan", "ios": "https://dc.lft.to/lastmile_qr_scan"}, "name": "fdf1ec383eeb0bbe28e7523392c2e42c", "type": "electric_scooter"}, {"fusion_lat": 0.0, "bike_id": "e75c3474cda78b7a7b5f45e98ad4ffc7", "fusion_lon": 0.0, "lon": -77.0075285, "lat": 38.90356366666666, "is_reserved": 0, "is_disabled": 0, "rental_uris": {"android": "https://dc.lft.to/lastmile_qr_scan", "ios": "https://dc.lft.to/lastmile_qr_scan"}, "name": "e75c3474cda78b7a7b5f45e98ad4ffc7", "type": "electric_scooter"}, {"fusion_lat": 0.0, "bike_id": "560a820fcd26d38b05b3f80b26ae307b", "fusion_lon": 0.0, "lon": -77.0413135, "lat": 38.92124666666667, "is_reserved": 0, "is_disabled": 0, "rental_uris": {"android": "https://dc.lft.to/lastmile_qr_scan", "ios": "https://dc.lft.to/lastmile_qr_scan"}, "name": "560a820fcd26d38b05b3f80b26ae307b", "type": "electric_scooter"}, {"fusion_lat": 0.0, "bike_id": "a062c0dcd2f8b231df90384f170cfe1f", "fusion_lon": 0.0, "lon": -77.03701466666666, "lat": 38.928016166666666, "is_reserved": 0, "is_disabled": 0, "rental_uris": {"android": "https://dc.lft.to/lastmile_qr_scan", "ios": "https://dc.lft.to/lastmile_qr_scan"}, "name": "a062c0dcd2f8b231df90384f170cfe1f", "type": "electric_scooter"}, {"fusion_lat": 0.0, "bike_id": "b4a315d2d80008b53ad65dbd1dd8ac88", "fusion_lon": 0.0, "lon": -77.0454015, "lat": 38.9024965, "is_reserved": 0, "is_disabled": 0, "rental_uris": {"android": "https://dc.lft.to/lastmile_qr_scan", "ios": "https://dc.lft.to/lastmile_qr_scan"}, "name": "b4a315d2d80008b53ad65dbd1dd8ac88", "type": "electric_scooter"}, {"fusion_lat": 0.0, "bike_id": "b1dfea87a15a6a572607d7a649de99be", "fusion_lon": 0.0, "lon": -77.04871583333333, "lat": 38.89230383333334, "is_reserved": 0, "is_disabled": 0, "rental_uris": {"android": "https://dc.lft.to/lastmile_qr_scan", "ios": "https://dc.lft.to/lastmile_qr_scan"}, "name": "b1dfea87a15a6a572607d7a649de99be", "type": "electric_scooter"}, {"fusion_lat": 0.0, "bike_id": "4b67ce7ef2c9242eaf1a5cf3b0ad9bc9", "fusion_lon": 0.0, "lon": -77.03019116666667, "lat": 38.899671166666664, "is_reserved": 0, "is_disabled": 0, "rental_uris": {"android": "https://dc.lft.to/lastmile_qr_scan", "ios": "https://dc.lft.to/lastmile_qr_scan"}, "name": "4b67ce7ef2c9242eaf1a5cf3b0ad9bc9", "type": "electric_scooter"}, {"fusion_lat": 0.0, "bike_id": "b8cef85e06ab438ecbc90ac0ab8331a2", "fusion_lon": 0.0, "lon": -77.0436745, "lat": 38.892349333333335, "is_reserved": 0, "is_disabled": 0, "rental_uris": {"android": "https://dc.lft.to/lastmile_qr_scan", "ios": "https://dc.lft.to/lastmile_qr_scan"}, "name": "b8cef85e06ab438ecbc90ac0ab8331a2", "type": "electric_scooter"}, {"fusion_lat": 0.0, "bike_id": "fd6b1450fd47a838e29d278c509de60c", "fusion_lon": 0.0, "lon": -77.03804066666666, "lat": 38.9309195, "is_reserved": 0, "is_disabled": 0, "rental_uris": {"android": "https://dc.lft.to/lastmile_qr_scan", "ios": "https://dc.lft.to/lastmile_qr_scan"}, "name": "fd6b1450fd47a838e29d278c509de60c", "type": "electric_scooter"}, {"fusion_lat": 0.0, "bike_id": "a27a265922dc73e17daa0a659982c045", "fusion_lon": 0.0, "lon": -77.00570483333334, "lat": 38.90628783333333, "is_reserved": 0, "is_disabled": 0, "rental_uris": {"android": "https://dc.lft.to/lastmile_qr_scan", "ios": "https://dc.lft.to/lastmile_qr_scan"}, "name": "a27a265922dc73e17daa0a659982c045", "type": "electric_scooter"}, {"fusion_lat": 0.0, "bike_id": "d4bd854fe7c445acad57c0be1bb5a633", "fusion_lon": 0.0, "lon": -77.044833, "lat": 38.92238916666667, "is_reserved": 0, "is_disabled": 0, "rental_uris": {"android": "https://dc.lft.to/lastmile_qr_scan", "ios": "https://dc.lft.to/lastmile_qr_scan"}, "name": "d4bd854fe7c445acad57c0be1bb5a633", "type": "electric_scooter"}, {"fusion_lat": 0.0, "bike_id": "42754a9adabf528a7bb0b5ff6a9efe82", "fusion_lon": 0.0, "lon": -77.01404833333333, "lat": 38.881251666666664, "is_reserved": 0, "is_disabled": 0, "rental_uris": {"android": "https://dc.lft.to/lastmile_qr_scan", "ios": "https://dc.lft.to/lastmile_qr_scan"}, "name": "42754a9adabf528a7bb0b5ff6a9efe82", "type": "electric_scooter"}, {"fusion_lat": 0.0, "bike_id": "eded57fe7a8bc715991c36ee8e8ccaf2", "fusion_lon": 0.0, "lon": -77.03228683333333, "lat": 38.925779166666665, "is_reserved": 0, "is_disabled": 0, "rental_uris": {"android": "https://dc.lft.to/lastmile_qr_scan", "ios": "https://dc.lft.to/lastmile_qr_scan"}, "name": "eded57fe7a8bc715991c36ee8e8ccaf2", "type": "electric_scooter"}, {"fusion_lat": 0.0, "bike_id": "dcb2f5adbc05ee8fb0b3c09a83c2e5d6", "fusion_lon": 0.0, "lon": -77.11706733333334, "lat": 38.86746733333333, "is_reserved": 0, "is_disabled": 0, "rental_uris": {"android": "https://dc.lft.to/lastmile_qr_scan", "ios": "https://dc.lft.to/lastmile_qr_scan"}, "name": "dcb2f5adbc05ee8fb0b3c09a83c2e5d6", "type": "electric_bike"}, {"fusion_lat": 0.0, "bike_id": "234c3cff48cd2cd9886530449221ef95", "fusion_lon": 0.0, "lon": -77.0361045, "lat": 38.93678216666667, "is_reserved": 0, "is_disabled": 0, "rental_uris": {"android": "https://dc.lft.to/lastmile_qr_scan", "ios": "https://dc.lft.to/lastmile_qr_scan"}, "name": "234c3cff48cd2cd9886530449221ef95", "type": "electric_scooter"}, {"fusion_lat": 0.0, "bike_id": "895b264e83c1b69d1260335eb8721a59", "fusion_lon": 0.0, "lon": -77.020947, "lat": 38.9326475, "is_reserved": 0, "is_disabled": 0, "rental_uris": {"android": "https://dc.lft.to/lastmile_qr_scan", "ios": "https://dc.lft.to/lastmile_qr_scan"}, "name": "895b264e83c1b69d1260335eb8721a59", "type": "electric_scooter"}, {"fusion_lat": 0.0, "bike_id": "fa98b2dd8344f6a0f7efa644b13ab997", "fusion_lon": 0.0, "lon": -76.99800883333333, "lat": 38.82906833333333, "is_reserved": 0, "is_disabled": 0, "rental_uris": {"android": "https://dc.lft.to/lastmile_qr_scan", "ios": "https://dc.lft.to/lastmile_qr_scan"}, "name": "fa98b2dd8344f6a0f7efa644b13ab997", "type": "electric_bike"}, {"fusion_lat": 0.0, "bike_id": "e6f6773bda1881188e3403bb8dcb64bd", "fusion_lon": 0.0, "lon": -77.023958, "lat": 38.91723316666667, "is_reserved": 0, "is_disabled": 0, "rental_uris": {"android": "https://dc.lft.to/lastmile_qr_scan", "ios": "https://dc.lft.to/lastmile_qr_scan"}, "name": "e6f6773bda1881188e3403bb8dcb64bd", "type": "electric_scooter"}, {"fusion_lat": 0.0, "bike_id": "b59895ec51f5af903c4ccf949f160fd0", "fusion_lon": 0.0, "lon": -77.02218733333333, "lat": 38.935500166666664, "is_reserved": 0, "is_disabled": 0, "rental_uris": {"android": "https://dc.lft.to/lastmile_qr_scan", "ios": "https://dc.lft.to/lastmile_qr_scan"}, "name": "b59895ec51f5af903c4ccf949f160fd0", "type": "electric_scooter"}, {"fusion_lat": 0.0, "bike_id": "abc479cc221327891cb3c7eddd6b4214", "fusion_lon": 0.0, "lon": -77.02316866666666, "lat": 38.894808166666664, "is_reserved": 0, "is_disabled": 0, "rental_uris": {"android": "https://dc.lft.to/lastmile_qr_scan", "ios": "https://dc.lft.to/lastmile_qr_scan"}, "name": "abc479cc221327891cb3c7eddd6b4214", "type": "electric_scooter"}, {"fusion_lat": 0.0, "bike_id": "8cf69c920e5dad47e031cdad7fa54c20", "fusion_lon": 0.0, "lon": -77.03089516666667, "lat": 38.9105365, "is_reserved": 0, "is_disabled": 0, "rental_uris": {"android": "https://dc.lft.to/lastmile_qr_scan", "ios": "https://dc.lft.to/lastmile_qr_scan"}, "name": "8cf69c920e5dad47e031cdad7fa54c20", "type": "electric_scooter"}, {"fusion_lat": 0.0, "bike_id": "eb47dbf20c759b99b46763e2a6ab7e04", "fusion_lon": 0.0, "lon": -77.044974, "lat": 38.902451166666665, "is_reserved": 0, "is_disabled": 0, "rental_uris": {"android": "https://dc.lft.to/lastmile_qr_scan", "ios": "https://dc.lft.to/lastmile_qr_scan"}, "name": "eb47dbf20c759b99b46763e2a6ab7e04", "type": "electric_scooter"}, {"fusion_lat": 0.0, "bike_id": "abff34a99dcb7121c7aa7bfc421a05f5", "fusion_lon": 0.0, "lon": -77.03185016666667, "lat": 38.911224833333335, "is_reserved": 0, "is_disabled": 0, "rental_uris": {"android": "https://dc.lft.to/lastmile_qr_scan", "ios": "https://dc.lft.to/lastmile_qr_scan"}, "name": "abff34a99dcb7121c7aa7bfc421a05f5", "type": "electric_scooter"}, {"fusion_lat": 0.0, "bike_id": "1891b9d8fd3a40fb699d791866adb465", "fusion_lon": 0.0, "lon": -77.02865766666666, "lat": 38.921328833333334, "is_reserved": 0, "is_disabled": 0, "rental_uris": {"android": "https://dc.lft.to/lastmile_qr_scan", "ios": "https://dc.lft.to/lastmile_qr_scan"}, "name": "1891b9d8fd3a40fb699d791866adb465", "type": "electric_bike"}, {"fusion_lat": 0.0, "bike_id": "8425febc50675dcf474d8a1bd2095910", "fusion_lon": 0.0, "lon": -77.02182416666666, "lat": 38.90579783333333, "is_reserved": 0, "is_disabled": 0, "rental_uris": {"android": "https://dc.lft.to/lastmile_qr_scan", "ios": "https://dc.lft.to/lastmile_qr_scan"}, "name": "8425febc50675dcf474d8a1bd2095910", "type": "electric_scooter"}, {"fusion_lat": 0.0, "bike_id": "23133cc0e840e8a0c6865a0ec0b80934", "fusion_lon": 0.0, "lon": -77.07621033333334, "lat": 38.96573883333333, "is_reserved": 0, "is_disabled": 0, "rental_uris": {"android": "https://dc.lft.to/lastmile_qr_scan", "ios": "https://dc.lft.to/lastmile_qr_scan"}, "name": "23133cc0e840e8a0c6865a0ec0b80934", "type": "electric_bike"}, {"fusion_lat": 0.0, "bike_id": "e289afd97cfe6323628b8fee5a962737", "fusion_lon": 0.0, "lon": -76.99619133333333, "lat": 38.90894883333333, "is_reserved": 0, "is_disabled": 0, "rental_uris": {"android": "https://dc.lft.to/lastmile_qr_scan", "ios": "https://dc.lft.to/lastmile_qr_scan"}, "name": "e289afd97cfe6323628b8fee5a962737", "type": "electric_scooter"}, {"fusion_lat": 0.0, "bike_id": "fdb3ca0aa4055174d7e3f7e401e5b368", "fusion_lon": 0.0, "lon": -77.05188633333333, "lat": 38.90328733333333, "is_reserved": 0, "is_disabled": 0, "rental_uris": {"android": "https://dc.lft.to/lastmile_qr_scan", "ios": "https://dc.lft.to/lastmile_qr_scan"}, "name": "fdb3ca0aa4055174d7e3f7e401e5b368", "type": "electric_scooter"}, {"fusion_lat": 0.0, "bike_id": "705a918b9f2b61b5d3eb1cc008498a58", "fusion_lon": 0.0, "lon": -76.95465583333333, "lat": 38.88650116666667, "is_reserved": 0, "is_disabled": 0, "rental_uris": {"android": "https://dc.lft.to/lastmile_qr_scan", "ios": "https://dc.lft.to/lastmile_qr_scan"}, "name": "705a918b9f2b61b5d3eb1cc008498a58", "type": "electric_scooter"}, {"fusion_lat": 0.0, "bike_id": "ee32b1144733e93149fffd9c63055043", "fusion_lon": 0.0, "lon": -77.0416315, "lat": 38.90490633333334, "is_reserved": 0, "is_disabled": 0, "rental_uris": {"android": "https://dc.lft.to/lastmile_qr_scan", "ios": "https://dc.lft.to/lastmile_qr_scan"}, "name": "ee32b1144733e93149fffd9c63055043", "type": "electric_scooter"}, {"fusion_lat": 0.0, "bike_id": "9292daa93a83908401fc18efe836c586", "fusion_lon": 0.0, "lon": -77.05391633333333, "lat": 38.92793483333333, "is_reserved": 0, "is_disabled": 0, "rental_uris": {"android": "https://dc.lft.to/lastmile_qr_scan", "ios": "https://dc.lft.to/lastmile_qr_scan"}, "name": "9292daa93a83908401fc18efe836c586", "type": "electric_scooter"}, {"fusion_lat": 0.0, "bike_id": "31a18a33b1b19b1205db814f58283e80", "fusion_lon": 0.0, "lon": -77.04301133333334, "lat": 38.908890166666666, "is_reserved": 0, "is_disabled": 0, "rental_uris": {"android": "https://dc.lft.to/lastmile_qr_scan", "ios": "https://dc.lft.to/lastmile_qr_scan"}, "name": "31a18a33b1b19b1205db814f58283e80", "type": "electric_scooter"}, {"fusion_lat": 0.0, "bike_id": "f8c464cc63176f5962c567c455cde7f7", "fusion_lon": 0.0, "lon": -77.0385415, "lat": 38.911943666666666, "is_reserved": 0, "is_disabled": 0, "rental_uris": {"android": "https://dc.lft.to/lastmile_qr_scan", "ios": "https://dc.lft.to/lastmile_qr_scan"}, "name": "f8c464cc63176f5962c567c455cde7f7", "type": "electric_scooter"}, {"fusion_lat": 0.0, "bike_id": "a2cab56f379a9078986f88495f353cc4", "fusion_lon": 0.0, "lon": -77.03183316666667, "lat": 38.91647316666667, "is_reserved": 0, "is_disabled": 0, "rental_uris": {"android": "https://dc.lft.to/lastmile_qr_scan", "ios": "https://dc.lft.to/lastmile_qr_scan"}, "name": "a2cab56f379a9078986f88495f353cc4", "type": "electric_scooter"}, {"fusion_lat": 0.0, "bike_id": "afc8a15b8e4a7d37bf839172ceb773a2", "fusion_lon": 0.0, "lon": -77.01342433333333, "lat": 38.87815916666667, "is_reserved": 0, "is_disabled": 0, "rental_uris": {"android": "https://dc.lft.to/lastmile_qr_scan", "ios": "https://dc.lft.to/lastmile_qr_scan"}, "name": "afc8a15b8e4a7d37bf839172ceb773a2", "type": "electric_scooter"}, {"fusion_lat": 0.0, "bike_id": "1312dff0c7f0af79096ae45711625c63", "fusion_lon": 0.0, "lon": -77.028729, "lat": 38.91700933333333, "is_reserved": 0, "is_disabled": 0, "rental_uris": {"android": "https://dc.lft.to/lastmile_qr_scan", "ios": "https://dc.lft.to/lastmile_qr_scan"}, "name": "1312dff0c7f0af79096ae45711625c63", "type": "electric_scooter"}, {"fusion_lat": 0.0, "bike_id": "717f38ff54963650841eecd7ad867387", "fusion_lon": 0.0, "lon": -77.02093066666667, "lat": 38.88180883333333, "is_reserved": 0, "is_disabled": 0, "rental_uris": {"android": "https://dc.lft.to/lastmile_qr_scan", "ios": "https://dc.lft.to/lastmile_qr_scan"}, "name": "717f38ff54963650841eecd7ad867387", "type": "electric_scooter"}, {"fusion_lat": 0.0, "bike_id": "582bd9219ebe88b988550f08c14778fa", "fusion_lon": 0.0, "lon": -77.0284275, "lat": 38.934210666666665, "is_reserved": 0, "is_disabled": 0, "rental_uris": {"android": "https://dc.lft.to/lastmile_qr_scan", "ios": "https://dc.lft.to/lastmile_qr_scan"}, "name": "582bd9219ebe88b988550f08c14778fa", "type": "electric_scooter"}, {"fusion_lat": 0.0, "bike_id": "61bf36333d2bcace21592fcf98cc93ab", "fusion_lon": 0.0, "lon": -77.02282783333334, "lat": 38.90785966666667, "is_reserved": 0, "is_disabled": 0, "rental_uris": {"android": "https://dc.lft.to/lastmile_qr_scan", "ios": "https://dc.lft.to/lastmile_qr_scan"}, "name": "61bf36333d2bcace21592fcf98cc93ab", "type": "electric_scooter"}, {"fusion_lat": 0.0, "bike_id": "8d61a5be637fc6dabae309345c9380f5", "fusion_lon": 0.0, "lon": -77.0376285, "lat": 38.907701833333334, "is_reserved": 0, "is_disabled": 0, "rental_uris": {"android": "https://dc.lft.to/lastmile_qr_scan", "ios": "https://dc.lft.to/lastmile_qr_scan"}, "name": "8d61a5be637fc6dabae309345c9380f5", "type": "electric_scooter"}, {"fusion_lat": 0.0, "bike_id": "a1690947a81ce4ee319d10730b25cbdd", "fusion_lon": 0.0, "lon": -77.0276925, "lat": 38.89193916666667, "is_reserved": 0, "is_disabled": 0, "rental_uris": {"android": "https://dc.lft.to/lastmile_qr_scan", "ios": "https://dc.lft.to/lastmile_qr_scan"}, "name": "a1690947a81ce4ee319d10730b25cbdd", "type": "electric_scooter"}, {"fusion_lat": 0.0, "bike_id": "6d37680722781180cd3e17ddc8ba962e", "fusion_lon": 0.0, "lon": -77.03388633333333, "lat": 38.90721033333333, "is_reserved": 0, "is_disabled": 0, "rental_uris": {"android": "https://dc.lft.to/lastmile_qr_scan", "ios": "https://dc.lft.to/lastmile_qr_scan"}, "name": "6d37680722781180cd3e17ddc8ba962e", "type": "electric_scooter"}, {"fusion_lat": 0.0, "bike_id": "a80b2c3b45b16275ae36656f2579e0f2", "fusion_lon": 0.0, "lon": -77.02212116666666, "lat": 38.91416866666667, "is_reserved": 0, "is_disabled": 0, "rental_uris": {"android": "https://dc.lft.to/lastmile_qr_scan", "ios": "https://dc.lft.to/lastmile_qr_scan"}, "name": "a80b2c3b45b16275ae36656f2579e0f2", "type": "electric_scooter"}, {"fusion_lat": 0.0, "bike_id": "abe6e1cfbd7a395e52ba575b647f12b7", "fusion_lon": 0.0, "lon": -77.0663655, "lat": 38.905911, "is_reserved": 0, "is_disabled": 0, "rental_uris": {"android": "https://dc.lft.to/lastmile_qr_scan", "ios": "https://dc.lft.to/lastmile_qr_scan"}, "name": "abe6e1cfbd7a395e52ba575b647f12b7", "type": "electric_scooter"}, {"fusion_lat": 0.0, "bike_id": "7dc7509eecb9dfcd619be47e90395f2a", "fusion_lon": 0.0, "lon": -77.0245795, "lat": 38.9351575, "is_reserved": 0, "is_disabled": 0, "rental_uris": {"android": "https://dc.lft.to/lastmile_qr_scan", "ios": "https://dc.lft.to/lastmile_qr_scan"}, "name": "7dc7509eecb9dfcd619be47e90395f2a", "type": "electric_scooter"}, {"fusion_lat": 0.0, "bike_id": "8645414cd01ea1694537400eae301663", "fusion_lon": 0.0, "lon": -76.9819195, "lat": 38.96740283333333, "is_reserved": 0, "is_disabled": 0, "rental_uris": {"android": "https://dc.lft.to/lastmile_qr_scan", "ios": "https://dc.lft.to/lastmile_qr_scan"}, "name": "8645414cd01ea1694537400eae301663", "type": "electric_bike"}, {"fusion_lat": 0.0, "bike_id": "ff7c7c008ea33979ae9b643be0cd87af", "fusion_lon": 0.0, "lon": -77.04104866666667, "lat": 38.898384666666665, "is_reserved": 0, "is_disabled": 0, "rental_uris": {"android": "https://dc.lft.to/lastmile_qr_scan", "ios": "https://dc.lft.to/lastmile_qr_scan"}, "name": "ff7c7c008ea33979ae9b643be0cd87af", "type": "electric_scooter"}, {"fusion_lat": 0.0, "bike_id": "b37237426b9fb9e31749081ce5b46f25", "fusion_lon": 0.0, "lon": -77.007435, "lat": 38.898388, "is_reserved": 0, "is_disabled": 0, "rental_uris": {"android": "https://dc.lft.to/lastmile_qr_scan", "ios": "https://dc.lft.to/lastmile_qr_scan"}, "name": "b37237426b9fb9e31749081ce5b46f25", "type": "electric_scooter"}, {"fusion_lat": 0.0, "bike_id": "6934d8c821c28fcedf31ec88921d1f54", "fusion_lon": 0.0, "lon": -77.0432055, "lat": 38.90877483333333, "is_reserved": 0, "is_disabled": 0, "rental_uris": {"android": "https://dc.lft.to/lastmile_qr_scan", "ios": "https://dc.lft.to/lastmile_qr_scan"}, "name": "6934d8c821c28fcedf31ec88921d1f54", "type": "electric_scooter"}, {"fusion_lat": 0.0, "bike_id": "7f1d53215fa293bb83da6807f1c5be8a", "fusion_lon": 0.0, "lon": -76.97301166666666, "lat": 38.96316733333333, "is_reserved": 0, "is_disabled": 0, "rental_uris": {"android": "https://dc.lft.to/lastmile_qr_scan", "ios": "https://dc.lft.to/lastmile_qr_scan"}, "name": "7f1d53215fa293bb83da6807f1c5be8a", "type": "electric_bike"}, {"fusion_lat": 0.0, "bike_id": "591cabb025f0cfbe640ae38b709de053", "fusion_lon": 0.0, "lon": -77.03214233333334, "lat": 38.916942166666665, "is_reserved": 0, "is_disabled": 0, "rental_uris": {"android": "https://dc.lft.to/lastmile_qr_scan", "ios": "https://dc.lft.to/lastmile_qr_scan"}, "name": "591cabb025f0cfbe640ae38b709de053", "type": "electric_scooter"}, {"fusion_lat": 0.0, "bike_id": "a6c2e4a6f66ced096558374094dcd58e", "fusion_lon": 0.0, "lon": -77.0557525, "lat": 38.91595216666666, "is_reserved": 0, "is_disabled": 0, "rental_uris": {"android": "https://dc.lft.to/lastmile_qr_scan", "ios": "https://dc.lft.to/lastmile_qr_scan"}, "name": "a6c2e4a6f66ced096558374094dcd58e", "type": "electric_scooter"}, {"fusion_lat": 0.0, "bike_id": "63a8797a5ef95a10a421459e3bde194c", "fusion_lon": 0.0, "lon": -77.0283015, "lat": 38.905106333333336, "is_reserved": 0, "is_disabled": 0, "rental_uris": {"android": "https://dc.lft.to/lastmile_qr_scan", "ios": "https://dc.lft.to/lastmile_qr_scan"}, "name": "63a8797a5ef95a10a421459e3bde194c", "type": "electric_scooter"}, {"fusion_lat": 0.0, "bike_id": "8214c11de62f51963f3225b836cef046", "fusion_lon": 0.0, "lon": -76.94568833333334, "lat": 38.866203166666665, "is_reserved": 0, "is_disabled": 0, "rental_uris": {"android": "https://dc.lft.to/lastmile_qr_scan", "ios": "https://dc.lft.to/lastmile_qr_scan"}, "name": "8214c11de62f51963f3225b836cef046", "type": "electric_bike"}, {"fusion_lat": 0.0, "bike_id": "de09032d9e2e43b6f654b0802a24d344", "fusion_lon": 0.0, "lon": -77.02252533333333, "lat": 38.92420366666666, "is_reserved": 0, "is_disabled": 0, "rental_uris": {"android": "https://dc.lft.to/lastmile_qr_scan", "ios": "https://dc.lft.to/lastmile_qr_scan"}, "name": "de09032d9e2e43b6f654b0802a24d344", "type": "electric_scooter"}, {"fusion_lat": 0.0, "bike_id": "5c1da675472f3ca8ec38280f000e3a42", "fusion_lon": 0.0, "lon": -77.03981916666666, "lat": 38.925847, "is_reserved": 0, "is_disabled": 0, "rental_uris": {"android": "https://dc.lft.to/lastmile_qr_scan", "ios": "https://dc.lft.to/lastmile_qr_scan"}, "name": "5c1da675472f3ca8ec38280f000e3a42", "type": "electric_scooter"}, {"fusion_lat": 0.0, "bike_id": "3e97ad5d671fde4e3b69a6a0fc2729f1", "fusion_lon": 0.0, "lon": -77.06122816666667, "lat": 38.943431833333335, "is_reserved": 0, "is_disabled": 0, "rental_uris": {"android": "https://dc.lft.to/lastmile_qr_scan", "ios": "https://dc.lft.to/lastmile_qr_scan"}, "name": "3e97ad5d671fde4e3b69a6a0fc2729f1", "type": "electric_scooter"}, {"fusion_lat": 0.0, "bike_id": "74492addcac808f0fc27c212433888b6", "fusion_lon": 0.0, "lon": -77.02965033333334, "lat": 38.917262666666666, "is_reserved": 0, "is_disabled": 0, "rental_uris": {"android": "https://dc.lft.to/lastmile_qr_scan", "ios": "https://dc.lft.to/lastmile_qr_scan"}, "name": "74492addcac808f0fc27c212433888b6", "type": "electric_scooter"}, {"fusion_lat": 0.0, "bike_id": "85a5403774c03dfef947cba2e1fee07d", "fusion_lon": 0.0, "lon": -77.03169016666666, "lat": 38.9033575, "is_reserved": 0, "is_disabled": 0, "rental_uris": {"android": "https://dc.lft.to/lastmile_qr_scan", "ios": "https://dc.lft.to/lastmile_qr_scan"}, "name": "85a5403774c03dfef947cba2e1fee07d", "type": "electric_scooter"}, {"fusion_lat": 0.0, "bike_id": "7ece4a818d71f914da314cd03088dfa4", "fusion_lon": 0.0, "lon": -77.05193066666666, "lat": 38.92417566666666, "is_reserved": 0, "is_disabled": 0, "rental_uris": {"android": "https://dc.lft.to/lastmile_qr_scan", "ios": "https://dc.lft.to/lastmile_qr_scan"}, "name": "7ece4a818d71f914da314cd03088dfa4", "type": "electric_scooter"}, {"fusion_lat": 0.0, "bike_id": "5fa7bc46f9699ec81f60ac1bd87ff8e2", "fusion_lon": 0.0, "lon": -77.05609916666667, "lat": 38.931599, "is_reserved": 0, "is_disabled": 0, "rental_uris": {"android": "https://dc.lft.to/lastmile_qr_scan", "ios": "https://dc.lft.to/lastmile_qr_scan"}, "name": "5fa7bc46f9699ec81f60ac1bd87ff8e2", "type": "electric_scooter"}, {"fusion_lat": 0.0, "bike_id": "a494358929b7fde45fb76ab22955743e", "fusion_lon": 0.0, "lon": -76.9775065, "lat": 38.8714755, "is_reserved": 0, "is_disabled": 0, "rental_uris": {"android": "https://dc.lft.to/lastmile_qr_scan", "ios": "https://dc.lft.to/lastmile_qr_scan"}, "name": "a494358929b7fde45fb76ab22955743e", "type": "electric_scooter"}, {"fusion_lat": 0.0, "bike_id": "5bc95119a716cb2129ef989e5315d770", "fusion_lon": 0.0, "lon": -77.0338095, "lat": 38.9215965, "is_reserved": 0, "is_disabled": 0, "rental_uris": {"android": "https://dc.lft.to/lastmile_qr_scan", "ios": "https://dc.lft.to/lastmile_qr_scan"}, "name": "5bc95119a716cb2129ef989e5315d770", "type": "electric_scooter"}, {"fusion_lat": 0.0, "bike_id": "679beda6d237539c5e97eecc02692722", "fusion_lon": 0.0, "lon": -77.0610505, "lat": 38.939478333333334, "is_reserved": 0, "is_disabled": 0, "rental_uris": {"android": "https://dc.lft.to/lastmile_qr_scan", "ios": "https://dc.lft.to/lastmile_qr_scan"}, "name": "679beda6d237539c5e97eecc02692722", "type": "electric_scooter"}, {"fusion_lat": 0.0, "bike_id": "bfe037f22fa006dcfe1c7cc5e2833d46", "fusion_lon": 0.0, "lon": -77.053828, "lat": 38.92763583333333, "is_reserved": 0, "is_disabled": 0, "rental_uris": {"android": "https://dc.lft.to/lastmile_qr_scan", "ios": "https://dc.lft.to/lastmile_qr_scan"}, "name": "bfe037f22fa006dcfe1c7cc5e2833d46", "type": "electric_scooter"}, {"fusion_lat": 0.0, "bike_id": "029626bd122f7a7e0135e7490d9570f6", "fusion_lon": 0.0, "lon": -77.04117783333334, "lat": 38.902557, "is_reserved": 0, "is_disabled": 0, "rental_uris": {"android": "https://dc.lft.to/lastmile_qr_scan", "ios": "https://dc.lft.to/lastmile_qr_scan"}, "name": "029626bd122f7a7e0135e7490d9570f6", "type": "electric_scooter"}, {"fusion_lat": 0.0, "bike_id": "798ee509177abc6f537ec7e2af8368f7", "fusion_lon": 0.0, "lon": -77.02298316666666, "lat": 38.92669733333334, "is_reserved": 0, "is_disabled": 0, "rental_uris": {"android": "https://dc.lft.to/lastmile_qr_scan", "ios": "https://dc.lft.to/lastmile_qr_scan"}, "name": "798ee509177abc6f537ec7e2af8368f7", "type": "electric_scooter"}, {"fusion_lat": 0.0, "bike_id": "d96c9cdd4a7f6fc9673451ef75b3845b", "fusion_lon": 0.0, "lon": -77.03423766666667, "lat": 38.904263, "is_reserved": 0, "is_disabled": 0, "rental_uris": {"android": "https://dc.lft.to/lastmile_qr_scan", "ios": "https://dc.lft.to/lastmile_qr_scan"}, "name": "d96c9cdd4a7f6fc9673451ef75b3845b", "type": "electric_scooter"}, {"fusion_lat": 0.0, "bike_id": "4d27363e8165880f1aa1151f292fa1fc", "fusion_lon": 0.0, "lon": -76.93059083333333, "lat": 38.89849866666667, "is_reserved": 0, "is_disabled": 0, "rental_uris": {"android": "https://dc.lft.to/lastmile_qr_scan", "ios": "https://dc.lft.to/lastmile_qr_scan"}, "name": "4d27363e8165880f1aa1151f292fa1fc", "type": "electric_scooter"}, {"fusion_lat": 0.0, "bike_id": "9da6e892f39291843f6468808dc7b98f", "fusion_lon": 0.0, "lon": -77.03205783333334, "lat": 38.913878833333335, "is_reserved": 0, "is_disabled": 0, "rental_uris": {"android": "https://dc.lft.to/lastmile_qr_scan", "ios": "https://dc.lft.to/lastmile_qr_scan"}, "name": "9da6e892f39291843f6468808dc7b98f", "type": "electric_scooter"}, {"fusion_lat": 0.0, "bike_id": "ff08fac5cf402a1abc3bd644a81c1f0c", "fusion_lon": 0.0, "lon": -76.9870645, "lat": 38.8669855, "is_reserved": 0, "is_disabled": 0, "rental_uris": {"android": "https://dc.lft.to/lastmile_qr_scan", "ios": "https://dc.lft.to/lastmile_qr_scan"}, "name": "ff08fac5cf402a1abc3bd644a81c1f0c", "type": "electric_scooter"}, {"fusion_lat": 0.0, "bike_id": "4a48fed8c4c1ca049e2050e4df7bfd80", "fusion_lon": 0.0, "lon": -76.98229366666666, "lat": 38.86892183333333, "is_reserved": 0, "is_disabled": 0, "rental_uris": {"android": "https://dc.lft.to/lastmile_qr_scan", "ios": "https://dc.lft.to/lastmile_qr_scan"}, "name": "4a48fed8c4c1ca049e2050e4df7bfd80", "type": "electric_scooter"}, {"fusion_lat": 0.0, "bike_id": "73ada2cc4939c14ba8239aaec6b74a98", "fusion_lon": 0.0, "lon": -77.03275433333333, "lat": 38.91996816666666, "is_reserved": 0, "is_disabled": 0, "rental_uris": {"android": "https://dc.lft.to/lastmile_qr_scan", "ios": "https://dc.lft.to/lastmile_qr_scan"}, "name": "73ada2cc4939c14ba8239aaec6b74a98", "type": "electric_scooter"}, {"fusion_lat": 0.0, "bike_id": "d44f0b42df8ffeaa075dc0228b869b52", "fusion_lon": 0.0, "lon": -77.04864916666666, "lat": 38.89220233333333, "is_reserved": 0, "is_disabled": 0, "rental_uris": {"android": "https://dc.lft.to/lastmile_qr_scan", "ios": "https://dc.lft.to/lastmile_qr_scan"}, "name": "d44f0b42df8ffeaa075dc0228b869b52", "type": "electric_scooter"}, {"fusion_lat": 0.0, "bike_id": "136715b00d6336b3d58a3bf01d0c5b39", "fusion_lon": 0.0, "lon": -76.99925783333333, "lat": 38.843132, "is_reserved": 0, "is_disabled": 0, "rental_uris": {"android": "https://dc.lft.to/lastmile_qr_scan", "ios": "https://dc.lft.to/lastmile_qr_scan"}, "name": "136715b00d6336b3d58a3bf01d0c5b39", "type": "electric_scooter"}, {"fusion_lat": 0.0, "bike_id": "3154d72b0f0136ba555ad20bc9f69988", "fusion_lon": 0.0, "lon": -77.01822633333333, "lat": 38.92270533333333, "is_reserved": 0, "is_disabled": 0, "rental_uris": {"android": "https://dc.lft.to/lastmile_qr_scan", "ios": "https://dc.lft.to/lastmile_qr_scan"}, "name": "3154d72b0f0136ba555ad20bc9f69988", "type": "electric_scooter"}, {"fusion_lat": 0.0, "bike_id": "c954250ba415311dcffe695eaaedf013", "fusion_lon": 0.0, "lon": -77.024503, "lat": 38.937419, "is_reserved": 0, "is_disabled": 0, "rental_uris": {"android": "https://dc.lft.to/lastmile_qr_scan", "ios": "https://dc.lft.to/lastmile_qr_scan"}, "name": "c954250ba415311dcffe695eaaedf013", "type": "electric_scooter"}, {"fusion_lat": 0.0, "bike_id": "bc708345b80adb6b9d3556125e9fd099", "fusion_lon": 0.0, "lon": -77.04500533333334, "lat": 38.903600833333336, "is_reserved": 0, "is_disabled": 0, "rental_uris": {"android": "https://dc.lft.to/lastmile_qr_scan", "ios": "https://dc.lft.to/lastmile_qr_scan"}, "name": "bc708345b80adb6b9d3556125e9fd099", "type": "electric_scooter"}, {"fusion_lat": 0.0, "bike_id": "863e4248d69ad3c0e597fac2323a6f6d", "fusion_lon": 0.0, "lon": -77.01194133333334, "lat": 38.9119065, "is_reserved": 0, "is_disabled": 0, "rental_uris": {"android": "https://dc.lft.to/lastmile_qr_scan", "ios": "https://dc.lft.to/lastmile_qr_scan"}, "name": "863e4248d69ad3c0e597fac2323a6f6d", "type": "electric_scooter"}, {"fusion_lat": 0.0, "bike_id": "2c61e0b686f50424a8c8c60bb5cdbe94", "fusion_lon": 0.0, "lon": -77.0104375, "lat": 38.897301666666664, "is_reserved": 0, "is_disabled": 0, "rental_uris": {"android": "https://dc.lft.to/lastmile_qr_scan", "ios": "https://dc.lft.to/lastmile_qr_scan"}, "name": "2c61e0b686f50424a8c8c60bb5cdbe94", "type": "electric_scooter"}, {"fusion_lat": 0.0, "bike_id": "cc459099c23afa2957e7c086dffd278c", "fusion_lon": 0.0, "lon": -77.02054616666666, "lat": 38.95755883333333, "is_reserved": 0, "is_disabled": 0, "rental_uris": {"android": "https://dc.lft.to/lastmile_qr_scan", "ios": "https://dc.lft.to/lastmile_qr_scan"}, "name": "cc459099c23afa2957e7c086dffd278c", "type": "electric_bike"}, {"fusion_lat": 0.0, "bike_id": "48feaa1c03176da18a36051483ede075", "fusion_lon": 0.0, "lon": -77.114463, "lat": 38.881768666666666, "is_reserved": 0, "is_disabled": 0, "rental_uris": {"android": "https://dc.lft.to/lastmile_qr_scan", "ios": "https://dc.lft.to/lastmile_qr_scan"}, "name": "48feaa1c03176da18a36051483ede075", "type": "electric_bike"}, {"fusion_lat": 0.0, "bike_id": "d3ccacdd5f34efa800ea853310612287", "fusion_lon": 0.0, "lon": -76.99933433333334, "lat": 38.89639483333333, "is_reserved": 0, "is_disabled": 0, "rental_uris": {"android": "https://dc.lft.to/lastmile_qr_scan", "ios": "https://dc.lft.to/lastmile_qr_scan"}, "name": "d3ccacdd5f34efa800ea853310612287", "type": "electric_scooter"}, {"fusion_lat": 0.0, "bike_id": "c9bdbbadfa488587bec64b98aca36152", "fusion_lon": 0.0, "lon": -77.02209683333334, "lat": 38.912669666666666, "is_reserved": 0, "is_disabled": 0, "rental_uris": {"android": "https://dc.lft.to/lastmile_qr_scan", "ios": "https://dc.lft.to/lastmile_qr_scan"}, "name": "c9bdbbadfa488587bec64b98aca36152", "type": "electric_scooter"}, {"fusion_lat": 0.0, "bike_id": "d4a7905a003c1ed1371630e5e2dcd75c", "fusion_lon": 0.0, "lon": -76.98845133333333, "lat": 38.90028216666666, "is_reserved": 0, "is_disabled": 0, "rental_uris": {"android": "https://dc.lft.to/lastmile_qr_scan", "ios": "https://dc.lft.to/lastmile_qr_scan"}, "name": "d4a7905a003c1ed1371630e5e2dcd75c", "type": "electric_scooter"}, {"fusion_lat": 0.0, "bike_id": "6f5c29651395730c952ea984c0e68fb1", "fusion_lon": 0.0, "lon": -77.03181966666666, "lat": 38.91166333333334, "is_reserved": 0, "is_disabled": 0, "rental_uris": {"android": "https://dc.lft.to/lastmile_qr_scan", "ios": "https://dc.lft.to/lastmile_qr_scan"}, "name": "6f5c29651395730c952ea984c0e68fb1", "type": "electric_scooter"}, {"fusion_lat": 0.0, "bike_id": "e47be851c06a8f24624f5ce8d561060e", "fusion_lon": 0.0, "lon": -77.0461555, "lat": 38.91553616666667, "is_reserved": 0, "is_disabled": 0, "rental_uris": {"android": "https://dc.lft.to/lastmile_qr_scan", "ios": "https://dc.lft.to/lastmile_qr_scan"}, "name": "e47be851c06a8f24624f5ce8d561060e", "type": "electric_scooter"}, {"fusion_lat": 0.0, "bike_id": "244fee0d89a95d16f07c29ff1ec95191", "fusion_lon": 0.0, "lon": -77.02895416666667, "lat": 38.8997475, "is_reserved": 0, "is_disabled": 0, "rental_uris": {"android": "https://dc.lft.to/lastmile_qr_scan", "ios": "https://dc.lft.to/lastmile_qr_scan"}, "name": "244fee0d89a95d16f07c29ff1ec95191", "type": "electric_scooter"}, {"fusion_lat": 0.0, "bike_id": "dca5eb5db576fad31745c6f1a993932d", "fusion_lon": 0.0, "lon": -77.02202716666666, "lat": 38.912404, "is_reserved": 0, "is_disabled": 0, "rental_uris": {"android": "https://dc.lft.to/lastmile_qr_scan", "ios": "https://dc.lft.to/lastmile_qr_scan"}, "name": "dca5eb5db576fad31745c6f1a993932d", "type": "electric_scooter"}, {"fusion_lat": 0.0, "bike_id": "6603bbc30d6aa9df8bd4696121e31b7d", "fusion_lon": 0.0, "lon": -77.03067983333334, "lat": 38.924865, "is_reserved": 0, "is_disabled": 0, "rental_uris": {"android": "https://dc.lft.to/lastmile_qr_scan", "ios": "https://dc.lft.to/lastmile_qr_scan"}, "name": "6603bbc30d6aa9df8bd4696121e31b7d", "type": "electric_scooter"}, {"fusion_lat": 0.0, "bike_id": "3169d721ffdd5cd615212e83012ec5e3", "fusion_lon": 0.0, "lon": -77.00885533333333, "lat": 38.9612565, "is_reserved": 0, "is_disabled": 0, "rental_uris": {"android": "https://dc.lft.to/lastmile_qr_scan", "ios": "https://dc.lft.to/lastmile_qr_scan"}, "name": "3169d721ffdd5cd615212e83012ec5e3", "type": "electric_scooter"}, {"fusion_lat": 0.0, "bike_id": "5425f901daf8701702c4d30d8bd6e8d6", "fusion_lon": 0.0, "lon": -77.02827333333333, "lat": 38.88730066666667, "is_reserved": 0, "is_disabled": 0, "rental_uris": {"android": "https://dc.lft.to/lastmile_qr_scan", "ios": "https://dc.lft.to/lastmile_qr_scan"}, "name": "5425f901daf8701702c4d30d8bd6e8d6", "type": "electric_scooter"}, {"fusion_lat": 0.0, "bike_id": "022049ddaa625b3245f182742f3e574e", "fusion_lon": 0.0, "lon": -77.021846, "lat": 38.8946585, "is_reserved": 0, "is_disabled": 0, "rental_uris": {"android": "https://dc.lft.to/lastmile_qr_scan", "ios": "https://dc.lft.to/lastmile_qr_scan"}, "name": "022049ddaa625b3245f182742f3e574e", "type": "electric_scooter"}, {"fusion_lat": 0.0, "bike_id": "3ea5140729b04c21da11ec13e2057c2a", "fusion_lon": 0.0, "lon": -77.03220366666666, "lat": 38.913964666666665, "is_reserved": 0, "is_disabled": 0, "rental_uris": {"android": "https://dc.lft.to/lastmile_qr_scan", "ios": "https://dc.lft.to/lastmile_qr_scan"}, "name": "3ea5140729b04c21da11ec13e2057c2a", "type": "electric_scooter"}, {"fusion_lat": 0.0, "bike_id": "b14dd377de79076f4793e5147a4d5de8", "fusion_lon": 0.0, "lon": -77.02657, "lat": 38.91691333333333, "is_reserved": 0, "is_disabled": 0, "rental_uris": {"android": "https://dc.lft.to/lastmile_qr_scan", "ios": "https://dc.lft.to/lastmile_qr_scan"}, "name": "b14dd377de79076f4793e5147a4d5de8", "type": "electric_scooter"}, {"fusion_lat": 0.0, "bike_id": "be3f28d432c29ec4060913c6cd87427b", "fusion_lon": 0.0, "lon": -76.93317266666666, "lat": 38.9004775, "is_reserved": 0, "is_disabled": 0, "rental_uris": {"android": "https://dc.lft.to/lastmile_qr_scan", "ios": "https://dc.lft.to/lastmile_qr_scan"}, "name": "be3f28d432c29ec4060913c6cd87427b", "type": "electric_scooter"}, {"fusion_lat": 0.0, "bike_id": "d7e472ca5d6d5b306b9ffdbb8a77ec73", "fusion_lon": 0.0, "lon": -77.04647166666666, "lat": 38.9141785, "is_reserved": 0, "is_disabled": 0, "rental_uris": {"android": "https://dc.lft.to/lastmile_qr_scan", "ios": "https://dc.lft.to/lastmile_qr_scan"}, "name": "d7e472ca5d6d5b306b9ffdbb8a77ec73", "type": "electric_scooter"}, {"fusion_lat": 0.0, "bike_id": "7bc22b647ccb97089162bdbfe95f886a", "fusion_lon": 0.0, "lon": -77.0207045, "lat": 38.92404966666667, "is_reserved": 0, "is_disabled": 0, "rental_uris": {"android": "https://dc.lft.to/lastmile_qr_scan", "ios": "https://dc.lft.to/lastmile_qr_scan"}, "name": "7bc22b647ccb97089162bdbfe95f886a", "type": "electric_scooter"}, {"fusion_lat": 0.0, "bike_id": "aad855d6044d0b6cd12e6f9b9ba42c9a", "fusion_lon": 0.0, "lon": -77.032707, "lat": 38.89816283333333, "is_reserved": 0, "is_disabled": 0, "rental_uris": {"android": "https://dc.lft.to/lastmile_qr_scan", "ios": "https://dc.lft.to/lastmile_qr_scan"}, "name": "aad855d6044d0b6cd12e6f9b9ba42c9a", "type": "electric_scooter"}, {"fusion_lat": 0.0, "bike_id": "90ac3bc225fa4deea2260e33449884fb", "fusion_lon": 0.0, "lon": -77.027808, "lat": 38.8874615, "is_reserved": 0, "is_disabled": 0, "rental_uris": {"android": "https://dc.lft.to/lastmile_qr_scan", "ios": "https://dc.lft.to/lastmile_qr_scan"}, "name": "90ac3bc225fa4deea2260e33449884fb", "type": "electric_scooter"}, {"fusion_lat": 0.0, "bike_id": "892dafd2c136d0e34aa176e097feb295", "fusion_lon": 0.0, "lon": -77.02454233333333, "lat": 38.9139625, "is_reserved": 0, "is_disabled": 0, "rental_uris": {"android": "https://dc.lft.to/lastmile_qr_scan", "ios": "https://dc.lft.to/lastmile_qr_scan"}, "name": "892dafd2c136d0e34aa176e097feb295", "type": "electric_scooter"}, {"fusion_lat": 0.0, "bike_id": "e5c87bec2c0006d8a184bf5d442eb0f1", "fusion_lon": 0.0, "lon": -77.0470205, "lat": 38.9031415, "is_reserved": 0, "is_disabled": 0, "rental_uris": {"android": "https://dc.lft.to/lastmile_qr_scan", "ios": "https://dc.lft.to/lastmile_qr_scan"}, "name": "e5c87bec2c0006d8a184bf5d442eb0f1", "type": "electric_scooter"}, {"fusion_lat": 0.0, "bike_id": "6d1f5b0dba9a054ce5059bf21bd9b603", "fusion_lon": 0.0, "lon": -77.02585466666666, "lat": 38.942050333333334, "is_reserved": 0, "is_disabled": 0, "rental_uris": {"android": "https://dc.lft.to/lastmile_qr_scan", "ios": "https://dc.lft.to/lastmile_qr_scan"}, "name": "6d1f5b0dba9a054ce5059bf21bd9b603", "type": "electric_scooter"}, {"fusion_lat": 0.0, "bike_id": "d34c8438ff813af534ef89bb2d701ba5", "fusion_lon": 0.0, "lon": -77.03193116666667, "lat": 38.913451333333335, "is_reserved": 0, "is_disabled": 0, "rental_uris": {"android": "https://dc.lft.to/lastmile_qr_scan", "ios": "https://dc.lft.to/lastmile_qr_scan"}, "name": "d34c8438ff813af534ef89bb2d701ba5", "type": "electric_scooter"}, {"fusion_lat": 0.0, "bike_id": "5eb5251730b14527127a1063c416eec2", "fusion_lon": 0.0, "lon": -77.02351783333333, "lat": 38.87919766666667, "is_reserved": 0, "is_disabled": 0, "rental_uris": {"android": "https://dc.lft.to/lastmile_qr_scan", "ios": "https://dc.lft.to/lastmile_qr_scan"}, "name": "5eb5251730b14527127a1063c416eec2", "type": "electric_scooter"}, {"fusion_lat": 0.0, "bike_id": "e6fa59fa640da716f07d3775f8bc1925", "fusion_lon": 0.0, "lon": -77.033403, "lat": 38.90103166666667, "is_reserved": 0, "is_disabled": 0, "rental_uris": {"android": "https://dc.lft.to/lastmile_qr_scan", "ios": "https://dc.lft.to/lastmile_qr_scan"}, "name": "e6fa59fa640da716f07d3775f8bc1925", "type": "electric_scooter"}, {"fusion_lat": 0.0, "bike_id": "a35dbe63ad8fb6d8b294553138275985", "fusion_lon": 0.0, "lon": -77.0327125, "lat": 38.930786, "is_reserved": 0, "is_disabled": 0, "rental_uris": {"android": "https://dc.lft.to/lastmile_qr_scan", "ios": "https://dc.lft.to/lastmile_qr_scan"}, "name": "a35dbe63ad8fb6d8b294553138275985", "type": "electric_scooter"}, {"fusion_lat": 0.0, "bike_id": "c14c137797c85716e3b9620d39006f8f", "fusion_lon": 0.0, "lon": -77.02931933333333, "lat": 38.899151, "is_reserved": 0, "is_disabled": 0, "rental_uris": {"android": "https://dc.lft.to/lastmile_qr_scan", "ios": "https://dc.lft.to/lastmile_qr_scan"}, "name": "c14c137797c85716e3b9620d39006f8f", "type": "electric_scooter"}, {"fusion_lat": 0.0, "bike_id": "b7a08fdb24b1c073eab6b35b3b0640ec", "fusion_lon": 0.0, "lon": -77.01964566666666, "lat": 38.92372483333333, "is_reserved": 0, "is_disabled": 0, "rental_uris": {"android": "https://dc.lft.to/lastmile_qr_scan", "ios": "https://dc.lft.to/lastmile_qr_scan"}, "name": "b7a08fdb24b1c073eab6b35b3b0640ec", "type": "electric_scooter"}, {"fusion_lat": 0.0, "bike_id": "e214ddd10df1b7719a3190bad0f2a591", "fusion_lon": 0.0, "lon": -77.03550416666667, "lat": 38.92576966666667, "is_reserved": 0, "is_disabled": 0, "rental_uris": {"android": "https://dc.lft.to/lastmile_qr_scan", "ios": "https://dc.lft.to/lastmile_qr_scan"}, "name": "e214ddd10df1b7719a3190bad0f2a591", "type": "electric_scooter"}, {"fusion_lat": 0.0, "bike_id": "79af63969c73a3658bc4a1e0b4f41a63", "fusion_lon": 0.0, "lon": -76.97750266666667, "lat": 38.864962, "is_reserved": 0, "is_disabled": 0, "rental_uris": {"android": "https://dc.lft.to/lastmile_qr_scan", "ios": "https://dc.lft.to/lastmile_qr_scan"}, "name": "79af63969c73a3658bc4a1e0b4f41a63", "type": "electric_bike"}, {"fusion_lat": 0.0, "bike_id": "d6a40608c1781793e167ee9218a04b83", "fusion_lon": 0.0, "lon": -76.99925216666666, "lat": 38.84316116666667, "is_reserved": 0, "is_disabled": 0, "rental_uris": {"android": "https://dc.lft.to/lastmile_qr_scan", "ios": "https://dc.lft.to/lastmile_qr_scan"}, "name": "d6a40608c1781793e167ee9218a04b83", "type": "electric_scooter"}, {"fusion_lat": 0.0, "bike_id": "d1ebf83fd783961d635c6d49be4c0774", "fusion_lon": 0.0, "lon": -77.05704233333333, "lat": 38.9260685, "is_reserved": 0, "is_disabled": 0, "rental_uris": {"android": "https://dc.lft.to/lastmile_qr_scan", "ios": "https://dc.lft.to/lastmile_qr_scan"}, "name": "d1ebf83fd783961d635c6d49be4c0774", "type": "electric_bike"}, {"fusion_lat": 0.0, "bike_id": "77e798c4a465c2c0538c0cfc144156c3", "fusion_lon": 0.0, "lon": -77.04668633333333, "lat": 38.90278566666667, "is_reserved": 0, "is_disabled": 0, "rental_uris": {"android": "https://dc.lft.to/lastmile_qr_scan", "ios": "https://dc.lft.to/lastmile_qr_scan"}, "name": "77e798c4a465c2c0538c0cfc144156c3", "type": "electric_scooter"}, {"fusion_lat": 0.0, "bike_id": "af644c9c3e4b8261b2793bf89289d933", "fusion_lon": 0.0, "lon": -76.96812383333334, "lat": 38.847154, "is_reserved": 0, "is_disabled": 0, "rental_uris": {"android": "https://dc.lft.to/lastmile_qr_scan", "ios": "https://dc.lft.to/lastmile_qr_scan"}, "name": "af644c9c3e4b8261b2793bf89289d933", "type": "electric_scooter"}, {"fusion_lat": 0.0, "bike_id": "b4d3458c2937d0039a5de34843af3e26", "fusion_lon": 0.0, "lon": -77.0231455, "lat": 38.9278825, "is_reserved": 0, "is_disabled": 0, "rental_uris": {"android": "https://dc.lft.to/lastmile_qr_scan", "ios": "https://dc.lft.to/lastmile_qr_scan"}, "name": "b4d3458c2937d0039a5de34843af3e26", "type": "electric_scooter"}, {"fusion_lat": 0.0, "bike_id": "109bdf08091ef17afeb11912b9a02bee", "fusion_lon": 0.0, "lon": -76.94633916666666, "lat": 38.8983485, "is_reserved": 0, "is_disabled": 0, "rental_uris": {"android": "https://dc.lft.to/lastmile_qr_scan", "ios": "https://dc.lft.to/lastmile_qr_scan"}, "name": "109bdf08091ef17afeb11912b9a02bee", "type": "electric_scooter"}, {"fusion_lat": 0.0, "bike_id": "0eded4375e56b2646caa52a572473230", "fusion_lon": 0.0, "lon": -77.04779083333334, "lat": 38.90483566666666, "is_reserved": 0, "is_disabled": 0, "rental_uris": {"android": "https://dc.lft.to/lastmile_qr_scan", "ios": "https://dc.lft.to/lastmile_qr_scan"}, "name": "0eded4375e56b2646caa52a572473230", "type": "electric_scooter"}, {"fusion_lat": 0.0, "bike_id": "a35ba3cde6471e9246decf4f6adcd03d", "fusion_lon": 0.0, "lon": -77.05950333333334, "lat": 38.918435333333335, "is_reserved": 0, "is_disabled": 0, "rental_uris": {"android": "https://dc.lft.to/lastmile_qr_scan", "ios": "https://dc.lft.to/lastmile_qr_scan"}, "name": "a35ba3cde6471e9246decf4f6adcd03d", "type": "electric_scooter"}, {"fusion_lat": 0.0, "bike_id": "39cf87227489e97b7f95e27b6911c629", "fusion_lon": 0.0, "lon": -77.0221355, "lat": 38.91415083333333, "is_reserved": 0, "is_disabled": 0, "rental_uris": {"android": "https://dc.lft.to/lastmile_qr_scan", "ios": "https://dc.lft.to/lastmile_qr_scan"}, "name": "39cf87227489e97b7f95e27b6911c629", "type": "electric_scooter"}, {"fusion_lat": 0.0, "bike_id": "c8196cff439ad7ccd389558cdacc4bd7", "fusion_lon": 0.0, "lon": -76.96527816666666, "lat": 38.8747865, "is_reserved": 0, "is_disabled": 0, "rental_uris": {"android": "https://dc.lft.to/lastmile_qr_scan", "ios": "https://dc.lft.to/lastmile_qr_scan"}, "name": "c8196cff439ad7ccd389558cdacc4bd7", "type": "electric_scooter"}, {"fusion_lat": 0.0, "bike_id": "748e607fdd9b21bf18e97f390118dedf", "fusion_lon": 0.0, "lon": -77.02562416666666, "lat": 38.93350316666667, "is_reserved": 0, "is_disabled": 0, "rental_uris": {"android": "https://dc.lft.to/lastmile_qr_scan", "ios": "https://dc.lft.to/lastmile_qr_scan"}, "name": "748e607fdd9b21bf18e97f390118dedf", "type": "electric_scooter"}, {"fusion_lat": 0.0, "bike_id": "648ad1a05bc01f8344392e0c01fc7e2e", "fusion_lon": 0.0, "lon": -77.02905933333334, "lat": 38.917043, "is_reserved": 0, "is_disabled": 0, "rental_uris": {"android": "https://dc.lft.to/lastmile_qr_scan", "ios": "https://dc.lft.to/lastmile_qr_scan"}, "name": "648ad1a05bc01f8344392e0c01fc7e2e", "type": "electric_scooter"}, {"fusion_lat": 0.0, "bike_id": "f764a7ae1f63042ef01ce426b2ebcccc", "fusion_lon": 0.0, "lon": -77.03522766666667, "lat": 38.922546833333335, "is_reserved": 0, "is_disabled": 0, "rental_uris": {"android": "https://dc.lft.to/lastmile_qr_scan", "ios": "https://dc.lft.to/lastmile_qr_scan"}, "name": "f764a7ae1f63042ef01ce426b2ebcccc", "type": "electric_scooter"}, {"fusion_lat": 0.0, "bike_id": "e34b91380ba366239c24306d6bbbb4ee", "fusion_lon": 0.0, "lon": -76.97974333333333, "lat": 38.92901916666667, "is_reserved": 0, "is_disabled": 0, "rental_uris": {"android": "https://dc.lft.to/lastmile_qr_scan", "ios": "https://dc.lft.to/lastmile_qr_scan"}, "name": "e34b91380ba366239c24306d6bbbb4ee", "type": "electric_bike"}, {"fusion_lat": 0.0, "bike_id": "0633a6764bb2e416888852d90d6ae60e", "fusion_lon": 0.0, "lon": -77.03931783333333, "lat": 38.899725, "is_reserved": 0, "is_disabled": 0, "rental_uris": {"android": "https://dc.lft.to/lastmile_qr_scan", "ios": "https://dc.lft.to/lastmile_qr_scan"}, "name": "0633a6764bb2e416888852d90d6ae60e", "type": "electric_scooter"}, {"fusion_lat": 0.0, "bike_id": "6634991a726556de4fad0f7dc9090f3c", "fusion_lon": 0.0, "lon": -77.03407366666667, "lat": 38.917005, "is_reserved": 0, "is_disabled": 0, "rental_uris": {"android": "https://dc.lft.to/lastmile_qr_scan", "ios": "https://dc.lft.to/lastmile_qr_scan"}, "name": "6634991a726556de4fad0f7dc9090f3c", "type": "electric_scooter"}, {"fusion_lat": 0.0, "bike_id": "ff1ebde966e0e1aa58f4f4be923a1aaa", "fusion_lon": 0.0, "lon": -77.18124, "lat": 38.932278, "is_reserved": 0, "is_disabled": 0, "rental_uris": {"android": "https://dc.lft.to/lastmile_qr_scan", "ios": "https://dc.lft.to/lastmile_qr_scan"}, "name": "ff1ebde966e0e1aa58f4f4be923a1aaa", "type": "electric_bike"}, {"fusion_lat": 0.0, "bike_id": "fc08c09c2dbb99da0ff050709b619478", "fusion_lon": 0.0, "lon": -77.04321416666667, "lat": 38.926195, "is_reserved": 0, "is_disabled": 0, "rental_uris": {"android": "https://dc.lft.to/lastmile_qr_scan", "ios": "https://dc.lft.to/lastmile_qr_scan"}, "name": "fc08c09c2dbb99da0ff050709b619478", "type": "electric_scooter"}, {"fusion_lat": 0.0, "bike_id": "21b93bebfb1805cc257d5b7848e8df39", "fusion_lon": 0.0, "lon": -77.03208133333334, "lat": 38.89531, "is_reserved": 0, "is_disabled": 0, "rental_uris": {"android": "https://dc.lft.to/lastmile_qr_scan", "ios": "https://dc.lft.to/lastmile_qr_scan"}, "name": "21b93bebfb1805cc257d5b7848e8df39", "type": "electric_scooter"}, {"fusion_lat": 0.0, "bike_id": "70b1c6b98e273208c552afa0b03bedaa", "fusion_lon": 0.0, "lon": -77.1178015, "lat": 39.054891166666664, "is_reserved": 0, "is_disabled": 0, "rental_uris": {"android": "https://dc.lft.to/lastmile_qr_scan", "ios": "https://dc.lft.to/lastmile_qr_scan"}, "name": "70b1c6b98e273208c552afa0b03bedaa", "type": "electric_bike"}, {"fusion_lat": 0.0, "bike_id": "785a5e53f9dcc7516401a49669aa94d9", "fusion_lon": 0.0, "lon": -77.04182516666667, "lat": 38.91968766666667, "is_reserved": 0, "is_disabled": 0, "rental_uris": {"android": "https://dc.lft.to/lastmile_qr_scan", "ios": "https://dc.lft.to/lastmile_qr_scan"}, "name": "785a5e53f9dcc7516401a49669aa94d9", "type": "electric_scooter"}, {"fusion_lat": 0.0, "bike_id": "c89152be95febeff24e7fc569881d41a", "fusion_lon": 0.0, "lon": -77.02867916666666, "lat": 38.895558333333334, "is_reserved": 0, "is_disabled": 0, "rental_uris": {"android": "https://dc.lft.to/lastmile_qr_scan", "ios": "https://dc.lft.to/lastmile_qr_scan"}, "name": "c89152be95febeff24e7fc569881d41a", "type": "electric_scooter"}, {"fusion_lat": 0.0, "bike_id": "b2a78016804daf389cbfcb9c9dbf8a7d", "fusion_lon": 0.0, "lon": -76.97081566666667, "lat": 38.892179666666664, "is_reserved": 0, "is_disabled": 0, "rental_uris": {"android": "https://dc.lft.to/lastmile_qr_scan", "ios": "https://dc.lft.to/lastmile_qr_scan"}, "name": "b2a78016804daf389cbfcb9c9dbf8a7d", "type": "electric_bike"}, {"fusion_lat": 0.0, "bike_id": "0eecde6b6e5c53a9af4622268069adce", "fusion_lon": 0.0, "lon": -77.03262916666667, "lat": 38.941564666666665, "is_reserved": 0, "is_disabled": 0, "rental_uris": {"android": "https://dc.lft.to/lastmile_qr_scan", "ios": "https://dc.lft.to/lastmile_qr_scan"}, "name": "0eecde6b6e5c53a9af4622268069adce", "type": "electric_scooter"}, {"fusion_lat": 0.0, "bike_id": "bf99a5057adf1f7dfdc46f2b29399b09", "fusion_lon": 0.0, "lon": -77.01673833333334, "lat": 38.876935833333334, "is_reserved": 0, "is_disabled": 0, "rental_uris": {"android": "https://dc.lft.to/lastmile_qr_scan", "ios": "https://dc.lft.to/lastmile_qr_scan"}, "name": "bf99a5057adf1f7dfdc46f2b29399b09", "type": "electric_scooter"}, {"fusion_lat": 0.0, "bike_id": "25ffc354e326198a7dfd27de4ce400d8", "fusion_lon": 0.0, "lon": -77.04265333333333, "lat": 38.922409333333334, "is_reserved": 0, "is_disabled": 0, "rental_uris": {"android": "https://dc.lft.to/lastmile_qr_scan", "ios": "https://dc.lft.to/lastmile_qr_scan"}, "name": "25ffc354e326198a7dfd27de4ce400d8", "type": "electric_scooter"}, {"fusion_lat": 0.0, "bike_id": "b186bc45a95448d7ccc1b4a49000022d", "fusion_lon": 0.0, "lon": -77.02348016666667, "lat": 38.931790666666664, "is_reserved": 0, "is_disabled": 0, "rental_uris": {"android": "https://dc.lft.to/lastmile_qr_scan", "ios": "https://dc.lft.to/lastmile_qr_scan"}, "name": "b186bc45a95448d7ccc1b4a49000022d", "type": "electric_scooter"}, {"fusion_lat": 0.0, "bike_id": "7beebe8003e95d84d028a92131479ff5", "fusion_lon": 0.0, "lon": -77.07017966666666, "lat": 38.91862616666667, "is_reserved": 0, "is_disabled": 0, "rental_uris": {"android": "https://dc.lft.to/lastmile_qr_scan", "ios": "https://dc.lft.to/lastmile_qr_scan"}, "name": "7beebe8003e95d84d028a92131479ff5", "type": "electric_scooter"}, {"fusion_lat": 0.0, "bike_id": "6533260086f726fdd0ff4c927f9ffdda", "fusion_lon": 0.0, "lon": -77.01832533333334, "lat": 38.918989333333336, "is_reserved": 0, "is_disabled": 0, "rental_uris": {"android": "https://dc.lft.to/lastmile_qr_scan", "ios": "https://dc.lft.to/lastmile_qr_scan"}, "name": "6533260086f726fdd0ff4c927f9ffdda", "type": "electric_scooter"}, {"fusion_lat": 0.0, "bike_id": "7ca9962ff21f9be7fe1cac38c9df2c2c", "fusion_lon": 0.0, "lon": -77.030793, "lat": 38.9330195, "is_reserved": 0, "is_disabled": 0, "rental_uris": {"android": "https://dc.lft.to/lastmile_qr_scan", "ios": "https://dc.lft.to/lastmile_qr_scan"}, "name": "7ca9962ff21f9be7fe1cac38c9df2c2c", "type": "electric_scooter"}, {"fusion_lat": 0.0, "bike_id": "2125c98f8cb583c174f0a8f591118307", "fusion_lon": 0.0, "lon": -77.02156916666667, "lat": 38.92683433333333, "is_reserved": 0, "is_disabled": 0, "rental_uris": {"android": "https://dc.lft.to/lastmile_qr_scan", "ios": "https://dc.lft.to/lastmile_qr_scan"}, "name": "2125c98f8cb583c174f0a8f591118307", "type": "electric_scooter"}, {"fusion_lat": 0.0, "bike_id": "ef0ad5ee7de3c555b169e8c33afff537", "fusion_lon": 0.0, "lon": -77.02728883333333, "lat": 38.9320005, "is_reserved": 0, "is_disabled": 0, "rental_uris": {"android": "https://dc.lft.to/lastmile_qr_scan", "ios": "https://dc.lft.to/lastmile_qr_scan"}, "name": "ef0ad5ee7de3c555b169e8c33afff537", "type": "electric_scooter"}, {"fusion_lat": 0.0, "bike_id": "b4474a5f87666ab8499da21d48ab1a3b", "fusion_lon": 0.0, "lon": -77.036401, "lat": 38.90280283333333, "is_reserved": 0, "is_disabled": 0, "rental_uris": {"android": "https://dc.lft.to/lastmile_qr_scan", "ios": "https://dc.lft.to/lastmile_qr_scan"}, "name": "b4474a5f87666ab8499da21d48ab1a3b", "type": "electric_scooter"}, {"fusion_lat": 0.0, "bike_id": "42df00cabfc32227f0fc1fc77cdff7d0", "fusion_lon": 0.0, "lon": -77.02578166666666, "lat": 38.93194166666667, "is_reserved": 0, "is_disabled": 0, "rental_uris": {"android": "https://dc.lft.to/lastmile_qr_scan", "ios": "https://dc.lft.to/lastmile_qr_scan"}, "name": "42df00cabfc32227f0fc1fc77cdff7d0", "type": "electric_scooter"}, {"fusion_lat": 0.0, "bike_id": "e7a180df4a3f454d793f8c6ab35434e4", "fusion_lon": 0.0, "lon": -77.02708566666666, "lat": 38.92462616666667, "is_reserved": 0, "is_disabled": 0, "rental_uris": {"android": "https://dc.lft.to/lastmile_qr_scan", "ios": "https://dc.lft.to/lastmile_qr_scan"}, "name": "e7a180df4a3f454d793f8c6ab35434e4", "type": "electric_scooter"}, {"fusion_lat": 0.0, "bike_id": "137e20afa45e3f1620cb8b5845baadd6", "fusion_lon": 0.0, "lon": -77.00647883333333, "lat": 38.8716065, "is_reserved": 0, "is_disabled": 0, "rental_uris": {"android": "https://dc.lft.to/lastmile_qr_scan", "ios": "https://dc.lft.to/lastmile_qr_scan"}, "name": "137e20afa45e3f1620cb8b5845baadd6", "type": "electric_scooter"}, {"fusion_lat": 0.0, "bike_id": "27234fcf320fb84f7b57f48987d144f1", "fusion_lon": 0.0, "lon": -77.03325233333334, "lat": 38.9096935, "is_reserved": 0, "is_disabled": 0, "rental_uris": {"android": "https://dc.lft.to/lastmile_qr_scan", "ios": "https://dc.lft.to/lastmile_qr_scan"}, "name": "27234fcf320fb84f7b57f48987d144f1", "type": "electric_scooter"}, {"fusion_lat": 0.0, "bike_id": "5ae5621a028f62b558fed3adef0eec89", "fusion_lon": 0.0, "lon": -77.03951333333333, "lat": 38.898384666666665, "is_reserved": 0, "is_disabled": 0, "rental_uris": {"android": "https://dc.lft.to/lastmile_qr_scan", "ios": "https://dc.lft.to/lastmile_qr_scan"}, "name": "5ae5621a028f62b558fed3adef0eec89", "type": "electric_scooter"}, {"fusion_lat": 0.0, "bike_id": "07eecd74164bbc7cd8a71fc42c63481d", "fusion_lon": 0.0, "lon": -77.029698, "lat": 38.924334333333334, "is_reserved": 0, "is_disabled": 0, "rental_uris": {"android": "https://dc.lft.to/lastmile_qr_scan", "ios": "https://dc.lft.to/lastmile_qr_scan"}, "name": "07eecd74164bbc7cd8a71fc42c63481d", "type": "electric_scooter"}, {"fusion_lat": 0.0, "bike_id": "fdc6a2daff550886b2402e505ce8abcd", "fusion_lon": 0.0, "lon": -77.0263175, "lat": 38.916906166666664, "is_reserved": 0, "is_disabled": 0, "rental_uris": {"android": "https://dc.lft.to/lastmile_qr_scan", "ios": "https://dc.lft.to/lastmile_qr_scan"}, "name": "fdc6a2daff550886b2402e505ce8abcd", "type": "electric_scooter"}, {"fusion_lat": 0.0, "bike_id": "ceaaac52c0938377a9495cf45c3218d1", "fusion_lon": 0.0, "lon": -77.03220366666666, "lat": 38.89231, "is_reserved": 0, "is_disabled": 0, "rental_uris": {"android": "https://dc.lft.to/lastmile_qr_scan", "ios": "https://dc.lft.to/lastmile_qr_scan"}, "name": "ceaaac52c0938377a9495cf45c3218d1", "type": "electric_scooter"}, {"fusion_lat": 0.0, "bike_id": "65ae402a652ec590b6e74a4eeb4cdde2", "fusion_lon": 0.0, "lon": -77.05710583333334, "lat": 38.93339616666667, "is_reserved": 0, "is_disabled": 0, "rental_uris": {"android": "https://dc.lft.to/lastmile_qr_scan", "ios": "https://dc.lft.to/lastmile_qr_scan"}, "name": "65ae402a652ec590b6e74a4eeb4cdde2", "type": "electric_scooter"}, {"fusion_lat": 0.0, "bike_id": "63ad0baff8f51b284d2008a06ed20e85", "fusion_lon": 0.0, "lon": -77.00485916666666, "lat": 38.9281795, "is_reserved": 0, "is_disabled": 0, "rental_uris": {"android": "https://dc.lft.to/lastmile_qr_scan", "ios": "https://dc.lft.to/lastmile_qr_scan"}, "name": "63ad0baff8f51b284d2008a06ed20e85", "type": "electric_bike"}, {"fusion_lat": 0.0, "bike_id": "1c20736e737fc3880def7047ca4b8e45", "fusion_lon": 0.0, "lon": -77.0361035, "lat": 38.936755166666664, "is_reserved": 0, "is_disabled": 0, "rental_uris": {"android": "https://dc.lft.to/lastmile_qr_scan", "ios": "https://dc.lft.to/lastmile_qr_scan"}, "name": "1c20736e737fc3880def7047ca4b8e45", "type": "electric_scooter"}, {"fusion_lat": 0.0, "bike_id": "248fd527c0179014667964f6a2ffb54d", "fusion_lon": 0.0, "lon": -77.04172483333333, "lat": 38.90525233333334, "is_reserved": 0, "is_disabled": 0, "rental_uris": {"android": "https://dc.lft.to/lastmile_qr_scan", "ios": "https://dc.lft.to/lastmile_qr_scan"}, "name": "248fd527c0179014667964f6a2ffb54d", "type": "electric_scooter"}, {"fusion_lat": 0.0, "bike_id": "0bb1cb19fa0bb75b045738ae23e508ab", "fusion_lon": 0.0, "lon": -77.00749283333333, "lat": 38.903535166666664, "is_reserved": 0, "is_disabled": 0, "rental_uris": {"android": "https://dc.lft.to/lastmile_qr_scan", "ios": "https://dc.lft.to/lastmile_qr_scan"}, "name": "0bb1cb19fa0bb75b045738ae23e508ab", "type": "electric_scooter"}, {"fusion_lat": 0.0, "bike_id": "0092979caecbddae08be903d015edae2", "fusion_lon": 0.0, "lon": -77.07227666666667, "lat": 38.968168, "is_reserved": 0, "is_disabled": 0, "rental_uris": {"android": "https://dc.lft.to/lastmile_qr_scan", "ios": "https://dc.lft.to/lastmile_qr_scan"}, "name": "0092979caecbddae08be903d015edae2", "type": "electric_bike"}, {"fusion_lat": 0.0, "bike_id": "0882bfb4215246f70834fe63333ada27", "fusion_lon": 0.0, "lon": -77.02380583333333, "lat": 38.8923605, "is_reserved": 0, "is_disabled": 0, "rental_uris": {"android": "https://dc.lft.to/lastmile_qr_scan", "ios": "https://dc.lft.to/lastmile_qr_scan"}, "name": "0882bfb4215246f70834fe63333ada27", "type": "electric_scooter"}, {"fusion_lat": 0.0, "bike_id": "fc69a8cffeb8d780b0f21736c5956ee0", "fusion_lon": 0.0, "lon": -77.03379033333333, "lat": 38.92160033333333, "is_reserved": 0, "is_disabled": 0, "rental_uris": {"android": "https://dc.lft.to/lastmile_qr_scan", "ios": "https://dc.lft.to/lastmile_qr_scan"}, "name": "fc69a8cffeb8d780b0f21736c5956ee0", "type": "electric_scooter"}, {"fusion_lat": 0.0, "bike_id": "f11a54ecc13ae0adc5a332301f9ebf5f", "fusion_lon": 0.0, "lon": -77.01762383333333, "lat": 38.8872295, "is_reserved": 0, "is_disabled": 0, "rental_uris": {"android": "https://dc.lft.to/lastmile_qr_scan", "ios": "https://dc.lft.to/lastmile_qr_scan"}, "name": "f11a54ecc13ae0adc5a332301f9ebf5f", "type": "electric_scooter"}, {"fusion_lat": 0.0, "bike_id": "7ba7bf4dde30769c0a514c119fd3f5bf", "fusion_lon": 0.0, "lon": -77.039092, "lat": 38.923100166666664, "is_reserved": 0, "is_disabled": 0, "rental_uris": {"android": "https://dc.lft.to/lastmile_qr_scan", "ios": "https://dc.lft.to/lastmile_qr_scan"}, "name": "7ba7bf4dde30769c0a514c119fd3f5bf", "type": "electric_scooter"}, {"fusion_lat": 0.0, "bike_id": "2ab6beb44a5fc2bcbb8c61e6b2c896c2", "fusion_lon": 0.0, "lon": -77.04868616666667, "lat": 38.8923245, "is_reserved": 0, "is_disabled": 0, "rental_uris": {"android": "https://dc.lft.to/lastmile_qr_scan", "ios": "https://dc.lft.to/lastmile_qr_scan"}, "name": "2ab6beb44a5fc2bcbb8c61e6b2c896c2", "type": "electric_scooter"}, {"fusion_lat": 0.0, "bike_id": "6933a13fc923ef0c0a5529afde520f95", "fusion_lon": 0.0, "lon": -77.0182575, "lat": 38.91914766666667, "is_reserved": 0, "is_disabled": 0, "rental_uris": {"android": "https://dc.lft.to/lastmile_qr_scan", "ios": "https://dc.lft.to/lastmile_qr_scan"}, "name": "6933a13fc923ef0c0a5529afde520f95", "type": "electric_scooter"}, {"fusion_lat": 0.0, "bike_id": "710927feb97a9bb569274ac4761688e9", "fusion_lon": 0.0, "lon": -76.960883, "lat": 38.9185075, "is_reserved": 0, "is_disabled": 0, "rental_uris": {"android": "https://dc.lft.to/lastmile_qr_scan", "ios": "https://dc.lft.to/lastmile_qr_scan"}, "name": "710927feb97a9bb569274ac4761688e9", "type": "electric_bike"}, {"fusion_lat": 0.0, "bike_id": "cd9a348b1e2d97d1e92f909a0bb34101", "fusion_lon": 0.0, "lon": -77.03442, "lat": 38.909513833333335, "is_reserved": 0, "is_disabled": 0, "rental_uris": {"android": "https://dc.lft.to/lastmile_qr_scan", "ios": "https://dc.lft.to/lastmile_qr_scan"}, "name": "cd9a348b1e2d97d1e92f909a0bb34101", "type": "electric_scooter"}, {"fusion_lat": 0.0, "bike_id": "498e40d5810078d00b231754fa6f198c", "fusion_lon": 0.0, "lon": -77.03640433333334, "lat": 38.91339633333333, "is_reserved": 0, "is_disabled": 0, "rental_uris": {"android": "https://dc.lft.to/lastmile_qr_scan", "ios": "https://dc.lft.to/lastmile_qr_scan"}, "name": "498e40d5810078d00b231754fa6f198c", "type": "electric_scooter"}, {"fusion_lat": 0.0, "bike_id": "3cc7762f484db040829d735c46489b83", "fusion_lon": 0.0, "lon": -76.96151383333333, "lat": 38.883583, "is_reserved": 0, "is_disabled": 0, "rental_uris": {"android": "https://dc.lft.to/lastmile_qr_scan", "ios": "https://dc.lft.to/lastmile_qr_scan"}, "name": "3cc7762f484db040829d735c46489b83", "type": "electric_scooter"}, {"fusion_lat": 0.0, "bike_id": "3ef1b5d80589d4d246543d97bfba92ef", "fusion_lon": 0.0, "lon": -77.02261033333333, "lat": 38.926835, "is_reserved": 0, "is_disabled": 0, "rental_uris": {"android": "https://dc.lft.to/lastmile_qr_scan", "ios": "https://dc.lft.to/lastmile_qr_scan"}, "name": "3ef1b5d80589d4d246543d97bfba92ef", "type": "electric_scooter"}, {"fusion_lat": 0.0, "bike_id": "e74e99fbd10e4fc749cba72d89799b70", "fusion_lon": 0.0, "lon": -77.06772716666667, "lat": 38.903658166666666, "is_reserved": 0, "is_disabled": 0, "rental_uris": {"android": "https://dc.lft.to/lastmile_qr_scan", "ios": "https://dc.lft.to/lastmile_qr_scan"}, "name": "e74e99fbd10e4fc749cba72d89799b70", "type": "electric_scooter"}, {"fusion_lat": 0.0, "bike_id": "e6d034e587387ae006552e5a5cdce79e", "fusion_lon": 0.0, "lon": -76.96911, "lat": 38.846132, "is_reserved": 0, "is_disabled": 0, "rental_uris": {"android": "https://dc.lft.to/lastmile_qr_scan", "ios": "https://dc.lft.to/lastmile_qr_scan"}, "name": "e6d034e587387ae006552e5a5cdce79e", "type": "electric_bike"}, {"fusion_lat": 0.0, "bike_id": "5f6ec3482ba741b42027761c6b53b249", "fusion_lon": 0.0, "lon": -77.045009, "lat": 38.907237, "is_reserved": 0, "is_disabled": 0, "rental_uris": {"android": "https://dc.lft.to/lastmile_qr_scan", "ios": "https://dc.lft.to/lastmile_qr_scan"}, "name": "5f6ec3482ba741b42027761c6b53b249", "type": "electric_scooter"}, {"fusion_lat": 0.0, "bike_id": "dbd8392e3c2acf46f1f8cc80eef9e074", "fusion_lon": 0.0, "lon": -77.02850533333333, "lat": 38.93165183333333, "is_reserved": 0, "is_disabled": 0, "rental_uris": {"android": "https://dc.lft.to/lastmile_qr_scan", "ios": "https://dc.lft.to/lastmile_qr_scan"}, "name": "dbd8392e3c2acf46f1f8cc80eef9e074", "type": "electric_scooter"}, {"fusion_lat": 0.0, "bike_id": "0f9589250569b149366e16c9157336de", "fusion_lon": 0.0, "lon": -77.03409, "lat": 38.90811633333333, "is_reserved": 0, "is_disabled": 0, "rental_uris": {"android": "https://dc.lft.to/lastmile_qr_scan", "ios": "https://dc.lft.to/lastmile_qr_scan"}, "name": "0f9589250569b149366e16c9157336de", "type": "electric_scooter"}, {"fusion_lat": 0.0, "bike_id": "7b00fc42faba21e9839740c6144d7670", "fusion_lon": 0.0, "lon": -77.04508983333334, "lat": 38.9057815, "is_reserved": 0, "is_disabled": 0, "rental_uris": {"android": "https://dc.lft.to/lastmile_qr_scan", "ios": "https://dc.lft.to/lastmile_qr_scan"}, "name": "7b00fc42faba21e9839740c6144d7670", "type": "electric_scooter"}, {"fusion_lat": 0.0, "bike_id": "7ffd81398b08283f2411a2f61464c240", "fusion_lon": 0.0, "lon": -77.04555366666666, "lat": 38.91311266666666, "is_reserved": 0, "is_disabled": 0, "rental_uris": {"android": "https://dc.lft.to/lastmile_qr_scan", "ios": "https://dc.lft.to/lastmile_qr_scan"}, "name": "7ffd81398b08283f2411a2f61464c240", "type": "electric_scooter"}, {"fusion_lat": 0.0, "bike_id": "e373722e309810cdf41be84684cbb125", "fusion_lon": 0.0, "lon": -77.03157583333333, "lat": 38.923613, "is_reserved": 0, "is_disabled": 0, "rental_uris": {"android": "https://dc.lft.to/lastmile_qr_scan", "ios": "https://dc.lft.to/lastmile_qr_scan"}, "name": "e373722e309810cdf41be84684cbb125", "type": "electric_scooter"}, {"fusion_lat": 0.0, "bike_id": "6b0a1178dd8cca4fb98381259d0d0a84", "fusion_lon": 0.0, "lon": -77.02313016666666, "lat": 38.90938283333333, "is_reserved": 0, "is_disabled": 0, "rental_uris": {"android": "https://dc.lft.to/lastmile_qr_scan", "ios": "https://dc.lft.to/lastmile_qr_scan"}, "name": "6b0a1178dd8cca4fb98381259d0d0a84", "type": "electric_scooter"}, {"fusion_lat": 0.0, "bike_id": "12bcef6c2be03f06b92687ef4354c944", "fusion_lon": 0.0, "lon": -77.03798216666667, "lat": 38.915522333333335, "is_reserved": 0, "is_disabled": 0, "rental_uris": {"android": "https://dc.lft.to/lastmile_qr_scan", "ios": "https://dc.lft.to/lastmile_qr_scan"}, "name": "12bcef6c2be03f06b92687ef4354c944", "type": "electric_scooter"}, {"fusion_lat": 0.0, "bike_id": "2a1973885cf7a73e6ddf6beefa5551dc", "fusion_lon": 0.0, "lon": -77.030794, "lat": 38.9008535, "is_reserved": 0, "is_disabled": 0, "rental_uris": {"android": "https://dc.lft.to/lastmile_qr_scan", "ios": "https://dc.lft.to/lastmile_qr_scan"}, "name": "2a1973885cf7a73e6ddf6beefa5551dc", "type": "electric_scooter"}, {"fusion_lat": 0.0, "bike_id": "edbb5a30572106f6536903e9335eea21", "fusion_lon": 0.0, "lon": -77.03799516666666, "lat": 38.93018083333333, "is_reserved": 0, "is_disabled": 0, "rental_uris": {"android": "https://dc.lft.to/lastmile_qr_scan", "ios": "https://dc.lft.to/lastmile_qr_scan"}, "name": "edbb5a30572106f6536903e9335eea21", "type": "electric_scooter"}, {"fusion_lat": 0.0, "bike_id": "b29fea73973e46112ba02b218ac9089a", "fusion_lon": 0.0, "lon": -77.04652683333333, "lat": 38.9142715, "is_reserved": 0, "is_disabled": 0, "rental_uris": {"android": "https://dc.lft.to/lastmile_qr_scan", "ios": "https://dc.lft.to/lastmile_qr_scan"}, "name": "b29fea73973e46112ba02b218ac9089a", "type": "electric_scooter"}, {"fusion_lat": 0.0, "bike_id": "19f0d4f9e27c3b644727ac9390652c78", "fusion_lon": 0.0, "lon": -76.94882683333333, "lat": 38.894225166666665, "is_reserved": 0, "is_disabled": 0, "rental_uris": {"android": "https://dc.lft.to/lastmile_qr_scan", "ios": "https://dc.lft.to/lastmile_qr_scan"}, "name": "19f0d4f9e27c3b644727ac9390652c78", "type": "electric_scooter"}, {"fusion_lat": 0.0, "bike_id": "59c3ae7dbfc503578b882e566e9b8a9e", "fusion_lon": 0.0, "lon": -77.02766566666666, "lat": 38.892250833333335, "is_reserved": 0, "is_disabled": 0, "rental_uris": {"android": "https://dc.lft.to/lastmile_qr_scan", "ios": "https://dc.lft.to/lastmile_qr_scan"}, "name": "59c3ae7dbfc503578b882e566e9b8a9e", "type": "electric_scooter"}, {"fusion_lat": 0.0, "bike_id": "6f83399975e05e8b422ec46fc5116c5d", "fusion_lon": 0.0, "lon": -77.03269216666666, "lat": 38.92180466666667, "is_reserved": 0, "is_disabled": 0, "rental_uris": {"android": "https://dc.lft.to/lastmile_qr_scan", "ios": "https://dc.lft.to/lastmile_qr_scan"}, "name": "6f83399975e05e8b422ec46fc5116c5d", "type": "electric_scooter"}, {"fusion_lat": 0.0, "bike_id": "663d644da557a5cfa5b12f7c516ca780", "fusion_lon": 0.0, "lon": -77.00059683333333, "lat": 38.90083966666667, "is_reserved": 0, "is_disabled": 0, "rental_uris": {"android": "https://dc.lft.to/lastmile_qr_scan", "ios": "https://dc.lft.to/lastmile_qr_scan"}, "name": "663d644da557a5cfa5b12f7c516ca780", "type": "electric_scooter"}, {"fusion_lat": 0.0, "bike_id": "7d91ddb0e67975b14b33f516d3afa523", "fusion_lon": 0.0, "lon": -77.01980833333333, "lat": 38.925472166666665, "is_reserved": 0, "is_disabled": 0, "rental_uris": {"android": "https://dc.lft.to/lastmile_qr_scan", "ios": "https://dc.lft.to/lastmile_qr_scan"}, "name": "7d91ddb0e67975b14b33f516d3afa523", "type": "electric_bike"}, {"fusion_lat": 0.0, "bike_id": "1c5585828bd940f3e7f3cfd6c9e7ff68", "fusion_lon": 0.0, "lon": -76.990541, "lat": 38.86376516666667, "is_reserved": 0, "is_disabled": 0, "rental_uris": {"android": "https://dc.lft.to/lastmile_qr_scan", "ios": "https://dc.lft.to/lastmile_qr_scan"}, "name": "1c5585828bd940f3e7f3cfd6c9e7ff68", "type": "electric_scooter"}, {"fusion_lat": 0.0, "bike_id": "3c454c4a771d905b3a6fb4c4daad6b61", "fusion_lon": 0.0, "lon": -77.04629933333334, "lat": 38.915569166666664, "is_reserved": 0, "is_disabled": 0, "rental_uris": {"android": "https://dc.lft.to/lastmile_qr_scan", "ios": "https://dc.lft.to/lastmile_qr_scan"}, "name": "3c454c4a771d905b3a6fb4c4daad6b61", "type": "electric_scooter"}, {"fusion_lat": 0.0, "bike_id": "a55e6e479cb257361ae93e0931b9d26d", "fusion_lon": 0.0, "lon": -77.034635, "lat": 38.9206405, "is_reserved": 0, "is_disabled": 0, "rental_uris": {"android": "https://dc.lft.to/lastmile_qr_scan", "ios": "https://dc.lft.to/lastmile_qr_scan"}, "name": "a55e6e479cb257361ae93e0931b9d26d", "type": "electric_scooter"}, {"fusion_lat": 0.0, "bike_id": "319a191c717ab63a1b5de179574381d7", "fusion_lon": 0.0, "lon": -76.927179, "lat": 38.88053133333333, "is_reserved": 0, "is_disabled": 0, "rental_uris": {"android": "https://dc.lft.to/lastmile_qr_scan", "ios": "https://dc.lft.to/lastmile_qr_scan"}, "name": "319a191c717ab63a1b5de179574381d7", "type": "electric_scooter"}, {"fusion_lat": 0.0, "bike_id": "4d7879ee007640456d09fa39a204b8be", "fusion_lon": 0.0, "lon": -76.93740683333333, "lat": 38.89006066666666, "is_reserved": 0, "is_disabled": 0, "rental_uris": {"android": "https://dc.lft.to/lastmile_qr_scan", "ios": "https://dc.lft.to/lastmile_qr_scan"}, "name": "4d7879ee007640456d09fa39a204b8be", "type": "electric_scooter"}, {"fusion_lat": 0.0, "bike_id": "fa2d97cc88aec874d63a814ee61c7303", "fusion_lon": 0.0, "lon": -77.04195783333333, "lat": 38.92055366666666, "is_reserved": 0, "is_disabled": 0, "rental_uris": {"android": "https://dc.lft.to/lastmile_qr_scan", "ios": "https://dc.lft.to/lastmile_qr_scan"}, "name": "fa2d97cc88aec874d63a814ee61c7303", "type": "electric_scooter"}, {"fusion_lat": 0.0, "bike_id": "ac964659d2ea7203e6a0175bfb40292c", "fusion_lon": 0.0, "lon": -77.0262715, "lat": 38.881181166666664, "is_reserved": 0, "is_disabled": 0, "rental_uris": {"android": "https://dc.lft.to/lastmile_qr_scan", "ios": "https://dc.lft.to/lastmile_qr_scan"}, "name": "ac964659d2ea7203e6a0175bfb40292c", "type": "electric_scooter"}, {"fusion_lat": 0.0, "bike_id": "d41b43c81039a590ba8fd8291accb35b", "fusion_lon": 0.0, "lon": -77.001344, "lat": 38.89470033333333, "is_reserved": 0, "is_disabled": 0, "rental_uris": {"android": "https://dc.lft.to/lastmile_qr_scan", "ios": "https://dc.lft.to/lastmile_qr_scan"}, "name": "d41b43c81039a590ba8fd8291accb35b", "type": "electric_scooter"}, {"fusion_lat": 0.0, "bike_id": "2c200748d44be3acdddb75626c3e5e4c", "fusion_lon": 0.0, "lon": -77.04308216666666, "lat": 38.90893483333333, "is_reserved": 0, "is_disabled": 0, "rental_uris": {"android": "https://dc.lft.to/lastmile_qr_scan", "ios": "https://dc.lft.to/lastmile_qr_scan"}, "name": "2c200748d44be3acdddb75626c3e5e4c", "type": "electric_scooter"}, {"fusion_lat": 0.0, "bike_id": "c8c42cce2b53696a51dc4b274fe683ba", "fusion_lon": 0.0, "lon": -77.0489725, "lat": 38.91598183333333, "is_reserved": 0, "is_disabled": 0, "rental_uris": {"android": "https://dc.lft.to/lastmile_qr_scan", "ios": "https://dc.lft.to/lastmile_qr_scan"}, "name": "c8c42cce2b53696a51dc4b274fe683ba", "type": "electric_scooter"}, {"fusion_lat": 0.0, "bike_id": "28d8ef38706b0225e864c5396dfbaafa", "fusion_lon": 0.0, "lon": -77.025882, "lat": 38.94195333333333, "is_reserved": 0, "is_disabled": 0, "rental_uris": {"android": "https://dc.lft.to/lastmile_qr_scan", "ios": "https://dc.lft.to/lastmile_qr_scan"}, "name": "28d8ef38706b0225e864c5396dfbaafa", "type": "electric_scooter"}, {"fusion_lat": 0.0, "bike_id": "4ec5f01edb592487c1519d27f093cea3", "fusion_lon": 0.0, "lon": -77.00725066666666, "lat": 38.88491283333333, "is_reserved": 0, "is_disabled": 0, "rental_uris": {"android": "https://dc.lft.to/lastmile_qr_scan", "ios": "https://dc.lft.to/lastmile_qr_scan"}, "name": "4ec5f01edb592487c1519d27f093cea3", "type": "electric_scooter"}, {"fusion_lat": 0.0, "bike_id": "b859cfe376a25275f8a230eadf48b18f", "fusion_lon": 0.0, "lon": -77.03631316666667, "lat": 38.92744016666666, "is_reserved": 0, "is_disabled": 0, "rental_uris": {"android": "https://dc.lft.to/lastmile_qr_scan", "ios": "https://dc.lft.to/lastmile_qr_scan"}, "name": "b859cfe376a25275f8a230eadf48b18f", "type": "electric_scooter"}, {"fusion_lat": 0.0, "bike_id": "2c873c6a5f30e0e57eb86a4b309ab0bf", "fusion_lon": 0.0, "lon": -77.02954183333334, "lat": 38.916834333333334, "is_reserved": 0, "is_disabled": 0, "rental_uris": {"android": "https://dc.lft.to/lastmile_qr_scan", "ios": "https://dc.lft.to/lastmile_qr_scan"}, "name": "2c873c6a5f30e0e57eb86a4b309ab0bf", "type": "electric_scooter"}, {"fusion_lat": 0.0, "bike_id": "767cc267c3f54beea5d908e75200d952", "fusion_lon": 0.0, "lon": -76.99957783333333, "lat": 38.9215115, "is_reserved": 0, "is_disabled": 0, "rental_uris": {"android": "https://dc.lft.to/lastmile_qr_scan", "ios": "https://dc.lft.to/lastmile_qr_scan"}, "name": "767cc267c3f54beea5d908e75200d952", "type": "electric_scooter"}, {"fusion_lat": 0.0, "bike_id": "43e6010c5c55940d345bf585573956b3", "fusion_lon": 0.0, "lon": -77.04382, "lat": 38.92092516666666, "is_reserved": 0, "is_disabled": 0, "rental_uris": {"android": "https://dc.lft.to/lastmile_qr_scan", "ios": "https://dc.lft.to/lastmile_qr_scan"}, "name": "43e6010c5c55940d345bf585573956b3", "type": "electric_scooter"}, {"fusion_lat": 0.0, "bike_id": "fde4cfdfec22e91452698a63fe513650", "fusion_lon": 0.0, "lon": -76.97764633333334, "lat": 38.9515275, "is_reserved": 0, "is_disabled": 0, "rental_uris": {"android": "https://dc.lft.to/lastmile_qr_scan", "ios": "https://dc.lft.to/lastmile_qr_scan"}, "name": "fde4cfdfec22e91452698a63fe513650", "type": "electric_bike"}, {"fusion_lat": 0.0, "bike_id": "9896396a724716c5fe1130bd13ac7f6a", "fusion_lon": 0.0, "lon": -77.02208516666667, "lat": 38.8789815, "is_reserved": 0, "is_disabled": 0, "rental_uris": {"android": "https://dc.lft.to/lastmile_qr_scan", "ios": "https://dc.lft.to/lastmile_qr_scan"}, "name": "9896396a724716c5fe1130bd13ac7f6a", "type": "electric_scooter"}, {"fusion_lat": 0.0, "bike_id": "de53bda84f6939fb3632b44b677e0c83", "fusion_lon": 0.0, "lon": -77.02719066666667, "lat": 38.89734, "is_reserved": 0, "is_disabled": 0, "rental_uris": {"android": "https://dc.lft.to/lastmile_qr_scan", "ios": "https://dc.lft.to/lastmile_qr_scan"}, "name": "de53bda84f6939fb3632b44b677e0c83", "type": "electric_scooter"}, {"fusion_lat": 0.0, "bike_id": "1ff9d7d55fd0d80ee8e12d2aedb17018", "fusion_lon": 0.0, "lon": -76.9900595, "lat": 38.865078, "is_reserved": 0, "is_disabled": 0, "rental_uris": {"android": "https://dc.lft.to/lastmile_qr_scan", "ios": "https://dc.lft.to/lastmile_qr_scan"}, "name": "1ff9d7d55fd0d80ee8e12d2aedb17018", "type": "electric_scooter"}, {"fusion_lat": 0.0, "bike_id": "d6d68175bd8234f42108c948ca2f6ebd", "fusion_lon": 0.0, "lon": -77.03183883333334, "lat": 38.917417, "is_reserved": 0, "is_disabled": 0, "rental_uris": {"android": "https://dc.lft.to/lastmile_qr_scan", "ios": "https://dc.lft.to/lastmile_qr_scan"}, "name": "d6d68175bd8234f42108c948ca2f6ebd", "type": "electric_scooter"}, {"fusion_lat": 0.0, "bike_id": "7e8319f5b03281ace0f5e916da8219fe", "fusion_lon": 0.0, "lon": -77.033496, "lat": 38.897315666666664, "is_reserved": 0, "is_disabled": 0, "rental_uris": {"android": "https://dc.lft.to/lastmile_qr_scan", "ios": "https://dc.lft.to/lastmile_qr_scan"}, "name": "7e8319f5b03281ace0f5e916da8219fe", "type": "electric_scooter"}, {"fusion_lat": 0.0, "bike_id": "3b672240d9ed09a49f28bc284a5da0d5", "fusion_lon": 0.0, "lon": -77.03308916666667, "lat": 38.898078, "is_reserved": 0, "is_disabled": 0, "rental_uris": {"android": "https://dc.lft.to/lastmile_qr_scan", "ios": "https://dc.lft.to/lastmile_qr_scan"}, "name": "3b672240d9ed09a49f28bc284a5da0d5", "type": "electric_scooter"}, {"fusion_lat": 0.0, "bike_id": "1946699a2ea6a61b6d622417ba40d728", "fusion_lon": 0.0, "lon": -77.02549833333333, "lat": 38.903609333333335, "is_reserved": 0, "is_disabled": 0, "rental_uris": {"android": "https://dc.lft.to/lastmile_qr_scan", "ios": "https://dc.lft.to/lastmile_qr_scan"}, "name": "1946699a2ea6a61b6d622417ba40d728", "type": "electric_scooter"}, {"fusion_lat": 0.0, "bike_id": "867fa5990fb84c847eae6b02f27824e8", "fusion_lon": 0.0, "lon": -77.02832083333334, "lat": 38.92468566666667, "is_reserved": 0, "is_disabled": 0, "rental_uris": {"android": "https://dc.lft.to/lastmile_qr_scan", "ios": "https://dc.lft.to/lastmile_qr_scan"}, "name": "867fa5990fb84c847eae6b02f27824e8", "type": "electric_scooter"}, {"fusion_lat": 0.0, "bike_id": "0e8fdc91d058d97908998a86766119ae", "fusion_lon": 0.0, "lon": -77.03801383333334, "lat": 38.90649333333333, "is_reserved": 0, "is_disabled": 0, "rental_uris": {"android": "https://dc.lft.to/lastmile_qr_scan", "ios": "https://dc.lft.to/lastmile_qr_scan"}, "name": "0e8fdc91d058d97908998a86766119ae", "type": "electric_scooter"}, {"fusion_lat": 0.0, "bike_id": "f1f83ba606f185f53968037fc1b467ad", "fusion_lon": 0.0, "lon": -77.03738483333333, "lat": 38.91806716666667, "is_reserved": 0, "is_disabled": 0, "rental_uris": {"android": "https://dc.lft.to/lastmile_qr_scan", "ios": "https://dc.lft.to/lastmile_qr_scan"}, "name": "f1f83ba606f185f53968037fc1b467ad", "type": "electric_scooter"}, {"fusion_lat": 0.0, "bike_id": "dff7a376d3614fddb6ac88209b2fc0ac", "fusion_lon": 0.0, "lon": -76.988489, "lat": 38.867320666666664, "is_reserved": 0, "is_disabled": 0, "rental_uris": {"android": "https://dc.lft.to/lastmile_qr_scan", "ios": "https://dc.lft.to/lastmile_qr_scan"}, "name": "dff7a376d3614fddb6ac88209b2fc0ac", "type": "electric_scooter"}, {"fusion_lat": 0.0, "bike_id": "f09f0f13c2597f791e7b4fd1c8184f86", "fusion_lon": 0.0, "lon": -77.01740783333334, "lat": 38.88743233333334, "is_reserved": 0, "is_disabled": 0, "rental_uris": {"android": "https://dc.lft.to/lastmile_qr_scan", "ios": "https://dc.lft.to/lastmile_qr_scan"}, "name": "f09f0f13c2597f791e7b4fd1c8184f86", "type": "electric_scooter"}, {"fusion_lat": 0.0, "bike_id": "e48d4589aaaef2d164bcee518d97a02d", "fusion_lon": 0.0, "lon": -76.99369516666667, "lat": 38.87970683333333, "is_reserved": 0, "is_disabled": 0, "rental_uris": {"android": "https://dc.lft.to/lastmile_qr_scan", "ios": "https://dc.lft.to/lastmile_qr_scan"}, "name": "e48d4589aaaef2d164bcee518d97a02d", "type": "electric_scooter"}, {"fusion_lat": 0.0, "bike_id": "15e564df667fb2f1e56923388734bd61", "fusion_lon": 0.0, "lon": -77.0471545, "lat": 38.899766666666665, "is_reserved": 0, "is_disabled": 0, "rental_uris": {"android": "https://dc.lft.to/lastmile_qr_scan", "ios": "https://dc.lft.to/lastmile_qr_scan"}, "name": "15e564df667fb2f1e56923388734bd61", "type": "electric_scooter"}, {"fusion_lat": 0.0, "bike_id": "faff60a01c32010e19cfe0d3117b04d5", "fusion_lon": 0.0, "lon": -77.02443483333333, "lat": 38.914134, "is_reserved": 0, "is_disabled": 0, "rental_uris": {"android": "https://dc.lft.to/lastmile_qr_scan", "ios": "https://dc.lft.to/lastmile_qr_scan"}, "name": "faff60a01c32010e19cfe0d3117b04d5", "type": "electric_scooter"}, {"fusion_lat": 0.0, "bike_id": "bb7e1ca095d903141cc661fb21933dd4", "fusion_lon": 0.0, "lon": -77.04334483333334, "lat": 38.89221383333334, "is_reserved": 0, "is_disabled": 0, "rental_uris": {"android": "https://dc.lft.to/lastmile_qr_scan", "ios": "https://dc.lft.to/lastmile_qr_scan"}, "name": "bb7e1ca095d903141cc661fb21933dd4", "type": "electric_scooter"}, {"fusion_lat": 0.0, "bike_id": "fce399ef84c27e07a9d7987b262f6bb1", "fusion_lon": 0.0, "lon": -77.044174, "lat": 38.897222166666666, "is_reserved": 0, "is_disabled": 0, "rental_uris": {"android": "https://dc.lft.to/lastmile_qr_scan", "ios": "https://dc.lft.to/lastmile_qr_scan"}, "name": "fce399ef84c27e07a9d7987b262f6bb1", "type": "electric_scooter"}, {"fusion_lat": 0.0, "bike_id": "03eb21576b7693a74757fc4ea2158c74", "fusion_lon": 0.0, "lon": -77.02383566666667, "lat": 38.892336666666665, "is_reserved": 0, "is_disabled": 0, "rental_uris": {"android": "https://dc.lft.to/lastmile_qr_scan", "ios": "https://dc.lft.to/lastmile_qr_scan"}, "name": "03eb21576b7693a74757fc4ea2158c74", "type": "electric_scooter"}, {"fusion_lat": 0.0, "bike_id": "21ca495c1483a5c6013d57323faaf4ec", "fusion_lon": 0.0, "lon": -77.00556683333333, "lat": 38.875514833333334, "is_reserved": 0, "is_disabled": 0, "rental_uris": {"android": "https://dc.lft.to/lastmile_qr_scan", "ios": "https://dc.lft.to/lastmile_qr_scan"}, "name": "21ca495c1483a5c6013d57323faaf4ec", "type": "electric_scooter"}, {"fusion_lat": 0.0, "bike_id": "30c2c0e81431e6cd8530193ad2b1a682", "fusion_lon": 0.0, "lon": -77.01892033333333, "lat": 38.930888333333336, "is_reserved": 0, "is_disabled": 0, "rental_uris": {"android": "https://dc.lft.to/lastmile_qr_scan", "ios": "https://dc.lft.to/lastmile_qr_scan"}, "name": "30c2c0e81431e6cd8530193ad2b1a682", "type": "electric_scooter"}, {"fusion_lat": 0.0, "bike_id": "92300eb6b3bb0f24ed1a06cfd02b13d4", "fusion_lon": 0.0, "lon": -77.03197983333334, "lat": 38.912465166666664, "is_reserved": 0, "is_disabled": 0, "rental_uris": {"android": "https://dc.lft.to/lastmile_qr_scan", "ios": "https://dc.lft.to/lastmile_qr_scan"}, "name": "92300eb6b3bb0f24ed1a06cfd02b13d4", "type": "electric_scooter"}, {"fusion_lat": 0.0, "bike_id": "9798c8e3e92404b7800cf1212d90c8e1", "fusion_lon": 0.0, "lon": -77.04500683333333, "lat": 38.892225833333335, "is_reserved": 0, "is_disabled": 0, "rental_uris": {"android": "https://dc.lft.to/lastmile_qr_scan", "ios": "https://dc.lft.to/lastmile_qr_scan"}, "name": "9798c8e3e92404b7800cf1212d90c8e1", "type": "electric_scooter"}, {"fusion_lat": 0.0, "bike_id": "8714b7ce8e3268e5c7995362518f0986", "fusion_lon": 0.0, "lon": -76.929459, "lat": 38.88444033333333, "is_reserved": 0, "is_disabled": 0, "rental_uris": {"android": "https://dc.lft.to/lastmile_qr_scan", "ios": "https://dc.lft.to/lastmile_qr_scan"}, "name": "8714b7ce8e3268e5c7995362518f0986", "type": "electric_scooter"}, {"fusion_lat": 0.0, "bike_id": "9d61993e2c2b4fc2859c3ad01e99d663", "fusion_lon": 0.0, "lon": -77.02541416666666, "lat": 38.920819333333334, "is_reserved": 0, "is_disabled": 0, "rental_uris": {"android": "https://dc.lft.to/lastmile_qr_scan", "ios": "https://dc.lft.to/lastmile_qr_scan"}, "name": "9d61993e2c2b4fc2859c3ad01e99d663", "type": "electric_scooter"}, {"fusion_lat": 0.0, "bike_id": "ab0519de4204d0a426a8e8c07cb36d0f", "fusion_lon": 0.0, "lon": -77.02455716666667, "lat": 38.91406833333333, "is_reserved": 0, "is_disabled": 0, "rental_uris": {"android": "https://dc.lft.to/lastmile_qr_scan", "ios": "https://dc.lft.to/lastmile_qr_scan"}, "name": "ab0519de4204d0a426a8e8c07cb36d0f", "type": "electric_scooter"}, {"fusion_lat": 0.0, "bike_id": "1126fe48abbdfbe5989df1420dc88478", "fusion_lon": 0.0, "lon": -77.03709616666667, "lat": 38.91485516666667, "is_reserved": 0, "is_disabled": 0, "rental_uris": {"android": "https://dc.lft.to/lastmile_qr_scan", "ios": "https://dc.lft.to/lastmile_qr_scan"}, "name": "1126fe48abbdfbe5989df1420dc88478", "type": "electric_scooter"}, {"fusion_lat": 0.0, "bike_id": "7eb3f91bcd90431abc7b7655768bf389", "fusion_lon": 0.0, "lon": -77.0515295, "lat": 38.8975685, "is_reserved": 0, "is_disabled": 0, "rental_uris": {"android": "https://dc.lft.to/lastmile_qr_scan", "ios": "https://dc.lft.to/lastmile_qr_scan"}, "name": "7eb3f91bcd90431abc7b7655768bf389", "type": "electric_scooter"}, {"fusion_lat": 0.0, "bike_id": "47e61af251bb911f69173d8ef51e1a62", "fusion_lon": 0.0, "lon": -77.02185883333334, "lat": 38.89487283333333, "is_reserved": 0, "is_disabled": 0, "rental_uris": {"android": "https://dc.lft.to/lastmile_qr_scan", "ios": "https://dc.lft.to/lastmile_qr_scan"}, "name": "47e61af251bb911f69173d8ef51e1a62", "type": "electric_scooter"}, {"fusion_lat": 0.0, "bike_id": "fa4b3b92d925a604af220a770bdfc491", "fusion_lon": 0.0, "lon": -77.0448315, "lat": 38.9004545, "is_reserved": 0, "is_disabled": 0, "rental_uris": {"android": "https://dc.lft.to/lastmile_qr_scan", "ios": "https://dc.lft.to/lastmile_qr_scan"}, "name": "fa4b3b92d925a604af220a770bdfc491", "type": "electric_scooter"}, {"fusion_lat": 0.0, "bike_id": "5496b5ee492d39f50d3a4ff1e4be1b5e", "fusion_lon": 0.0, "lon": -76.99119916666666, "lat": 38.901442, "is_reserved": 0, "is_disabled": 0, "rental_uris": {"android": "https://dc.lft.to/lastmile_qr_scan", "ios": "https://dc.lft.to/lastmile_qr_scan"}, "name": "5496b5ee492d39f50d3a4ff1e4be1b5e", "type": "electric_scooter"}, {"fusion_lat": 0.0, "bike_id": "78cd17729a70a10c66d79c8f4d7cf8dd", "fusion_lon": 0.0, "lon": -77.03261833333333, "lat": 38.932631666666666, "is_reserved": 0, "is_disabled": 0, "rental_uris": {"android": "https://dc.lft.to/lastmile_qr_scan", "ios": "https://dc.lft.to/lastmile_qr_scan"}, "name": "78cd17729a70a10c66d79c8f4d7cf8dd", "type": "electric_scooter"}, {"fusion_lat": 0.0, "bike_id": "23dd35d895960fef3e3733b74b8a2909", "fusion_lon": 0.0, "lon": -77.021689, "lat": 38.89338266666667, "is_reserved": 0, "is_disabled": 0, "rental_uris": {"android": "https://dc.lft.to/lastmile_qr_scan", "ios": "https://dc.lft.to/lastmile_qr_scan"}, "name": "23dd35d895960fef3e3733b74b8a2909", "type": "electric_scooter"}, {"fusion_lat": 0.0, "bike_id": "8959c4b274e9dc81ab15ac18e91bc160", "fusion_lon": 0.0, "lon": -77.02529733333333, "lat": 38.91816883333333, "is_reserved": 0, "is_disabled": 0, "rental_uris": {"android": "https://dc.lft.to/lastmile_qr_scan", "ios": "https://dc.lft.to/lastmile_qr_scan"}, "name": "8959c4b274e9dc81ab15ac18e91bc160", "type": "electric_scooter"}, {"fusion_lat": 0.0, "bike_id": "cc764465f2f8d9c6607c842e05f84fe2", "fusion_lon": 0.0, "lon": -77.017733, "lat": 38.88599116666666, "is_reserved": 0, "is_disabled": 0, "rental_uris": {"android": "https://dc.lft.to/lastmile_qr_scan", "ios": "https://dc.lft.to/lastmile_qr_scan"}, "name": "cc764465f2f8d9c6607c842e05f84fe2", "type": "electric_scooter"}, {"fusion_lat": 0.0, "bike_id": "bdeb9cbcdda96c761f4b1f35f1bbd868", "fusion_lon": 0.0, "lon": -77.02840433333333, "lat": 38.88743133333333, "is_reserved": 0, "is_disabled": 0, "rental_uris": {"android": "https://dc.lft.to/lastmile_qr_scan", "ios": "https://dc.lft.to/lastmile_qr_scan"}, "name": "bdeb9cbcdda96c761f4b1f35f1bbd868", "type": "electric_scooter"}, {"fusion_lat": 0.0, "bike_id": "e900e0794284968f3b3ed8903b576eb0", "fusion_lon": 0.0, "lon": -77.03842216666666, "lat": 38.921640333333336, "is_reserved": 0, "is_disabled": 0, "rental_uris": {"android": "https://dc.lft.to/lastmile_qr_scan", "ios": "https://dc.lft.to/lastmile_qr_scan"}, "name": "e900e0794284968f3b3ed8903b576eb0", "type": "electric_scooter"}, {"fusion_lat": 0.0, "bike_id": "b8b370dd179de462b14f482c7f77cd08", "fusion_lon": 0.0, "lon": -77.073623, "lat": 38.961893333333336, "is_reserved": 0, "is_disabled": 0, "rental_uris": {"android": "https://dc.lft.to/lastmile_qr_scan", "ios": "https://dc.lft.to/lastmile_qr_scan"}, "name": "b8b370dd179de462b14f482c7f77cd08", "type": "electric_bike"}, {"fusion_lat": 0.0, "bike_id": "cef5839c09afef7874517b7245f9f8b1", "fusion_lon": 0.0, "lon": -77.0220445, "lat": 38.922329166666664, "is_reserved": 0, "is_disabled": 0, "rental_uris": {"android": "https://dc.lft.to/lastmile_qr_scan", "ios": "https://dc.lft.to/lastmile_qr_scan"}, "name": "cef5839c09afef7874517b7245f9f8b1", "type": "electric_scooter"}, {"fusion_lat": 0.0, "bike_id": "31fa8270b61a3184e2d61940aabf22b9", "fusion_lon": 0.0, "lon": -77.07605, "lat": 38.92056733333333, "is_reserved": 0, "is_disabled": 0, "rental_uris": {"android": "https://dc.lft.to/lastmile_qr_scan", "ios": "https://dc.lft.to/lastmile_qr_scan"}, "name": "31fa8270b61a3184e2d61940aabf22b9", "type": "electric_scooter"}, {"fusion_lat": 0.0, "bike_id": "8b0c0ad5871dc1fc373ed2fcc639b7cc", "fusion_lon": 0.0, "lon": -77.05175816666667, "lat": 38.90313883333334, "is_reserved": 0, "is_disabled": 0, "rental_uris": {"android": "https://dc.lft.to/lastmile_qr_scan", "ios": "https://dc.lft.to/lastmile_qr_scan"}, "name": "8b0c0ad5871dc1fc373ed2fcc639b7cc", "type": "electric_scooter"}, {"fusion_lat": 0.0, "bike_id": "18849cb2e0512f4628159423fe3594f4", "fusion_lon": 0.0, "lon": -76.98078283333334, "lat": 38.9041085, "is_reserved": 0, "is_disabled": 0, "rental_uris": {"android": "https://dc.lft.to/lastmile_qr_scan", "ios": "https://dc.lft.to/lastmile_qr_scan"}, "name": "18849cb2e0512f4628159423fe3594f4", "type": "electric_scooter"}, {"fusion_lat": 0.0, "bike_id": "1f9a70d8174c2416c60ffd57a5587be9", "fusion_lon": 0.0, "lon": -77.04178233333333, "lat": 38.892489, "is_reserved": 0, "is_disabled": 0, "rental_uris": {"android": "https://dc.lft.to/lastmile_qr_scan", "ios": "https://dc.lft.to/lastmile_qr_scan"}, "name": "1f9a70d8174c2416c60ffd57a5587be9", "type": "electric_scooter"}, {"fusion_lat": 0.0, "bike_id": "1dfc8b935af997b4e71ad0fcf6eec653", "fusion_lon": 0.0, "lon": -77.116067, "lat": 38.854883, "is_reserved": 0, "is_disabled": 0, "rental_uris": {"android": "https://dc.lft.to/lastmile_qr_scan", "ios": "https://dc.lft.to/lastmile_qr_scan"}, "name": "1dfc8b935af997b4e71ad0fcf6eec653", "type": "electric_bike"}, {"fusion_lat": 0.0, "bike_id": "f1663c4ce49f6497906cbf613ccc9ec0", "fusion_lon": 0.0, "lon": -77.00330766666667, "lat": 38.89363266666667, "is_reserved": 0, "is_disabled": 0, "rental_uris": {"android": "https://dc.lft.to/lastmile_qr_scan", "ios": "https://dc.lft.to/lastmile_qr_scan"}, "name": "f1663c4ce49f6497906cbf613ccc9ec0", "type": "electric_scooter"}, {"fusion_lat": 0.0, "bike_id": "502100a53db05c3ed93fff3e735f3d18", "fusion_lon": 0.0, "lon": -77.03549716666667, "lat": 38.92403733333333, "is_reserved": 0, "is_disabled": 0, "rental_uris": {"android": "https://dc.lft.to/lastmile_qr_scan", "ios": "https://dc.lft.to/lastmile_qr_scan"}, "name": "502100a53db05c3ed93fff3e735f3d18", "type": "electric_scooter"}, {"fusion_lat": 0.0, "bike_id": "937d2705809825946dbe2e200c7498e6", "fusion_lon": 0.0, "lon": -77.03510616666667, "lat": 38.927419, "is_reserved": 0, "is_disabled": 0, "rental_uris": {"android": "https://dc.lft.to/lastmile_qr_scan", "ios": "https://dc.lft.to/lastmile_qr_scan"}, "name": "937d2705809825946dbe2e200c7498e6", "type": "electric_scooter"}, {"fusion_lat": 0.0, "bike_id": "224ab29ff49414131d4a33350c47b321", "fusion_lon": 0.0, "lon": -77.04870666666666, "lat": 38.89231083333333, "is_reserved": 0, "is_disabled": 0, "rental_uris": {"android": "https://dc.lft.to/lastmile_qr_scan", "ios": "https://dc.lft.to/lastmile_qr_scan"}, "name": "224ab29ff49414131d4a33350c47b321", "type": "electric_scooter"}, {"fusion_lat": 0.0, "bike_id": "016525f033649031ee1037738f5c50e6", "fusion_lon": 0.0, "lon": -77.1115305, "lat": 38.85516583333333, "is_reserved": 0, "is_disabled": 0, "rental_uris": {"android": "https://dc.lft.to/lastmile_qr_scan", "ios": "https://dc.lft.to/lastmile_qr_scan"}, "name": "016525f033649031ee1037738f5c50e6", "type": "electric_bike"}, {"fusion_lat": 0.0, "bike_id": "7439c771817c17c0ff09f7cf7cb394fa", "fusion_lon": 0.0, "lon": -76.93190833333334, "lat": 38.8988015, "is_reserved": 0, "is_disabled": 0, "rental_uris": {"android": "https://dc.lft.to/lastmile_qr_scan", "ios": "https://dc.lft.to/lastmile_qr_scan"}, "name": "7439c771817c17c0ff09f7cf7cb394fa", "type": "electric_scooter"}, {"fusion_lat": 0.0, "bike_id": "205ce69486b2a74a6d21019b20f33e34", "fusion_lon": 0.0, "lon": -77.0589145, "lat": 38.9360735, "is_reserved": 0, "is_disabled": 0, "rental_uris": {"android": "https://dc.lft.to/lastmile_qr_scan", "ios": "https://dc.lft.to/lastmile_qr_scan"}, "name": "205ce69486b2a74a6d21019b20f33e34", "type": "electric_scooter"}, {"fusion_lat": 0.0, "bike_id": "c698e8065ad4bb04616560716bfabffb", "fusion_lon": 0.0, "lon": -77.03462483333334, "lat": 38.9170925, "is_reserved": 0, "is_disabled": 0, "rental_uris": {"android": "https://dc.lft.to/lastmile_qr_scan", "ios": "https://dc.lft.to/lastmile_qr_scan"}, "name": "c698e8065ad4bb04616560716bfabffb", "type": "electric_scooter"}, {"fusion_lat": 0.0, "bike_id": "63d3c1c33974e5be1cf89d63d15e5dd0", "fusion_lon": 0.0, "lon": -77.0382985, "lat": 38.9110515, "is_reserved": 0, "is_disabled": 0, "rental_uris": {"android": "https://dc.lft.to/lastmile_qr_scan", "ios": "https://dc.lft.to/lastmile_qr_scan"}, "name": "63d3c1c33974e5be1cf89d63d15e5dd0", "type": "electric_scooter"}, {"fusion_lat": 0.0, "bike_id": "c2a80ca4b7851c31f1a2c7c2e86a9855", "fusion_lon": 0.0, "lon": -77.00108883333333, "lat": 38.91248, "is_reserved": 0, "is_disabled": 0, "rental_uris": {"android": "https://dc.lft.to/lastmile_qr_scan", "ios": "https://dc.lft.to/lastmile_qr_scan"}, "name": "c2a80ca4b7851c31f1a2c7c2e86a9855", "type": "electric_scooter"}, {"fusion_lat": 0.0, "bike_id": "878e52c6f2ec9405ba513e41c76f0fc2", "fusion_lon": 0.0, "lon": -76.948817, "lat": 38.89508383333333, "is_reserved": 0, "is_disabled": 0, "rental_uris": {"android": "https://dc.lft.to/lastmile_qr_scan", "ios": "https://dc.lft.to/lastmile_qr_scan"}, "name": "878e52c6f2ec9405ba513e41c76f0fc2", "type": "electric_scooter"}, {"fusion_lat": 0.0, "bike_id": "9863cec4af6b7cc5af04a99dab80a1ff", "fusion_lon": 0.0, "lon": -77.0320575, "lat": 38.895300666666664, "is_reserved": 0, "is_disabled": 0, "rental_uris": {"android": "https://dc.lft.to/lastmile_qr_scan", "ios": "https://dc.lft.to/lastmile_qr_scan"}, "name": "9863cec4af6b7cc5af04a99dab80a1ff", "type": "electric_scooter"}, {"fusion_lat": 0.0, "bike_id": "443a09402952b686fdcc82514bd5c257", "fusion_lon": 0.0, "lon": -77.0437435, "lat": 38.892221166666666, "is_reserved": 0, "is_disabled": 0, "rental_uris": {"android": "https://dc.lft.to/lastmile_qr_scan", "ios": "https://dc.lft.to/lastmile_qr_scan"}, "name": "443a09402952b686fdcc82514bd5c257", "type": "electric_scooter"}, {"fusion_lat": 0.0, "bike_id": "e454eba05251388c149866cbfadbcffc", "fusion_lon": 0.0, "lon": -76.93172883333334, "lat": 38.89885, "is_reserved": 0, "is_disabled": 0, "rental_uris": {"android": "https://dc.lft.to/lastmile_qr_scan", "ios": "https://dc.lft.to/lastmile_qr_scan"}, "name": "e454eba05251388c149866cbfadbcffc", "type": "electric_scooter"}, {"fusion_lat": 0.0, "bike_id": "515c4b75a449acced6106d9f4ae8b8e2", "fusion_lon": 0.0, "lon": -77.02487, "lat": 38.9274615, "is_reserved": 0, "is_disabled": 0, "rental_uris": {"android": "https://dc.lft.to/lastmile_qr_scan", "ios": "https://dc.lft.to/lastmile_qr_scan"}, "name": "515c4b75a449acced6106d9f4ae8b8e2", "type": "electric_scooter"},