{"data": {"bikes": [{"bike_id": "1dbd5f152e75ee6f3a7bb31f89518b20", "is_reserved": 0, "name": "1dbd5f152e75ee6f3a7bb31f89518b20", "lat": 38.9180895, "fusion_lat": 0.0, "lon": -77.04002816666667, "is_disabled": 0, "fusion_lon": 0.0, "rental_uris": {"android": "https://dc.lft.to/lastmile_qr_scan", "ios": "https://dc.lft.to/lastmile_qr_scan"}, "type": "electric_scooter"}, {"bike_id": "34b96026bc513425651391185fde867c", "is_reserved": 0, "name": "34b96026bc513425651391185fde867c", "lat": 38.930516, "fusion_lat": 0.0, "lon": -77.0232985, "is_disabled": 0, "fusion_lon": 0.0, "rental_uris": {"android": "https://dc.lft.to/lastmile_qr_scan", "ios": "https://dc.lft.to/lastmile_qr_scan"}, "type": "electric_scooter"}, {"bike_id": "682bfe5f249d1946946e1b1ac5f5590c", "is_reserved": 0, "name": "682bfe5f249d1946946e1b1ac5f5590c", "lat": 38.95591533333333, "fusion_lat": 0.0, "lon": -77.03363166666666, "is_disabled": 0, "fusion_lon": 0.0, "rental_uris": {"android": "https://dc.lft.to/lastmile_qr_scan", "ios": "https://dc.lft.to/lastmile_qr_scan"}, "type": "electric_scooter"}, {"bike_id": "392e3e2d710d88c21b5ea33078a7e215", "is_reserved": 0, "name": "392e3e2d710d88c21b5ea33078a7e215", "lat": 38.91420866666667, "fusion_lat": 0.0, "lon": -77.01798583333333, "is_disabled": 0, "fusion_lon": 0.0, "rental_uris": {"android": "https://dc.lft.to/lastmile_qr_scan", "ios": "https://dc.lft.to/lastmile_qr_scan"}, "type": "electric_scooter"}, {"bike_id": "4dd7a32e6bf3523c5fabefdf04cae689", "is_reserved": 0, "name": "4dd7a32e6bf3523c5fabefdf04cae689", "lat": 38.937779166666665, "fusion_lat": 0.0, "lon": -77.03260816666666, "is_disabled": 0, "fusion_lon": 0.0, "rental_uris": {"android": "https://dc.lft.to/lastmile_qr_scan", "ios": "https://dc.lft.to/lastmile_qr_scan"}, "type": "electric_scooter"}, {"bike_id": "80004ed8835a46f72bba721e3d9d6271", "is_reserved": 0, "name": "80004ed8835a46f72bba721e3d9d6271", "lat": 38.874598166666665, "fusion_lat": 0.0, "lon": -77.00924316666666, "is_disabled": 0, "fusion_lon": 0.0, "rental_uris": {"android": "https://dc.lft.to/lastmile_qr_scan", "ios": "https://dc.lft.to/lastmile_qr_scan"}, "type": "electric_scooter"}, {"bike_id": "cee542c4129dd062668b666184b52ebf", "is_reserved": 0, "name": "cee542c4129dd062668b666184b52ebf", "lat": 38.896054, "fusion_lat": 0.0, "lon": -77.02349366666667, "is_disabled": 0, "fusion_lon": 0.0, "rental_uris": {"android": "https://dc.lft.to/lastmile_qr_scan", "ios": "https://dc.lft.to/lastmile_qr_scan"}, "type": "electric_scooter"}, {"bike_id": "b2a0b8ffc2c8fa7af30c7c8961ced149", "is_reserved": 0, "name": "b2a0b8ffc2c8fa7af30c7c8961ced149", "lat": 38.9118305, "fusion_lat": 0.0, "lon": -77.03759133333334, "is_disabled": 0, "fusion_lon": 0.0, "rental_uris": {"android": "https://dc.lft.to/lastmile_qr_scan", "ios": "https://dc.lft.to/lastmile_qr_scan"}, "type": "electric_scooter"}, {"bike_id": "0004a66943eb6dd8e08f05d1da7f0dac", "is_reserved": 0, "name": "0004a66943eb6dd8e08f05d1da7f0dac", "lat": 38.9473635, "fusion_lat": 0.0, "lon": -77.01620333333334, "is_disabled": 0, "fusion_lon": 0.0, "rental_uris": {"android": "https://dc.lft.to/lastmile_qr_scan", "ios": "https://dc.lft.to/lastmile_qr_scan"}, "type": "electric_scooter"}, {"bike_id": "dd0bc1aacbfdb9717498fa576efe0c1e", "is_reserved": 0, "name": "dd0bc1aacbfdb9717498fa576efe0c1e", "lat": 38.934789, "fusion_lat": 0.0, "lon": -77.02722, "is_disabled": 0, "fusion_lon": 0.0, "rental_uris": {"android": "https://dc.lft.to/lastmile_qr_scan", "ios": "https://dc.lft.to/lastmile_qr_scan"}, "type": "electric_scooter"}, {"bike_id": "49b4fc358d44cb12cfeaefdf80374ce3", "is_reserved": 0, "name": "49b4fc358d44cb12cfeaefdf80374ce3", "lat": 38.90477116666667, "fusion_lat": 0.0, "lon": -77.00741133333334, "is_disabled": 0, "fusion_lon": 0.0, "rental_uris": {"android": "https://dc.lft.to/lastmile_qr_scan", "ios": "https://dc.lft.to/lastmile_qr_scan"}, "type": "electric_scooter"}, {"bike_id": "7b1b4337b3bd2f9236c13935291313cf", "is_reserved": 0, "name": "7b1b4337b3bd2f9236c13935291313cf", "lat": 38.90686616666667, "fusion_lat": 0.0, "lon": -77.03832083333333, "is_disabled": 0, "fusion_lon": 0.0, "rental_uris": {"android": "https://dc.lft.to/lastmile_qr_scan", "ios": "https://dc.lft.to/lastmile_qr_scan"}, "type": "electric_scooter"}, {"bike_id": "f0e4ae8c8561a282196afd26decbfaea", "is_reserved": 0, "name": "f0e4ae8c8561a282196afd26decbfaea", "lat": 38.912958333333336, "fusion_lat": 0.0, "lon": -77.02230233333333, "is_disabled": 0, "fusion_lon": 0.0, "rental_uris": {"android": "https://dc.lft.to/lastmile_qr_scan", "ios": "https://dc.lft.to/lastmile_qr_scan"}, "type": "electric_scooter"}, {"bike_id": "b5f7b2ece7e033604ecde9b5f91de9f2", "is_reserved": 0, "name": "b5f7b2ece7e033604ecde9b5f91de9f2", "lat": 38.902389666666664, "fusion_lat": 0.0, "lon": -77.061405, "is_disabled": 0, "fusion_lon": 0.0, "rental_uris": {"android": "https://dc.lft.to/lastmile_qr_scan", "ios": "https://dc.lft.to/lastmile_qr_scan"}, "type": "electric_scooter"}, {"bike_id": "78f83b61c38838fba17acf4492714f36", "is_reserved": 0, "name": "78f83b61c38838fba17acf4492714f36", "lat": 38.91183383333333, "fusion_lat": 0.0, "lon": -77.04120533333334, "is_disabled": 0, "fusion_lon": 0.0, "rental_uris": {"android": "https://dc.lft.to/lastmile_qr_scan", "ios": "https://dc.lft.to/lastmile_qr_scan"}, "type": "electric_scooter"}, {"bike_id": "53b30672f2726274b82f4069693d2b5f", "is_reserved": 0, "name": "53b30672f2726274b82f4069693d2b5f", "lat": 38.832485166666665, "fusion_lat": 0.0, "lon": -77.00725016666667, "is_disabled": 0, "fusion_lon": 0.0, "rental_uris": {"android": "https://dc.lft.to/lastmile_qr_scan", "ios": "https://dc.lft.to/lastmile_qr_scan"}, "type": "electric_bike"}, {"bike_id": "d73fce089b353f8be69d2dfcd1d75d6b", "is_reserved": 0, "name": "d73fce089b353f8be69d2dfcd1d75d6b", "lat": 38.9140035, "fusion_lat": 0.0, "lon": -77.008451, "is_disabled": 0, "fusion_lon": 0.0, "rental_uris": {"android": "https://dc.lft.to/lastmile_qr_scan", "ios": "https://dc.lft.to/lastmile_qr_scan"}, "type": "electric_scooter"}, {"bike_id": "ead648e59f5a32e463474a6f83305eb5", "is_reserved": 0, "name": "ead648e59f5a32e463474a6f83305eb5", "lat": 38.89626833333333, "fusion_lat": 0.0, "lon": -77.02674866666666, "is_disabled": 0, "fusion_lon": 0.0, "rental_uris": {"android": "https://dc.lft.to/lastmile_qr_scan", "ios": "https://dc.lft.to/lastmile_qr_scan"}, "type": "electric_scooter"}, {"bike_id": "3132379c248549b0f5a3cf618fc015c3", "is_reserved": 0, "name": "3132379c248549b0f5a3cf618fc015c3", "lat": 38.899137, "fusion_lat": 0.0, "lon": -76.94549016666667, "is_disabled": 0, "fusion_lon": 0.0, "rental_uris": {"android": "https://dc.lft.to/lastmile_qr_scan", "ios": "https://dc.lft.to/lastmile_qr_scan"}, "type": "electric_scooter"}, {"bike_id": "ec687dc5eeba91588bf079402aec0701", "is_reserved": 0, "name": "ec687dc5eeba91588bf079402aec0701", "lat": 38.90755166666667, "fusion_lat": 0.0, "lon": -77.04140583333333, "is_disabled": 0, "fusion_lon": 0.0, "rental_uris": {"android": "https://dc.lft.to/lastmile_qr_scan", "ios": "https://dc.lft.to/lastmile_qr_scan"}, "type": "electric_scooter"}, {"bike_id": "567bdd1a415478c1360975e3fb4aa51b", "is_reserved": 0, "name": "567bdd1a415478c1360975e3fb4aa51b", "lat": 38.91663116666667, "fusion_lat": 0.0, "lon": -77.04377833333334, "is_disabled": 0, "fusion_lon": 0.0, "rental_uris": {"android": "https://dc.lft.to/lastmile_qr_scan", "ios": "https://dc.lft.to/lastmile_qr_scan"}, "type": "electric_scooter"}, {"bike_id": "3a4273be2f0dc78c1f5d9e3a4e3b1d06", "is_reserved": 0, "name": "3a4273be2f0dc78c1f5d9e3a4e3b1d06", "lat": 38.923148166666664, "fusion_lat": 0.0, "lon": -77.03401, "is_disabled": 0, "fusion_lon": 0.0, "rental_uris": {"android": "https://dc.lft.to/lastmile_qr_scan", "ios": "https://dc.lft.to/lastmile_qr_scan"}, "type": "electric_scooter"}, {"bike_id": "271d09e70f8f1cf8ba7aed104e7e68eb", "is_reserved": 0, "name": "271d09e70f8f1cf8ba7aed104e7e68eb", "lat": 38.900953, "fusion_lat": 0.0, "lon": -77.03353916666667, "is_disabled": 0, "fusion_lon": 0.0, "rental_uris": {"android": "https://dc.lft.to/lastmile_qr_scan", "ios": "https://dc.lft.to/lastmile_qr_scan"}, "type": "electric_scooter"}, {"bike_id": "e9991f242c2def54901d7ff65e33fb72", "is_reserved": 0, "name": "e9991f242c2def54901d7ff65e33fb72", "lat": 38.90353983333333, "fusion_lat": 0.0, "lon": -77.03855833333333, "is_disabled": 0, "fusion_lon": 0.0, "rental_uris": {"android": "https://dc.lft.to/lastmile_qr_scan", "ios": "https://dc.lft.to/lastmile_qr_scan"}, "type": "electric_scooter"}, {"bike_id": "0c41b2a7f0e916759ce144ee9cccb3ec", "is_reserved": 0, "name": "0c41b2a7f0e916759ce144ee9cccb3ec", "lat": 38.89220233333333, "fusion_lat": 0.0, "lon": -77.04866983333334, "is_disabled": 0, "fusion_lon": 0.0, "rental_uris": {"android": "https://dc.lft.to/lastmile_qr_scan", "ios": "https://dc.lft.to/lastmile_qr_scan"}, "type": "electric_scooter"}, {"bike_id": "5f1116f39ec4af66ee71d4faf5053a17", "is_reserved": 0, "name": "5f1116f39ec4af66ee71d4faf5053a17", "lat": 38.9018695, "fusion_lat": 0.0, "lon": -77.01612583333333, "is_disabled": 0, "fusion_lon": 0.0, "rental_uris": {"android": "https://dc.lft.to/lastmile_qr_scan", "ios": "https://dc.lft.to/lastmile_qr_scan"}, "type": "electric_scooter"}, {"bike_id": "d25d5281c78ef7baea5288acfd4971dd", "is_reserved": 0, "name": "d25d5281c78ef7baea5288acfd4971dd", "lat": 38.8763965, "fusion_lat": 0.0, "lon": -77.00344316666667, "is_disabled": 0, "fusion_lon": 0.0, "rental_uris": {"android": "https://dc.lft.to/lastmile_qr_scan", "ios": "https://dc.lft.to/lastmile_qr_scan"}, "type": "electric_scooter"}, {"bike_id": "00e1a52126afb9d617996c74752ce2fc", "is_reserved": 0, "name": "00e1a52126afb9d617996c74752ce2fc", "lat": 38.904848, "fusion_lat": 0.0, "lon": -77.00203116666667, "is_disabled": 0, "fusion_lon": 0.0, "rental_uris": {"android": "https://dc.lft.to/lastmile_qr_scan", "ios": "https://dc.lft.to/lastmile_qr_scan"}, "type": "electric_scooter"}, {"bike_id": "042886b7a92c632662c9dce52666c66b", "is_reserved": 0, "name": "042886b7a92c632662c9dce52666c66b", "lat": 38.905725333333336, "fusion_lat": 0.0, "lon": -77.02207833333334, "is_disabled": 0, "fusion_lon": 0.0, "rental_uris": {"android": "https://dc.lft.to/lastmile_qr_scan", "ios": "https://dc.lft.to/lastmile_qr_scan"}, "type": "electric_scooter"}, {"bike_id": "8a8b1e325c82c1c835946cc83ceaf90a", "is_reserved": 0, "name": "8a8b1e325c82c1c835946cc83ceaf90a", "lat": 38.89899416666667, "fusion_lat": 0.0, "lon": -76.98492333333333, "is_disabled": 0, "fusion_lon": 0.0, "rental_uris": {"android": "https://dc.lft.to/lastmile_qr_scan", "ios": "https://dc.lft.to/lastmile_qr_scan"}, "type": "electric_scooter"}, {"bike_id": "d0bc7489cda7c788bef51b200cff8a62", "is_reserved": 0, "name": "d0bc7489cda7c788bef51b200cff8a62", "lat": 39.004803, "fusion_lat": 0.0, "lon": -77.02183916666667, "is_disabled": 0, "fusion_lon": 0.0, "rental_uris": {"android": "https://dc.lft.to/lastmile_qr_scan", "ios": "https://dc.lft.to/lastmile_qr_scan"}, "type": "electric_bike"}, {"bike_id": "3206c8a63c8c59c5ac325672a59fb8da", "is_reserved": 0, "name": "3206c8a63c8c59c5ac325672a59fb8da", "lat": 38.923615833333336, "fusion_lat": 0.0, "lon": -77.0194495, "is_disabled": 0, "fusion_lon": 0.0, "rental_uris": {"android": "https://dc.lft.to/lastmile_qr_scan", "ios": "https://dc.lft.to/lastmile_qr_scan"}, "type": "electric_scooter"}, {"bike_id": "b6ae079e96f2eaf390edcae74e8eea4d", "is_reserved": 0, "name": "b6ae079e96f2eaf390edcae74e8eea4d", "lat": 38.94187466666666, "fusion_lat": 0.0, "lon": -77.02485966666667, "is_disabled": 0, "fusion_lon": 0.0, "rental_uris": {"android": "https://dc.lft.to/lastmile_qr_scan", "ios": "https://dc.lft.to/lastmile_qr_scan"}, "type": "electric_scooter"}, {"bike_id": "576f1a2084cafb544824f69fcd909685", "is_reserved": 0, "name": "576f1a2084cafb544824f69fcd909685", "lat": 38.91692583333333, "fusion_lat": 0.0, "lon": -77.03843183333333, "is_disabled": 0, "fusion_lon": 0.0, "rental_uris": {"android": "https://dc.lft.to/lastmile_qr_scan", "ios": "https://dc.lft.to/lastmile_qr_scan"}, "type": "electric_scooter"}, {"bike_id": "090136097fc221b6378200a45b15cb57", "is_reserved": 0, "name": "090136097fc221b6378200a45b15cb57", "lat": 38.90123033333333, "fusion_lat": 0.0, "lon": -77.0020595, "is_disabled": 0, "fusion_lon": 0.0, "rental_uris": {"android": "https://dc.lft.to/lastmile_qr_scan", "ios": "https://dc.lft.to/lastmile_qr_scan"}, "type": "electric_scooter"}, {"bike_id": "bc62e44b5db0aaf6f4a2aecea4b31a92", "is_reserved": 0, "name": "bc62e44b5db0aaf6f4a2aecea4b31a92", "lat": 38.835789166666665, "fusion_lat": 0.0, "lon": -76.99009566666666, "is_disabled": 0, "fusion_lon": 0.0, "rental_uris": {"android": "https://dc.lft.to/lastmile_qr_scan", "ios": "https://dc.lft.to/lastmile_qr_scan"}, "type": "electric_bike"}, {"bike_id": "d4f87811b1362ba38135939887e0d5cc", "is_reserved": 0, "name": "d4f87811b1362ba38135939887e0d5cc", "lat": 38.922209333333335, "fusion_lat": 0.0, "lon": -77.02118, "is_disabled": 0, "fusion_lon": 0.0, "rental_uris": {"android": "https://dc.lft.to/lastmile_qr_scan", "ios": "https://dc.lft.to/lastmile_qr_scan"}, "type": "electric_scooter"}, {"bike_id": "8986b125db27ffeb3607a957cc397bb6", "is_reserved": 0, "name": "8986b125db27ffeb3607a957cc397bb6", "lat": 38.90354833333333, "fusion_lat": 0.0, "lon": -77.02953533333333, "is_disabled": 0, "fusion_lon": 0.0, "rental_uris": {"android": "https://dc.lft.to/lastmile_qr_scan", "ios": "https://dc.lft.to/lastmile_qr_scan"}, "type": "electric_scooter"}, {"bike_id": "eb21b8e6f5b39cb2913214a2a569fb33", "is_reserved": 0, "name": "eb21b8e6f5b39cb2913214a2a569fb33", "lat": 38.8962425, "fusion_lat": 0.0, "lon": -77.021239, "is_disabled": 0, "fusion_lon": 0.0, "rental_uris": {"android": "https://dc.lft.to/lastmile_qr_scan", "ios": "https://dc.lft.to/lastmile_qr_scan"}, "type": "electric_bike"}, {"bike_id": "f80333e1b508d5256c7e94b0dee4c165", "is_reserved": 0, "name": "f80333e1b508d5256c7e94b0dee4c165", "lat": 38.89911883333333, "fusion_lat": 0.0, "lon": -77.0269695, "is_disabled": 0, "fusion_lon": 0.0, "rental_uris": {"android": "https://dc.lft.to/lastmile_qr_scan", "ios": "https://dc.lft.to/lastmile_qr_scan"}, "type": "electric_scooter"}, {"bike_id": "88b4a8ed5c26cd9cd5cb09d5e3cb7747", "is_reserved": 0, "name": "88b4a8ed5c26cd9cd5cb09d5e3cb7747", "lat": 38.90647333333333, "fusion_lat": 0.0, "lon": -77.03155966666667, "is_disabled": 0, "fusion_lon": 0.0, "rental_uris": {"android": "https://dc.lft.to/lastmile_qr_scan", "ios": "https://dc.lft.to/lastmile_qr_scan"}, "type": "electric_scooter"}, {"bike_id": "7e777cfd4093ea5a12682839eeb40f74", "is_reserved": 0, "name": "7e777cfd4093ea5a12682839eeb40f74", "lat": 38.9413595, "fusion_lat": 0.0, "lon": -77.024995, "is_disabled": 0, "fusion_lon": 0.0, "rental_uris": {"android": "https://dc.lft.to/lastmile_qr_scan", "ios": "https://dc.lft.to/lastmile_qr_scan"}, "type": "electric_scooter"}, {"bike_id": "5ac04489f68dc6cd70f1200b879bac9b", "is_reserved": 0, "name": "5ac04489f68dc6cd70f1200b879bac9b", "lat": 38.88771533333333, "fusion_lat": 0.0, "lon": -77.0236955, "is_disabled": 0, "fusion_lon": 0.0, "rental_uris": {"android": "https://dc.lft.to/lastmile_qr_scan", "ios": "https://dc.lft.to/lastmile_qr_scan"}, "type": "electric_scooter"}, {"bike_id": "56ea2d600669a1668f540b2ee5004c6e", "is_reserved": 0, "name": "56ea2d600669a1668f540b2ee5004c6e", "lat": 38.91573783333333, "fusion_lat": 0.0, "lon": -76.98392216666667, "is_disabled": 0, "fusion_lon": 0.0, "rental_uris": {"android": "https://dc.lft.to/lastmile_qr_scan", "ios": "https://dc.lft.to/lastmile_qr_scan"}, "type": "electric_scooter"}, {"bike_id": "02eb369f0aa0d7ee68ec3deca075c311", "is_reserved": 0, "name": "02eb369f0aa0d7ee68ec3deca075c311", "lat": 38.921899333333336, "fusion_lat": 0.0, "lon": -77.04342233333334, "is_disabled": 0, "fusion_lon": 0.0, "rental_uris": {"android": "https://dc.lft.to/lastmile_qr_scan", "ios": "https://dc.lft.to/lastmile_qr_scan"}, "type": "electric_scooter"}, {"bike_id": "4439d86f0cc38e429c259ea5105b6438", "is_reserved": 0, "name": "4439d86f0cc38e429c259ea5105b6438", "lat": 38.954714333333335, "fusion_lat": 0.0, "lon": -77.009144, "is_disabled": 0, "fusion_lon": 0.0, "rental_uris": {"android": "https://dc.lft.to/lastmile_qr_scan", "ios": "https://dc.lft.to/lastmile_qr_scan"}, "type": "electric_scooter"}, {"bike_id": "d813940284869608f13f1bca67c57e50", "is_reserved": 0, "name": "d813940284869608f13f1bca67c57e50", "lat": 38.898523833333336, "fusion_lat": 0.0, "lon": -76.9504465, "is_disabled": 0, "fusion_lon": 0.0, "rental_uris": {"android": "https://dc.lft.to/lastmile_qr_scan", "ios": "https://dc.lft.to/lastmile_qr_scan"}, "type": "electric_scooter"}, {"bike_id": "c71433012a1a19dcb4a718165c0e5bcb", "is_reserved": 0, "name": "c71433012a1a19dcb4a718165c0e5bcb", "lat": 38.9058775, "fusion_lat": 0.0, "lon": -77.047048, "is_disabled": 0, "fusion_lon": 0.0, "rental_uris": {"android": "https://dc.lft.to/lastmile_qr_scan", "ios": "https://dc.lft.to/lastmile_qr_scan"}, "type": "electric_scooter"}, {"bike_id": "beda871067924c13bbc3e5e296bf5221", "is_reserved": 0, "name": "beda871067924c13bbc3e5e296bf5221", "lat": 38.876426333333335, "fusion_lat": 0.0, "lon": -77.00332833333333, "is_disabled": 0, "fusion_lon": 0.0, "rental_uris": {"android": "https://dc.lft.to/lastmile_qr_scan", "ios": "https://dc.lft.to/lastmile_qr_scan"}, "type": "electric_scooter"}, {"bike_id": "7be9fbec8d26e5f2b6baf62d44a8531c", "is_reserved": 0, "name": "7be9fbec8d26e5f2b6baf62d44a8531c", "lat": 38.92116166666667, "fusion_lat": 0.0, "lon": -77.23678383333333, "is_disabled": 0, "fusion_lon": 0.0, "rental_uris": {"android": "https://dc.lft.to/lastmile_qr_scan", "ios": "https://dc.lft.to/lastmile_qr_scan"}, "type": "electric_bike"}, {"bike_id": "f7fb7ea9ac8a967b3d77a0148c921a25", "is_reserved": 0, "name": "f7fb7ea9ac8a967b3d77a0148c921a25", "lat": 38.9190415, "fusion_lat": 0.0, "lon": -77.0317655, "is_disabled": 0, "fusion_lon": 0.0, "rental_uris": {"android": "https://dc.lft.to/lastmile_qr_scan", "ios": "https://dc.lft.to/lastmile_qr_scan"}, "type": "electric_scooter"}, {"bike_id": "c4a3b19525090caef09a26772c1dbaee", "is_reserved": 0, "name": "c4a3b19525090caef09a26772c1dbaee", "lat": 38.857742333333334, "fusion_lat": 0.0, "lon": -76.98765583333333, "is_disabled": 0, "fusion_lon": 0.0, "rental_uris": {"android": "https://dc.lft.to/lastmile_qr_scan", "ios": "https://dc.lft.to/lastmile_qr_scan"}, "type": "electric_bike"}, {"bike_id": "a85647d79a4181185bfdd61c31692102", "is_reserved": 0, "name": "a85647d79a4181185bfdd61c31692102", "lat": 38.897309166666666, "fusion_lat": 0.0, "lon": -77.02752283333334, "is_disabled": 0, "fusion_lon": 0.0, "rental_uris": {"android": "https://dc.lft.to/lastmile_qr_scan", "ios": "https://dc.lft.to/lastmile_qr_scan"}, "type": "electric_scooter"}, {"bike_id": "19e2d119036bb5c6f13edf00c3e8aa39", "is_reserved": 0, "name": "19e2d119036bb5c6f13edf00c3e8aa39", "lat": 38.90808716666667, "fusion_lat": 0.0, "lon": -77.03390816666666, "is_disabled": 0, "fusion_lon": 0.0, "rental_uris": {"android": "https://dc.lft.to/lastmile_qr_scan", "ios": "https://dc.lft.to/lastmile_qr_scan"}, "type": "electric_scooter"}, {"bike_id": "efeb2a3654c6e0ffe4723205128480cc", "is_reserved": 0, "name": "efeb2a3654c6e0ffe4723205128480cc", "lat": 38.901524333333334, "fusion_lat": 0.0, "lon": -76.99028733333333, "is_disabled": 0, "fusion_lon": 0.0, "rental_uris": {"android": "https://dc.lft.to/lastmile_qr_scan", "ios": "https://dc.lft.to/lastmile_qr_scan"}, "type": "electric_scooter"}, {"bike_id": "37c1efcd4b09b7e8bffb04de4e09b530", "is_reserved": 0, "name": "37c1efcd4b09b7e8bffb04de4e09b530", "lat": 38.8973025, "fusion_lat": 0.0, "lon": -77.05521216666666, "is_disabled": 0, "fusion_lon": 0.0, "rental_uris": {"android": "https://dc.lft.to/lastmile_qr_scan", "ios": "https://dc.lft.to/lastmile_qr_scan"}, "type": "electric_scooter"}, {"bike_id": "961b021e4a18f3e12618293cdbd3c43b", "is_reserved": 0, "name": "961b021e4a18f3e12618293cdbd3c43b", "lat": 38.863733, "fusion_lat": 0.0, "lon": -77.0137095, "is_disabled": 0, "fusion_lon": 0.0, "rental_uris": {"android": "https://dc.lft.to/lastmile_qr_scan", "ios": "https://dc.lft.to/lastmile_qr_scan"}, "type": "electric_scooter"}, {"bike_id": "c0c718a3c63a351f62104f0e9eb589f5", "is_reserved": 0, "name": "c0c718a3c63a351f62104f0e9eb589f5", "lat": 38.91261933333333, "fusion_lat": 0.0, "lon": -77.03217083333334, "is_disabled": 0, "fusion_lon": 0.0, "rental_uris": {"android": "https://dc.lft.to/lastmile_qr_scan", "ios": "https://dc.lft.to/lastmile_qr_scan"}, "type": "electric_scooter"}, {"bike_id": "714ef35a89092fae9d6982957944ac4c", "is_reserved": 0, "name": "714ef35a89092fae9d6982957944ac4c", "lat": 38.908968333333334, "fusion_lat": 0.0, "lon": -77.04400583333333, "is_disabled": 0, "fusion_lon": 0.0, "rental_uris": {"android": "https://dc.lft.to/lastmile_qr_scan", "ios": "https://dc.lft.to/lastmile_qr_scan"}, "type": "electric_scooter"}, {"bike_id": "565260943bdd7a3f8fa11fd82ce42756", "is_reserved": 0, "name": "565260943bdd7a3f8fa11fd82ce42756", "lat": 38.90040583333333, "fusion_lat": 0.0, "lon": -77.02389283333333, "is_disabled": 0, "fusion_lon": 0.0, "rental_uris": {"android": "https://dc.lft.to/lastmile_qr_scan", "ios": "https://dc.lft.to/lastmile_qr_scan"}, "type": "electric_scooter"}, {"bike_id": "358d7735fff04a8cc7c7bf9a0decec1a", "is_reserved": 0, "name": "358d7735fff04a8cc7c7bf9a0decec1a", "lat": 38.897613166666666, "fusion_lat": 0.0, "lon": -77.00897183333333, "is_disabled": 0, "fusion_lon": 0.0, "rental_uris": {"android": "https://dc.lft.to/lastmile_qr_scan", "ios": "https://dc.lft.to/lastmile_qr_scan"}, "type": "electric_scooter"}, {"bike_id": "f2476d73031864307a93e7d62ecac81c", "is_reserved": 0, "name": "f2476d73031864307a93e7d62ecac81c", "lat": 38.8850105, "fusion_lat": 0.0, "lon": -76.99736, "is_disabled": 0, "fusion_lon": 0.0, "rental_uris": {"android": "https://dc.lft.to/lastmile_qr_scan", "ios": "https://dc.lft.to/lastmile_qr_scan"}, "type": "electric_scooter"}, {"bike_id": "5195ec355891170f22c977bca1609178", "is_reserved": 0, "name": "5195ec355891170f22c977bca1609178", "lat": 38.905625666666666, "fusion_lat": 0.0, "lon": -77.0053165, "is_disabled": 0, "fusion_lon": 0.0, "rental_uris": {"android": "https://dc.lft.to/lastmile_qr_scan", "ios": "https://dc.lft.to/lastmile_qr_scan"}, "type": "electric_scooter"}, {"bike_id": "fd73fe933d33b01b931d8c1b38763512", "is_reserved": 0, "name": "fd73fe933d33b01b931d8c1b38763512", "lat": 38.8718195, "fusion_lat": 0.0, "lon": -77.00654133333333, "is_disabled": 0, "fusion_lon": 0.0, "rental_uris": {"android": "https://dc.lft.to/lastmile_qr_scan", "ios": "https://dc.lft.to/lastmile_qr_scan"}, "type": "electric_scooter"}, {"bike_id": "d4a0cc2f873b803942d8f4b3be5c3838", "is_reserved": 0, "name": "d4a0cc2f873b803942d8f4b3be5c3838", "lat": 38.89588366666667, "fusion_lat": 0.0, "lon": -77.07832216666667, "is_disabled": 0, "fusion_lon": 0.0, "rental_uris": {"android": "https://dc.lft.to/lastmile_qr_scan", "ios": "https://dc.lft.to/lastmile_qr_scan"}, "type": "electric_bike"}, {"bike_id": "3102eb9a83fb61334356b66230063495", "is_reserved": 0, "name": "3102eb9a83fb61334356b66230063495", "lat": 38.89224816666667, "fusion_lat": 0.0, "lon": -77.04327416666666, "is_disabled": 0, "fusion_lon": 0.0, "rental_uris": {"android": "https://dc.lft.to/lastmile_qr_scan", "ios": "https://dc.lft.to/lastmile_qr_scan"}, "type": "electric_scooter"}, {"bike_id": "625778334a8c301854cebd0751dfb414", "is_reserved": 0, "name": "625778334a8c301854cebd0751dfb414", "lat": 38.921514333333334, "fusion_lat": 0.0, "lon": -76.99350666666666, "is_disabled": 0, "fusion_lon": 0.0, "rental_uris": {"android": "https://dc.lft.to/lastmile_qr_scan", "ios": "https://dc.lft.to/lastmile_qr_scan"}, "type": "electric_scooter"}, {"bike_id": "c0bd115050de50fb95475463dbcfa3d6", "is_reserved": 0, "name": "c0bd115050de50fb95475463dbcfa3d6", "lat": 38.92763433333333, "fusion_lat": 0.0, "lon": -77.05257416666667, "is_disabled": 0, "fusion_lon": 0.0, "rental_uris": {"android": "https://dc.lft.to/lastmile_qr_scan", "ios": "https://dc.lft.to/lastmile_qr_scan"}, "type": "electric_scooter"}, {"bike_id": "5f46ced58b7c72030fe51018c112dfb1", "is_reserved": 0, "name": "5f46ced58b7c72030fe51018c112dfb1", "lat": 38.903493, "fusion_lat": 0.0, "lon": -77.021495, "is_disabled": 0, "fusion_lon": 0.0, "rental_uris": {"android": "https://dc.lft.to/lastmile_qr_scan", "ios": "https://dc.lft.to/lastmile_qr_scan"}, "type": "electric_scooter"}, {"bike_id": "b4ca482115b899a484a65ab80ca46f33", "is_reserved": 0, "name": "b4ca482115b899a484a65ab80ca46f33", "lat": 38.90364366666667, "fusion_lat": 0.0, "lon": -77.03295616666666, "is_disabled": 0, "fusion_lon": 0.0, "rental_uris": {"android": "https://dc.lft.to/lastmile_qr_scan", "ios": "https://dc.lft.to/lastmile_qr_scan"}, "type": "electric_scooter"}, {"bike_id": "f8396ec153f89efa5de62926f3c752d5", "is_reserved": 0, "name": "f8396ec153f89efa5de62926f3c752d5", "lat": 38.901191833333336, "fusion_lat": 0.0, "lon": -77.0260245, "is_disabled": 0, "fusion_lon": 0.0, "rental_uris": {"android": "https://dc.lft.to/lastmile_qr_scan", "ios": "https://dc.lft.to/lastmile_qr_scan"}, "type": "electric_scooter"}, {"bike_id": "8b7a05e2a1d6c68968f31587a4af50af", "is_reserved": 0, "name": "8b7a05e2a1d6c68968f31587a4af50af", "lat": 38.9279475, "fusion_lat": 0.0, "lon": -77.02108433333333, "is_disabled": 0, "fusion_lon": 0.0, "rental_uris": {"android": "https://dc.lft.to/lastmile_qr_scan", "ios": "https://dc.lft.to/lastmile_qr_scan"}, "type": "electric_scooter"}, {"bike_id": "f5d12d5417dfd7dd2599406131418afe", "is_reserved": 0, "name": "f5d12d5417dfd7dd2599406131418afe", "lat": 38.925504333333336, "fusion_lat": 0.0, "lon": -76.98150233333334, "is_disabled": 0, "fusion_lon": 0.0, "rental_uris": {"android": "https://dc.lft.to/lastmile_qr_scan", "ios": "https://dc.lft.to/lastmile_qr_scan"}, "type": "electric_scooter"}, {"bike_id": "b6ef472a856c9602354d6c5ea8071083", "is_reserved": 0, "name": "b6ef472a856c9602354d6c5ea8071083", "lat": 38.819793833333335, "fusion_lat": 0.0, "lon": -76.99808616666667, "is_disabled": 0, "fusion_lon": 0.0, "rental_uris": {"android": "https://dc.lft.to/lastmile_qr_scan", "ios": "https://dc.lft.to/lastmile_qr_scan"}, "type": "electric_bike"}, {"bike_id": "de94df4ef8dbf8dc5222a5ac55f60d99", "is_reserved": 0, "name": "de94df4ef8dbf8dc5222a5ac55f60d99", "lat": 38.9278525, "fusion_lat": 0.0, "lon": -77.05313, "is_disabled": 0, "fusion_lon": 0.0, "rental_uris": {"android": "https://dc.lft.to/lastmile_qr_scan", "ios": "https://dc.lft.to/lastmile_qr_scan"}, "type": "electric_scooter"}, {"bike_id": "69ef36f36b83efb00956e6d779f9e5ba", "is_reserved": 0, "name": "69ef36f36b83efb00956e6d779f9e5ba", "lat": 38.92517983333333, "fusion_lat": 0.0, "lon": -77.05036616666666, "is_disabled": 0, "fusion_lon": 0.0, "rental_uris": {"android": "https://dc.lft.to/lastmile_qr_scan", "ios": "https://dc.lft.to/lastmile_qr_scan"}, "type": "electric_scooter"}, {"bike_id": "da05959d5608636ace8700d06d30b810", "is_reserved": 0, "name": "da05959d5608636ace8700d06d30b810", "lat": 38.90812116666667, "fusion_lat": 0.0, "lon": -77.04176333333334, "is_disabled": 0, "fusion_lon": 0.0, "rental_uris": {"android": "https://dc.lft.to/lastmile_qr_scan", "ios": "https://dc.lft.to/lastmile_qr_scan"}, "type": "electric_scooter"}, {"bike_id": "837b3708ac84aed24d9339434f73dcc4", "is_reserved": 0, "name": "837b3708ac84aed24d9339434f73dcc4", "lat": 38.9181835, "fusion_lat": 0.0, "lon": -77.03170583333333, "is_disabled": 0, "fusion_lon": 0.0, "rental_uris": {"android": "https://dc.lft.to/lastmile_qr_scan", "ios": "https://dc.lft.to/lastmile_qr_scan"}, "type": "electric_scooter"}, {"bike_id": "b93db1b2d212668879b16036519d5781", "is_reserved": 0, "name": "b93db1b2d212668879b16036519d5781", "lat": 38.919117, "fusion_lat": 0.0, "lon": -77.02501066666666, "is_disabled": 0, "fusion_lon": 0.0, "rental_uris": {"android": "https://dc.lft.to/lastmile_qr_scan", "ios": "https://dc.lft.to/lastmile_qr_scan"}, "type": "electric_scooter"}, {"bike_id": "6b40a4a86bd2434815001d1f14cf0095", "is_reserved": 0, "name": "6b40a4a86bd2434815001d1f14cf0095", "lat": 38.924212833333335, "fusion_lat": 0.0, "lon": -77.0213215, "is_disabled": 0, "fusion_lon": 0.0, "rental_uris": {"android": "https://dc.lft.to/lastmile_qr_scan", "ios": "https://dc.lft.to/lastmile_qr_scan"}, "type": "electric_scooter"}, {"bike_id": "84c0ae27f4e45bb830a1689d18f64bca", "is_reserved": 0, "name": "84c0ae27f4e45bb830a1689d18f64bca", "lat": 38.8917655, "fusion_lat": 0.0, "lon": -76.92646933333333, "is_disabled": 0, "fusion_lon": 0.0, "rental_uris": {"android": "https://dc.lft.to/lastmile_qr_scan", "ios": "https://dc.lft.to/lastmile_qr_scan"}, "type": "electric_scooter"}, {"bike_id": "b5e982effe7fa104983d5e7b0742fe96", "is_reserved": 0, "name": "b5e982effe7fa104983d5e7b0742fe96", "lat": 38.90325766666667, "fusion_lat": 0.0, "lon": -77.00571366666667, "is_disabled": 0, "fusion_lon": 0.0, "rental_uris": {"android": "https://dc.lft.to/lastmile_qr_scan", "ios": "https://dc.lft.to/lastmile_qr_scan"}, "type": "electric_scooter"}, {"bike_id": "1586e5f0454290d301642c67ea560f7a", "is_reserved": 0, "name": "1586e5f0454290d301642c67ea560f7a", "lat": 38.914193166666664, "fusion_lat": 0.0, "lon": -77.020947, "is_disabled": 0, "fusion_lon": 0.0, "rental_uris": {"android": "https://dc.lft.to/lastmile_qr_scan", "ios": "https://dc.lft.to/lastmile_qr_scan"}, "type": "electric_scooter"}, {"bike_id": "6f70e40f7d845fcfae7b112ab5f71e69", "is_reserved": 0, "name": "6f70e40f7d845fcfae7b112ab5f71e69", "lat": 38.9156775, "fusion_lat": 0.0, "lon": -77.0200275, "is_disabled": 0, "fusion_lon": 0.0, "rental_uris": {"android": "https://dc.lft.to/lastmile_qr_scan", "ios": "https://dc.lft.to/lastmile_qr_scan"}, "type": "electric_scooter"}, {"bike_id": "93aace49a813f5d184658198d515b3a1", "is_reserved": 0, "name": "93aace49a813f5d184658198d515b3a1", "lat": 38.92336616666667, "fusion_lat": 0.0, "lon": -77.05301583333333, "is_disabled": 0, "fusion_lon": 0.0, "rental_uris": {"android": "https://dc.lft.to/lastmile_qr_scan", "ios": "https://dc.lft.to/lastmile_qr_scan"}, "type": "electric_scooter"}, {"bike_id": "fef816070eed5c1218331c0f36dde405", "is_reserved": 0, "name": "fef816070eed5c1218331c0f36dde405", "lat": 38.8960115, "fusion_lat": 0.0, "lon": -77.0234975, "is_disabled": 0, "fusion_lon": 0.0, "rental_uris": {"android": "https://dc.lft.to/lastmile_qr_scan", "ios": "https://dc.lft.to/lastmile_qr_scan"}, "type": "electric_scooter"}, {"bike_id": "74dbeb693f8c010c0c93a4963cc7fb48", "is_reserved": 0, "name": "74dbeb693f8c010c0c93a4963cc7fb48", "lat": 38.89267516666666, "fusion_lat": 0.0, "lon": -77.04652, "is_disabled": 0, "fusion_lon": 0.0, "rental_uris": {"android": "https://dc.lft.to/lastmile_qr_scan", "ios": "https://dc.lft.to/lastmile_qr_scan"}, "type": "electric_scooter"}, {"bike_id": "2b5490781481531d7f8b61fe400727a7", "is_reserved": 0, "name": "2b5490781481531d7f8b61fe400727a7", "lat": 38.9067375, "fusion_lat": 0.0, "lon": -77.02698566666666, "is_disabled": 0, "fusion_lon": 0.0, "rental_uris": {"android": "https://dc.lft.to/lastmile_qr_scan", "ios": "https://dc.lft.to/lastmile_qr_scan"}, "type": "electric_scooter"}, {"bike_id": "2e9ca29f1d807f7acab92f7daa988cb7", "is_reserved": 0, "name": "2e9ca29f1d807f7acab92f7daa988cb7", "lat": 38.87576883333333, "fusion_lat": 0.0, "lon": -77.0054265, "is_disabled": 0, "fusion_lon": 0.0, "rental_uris": {"android": "https://dc.lft.to/lastmile_qr_scan", "ios": "https://dc.lft.to/lastmile_qr_scan"}, "type": "electric_scooter"}, {"bike_id": "1b2e8129c748427b0cd6b14015ff7f7d", "is_reserved": 0, "name": "1b2e8129c748427b0cd6b14015ff7f7d", "lat": 38.901541, "fusion_lat": 0.0, "lon": -77.01500033333333, "is_disabled": 0, "fusion_lon": 0.0, "rental_uris": {"android": "https://dc.lft.to/lastmile_qr_scan", "ios": "https://dc.lft.to/lastmile_qr_scan"}, "type": "electric_scooter"}, {"bike_id": "95a9cab2cce39e1093a4561d93e3e449", "is_reserved": 0, "name": "95a9cab2cce39e1093a4561d93e3e449", "lat": 38.920874166666664, "fusion_lat": 0.0, "lon": -77.02534283333334, "is_disabled": 0, "fusion_lon": 0.0, "rental_uris": {"android": "https://dc.lft.to/lastmile_qr_scan", "ios": "https://dc.lft.to/lastmile_qr_scan"}, "type": "electric_scooter"}, {"bike_id": "de40543d7943600c278089255c3ae60f", "is_reserved": 0, "name": "de40543d7943600c278089255c3ae60f", "lat": 38.916577, "fusion_lat": 0.0, "lon": -77.02473283333333, "is_disabled": 0, "fusion_lon": 0.0, "rental_uris": {"android": "https://dc.lft.to/lastmile_qr_scan", "ios": "https://dc.lft.to/lastmile_qr_scan"}, "type": "electric_scooter"}, {"bike_id": "ac3884093f65b3f0062a2af3cace9495", "is_reserved": 0, "name": "ac3884093f65b3f0062a2af3cace9495", "lat": 38.9456465, "fusion_lat": 0.0, "lon": -77.07958, "is_disabled": 0, "fusion_lon": 0.0, "rental_uris": {"android": "https://dc.lft.to/lastmile_qr_scan", "ios": "https://dc.lft.to/lastmile_qr_scan"}, "type": "electric_scooter"}, {"bike_id": "6574a47b8173bc378bb9d501a05cc52a", "is_reserved": 0, "name": "6574a47b8173bc378bb9d501a05cc52a", "lat": 38.87481533333333, "fusion_lat": 0.0, "lon": -77.00598966666666, "is_disabled": 0, "fusion_lon": 0.0, "rental_uris": {"android": "https://dc.lft.to/lastmile_qr_scan", "ios": "https://dc.lft.to/lastmile_qr_scan"}, "type": "electric_scooter"}, {"bike_id": "ae49797f24a10b661bc6615db16d22dc", "is_reserved": 0, "name": "ae49797f24a10b661bc6615db16d22dc", "lat": 38.918417, "fusion_lat": 0.0, "lon": -77.03213116666667, "is_disabled": 0, "fusion_lon": 0.0, "rental_uris": {"android": "https://dc.lft.to/lastmile_qr_scan", "ios": "https://dc.lft.to/lastmile_qr_scan"}, "type": "electric_scooter"}, {"bike_id": "697f99267ccbae6717e0e186332e73a8", "is_reserved": 0, "name": "697f99267ccbae6717e0e186332e73a8", "lat": 38.92973033333333, "fusion_lat": 0.0, "lon": -77.02820216666667, "is_disabled": 0, "fusion_lon": 0.0, "rental_uris": {"android": "https://dc.lft.to/lastmile_qr_scan", "ios": "https://dc.lft.to/lastmile_qr_scan"}, "type": "electric_scooter"}, {"bike_id": "5229aa0eca993b889a68c9c969647f45", "is_reserved": 0, "name": "5229aa0eca993b889a68c9c969647f45", "lat": 38.904118, "fusion_lat": 0.0, "lon": -77.05022966666667, "is_disabled": 0, "fusion_lon": 0.0, "rental_uris": {"android": "https://dc.lft.to/lastmile_qr_scan", "ios": "https://dc.lft.to/lastmile_qr_scan"}, "type": "electric_scooter"}, {"bike_id": "f161c7109bb67ce52e4a449caa7e2ea4", "is_reserved": 0, "name": "f161c7109bb67ce52e4a449caa7e2ea4", "lat": 38.8922545, "fusion_lat": 0.0, "lon": -77.04894116666667, "is_disabled": 0, "fusion_lon": 0.0, "rental_uris": {"android": "https://dc.lft.to/lastmile_qr_scan", "ios": "https://dc.lft.to/lastmile_qr_scan"}, "type": "electric_scooter"}, {"bike_id": "ee774a25074f09579b10a9ba6b00ce82", "is_reserved": 0, "name": "ee774a25074f09579b10a9ba6b00ce82", "lat": 38.896933833333335, "fusion_lat": 0.0, "lon": -77.0118655, "is_disabled": 0, "fusion_lon": 0.0, "rental_uris": {"android": "https://dc.lft.to/lastmile_qr_scan", "ios": "https://dc.lft.to/lastmile_qr_scan"}, "type": "electric_scooter"}, {"bike_id": "e88ad751d50fe74c1e0e62e43279387d", "is_reserved": 0, "name": "e88ad751d50fe74c1e0e62e43279387d", "lat": 38.96179, "fusion_lat": 0.0, "lon": -77.01435816666667, "is_disabled": 0, "fusion_lon": 0.0, "rental_uris": {"android": "https://dc.lft.to/lastmile_qr_scan", "ios": "https://dc.lft.to/lastmile_qr_scan"}, "type": "electric_scooter"}, {"bike_id": "56e7e64b23c9910d573148e42c00be62", "is_reserved": 0, "name": "56e7e64b23c9910d573148e42c00be62", "lat": 38.9004945, "fusion_lat": 0.0, "lon": -77.00054733333333, "is_disabled": 0, "fusion_lon": 0.0, "rental_uris": {"android": "https://dc.lft.to/lastmile_qr_scan", "ios": "https://dc.lft.to/lastmile_qr_scan"}, "type": "electric_scooter"}, {"bike_id": "41b71211175754b63477e045ac06d476", "is_reserved": 0, "name": "41b71211175754b63477e045ac06d476", "lat": 38.904629, "fusion_lat": 0.0, "lon": -77.0281745, "is_disabled": 0, "fusion_lon": 0.0, "rental_uris": {"android": "https://dc.lft.to/lastmile_qr_scan", "ios": "https://dc.lft.to/lastmile_qr_scan"}, "type": "electric_scooter"}, {"bike_id": "348c00d8f690878155c084706be46d2e", "is_reserved": 0, "name": "348c00d8f690878155c084706be46d2e", "lat": 38.9108585, "fusion_lat": 0.0, "lon": -76.984696, "is_disabled": 0, "fusion_lon": 0.0, "rental_uris": {"android": "https://dc.lft.to/lastmile_qr_scan", "ios": "https://dc.lft.to/lastmile_qr_scan"}, "type": "electric_bike"}, {"bike_id": "57e1ad4c5fdf9c3661d586bebfee42cf", "is_reserved": 0, "name": "57e1ad4c5fdf9c3661d586bebfee42cf", "lat": 38.89586883333333, "fusion_lat": 0.0, "lon": -76.9832025, "is_disabled": 0, "fusion_lon": 0.0, "rental_uris": {"android": "https://dc.lft.to/lastmile_qr_scan", "ios": "https://dc.lft.to/lastmile_qr_scan"}, "type": "electric_scooter"}, {"bike_id": "900980ae6d265ec60e42d542064142c6", "is_reserved": 0, "name": "900980ae6d265ec60e42d542064142c6", "lat": 38.918121166666666, "fusion_lat": 0.0, "lon": -77.031686, "is_disabled": 0, "fusion_lon": 0.0, "rental_uris": {"android": "https://dc.lft.to/lastmile_qr_scan", "ios": "https://dc.lft.to/lastmile_qr_scan"}, "type": "electric_scooter"}, {"bike_id": "eceeba602b36dc5e00a86705a6e9a027", "is_reserved": 0, "name": "eceeba602b36dc5e00a86705a6e9a027", "lat": 38.92869916666667, "fusion_lat": 0.0, "lon": -77.03228633333333, "is_disabled": 0, "fusion_lon": 0.0, "rental_uris": {"android": "https://dc.lft.to/lastmile_qr_scan", "ios": "https://dc.lft.to/lastmile_qr_scan"}, "type": "electric_scooter"}, {"bike_id": "1b0c4ba8c5cf0c7235fff0041b1d3722", "is_reserved": 0, "name": "1b0c4ba8c5cf0c7235fff0041b1d3722", "lat": 38.860588, "fusion_lat": 0.0, "lon": -76.9671805, "is_disabled": 0, "fusion_lon": 0.0, "rental_uris": {"android": "https://dc.lft.to/lastmile_qr_scan", "ios": "https://dc.lft.to/lastmile_qr_scan"}, "type": "electric_scooter"}, {"bike_id": "e2f086653d1fae017e1804d568b454f2", "is_reserved": 0, "name": "e2f086653d1fae017e1804d568b454f2", "lat": 38.8872075, "fusion_lat": 0.0, "lon": -77.02581483333333, "is_disabled": 0, "fusion_lon": 0.0, "rental_uris": {"android": "https://dc.lft.to/lastmile_qr_scan", "ios": "https://dc.lft.to/lastmile_qr_scan"}, "type": "electric_scooter"}, {"bike_id": "754e599124ae54a4a3d79d12199a1c54", "is_reserved": 0, "name": "754e599124ae54a4a3d79d12199a1c54", "lat": 38.86889716666667, "fusion_lat": 0.0, "lon": -76.99001033333333, "is_disabled": 0, "fusion_lon": 0.0, "rental_uris": {"android": "https://dc.lft.to/lastmile_qr_scan", "ios": "https://dc.lft.to/lastmile_qr_scan"}, "type": "electric_scooter"}, {"bike_id": "848d768743dde8a973b37b8bd653223d", "is_reserved": 0, "name": "848d768743dde8a973b37b8bd653223d", "lat": 38.911289833333335, "fusion_lat": 0.0, "lon": -77.021948, "is_disabled": 0, "fusion_lon": 0.0, "rental_uris": {"android": "https://dc.lft.to/lastmile_qr_scan", "ios": "https://dc.lft.to/lastmile_qr_scan"}, "type": "electric_scooter"}, {"bike_id": "3c8c7eea48a2729a13edc03767aadeda", "is_reserved": 0, "name": "3c8c7eea48a2729a13edc03767aadeda", "lat": 39.034226833333335, "fusion_lat": 0.0, "lon": -77.04309316666667, "is_disabled": 0, "fusion_lon": 0.0, "rental_uris": {"android": "https://dc.lft.to/lastmile_qr_scan", "ios": "https://dc.lft.to/lastmile_qr_scan"}, "type": "electric_bike"}, {"bike_id": "3da6bead1f2deb55cd65a02954f8da54", "is_reserved": 0, "name": "3da6bead1f2deb55cd65a02954f8da54", "lat": 38.845891333333334, "fusion_lat": 0.0, "lon": -76.98539866666667, "is_disabled": 0, "fusion_lon": 0.0, "rental_uris": {"android": "https://dc.lft.to/lastmile_qr_scan", "ios": "https://dc.lft.to/lastmile_qr_scan"}, "type": "electric_scooter"}, {"bike_id": "2d2be4b1f6c829d746e051ead8f8909d", "is_reserved": 0, "name": "2d2be4b1f6c829d746e051ead8f8909d", "lat": 38.90557366666667, "fusion_lat": 0.0, "lon": -77.00696833333333, "is_disabled": 0, "fusion_lon": 0.0, "rental_uris": {"android": "https://dc.lft.to/lastmile_qr_scan", "ios": "https://dc.lft.to/lastmile_qr_scan"}, "type": "electric_scooter"}, {"bike_id": "b350c0bd56af2db79607863d453822b9", "is_reserved": 0, "name": "b350c0bd56af2db79607863d453822b9", "lat": 38.91278033333333, "fusion_lat": 0.0, "lon": -77.022606, "is_disabled": 0, "fusion_lon": 0.0, "rental_uris": {"android": "https://dc.lft.to/lastmile_qr_scan", "ios": "https://dc.lft.to/lastmile_qr_scan"}, "type": "electric_scooter"}, {"bike_id": "8d2bd1c1bcaef741ca9ce113a0b3393d", "is_reserved": 0, "name": "8d2bd1c1bcaef741ca9ce113a0b3393d", "lat": 38.87484466666667, "fusion_lat": 0.0, "lon": -77.00598966666666, "is_disabled": 0, "fusion_lon": 0.0, "rental_uris": {"android": "https://dc.lft.to/lastmile_qr_scan", "ios": "https://dc.lft.to/lastmile_qr_scan"}, "type": "electric_scooter"}, {"bike_id": "5a5732febb7cc21dcdda65bd2a42e976", "is_reserved": 0, "name": "5a5732febb7cc21dcdda65bd2a42e976", "lat": 38.897701166666664, "fusion_lat": 0.0, "lon": -76.984597, "is_disabled": 0, "fusion_lon": 0.0, "rental_uris": {"android": "https://dc.lft.to/lastmile_qr_scan", "ios": "https://dc.lft.to/lastmile_qr_scan"}, "type": "electric_scooter"}, {"bike_id": "af8bb9cd3441c2b64d16d7b651560796", "is_reserved": 0, "name": "af8bb9cd3441c2b64d16d7b651560796", "lat": 38.902632, "fusion_lat": 0.0, "lon": -77.03264233333333, "is_disabled": 0, "fusion_lon": 0.0, "rental_uris": {"android": "https://dc.lft.to/lastmile_qr_scan", "ios": "https://dc.lft.to/lastmile_qr_scan"}, "type": "electric_scooter"}, {"bike_id": "b14be2b92cf0f4f5310e5f4d87a28e60", "is_reserved": 0, "name": "b14be2b92cf0f4f5310e5f4d87a28e60", "lat": 38.891839166666664, "fusion_lat": 0.0, "lon": -77.0159115, "is_disabled": 0, "fusion_lon": 0.0, "rental_uris": {"android": "https://dc.lft.to/lastmile_qr_scan", "ios": "https://dc.lft.to/lastmile_qr_scan"}, "type": "electric_scooter"}, {"bike_id": "d9dfd01e774ced7207061331aaa25481", "is_reserved": 0, "name": "d9dfd01e774ced7207061331aaa25481", "lat": 38.94309583333333, "fusion_lat": 0.0, "lon": -77.0613075, "is_disabled": 0, "fusion_lon": 0.0, "rental_uris": {"android": "https://dc.lft.to/lastmile_qr_scan", "ios": "https://dc.lft.to/lastmile_qr_scan"}, "type": "electric_scooter"}, {"bike_id": "b193f59804baab38d9b402c64f1e1039", "is_reserved": 0, "name": "b193f59804baab38d9b402c64f1e1039", "lat": 38.873883166666666, "fusion_lat": 0.0, "lon": -77.00035966666667, "is_disabled": 0, "fusion_lon": 0.0, "rental_uris": {"android": "https://dc.lft.to/lastmile_qr_scan", "ios": "https://dc.lft.to/lastmile_qr_scan"}, "type": "electric_scooter"}, {"bike_id": "6971b9115562d46bfd6aac16fd3b4a4b", "is_reserved": 0, "name": "6971b9115562d46bfd6aac16fd3b4a4b", "lat": 38.90488633333333, "fusion_lat": 0.0, "lon": -77.03826516666666, "is_disabled": 0, "fusion_lon": 0.0, "rental_uris": {"android": "https://dc.lft.to/lastmile_qr_scan", "ios": "https://dc.lft.to/lastmile_qr_scan"}, "type": "electric_scooter"}, {"bike_id": "75485a9632401a050da1bc2388607db5", "is_reserved": 0, "name": "75485a9632401a050da1bc2388607db5", "lat": 38.91703283333333, "fusion_lat": 0.0, "lon": -77.03038666666667, "is_disabled": 0, "fusion_lon": 0.0, "rental_uris": {"android": "https://dc.lft.to/lastmile_qr_scan", "ios": "https://dc.lft.to/lastmile_qr_scan"}, "type": "electric_scooter"}, {"bike_id": "d6ffd56ba0c0175e3eef449b38e5901a", "is_reserved": 0, "name": "d6ffd56ba0c0175e3eef449b38e5901a", "lat": 38.919135833333335, "fusion_lat": 0.0, "lon": -77.027313, "is_disabled": 0, "fusion_lon": 0.0, "rental_uris": {"android": "https://dc.lft.to/lastmile_qr_scan", "ios": "https://dc.lft.to/lastmile_qr_scan"}, "type": "electric_scooter"}, {"bike_id": "efffb320f6050c10aa2f0e2037f22a66", "is_reserved": 0, "name": "efffb320f6050c10aa2f0e2037f22a66", "lat": 38.853361666666665, "fusion_lat": 0.0, "lon": -77.11495933333333, "is_disabled": 0, "fusion_lon": 0.0, "rental_uris": {"android": "https://dc.lft.to/lastmile_qr_scan", "ios": "https://dc.lft.to/lastmile_qr_scan"}, "type": "electric_bike"}, {"bike_id": "448f8fc3e91bed200a18fccf9dad4e7f", "is_reserved": 0, "name": "448f8fc3e91bed200a18fccf9dad4e7f", "lat": 38.9231715, "fusion_lat": 0.0, "lon": -77.04344333333333, "is_disabled": 0, "fusion_lon": 0.0, "rental_uris": {"android": "https://dc.lft.to/lastmile_qr_scan", "ios": "https://dc.lft.to/lastmile_qr_scan"}, "type": "electric_scooter"}, {"bike_id": "495f2ce323cb42ba410b11900a8aec2a", "is_reserved": 0, "name": "495f2ce323cb42ba410b11900a8aec2a", "lat": 38.91598616666667, "fusion_lat": 0.0, "lon": -77.02297716666666, "is_disabled": 0, "fusion_lon": 0.0, "rental_uris": {"android": "https://dc.lft.to/lastmile_qr_scan", "ios": "https://dc.lft.to/lastmile_qr_scan"}, "type": "electric_scooter"}, {"bike_id": "b593ab30e2f755741deafc55f5f5be80", "is_reserved": 0, "name": "b593ab30e2f755741deafc55f5f5be80", "lat": 38.90029883333333, "fusion_lat": 0.0, "lon": -77.0020685, "is_disabled": 0, "fusion_lon": 0.0, "rental_uris": {"android": "https://dc.lft.to/lastmile_qr_scan", "ios": "https://dc.lft.to/lastmile_qr_scan"}, "type": "electric_scooter"}, {"bike_id": "58dc122bc5cada7137feabe511b8bcbd", "is_reserved": 0, "name": "58dc122bc5cada7137feabe511b8bcbd", "lat": 38.87179316666667, "fusion_lat": 0.0, "lon": -77.0060685, "is_disabled": 0, "fusion_lon": 0.0, "rental_uris": {"android": "https://dc.lft.to/lastmile_qr_scan", "ios": "https://dc.lft.to/lastmile_qr_scan"}, "type": "electric_scooter"}, {"bike_id": "36232097bfd2136bd309486f837e71fd", "is_reserved": 0, "name": "36232097bfd2136bd309486f837e71fd", "lat": 38.9236365, "fusion_lat": 0.0, "lon": -77.021158, "is_disabled": 0, "fusion_lon": 0.0, "rental_uris": {"android": "https://dc.lft.to/lastmile_qr_scan", "ios": "https://dc.lft.to/lastmile_qr_scan"}, "type": "electric_scooter"}, {"bike_id": "69b4fcf2899c6d38a453d0cefb9273de", "is_reserved": 0, "name": "69b4fcf2899c6d38a453d0cefb9273de", "lat": 38.92345016666667, "fusion_lat": 0.0, "lon": -77.05177683333334, "is_disabled": 0, "fusion_lon": 0.0, "rental_uris": {"android": "https://dc.lft.to/lastmile_qr_scan", "ios": "https://dc.lft.to/lastmile_qr_scan"}, "type": "electric_scooter"}, {"bike_id": "49a9365f7d7e3920f12bf66352b09ea0", "is_reserved": 0, "name": "49a9365f7d7e3920f12bf66352b09ea0", "lat": 38.902254, "fusion_lat": 0.0, "lon": -77.0161195, "is_disabled": 0, "fusion_lon": 0.0, "rental_uris": {"android": "https://dc.lft.to/lastmile_qr_scan", "ios": "https://dc.lft.to/lastmile_qr_scan"}, "type": "electric_scooter"}, {"bike_id": "41a45c39c11af1e81f6084b7c41bbbc8", "is_reserved": 0, "name": "41a45c39c11af1e81f6084b7c41bbbc8", "lat": 38.91427383333333, "fusion_lat": 0.0, "lon": -77.032018, "is_disabled": 0, "fusion_lon": 0.0, "rental_uris": {"android": "https://dc.lft.to/lastmile_qr_scan", "ios": "https://dc.lft.to/lastmile_qr_scan"}, "type": "electric_scooter"}, {"bike_id": "32bcaebcf79487e212308cc8a322e6ec", "is_reserved": 0, "name": "32bcaebcf79487e212308cc8a322e6ec", "lat": 38.900063333333335, "fusion_lat": 0.0, "lon": -77.05418816666666, "is_disabled": 0, "fusion_lon": 0.0, "rental_uris": {"android": "https://dc.lft.to/lastmile_qr_scan", "ios": "https://dc.lft.to/lastmile_qr_scan"}, "type": "electric_scooter"}, {"bike_id": "7fa6d98df58dacb700ac753b8b6d8bff", "is_reserved": 0, "name": "7fa6d98df58dacb700ac753b8b6d8bff", "lat": 38.88315, "fusion_lat": 0.0, "lon": -77.01386183333334, "is_disabled": 0, "fusion_lon": 0.0, "rental_uris": {"android": "https://dc.lft.to/lastmile_qr_scan", "ios": "https://dc.lft.to/lastmile_qr_scan"}, "type": "electric_scooter"}, {"bike_id": "95570ab7710c5a4dc777cea96c3ea4cd", "is_reserved": 0, "name": "95570ab7710c5a4dc777cea96c3ea4cd", "lat": 38.89080233333333, "fusion_lat": 0.0, "lon": -77.0403975, "is_disabled": 0, "fusion_lon": 0.0, "rental_uris": {"android": "https://dc.lft.to/lastmile_qr_scan", "ios": "https://dc.lft.to/lastmile_qr_scan"}, "type": "electric_scooter"}, {"bike_id": "d857b2e964b7d3707dbcc2f9a474e6c1", "is_reserved": 0, "name": "d857b2e964b7d3707dbcc2f9a474e6c1", "lat": 38.91685666666667, "fusion_lat": 0.0, "lon": -77.02380433333333, "is_disabled": 0, "fusion_lon": 0.0, "rental_uris": {"android": "https://dc.lft.to/lastmile_qr_scan", "ios": "https://dc.lft.to/lastmile_qr_scan"}, "type": "electric_scooter"}, {"bike_id": "5927a6c14d0c17482fbca1c283e3d39c", "is_reserved": 0, "name": "5927a6c14d0c17482fbca1c283e3d39c", "lat": 38.898429166666666, "fusion_lat": 0.0, "lon": -77.00743766666666, "is_disabled": 0, "fusion_lon": 0.0, "rental_uris": {"android": "https://dc.lft.to/lastmile_qr_scan", "ios": "https://dc.lft.to/lastmile_qr_scan"}, "type": "electric_scooter"}, {"bike_id": "01d65edea00449313f5feba5a8e406f1", "is_reserved": 0, "name": "01d65edea00449313f5feba5a8e406f1", "lat": 38.904083666666665, "fusion_lat": 0.0, "lon": -77.06267383333333, "is_disabled": 0, "fusion_lon": 0.0, "rental_uris": {"android": "https://dc.lft.to/lastmile_qr_scan", "ios": "https://dc.lft.to/lastmile_qr_scan"}, "type": "electric_scooter"}, {"bike_id": "f6b24ef1dfbd0abefbef75754c809815", "is_reserved": 0, "name": "f6b24ef1dfbd0abefbef75754c809815", "lat": 38.8409615, "fusion_lat": 0.0, "lon": -77.1070045, "is_disabled": 0, "fusion_lon": 0.0, "rental_uris": {"android": "https://dc.lft.to/lastmile_qr_scan", "ios": "https://dc.lft.to/lastmile_qr_scan"}, "type": "electric_bike"}, {"bike_id": "8514f583a16c93fc339d466f3b47c3c4", "is_reserved": 0, "name": "8514f583a16c93fc339d466f3b47c3c4", "lat": 38.93402866666667, "fusion_lat": 0.0, "lon": -77.03986583333334, "is_disabled": 0, "fusion_lon": 0.0, "rental_uris": {"android": "https://dc.lft.to/lastmile_qr_scan", "ios": "https://dc.lft.to/lastmile_qr_scan"}, "type": "electric_scooter"}, {"bike_id": "67e8b4f0da513f84e11a3621ee530a13", "is_reserved": 0, "name": "67e8b4f0da513f84e11a3621ee530a13", "lat": 39.03607683333333, "fusion_lat": 0.0, "lon": -77.05542583333333, "is_disabled": 0, "fusion_lon": 0.0, "rental_uris": {"android": "https://dc.lft.to/lastmile_qr_scan", "ios": "https://dc.lft.to/lastmile_qr_scan"}, "type": "electric_bike"}, {"bike_id": "31a4272689478988fbbd4e466866f482", "is_reserved": 0, "name": "31a4272689478988fbbd4e466866f482", "lat": 38.8862505, "fusion_lat": 0.0, "lon": -77.02822533333334, "is_disabled": 0, "fusion_lon": 0.0, "rental_uris": {"android": "https://dc.lft.to/lastmile_qr_scan", "ios": "https://dc.lft.to/lastmile_qr_scan"}, "type": "electric_scooter"}, {"bike_id": "feec6ebd2235bbac05250aa77f181707", "is_reserved": 0, "name": "feec6ebd2235bbac05250aa77f181707", "lat": 38.906560999999996, "fusion_lat": 0.0, "lon": -77.00587766666666, "is_disabled": 0, "fusion_lon": 0.0, "rental_uris": {"android": "https://dc.lft.to/lastmile_qr_scan", "ios": "https://dc.lft.to/lastmile_qr_scan"}, "type": "electric_scooter"}, {"bike_id": "90f63fc9ea7bfee53aca30d1b58c91b4", "is_reserved": 0, "name": "90f63fc9ea7bfee53aca30d1b58c91b4", "lat": 38.92548716666667, "fusion_lat": 0.0, "lon": -77.040627, "is_disabled": 0, "fusion_lon": 0.0, "rental_uris": {"android": "https://dc.lft.to/lastmile_qr_scan", "ios": "https://dc.lft.to/lastmile_qr_scan"}, "type": "electric_scooter"}, {"bike_id": "696d61f6d647952700e8eb8d70ee7a0e", "is_reserved": 0, "name": "696d61f6d647952700e8eb8d70ee7a0e", "lat": 38.92766066666667, "fusion_lat": 0.0, "lon": -77.02066466666666, "is_disabled": 0, "fusion_lon": 0.0, "rental_uris": {"android": "https://dc.lft.to/lastmile_qr_scan", "ios": "https://dc.lft.to/lastmile_qr_scan"}, "type": "electric_scooter"}, {"bike_id": "d955fb40808a63434a565676961a1136", "is_reserved": 0, "name": "d955fb40808a63434a565676961a1136", "lat": 38.90562883333333, "fusion_lat": 0.0, "lon": -77.02423166666667, "is_disabled": 0, "fusion_lon": 0.0, "rental_uris": {"android": "https://dc.lft.to/lastmile_qr_scan", "ios": "https://dc.lft.to/lastmile_qr_scan"}, "type": "electric_scooter"}, {"bike_id": "d9f73f1a713333c18b0a9d4a6d1e4017", "is_reserved": 0, "name": "d9f73f1a713333c18b0a9d4a6d1e4017", "lat": 38.89889683333333, "fusion_lat": 0.0, "lon": -76.93174716666667, "is_disabled": 0, "fusion_lon": 0.0, "rental_uris": {"android": "https://dc.lft.to/lastmile_qr_scan", "ios": "https://dc.lft.to/lastmile_qr_scan"}, "type": "electric_scooter"}, {"bike_id": "bf2705554ca760ca1ee0fb2a1188ddb4", "is_reserved": 0, "name": "bf2705554ca760ca1ee0fb2a1188ddb4", "lat": 38.892218166666666, "fusion_lat": 0.0, "lon": -77.02223016666667, "is_disabled": 0, "fusion_lon": 0.0, "rental_uris": {"android": "https://dc.lft.to/lastmile_qr_scan", "ios": "https://dc.lft.to/lastmile_qr_scan"}, "type": "electric_scooter"}, {"bike_id": "7bd23f00b0a3e431a128d0cd5d8a1b47", "is_reserved": 0, "name": "7bd23f00b0a3e431a128d0cd5d8a1b47", "lat": 38.91229166666667, "fusion_lat": 0.0, "lon": -76.98994466666667, "is_disabled": 0, "fusion_lon": 0.0, "rental_uris": {"android": "https://dc.lft.to/lastmile_qr_scan", "ios": "https://dc.lft.to/lastmile_qr_scan"}, "type": "electric_scooter"}, {"bike_id": "d7995cd9c1d59d0179114240be27c1a9", "is_reserved": 0, "name": "d7995cd9c1d59d0179114240be27c1a9", "lat": 38.909094333333336, "fusion_lat": 0.0, "lon": -77.0420715, "is_disabled": 0, "fusion_lon": 0.0, "rental_uris": {"android": "https://dc.lft.to/lastmile_qr_scan", "ios": "https://dc.lft.to/lastmile_qr_scan"}, "type": "electric_scooter"}, {"bike_id": "91753948bf2e46d9cea145fe8488d739", "is_reserved": 0, "name": "91753948bf2e46d9cea145fe8488d739", "lat": 38.857354, "fusion_lat": 0.0, "lon": -77.09807316666667, "is_disabled": 0, "fusion_lon": 0.0, "rental_uris": {"android": "https://dc.lft.to/lastmile_qr_scan", "ios": "https://dc.lft.to/lastmile_qr_scan"}, "type": "electric_bike"}, {"bike_id": "10f6576bcf1c214da0a436a43caa8238", "is_reserved": 0, "name": "10f6576bcf1c214da0a436a43caa8238", "lat": 38.866646833333334, "fusion_lat": 0.0, "lon": -76.9890225, "is_disabled": 0, "fusion_lon": 0.0, "rental_uris": {"android": "https://dc.lft.to/lastmile_qr_scan", "ios": "https://dc.lft.to/lastmile_qr_scan"}, "type": "electric_scooter"}, {"bike_id": "6967db50bf19593f22c1415fa687125b", "is_reserved": 0, "name": "6967db50bf19593f22c1415fa687125b", "lat": 38.892853333333335, "fusion_lat": 0.0, "lon": -77.01229983333333, "is_disabled": 0, "fusion_lon": 0.0, "rental_uris": {"android": "https://dc.lft.to/lastmile_qr_scan", "ios": "https://dc.lft.to/lastmile_qr_scan"}, "type": "electric_scooter"}, {"bike_id": "24f2fab8cc701dff6a724e5d87e281ca", "is_reserved": 0, "name": "24f2fab8cc701dff6a724e5d87e281ca", "lat": 38.924138166666665, "fusion_lat": 0.0, "lon": -77.03548033333334, "is_disabled": 0, "fusion_lon": 0.0, "rental_uris": {"android": "https://dc.lft.to/lastmile_qr_scan", "ios": "https://dc.lft.to/lastmile_qr_scan"}, "type": "electric_scooter"}, {"bike_id": "3691d822333be8060aaeff8a0047c37e", "is_reserved": 0, "name": "3691d822333be8060aaeff8a0047c37e", "lat": 38.934285833333334, "fusion_lat": 0.0, "lon": -77.04003266666666, "is_disabled": 0, "fusion_lon": 0.0, "rental_uris": {"android": "https://dc.lft.to/lastmile_qr_scan", "ios": "https://dc.lft.to/lastmile_qr_scan"}, "type": "electric_scooter"}, {"bike_id": "7f7ad9030b6951f559d4508539515380", "is_reserved": 0, "name": "7f7ad9030b6951f559d4508539515380", "lat": 38.91692616666667, "fusion_lat": 0.0, "lon": -77.03843533333334, "is_disabled": 0, "fusion_lon": 0.0, "rental_uris": {"android": "https://dc.lft.to/lastmile_qr_scan", "ios": "https://dc.lft.to/lastmile_qr_scan"}, "type": "electric_scooter"}, {"bike_id": "8835f65c214a867c092df554c9b4c096", "is_reserved": 0, "name": "8835f65c214a867c092df554c9b4c096", "lat": 38.92150566666667, "fusion_lat": 0.0, "lon": -77.038686, "is_disabled": 0, "fusion_lon": 0.0, "rental_uris": {"android": "https://dc.lft.to/lastmile_qr_scan", "ios": "https://dc.lft.to/lastmile_qr_scan"}, "type": "electric_scooter"}, {"bike_id": "4ab952e6c4e2e0f2daf6635eefadc604", "is_reserved": 0, "name": "4ab952e6c4e2e0f2daf6635eefadc604", "lat": 38.871637, "fusion_lat": 0.0, "lon": -77.00567466666666, "is_disabled": 0, "fusion_lon": 0.0, "rental_uris": {"android": "https://dc.lft.to/lastmile_qr_scan", "ios": "https://dc.lft.to/lastmile_qr_scan"}, "type": "electric_scooter"}, {"bike_id": "7434612652edbe22362e9b72951643b3", "is_reserved": 0, "name": "7434612652edbe22362e9b72951643b3", "lat": 38.904073333333336, "fusion_lat": 0.0, "lon": -77.025802, "is_disabled": 0, "fusion_lon": 0.0, "rental_uris": {"android": "https://dc.lft.to/lastmile_qr_scan", "ios": "https://dc.lft.to/lastmile_qr_scan"}, "type": "electric_scooter"}, {"bike_id": "e2adc60b579b9b31d0e409983f46ba14", "is_reserved": 0, "name": "e2adc60b579b9b31d0e409983f46ba14", "lat": 38.89969383333333, "fusion_lat": 0.0, "lon": -76.99491133333333, "is_disabled": 0, "fusion_lon": 0.0, "rental_uris": {"android": "https://dc.lft.to/lastmile_qr_scan", "ios": "https://dc.lft.to/lastmile_qr_scan"}, "type": "electric_scooter"}, {"bike_id": "c27607347e7f950bc63123865fe170c9", "is_reserved": 0, "name": "c27607347e7f950bc63123865fe170c9", "lat": 38.89824516666667, "fusion_lat": 0.0, "lon": -77.03028266666666, "is_disabled": 0, "fusion_lon": 0.0, "rental_uris": {"android": "https://dc.lft.to/lastmile_qr_scan", "ios": "https://dc.lft.to/lastmile_qr_scan"}, "type": "electric_scooter"}, {"bike_id": "0a6e1ce79cf7897fe89e70137e50dceb", "is_reserved": 0, "name": "0a6e1ce79cf7897fe89e70137e50dceb", "lat": 38.91794816666667, "fusion_lat": 0.0, "lon": -77.0343805, "is_disabled": 0, "fusion_lon": 0.0, "rental_uris": {"android": "https://dc.lft.to/lastmile_qr_scan", "ios": "https://dc.lft.to/lastmile_qr_scan"}, "type": "electric_scooter"}, {"bike_id": "a7166ee54c7f8aef40b0a8be41c89899", "is_reserved": 0, "name": "a7166ee54c7f8aef40b0a8be41c89899", "lat": 38.88714983333333, "fusion_lat": 0.0, "lon": -77.0283365, "is_disabled": 0, "fusion_lon": 0.0, "rental_uris": {"android": "https://dc.lft.to/lastmile_qr_scan", "ios": "https://dc.lft.to/lastmile_qr_scan"}, "type": "electric_scooter"}, {"bike_id": "0085759a3d55f325aa4e95428384d775", "is_reserved": 0, "name": "0085759a3d55f325aa4e95428384d775", "lat": 38.886370666666664, "fusion_lat": 0.0, "lon": -76.92585133333333, "is_disabled": 0, "fusion_lon": 0.0, "rental_uris": {"android": "https://dc.lft.to/lastmile_qr_scan", "ios": "https://dc.lft.to/lastmile_qr_scan"}, "type": "electric_scooter"}, {"bike_id": "52e3e2d3cb1d0a6e24909c9d15fac0cf", "is_reserved": 0, "name": "52e3e2d3cb1d0a6e24909c9d15fac0cf", "lat": 38.899528333333336, "fusion_lat": 0.0, "lon": -77.05699833333334, "is_disabled": 0, "fusion_lon": 0.0, "rental_uris": {"android": "https://dc.lft.to/lastmile_qr_scan", "ios": "https://dc.lft.to/lastmile_qr_scan"}, "type": "electric_scooter"}, {"bike_id": "27e48da9f615b8391288f0e6774f2e72", "is_reserved": 0, "name": "27e48da9f615b8391288f0e6774f2e72", "lat": 38.913974833333334, "fusion_lat": 0.0, "lon": -77.07556383333333, "is_disabled": 0, "fusion_lon": 0.0, "rental_uris": {"android": "https://dc.lft.to/lastmile_qr_scan", "ios": "https://dc.lft.to/lastmile_qr_scan"}, "type": "electric_scooter"}, {"bike_id": "dfa4a6bcebeb37d0b507b1e5c6893f1b", "is_reserved": 0, "name": "dfa4a6bcebeb37d0b507b1e5c6893f1b", "lat": 38.909551666666665, "fusion_lat": 0.0, "lon": -77.03464666666666, "is_disabled": 0, "fusion_lon": 0.0, "rental_uris": {"android": "https://dc.lft.to/lastmile_qr_scan", "ios": "https://dc.lft.to/lastmile_qr_scan"}, "type": "electric_scooter"}, {"bike_id": "bc3c50e8b8275506c331fc9af8b8b8bd", "is_reserved": 0, "name": "bc3c50e8b8275506c331fc9af8b8b8bd", "lat": 38.89523233333333, "fusion_lat": 0.0, "lon": -77.00212616666667, "is_disabled": 0, "fusion_lon": 0.0, "rental_uris": {"android": "https://dc.lft.to/lastmile_qr_scan", "ios": "https://dc.lft.to/lastmile_qr_scan"}, "type": "electric_scooter"}, {"bike_id": "6971528666f24b269078e038fe59fa22", "is_reserved": 0, "name": "6971528666f24b269078e038fe59fa22", "lat": 38.8992385, "fusion_lat": 0.0, "lon": -77.04997433333334, "is_disabled": 0, "fusion_lon": 0.0, "rental_uris": {"android": "https://dc.lft.to/lastmile_qr_scan", "ios": "https://dc.lft.to/lastmile_qr_scan"}, "type": "electric_scooter"}, {"bike_id": "da291d0d05f46e2d8ac268a056ab5e6f", "is_reserved": 0, "name": "da291d0d05f46e2d8ac268a056ab5e6f", "lat": 38.91069483333333, "fusion_lat": 0.0, "lon": -77.042545, "is_disabled": 0, "fusion_lon": 0.0, "rental_uris": {"android": "https://dc.lft.to/lastmile_qr_scan", "ios": "https://dc.lft.to/lastmile_qr_scan"}, "type": "electric_scooter"}, {"bike_id": "7775f93d6d22d101a2c358642bc62120", "is_reserved": 0, "name": "7775f93d6d22d101a2c358642bc62120", "lat": 38.9038345, "fusion_lat": 0.0, "lon": -77.03328433333333, "is_disabled": 0, "fusion_lon": 0.0, "rental_uris": {"android": "https://dc.lft.to/lastmile_qr_scan", "ios": "https://dc.lft.to/lastmile_qr_scan"}, "type": "electric_scooter"}, {"bike_id": "696947ef8d071e48c7a959ac9d1e9a48", "is_reserved": 0, "name": "696947ef8d071e48c7a959ac9d1e9a48", "lat": 38.9012655, "fusion_lat": 0.0, "lon": -77.002925, "is_disabled": 0, "fusion_lon": 0.0, "rental_uris": {"android": "https://dc.lft.to/lastmile_qr_scan", "ios": "https://dc.lft.to/lastmile_qr_scan"}, "type": "electric_scooter"}, {"bike_id": "c4827dc8bf209cbdcee2930165666475", "is_reserved": 0, "name": "c4827dc8bf209cbdcee2930165666475", "lat": 38.989427, "fusion_lat": 0.0, "lon": -77.101073, "is_disabled": 0, "fusion_lon": 0.0, "rental_uris": {"android": "https://dc.lft.to/lastmile_qr_scan", "ios": "https://dc.lft.to/lastmile_qr_scan"}, "type": "electric_bike"}, {"bike_id": "b0874aedf14a81e2890e244f132cbbca", "is_reserved": 0, "name": "b0874aedf14a81e2890e244f132cbbca", "lat": 38.9036925, "fusion_lat": 0.0, "lon": -77.03642583333334, "is_disabled": 0, "fusion_lon": 0.0, "rental_uris": {"android": "https://dc.lft.to/lastmile_qr_scan", "ios": "https://dc.lft.to/lastmile_qr_scan"}, "type": "electric_scooter"}, {"bike_id": "5a2623ad5b6057229640e076c6ab3c43", "is_reserved": 0, "name": "5a2623ad5b6057229640e076c6ab3c43", "lat": 38.892329833333335, "fusion_lat": 0.0, "lon": -77.0487475, "is_disabled": 0, "fusion_lon": 0.0, "rental_uris": {"android": "https://dc.lft.to/lastmile_qr_scan", "ios": "https://dc.lft.to/lastmile_qr_scan"}, "type": "electric_scooter"}, {"bike_id": "83158c6565546dc1ebba28a488f178e3", "is_reserved": 0, "name": "83158c6565546dc1ebba28a488f178e3", "lat": 38.916504833333335, "fusion_lat": 0.0, "lon": -77.02274033333333, "is_disabled": 0, "fusion_lon": 0.0, "rental_uris": {"android": "https://dc.lft.to/lastmile_qr_scan", "ios": "https://dc.lft.to/lastmile_qr_scan"}, "type": "electric_scooter"}, {"bike_id": "324c00d4cc84e2812f949d1119e98fe3", "is_reserved": 0, "name": "324c00d4cc84e2812f949d1119e98fe3", "lat": 38.99231566666667, "fusion_lat": 0.0, "lon": -76.94434833333334, "is_disabled": 0, "fusion_lon": 0.0, "rental_uris": {"android": "https://dc.lft.to/lastmile_qr_scan", "ios": "https://dc.lft.to/lastmile_qr_scan"}, "type": "electric_bike"}, {"bike_id": "6f4901161a8f80f80885a2811f3e4330", "is_reserved": 0, "name": "6f4901161a8f80f80885a2811f3e4330", "lat": 38.92317366666666, "fusion_lat": 0.0, "lon": -77.02889566666667, "is_disabled": 0, "fusion_lon": 0.0, "rental_uris": {"android": "https://dc.lft.to/lastmile_qr_scan", "ios": "https://dc.lft.to/lastmile_qr_scan"}, "type": "electric_scooter"}, {"bike_id": "149f1baad913b708fb35f2df1d3dbbee", "is_reserved": 0, "name": "149f1baad913b708fb35f2df1d3dbbee", "lat": 38.90530566666666, "fusion_lat": 0.0, "lon": -77.0563805, "is_disabled": 0, "fusion_lon": 0.0, "rental_uris": {"android": "https://dc.lft.to/lastmile_qr_scan", "ios": "https://dc.lft.to/lastmile_qr_scan"}, "type": "electric_scooter"}, {"bike_id": "6f6929c2746178e70d46fbefc634d6b7", "is_reserved": 0, "name": "6f6929c2746178e70d46fbefc634d6b7", "lat": 38.915510166666664, "fusion_lat": 0.0, "lon": -77.03173866666667, "is_disabled": 0, "fusion_lon": 0.0, "rental_uris": {"android": "https://dc.lft.to/lastmile_qr_scan", "ios": "https://dc.lft.to/lastmile_qr_scan"}, "type": "electric_scooter"}, {"bike_id": "778b82809ad111b636e54a7d86275f88", "is_reserved": 0, "name": "778b82809ad111b636e54a7d86275f88", "lat": 38.9192065, "fusion_lat": 0.0, "lon": -77.031301, "is_disabled": 0, "fusion_lon": 0.0, "rental_uris": {"android": "https://dc.lft.to/lastmile_qr_scan", "ios": "https://dc.lft.to/lastmile_qr_scan"}, "type": "electric_scooter"}, {"bike_id": "58c9728a98ff91333d8d61532e2069ce", "is_reserved": 0, "name": "58c9728a98ff91333d8d61532e2069ce", "lat": 38.927012166666664, "fusion_lat": 0.0, "lon": -76.99763516666667, "is_disabled": 0, "fusion_lon": 0.0, "rental_uris": {"android": "https://dc.lft.to/lastmile_qr_scan", "ios": "https://dc.lft.to/lastmile_qr_scan"}, "type": "electric_scooter"}, {"bike_id": "119486429c724ff658a44cdba9295469", "is_reserved": 0, "name": "119486429c724ff658a44cdba9295469", "lat": 38.877379833333336, "fusion_lat": 0.0, "lon": -76.97032666666667, "is_disabled": 0, "fusion_lon": 0.0, "rental_uris": {"android": "https://dc.lft.to/lastmile_qr_scan", "ios": "https://dc.lft.to/lastmile_qr_scan"}, "type": "electric_scooter"}, {"bike_id": "d54513e7cf7e4a14dc0f3a5d74ec31ac", "is_reserved": 0, "name": "d54513e7cf7e4a14dc0f3a5d74ec31ac", "lat": 38.91702866666667, "fusion_lat": 0.0, "lon": -77.04072316666667, "is_disabled": 0, "fusion_lon": 0.0, "rental_uris": {"android": "https://dc.lft.to/lastmile_qr_scan", "ios": "https://dc.lft.to/lastmile_qr_scan"}, "type": "electric_scooter"}, {"bike_id": "3831830416c496f5640cd15d750201a0", "is_reserved": 0, "name": "3831830416c496f5640cd15d750201a0", "lat": 38.90355016666667, "fusion_lat": 0.0, "lon": -77.03859166666666, "is_disabled": 0, "fusion_lon": 0.0, "rental_uris": {"android": "https://dc.lft.to/lastmile_qr_scan", "ios": "https://dc.lft.to/lastmile_qr_scan"}, "type": "electric_scooter"}, {"bike_id": "bac4a44231c725b4e3c5c8ec470bd966", "is_reserved": 0, "name": "bac4a44231c725b4e3c5c8ec470bd966", "lat": 38.90109283333334, "fusion_lat": 0.0, "lon": -76.974227, "is_disabled": 0, "fusion_lon": 0.0, "rental_uris": {"android": "https://dc.lft.to/lastmile_qr_scan", "ios": "https://dc.lft.to/lastmile_qr_scan"}, "type": "electric_scooter"}, {"bike_id": "85b2f9cc4de630dd8c0331d277ab4265", "is_reserved": 0, "name": "85b2f9cc4de630dd8c0331d277ab4265", "lat": 38.922969, "fusion_lat": 0.0, "lon": -77.02327533333333, "is_disabled": 0, "fusion_lon": 0.0, "rental_uris": {"android": "https://dc.lft.to/lastmile_qr_scan", "ios": "https://dc.lft.to/lastmile_qr_scan"}, "type": "electric_scooter"}, {"bike_id": "935b80e310f74e601b2007b8a813158f", "is_reserved": 0, "name": "935b80e310f74e601b2007b8a813158f", "lat": 38.9126535, "fusion_lat": 0.0, "lon": -77.0329835, "is_disabled": 0, "fusion_lon": 0.0, "rental_uris": {"android": "https://dc.lft.to/lastmile_qr_scan", "ios": "https://dc.lft.to/lastmile_qr_scan"}, "type": "electric_scooter"}, {"bike_id": "a3c7414337ab16e752648aeddcc4eab5", "is_reserved": 0, "name": "a3c7414337ab16e752648aeddcc4eab5", "lat": 38.908084, "fusion_lat": 0.0, "lon": -77.03447566666667, "is_disabled": 0, "fusion_lon": 0.0, "rental_uris": {"android": "https://dc.lft.to/lastmile_qr_scan", "ios": "https://dc.lft.to/lastmile_qr_scan"}, "type": "electric_scooter"}, {"bike_id": "6ea836df30eec499fb964b6fdc74028a", "is_reserved": 0, "name": "6ea836df30eec499fb964b6fdc74028a", "lat": 38.919446, "fusion_lat": 0.0, "lon": -77.024985, "is_disabled": 0, "fusion_lon": 0.0, "rental_uris": {"android": "https://dc.lft.to/lastmile_qr_scan", "ios": "https://dc.lft.to/lastmile_qr_scan"}, "type": "electric_scooter"}, {"bike_id": "9f2cb836bab7ee3bf3309c019a0d66a2", "is_reserved": 0, "name": "9f2cb836bab7ee3bf3309c019a0d66a2", "lat": 38.922646, "fusion_lat": 0.0, "lon": -77.0187225, "is_disabled": 0, "fusion_lon": 0.0, "rental_uris": {"android": "https://dc.lft.to/lastmile_qr_scan", "ios": "https://dc.lft.to/lastmile_qr_scan"}, "type": "electric_scooter"}, {"bike_id": "99df95fbf2e9efdab92b6b5fefc8902c", "is_reserved": 0, "name": "99df95fbf2e9efdab92b6b5fefc8902c", "lat": 38.8960995, "fusion_lat": 0.0, "lon": -77.04425266666667, "is_disabled": 0, "fusion_lon": 0.0, "rental_uris": {"android": "https://dc.lft.to/lastmile_qr_scan", "ios": "https://dc.lft.to/lastmile_qr_scan"}, "type": "electric_scooter"}, {"bike_id": "d9de501dac8525969e32711fe82a8db6", "is_reserved": 0, "name": "d9de501dac8525969e32711fe82a8db6", "lat": 38.926114166666665, "fusion_lat": 0.0, "lon": -77.07565733333334, "is_disabled": 0, "fusion_lon": 0.0, "rental_uris": {"android": "https://dc.lft.to/lastmile_qr_scan", "ios": "https://dc.lft.to/lastmile_qr_scan"}, "type": "electric_scooter"}, {"bike_id": "0e16aca4a7bf9b99b74141723c5a9478", "is_reserved": 0, "name": "0e16aca4a7bf9b99b74141723c5a9478", "lat": 38.910485, "fusion_lat": 0.0, "lon": -77.04397883333333, "is_disabled": 0, "fusion_lon": 0.0, "rental_uris": {"android": "https://dc.lft.to/lastmile_qr_scan", "ios": "https://dc.lft.to/lastmile_qr_scan"}, "type": "electric_scooter"}, {"bike_id": "60cd078e4dd6ab9be605dfdf373a856c", "is_reserved": 0, "name": "60cd078e4dd6ab9be605dfdf373a856c", "lat": 38.91814733333333, "fusion_lat": 0.0, "lon": -77.032644, "is_disabled": 0, "fusion_lon": 0.0, "rental_uris": {"android": "https://dc.lft.to/lastmile_qr_scan", "ios": "https://dc.lft.to/lastmile_qr_scan"}, "type": "electric_scooter"}, {"bike_id": "33bfe2399daca36924461d364cbf7a98", "is_reserved": 0, "name": "33bfe2399daca36924461d364cbf7a98", "lat": 38.90996616666666, "fusion_lat": 0.0, "lon": -77.04659183333334, "is_disabled": 0, "fusion_lon": 0.0, "rental_uris": {"android": "https://dc.lft.to/lastmile_qr_scan", "ios": "https://dc.lft.to/lastmile_qr_scan"}, "type": "electric_scooter"}, {"bike_id": "0f9602ebb05d3a686f244647cc330014", "is_reserved": 0, "name": "0f9602ebb05d3a686f244647cc330014", "lat": 38.897739333333334, "fusion_lat": 0.0, "lon": -76.92583933333333, "is_disabled": 0, "fusion_lon": 0.0, "rental_uris": {"android": "https://dc.lft.to/lastmile_qr_scan", "ios": "https://dc.lft.to/lastmile_qr_scan"}, "type": "electric_scooter"}, {"bike_id": "cb88d63a498935ec50b740a7eeea3159", "is_reserved": 0, "name": "cb88d63a498935ec50b740a7eeea3159", "lat": 38.93846833333333, "fusion_lat": 0.0, "lon": -77.0722905, "is_disabled": 0, "fusion_lon": 0.0, "rental_uris": {"android": "https://dc.lft.to/lastmile_qr_scan", "ios": "https://dc.lft.to/lastmile_qr_scan"}, "type": "electric_scooter"}, {"bike_id": "e9f30f961b3285d87324259725b6c865", "is_reserved": 0, "name": "e9f30f961b3285d87324259725b6c865", "lat": 38.99211316666667, "fusion_lat": 0.0, "lon": -77.03222966666667, "is_disabled": 0, "fusion_lon": 0.0, "rental_uris": {"android": "https://dc.lft.to/lastmile_qr_scan", "ios": "https://dc.lft.to/lastmile_qr_scan"}, "type": "electric_bike"}, {"bike_id": "09a56da5cfaf9afbe2db239a6f823dbd", "is_reserved": 0, "name": "09a56da5cfaf9afbe2db239a6f823dbd", "lat": 38.9181785, "fusion_lat": 0.0, "lon": -77.032073, "is_disabled": 0, "fusion_lon": 0.0, "rental_uris": {"android": "https://dc.lft.to/lastmile_qr_scan", "ios": "https://dc.lft.to/lastmile_qr_scan"}, "type": "electric_scooter"}, {"bike_id": "b088f901b2e745304bf24853e40ca8a5", "is_reserved": 0, "name": "b088f901b2e745304bf24853e40ca8a5", "lat": 38.90237783333333, "fusion_lat": 0.0, "lon": -77.05318133333333, "is_disabled": 0, "fusion_lon": 0.0, "rental_uris": {"android": "https://dc.lft.to/lastmile_qr_scan", "ios": "https://dc.lft.to/lastmile_qr_scan"}, "type": "electric_scooter"}, {"bike_id": "1973e88c7522b8829de7d5e94376998f", "is_reserved": 0, "name": "1973e88c7522b8829de7d5e94376998f", "lat": 38.935404, "fusion_lat": 0.0, "lon": -77.0574205, "is_disabled": 0, "fusion_lon": 0.0, "rental_uris": {"android": "https://dc.lft.to/lastmile_qr_scan", "ios": "https://dc.lft.to/lastmile_qr_scan"}, "type": "electric_scooter"}, {"bike_id": "3ebd813510351c9e44e714ba55702ca1", "is_reserved": 0, "name": "3ebd813510351c9e44e714ba55702ca1", "lat": 38.89300266666667, "fusion_lat": 0.0, "lon": -77.01237966666666, "is_disabled": 0, "fusion_lon": 0.0, "rental_uris": {"android": "https://dc.lft.to/lastmile_qr_scan", "ios": "https://dc.lft.to/lastmile_qr_scan"}, "type": "electric_scooter"}, {"bike_id": "b90ae62ee8dd80944a3c61b1f3f37899", "is_reserved": 0, "name": "b90ae62ee8dd80944a3c61b1f3f37899", "lat": 38.87393183333333, "fusion_lat": 0.0, "lon": -77.00036333333334, "is_disabled": 0, "fusion_lon": 0.0, "rental_uris": {"android": "https://dc.lft.to/lastmile_qr_scan", "ios": "https://dc.lft.to/lastmile_qr_scan"}, "type": "electric_scooter"}, {"bike_id": "c6df19bcf325ac477fcc2cd083957ed8", "is_reserved": 0, "name": "c6df19bcf325ac477fcc2cd083957ed8", "lat": 38.90246233333333, "fusion_lat": 0.0, "lon": -77.04690783333334, "is_disabled": 0, "fusion_lon": 0.0, "rental_uris": {"android": "https://dc.lft.to/lastmile_qr_scan", "ios": "https://dc.lft.to/lastmile_qr_scan"}, "type": "electric_scooter"}, {"bike_id": "ae0de8b5dd1e8c829ee8fe79ff1f5086", "is_reserved": 0, "name": "ae0de8b5dd1e8c829ee8fe79ff1f5086", "lat": 38.90056466666667, "fusion_lat": 0.0, "lon": -77.02637166666666, "is_disabled": 0, "fusion_lon": 0.0, "rental_uris": {"android": "https://dc.lft.to/lastmile_qr_scan", "ios": "https://dc.lft.to/lastmile_qr_scan"}, "type": "electric_scooter"}, {"bike_id": "ba75dc244ed6df6944d4ae54c8513ad1", "is_reserved": 0, "name": "ba75dc244ed6df6944d4ae54c8513ad1", "lat": 38.900740666666664, "fusion_lat": 0.0, "lon": -77.02712033333333, "is_disabled": 0, "fusion_lon": 0.0, "rental_uris": {"android": "https://dc.lft.to/lastmile_qr_scan", "ios": "https://dc.lft.to/lastmile_qr_scan"}, "type": "electric_scooter"}, {"bike_id": "1248e12909cbe7cd222c2af6a1426cbb", "is_reserved": 0, "name": "1248e12909cbe7cd222c2af6a1426cbb", "lat": 38.91911416666667, "fusion_lat": 0.0, "lon": -77.023932, "is_disabled": 0, "fusion_lon": 0.0, "rental_uris": {"android": "https://dc.lft.to/lastmile_qr_scan", "ios": "https://dc.lft.to/lastmile_qr_scan"}, "type": "electric_scooter"}, {"bike_id": "5acccffdcfe0e424405a645520f999ed", "is_reserved": 0, "name": "5acccffdcfe0e424405a645520f999ed", "lat": 38.89853216666667, "fusion_lat": 0.0, "lon": -77.02213266666666, "is_disabled": 0, "fusion_lon": 0.0, "rental_uris": {"android": "https://dc.lft.to/lastmile_qr_scan", "ios": "https://dc.lft.to/lastmile_qr_scan"}, "type": "electric_bike"}, {"bike_id": "2b920a6d137046f9d4174cf22fdab1a6", "is_reserved": 0, "name": "2b920a6d137046f9d4174cf22fdab1a6", "lat": 38.919398, "fusion_lat": 0.0, "lon": -77.018116, "is_disabled": 0, "fusion_lon": 0.0, "rental_uris": {"android": "https://dc.lft.to/lastmile_qr_scan", "ios": "https://dc.lft.to/lastmile_qr_scan"}, "type": "electric_scooter"}, {"bike_id": "0178eeb19466ac384bff00c54363ab74", "is_reserved": 0, "name": "0178eeb19466ac384bff00c54363ab74", "lat": 38.90753633333333, "fusion_lat": 0.0, "lon": -77.02388816666667, "is_disabled": 0, "fusion_lon": 0.0, "rental_uris": {"android": "https://dc.lft.to/lastmile_qr_scan", "ios": "https://dc.lft.to/lastmile_qr_scan"}, "type": "electric_scooter"}, {"bike_id": "1317ed867c028cc6bab83fb647f10f7a", "is_reserved": 0, "name": "1317ed867c028cc6bab83fb647f10f7a", "lat": 38.940866, "fusion_lat": 0.0, "lon": -77.026327, "is_disabled": 0, "fusion_lon": 0.0, "rental_uris": {"android": "https://dc.lft.to/lastmile_qr_scan", "ios": "https://dc.lft.to/lastmile_qr_scan"}, "type": "electric_scooter"}, {"bike_id": "a07c44540a4788a9c94bd111603a00f6", "is_reserved": 0, "name": "a07c44540a4788a9c94bd111603a00f6", "lat": 38.927393, "fusion_lat": 0.0, "lon": -77.022471, "is_disabled": 0, "fusion_lon": 0.0, "rental_uris": {"android": "https://dc.lft.to/lastmile_qr_scan", "ios": "https://dc.lft.to/lastmile_qr_scan"}, "type": "electric_scooter"}, {"bike_id": "7bc6f1e078171b63fd1cb7dfdfc3bec0", "is_reserved": 0, "name": "7bc6f1e078171b63fd1cb7dfdfc3bec0", "lat": 38.920525, "fusion_lat": 0.0, "lon": -77.0339365, "is_disabled": 0, "fusion_lon": 0.0, "rental_uris": {"android": "https://dc.lft.to/lastmile_qr_scan", "ios": "https://dc.lft.to/lastmile_qr_scan"}, "type": "electric_scooter"}, {"bike_id": "97f48764108bbfc1d486e44f1f9036bd", "is_reserved": 0, "name": "97f48764108bbfc1d486e44f1f9036bd", "lat": 38.887422666666666, "fusion_lat": 0.0, "lon": -77.02126783333334, "is_disabled": 0, "fusion_lon": 0.0, "rental_uris": {"android": "https://dc.lft.to/lastmile_qr_scan", "ios": "https://dc.lft.to/lastmile_qr_scan"}, "type": "electric_scooter"}, {"bike_id": "fc035c33b198df03da8160f18126a398", "is_reserved": 0, "name": "fc035c33b198df03da8160f18126a398", "lat": 38.897196666666666, "fusion_lat": 0.0, "lon": -77.02822433333333, "is_disabled": 0, "fusion_lon": 0.0, "rental_uris": {"android": "https://dc.lft.to/lastmile_qr_scan", "ios": "https://dc.lft.to/lastmile_qr_scan"}, "type": "electric_scooter"}, {"bike_id": "4aba4a79ff052b4c9525b4ae304ec4cb", "is_reserved": 0, "name": "4aba4a79ff052b4c9525b4ae304ec4cb", "lat": 38.9081335, "fusion_lat": 0.0, "lon": -77.03448516666667, "is_disabled": 0, "fusion_lon": 0.0, "rental_uris": {"android": "https://dc.lft.to/lastmile_qr_scan", "ios": "https://dc.lft.to/lastmile_qr_scan"}, "type": "electric_scooter"}, {"bike_id": "70ccd411e1d5201a973f4f10363fbd43", "is_reserved": 0, "name": "70ccd411e1d5201a973f4f10363fbd43", "lat": 38.857168333333334, "fusion_lat": 0.0, "lon": -76.98095266666667, "is_disabled": 0, "fusion_lon": 0.0, "rental_uris": {"android": "https://dc.lft.to/lastmile_qr_scan", "ios": "https://dc.lft.to/lastmile_qr_scan"}, "type": "electric_bike"}, {"bike_id": "aa84c4ffbb25be6c269d9bff465450a9", "is_reserved": 0, "name": "aa84c4ffbb25be6c269d9bff465450a9", "lat": 38.903602666666664, "fusion_lat": 0.0, "lon": -77.00741183333334, "is_disabled": 0, "fusion_lon": 0.0, "rental_uris": {"android": "https://dc.lft.to/lastmile_qr_scan", "ios": "https://dc.lft.to/lastmile_qr_scan"}, "type": "electric_scooter"}, {"bike_id": "684e4d469bc3cfea429066a65da2e8b1", "is_reserved": 0, "name": "684e4d469bc3cfea429066a65da2e8b1", "lat": 38.87704983333333, "fusion_lat": 0.0, "lon": -77.018992, "is_disabled": 0, "fusion_lon": 0.0, "rental_uris": {"android": "https://dc.lft.to/lastmile_qr_scan", "ios": "https://dc.lft.to/lastmile_qr_scan"}, "type": "electric_scooter"}, {"bike_id": "ee11e5486b5b39f3df18289539b27717", "is_reserved": 0, "name": "ee11e5486b5b39f3df18289539b27717", "lat": 38.906445166666664, "fusion_lat": 0.0, "lon": -77.00658016666667, "is_disabled": 0, "fusion_lon": 0.0, "rental_uris": {"android": "https://dc.lft.to/lastmile_qr_scan", "ios": "https://dc.lft.to/lastmile_qr_scan"}, "type": "electric_scooter"}, {"bike_id": "6a934f71b5209c82cfd7e6f5ab035537", "is_reserved": 0, "name": "6a934f71b5209c82cfd7e6f5ab035537", "lat": 38.898323, "fusion_lat": 0.0, "lon": -77.02186516666667, "is_disabled": 0, "fusion_lon": 0.0, "rental_uris": {"android": "https://dc.lft.to/lastmile_qr_scan", "ios": "https://dc.lft.to/lastmile_qr_scan"}, "type": "electric_scooter"}, {"bike_id": "1554aacdb32a2158ff128cd212960921", "is_reserved": 0, "name": "1554aacdb32a2158ff128cd212960921", "lat": 38.91223316666667, "fusion_lat": 0.0, "lon": -77.06595383333334, "is_disabled": 0, "fusion_lon": 0.0, "rental_uris": {"android": "https://dc.lft.to/lastmile_qr_scan", "ios": "https://dc.lft.to/lastmile_qr_scan"}, "type": "electric_scooter"}, {"bike_id": "44c03e08e743d666bccd5d08a09b91a1", "is_reserved": 0, "name": "44c03e08e743d666bccd5d08a09b91a1", "lat": 38.91411266666667, "fusion_lat": 0.0, "lon": -77.03993716666666, "is_disabled": 0, "fusion_lon": 0.0, "rental_uris": {"android": "https://dc.lft.to/lastmile_qr_scan", "ios": "https://dc.lft.to/lastmile_qr_scan"}, "type": "electric_scooter"}, {"bike_id": "b5ed7e51ecaa3df3a5602bbd5f41dcdb", "is_reserved": 0, "name": "b5ed7e51ecaa3df3a5602bbd5f41dcdb", "lat": 38.934107, "fusion_lat": 0.0, "lon": -77.04304166666667, "is_disabled": 0, "fusion_lon": 0.0, "rental_uris": {"android": "https://dc.lft.to/lastmile_qr_scan", "ios": "https://dc.lft.to/lastmile_qr_scan"}, "type": "electric_bike"}, {"bike_id": "540f76f1dcaaaa988c6f82757e443ac1", "is_reserved": 0, "name": "540f76f1dcaaaa988c6f82757e443ac1", "lat": 38.90034383333333, "fusion_lat": 0.0, "lon": -76.991358, "is_disabled": 0, "fusion_lon": 0.0, "rental_uris": {"android": "https://dc.lft.to/lastmile_qr_scan", "ios": "https://dc.lft.to/lastmile_qr_scan"}, "type": "electric_scooter"}, {"bike_id": "cd8834bb215fe4a1a9c66c9715b85282", "is_reserved": 0, "name": "cd8834bb215fe4a1a9c66c9715b85282", "lat": 38.89603666666667, "fusion_lat": 0.0, "lon": -77.009285, "is_disabled": 0, "fusion_lon": 0.0, "rental_uris": {"android": "https://dc.lft.to/lastmile_qr_scan", "ios": "https://dc.lft.to/lastmile_qr_scan"}, "type": "electric_scooter"}, {"bike_id": "ffeffe4d3b6c2e5261100b863c4899a8", "is_reserved": 0, "name": "ffeffe4d3b6c2e5261100b863c4899a8", "lat": 38.89633766666667, "fusion_lat": 0.0, "lon": -77.0268735, "is_disabled": 0, "fusion_lon": 0.0, "rental_uris": {"android": "https://dc.lft.to/lastmile_qr_scan", "ios": "https://dc.lft.to/lastmile_qr_scan"}, "type": "electric_scooter"}, {"bike_id": "c562eab1a8cef6ea0556291c4cd790d3", "is_reserved": 0, "name": "c562eab1a8cef6ea0556291c4cd790d3", "lat": 38.85805116666667, "fusion_lat": 0.0, "lon": -76.98732933333334, "is_disabled": 0, "fusion_lon": 0.0, "rental_uris": {"android": "https://dc.lft.to/lastmile_qr_scan", "ios": "https://dc.lft.to/lastmile_qr_scan"}, "type": "electric_bike"}, {"bike_id": "da5619cd7bfb1df7a8f8dad3762b7ee2", "is_reserved": 0, "name": "da5619cd7bfb1df7a8f8dad3762b7ee2", "lat": 38.90203283333334, "fusion_lat": 0.0, "lon": -77.0236815, "is_disabled": 0, "fusion_lon": 0.0, "rental_uris": {"android": "https://dc.lft.to/lastmile_qr_scan", "ios": "https://dc.lft.to/lastmile_qr_scan"}, "type": "electric_scooter"}, {"bike_id": "c574220dd233e3d6287ea794f8f3901d", "is_reserved": 0, "name": "c574220dd233e3d6287ea794f8f3901d", "lat": 38.890162, "fusion_lat": 0.0, "lon": -76.93734516666666, "is_disabled": 0, "fusion_lon": 0.0, "rental_uris": {"android": "https://dc.lft.to/lastmile_qr_scan", "ios": "https://dc.lft.to/lastmile_qr_scan"}, "type": "electric_scooter"}, {"bike_id": "092779a1df8305ea28cad104fb3e5328", "is_reserved": 0, "name": "092779a1df8305ea28cad104fb3e5328", "lat": 38.8954575, "fusion_lat": 0.0, "lon": -76.98335616666667, "is_disabled": 0, "fusion_lon": 0.0, "rental_uris": {"android": "https://dc.lft.to/lastmile_qr_scan", "ios": "https://dc.lft.to/lastmile_qr_scan"}, "type": "electric_scooter"}, {"bike_id": "722eb3738303a202d195e1211196c6d1", "is_reserved": 0, "name": "722eb3738303a202d195e1211196c6d1", "lat": 38.910343, "fusion_lat": 0.0, "lon": -76.99340833333333, "is_disabled": 0, "fusion_lon": 0.0, "rental_uris": {"android": "https://dc.lft.to/lastmile_qr_scan", "ios": "https://dc.lft.to/lastmile_qr_scan"}, "type": "electric_scooter"}, {"bike_id": "eb6352ab8a15175822cd03ec27c84611", "is_reserved": 0, "name": "eb6352ab8a15175822cd03ec27c84611", "lat": 38.900812, "fusion_lat": 0.0, "lon": -77.05147633333333, "is_disabled": 0, "fusion_lon": 0.0, "rental_uris": {"android": "https://dc.lft.to/lastmile_qr_scan", "ios": "https://dc.lft.to/lastmile_qr_scan"}, "type": "electric_scooter"}, {"bike_id": "7e97f4aab69f1ddf29b6204f93e84556", "is_reserved": 0, "name": "7e97f4aab69f1ddf29b6204f93e84556", "lat": 38.900946166666664, "fusion_lat": 0.0, "lon": -77.05063083333333, "is_disabled": 0, "fusion_lon": 0.0, "rental_uris": {"android": "https://dc.lft.to/lastmile_qr_scan", "ios": "https://dc.lft.to/lastmile_qr_scan"}, "type": "electric_scooter"}, {"bike_id": "aa0e014cbcb8bf01bfdd5bb0291af5ea", "is_reserved": 0, "name": "aa0e014cbcb8bf01bfdd5bb0291af5ea", "lat": 38.921957, "fusion_lat": 0.0, "lon": -77.037803, "is_disabled": 0, "fusion_lon": 0.0, "rental_uris": {"android": "https://dc.lft.to/lastmile_qr_scan", "ios": "https://dc.lft.to/lastmile_qr_scan"}, "type": "electric_scooter"}, {"bike_id": "880dbb2a47701373b98cf0bfb1f9b57f", "is_reserved": 0, "name": "880dbb2a47701373b98cf0bfb1f9b57f", "lat": 38.901397833333334, "fusion_lat": 0.0, "lon": -77.04502483333333, "is_disabled": 0, "fusion_lon": 0.0, "rental_uris": {"android": "https://dc.lft.to/lastmile_qr_scan", "ios": "https://dc.lft.to/lastmile_qr_scan"}, "type": "electric_scooter"}, {"bike_id": "334609b0d84b13fbbd00a95d4e704b4a", "is_reserved": 0, "name": "334609b0d84b13fbbd00a95d4e704b4a", "lat": 38.92175233333333, "fusion_lat": 0.0, "lon": -77.03824866666666, "is_disabled": 0, "fusion_lon": 0.0, "rental_uris": {"android": "https://dc.lft.to/lastmile_qr_scan", "ios": "https://dc.lft.to/lastmile_qr_scan"}, "type": "electric_scooter"}, {"bike_id": "a002e878e8f64dc0872a1c417cbdae26", "is_reserved": 0, "name": "a002e878e8f64dc0872a1c417cbdae26", "lat": 38.908302166666665, "fusion_lat": 0.0, "lon": -77.003758, "is_disabled": 0, "fusion_lon": 0.0, "rental_uris": {"android": "https://dc.lft.to/lastmile_qr_scan", "ios": "https://dc.lft.to/lastmile_qr_scan"}, "type": "electric_scooter"}, {"bike_id": "41e7f851a51b6993a5cc85094fbd282b", "is_reserved": 0, "name": "41e7f851a51b6993a5cc85094fbd282b", "lat": 38.896245, "fusion_lat": 0.0, "lon": -76.99847983333333, "is_disabled": 0, "fusion_lon": 0.0, "rental_uris": {"android": "https://dc.lft.to/lastmile_qr_scan", "ios": "https://dc.lft.to/lastmile_qr_scan"}, "type": "electric_scooter"}, {"bike_id": "27837f45bb7b1e9682b6e255ac9bdd25", "is_reserved": 0, "name": "27837f45bb7b1e9682b6e255ac9bdd25", "lat": 38.88369816666667, "fusion_lat": 0.0, "lon": -77.01978633333333, "is_disabled": 0, "fusion_lon": 0.0, "rental_uris": {"android": "https://dc.lft.to/lastmile_qr_scan", "ios": "https://dc.lft.to/lastmile_qr_scan"}, "type": "electric_scooter"}, {"bike_id": "a58ce0893fd0c305838ef50de740afd6", "is_reserved": 0, "name": "a58ce0893fd0c305838ef50de740afd6", "lat": 38.821710333333336, "fusion_lat": 0.0, "lon": -77.0014755, "is_disabled": 0, "fusion_lon": 0.0, "rental_uris": {"android": "https://dc.lft.to/lastmile_qr_scan", "ios": "https://dc.lft.to/lastmile_qr_scan"}, "type": "electric_bike"}, {"bike_id": "172ee7746b62681f7671abb3dcde9c86", "is_reserved": 0, "name": "172ee7746b62681f7671abb3dcde9c86", "lat": 38.91717466666667, "fusion_lat": 0.0, "lon": -77.0253185, "is_disabled": 0, "fusion_lon": 0.0, "rental_uris": {"android": "https://dc.lft.to/lastmile_qr_scan", "ios": "https://dc.lft.to/lastmile_qr_scan"}, "type": "electric_scooter"}, {"bike_id": "25f2cf4a7e860b0b89809cc4490fee06", "is_reserved": 0, "name": "25f2cf4a7e860b0b89809cc4490fee06", "lat": 38.91309316666667, "fusion_lat": 0.0, "lon": -77.04159983333334, "is_disabled": 0, "fusion_lon": 0.0, "rental_uris": {"android": "https://dc.lft.to/lastmile_qr_scan", "ios": "https://dc.lft.to/lastmile_qr_scan"}, "type": "electric_scooter"}, {"bike_id": "14b1869caf8bad99fd0d3f433127d7fc", "is_reserved": 0, "name": "14b1869caf8bad99fd0d3f433127d7fc", "lat": 38.909644, "fusion_lat": 0.0, "lon": -77.01646, "is_disabled": 0, "fusion_lon": 0.0, "rental_uris": {"android": "https://dc.lft.to/lastmile_qr_scan", "ios": "https://dc.lft.to/lastmile_qr_scan"}, "type": "electric_scooter"}, {"bike_id": "4597fdd2bcc20fd7f2144a5c66d401f4", "is_reserved": 0, "name": "4597fdd2bcc20fd7f2144a5c66d401f4", "lat": 38.889965, "fusion_lat": 0.0, "lon": -76.98370083333333, "is_disabled": 0, "fusion_lon": 0.0, "rental_uris": {"android": "https://dc.lft.to/lastmile_qr_scan", "ios": "https://dc.lft.to/lastmile_qr_scan"}, "type": "electric_scooter"}, {"bike_id": "0bd5d4c6bfeb5cf822dfa36eff092cdd", "is_reserved": 0, "name": "0bd5d4c6bfeb5cf822dfa36eff092cdd", "lat": 38.90289116666667, "fusion_lat": 0.0, "lon": -77.03452316666667, "is_disabled": 0, "fusion_lon": 0.0, "rental_uris": {"android": "https://dc.lft.to/lastmile_qr_scan", "ios": "https://dc.lft.to/lastmile_qr_scan"}, "type": "electric_scooter"}, {"bike_id": "f937e5f7b960404d126046d2269fc457", "is_reserved": 0, "name": "f937e5f7b960404d126046d2269fc457", "lat": 38.8980895, "fusion_lat": 0.0, "lon": -77.03004716666666, "is_disabled": 0, "fusion_lon": 0.0, "rental_uris": {"android": "https://dc.lft.to/lastmile_qr_scan", "ios": "https://dc.lft.to/lastmile_qr_scan"}, "type": "electric_scooter"}, {"bike_id": "45391628381f338a266e76269ec96232", "is_reserved": 0, "name": "45391628381f338a266e76269ec96232", "lat": 38.926569, "fusion_lat": 0.0, "lon": -77.0241665, "is_disabled": 0, "fusion_lon": 0.0, "rental_uris": {"android": "https://dc.lft.to/lastmile_qr_scan", "ios": "https://dc.lft.to/lastmile_qr_scan"}, "type": "electric_scooter"}, {"bike_id": "73540646473cb992cd87e796d2c76da8", "is_reserved": 0, "name": "73540646473cb992cd87e796d2c76da8", "lat": 38.907294666666665, "fusion_lat": 0.0, "lon": -77.03252633333334, "is_disabled": 0, "fusion_lon": 0.0, "rental_uris": {"android": "https://dc.lft.to/lastmile_qr_scan", "ios": "https://dc.lft.to/lastmile_qr_scan"}, "type": "electric_scooter"}, {"bike_id": "889f069d377864591174497dca23cd63", "is_reserved": 0, "name": "889f069d377864591174497dca23cd63", "lat": 38.86818783333333, "fusion_lat": 0.0, "lon": -77.01123933333334, "is_disabled": 0, "fusion_lon": 0.0, "rental_uris": {"android": "https://dc.lft.to/lastmile_qr_scan", "ios": "https://dc.lft.to/lastmile_qr_scan"}, "type": "electric_scooter"}, {"bike_id": "59fc26765acd366c1acf19f5df055d17", "is_reserved": 0, "name": "59fc26765acd366c1acf19f5df055d17", "lat": 38.902793333333335, "fusion_lat": 0.0, "lon": -77.03833733333333, "is_disabled": 0, "fusion_lon": 0.0, "rental_uris": {"android": "https://dc.lft.to/lastmile_qr_scan", "ios": "https://dc.lft.to/lastmile_qr_scan"}, "type": "electric_scooter"}, {"bike_id": "7c6f00cd2d79d797b7e0a3fce2a0570d", "is_reserved": 0, "name": "7c6f00cd2d79d797b7e0a3fce2a0570d", "lat": 38.901098833333336, "fusion_lat": 0.0, "lon": -77.04240583333333, "is_disabled": 0, "fusion_lon": 0.0, "rental_uris": {"android": "https://dc.lft.to/lastmile_qr_scan", "ios": "https://dc.lft.to/lastmile_qr_scan"}, "type": "electric_scooter"}, {"bike_id": "9d42d4e7d406ddf6c3188989c2af63cd", "is_reserved": 0, "name": "9d42d4e7d406ddf6c3188989c2af63cd", "lat": 38.90761466666667, "fusion_lat": 0.0, "lon": -77.041436, "is_disabled": 0, "fusion_lon": 0.0, "rental_uris": {"android": "https://dc.lft.to/lastmile_qr_scan", "ios": "https://dc.lft.to/lastmile_qr_scan"}, "type": "electric_scooter"}, {"bike_id": "bde3c14fe80dcca884517c72dd75a0bb", "is_reserved": 0, "name": "bde3c14fe80dcca884517c72dd75a0bb", "lat": 38.91555866666667, "fusion_lat": 0.0, "lon": -77.03857883333333, "is_disabled": 0, "fusion_lon": 0.0, "rental_uris": {"android": "https://dc.lft.to/lastmile_qr_scan", "ios": "https://dc.lft.to/lastmile_qr_scan"}, "type": "electric_scooter"}, {"bike_id": "f4db7f09a799a8100c95cb3610613468", "is_reserved": 0, "name": "f4db7f09a799a8100c95cb3610613468", "lat": 38.91922733333333, "fusion_lat": 0.0, "lon": -77.02395283333334, "is_disabled": 0, "fusion_lon": 0.0, "rental_uris": {"android": "https://dc.lft.to/lastmile_qr_scan", "ios": "https://dc.lft.to/lastmile_qr_scan"}, "type": "electric_scooter"}, {"bike_id": "7f5d7c7d9c30b4922614ffd638e77539", "is_reserved": 0, "name": "7f5d7c7d9c30b4922614ffd638e77539", "lat": 38.92374266666667, "fusion_lat": 0.0, "lon": -77.0191065, "is_disabled": 0, "fusion_lon": 0.0, "rental_uris": {"android": "https://dc.lft.to/lastmile_qr_scan", "ios": "https://dc.lft.to/lastmile_qr_scan"}, "type": "electric_scooter"}, {"bike_id": "db28b46746952c4e0933ae8da542ecda", "is_reserved": 0, "name": "db28b46746952c4e0933ae8da542ecda", "lat": 38.89832166666667, "fusion_lat": 0.0, "lon": -76.94636266666667, "is_disabled": 0, "fusion_lon": 0.0, "rental_uris": {"android": "https://dc.lft.to/lastmile_qr_scan", "ios": "https://dc.lft.to/lastmile_qr_scan"}, "type": "electric_scooter"}, {"bike_id": "3c69c9a68eb3f693424cfc7b9f13cf01", "is_reserved": 0, "name": "3c69c9a68eb3f693424cfc7b9f13cf01", "lat": 38.898358333333334, "fusion_lat": 0.0, "lon": -77.023172, "is_disabled": 0, "fusion_lon": 0.0, "rental_uris": {"android": "https://dc.lft.to/lastmile_qr_scan", "ios": "https://dc.lft.to/lastmile_qr_scan"}, "type": "electric_scooter"}, {"bike_id": "9d1afe243b92e026f5d8107a76cfee0d", "is_reserved": 0, "name": "9d1afe243b92e026f5d8107a76cfee0d", "lat": 38.87467816666667, "fusion_lat": 0.0, "lon": -77.0046455, "is_disabled": 0, "fusion_lon": 0.0, "rental_uris": {"android": "https://dc.lft.to/lastmile_qr_scan", "ios": "https://dc.lft.to/lastmile_qr_scan"}, "type": "electric_scooter"}, {"bike_id": "79bb2356c2078a0af3b059fc57eb39c6", "is_reserved": 0, "name": "79bb2356c2078a0af3b059fc57eb39c6", "lat": 38.884365, "fusion_lat": 0.0, "lon": -77.02578233333334, "is_disabled": 0, "fusion_lon": 0.0, "rental_uris": {"android": "https://dc.lft.to/lastmile_qr_scan", "ios": "https://dc.lft.to/lastmile_qr_scan"}, "type": "electric_scooter"}, {"bike_id": "52090a045205335ed89c09cf085ddeb3", "is_reserved": 0, "name": "52090a045205335ed89c09cf085ddeb3", "lat": 38.90017666666667, "fusion_lat": 0.0, "lon": -76.9987355, "is_disabled": 0, "fusion_lon": 0.0, "rental_uris": {"android": "https://dc.lft.to/lastmile_qr_scan", "ios": "https://dc.lft.to/lastmile_qr_scan"}, "type": "electric_scooter"}, {"bike_id": "7204169fef97465d79c28629bb254de8", "is_reserved": 0, "name": "7204169fef97465d79c28629bb254de8", "lat": 38.863688333333336, "fusion_lat": 0.0, "lon": -77.01362333333333, "is_disabled": 0, "fusion_lon": 0.0, "rental_uris": {"android": "https://dc.lft.to/lastmile_qr_scan", "ios": "https://dc.lft.to/lastmile_qr_scan"}, "type": "electric_scooter"}, {"bike_id": "28ae29c9696032035ce8783d98038239", "is_reserved": 0, "name": "28ae29c9696032035ce8783d98038239", "lat": 38.91870733333333, "fusion_lat": 0.0, "lon": -77.03654483333334, "is_disabled": 0, "fusion_lon": 0.0, "rental_uris": {"android": "https://dc.lft.to/lastmile_qr_scan", "ios": "https://dc.lft.to/lastmile_qr_scan"}, "type": "electric_scooter"}, {"bike_id": "50a761c0d99528156921b927447147bf", "is_reserved": 0, "name": "50a761c0d99528156921b927447147bf", "lat": 38.903713, "fusion_lat": 0.0, "lon": -77.0160535, "is_disabled": 0, "fusion_lon": 0.0, "rental_uris": {"android": "https://dc.lft.to/lastmile_qr_scan", "ios": "https://dc.lft.to/lastmile_qr_scan"}, "type": "electric_scooter"}, {"bike_id": "3913f8ae0a8744708b116bdff185df65", "is_reserved": 0, "name": "3913f8ae0a8744708b116bdff185df65", "lat": 38.8986925, "fusion_lat": 0.0, "lon": -77.03984916666667, "is_disabled": 0, "fusion_lon": 0.0, "rental_uris": {"android": "https://dc.lft.to/lastmile_qr_scan", "ios": "https://dc.lft.to/lastmile_qr_scan"}, "type": "electric_scooter"}, {"bike_id": "bc5f5381841eed42e4201ddbcd263283", "is_reserved": 0, "name": "bc5f5381841eed42e4201ddbcd263283", "lat": 38.9644335, "fusion_lat": 0.0, "lon": -77.0223895, "is_disabled": 0, "fusion_lon": 0.0, "rental_uris": {"android": "https://dc.lft.to/lastmile_qr_scan", "ios": "https://dc.lft.to/lastmile_qr_scan"}, "type": "electric_bike"}, {"bike_id": "5ab440a5bfd055b4222bd52f64210c9b", "is_reserved": 0, "name": "5ab440a5bfd055b4222bd52f64210c9b", "lat": 38.8992535, "fusion_lat": 0.0, "lon": -77.00357983333333, "is_disabled": 0, "fusion_lon": 0.0, "rental_uris": {"android": "https://dc.lft.to/lastmile_qr_scan", "ios": "https://dc.lft.to/lastmile_qr_scan"}, "type": "electric_scooter"}, {"bike_id": "63d04a6e2bb3ec7c9d5715fa4786069f", "is_reserved": 0, "name": "63d04a6e2bb3ec7c9d5715fa4786069f", "lat": 38.923306333333336, "fusion_lat": 0.0, "lon": -77.046181, "is_disabled": 0, "fusion_lon": 0.0, "rental_uris": {"android": "https://dc.lft.to/lastmile_qr_scan", "ios": "https://dc.lft.to/lastmile_qr_scan"}, "type": "electric_scooter"}, {"bike_id": "fff811b4c8e88fa6981602fac51f17c3", "is_reserved": 0, "name": "fff811b4c8e88fa6981602fac51f17c3", "lat": 38.91402933333333, "fusion_lat": 0.0, "lon": -77.01871633333333, "is_disabled": 0, "fusion_lon": 0.0, "rental_uris": {"android": "https://dc.lft.to/lastmile_qr_scan", "ios": "https://dc.lft.to/lastmile_qr_scan"}, "type": "electric_scooter"}, {"bike_id": "f085f18407a2db4d882c598dc2b7e749", "is_reserved": 0, "name": "f085f18407a2db4d882c598dc2b7e749", "lat": 38.92417283333333, "fusion_lat": 0.0, "lon": -77.065201, "is_disabled": 0, "fusion_lon": 0.0, "rental_uris": {"android": "https://dc.lft.to/lastmile_qr_scan", "ios": "https://dc.lft.to/lastmile_qr_scan"}, "type": "electric_scooter"}, {"bike_id": "9dfc85e5555522d166ee5fc42b400b1b", "is_reserved": 0, "name": "9dfc85e5555522d166ee5fc42b400b1b", "lat": 38.9099, "fusion_lat": 0.0, "lon": -77.04441266666667, "is_disabled": 0, "fusion_lon": 0.0, "rental_uris": {"android": "https://dc.lft.to/lastmile_qr_scan", "ios": "https://dc.lft.to/lastmile_qr_scan"}, "type": "electric_scooter"}, {"bike_id": "2b3d1c9b437446af2d2654d3a0c5292a", "is_reserved": 0, "name": "2b3d1c9b437446af2d2654d3a0c5292a", "lat": 38.879278666666664, "fusion_lat": 0.0, "lon": -77.00620816666667, "is_disabled": 0, "fusion_lon": 0.0, "rental_uris": {"android": "https://dc.lft.to/lastmile_qr_scan", "ios": "https://dc.lft.to/lastmile_qr_scan"}, "type": "electric_scooter"}, {"bike_id": "8da85e526a1aa421328cfaeddb99f83e", "is_reserved": 0, "name": "8da85e526a1aa421328cfaeddb99f83e", "lat": 38.91108583333333, "fusion_lat": 0.0, "lon": -77.038337, "is_disabled": 0, "fusion_lon": 0.0, "rental_uris": {"android": "https://dc.lft.to/lastmile_qr_scan", "ios": "https://dc.lft.to/lastmile_qr_scan"}, "type": "electric_scooter"}, {"bike_id": "07f4f2267f194c6eba5a5615629e9951", "is_reserved": 0, "name": "07f4f2267f194c6eba5a5615629e9951", "lat": 38.9005025, "fusion_lat": 0.0, "lon": -77.000486, "is_disabled": 0, "fusion_lon": 0.0, "rental_uris": {"android": "https://dc.lft.to/lastmile_qr_scan", "ios": "https://dc.lft.to/lastmile_qr_scan"}, "type": "electric_scooter"}, {"bike_id": "a8a37f610f8eb19eb0da6c1ee64462da", "is_reserved": 0, "name": "a8a37f610f8eb19eb0da6c1ee64462da", "lat": 38.91696016666667, "fusion_lat": 0.0, "lon": -77.0311985, "is_disabled": 0, "fusion_lon": 0.0, "rental_uris": {"android": "https://dc.lft.to/lastmile_qr_scan", "ios": "https://dc.lft.to/lastmile_qr_scan"}, "type": "electric_scooter"}, {"bike_id": "777b37ff88cad07132dfe71b13343195", "is_reserved": 0, "name": "777b37ff88cad07132dfe71b13343195", "lat": 38.89581583333333, "fusion_lat": 0.0, "lon": -76.98323466666666, "is_disabled": 0, "fusion_lon": 0.0, "rental_uris": {"android": "https://dc.lft.to/lastmile_qr_scan", "ios": "https://dc.lft.to/lastmile_qr_scan"}, "type": "electric_scooter"}, {"bike_id": "0b18a500a52acf98676f58dcaddd1588", "is_reserved": 0, "name": "0b18a500a52acf98676f58dcaddd1588", "lat": 38.896286833333335, "fusion_lat": 0.0, "lon": -77.02346233333333, "is_disabled": 0, "fusion_lon": 0.0, "rental_uris": {"android": "https://dc.lft.to/lastmile_qr_scan", "ios": "https://dc.lft.to/lastmile_qr_scan"}, "type": "electric_scooter"}, {"bike_id": "26785cc8527d0f11593b4ea29451dd3a", "is_reserved": 0, "name": "26785cc8527d0f11593b4ea29451dd3a", "lat": 38.921077333333336, "fusion_lat": 0.0, "lon": -77.04190066666666, "is_disabled": 0, "fusion_lon": 0.0, "rental_uris": {"android": "https://dc.lft.to/lastmile_qr_scan", "ios": "https://dc.lft.to/lastmile_qr_scan"}, "type": "electric_scooter"}, {"bike_id": "a8e38eae12bd8d65252e534f8e89a5ba", "is_reserved": 0, "name": "a8e38eae12bd8d65252e534f8e89a5ba", "lat": 38.90206833333333, "fusion_lat": 0.0, "lon": -77.023673, "is_disabled": 0, "fusion_lon": 0.0, "rental_uris": {"android": "https://dc.lft.to/lastmile_qr_scan", "ios": "https://dc.lft.to/lastmile_qr_scan"}, "type": "electric_scooter"}, {"bike_id": "6559793f6ac6a6fc3701876bc18befca", "is_reserved": 0, "name": "6559793f6ac6a6fc3701876bc18befca", "lat": 38.91955266666667, "fusion_lat": 0.0, "lon": -77.0177775, "is_disabled": 0, "fusion_lon": 0.0, "rental_uris": {"android": "https://dc.lft.to/lastmile_qr_scan", "ios": "https://dc.lft.to/lastmile_qr_scan"}, "type": "electric_scooter"}, {"bike_id": "4ef95471ae26311a1d69190f6da43db3", "is_reserved": 0, "name": "4ef95471ae26311a1d69190f6da43db3", "lat": 38.890799666666666, "fusion_lat": 0.0, "lon": -77.0404335, "is_disabled": 0, "fusion_lon": 0.0, "rental_uris": {"android": "https://dc.lft.to/lastmile_qr_scan", "ios": "https://dc.lft.to/lastmile_qr_scan"}, "type": "electric_scooter"},