{"data": {"bikes": [{"bike_id": "0e8ca8cc5b86830d933dca830b8c6ab2", "type": "electric_scooter", "is_disabled": 0, "lat": 38.894972333333335, "rental_uris": {"ios": "https://dc.lft.to/lastmile_qr_scan", "android": "https://dc.lft.to/lastmile_qr_scan"}, "is_reserved": 0, "fusion_lon": 0.0, "fusion_lat": 0.0, "lon": -77.01100716666667, "name": "0e8ca8cc5b86830d933dca830b8c6ab2"}, {"bike_id": "eac74dab5137b67b789975c8cc27ffbf", "type": "electric_scooter", "is_disabled": 0, "lat": 38.90734366666667, "rental_uris": {"ios": "https://dc.lft.to/lastmile_qr_scan", "android": "https://dc.lft.to/lastmile_qr_scan"}, "is_reserved": 0, "fusion_lon": 0.0, "fusion_lat": 0.0, "lon": -77.04353883333333, "name": "eac74dab5137b67b789975c8cc27ffbf"}, {"bike_id": "196b9fb2978949d1c1f6fb0c93dcd566", "type": "electric_scooter", "is_disabled": 0, "lat": 38.9287785, "rental_uris": {"ios": "https://dc.lft.to/lastmile_qr_scan", "android": "https://dc.lft.to/lastmile_qr_scan"}, "is_reserved": 0, "fusion_lon": 0.0, "fusion_lat": 0.0, "lon": -77.03427716666667, "name": "196b9fb2978949d1c1f6fb0c93dcd566"}, {"bike_id": "69f9c8c529204d96458096115c24193a", "type": "electric_bike", "is_disabled": 0, "lat": 38.873014, "rental_uris": {"ios": "https://dc.lft.to/lastmile_qr_scan", "android": "https://dc.lft.to/lastmile_qr_scan"}, "is_reserved": 0, "fusion_lon": 0.0, "fusion_lat": 0.0, "lon": -77.13926066666667, "name": "69f9c8c529204d96458096115c24193a"}, {"bike_id": "babf0df9f39918950e2fdf906c6e0e5c", "type": "electric_scooter", "is_disabled": 0, "lat": 38.911404833333336, "rental_uris": {"ios": "https://dc.lft.to/lastmile_qr_scan", "android": "https://dc.lft.to/lastmile_qr_scan"}, "is_reserved": 0, "fusion_lon": 0.0, "fusion_lat": 0.0, "lon": -76.99012933333333, "name": "babf0df9f39918950e2fdf906c6e0e5c"}, {"bike_id": "4851aa91293b9874845cd966711826c6", "type": "electric_scooter", "is_disabled": 0, "lat": 38.9243605, "rental_uris": {"ios": "https://dc.lft.to/lastmile_qr_scan", "android": "https://dc.lft.to/lastmile_qr_scan"}, "is_reserved": 0, "fusion_lon": 0.0, "fusion_lat": 0.0, "lon": -77.04251516666666, "name": "4851aa91293b9874845cd966711826c6"}, {"bike_id": "15d4c3e9048173210a7a31a01505f020", "type": "electric_scooter", "is_disabled": 0, "lat": 38.953148666666664, "rental_uris": {"ios": "https://dc.lft.to/lastmile_qr_scan", "android": "https://dc.lft.to/lastmile_qr_scan"}, "is_reserved": 0, "fusion_lon": 0.0, "fusion_lat": 0.0, "lon": -77.06975866666667, "name": "15d4c3e9048173210a7a31a01505f020"}, {"bike_id": "b6757fbc604a35bafdf2e00d39879bef", "type": "electric_scooter", "is_disabled": 0, "lat": 38.933665833333336, "rental_uris": {"ios": "https://dc.lft.to/lastmile_qr_scan", "android": "https://dc.lft.to/lastmile_qr_scan"}, "is_reserved": 0, "fusion_lon": 0.0, "fusion_lat": 0.0, "lon": -77.06200583333333, "name": "b6757fbc604a35bafdf2e00d39879bef"}, {"bike_id": "e32f5f663c4ff927e8b88af635dec1d1", "type": "electric_scooter", "is_disabled": 0, "lat": 38.93591833333333, "rental_uris": {"ios": "https://dc.lft.to/lastmile_qr_scan", "android": "https://dc.lft.to/lastmile_qr_scan"}, "is_reserved": 0, "fusion_lon": 0.0, "fusion_lat": 0.0, "lon": -77.03799833333333, "name": "e32f5f663c4ff927e8b88af635dec1d1"}, {"bike_id": "2a67675d1635d81dee154b2bf03ae241", "type": "electric_scooter", "is_disabled": 0, "lat": 38.938693666666666, "rental_uris": {"ios": "https://dc.lft.to/lastmile_qr_scan", "android": "https://dc.lft.to/lastmile_qr_scan"}, "is_reserved": 0, "fusion_lon": 0.0, "fusion_lat": 0.0, "lon": -77.02705333333333, "name": "2a67675d1635d81dee154b2bf03ae241"}, {"bike_id": "5f2154ae12204978187c1c444d3c459d", "type": "electric_scooter", "is_disabled": 0, "lat": 38.902442, "rental_uris": {"ios": "https://dc.lft.to/lastmile_qr_scan", "android": "https://dc.lft.to/lastmile_qr_scan"}, "is_reserved": 0, "fusion_lon": 0.0, "fusion_lat": 0.0, "lon": -77.02662, "name": "5f2154ae12204978187c1c444d3c459d"}, {"bike_id": "c88f43c1807d87295fc903899ef72e83", "type": "electric_scooter", "is_disabled": 0, "lat": 38.872916333333336, "rental_uris": {"ios": "https://dc.lft.to/lastmile_qr_scan", "android": "https://dc.lft.to/lastmile_qr_scan"}, "is_reserved": 0, "fusion_lon": 0.0, "fusion_lat": 0.0, "lon": -76.9772995, "name": "c88f43c1807d87295fc903899ef72e83"}, {"bike_id": "e52e2ccf92e537f312c348c9192bb6f5", "type": "electric_scooter", "is_disabled": 0, "lat": 38.93155183333333, "rental_uris": {"ios": "https://dc.lft.to/lastmile_qr_scan", "android": "https://dc.lft.to/lastmile_qr_scan"}, "is_reserved": 0, "fusion_lon": 0.0, "fusion_lat": 0.0, "lon": -77.0362955, "name": "e52e2ccf92e537f312c348c9192bb6f5"}, {"bike_id": "f9a31081e591db88cbf9d01f4c796dbb", "type": "electric_scooter", "is_disabled": 0, "lat": 38.920367, "rental_uris": {"ios": "https://dc.lft.to/lastmile_qr_scan", "android": "https://dc.lft.to/lastmile_qr_scan"}, "is_reserved": 0, "fusion_lon": 0.0, "fusion_lat": 0.0, "lon": -77.03390116666667, "name": "f9a31081e591db88cbf9d01f4c796dbb"}, {"bike_id": "1713f5c99cee297b16b8b8e2afe70dce", "type": "electric_scooter", "is_disabled": 0, "lat": 38.9129595, "rental_uris": {"ios": "https://dc.lft.to/lastmile_qr_scan", "android": "https://dc.lft.to/lastmile_qr_scan"}, "is_reserved": 0, "fusion_lon": 0.0, "fusion_lat": 0.0, "lon": -77.04660016666666, "name": "1713f5c99cee297b16b8b8e2afe70dce"}, {"bike_id": "bfffe60944c044f75a552c790758a35d", "type": "electric_scooter", "is_disabled": 0, "lat": 38.909898166666665, "rental_uris": {"ios": "https://dc.lft.to/lastmile_qr_scan", "android": "https://dc.lft.to/lastmile_qr_scan"}, "is_reserved": 0, "fusion_lon": 0.0, "fusion_lat": 0.0, "lon": -77.0335265, "name": "bfffe60944c044f75a552c790758a35d"}, {"bike_id": "fe87526b79211e61e60844e9ca74049a", "type": "electric_scooter", "is_disabled": 0, "lat": 38.894967, "rental_uris": {"ios": "https://dc.lft.to/lastmile_qr_scan", "android": "https://dc.lft.to/lastmile_qr_scan"}, "is_reserved": 0, "fusion_lon": 0.0, "fusion_lat": 0.0, "lon": -77.000588, "name": "fe87526b79211e61e60844e9ca74049a"}, {"bike_id": "32753ec398eee0e66e5f95bab70ae943", "type": "electric_scooter", "is_disabled": 0, "lat": 38.91561383333333, "rental_uris": {"ios": "https://dc.lft.to/lastmile_qr_scan", "android": "https://dc.lft.to/lastmile_qr_scan"}, "is_reserved": 0, "fusion_lon": 0.0, "fusion_lat": 0.0, "lon": -77.0317975, "name": "32753ec398eee0e66e5f95bab70ae943"}, {"bike_id": "424953de22ebe973fcda87193763888d", "type": "electric_scooter", "is_disabled": 0, "lat": 38.897445166666664, "rental_uris": {"ios": "https://dc.lft.to/lastmile_qr_scan", "android": "https://dc.lft.to/lastmile_qr_scan"}, "is_reserved": 0, "fusion_lon": 0.0, "fusion_lat": 0.0, "lon": -77.00008133333333, "name": "424953de22ebe973fcda87193763888d"}, {"bike_id": "bd85d6e20873d65adc587ba49453389e", "type": "electric_scooter", "is_disabled": 0, "lat": 38.8954795, "rental_uris": {"ios": "https://dc.lft.to/lastmile_qr_scan", "android": "https://dc.lft.to/lastmile_qr_scan"}, "is_reserved": 0, "fusion_lon": 0.0, "fusion_lat": 0.0, "lon": -76.929531, "name": "bd85d6e20873d65adc587ba49453389e"}, {"bike_id": "50c458dd0d3e02fcec38a7384f5505b8", "type": "electric_scooter", "is_disabled": 0, "lat": 38.92230983333334, "rental_uris": {"ios": "https://dc.lft.to/lastmile_qr_scan", "android": "https://dc.lft.to/lastmile_qr_scan"}, "is_reserved": 0, "fusion_lon": 0.0, "fusion_lat": 0.0, "lon": -77.02673166666666, "name": "50c458dd0d3e02fcec38a7384f5505b8"}, {"bike_id": "caecfcb1fe7b491a5b64d0849826b117", "type": "electric_scooter", "is_disabled": 0, "lat": 38.90936133333334, "rental_uris": {"ios": "https://dc.lft.to/lastmile_qr_scan", "android": "https://dc.lft.to/lastmile_qr_scan"}, "is_reserved": 0, "fusion_lon": 0.0, "fusion_lat": 0.0, "lon": -77.049396, "name": "caecfcb1fe7b491a5b64d0849826b117"}, {"bike_id": "0d3846d26edab6842f7010e5d1839e48", "type": "electric_scooter", "is_disabled": 0, "lat": 38.91127783333334, "rental_uris": {"ios": "https://dc.lft.to/lastmile_qr_scan", "android": "https://dc.lft.to/lastmile_qr_scan"}, "is_reserved": 0, "fusion_lon": 0.0, "fusion_lat": 0.0, "lon": -77.021902, "name": "0d3846d26edab6842f7010e5d1839e48"}, {"bike_id": "a0b8fdc57ad3615cf103f189640f3f88", "type": "electric_scooter", "is_disabled": 0, "lat": 38.92169916666667, "rental_uris": {"ios": "https://dc.lft.to/lastmile_qr_scan", "android": "https://dc.lft.to/lastmile_qr_scan"}, "is_reserved": 0, "fusion_lon": 0.0, "fusion_lat": 0.0, "lon": -77.04022766666667, "name": "a0b8fdc57ad3615cf103f189640f3f88"}, {"bike_id": "6d0350580b2b3ede23bf5bfc4a7198a2", "type": "electric_scooter", "is_disabled": 0, "lat": 38.90541233333333, "rental_uris": {"ios": "https://dc.lft.to/lastmile_qr_scan", "android": "https://dc.lft.to/lastmile_qr_scan"}, "is_reserved": 0, "fusion_lon": 0.0, "fusion_lat": 0.0, "lon": -77.05127133333333, "name": "6d0350580b2b3ede23bf5bfc4a7198a2"}, {"bike_id": "4866d66005b14f48ca5caf21e29d1d9c", "type": "electric_scooter", "is_disabled": 0, "lat": 38.88487416666667, "rental_uris": {"ios": "https://dc.lft.to/lastmile_qr_scan", "android": "https://dc.lft.to/lastmile_qr_scan"}, "is_reserved": 0, "fusion_lon": 0.0, "fusion_lat": 0.0, "lon": -77.025418, "name": "4866d66005b14f48ca5caf21e29d1d9c"}, {"bike_id": "5a26eb6e5a53d37e6d9322d369a80b92", "type": "electric_scooter", "is_disabled": 0, "lat": 38.91543716666666, "rental_uris": {"ios": "https://dc.lft.to/lastmile_qr_scan", "android": "https://dc.lft.to/lastmile_qr_scan"}, "is_reserved": 0, "fusion_lon": 0.0, "fusion_lat": 0.0, "lon": -77.01221266666667, "name": "5a26eb6e5a53d37e6d9322d369a80b92"}, {"bike_id": "1f48163766ebc37fad53d1c0f84095d4", "type": "electric_bike", "is_disabled": 0, "lat": 38.97452216666667, "rental_uris": {"ios": "https://dc.lft.to/lastmile_qr_scan", "android": "https://dc.lft.to/lastmile_qr_scan"}, "is_reserved": 0, "fusion_lon": 0.0, "fusion_lat": 0.0, "lon": -77.012151, "name": "1f48163766ebc37fad53d1c0f84095d4"}, {"bike_id": "82849eeb2469725538ab18c83fd75fbe", "type": "electric_scooter", "is_disabled": 0, "lat": 38.9179815, "rental_uris": {"ios": "https://dc.lft.to/lastmile_qr_scan", "android": "https://dc.lft.to/lastmile_qr_scan"}, "is_reserved": 0, "fusion_lon": 0.0, "fusion_lat": 0.0, "lon": -77.0343395, "name": "82849eeb2469725538ab18c83fd75fbe"}, {"bike_id": "34c3bc377fe315c42bc5f49e3759e586", "type": "electric_scooter", "is_disabled": 0, "lat": 38.90391966666667, "rental_uris": {"ios": "https://dc.lft.to/lastmile_qr_scan", "android": "https://dc.lft.to/lastmile_qr_scan"}, "is_reserved": 0, "fusion_lon": 0.0, "fusion_lat": 0.0, "lon": -77.00874933333333, "name": "34c3bc377fe315c42bc5f49e3759e586"}, {"bike_id": "653bbf250b1425108215ae2a53ac4394", "type": "electric_scooter", "is_disabled": 0, "lat": 38.914304, "rental_uris": {"ios": "https://dc.lft.to/lastmile_qr_scan", "android": "https://dc.lft.to/lastmile_qr_scan"}, "is_reserved": 0, "fusion_lon": 0.0, "fusion_lat": 0.0, "lon": -77.03254233333334, "name": "653bbf250b1425108215ae2a53ac4394"}, {"bike_id": "2a1dc8e3cb72ab10a40d8c9e3a313173", "type": "electric_scooter", "is_disabled": 0, "lat": 38.919007, "rental_uris": {"ios": "https://dc.lft.to/lastmile_qr_scan", "android": "https://dc.lft.to/lastmile_qr_scan"}, "is_reserved": 0, "fusion_lon": 0.0, "fusion_lat": 0.0, "lon": -77.04454283333334, "name": "2a1dc8e3cb72ab10a40d8c9e3a313173"}, {"bike_id": "694b461f0ac228047cbe5b7ca69c4c26", "type": "electric_scooter", "is_disabled": 0, "lat": 38.897197166666665, "rental_uris": {"ios": "https://dc.lft.to/lastmile_qr_scan", "android": "https://dc.lft.to/lastmile_qr_scan"}, "is_reserved": 0, "fusion_lon": 0.0, "fusion_lat": 0.0, "lon": -77.0197815, "name": "694b461f0ac228047cbe5b7ca69c4c26"}, {"bike_id": "acfe40f6588ac2a5f3a29a8ee8e5754f", "type": "electric_scooter", "is_disabled": 0, "lat": 38.92385066666667, "rental_uris": {"ios": "https://dc.lft.to/lastmile_qr_scan", "android": "https://dc.lft.to/lastmile_qr_scan"}, "is_reserved": 0, "fusion_lon": 0.0, "fusion_lat": 0.0, "lon": -77.03649716666666, "name": "acfe40f6588ac2a5f3a29a8ee8e5754f"}, {"bike_id": "6d7c19f5986c48f8a9c3f78768c18466", "type": "electric_scooter", "is_disabled": 0, "lat": 38.923347166666666, "rental_uris": {"ios": "https://dc.lft.to/lastmile_qr_scan", "android": "https://dc.lft.to/lastmile_qr_scan"}, "is_reserved": 0, "fusion_lon": 0.0, "fusion_lat": 0.0, "lon": -77.03623033333334, "name": "6d7c19f5986c48f8a9c3f78768c18466"}, {"bike_id": "c566103b1d2a5279f7d25a1c50b444c2", "type": "electric_scooter", "is_disabled": 0, "lat": 38.921965166666666, "rental_uris": {"ios": "https://dc.lft.to/lastmile_qr_scan", "android": "https://dc.lft.to/lastmile_qr_scan"}, "is_reserved": 0, "fusion_lon": 0.0, "fusion_lat": 0.0, "lon": -77.021073, "name": "c566103b1d2a5279f7d25a1c50b444c2"}, {"bike_id": "a448a80c24de82a9fd9e5c79c9eb0c71", "type": "electric_scooter", "is_disabled": 0, "lat": 38.907243666666666, "rental_uris": {"ios": "https://dc.lft.to/lastmile_qr_scan", "android": "https://dc.lft.to/lastmile_qr_scan"}, "is_reserved": 0, "fusion_lon": 0.0, "fusion_lat": 0.0, "lon": -77.03203333333333, "name": "a448a80c24de82a9fd9e5c79c9eb0c71"}, {"bike_id": "7a6e56d2e0d6195bdb8592471f99296e", "type": "electric_scooter", "is_disabled": 0, "lat": 38.880413, "rental_uris": {"ios": "https://dc.lft.to/lastmile_qr_scan", "android": "https://dc.lft.to/lastmile_qr_scan"}, "is_reserved": 0, "fusion_lon": 0.0, "fusion_lat": 0.0, "lon": -77.005528, "name": "7a6e56d2e0d6195bdb8592471f99296e"}, {"bike_id": "45bf1b2fde94afa8da3f83c8abe01949", "type": "electric_scooter", "is_disabled": 0, "lat": 38.91920866666667, "rental_uris": {"ios": "https://dc.lft.to/lastmile_qr_scan", "android": "https://dc.lft.to/lastmile_qr_scan"}, "is_reserved": 0, "fusion_lon": 0.0, "fusion_lat": 0.0, "lon": -77.03226416666666, "name": "45bf1b2fde94afa8da3f83c8abe01949"}, {"bike_id": "3af2a7cacd4f1ea9f2667e6e38c891af", "type": "electric_scooter", "is_disabled": 0, "lat": 38.88862866666667, "rental_uris": {"ios": "https://dc.lft.to/lastmile_qr_scan", "android": "https://dc.lft.to/lastmile_qr_scan"}, "is_reserved": 0, "fusion_lon": 0.0, "fusion_lat": 0.0, "lon": -76.9914345, "name": "3af2a7cacd4f1ea9f2667e6e38c891af"}, {"bike_id": "74cdd74e885d0b51e6e1d58b2d1b4c6f", "type": "electric_scooter", "is_disabled": 0, "lat": 38.9192745, "rental_uris": {"ios": "https://dc.lft.to/lastmile_qr_scan", "android": "https://dc.lft.to/lastmile_qr_scan"}, "is_reserved": 0, "fusion_lon": 0.0, "fusion_lat": 0.0, "lon": -77.03423316666667, "name": "74cdd74e885d0b51e6e1d58b2d1b4c6f"}, {"bike_id": "0bce4151ac50c4089317133171ad4f8e", "type": "electric_scooter", "is_disabled": 0, "lat": 38.84635016666667, "rental_uris": {"ios": "https://dc.lft.to/lastmile_qr_scan", "android": "https://dc.lft.to/lastmile_qr_scan"}, "is_reserved": 0, "fusion_lon": 0.0, "fusion_lat": 0.0, "lon": -76.99125366666667, "name": "0bce4151ac50c4089317133171ad4f8e"}, {"bike_id": "03d17b19fb5d95c3a860078a49bb9722", "type": "electric_scooter", "is_disabled": 0, "lat": 38.893588, "rental_uris": {"ios": "https://dc.lft.to/lastmile_qr_scan", "android": "https://dc.lft.to/lastmile_qr_scan"}, "is_reserved": 0, "fusion_lon": 0.0, "fusion_lat": 0.0, "lon": -76.9493405, "name": "03d17b19fb5d95c3a860078a49bb9722"}, {"bike_id": "d2cca44a026a3e63ad4bd52990cc9869", "type": "electric_scooter", "is_disabled": 0, "lat": 38.919844166666664, "rental_uris": {"ios": "https://dc.lft.to/lastmile_qr_scan", "android": "https://dc.lft.to/lastmile_qr_scan"}, "is_reserved": 0, "fusion_lon": 0.0, "fusion_lat": 0.0, "lon": -77.0427845, "name": "d2cca44a026a3e63ad4bd52990cc9869"}, {"bike_id": "93301f0dd9e4a770c17eb85f43ee52a8", "type": "electric_scooter", "is_disabled": 0, "lat": 38.920519666666664, "rental_uris": {"ios": "https://dc.lft.to/lastmile_qr_scan", "android": "https://dc.lft.to/lastmile_qr_scan"}, "is_reserved": 0, "fusion_lon": 0.0, "fusion_lat": 0.0, "lon": -77.02426216666667, "name": "93301f0dd9e4a770c17eb85f43ee52a8"}, {"bike_id": "1c903ed04a225b5f16928ad7d6f51046", "type": "electric_scooter", "is_disabled": 0, "lat": 38.87157966666667, "rental_uris": {"ios": "https://dc.lft.to/lastmile_qr_scan", "android": "https://dc.lft.to/lastmile_qr_scan"}, "is_reserved": 0, "fusion_lon": 0.0, "fusion_lat": 0.0, "lon": -77.01353966666667, "name": "1c903ed04a225b5f16928ad7d6f51046"}, {"bike_id": "dd5d1828038f53b5dff02f0dfa546c05", "type": "electric_scooter", "is_disabled": 0, "lat": 38.926682666666665, "rental_uris": {"ios": "https://dc.lft.to/lastmile_qr_scan", "android": "https://dc.lft.to/lastmile_qr_scan"}, "is_reserved": 0, "fusion_lon": 0.0, "fusion_lat": 0.0, "lon": -77.03028366666666, "name": "dd5d1828038f53b5dff02f0dfa546c05"}, {"bike_id": "a00f82efe6f9ad57223e37f77075215b", "type": "electric_scooter", "is_disabled": 0, "lat": 38.90411433333333, "rental_uris": {"ios": "https://dc.lft.to/lastmile_qr_scan", "android": "https://dc.lft.to/lastmile_qr_scan"}, "is_reserved": 0, "fusion_lon": 0.0, "fusion_lat": 0.0, "lon": -77.04873383333333, "name": "a00f82efe6f9ad57223e37f77075215b"}, {"bike_id": "83b3418e418f8532a1abeffbb2b79ea0", "type": "electric_scooter", "is_disabled": 0, "lat": 38.93084133333333, "rental_uris": {"ios": "https://dc.lft.to/lastmile_qr_scan", "android": "https://dc.lft.to/lastmile_qr_scan"}, "is_reserved": 0, "fusion_lon": 0.0, "fusion_lat": 0.0, "lon": -77.02551733333334, "name": "83b3418e418f8532a1abeffbb2b79ea0"}, {"bike_id": "80a415d5e2f4f5b371aae1073ad95f55", "type": "electric_scooter", "is_disabled": 0, "lat": 38.927895666666664, "rental_uris": {"ios": "https://dc.lft.to/lastmile_qr_scan", "android": "https://dc.lft.to/lastmile_qr_scan"}, "is_reserved": 0, "fusion_lon": 0.0, "fusion_lat": 0.0, "lon": -77.03206516666667, "name": "80a415d5e2f4f5b371aae1073ad95f55"}, {"bike_id": "4e6c8f774a209825527134ce3511f697", "type": "electric_scooter", "is_disabled": 0, "lat": 38.903656, "rental_uris": {"ios": "https://dc.lft.to/lastmile_qr_scan", "android": "https://dc.lft.to/lastmile_qr_scan"}, "is_reserved": 0, "fusion_lon": 0.0, "fusion_lat": 0.0, "lon": -76.99939516666667, "name": "4e6c8f774a209825527134ce3511f697"}, {"bike_id": "863d289509ceeb23d0dcb590a6d5b33d", "type": "electric_bike", "is_disabled": 0, "lat": 38.8218315, "rental_uris": {"ios": "https://dc.lft.to/lastmile_qr_scan", "android": "https://dc.lft.to/lastmile_qr_scan"}, "is_reserved": 0, "fusion_lon": 0.0, "fusion_lat": 0.0, "lon": -76.99511266666667, "name": "863d289509ceeb23d0dcb590a6d5b33d"}, {"bike_id": "c4f0f47f6eb81ab29ae4ddbfe69ebbee", "type": "electric_bike", "is_disabled": 0, "lat": 39.04330016666667, "rental_uris": {"ios": "https://dc.lft.to/lastmile_qr_scan", "android": "https://dc.lft.to/lastmile_qr_scan"}, "is_reserved": 0, "fusion_lon": 0.0, "fusion_lat": 0.0, "lon": -77.05160183333334, "name": "c4f0f47f6eb81ab29ae4ddbfe69ebbee"}, {"bike_id": "f43bd0ad30ad32e8d350e5413b323b15", "type": "electric_scooter", "is_disabled": 0, "lat": 38.905609166666665, "rental_uris": {"ios": "https://dc.lft.to/lastmile_qr_scan", "android": "https://dc.lft.to/lastmile_qr_scan"}, "is_reserved": 0, "fusion_lon": 0.0, "fusion_lat": 0.0, "lon": -77.06528033333333, "name": "f43bd0ad30ad32e8d350e5413b323b15"}, {"bike_id": "10b6898212b5ff2247c06ca5ccf5d0be", "type": "electric_scooter", "is_disabled": 0, "lat": 38.88936433333333, "rental_uris": {"ios": "https://dc.lft.to/lastmile_qr_scan", "android": "https://dc.lft.to/lastmile_qr_scan"}, "is_reserved": 0, "fusion_lon": 0.0, "fusion_lat": 0.0, "lon": -76.9357995, "name": "10b6898212b5ff2247c06ca5ccf5d0be"}, {"bike_id": "9d8926a744d75d0c377ecd7a0b526c11", "type": "electric_scooter", "is_disabled": 0, "lat": 38.90577483333333, "rental_uris": {"ios": "https://dc.lft.to/lastmile_qr_scan", "android": "https://dc.lft.to/lastmile_qr_scan"}, "is_reserved": 0, "fusion_lon": 0.0, "fusion_lat": 0.0, "lon": -77.04252466666667, "name": "9d8926a744d75d0c377ecd7a0b526c11"}, {"bike_id": "61e4b1c7b20e3c0d3c483a7bf7b8cbe2", "type": "electric_scooter", "is_disabled": 0, "lat": 38.878455, "rental_uris": {"ios": "https://dc.lft.to/lastmile_qr_scan", "android": "https://dc.lft.to/lastmile_qr_scan"}, "is_reserved": 0, "fusion_lon": 0.0, "fusion_lat": 0.0, "lon": -76.98622583333334, "name": "61e4b1c7b20e3c0d3c483a7bf7b8cbe2"}, {"bike_id": "010e3a269340ef33f547d0f97996c6da", "type": "electric_scooter", "is_disabled": 0, "lat": 38.884192166666665, "rental_uris": {"ios": "https://dc.lft.to/lastmile_qr_scan", "android": "https://dc.lft.to/lastmile_qr_scan"}, "is_reserved": 0, "fusion_lon": 0.0, "fusion_lat": 0.0, "lon": -77.01774883333333, "name": "010e3a269340ef33f547d0f97996c6da"}, {"bike_id": "119138e166dd9a34bac66a4809f9ec1f", "type": "electric_scooter", "is_disabled": 0, "lat": 38.92323733333333, "rental_uris": {"ios": "https://dc.lft.to/lastmile_qr_scan", "android": "https://dc.lft.to/lastmile_qr_scan"}, "is_reserved": 0, "fusion_lon": 0.0, "fusion_lat": 0.0, "lon": -77.02139283333334, "name": "119138e166dd9a34bac66a4809f9ec1f"}, {"bike_id": "cea635a767a58a9abe1d137a7fff5bbb", "type": "electric_scooter", "is_disabled": 0, "lat": 38.92003883333334, "rental_uris": {"ios": "https://dc.lft.to/lastmile_qr_scan", "android": "https://dc.lft.to/lastmile_qr_scan"}, "is_reserved": 0, "fusion_lon": 0.0, "fusion_lat": 0.0, "lon": -76.9849675, "name": "cea635a767a58a9abe1d137a7fff5bbb"}, {"bike_id": "fd2d5c8d8112e65eedd610409f57d6fb", "type": "electric_scooter", "is_disabled": 0, "lat": 38.907477166666666, "rental_uris": {"ios": "https://dc.lft.to/lastmile_qr_scan", "android": "https://dc.lft.to/lastmile_qr_scan"}, "is_reserved": 0, "fusion_lon": 0.0, "fusion_lat": 0.0, "lon": -77.04330283333333, "name": "fd2d5c8d8112e65eedd610409f57d6fb"}, {"bike_id": "02304e4510826469bf57afabec0fb109", "type": "electric_scooter", "is_disabled": 0, "lat": 38.917058833333336, "rental_uris": {"ios": "https://dc.lft.to/lastmile_qr_scan", "android": "https://dc.lft.to/lastmile_qr_scan"}, "is_reserved": 0, "fusion_lon": 0.0, "fusion_lat": 0.0, "lon": -77.0347615, "name": "02304e4510826469bf57afabec0fb109"}, {"bike_id": "6f34a413e2e46f36c1b9742e7af835ec", "type": "electric_scooter", "is_disabled": 0, "lat": 38.917079, "rental_uris": {"ios": "https://dc.lft.to/lastmile_qr_scan", "android": "https://dc.lft.to/lastmile_qr_scan"}, "is_reserved": 0, "fusion_lon": 0.0, "fusion_lat": 0.0, "lon": -77.095788, "name": "6f34a413e2e46f36c1b9742e7af835ec"}, {"bike_id": "18fbc6e41473014a02ee4fd01bcaf556", "type": "electric_scooter", "is_disabled": 0, "lat": 38.92804483333333, "rental_uris": {"ios": "https://dc.lft.to/lastmile_qr_scan", "android": "https://dc.lft.to/lastmile_qr_scan"}, "is_reserved": 0, "fusion_lon": 0.0, "fusion_lat": 0.0, "lon": -77.03597533333334, "name": "18fbc6e41473014a02ee4fd01bcaf556"}, {"bike_id": "ce303f40fc745dcdf3912545819291d7", "type": "electric_scooter", "is_disabled": 0, "lat": 38.9258785, "rental_uris": {"ios": "https://dc.lft.to/lastmile_qr_scan", "android": "https://dc.lft.to/lastmile_qr_scan"}, "is_reserved": 0, "fusion_lon": 0.0, "fusion_lat": 0.0, "lon": -77.03738933333334, "name": "ce303f40fc745dcdf3912545819291d7"}, {"bike_id": "1295db7e237de0dc0230525cc614679a", "type": "electric_scooter", "is_disabled": 0, "lat": 38.91535666666667, "rental_uris": {"ios": "https://dc.lft.to/lastmile_qr_scan", "android": "https://dc.lft.to/lastmile_qr_scan"}, "is_reserved": 0, "fusion_lon": 0.0, "fusion_lat": 0.0, "lon": -77.038499, "name": "1295db7e237de0dc0230525cc614679a"}, {"bike_id": "0dd6058fdacfa1edeae8cfb204ecda8f", "type": "electric_scooter", "is_disabled": 0, "lat": 38.9277095, "rental_uris": {"ios": "https://dc.lft.to/lastmile_qr_scan", "android": "https://dc.lft.to/lastmile_qr_scan"}, "is_reserved": 0, "fusion_lon": 0.0, "fusion_lat": 0.0, "lon": -76.98757466666666, "name": "0dd6058fdacfa1edeae8cfb204ecda8f"}, {"bike_id": "7648ff1ec0300ee300ae4bff40923fdf", "type": "electric_scooter", "is_disabled": 0, "lat": 38.957341, "rental_uris": {"ios": "https://dc.lft.to/lastmile_qr_scan", "android": "https://dc.lft.to/lastmile_qr_scan"}, "is_reserved": 0, "fusion_lon": 0.0, "fusion_lat": 0.0, "lon": -77.02401283333333, "name": "7648ff1ec0300ee300ae4bff40923fdf"}, {"bike_id": "6c6119beb41d0c7840a7716d376bea7e", "type": "electric_scooter", "is_disabled": 0, "lat": 38.922767, "rental_uris": {"ios": "https://dc.lft.to/lastmile_qr_scan", "android": "https://dc.lft.to/lastmile_qr_scan"}, "is_reserved": 0, "fusion_lon": 0.0, "fusion_lat": 0.0, "lon": -76.99453633333333, "name": "6c6119beb41d0c7840a7716d376bea7e"}, {"bike_id": "c4f24b2b3645dde0364855ee8865e603", "type": "electric_bike", "is_disabled": 0, "lat": 38.91249216666667, "rental_uris": {"ios": "https://dc.lft.to/lastmile_qr_scan", "android": "https://dc.lft.to/lastmile_qr_scan"}, "is_reserved": 0, "fusion_lon": 0.0, "fusion_lat": 0.0, "lon": -77.08736566666667, "name": "c4f24b2b3645dde0364855ee8865e603"}, {"bike_id": "b68a18d7678c36a109ba475e392cfc97", "type": "electric_bike", "is_disabled": 0, "lat": 38.93776366666667, "rental_uris": {"ios": "https://dc.lft.to/lastmile_qr_scan", "android": "https://dc.lft.to/lastmile_qr_scan"}, "is_reserved": 0, "fusion_lon": 0.0, "fusion_lat": 0.0, "lon": -77.01911466666667, "name": "b68a18d7678c36a109ba475e392cfc97"}, {"bike_id": "a29011dd6df07d16a3b324a652583d49", "type": "electric_scooter", "is_disabled": 0, "lat": 38.86687516666667, "rental_uris": {"ios": "https://dc.lft.to/lastmile_qr_scan", "android": "https://dc.lft.to/lastmile_qr_scan"}, "is_reserved": 0, "fusion_lon": 0.0, "fusion_lat": 0.0, "lon": -76.98574783333333, "name": "a29011dd6df07d16a3b324a652583d49"}, {"bike_id": "3799d64ad4a8ea17bb9871793d3e0261", "type": "electric_scooter", "is_disabled": 0, "lat": 38.89611166666667, "rental_uris": {"ios": "https://dc.lft.to/lastmile_qr_scan", "android": "https://dc.lft.to/lastmile_qr_scan"}, "is_reserved": 0, "fusion_lon": 0.0, "fusion_lat": 0.0, "lon": -77.01080783333333, "name": "3799d64ad4a8ea17bb9871793d3e0261"}, {"bike_id": "08794df538330a47c397510935ba7deb", "type": "electric_scooter", "is_disabled": 0, "lat": 38.89838683333333, "rental_uris": {"ios": "https://dc.lft.to/lastmile_qr_scan", "android": "https://dc.lft.to/lastmile_qr_scan"}, "is_reserved": 0, "fusion_lon": 0.0, "fusion_lat": 0.0, "lon": -76.91952316666666, "name": "08794df538330a47c397510935ba7deb"}, {"bike_id": "771d9d65af310476f151b35db731e4d8", "type": "electric_scooter", "is_disabled": 0, "lat": 38.92843583333333, "rental_uris": {"ios": "https://dc.lft.to/lastmile_qr_scan", "android": "https://dc.lft.to/lastmile_qr_scan"}, "is_reserved": 0, "fusion_lon": 0.0, "fusion_lat": 0.0, "lon": -77.055138, "name": "771d9d65af310476f151b35db731e4d8"}, {"bike_id": "b2b10cb27edd68f7db261f4d1a57ade0", "type": "electric_scooter", "is_disabled": 0, "lat": 38.878477333333336, "rental_uris": {"ios": "https://dc.lft.to/lastmile_qr_scan", "android": "https://dc.lft.to/lastmile_qr_scan"}, "is_reserved": 0, "fusion_lon": 0.0, "fusion_lat": 0.0, "lon": -77.00844216666667, "name": "b2b10cb27edd68f7db261f4d1a57ade0"}, {"bike_id": "74eef7395997caeb39078c4665bc4631", "type": "electric_scooter", "is_disabled": 0, "lat": 38.98432733333333, "rental_uris": {"ios": "https://dc.lft.to/lastmile_qr_scan", "android": "https://dc.lft.to/lastmile_qr_scan"}, "is_reserved": 0, "fusion_lon": 0.0, "fusion_lat": 0.0, "lon": -77.02672916666667, "name": "74eef7395997caeb39078c4665bc4631"}, {"bike_id": "a6715b707343e260c4e5fc55c5fde2a1", "type": "electric_bike", "is_disabled": 0, "lat": 38.809729833333336, "rental_uris": {"ios": "https://dc.lft.to/lastmile_qr_scan", "android": "https://dc.lft.to/lastmile_qr_scan"}, "is_reserved": 0, "fusion_lon": 0.0, "fusion_lat": 0.0, "lon": -77.08628516666667, "name": "a6715b707343e260c4e5fc55c5fde2a1"}, {"bike_id": "7bbc6797fd52d3a3666f2245ae34cb89", "type": "electric_scooter", "is_disabled": 0, "lat": 38.92801166666667, "rental_uris": {"ios": "https://dc.lft.to/lastmile_qr_scan", "android": "https://dc.lft.to/lastmile_qr_scan"}, "is_reserved": 0, "fusion_lon": 0.0, "fusion_lat": 0.0, "lon": -77.02392933333333, "name": "7bbc6797fd52d3a3666f2245ae34cb89"}, {"bike_id": "16dadcf3daab1e7bf4ded7cb3bb7680f", "type": "electric_scooter", "is_disabled": 0, "lat": 38.922449666666665, "rental_uris": {"ios": "https://dc.lft.to/lastmile_qr_scan", "android": "https://dc.lft.to/lastmile_qr_scan"}, "is_reserved": 0, "fusion_lon": 0.0, "fusion_lat": 0.0, "lon": -77.01970183333333, "name": "16dadcf3daab1e7bf4ded7cb3bb7680f"}, {"bike_id": "28b478dd28fce323457cb1b5b7ff8575", "type": "electric_bike", "is_disabled": 0, "lat": 38.970677, "rental_uris": {"ios": "https://dc.lft.to/lastmile_qr_scan", "android": "https://dc.lft.to/lastmile_qr_scan"}, "is_reserved": 0, "fusion_lon": 0.0, "fusion_lat": 0.0, "lon": -76.936178, "name": "28b478dd28fce323457cb1b5b7ff8575"}, {"bike_id": "060674f66aba859d0154a9210cc9b075", "type": "electric_scooter", "is_disabled": 0, "lat": 38.88160233333333, "rental_uris": {"ios": "https://dc.lft.to/lastmile_qr_scan", "android": "https://dc.lft.to/lastmile_qr_scan"}, "is_reserved": 0, "fusion_lon": 0.0, "fusion_lat": 0.0, "lon": -77.02766766666667, "name": "060674f66aba859d0154a9210cc9b075"}, {"bike_id": "34707effd15e5534e09fee593241693a", "type": "electric_scooter", "is_disabled": 0, "lat": 38.863727833333336, "rental_uris": {"ios": "https://dc.lft.to/lastmile_qr_scan", "android": "https://dc.lft.to/lastmile_qr_scan"}, "is_reserved": 0, "fusion_lon": 0.0, "fusion_lat": 0.0, "lon": -76.990566, "name": "34707effd15e5534e09fee593241693a"}, {"bike_id": "d5ed3746d6d70e92bee86f915cc073c4", "type": "electric_scooter", "is_disabled": 0, "lat": 38.9031765, "rental_uris": {"ios": "https://dc.lft.to/lastmile_qr_scan", "android": "https://dc.lft.to/lastmile_qr_scan"}, "is_reserved": 0, "fusion_lon": 0.0, "fusion_lat": 0.0, "lon": -76.99132083333333, "name": "d5ed3746d6d70e92bee86f915cc073c4"}, {"bike_id": "6c845147a4eb31e00970c98af30780d4", "type": "electric_scooter", "is_disabled": 0, "lat": 38.917736166666664, "rental_uris": {"ios": "https://dc.lft.to/lastmile_qr_scan", "android": "https://dc.lft.to/lastmile_qr_scan"}, "is_reserved": 0, "fusion_lon": 0.0, "fusion_lat": 0.0, "lon": -77.04765433333333, "name": "6c845147a4eb31e00970c98af30780d4"}, {"bike_id": "6ecb633da5da995ab53b6f956d0c60b6", "type": "electric_scooter", "is_disabled": 0, "lat": 38.900304166666665, "rental_uris": {"ios": "https://dc.lft.to/lastmile_qr_scan", "android": "https://dc.lft.to/lastmile_qr_scan"}, "is_reserved": 0, "fusion_lon": 0.0, "fusion_lat": 0.0, "lon": -77.00193683333333, "name": "6ecb633da5da995ab53b6f956d0c60b6"}, {"bike_id": "5c97e4e6dab2030cb7ff9e2a33adfaa1", "type": "electric_scooter", "is_disabled": 0, "lat": 38.89720783333333, "rental_uris": {"ios": "https://dc.lft.to/lastmile_qr_scan", "android": "https://dc.lft.to/lastmile_qr_scan"}, "is_reserved": 0, "fusion_lon": 0.0, "fusion_lat": 0.0, "lon": -77.02291016666666, "name": "5c97e4e6dab2030cb7ff9e2a33adfaa1"}, {"bike_id": "77957f7866c052a7c2ee92b96f5304d6", "type": "electric_scooter", "is_disabled": 0, "lat": 38.928647833333336, "rental_uris": {"ios": "https://dc.lft.to/lastmile_qr_scan", "android": "https://dc.lft.to/lastmile_qr_scan"}, "is_reserved": 0, "fusion_lon": 0.0, "fusion_lat": 0.0, "lon": -77.03710416666667, "name": "77957f7866c052a7c2ee92b96f5304d6"}, {"bike_id": "7c13cc52d89b246faf8514e6065a6b9a", "type": "electric_scooter", "is_disabled": 0, "lat": 38.9557935, "rental_uris": {"ios": "https://dc.lft.to/lastmile_qr_scan", "android": "https://dc.lft.to/lastmile_qr_scan"}, "is_reserved": 0, "fusion_lon": 0.0, "fusion_lat": 0.0, "lon": -77.08040316666667, "name": "7c13cc52d89b246faf8514e6065a6b9a"}, {"bike_id": "749bcecc2dd2791050767bf0b81f0c8d", "type": "electric_scooter", "is_disabled": 0, "lat": 38.91958183333333, "rental_uris": {"ios": "https://dc.lft.to/lastmile_qr_scan", "android": "https://dc.lft.to/lastmile_qr_scan"}, "is_reserved": 0, "fusion_lon": 0.0, "fusion_lat": 0.0, "lon": -77.02491583333334, "name": "749bcecc2dd2791050767bf0b81f0c8d"}, {"bike_id": "69eac8c6676e3c168e3f52ac83508460", "type": "electric_scooter", "is_disabled": 0, "lat": 38.94293716666667, "rental_uris": {"ios": "https://dc.lft.to/lastmile_qr_scan", "android": "https://dc.lft.to/lastmile_qr_scan"}, "is_reserved": 0, "fusion_lon": 0.0, "fusion_lat": 0.0, "lon": -77.02168, "name": "69eac8c6676e3c168e3f52ac83508460"}, {"bike_id": "7fde5de6a55bbc710f554f6c1620d43e", "type": "electric_scooter", "is_disabled": 0, "lat": 38.948372666666664, "rental_uris": {"ios": "https://dc.lft.to/lastmile_qr_scan", "android": "https://dc.lft.to/lastmile_qr_scan"}, "is_reserved": 0, "fusion_lon": 0.0, "fusion_lat": 0.0, "lon": -77.02537816666667, "name": "7fde5de6a55bbc710f554f6c1620d43e"}, {"bike_id": "7b88d191b4fe83ed8d0abb1d518b2e13", "type": "electric_scooter", "is_disabled": 0, "lat": 38.90772366666667, "rental_uris": {"ios": "https://dc.lft.to/lastmile_qr_scan", "android": "https://dc.lft.to/lastmile_qr_scan"}, "is_reserved": 0, "fusion_lon": 0.0, "fusion_lat": 0.0, "lon": -77.04496883333333, "name": "7b88d191b4fe83ed8d0abb1d518b2e13"}, {"bike_id": "51b48ec3f035cee19451efcbaed01bfa", "type": "electric_scooter", "is_disabled": 0, "lat": 38.90178616666667, "rental_uris": {"ios": "https://dc.lft.to/lastmile_qr_scan", "android": "https://dc.lft.to/lastmile_qr_scan"}, "is_reserved": 0, "fusion_lon": 0.0, "fusion_lat": 0.0, "lon": -76.98451966666667, "name": "51b48ec3f035cee19451efcbaed01bfa"}, {"bike_id": "7ebb9c0d403b58bddafdbfbb2451593e", "type": "electric_scooter", "is_disabled": 0, "lat": 38.9042445, "rental_uris": {"ios": "https://dc.lft.to/lastmile_qr_scan", "android": "https://dc.lft.to/lastmile_qr_scan"}, "is_reserved": 0, "fusion_lon": 0.0, "fusion_lat": 0.0, "lon": -76.97375916666667, "name": "7ebb9c0d403b58bddafdbfbb2451593e"}, {"bike_id": "afeb4ea92d8a591eede842ff84b0d073", "type": "electric_scooter", "is_disabled": 0, "lat": 38.924529666666665, "rental_uris": {"ios": "https://dc.lft.to/lastmile_qr_scan", "android": "https://dc.lft.to/lastmile_qr_scan"}, "is_reserved": 0, "fusion_lon": 0.0, "fusion_lat": 0.0, "lon": -77.02408883333334, "name": "afeb4ea92d8a591eede842ff84b0d073"}, {"bike_id": "dcb0088a5822943c78fb20eb096082ff", "type": "electric_bike", "is_disabled": 0, "lat": 38.854073, "rental_uris": {"ios": "https://dc.lft.to/lastmile_qr_scan", "android": "https://dc.lft.to/lastmile_qr_scan"}, "is_reserved": 0, "fusion_lon": 0.0, "fusion_lat": 0.0, "lon": -77.12082033333333, "name": "dcb0088a5822943c78fb20eb096082ff"}, {"bike_id": "99c4f8c568704c9c1b71bc988261f63a", "type": "electric_scooter", "is_disabled": 0, "lat": 38.90789616666667, "rental_uris": {"ios": "https://dc.lft.to/lastmile_qr_scan", "android": "https://dc.lft.to/lastmile_qr_scan"}, "is_reserved": 0, "fusion_lon": 0.0, "fusion_lat": 0.0, "lon": -77.00196633333333, "name": "99c4f8c568704c9c1b71bc988261f63a"}, {"bike_id": "ac223f461e3f7a1cc3175327f91e486c", "type": "electric_scooter", "is_disabled": 0, "lat": 38.86566466666667, "rental_uris": {"ios": "https://dc.lft.to/lastmile_qr_scan", "android": "https://dc.lft.to/lastmile_qr_scan"}, "is_reserved": 0, "fusion_lon": 0.0, "fusion_lat": 0.0, "lon": -76.98216183333334, "name": "ac223f461e3f7a1cc3175327f91e486c"}, {"bike_id": "eafdea1979b3decb67692fef17d533c2", "type": "electric_scooter", "is_disabled": 0, "lat": 38.88742233333333, "rental_uris": {"ios": "https://dc.lft.to/lastmile_qr_scan", "android": "https://dc.lft.to/lastmile_qr_scan"}, "is_reserved": 0, "fusion_lon": 0.0, "fusion_lat": 0.0, "lon": -76.996284, "name": "eafdea1979b3decb67692fef17d533c2"}, {"bike_id": "0cba6878c9989aba5a4823701895dc5c", "type": "electric_scooter", "is_disabled": 0, "lat": 38.933341666666664, "rental_uris": {"ios": "https://dc.lft.to/lastmile_qr_scan", "android": "https://dc.lft.to/lastmile_qr_scan"}, "is_reserved": 0, "fusion_lon": 0.0, "fusion_lat": 0.0, "lon": -77.03992666666667, "name": "0cba6878c9989aba5a4823701895dc5c"}, {"bike_id": "82cf1c0582f77d61643d28037e952693", "type": "electric_scooter", "is_disabled": 0, "lat": 38.88882983333333, "rental_uris": {"ios": "https://dc.lft.to/lastmile_qr_scan", "android": "https://dc.lft.to/lastmile_qr_scan"}, "is_reserved": 0, "fusion_lon": 0.0, "fusion_lat": 0.0, "lon": -76.9902725, "name": "82cf1c0582f77d61643d28037e952693"}, {"bike_id": "15d2bcd5904598e61ebde10b5372520b", "type": "electric_scooter", "is_disabled": 0, "lat": 38.95477916666667, "rental_uris": {"ios": "https://dc.lft.to/lastmile_qr_scan", "android": "https://dc.lft.to/lastmile_qr_scan"}, "is_reserved": 0, "fusion_lon": 0.0, "fusion_lat": 0.0, "lon": -77.09250116666666, "name": "15d2bcd5904598e61ebde10b5372520b"}, {"bike_id": "533bf16c34df5589dbe5b02a47e6974e", "type": "electric_scooter", "is_disabled": 0, "lat": 38.91613683333333, "rental_uris": {"ios": "https://dc.lft.to/lastmile_qr_scan", "android": "https://dc.lft.to/lastmile_qr_scan"}, "is_reserved": 0, "fusion_lon": 0.0, "fusion_lat": 0.0, "lon": -77.03640866666667, "name": "533bf16c34df5589dbe5b02a47e6974e"}, {"bike_id": "fd31f20c3162941cc0313713660e0923", "type": "electric_scooter", "is_disabled": 0, "lat": 38.92842733333333, "rental_uris": {"ios": "https://dc.lft.to/lastmile_qr_scan", "android": "https://dc.lft.to/lastmile_qr_scan"}, "is_reserved": 0, "fusion_lon": 0.0, "fusion_lat": 0.0, "lon": -77.020097, "name": "fd31f20c3162941cc0313713660e0923"}, {"bike_id": "559ea5e669eb8a8097e04237ec2eee8f", "type": "electric_scooter", "is_disabled": 0, "lat": 38.919252666666665, "rental_uris": {"ios": "https://dc.lft.to/lastmile_qr_scan", "android": "https://dc.lft.to/lastmile_qr_scan"}, "is_reserved": 0, "fusion_lon": 0.0, "fusion_lat": 0.0, "lon": -77.03423116666667, "name": "559ea5e669eb8a8097e04237ec2eee8f"}, {"bike_id": "b26e80675f83686ab6ec840f6ab69ca5", "type": "electric_scooter", "is_disabled": 0, "lat": 38.907259333333336, "rental_uris": {"ios": "https://dc.lft.to/lastmile_qr_scan", "android": "https://dc.lft.to/lastmile_qr_scan"}, "is_reserved": 0, "fusion_lon": 0.0, "fusion_lat": 0.0, "lon": -77.02889683333333, "name": "b26e80675f83686ab6ec840f6ab69ca5"}, {"bike_id": "9b5ef8ffbfb81920e1e61210bec30475", "type": "electric_scooter", "is_disabled": 0, "lat": 38.92695533333333, "rental_uris": {"ios": "https://dc.lft.to/lastmile_qr_scan", "android": "https://dc.lft.to/lastmile_qr_scan"}, "is_reserved": 0, "fusion_lon": 0.0, "fusion_lat": 0.0, "lon": -77.02985066666666, "name": "9b5ef8ffbfb81920e1e61210bec30475"}, {"bike_id": "a326192333b993c40c10cec6c5a7a905", "type": "electric_scooter", "is_disabled": 0, "lat": 38.898529, "rental_uris": {"ios": "https://dc.lft.to/lastmile_qr_scan", "android": "https://dc.lft.to/lastmile_qr_scan"}, "is_reserved": 0, "fusion_lon": 0.0, "fusion_lat": 0.0, "lon": -77.040889, "name": "a326192333b993c40c10cec6c5a7a905"}, {"bike_id": "d9045dc1144bed929076a5522eb982d8", "type": "electric_scooter", "is_disabled": 0, "lat": 38.926213833333335, "rental_uris": {"ios": "https://dc.lft.to/lastmile_qr_scan", "android": "https://dc.lft.to/lastmile_qr_scan"}, "is_reserved": 0, "fusion_lon": 0.0, "fusion_lat": 0.0, "lon": -77.04189433333333, "name": "d9045dc1144bed929076a5522eb982d8"}, {"bike_id": "af1ab821d6fce3a38f69c0148419209c", "type": "electric_bike", "is_disabled": 0, "lat": 38.84522583333333, "rental_uris": {"ios": "https://dc.lft.to/lastmile_qr_scan", "android": "https://dc.lft.to/lastmile_qr_scan"}, "is_reserved": 0, "fusion_lon": 0.0, "fusion_lat": 0.0, "lon": -76.97396933333333, "name": "af1ab821d6fce3a38f69c0148419209c"}, {"bike_id": "94f5e4082a07c68f08e01e1e817d6935", "type": "electric_scooter", "is_disabled": 0, "lat": 38.947197333333335, "rental_uris": {"ios": "https://dc.lft.to/lastmile_qr_scan", "android": "https://dc.lft.to/lastmile_qr_scan"}, "is_reserved": 0, "fusion_lon": 0.0, "fusion_lat": 0.0, "lon": -77.03324883333333, "name": "94f5e4082a07c68f08e01e1e817d6935"}, {"bike_id": "772d13955e5a8f5e22e7b1caa01a9f8d", "type": "electric_scooter", "is_disabled": 0, "lat": 38.9079185, "rental_uris": {"ios": "https://dc.lft.to/lastmile_qr_scan", "android": "https://dc.lft.to/lastmile_qr_scan"}, "is_reserved": 0, "fusion_lon": 0.0, "fusion_lat": 0.0, "lon": -77.04798483333333, "name": "772d13955e5a8f5e22e7b1caa01a9f8d"}, {"bike_id": "b0fc8105a7d5c18b5c0a40ede7bfcaae", "type": "electric_scooter", "is_disabled": 0, "lat": 38.920283166666664, "rental_uris": {"ios": "https://dc.lft.to/lastmile_qr_scan", "android": "https://dc.lft.to/lastmile_qr_scan"}, "is_reserved": 0, "fusion_lon": 0.0, "fusion_lat": 0.0, "lon": -77.02310433333334, "name": "b0fc8105a7d5c18b5c0a40ede7bfcaae"}, {"bike_id": "f545056a67f8f72f9d3881b8e6824212", "type": "electric_scooter", "is_disabled": 0, "lat": 38.9231925, "rental_uris": {"ios": "https://dc.lft.to/lastmile_qr_scan", "android": "https://dc.lft.to/lastmile_qr_scan"}, "is_reserved": 0, "fusion_lon": 0.0, "fusion_lat": 0.0, "lon": -77.02134233333334, "name": "f545056a67f8f72f9d3881b8e6824212"}, {"bike_id": "526b116f158457a3a2ddbdb533fc1e27", "type": "electric_scooter", "is_disabled": 0, "lat": 38.90079083333333, "rental_uris": {"ios": "https://dc.lft.to/lastmile_qr_scan", "android": "https://dc.lft.to/lastmile_qr_scan"}, "is_reserved": 0, "fusion_lon": 0.0, "fusion_lat": 0.0, "lon": -77.03066183333334, "name": "526b116f158457a3a2ddbdb533fc1e27"}, {"bike_id": "ba06bce328b3f5d45076f4a3e2dd9ee0", "type": "electric_scooter", "is_disabled": 0, "lat": 38.915563166666665, "rental_uris": {"ios": "https://dc.lft.to/lastmile_qr_scan", "android": "https://dc.lft.to/lastmile_qr_scan"}, "is_reserved": 0, "fusion_lon": 0.0, "fusion_lat": 0.0, "lon": -77.03115883333334, "name": "ba06bce328b3f5d45076f4a3e2dd9ee0"}, {"bike_id": "5068647890402a3720d0a602855e364f", "type": "electric_scooter", "is_disabled": 0, "lat": 38.9205265, "rental_uris": {"ios": "https://dc.lft.to/lastmile_qr_scan", "android": "https://dc.lft.to/lastmile_qr_scan"}, "is_reserved": 0, "fusion_lon": 0.0, "fusion_lat": 0.0, "lon": -77.03411166666666, "name": "5068647890402a3720d0a602855e364f"}, {"bike_id": "766cd558c2fc4aaeb96e1f56fa0deb2c", "type": "electric_scooter", "is_disabled": 0, "lat": 38.9096435, "rental_uris": {"ios": "https://dc.lft.to/lastmile_qr_scan", "android": "https://dc.lft.to/lastmile_qr_scan"}, "is_reserved": 0, "fusion_lon": 0.0, "fusion_lat": 0.0, "lon": -77.04543166666667, "name": "766cd558c2fc4aaeb96e1f56fa0deb2c"}, {"bike_id": "14ad55bc5c45e62e72e96362692de513", "type": "electric_scooter", "is_disabled": 0, "lat": 38.907352333333336, "rental_uris": {"ios": "https://dc.lft.to/lastmile_qr_scan", "android": "https://dc.lft.to/lastmile_qr_scan"}, "is_reserved": 0, "fusion_lon": 0.0, "fusion_lat": 0.0, "lon": -77.0435595, "name": "14ad55bc5c45e62e72e96362692de513"}, {"bike_id": "7b09cebc5b8912d4209df4b15b9d79c7", "type": "electric_scooter", "is_disabled": 0, "lat": 38.923766, "rental_uris": {"ios": "https://dc.lft.to/lastmile_qr_scan", "android": "https://dc.lft.to/lastmile_qr_scan"}, "is_reserved": 0, "fusion_lon": 0.0, "fusion_lat": 0.0, "lon": -77.0502265, "name": "7b09cebc5b8912d4209df4b15b9d79c7"}, {"bike_id": "a3d150cd1ac333428367c30aec7a4096", "type": "electric_scooter", "is_disabled": 0, "lat": 38.91147216666667, "rental_uris": {"ios": "https://dc.lft.to/lastmile_qr_scan", "android": "https://dc.lft.to/lastmile_qr_scan"}, "is_reserved": 0, "fusion_lon": 0.0, "fusion_lat": 0.0, "lon": -77.0295125, "name": "a3d150cd1ac333428367c30aec7a4096"}, {"bike_id": "a1c36deadfce55284a3a75f41f2519e6", "type": "electric_scooter", "is_disabled": 0, "lat": 38.898387666666665, "rental_uris": {"ios": "https://dc.lft.to/lastmile_qr_scan", "android": "https://dc.lft.to/lastmile_qr_scan"}, "is_reserved": 0, "fusion_lon": 0.0, "fusion_lat": 0.0, "lon": -77.02211933333334, "name": "a1c36deadfce55284a3a75f41f2519e6"}, {"bike_id": "d1a0479565a7019e70caf6ceaa730cc7", "type": "electric_scooter", "is_disabled": 0, "lat": 38.902491, "rental_uris": {"ios": "https://dc.lft.to/lastmile_qr_scan", "android": "https://dc.lft.to/lastmile_qr_scan"}, "is_reserved": 0, "fusion_lon": 0.0, "fusion_lat": 0.0, "lon": -77.01828333333333, "name": "d1a0479565a7019e70caf6ceaa730cc7"}, {"bike_id": "f9f868f26e1de064f2c89a0684792730", "type": "electric_bike", "is_disabled": 0, "lat": 38.831571, "rental_uris": {"ios": "https://dc.lft.to/lastmile_qr_scan", "android": "https://dc.lft.to/lastmile_qr_scan"}, "is_reserved": 0, "fusion_lon": 0.0, "fusion_lat": 0.0, "lon": -76.99546866666667, "name": "f9f868f26e1de064f2c89a0684792730"}, {"bike_id": "db34f6355292d6e64194cda968559b04", "type": "electric_scooter", "is_disabled": 0, "lat": 38.8971825, "rental_uris": {"ios": "https://dc.lft.to/lastmile_qr_scan", "android": "https://dc.lft.to/lastmile_qr_scan"}, "is_reserved": 0, "fusion_lon": 0.0, "fusion_lat": 0.0, "lon": -77.02498266666667, "name": "db34f6355292d6e64194cda968559b04"}, {"bike_id": "a7261a579831b92f8305bb943ed503ad", "type": "electric_scooter", "is_disabled": 0, "lat": 38.91268383333333, "rental_uris": {"ios": "https://dc.lft.to/lastmile_qr_scan", "android": "https://dc.lft.to/lastmile_qr_scan"}, "is_reserved": 0, "fusion_lon": 0.0, "fusion_lat": 0.0, "lon": -77.037564, "name": "a7261a579831b92f8305bb943ed503ad"}, {"bike_id": "f5a794c016caebb359170088d017f5a3", "type": "electric_scooter", "is_disabled": 0, "lat": 38.878684, "rental_uris": {"ios": "https://dc.lft.to/lastmile_qr_scan", "android": "https://dc.lft.to/lastmile_qr_scan"}, "is_reserved": 0, "fusion_lon": 0.0, "fusion_lat": 0.0, "lon": -76.96984633333334, "name": "f5a794c016caebb359170088d017f5a3"}, {"bike_id": "502d868bc64921381fb473310f4e4daf", "type": "electric_scooter", "is_disabled": 0, "lat": 38.88850033333333, "rental_uris": {"ios": "https://dc.lft.to/lastmile_qr_scan", "android": "https://dc.lft.to/lastmile_qr_scan"}, "is_reserved": 0, "fusion_lon": 0.0, "fusion_lat": 0.0, "lon": -76.92678366666667, "name": "502d868bc64921381fb473310f4e4daf"}, {"bike_id": "7ce65e56525c8b57cbaf5131b7b1db79", "type": "electric_scooter", "is_disabled": 0, "lat": 38.911153, "rental_uris": {"ios": "https://dc.lft.to/lastmile_qr_scan", "android": "https://dc.lft.to/lastmile_qr_scan"}, "is_reserved": 0, "fusion_lon": 0.0, "fusion_lat": 0.0, "lon": -77.03833866666666, "name": "7ce65e56525c8b57cbaf5131b7b1db79"}, {"bike_id": "4df6a358bbd418c7eea9d5acc9ab20ee", "type": "electric_scooter", "is_disabled": 0, "lat": 38.874232166666665, "rental_uris": {"ios": "https://dc.lft.to/lastmile_qr_scan", "android": "https://dc.lft.to/lastmile_qr_scan"}, "is_reserved": 0, "fusion_lon": 0.0, "fusion_lat": 0.0, "lon": -76.96909133333334, "name": "4df6a358bbd418c7eea9d5acc9ab20ee"}, {"bike_id": "d1f8abf2953b246ce4e809156357b30b", "type": "electric_scooter", "is_disabled": 0, "lat": 38.90278133333333, "rental_uris": {"ios": "https://dc.lft.to/lastmile_qr_scan", "android": "https://dc.lft.to/lastmile_qr_scan"}, "is_reserved": 0, "fusion_lon": 0.0, "fusion_lat": 0.0, "lon": -77.04342366666667, "name": "d1f8abf2953b246ce4e809156357b30b"}, {"bike_id": "332fce14f78065d93e87a5acda0c6a02", "type": "electric_scooter", "is_disabled": 0, "lat": 38.924784833333334, "rental_uris": {"ios": "https://dc.lft.to/lastmile_qr_scan", "android": "https://dc.lft.to/lastmile_qr_scan"}, "is_reserved": 0, "fusion_lon": 0.0, "fusion_lat": 0.0, "lon": -77.0283685, "name": "332fce14f78065d93e87a5acda0c6a02"}, {"bike_id": "3c2004a9228c0e197a7623b6baf3bb1d", "type": "electric_scooter", "is_disabled": 0, "lat": 38.91449, "rental_uris": {"ios": "https://dc.lft.to/lastmile_qr_scan", "android": "https://dc.lft.to/lastmile_qr_scan"}, "is_reserved": 0, "fusion_lon": 0.0, "fusion_lat": 0.0, "lon": -77.02295883333333, "name": "3c2004a9228c0e197a7623b6baf3bb1d"}, {"bike_id": "08a845188a4546530b0ce0338d78b7ba", "type": "electric_scooter", "is_disabled": 0, "lat": 38.929141, "rental_uris": {"ios": "https://dc.lft.to/lastmile_qr_scan", "android": "https://dc.lft.to/lastmile_qr_scan"}, "is_reserved": 0, "fusion_lon": 0.0, "fusion_lat": 0.0, "lon": -77.02088316666666, "name": "08a845188a4546530b0ce0338d78b7ba"}, {"bike_id": "b4115753a8c8b8162e43864316f84a91", "type": "electric_scooter", "is_disabled": 0, "lat": 38.866889666666665, "rental_uris": {"ios": "https://dc.lft.to/lastmile_qr_scan", "android": "https://dc.lft.to/lastmile_qr_scan"}, "is_reserved": 0, "fusion_lon": 0.0, "fusion_lat": 0.0, "lon": -76.98576566666667, "name": "b4115753a8c8b8162e43864316f84a91"}, {"bike_id": "89aff209cca1b34aef2b1c7300580dc8", "type": "electric_scooter", "is_disabled": 0, "lat": 38.942706666666666, "rental_uris": {"ios": "https://dc.lft.to/lastmile_qr_scan", "android": "https://dc.lft.to/lastmile_qr_scan"}, "is_reserved": 0, "fusion_lon": 0.0, "fusion_lat": 0.0, "lon": -77.03257833333333, "name": "89aff209cca1b34aef2b1c7300580dc8"}, {"bike_id": "a8d27babb77cfcff4d71963ee0866db7", "type": "electric_scooter", "is_disabled": 0, "lat": 38.916529, "rental_uris": {"ios": "https://dc.lft.to/lastmile_qr_scan", "android": "https://dc.lft.to/lastmile_qr_scan"}, "is_reserved": 0, "fusion_lon": 0.0, "fusion_lat": 0.0, "lon": -77.0228915, "name": "a8d27babb77cfcff4d71963ee0866db7"}, {"bike_id": "18c6ec45e7447937cbdddb3a66302180", "type": "electric_scooter", "is_disabled": 0, "lat": 38.853160833333334, "rental_uris": {"ios": "https://dc.lft.to/lastmile_qr_scan", "android": "https://dc.lft.to/lastmile_qr_scan"}, "is_reserved": 0, "fusion_lon": 0.0, "fusion_lat": 0.0, "lon": -76.98008116666666, "name": "18c6ec45e7447937cbdddb3a66302180"}, {"bike_id": "9de4c57c6e5866d207781781b431fd96", "type": "electric_bike", "is_disabled": 0, "lat": 38.86372133333333, "rental_uris": {"ios": "https://dc.lft.to/lastmile_qr_scan", "android": "https://dc.lft.to/lastmile_qr_scan"}, "is_reserved": 0, "fusion_lon": 0.0, "fusion_lat": 0.0, "lon": -76.97010566666667, "name": "9de4c57c6e5866d207781781b431fd96"}, {"bike_id": "06a198f8ff595ec493bc72c9538031cf", "type": "electric_scooter", "is_disabled": 0, "lat": 38.906685833333334, "rental_uris": {"ios": "https://dc.lft.to/lastmile_qr_scan", "android": "https://dc.lft.to/lastmile_qr_scan"}, "is_reserved": 0, "fusion_lon": 0.0, "fusion_lat": 0.0, "lon": -77.06119133333333, "name": "06a198f8ff595ec493bc72c9538031cf"}, {"bike_id": "56269469759cb654f9b0e7b5741d93fd", "type": "electric_scooter", "is_disabled": 0, "lat": 38.92183083333333, "rental_uris": {"ios": "https://dc.lft.to/lastmile_qr_scan", "android": "https://dc.lft.to/lastmile_qr_scan"}, "is_reserved": 0, "fusion_lon": 0.0, "fusion_lat": 0.0, "lon": -76.9979975, "name": "56269469759cb654f9b0e7b5741d93fd"}, {"bike_id": "df48a4fe3ffa57c8179b9cb02a7b5544", "type": "electric_bike", "is_disabled": 0, "lat": 38.857709166666666, "rental_uris": {"ios": "https://dc.lft.to/lastmile_qr_scan", "android": "https://dc.lft.to/lastmile_qr_scan"}, "is_reserved": 0, "fusion_lon": 0.0, "fusion_lat": 0.0, "lon": -76.98765083333333, "name": "df48a4fe3ffa57c8179b9cb02a7b5544"}, {"bike_id": "c58ce2a7f39d09f5bdc3570d592fa55f", "type": "electric_scooter", "is_disabled": 0, "lat": 38.90962666666667, "rental_uris": {"ios": "https://dc.lft.to/lastmile_qr_scan", "android": "https://dc.lft.to/lastmile_qr_scan"}, "is_reserved": 0, "fusion_lon": 0.0, "fusion_lat": 0.0, "lon": -77.0142875, "name": "c58ce2a7f39d09f5bdc3570d592fa55f"}, {"bike_id": "1b7c5ce683623fd97daa521f7c0db2b2", "type": "electric_scooter", "is_disabled": 0, "lat": 38.858943, "rental_uris": {"ios": "https://dc.lft.to/lastmile_qr_scan", "android": "https://dc.lft.to/lastmile_qr_scan"}, "is_reserved": 0, "fusion_lon": 0.0, "fusion_lat": 0.0, "lon": -76.99728333333333, "name": "1b7c5ce683623fd97daa521f7c0db2b2"}, {"bike_id": "c48b774dcab34d91e2cc40f1caa9412d", "type": "electric_scooter", "is_disabled": 0, "lat": 38.87816566666667, "rental_uris": {"ios": "https://dc.lft.to/lastmile_qr_scan", "android": "https://dc.lft.to/lastmile_qr_scan"}, "is_reserved": 0, "fusion_lon": 0.0, "fusion_lat": 0.0, "lon": -76.97172883333333, "name": "c48b774dcab34d91e2cc40f1caa9412d"}, {"bike_id": "21773c7b43039321fbfd7dacb5048dae", "type": "electric_scooter", "is_disabled": 0, "lat": 38.9205725, "rental_uris": {"ios": "https://dc.lft.to/lastmile_qr_scan", "android": "https://dc.lft.to/lastmile_qr_scan"}, "is_reserved": 0, "fusion_lon": 0.0, "fusion_lat": 0.0, "lon": -77.02424183333333, "name": "21773c7b43039321fbfd7dacb5048dae"}, {"bike_id": "15ef13bf23740d473db5bd7bdccfc813", "type": "electric_scooter", "is_disabled": 0, "lat": 38.8814975, "rental_uris": {"ios": "https://dc.lft.to/lastmile_qr_scan", "android": "https://dc.lft.to/lastmile_qr_scan"}, "is_reserved": 0, "fusion_lon": 0.0, "fusion_lat": 0.0, "lon": -77.02735766666666, "name": "15ef13bf23740d473db5bd7bdccfc813"}, {"bike_id": "84b88d19326fd8a2adcd69b86207f3a6", "type": "electric_scooter", "is_disabled": 0, "lat": 38.93769233333333, "rental_uris": {"ios": "https://dc.lft.to/lastmile_qr_scan", "android": "https://dc.lft.to/lastmile_qr_scan"}, "is_reserved": 0, "fusion_lon": 0.0, "fusion_lat": 0.0, "lon": -77.0197055, "name": "84b88d19326fd8a2adcd69b86207f3a6"}, {"bike_id": "f14ec9a1f775c1ff95322f6d1e9125ba", "type": "electric_scooter", "is_disabled": 0, "lat": 38.899887166666666, "rental_uris": {"ios": "https://dc.lft.to/lastmile_qr_scan", "android": "https://dc.lft.to/lastmile_qr_scan"}, "is_reserved": 0, "fusion_lon": 0.0, "fusion_lat": 0.0, "lon": -76.94999833333333, "name": "f14ec9a1f775c1ff95322f6d1e9125ba"}, {"bike_id": "8b2a5c42815f50c815eef87e0b5a4d47", "type": "electric_scooter", "is_disabled": 0, "lat": 38.90733683333333, "rental_uris": {"ios": "https://dc.lft.to/lastmile_qr_scan", "android": "https://dc.lft.to/lastmile_qr_scan"}, "is_reserved": 0, "fusion_lon": 0.0, "fusion_lat": 0.0, "lon": -77.00934433333333, "name": "8b2a5c42815f50c815eef87e0b5a4d47"}, {"bike_id": "3758377ead061bcbfe8a11aa9f512be2", "type": "electric_scooter", "is_disabled": 0, "lat": 38.93698716666667, "rental_uris": {"ios": "https://dc.lft.to/lastmile_qr_scan", "android": "https://dc.lft.to/lastmile_qr_scan"}, "is_reserved": 0, "fusion_lon": 0.0, "fusion_lat": 0.0, "lon": -77.05666216666667, "name": "3758377ead061bcbfe8a11aa9f512be2"}, {"bike_id": "0c78e8e0ac3cb1ba12c986cf41d95153", "type": "electric_scooter", "is_disabled": 0, "lat": 38.92337666666667, "rental_uris": {"ios": "https://dc.lft.to/lastmile_qr_scan", "android": "https://dc.lft.to/lastmile_qr_scan"}, "is_reserved": 0, "fusion_lon": 0.0, "fusion_lat": 0.0, "lon": -77.053746, "name": "0c78e8e0ac3cb1ba12c986cf41d95153"}, {"bike_id": "5c03e3a77f8298651375a7963c8008df", "type": "electric_scooter", "is_disabled": 0, "lat": 38.942126333333334, "rental_uris": {"ios": "https://dc.lft.to/lastmile_qr_scan", "android": "https://dc.lft.to/lastmile_qr_scan"}, "is_reserved": 0, "fusion_lon": 0.0, "fusion_lat": 0.0, "lon": -77.02587716666666, "name": "5c03e3a77f8298651375a7963c8008df"}, {"bike_id": "ded4b310546f34f22beac77ec5b0e328", "type": "electric_scooter", "is_disabled": 0, "lat": 38.9111835, "rental_uris": {"ios": "https://dc.lft.to/lastmile_qr_scan", "android": "https://dc.lft.to/lastmile_qr_scan"}, "is_reserved": 0, "fusion_lon": 0.0, "fusion_lat": 0.0, "lon": -77.03251, "name": "ded4b310546f34f22beac77ec5b0e328"}, {"bike_id": "ed2f37a3538349e1f4436a243315f123", "type": "electric_bike", "is_disabled": 0, "lat": 39.056374, "rental_uris": {"ios": "https://dc.lft.to/lastmile_qr_scan", "android": "https://dc.lft.to/lastmile_qr_scan"}, "is_reserved": 0, "fusion_lon": 0.0, "fusion_lat": 0.0, "lon": -77.12526533333333, "name": "ed2f37a3538349e1f4436a243315f123"}, {"bike_id": "1548d3615c2f1b268c7d1acdc7c19586", "type": "electric_scooter", "is_disabled": 0, "lat": 38.892318, "rental_uris": {"ios": "https://dc.lft.to/lastmile_qr_scan", "android": "https://dc.lft.to/lastmile_qr_scan"}, "is_reserved": 0, "fusion_lon": 0.0, "fusion_lat": 0.0, "lon": -77.0500235, "name": "1548d3615c2f1b268c7d1acdc7c19586"}, {"bike_id": "1c75045d53f6ce1d5f2612712497a017", "type": "electric_scooter", "is_disabled": 0, "lat": 38.8949605, "rental_uris": {"ios": "https://dc.lft.to/lastmile_qr_scan", "android": "https://dc.lft.to/lastmile_qr_scan"}, "is_reserved": 0, "fusion_lon": 0.0, "fusion_lat": 0.0, "lon": -77.0021045, "name": "1c75045d53f6ce1d5f2612712497a017"}, {"bike_id": "fd239a4f1e44e444b99b9305ca22043b", "type": "electric_scooter", "is_disabled": 0, "lat": 38.91069183333333, "rental_uris": {"ios": "https://dc.lft.to/lastmile_qr_scan", "android": "https://dc.lft.to/lastmile_qr_scan"}, "is_reserved": 0, "fusion_lon": 0.0, "fusion_lat": 0.0, "lon": -77.02605866666667, "name": "fd239a4f1e44e444b99b9305ca22043b"}, {"bike_id": "3fd8dca67b90e9dc25688ee5e0179450", "type": "electric_scooter", "is_disabled": 0, "lat": 38.947851666666665, "rental_uris": {"ios": "https://dc.lft.to/lastmile_qr_scan", "android": "https://dc.lft.to/lastmile_qr_scan"}, "is_reserved": 0, "fusion_lon": 0.0, "fusion_lat": 0.0, "lon": -77.07935616666667, "name": "3fd8dca67b90e9dc25688ee5e0179450"}, {"bike_id": "6b806c603a4775d2451918e52af20ec4", "type": "electric_scooter", "is_disabled": 0, "lat": 38.917846833333336, "rental_uris": {"ios": "https://dc.lft.to/lastmile_qr_scan", "android": "https://dc.lft.to/lastmile_qr_scan"}, "is_reserved": 0, "fusion_lon": 0.0, "fusion_lat": 0.0, "lon": -77.0232165, "name": "6b806c603a4775d2451918e52af20ec4"}, {"bike_id": "ab5e00dd9272a01c2b5b6f17a817294c", "type": "electric_scooter", "is_disabled": 0, "lat": 38.945651, "rental_uris": {"ios": "https://dc.lft.to/lastmile_qr_scan", "android": "https://dc.lft.to/lastmile_qr_scan"}, "is_reserved": 0, "fusion_lon": 0.0, "fusion_lat": 0.0, "lon": -77.07126266666667, "name": "ab5e00dd9272a01c2b5b6f17a817294c"}, {"bike_id": "05d432c87561a0468ec9b052ad85192b", "type": "electric_bike", "is_disabled": 0, "lat": 38.957842166666666, "rental_uris": {"ios": "https://dc.lft.to/lastmile_qr_scan", "android": "https://dc.lft.to/lastmile_qr_scan"}, "is_reserved": 0, "fusion_lon": 0.0, "fusion_lat": 0.0, "lon": -77.02000616666666, "name": "05d432c87561a0468ec9b052ad85192b"}, {"bike_id": "f66e0432b9c6e12d32e262a2620dcfae", "type": "electric_scooter", "is_disabled": 0, "lat": 38.884502499999996, "rental_uris": {"ios": "https://dc.lft.to/lastmile_qr_scan", "android": "https://dc.lft.to/lastmile_qr_scan"}, "is_reserved": 0, "fusion_lon": 0.0, "fusion_lat": 0.0, "lon": -76.95095583333334, "name": "f66e0432b9c6e12d32e262a2620dcfae"}, {"bike_id": "adcb21610d1da0bea0e531eb1025fd62", "type": "electric_scooter", "is_disabled": 0, "lat": 38.905517, "rental_uris": {"ios": "https://dc.lft.to/lastmile_qr_scan", "android": "https://dc.lft.to/lastmile_qr_scan"}, "is_reserved": 0, "fusion_lon": 0.0, "fusion_lat": 0.0, "lon": -77.00619, "name": "adcb21610d1da0bea0e531eb1025fd62"}, {"bike_id": "48102c5686964373cf8ce8cccac0b592", "type": "electric_scooter", "is_disabled": 0, "lat": 38.915904166666664, "rental_uris": {"ios": "https://dc.lft.to/lastmile_qr_scan", "android": "https://dc.lft.to/lastmile_qr_scan"}, "is_reserved": 0, "fusion_lon": 0.0, "fusion_lat": 0.0, "lon": -77.001945, "name": "48102c5686964373cf8ce8cccac0b592"}, {"bike_id": "729dbdcde936c0830e51d1f4ea5c4cf4", "type": "electric_bike", "is_disabled": 0, "lat": 38.85893316666667, "rental_uris": {"ios": "https://dc.lft.to/lastmile_qr_scan", "android": "https://dc.lft.to/lastmile_qr_scan"}, "is_reserved": 0, "fusion_lon": 0.0, "fusion_lat": 0.0, "lon": -77.11866116666667, "name": "729dbdcde936c0830e51d1f4ea5c4cf4"}, {"bike_id": "5737950bb2b88d70f664da78728dc73f", "type": "electric_scooter", "is_disabled": 0, "lat": 38.904121833333335, "rental_uris": {"ios": "https://dc.lft.to/lastmile_qr_scan", "android": "https://dc.lft.to/lastmile_qr_scan"}, "is_reserved": 0, "fusion_lon": 0.0, "fusion_lat": 0.0, "lon": -76.9733215, "name": "5737950bb2b88d70f664da78728dc73f"}, {"bike_id": "9081f4f3a4e74515625566fbd6b5922d", "type": "electric_scooter", "is_disabled": 0, "lat": 38.89960683333334, "rental_uris": {"ios": "https://dc.lft.to/lastmile_qr_scan", "android": "https://dc.lft.to/lastmile_qr_scan"}, "is_reserved": 0, "fusion_lon": 0.0, "fusion_lat": 0.0, "lon": -76.983091, "name": "9081f4f3a4e74515625566fbd6b5922d"}, {"bike_id": "66b5379ee57d1587097c37d5a408f76b", "type": "electric_scooter", "is_disabled": 0, "lat": 38.91702983333333, "rental_uris": {"ios": "https://dc.lft.to/lastmile_qr_scan", "android": "https://dc.lft.to/lastmile_qr_scan"}, "is_reserved": 0, "fusion_lon": 0.0, "fusion_lat": 0.0, "lon": -77.02894616666667, "name": "66b5379ee57d1587097c37d5a408f76b"}, {"bike_id": "79c2b51b7673ac9b7cc4c20b66163c3b", "type": "electric_scooter", "is_disabled": 0, "lat": 38.90469483333333, "rental_uris": {"ios": "https://dc.lft.to/lastmile_qr_scan", "android": "https://dc.lft.to/lastmile_qr_scan"}, "is_reserved": 0, "fusion_lon": 0.0, "fusion_lat": 0.0, "lon": -77.0089315, "name": "79c2b51b7673ac9b7cc4c20b66163c3b"}, {"bike_id": "f08f19ab6f91d6769d39d0180c68be8f", "type": "electric_scooter", "is_disabled": 0, "lat": 38.9080925, "rental_uris": {"ios": "https://dc.lft.to/lastmile_qr_scan", "android": "https://dc.lft.to/lastmile_qr_scan"}, "is_reserved": 0, "fusion_lon": 0.0, "fusion_lat": 0.0, "lon": -77.0344295, "name": "f08f19ab6f91d6769d39d0180c68be8f"}, {"bike_id": "908c2853265b92db9cc19ee7efefef7e", "type": "electric_scooter", "is_disabled": 0, "lat": 38.9140985, "rental_uris": {"ios": "https://dc.lft.to/lastmile_qr_scan", "android": "https://dc.lft.to/lastmile_qr_scan"}, "is_reserved": 0, "fusion_lon": 0.0, "fusion_lat": 0.0, "lon": -77.03030216666667, "name": "908c2853265b92db9cc19ee7efefef7e"}, {"bike_id": "e46a1a676cd6a79125b6324426083253", "type": "electric_scooter", "is_disabled": 0, "lat": 38.92481633333333, "rental_uris": {"ios": "https://dc.lft.to/lastmile_qr_scan", "android": "https://dc.lft.to/lastmile_qr_scan"}, "is_reserved": 0, "fusion_lon": 0.0, "fusion_lat": 0.0, "lon": -77.02764833333333, "name": "e46a1a676cd6a79125b6324426083253"}, {"bike_id": "605e1437fba6790b475c00c85095bc0f", "type": "electric_scooter", "is_disabled": 0, "lat": 38.94290216666667, "rental_uris": {"ios": "https://dc.lft.to/lastmile_qr_scan", "android": "https://dc.lft.to/lastmile_qr_scan"}, "is_reserved": 0, "fusion_lon": 0.0, "fusion_lat": 0.0, "lon": -77.02170416666667, "name": "605e1437fba6790b475c00c85095bc0f"}, {"bike_id": "0b1567cf79b2c361f0bc6e9d921295ae", "type": "electric_bike", "is_disabled": 0, "lat": 38.853540833333334, "rental_uris": {"ios": "https://dc.lft.to/lastmile_qr_scan", "android": "https://dc.lft.to/lastmile_qr_scan"}, "is_reserved": 0, "fusion_lon": 0.0, "fusion_lat": 0.0, "lon": -77.134673, "name": "0b1567cf79b2c361f0bc6e9d921295ae"}, {"bike_id": "d86e1cf9fa2684e909c8c96bb8886984", "type": "electric_scooter", "is_disabled": 0, "lat": 38.91352766666667, "rental_uris": {"ios": "https://dc.lft.to/lastmile_qr_scan", "android": "https://dc.lft.to/lastmile_qr_scan"}, "is_reserved": 0, "fusion_lon": 0.0, "fusion_lat": 0.0, "lon": -77.03206516666667, "name": "d86e1cf9fa2684e909c8c96bb8886984"}, {"bike_id": "4a35003180d9128c1dd90c59a6cabffc", "type": "electric_scooter", "is_disabled": 0, "lat": 38.895959166666664, "rental_uris": {"ios": "https://dc.lft.to/lastmile_qr_scan", "android": "https://dc.lft.to/lastmile_qr_scan"}, "is_reserved": 0, "fusion_lon": 0.0, "fusion_lat": 0.0, "lon": -77.00504333333333, "name": "4a35003180d9128c1dd90c59a6cabffc"}, {"bike_id": "d32bcdaf757156fed69d9807fc3d8d15", "type": "electric_scooter", "is_disabled": 0, "lat": 38.90934766666667, "rental_uris": {"ios": "https://dc.lft.to/lastmile_qr_scan", "android": "https://dc.lft.to/lastmile_qr_scan"}, "is_reserved": 0, "fusion_lon": 0.0, "fusion_lat": 0.0, "lon": -77.0738945, "name": "d32bcdaf757156fed69d9807fc3d8d15"}, {"bike_id": "945b04632101321ff7afa6966a1b024e", "type": "electric_scooter", "is_disabled": 0, "lat": 38.9009125, "rental_uris": {"ios": "https://dc.lft.to/lastmile_qr_scan", "android": "https://dc.lft.to/lastmile_qr_scan"}, "is_reserved": 0, "fusion_lon": 0.0, "fusion_lat": 0.0, "lon": -77.017709, "name": "945b04632101321ff7afa6966a1b024e"}, {"bike_id": "8ec3a53bf26d6eba77f5c1bbe07f82a4", "type": "electric_scooter", "is_disabled": 0, "lat": 38.89682083333334, "rental_uris": {"ios": "https://dc.lft.to/lastmile_qr_scan", "android": "https://dc.lft.to/lastmile_qr_scan"}, "is_reserved": 0, "fusion_lon": 0.0, "fusion_lat": 0.0, "lon": -77.00492433333334, "name": "8ec3a53bf26d6eba77f5c1bbe07f82a4"}, {"bike_id": "5977d5365a44707386667890d8af3d90", "type": "electric_scooter", "is_disabled": 0, "lat": 38.92183383333333, "rental_uris": {"ios": "https://dc.lft.to/lastmile_qr_scan", "android": "https://dc.lft.to/lastmile_qr_scan"}, "is_reserved": 0, "fusion_lon": 0.0, "fusion_lat": 0.0, "lon": -77.0422965, "name": "5977d5365a44707386667890d8af3d90"}, {"bike_id": "98efc844983cec4db92abbda06f538f6", "type": "electric_scooter", "is_disabled": 0, "lat": 38.936800833333336, "rental_uris": {"ios": "https://dc.lft.to/lastmile_qr_scan", "android": "https://dc.lft.to/lastmile_qr_scan"}, "is_reserved": 0, "fusion_lon": 0.0, "fusion_lat": 0.0, "lon": -77.03591333333334, "name": "98efc844983cec4db92abbda06f538f6"}, {"bike_id": "3378baac9819a40fa0565daf487d422d", "type": "electric_scooter", "is_disabled": 0, "lat": 38.90970733333333, "rental_uris": {"ios": "https://dc.lft.to/lastmile_qr_scan", "android": "https://dc.lft.to/lastmile_qr_scan"}, "is_reserved": 0, "fusion_lon": 0.0, "fusion_lat": 0.0, "lon": -77.03865616666667, "name": "3378baac9819a40fa0565daf487d422d"}, {"bike_id": "3623e14f8053bcafa8d52f8cda54781a", "type": "electric_scooter", "is_disabled": 0, "lat": 38.931863666666665, "rental_uris": {"ios": "https://dc.lft.to/lastmile_qr_scan", "android": "https://dc.lft.to/lastmile_qr_scan"}, "is_reserved": 0, "fusion_lon": 0.0, "fusion_lat": 0.0, "lon": -77.02373083333333, "name": "3623e14f8053bcafa8d52f8cda54781a"}, {"bike_id": "b0695afe41026560ec15d8e7b80a4979", "type": "electric_bike", "is_disabled": 0, "lat": 38.87083783333333, "rental_uris": {"ios": "https://dc.lft.to/lastmile_qr_scan", "android": "https://dc.lft.to/lastmile_qr_scan"}, "is_reserved": 0, "fusion_lon": 0.0, "fusion_lat": 0.0, "lon": -76.96436783333333, "name": "b0695afe41026560ec15d8e7b80a4979"}, {"bike_id": "d6fd5f71b6bb4b6482f9b9cfab1df424", "type": "electric_scooter", "is_disabled": 0, "lat": 38.9274925, "rental_uris": {"ios": "https://dc.lft.to/lastmile_qr_scan", "android": "https://dc.lft.to/lastmile_qr_scan"}, "is_reserved": 0, "fusion_lon": 0.0, "fusion_lat": 0.0, "lon": -77.025364, "name": "d6fd5f71b6bb4b6482f9b9cfab1df424"}, {"bike_id": "3edba67a69559587b5e1c11062755280", "type": "electric_scooter", "is_disabled": 0, "lat": 38.911834166666665, "rental_uris": {"ios": "https://dc.lft.to/lastmile_qr_scan", "android": "https://dc.lft.to/lastmile_qr_scan"}, "is_reserved": 0, "fusion_lon": 0.0, "fusion_lat": 0.0, "lon": -77.01116283333333, "name": "3edba67a69559587b5e1c11062755280"}, {"bike_id": "b8d4416e02329bb2a0c501610d41a239", "type": "electric_scooter", "is_disabled": 0, "lat": 38.91250616666667, "rental_uris": {"ios": "https://dc.lft.to/lastmile_qr_scan", "android": "https://dc.lft.to/lastmile_qr_scan"}, "is_reserved": 0, "fusion_lon": 0.0, "fusion_lat": 0.0, "lon": -77.01974583333333, "name": "b8d4416e02329bb2a0c501610d41a239"}, {"bike_id": "25db14d09a521ff078f60766acf64295", "type": "electric_scooter", "is_disabled": 0, "lat": 38.928946833333335, "rental_uris": {"ios": "https://dc.lft.to/lastmile_qr_scan", "android": "https://dc.lft.to/lastmile_qr_scan"}, "is_reserved": 0, "fusion_lon": 0.0, "fusion_lat": 0.0, "lon": -77.0325885, "name": "25db14d09a521ff078f60766acf64295"}, {"bike_id": "680442f0382ef29a66cbf42316673d6d", "type": "electric_scooter", "is_disabled": 0, "lat": 38.94734583333333, "rental_uris": {"ios": "https://dc.lft.to/lastmile_qr_scan", "android": "https://dc.lft.to/lastmile_qr_scan"}, "is_reserved": 0, "fusion_lon": 0.0, "fusion_lat": 0.0, "lon": -77.07866816666667, "name": "680442f0382ef29a66cbf42316673d6d"}, {"bike_id": "83e6111f1e82b3935674265848926252", "type": "electric_scooter", "is_disabled": 0, "lat": 38.915651, "rental_uris": {"ios": "https://dc.lft.to/lastmile_qr_scan", "android": "https://dc.lft.to/lastmile_qr_scan"}, "is_reserved": 0, "fusion_lon": 0.0, "fusion_lat": 0.0, "lon": -77.02019066666666, "name": "83e6111f1e82b3935674265848926252"}, {"bike_id": "a64efebb57ad59b555abca7c5a70b72d", "type": "electric_scooter", "is_disabled": 0, "lat": 38.91561316666667, "rental_uris": {"ios": "https://dc.lft.to/lastmile_qr_scan", "android": "https://dc.lft.to/lastmile_qr_scan"}, "is_reserved": 0, "fusion_lon": 0.0, "fusion_lat": 0.0, "lon": -77.0312095, "name": "a64efebb57ad59b555abca7c5a70b72d"}, {"bike_id": "e066b2e99642df466ed99f84e07711ab", "type": "electric_scooter", "is_disabled": 0, "lat": 38.919859833333334, "rental_uris": {"ios": "https://dc.lft.to/lastmile_qr_scan", "android": "https://dc.lft.to/lastmile_qr_scan"}, "is_reserved": 0, "fusion_lon": 0.0, "fusion_lat": 0.0, "lon": -76.97301883333333, "name": "e066b2e99642df466ed99f84e07711ab"}, {"bike_id": "c2fc51fecedbbe104ab71cd841dd2bf6", "type": "electric_scooter", "is_disabled": 0, "lat": 38.907603333333334, "rental_uris": {"ios": "https://dc.lft.to/lastmile_qr_scan", "android": "https://dc.lft.to/lastmile_qr_scan"}, "is_reserved": 0, "fusion_lon": 0.0, "fusion_lat": 0.0, "lon": -77.0280835, "name": "c2fc51fecedbbe104ab71cd841dd2bf6"}, {"bike_id": "26dfcca265d2b0814787faeec64c78b8", "type": "electric_scooter", "is_disabled": 0, "lat": 38.90414583333333, "rental_uris": {"ios": "https://dc.lft.to/lastmile_qr_scan", "android": "https://dc.lft.to/lastmile_qr_scan"}, "is_reserved": 0, "fusion_lon": 0.0, "fusion_lat": 0.0, "lon": -76.9732905, "name": "26dfcca265d2b0814787faeec64c78b8"}, {"bike_id": "0cae109493e238c2a480b4fd545780ef", "type": "electric_scooter", "is_disabled": 0, "lat": 38.90276166666666, "rental_uris": {"ios": "https://dc.lft.to/lastmile_qr_scan", "android": "https://dc.lft.to/lastmile_qr_scan"}, "is_reserved": 0, "fusion_lon": 0.0, "fusion_lat": 0.0, "lon": -77.00339133333334, "name": "0cae109493e238c2a480b4fd545780ef"}, {"bike_id": "cb42a6d8b06b0cb2de82473042ec9cef", "type": "electric_scooter", "is_disabled": 0, "lat": 38.90937133333333, "rental_uris": {"ios": "https://dc.lft.to/lastmile_qr_scan", "android": "https://dc.lft.to/lastmile_qr_scan"}, "is_reserved": 0, "fusion_lon": 0.0, "fusion_lat": 0.0, "lon": -77.0446955, "name": "cb42a6d8b06b0cb2de82473042ec9cef"}, {"bike_id": "17f61440b4841fc5eb81ae168c72d804", "type": "electric_bike", "is_disabled": 0, "lat": 38.996984833333336, "rental_uris": {"ios": "https://dc.lft.to/lastmile_qr_scan", "android": "https://dc.lft.to/lastmile_qr_scan"}, "is_reserved": 0, "fusion_lon": 0.0, "fusion_lat": 0.0, "lon": -77.03782466666667, "name": "17f61440b4841fc5eb81ae168c72d804"}, {"bike_id": "3891812bb634a7334465047bcc66a8ad", "type": "electric_bike", "is_disabled": 0, "lat": 38.896134, "rental_uris": {"ios": "https://dc.lft.to/lastmile_qr_scan", "android": "https://dc.lft.to/lastmile_qr_scan"}, "is_reserved": 0, "fusion_lon": 0.0, "fusion_lat": 0.0, "lon": -76.9073825, "name": "3891812bb634a7334465047bcc66a8ad"}, {"bike_id": "c14639622a19962db762aee917d34b40", "type": "electric_scooter", "is_disabled": 0, "lat": 38.915069333333335, "rental_uris": {"ios": "https://dc.lft.to/lastmile_qr_scan", "android": "https://dc.lft.to/lastmile_qr_scan"}, "is_reserved": 0, "fusion_lon": 0.0, "fusion_lat": 0.0, "lon": -77.017754, "name": "c14639622a19962db762aee917d34b40"}, {"bike_id": "f9793b3503d08db9209c9822bb8736cd", "type": "electric_scooter", "is_disabled": 0, "lat": 38.9226275, "rental_uris": {"ios": "https://dc.lft.to/lastmile_qr_scan", "android": "https://dc.lft.to/lastmile_qr_scan"}, "is_reserved": 0, "fusion_lon": 0.0, "fusion_lat": 0.0, "lon": -77.03715716666666, "name": "f9793b3503d08db9209c9822bb8736cd"}, {"bike_id": "6ad01aec09f8781c0afbf2b84d3b5a77", "type": "electric_scooter", "is_disabled": 0, "lat": 38.941416, "rental_uris": {"ios": "https://dc.lft.to/lastmile_qr_scan", "android": "https://dc.lft.to/lastmile_qr_scan"}, "is_reserved": 0, "fusion_lon": 0.0, "fusion_lat": 0.0, "lon": -77.0926765, "name": "6ad01aec09f8781c0afbf2b84d3b5a77"}, {"bike_id": "7c69e52f20561e73203b06ba7fdc87f9", "type": "electric_scooter", "is_disabled": 0, "lat": 38.90413183333333, "rental_uris": {"ios": "https://dc.lft.to/lastmile_qr_scan", "android": "https://dc.lft.to/lastmile_qr_scan"}, "is_reserved": 0, "fusion_lon": 0.0, "fusion_lat": 0.0, "lon": -77.068855, "name": "7c69e52f20561e73203b06ba7fdc87f9"}, {"bike_id": "1109700e95560f02d1d6abcefdc168f3", "type": "electric_scooter", "is_disabled": 0, "lat": 38.866574, "rental_uris": {"ios": "https://dc.lft.to/lastmile_qr_scan", "android": "https://dc.lft.to/lastmile_qr_scan"}, "is_reserved": 0, "fusion_lon": 0.0, "fusion_lat": 0.0, "lon": -76.9888455, "name": "1109700e95560f02d1d6abcefdc168f3"}, {"bike_id": "9cd5f9612fa0657684a92f6edef392e7", "type": "electric_scooter", "is_disabled": 0, "lat": 38.926693666666665, "rental_uris": {"ios": "https://dc.lft.to/lastmile_qr_scan", "android": "https://dc.lft.to/lastmile_qr_scan"}, "is_reserved": 0, "fusion_lon": 0.0, "fusion_lat": 0.0, "lon": -77.03197083333333, "name": "9cd5f9612fa0657684a92f6edef392e7"}, {"bike_id": "7a1c98cadacdc43aea51052b6b97f9ac", "type": "electric_scooter", "is_disabled": 0, "lat": 38.917186, "rental_uris": {"ios": "https://dc.lft.to/lastmile_qr_scan", "android": "https://dc.lft.to/lastmile_qr_scan"}, "is_reserved": 0, "fusion_lon": 0.0, "fusion_lat": 0.0, "lon": -77.01207516666666, "name": "7a1c98cadacdc43aea51052b6b97f9ac"}, {"bike_id": "06d472b43a87ee722affc01e593426f1", "type": "electric_scooter", "is_disabled": 0, "lat": 38.89729533333333, "rental_uris": {"ios": "https://dc.lft.to/lastmile_qr_scan", "android": "https://dc.lft.to/lastmile_qr_scan"}, "is_reserved": 0, "fusion_lon": 0.0, "fusion_lat": 0.0, "lon": -77.05474283333334, "name": "06d472b43a87ee722affc01e593426f1"}, {"bike_id": "97fd94cb2e71eb2c4c90897152f9f01c", "type": "electric_bike", "is_disabled": 0, "lat": 38.94470283333333, "rental_uris": {"ios": "https://dc.lft.to/lastmile_qr_scan", "android": "https://dc.lft.to/lastmile_qr_scan"}, "is_reserved": 0, "fusion_lon": 0.0, "fusion_lat": 0.0, "lon": -76.986876, "name": "97fd94cb2e71eb2c4c90897152f9f01c"}, {"bike_id": "76d0c510bf9c6aa0e3b6e6b643572c47", "type": "electric_bike", "is_disabled": 0, "lat": 38.849721333333335, "rental_uris": {"ios": "https://dc.lft.to/lastmile_qr_scan", "android": "https://dc.lft.to/lastmile_qr_scan"}, "is_reserved": 0, "fusion_lon": 0.0, "fusion_lat": 0.0, "lon": -77.07757666666667, "name": "76d0c510bf9c6aa0e3b6e6b643572c47"}, {"bike_id": "7b1a2827bffd0b7afc533aaee54edebe", "type": "electric_scooter", "is_disabled": 0, "lat": 38.90598516666667, "rental_uris": {"ios": "https://dc.lft.to/lastmile_qr_scan", "android": "https://dc.lft.to/lastmile_qr_scan"}, "is_reserved": 0, "fusion_lon": 0.0, "fusion_lat": 0.0, "lon": -77.02708983333333, "name": "7b1a2827bffd0b7afc533aaee54edebe"}, {"bike_id": "09d7d1064b8b90a68384eb0456ae14a8", "type": "electric_scooter", "is_disabled": 0, "lat": 38.91219016666667, "rental_uris": {"ios": "https://dc.lft.to/lastmile_qr_scan", "android": "https://dc.lft.to/lastmile_qr_scan"}, "is_reserved": 0, "fusion_lon": 0.0, "fusion_lat": 0.0, "lon": -76.98794233333334, "name": "09d7d1064b8b90a68384eb0456ae14a8"}, {"bike_id": "ac87697928a3e55d8b35eac2a0db7ea0", "type": "electric_scooter", "is_disabled": 0, "lat": 38.9013645, "rental_uris": {"ios": "https://dc.lft.to/lastmile_qr_scan", "android": "https://dc.lft.to/lastmile_qr_scan"}, "is_reserved": 0, "fusion_lon": 0.0, "fusion_lat": 0.0, "lon": -76.99075383333333, "name": "ac87697928a3e55d8b35eac2a0db7ea0"}, {"bike_id": "7f97117bd49e7eb94d9243549bc30472", "type": "electric_scooter", "is_disabled": 0, "lat": 38.91710066666667, "rental_uris": {"ios": "https://dc.lft.to/lastmile_qr_scan", "android": "https://dc.lft.to/lastmile_qr_scan"}, "is_reserved": 0, "fusion_lon": 0.0, "fusion_lat": 0.0, "lon": -77.02886216666667, "name": "7f97117bd49e7eb94d9243549bc30472"}, {"bike_id": "7f0817b7a80e8d677cb84fc65f29ea4d", "type": "electric_scooter", "is_disabled": 0, "lat": 38.920482666666665, "rental_uris": {"ios": "https://dc.lft.to/lastmile_qr_scan", "android": "https://dc.lft.to/lastmile_qr_scan"}, "is_reserved": 0, "fusion_lon": 0.0, "fusion_lat": 0.0, "lon": -77.023792, "name": "7f0817b7a80e8d677cb84fc65f29ea4d"}, {"bike_id": "edfdd6427c31d12f40de88182f8e77f1", "type": "electric_bike", "is_disabled": 0, "lat": 39.01481716666667, "rental_uris": {"ios": "https://dc.lft.to/lastmile_qr_scan", "android": "https://dc.lft.to/lastmile_qr_scan"}, "is_reserved": 0, "fusion_lon": 0.0, "fusion_lat": 0.0, "lon": -77.05498166666666, "name": "edfdd6427c31d12f40de88182f8e77f1"}, {"bike_id": "bf31b2b3034289b1b1af57cfb619ff34", "type": "electric_scooter", "is_disabled": 0, "lat": 38.90775383333333, "rental_uris": {"ios": "https://dc.lft.to/lastmile_qr_scan", "android": "https://dc.lft.to/lastmile_qr_scan"}, "is_reserved": 0, "fusion_lon": 0.0, "fusion_lat": 0.0, "lon": -77.02719866666666, "name": "bf31b2b3034289b1b1af57cfb619ff34"}, {"bike_id": "b7e4ef8c86d8bda346e9b019b185315a", "type": "electric_scooter", "is_disabled": 0, "lat": 38.9159675, "rental_uris": {"ios": "https://dc.lft.to/lastmile_qr_scan", "android": "https://dc.lft.to/lastmile_qr_scan"}, "is_reserved": 0, "fusion_lon": 0.0, "fusion_lat": 0.0, "lon": -77.00193766666666, "name": "b7e4ef8c86d8bda346e9b019b185315a"}, {"bike_id": "c1de4fc0aae0686b274626f57e13c583", "type": "electric_scooter", "is_disabled": 0, "lat": 38.897849, "rental_uris": {"ios": "https://dc.lft.to/lastmile_qr_scan", "android": "https://dc.lft.to/lastmile_qr_scan"}, "is_reserved": 0, "fusion_lon": 0.0, "fusion_lat": 0.0, "lon": -77.051693, "name": "c1de4fc0aae0686b274626f57e13c583"}, {"bike_id": "e85a02f3ced4aa5153fbff8ddb3e38cb", "type": "electric_scooter", "is_disabled": 0, "lat": 38.919599833333336, "rental_uris": {"ios": "https://dc.lft.to/lastmile_qr_scan", "android": "https://dc.lft.to/lastmile_qr_scan"}, "is_reserved": 0, "fusion_lon": 0.0, "fusion_lat": 0.0, "lon": -77.01439233333333, "name": "e85a02f3ced4aa5153fbff8ddb3e38cb"}, {"bike_id": "768b164b1747733c604a3b4f706906ba", "type": "electric_scooter", "is_disabled": 0, "lat": 38.8984465, "rental_uris": {"ios": "https://dc.lft.to/lastmile_qr_scan", "android": "https://dc.lft.to/lastmile_qr_scan"}, "is_reserved": 0, "fusion_lon": 0.0, "fusion_lat": 0.0, "lon": -76.946338, "name": "768b164b1747733c604a3b4f706906ba"}, {"bike_id": "96f19a83b91278accb90d90afe3ab6fc", "type": "electric_scooter", "is_disabled": 0, "lat": 38.97678616666666, "rental_uris": {"ios": "https://dc.lft.to/lastmile_qr_scan", "android": "https://dc.lft.to/lastmile_qr_scan"}, "is_reserved": 0, "fusion_lon": 0.0, "fusion_lat": 0.0, "lon": -77.01659516666666, "name": "96f19a83b91278accb90d90afe3ab6fc"}, {"bike_id": "193a384443dd5597c9cd88c2fd69d495", "type": "electric_scooter", "is_disabled": 0, "lat": 38.924503, "rental_uris": {"ios": "https://dc.lft.to/lastmile_qr_scan", "android": "https://dc.lft.to/lastmile_qr_scan"}, "is_reserved": 0, "fusion_lon": 0.0, "fusion_lat": 0.0, "lon": -77.03342, "name": "193a384443dd5597c9cd88c2fd69d495"}, {"bike_id": "46c7088d223120110d15314ce207f31f", "type": "electric_scooter", "is_disabled": 0, "lat": 38.898840166666666, "rental_uris": {"ios": "https://dc.lft.to/lastmile_qr_scan", "android": "https://dc.lft.to/lastmile_qr_scan"}, "is_reserved": 0, "fusion_lon": 0.0, "fusion_lat": 0.0, "lon": -76.93175966666666, "name": "46c7088d223120110d15314ce207f31f"}, {"bike_id": "f913c2c252d1a8f3e67909bc2820c6ce", "type": "electric_scooter", "is_disabled": 0, "lat": 38.92328066666666, "rental_uris": {"ios": "https://dc.lft.to/lastmile_qr_scan", "android": "https://dc.lft.to/lastmile_qr_scan"}, "is_reserved": 0, "fusion_lon": 0.0, "fusion_lat": 0.0, "lon": -77.05419183333333, "name": "f913c2c252d1a8f3e67909bc2820c6ce"}, {"bike_id": "5257eb50f68e2a4c1762dc148a95b6da", "type": "electric_scooter", "is_disabled": 0, "lat": 38.92237216666667, "rental_uris": {"ios": "https://dc.lft.to/lastmile_qr_scan", "android": "https://dc.lft.to/lastmile_qr_scan"}, "is_reserved": 0, "fusion_lon": 0.0, "fusion_lat": 0.0, "lon": -76.973436, "name": "5257eb50f68e2a4c1762dc148a95b6da"}, {"bike_id": "2b131f229add01361a368f8663d93f94", "type": "electric_bike", "is_disabled": 0, "lat": 38.815128666666666, "rental_uris": {"ios": "https://dc.lft.to/lastmile_qr_scan", "android": "https://dc.lft.to/lastmile_qr_scan"}, "is_reserved": 0, "fusion_lon": 0.0, "fusion_lat": 0.0, "lon": -77.1265925, "name": "2b131f229add01361a368f8663d93f94"}, {"bike_id": "7b1fcf3bf20ef56914a6ced352737029", "type": "electric_bike", "is_disabled": 0, "lat": 38.7961005, "rental_uris": {"ios": "https://dc.lft.to/lastmile_qr_scan", "android": "https://dc.lft.to/lastmile_qr_scan"}, "is_reserved": 0, "fusion_lon": 0.0, "fusion_lat": 0.0, "lon": -76.99743716666667, "name": "7b1fcf3bf20ef56914a6ced352737029"}, {"bike_id": "d7e34a7c68283ea0a9b757608528a93b", "type": "electric_scooter", "is_disabled": 0, "lat": 38.90479666666667, "rental_uris": {"ios": "https://dc.lft.to/lastmile_qr_scan", "android": "https://dc.lft.to/lastmile_qr_scan"}, "is_reserved": 0, "fusion_lon": 0.0, "fusion_lat": 0.0, "lon": -77.06107133333333, "name": "d7e34a7c68283ea0a9b757608528a93b"}, {"bike_id": "6340c79b160ebcd08739b2e7a999165f", "type": "electric_scooter", "is_disabled": 0, "lat": 38.897438, "rental_uris": {"ios": "https://dc.lft.to/lastmile_qr_scan", "android": "https://dc.lft.to/lastmile_qr_scan"}, "is_reserved": 0, "fusion_lon": 0.0, "fusion_lat": 0.0, "lon": -76.99382866666667, "name": "6340c79b160ebcd08739b2e7a999165f"}, {"bike_id": "5f966dd0b513c64aba2757b934404127", "type": "electric_scooter", "is_disabled": 0, "lat": 38.902598166666664, "rental_uris": {"ios": "https://dc.lft.to/lastmile_qr_scan", "android": "https://dc.lft.to/lastmile_qr_scan"}, "is_reserved": 0, "fusion_lon": 0.0, "fusion_lat": 0.0, "lon": -77.03382833333333, "name": "5f966dd0b513c64aba2757b934404127"}, {"bike_id": "eb6cd4993f5d4747774424ca49cf4030", "type": "electric_scooter", "is_disabled": 0, "lat": 38.915055333333335, "rental_uris": {"ios": "https://dc.lft.to/lastmile_qr_scan", "android": "https://dc.lft.to/lastmile_qr_scan"}, "is_reserved": 0, "fusion_lon": 0.0, "fusion_lat": 0.0, "lon": -77.0177565, "name": "eb6cd4993f5d4747774424ca49cf4030"}, {"bike_id": "7653ad320e71a198be3601eb890d71cc", "type": "electric_scooter", "is_disabled": 0, "lat": 38.9565565, "rental_uris": {"ios": "https://dc.lft.to/lastmile_qr_scan", "android": "https://dc.lft.to/lastmile_qr_scan"}, "is_reserved": 0, "fusion_lon": 0.0, "fusion_lat": 0.0, "lon": -77.01004233333333, "name": "7653ad320e71a198be3601eb890d71cc"}, {"bike_id": "cf1218c4c4a776f4946d52a43fdcbfee", "type": "electric_scooter", "is_disabled": 0, "lat": 38.88699533333333, "rental_uris": {"ios": "https://dc.lft.to/lastmile_qr_scan", "android": "https://dc.lft.to/lastmile_qr_scan"}, "is_reserved": 0, "fusion_lon": 0.0, "fusion_lat": 0.0, "lon": -76.99614666666666, "name": "cf1218c4c4a776f4946d52a43fdcbfee"}, {"bike_id": "f82cbfe19e8a53742a31c2ae3f9a3b3b", "type": "electric_scooter", "is_disabled": 0, "lat": 38.9324215, "rental_uris": {"ios": "https://dc.lft.to/lastmile_qr_scan", "android": "https://dc.lft.to/lastmile_qr_scan"}, "is_reserved": 0, "fusion_lon": 0.0, "fusion_lat": 0.0, "lon": -77.03898366666667, "name": "f82cbfe19e8a53742a31c2ae3f9a3b3b"}, {"bike_id": "a6e66a83b4b2028d13ffbef08ac2dd01", "type": "electric_scooter", "is_disabled": 0, "lat": 38.95636866666667, "rental_uris": {"ios": "https://dc.lft.to/lastmile_qr_scan", "android": "https://dc.lft.to/lastmile_qr_scan"}, "is_reserved": 0, "fusion_lon": 0.0, "fusion_lat": 0.0, "lon": -77.01163333333334, "name": "a6e66a83b4b2028d13ffbef08ac2dd01"}, {"bike_id": "dec9641bea3f0562b98c798a3e3e8c52", "type": "electric_scooter", "is_disabled": 0, "lat": 38.88652966666667, "rental_uris": {"ios": "https://dc.lft.to/lastmile_qr_scan", "android": "https://dc.lft.to/lastmile_qr_scan"}, "is_reserved": 0, "fusion_lon": 0.0, "fusion_lat": 0.0, "lon": -77.001166, "name": "dec9641bea3f0562b98c798a3e3e8c52"}, {"bike_id": "f174dfa09c1eec15ae1a687c2f4f0b07", "type": "electric_scooter", "is_disabled": 0, "lat": 38.924439166666666, "rental_uris": {"ios": "https://dc.lft.to/lastmile_qr_scan", "android": "https://dc.lft.to/lastmile_qr_scan"}, "is_reserved": 0, "fusion_lon": 0.0, "fusion_lat": 0.0, "lon": -77.04241, "name": "f174dfa09c1eec15ae1a687c2f4f0b07"}, {"bike_id": "4e0fb908c491263968a1c8eba6eb0f9c", "type": "electric_scooter", "is_disabled": 0, "lat": 38.8874115, "rental_uris": {"ios": "https://dc.lft.to/lastmile_qr_scan", "android": "https://dc.lft.to/lastmile_qr_scan"}, "is_reserved": 0, "fusion_lon": 0.0, "fusion_lat": 0.0, "lon": -77.0153255, "name": "4e0fb908c491263968a1c8eba6eb0f9c"}, {"bike_id": "22b6ca3d94a5ece9e434c7e5dad8a7d0", "type": "electric_bike", "is_disabled": 0, "lat": 38.813308, "rental_uris": {"ios": "https://dc.lft.to/lastmile_qr_scan", "android": "https://dc.lft.to/lastmile_qr_scan"}, "is_reserved": 0, "fusion_lon": 0.0, "fusion_lat": 0.0, "lon": -77.05085766666667, "name": "22b6ca3d94a5ece9e434c7e5dad8a7d0"}, {"bike_id": "820a50aa96da06c7e9c0f6bf56f8b1cb", "type": "electric_scooter", "is_disabled": 0, "lat": 38.9079495, "rental_uris": {"ios": "https://dc.lft.to/lastmile_qr_scan", "android": "https://dc.lft.to/lastmile_qr_scan"}, "is_reserved": 0, "fusion_lon": 0.0, "fusion_lat": 0.0, "lon": -77.03862866666667, "name": "820a50aa96da06c7e9c0f6bf56f8b1cb"}, {"bike_id": "5024c06e41de7572e26bd4038d1f0e42", "type": "electric_bike", "is_disabled": 0, "lat": 38.87471083333333, "rental_uris": {"ios": "https://dc.lft.to/lastmile_qr_scan", "android": "https://dc.lft.to/lastmile_qr_scan"}, "is_reserved": 0, "fusion_lon": 0.0, "fusion_lat": 0.0, "lon": -76.96529216666667, "name": "5024c06e41de7572e26bd4038d1f0e42"}, {"bike_id": "e512e3c940ef062ebe21ca7619029392", "type": "electric_scooter", "is_disabled": 0, "lat": 38.922379666666664, "rental_uris": {"ios": "https://dc.lft.to/lastmile_qr_scan", "android": "https://dc.lft.to/lastmile_qr_scan"}, "is_reserved": 0, "fusion_lon": 0.0, "fusion_lat": 0.0, "lon": -77.03515216666666, "name": "e512e3c940ef062ebe21ca7619029392"}, {"bike_id": "548115a4f0b6c8119b8e7e4fae172b79", "type": "electric_scooter", "is_disabled": 0, "lat": 38.915484666666664, "rental_uris": {"ios": "https://dc.lft.to/lastmile_qr_scan", "android": "https://dc.lft.to/lastmile_qr_scan"}, "is_reserved": 0, "fusion_lon": 0.0, "fusion_lat": 0.0, "lon": -77.04008483333334, "name": "548115a4f0b6c8119b8e7e4fae172b79"}, {"bike_id": "ce2e1779212e189296e50ef1d0a2b68f", "type": "electric_scooter", "is_disabled": 0, "lat": 38.901624166666664, "rental_uris": {"ios": "https://dc.lft.to/lastmile_qr_scan", "android": "https://dc.lft.to/lastmile_qr_scan"}, "is_reserved": 0, "fusion_lon": 0.0, "fusion_lat": 0.0, "lon": -76.930232, "name": "ce2e1779212e189296e50ef1d0a2b68f"}, {"bike_id": "f8af0f702121f8143133161b23dcf88f", "type": "electric_scooter", "is_disabled": 0, "lat": 38.916161833333334, "rental_uris": {"ios": "https://dc.lft.to/lastmile_qr_scan", "android": "https://dc.lft.to/lastmile_qr_scan"}, "is_reserved": 0, "fusion_lon": 0.0, "fusion_lat": 0.0, "lon": -77.021683, "name": "f8af0f702121f8143133161b23dcf88f"}, {"bike_id": "7ac3f959674c55830a5bacc0db9c5821", "type": "electric_scooter", "is_disabled": 0, "lat": 38.911162166666664, "rental_uris": {"ios": "https://dc.lft.to/lastmile_qr_scan", "android": "https://dc.lft.to/lastmile_qr_scan"}, "is_reserved": 0, "fusion_lon": 0.0, "fusion_lat": 0.0, "lon": -77.03834533333334, "name": "7ac3f959674c55830a5bacc0db9c5821"}, {"bike_id": "70df5e44f2302ce9edc2ccd4d12dd3d4", "type": "electric_scooter", "is_disabled": 0, "lat": 38.901439, "rental_uris": {"ios": "https://dc.lft.to/lastmile_qr_scan", "android": "https://dc.lft.to/lastmile_qr_scan"}, "is_reserved": 0, "fusion_lon": 0.0, "fusion_lat": 0.0, "lon": -76.93086216666667, "name": "70df5e44f2302ce9edc2ccd4d12dd3d4"}, {"bike_id": "97ee19b0c7e63172c7d847f63d516baf", "type": "electric_scooter", "is_disabled": 0, "lat": 38.90628566666667, "rental_uris": {"ios": "https://dc.lft.to/lastmile_qr_scan", "android": "https://dc.lft.to/lastmile_qr_scan"}, "is_reserved": 0, "fusion_lon": 0.0, "fusion_lat": 0.0, "lon": -77.04126583333333, "name": "97ee19b0c7e63172c7d847f63d516baf"}, {"bike_id": "71f0de19d2b77b6f7b2e13974221e790", "type": "electric_scooter", "is_disabled": 0, "lat": 38.89916683333333, "rental_uris": {"ios": "https://dc.lft.to/lastmile_qr_scan", "android": "https://dc.lft.to/lastmile_qr_scan"}, "is_reserved": 0, "fusion_lon": 0.0, "fusion_lat": 0.0, "lon": -76.933688, "name": "71f0de19d2b77b6f7b2e13974221e790"}, {"bike_id": "e930ba8c6c6661fa9e3b20b15bbfea77", "type": "electric_scooter", "is_disabled": 0, "lat": 38.930319833333336, "rental_uris": {"ios": "https://dc.lft.to/lastmile_qr_scan", "android": "https://dc.lft.to/lastmile_qr_scan"}, "is_reserved": 0, "fusion_lon": 0.0, "fusion_lat": 0.0, "lon": -77.03301016666667, "name": "e930ba8c6c6661fa9e3b20b15bbfea77"}, {"bike_id": "24a6a4ac8d29427ba90c922c125d6883", "type": "electric_scooter", "is_disabled": 0, "lat": 38.93468566666667, "rental_uris": {"ios": "https://dc.lft.to/lastmile_qr_scan", "android": "https://dc.lft.to/lastmile_qr_scan"}, "is_reserved": 0, "fusion_lon": 0.0, "fusion_lat": 0.0, "lon": -77.022454, "name": "24a6a4ac8d29427ba90c922c125d6883"}, {"bike_id": "2cd67edf6e1a60df2857cbc09deaf4c0", "type": "electric_scooter", "is_disabled": 0, "lat": 38.925914, "rental_uris": {"ios": "https://dc.lft.to/lastmile_qr_scan", "android": "https://dc.lft.to/lastmile_qr_scan"}, "is_reserved": 0, "fusion_lon": 0.0, "fusion_lat": 0.0, "lon": -77.03735916666666, "name": "2cd67edf6e1a60df2857cbc09deaf4c0"}, {"bike_id": "b58e804cfd5d61922a94c8007a17d14e", "type": "electric_scooter", "is_disabled": 0, "lat": 38.904096, "rental_uris": {"ios": "https://dc.lft.to/lastmile_qr_scan", "android": "https://dc.lft.to/lastmile_qr_scan"}, "is_reserved": 0, "fusion_lon": 0.0, "fusion_lat": 0.0, "lon": -76.97332216666666, "name": "b58e804cfd5d61922a94c8007a17d14e"}, {"bike_id": "13e9c93b4c0b6cebf9c16b8c0fcb6608", "type": "electric_scooter", "is_disabled": 0, "lat": 38.90826766666667, "rental_uris": {"ios": "https://dc.lft.to/lastmile_qr_scan", "android": "https://dc.lft.to/lastmile_qr_scan"}, "is_reserved": 0, "fusion_lon": 0.0, "fusion_lat": 0.0, "lon": -77.04353883333333, "name": "13e9c93b4c0b6cebf9c16b8c0fcb6608"}, {"bike_id": "7dac3db96853211ce3f209d56552abe2", "type": "electric_scooter", "is_disabled": 0, "lat": 38.897421, "rental_uris": {"ios": "https://dc.lft.to/lastmile_qr_scan", "android": "https://dc.lft.to/lastmile_qr_scan"}, "is_reserved": 0, "fusion_lon": 0.0, "fusion_lat": 0.0, "lon": -77.04533133333334, "name": "7dac3db96853211ce3f209d56552abe2"}, {"bike_id": "656ce176092063444f5fbccbde2d83a4", "type": "electric_scooter", "is_disabled": 0, "lat": 38.90961983333333, "rental_uris": {"ios": "https://dc.lft.to/lastmile_qr_scan", "android": "https://dc.lft.to/lastmile_qr_scan"}, "is_reserved": 0, "fusion_lon": 0.0, "fusion_lat": 0.0, "lon": -77.03230333333333, "name": "656ce176092063444f5fbccbde2d83a4"}, {"bike_id": "ffa1e190b92f85d01fa91669b382f133", "type": "electric_scooter", "is_disabled": 0, "lat": 38.923844833333334, "rental_uris": {"ios": "https://dc.lft.to/lastmile_qr_scan", "android": "https://dc.lft.to/lastmile_qr_scan"}, "is_reserved": 0, "fusion_lon": 0.0, "fusion_lat": 0.0, "lon": -77.0313525, "name": "ffa1e190b92f85d01fa91669b382f133"}, {"bike_id": "b1e05594b6d933a1c060d96b34ec9677", "type": "electric_scooter", "is_disabled": 0, "lat": 38.920146, "rental_uris": {"ios": "https://dc.lft.to/lastmile_qr_scan", "android": "https://dc.lft.to/lastmile_qr_scan"}, "is_reserved": 0, "fusion_lon": 0.0, "fusion_lat": 0.0, "lon": -77.01317266666666, "name": "b1e05594b6d933a1c060d96b34ec9677"}, {"bike_id": "20ff04efd5fdf3f088418ace184114a2", "type": "electric_scooter", "is_disabled": 0, "lat": 38.918184833333335, "rental_uris": {"ios": "https://dc.lft.to/lastmile_qr_scan", "android": "https://dc.lft.to/lastmile_qr_scan"}, "is_reserved": 0, "fusion_lon": 0.0, "fusion_lat": 0.0, "lon": -77.02476, "name": "20ff04efd5fdf3f088418ace184114a2"}, {"bike_id": "007fa978667626dc5b625b48c4e90c24", "type": "electric_scooter", "is_disabled": 0, "lat": 38.942166, "rental_uris": {"ios": "https://dc.lft.to/lastmile_qr_scan", "android": "https://dc.lft.to/lastmile_qr_scan"}, "is_reserved": 0, "fusion_lon": 0.0, "fusion_lat": 0.0, "lon": -77.02589033333334, "name": "007fa978667626dc5b625b48c4e90c24"}, {"bike_id": "cf475bc50ecfb94eee21156c7cba3803", "type": "electric_scooter", "is_disabled": 0, "lat": 38.913313333333335, "rental_uris": {"ios": "https://dc.lft.to/lastmile_qr_scan", "android": "https://dc.lft.to/lastmile_qr_scan"}, "is_reserved": 0, "fusion_lon": 0.0, "fusion_lat": 0.0, "lon": -77.02692116666667, "name": "cf475bc50ecfb94eee21156c7cba3803"}, {"bike_id": "2238ecea73db8eed95931e88653fcd86", "type": "electric_scooter", "is_disabled": 0, "lat": 38.936409833333336, "rental_uris": {"ios": "https://dc.lft.to/lastmile_qr_scan", "android": "https://dc.lft.to/lastmile_qr_scan"}, "is_reserved": 0, "fusion_lon": 0.0, "fusion_lat": 0.0, "lon": -77.05884733333333, "name": "2238ecea73db8eed95931e88653fcd86"}, {"bike_id": "99807fbc10b357b3f3ed223838867781", "type": "electric_scooter", "is_disabled": 0, "lat": 38.91929066666667, "rental_uris": {"ios": "https://dc.lft.to/lastmile_qr_scan", "android": "https://dc.lft.to/lastmile_qr_scan"}, "is_reserved": 0, "fusion_lon": 0.0, "fusion_lat": 0.0, "lon": -77.025754, "name": "99807fbc10b357b3f3ed223838867781"}, {"bike_id": "1d3d51efc0246ed045a81aac8975b8be", "type": "electric_scooter", "is_disabled": 0, "lat": 38.91628216666667, "rental_uris": {"ios": "https://dc.lft.to/lastmile_qr_scan", "android": "https://dc.lft.to/lastmile_qr_scan"}, "is_reserved": 0, "fusion_lon": 0.0, "fusion_lat": 0.0, "lon": -77.030417, "name": "1d3d51efc0246ed045a81aac8975b8be"}, {"bike_id": "c426e24c0f5f6487aa8a3c99565c6280", "type": "electric_scooter", "is_disabled": 0, "lat": 38.92382083333333, "rental_uris": {"ios": "https://dc.lft.to/lastmile_qr_scan", "android": "https://dc.lft.to/lastmile_qr_scan"}, "is_reserved": 0, "fusion_lon": 0.0, "fusion_lat": 0.0, "lon": -77.030951, "name": "c426e24c0f5f6487aa8a3c99565c6280"}, {"bike_id": "a6797bb6f11b757fb0a828668526877f", "type": "electric_scooter", "is_disabled": 0, "lat": 38.9313355, "rental_uris": {"ios": "https://dc.lft.to/lastmile_qr_scan", "android": "https://dc.lft.to/lastmile_qr_scan"}, "is_reserved": 0, "fusion_lon": 0.0, "fusion_lat": 0.0, "lon": -77.043464, "name": "a6797bb6f11b757fb0a828668526877f"}, {"bike_id": "dc632d970536f43bc883709d5bdc494b", "type": "electric_scooter", "is_disabled": 0, "lat": 38.923483, "rental_uris": {"ios": "https://dc.lft.to/lastmile_qr_scan", "android": "https://dc.lft.to/lastmile_qr_scan"}, "is_reserved": 0, "fusion_lon": 0.0, "fusion_lat": 0.0, "lon": -77.05096016666667, "name": "dc632d970536f43bc883709d5bdc494b"}, {"bike_id": "b6000fd330fea0bbd68cbd9243b3f232", "type": "electric_scooter", "is_disabled": 0, "lat": 38.867196, "rental_uris": {"ios": "https://dc.lft.to/lastmile_qr_scan", "android": "https://dc.lft.to/lastmile_qr_scan"}, "is_reserved": 0, "fusion_lon": 0.0, "fusion_lat": 0.0, "lon": -77.0101375, "name": "b6000fd330fea0bbd68cbd9243b3f232"}, {"bike_id": "cb5044143365a15e2a732f76ddb7f286", "type": "electric_scooter", "is_disabled": 0, "lat": 38.931896, "rental_uris": {"ios": "https://dc.lft.to/lastmile_qr_scan", "android": "https://dc.lft.to/lastmile_qr_scan"}, "is_reserved": 0, "fusion_lon": 0.0, "fusion_lat": 0.0, "lon": -77.02025133333333, "name": "cb5044143365a15e2a732f76ddb7f286"}, {"bike_id": "e73d06b1c035461a524533a54c86b7fe", "type": "electric_scooter", "is_disabled": 0, "lat": 38.916241, "rental_uris": {"ios": "https://dc.lft.to/lastmile_qr_scan", "android": "https://dc.lft.to/lastmile_qr_scan"}, "is_reserved": 0, "fusion_lon": 0.0, "fusion_lat": 0.0, "lon": -77.03958033333333, "name": "e73d06b1c035461a524533a54c86b7fe"}, {"bike_id": "f357b521b83768ce63226680384e402a", "type": "electric_scooter", "is_disabled": 0, "lat": 38.90146, "rental_uris": {"ios": "https://dc.lft.to/lastmile_qr_scan", "android": "https://dc.lft.to/lastmile_qr_scan"}, "is_reserved": 0, "fusion_lon": 0.0, "fusion_lat": 0.0, "lon": -77.01619416666666, "name": "f357b521b83768ce63226680384e402a"}, {"bike_id": "dcfdc66e0e5e15662b15ae11f566174d", "type": "electric_scooter", "is_disabled": 0, "lat": 38.91485933333333, "rental_uris": {"ios": "https://dc.lft.to/lastmile_qr_scan", "android": "https://dc.lft.to/lastmile_qr_scan"}, "is_reserved": 0, "fusion_lon": 0.0, "fusion_lat": 0.0, "lon": -76.98577766666666, "name": "dcfdc66e0e5e15662b15ae11f566174d"}, {"bike_id": "1fcaa5bdf577c725c400f5d883b194c7", "type": "electric_scooter", "is_disabled": 0, "lat": 38.90471616666667, "rental_uris": {"ios": "https://dc.lft.to/lastmile_qr_scan", "android": "https://dc.lft.to/lastmile_qr_scan"}, "is_reserved": 0, "fusion_lon": 0.0, "fusion_lat": 0.0, "lon": -77.0072185, "name": "1fcaa5bdf577c725c400f5d883b194c7"}, {"bike_id": "b348d9ef65771cc8ef525fa4c09745db", "type": "electric_scooter", "is_disabled": 0, "lat": 38.922496333333335, "rental_uris": {"ios": "https://dc.lft.to/lastmile_qr_scan", "android": "https://dc.lft.to/lastmile_qr_scan"}, "is_reserved": 0, "fusion_lon": 0.0, "fusion_lat": 0.0, "lon": -77.02839866666666, "name": "b348d9ef65771cc8ef525fa4c09745db"}, {"bike_id": "1c670f86e472f3833866b3243c7c0ae4", "type": "electric_scooter", "is_disabled": 0, "lat": 38.90258216666667, "rental_uris": {"ios": "https://dc.lft.to/lastmile_qr_scan", "android": "https://dc.lft.to/lastmile_qr_scan"}, "is_reserved": 0, "fusion_lon": 0.0, "fusion_lat": 0.0, "lon": -76.986685, "name": "1c670f86e472f3833866b3243c7c0ae4"}, {"bike_id": "211c98e35433eaa2b968eb63b083f031", "type": "electric_scooter", "is_disabled": 0, "lat": 38.921541, "rental_uris": {"ios": "https://dc.lft.to/lastmile_qr_scan", "android": "https://dc.lft.to/lastmile_qr_scan"}, "is_reserved": 0, "fusion_lon": 0.0, "fusion_lat": 0.0, "lon": -77.03317583333333, "name": "211c98e35433eaa2b968eb63b083f031"}, {"bike_id": "84638c74869c10d4e129609daaf83131", "type": "electric_scooter", "is_disabled": 0, "lat": 38.91567716666667, "rental_uris": {"ios": "https://dc.lft.to/lastmile_qr_scan", "android": "https://dc.lft.to/lastmile_qr_scan"}, "is_reserved": 0, "fusion_lon": 0.0, "fusion_lat": 0.0, "lon": -77.02016566666667, "name": "84638c74869c10d4e129609daaf83131"}, {"bike_id": "b02139cd8e764e73528dc435ad8d9ffe", "type": "electric_scooter", "is_disabled": 0, "lat": 38.89672633333333, "rental_uris": {"ios": "https://dc.lft.to/lastmile_qr_scan", "android": "https://dc.lft.to/lastmile_qr_scan"}, "is_reserved": 0, "fusion_lon": 0.0, "fusion_lat": 0.0, "lon": -77.02392233333333, "name": "b02139cd8e764e73528dc435ad8d9ffe"}, {"bike_id": "844a13a403cc3bc99e004fba32e4bced", "type": "electric_scooter", "is_disabled": 0, "lat": 38.900516833333334, "rental_uris": {"ios": "https://dc.lft.to/lastmile_qr_scan", "android": "https://dc.lft.to/lastmile_qr_scan"}, "is_reserved": 0, "fusion_lon": 0.0, "fusion_lat": 0.0, "lon": -77.01069716666667, "name": "844a13a403cc3bc99e004fba32e4bced"}, {"bike_id": "96f336ed58ee5b71647cdd8bd794d32c", "type": "electric_scooter", "is_disabled": 0, "lat": 38.88583216666667, "rental_uris": {"ios": "https://dc.lft.to/lastmile_qr_scan", "android": "https://dc.lft.to/lastmile_qr_scan"}, "is_reserved": 0, "fusion_lon": 0.0, "fusion_lat": 0.0, "lon": -77.02840633333334, "name": "96f336ed58ee5b71647cdd8bd794d32c"}, {"bike_id": "1e4536fda771b48271668522d5433a16", "type": "electric_scooter", "is_disabled": 0, "lat": 38.838316166666665, "rental_uris": {"ios": "https://dc.lft.to/lastmile_qr_scan", "android": "https://dc.lft.to/lastmile_qr_scan"}, "is_reserved": 0, "fusion_lon": 0.0, "fusion_lat": 0.0, "lon": -77.00265083333333, "name": "1e4536fda771b48271668522d5433a16"},