{"data": {"bikes": [{"bike_id": "e63e4c4a665be17b3d95d60aee5a23e0", "is_reserved": 0, "fusion_lon": 0.0, "lat": 38.896331333333336, "is_disabled": 0, "name": "e63e4c4a665be17b3d95d60aee5a23e0", "fusion_lat": 0.0, "rental_uris": {"ios": "https://dc.lft.to/lastmile_qr_scan", "android": "https://dc.lft.to/lastmile_qr_scan"}, "lon": -77.00897133333333, "type": "electric_scooter"}, {"bike_id": "22c428fba9b07cc06ee2bd0ba7df2854", "is_reserved": 0, "fusion_lon": 0.0, "lat": 38.867255666666665, "is_disabled": 0, "name": "22c428fba9b07cc06ee2bd0ba7df2854", "fusion_lat": 0.0, "rental_uris": {"ios": "https://dc.lft.to/lastmile_qr_scan", "android": "https://dc.lft.to/lastmile_qr_scan"}, "lon": -76.98785016666666, "type": "electric_scooter"}, {"bike_id": "499a115999f25834b375633bb4e4eee2", "is_reserved": 0, "fusion_lon": 0.0, "lat": 38.956399166666664, "is_disabled": 0, "name": "499a115999f25834b375633bb4e4eee2", "fusion_lat": 0.0, "rental_uris": {"ios": "https://dc.lft.to/lastmile_qr_scan", "android": "https://dc.lft.to/lastmile_qr_scan"}, "lon": -76.93888616666666, "type": "electric_bike"}, {"bike_id": "b3a74fbe05539955335b1c9c4dc21ccd", "is_reserved": 0, "fusion_lon": 0.0, "lat": 38.9344745, "is_disabled": 0, "name": "b3a74fbe05539955335b1c9c4dc21ccd", "fusion_lat": 0.0, "rental_uris": {"ios": "https://dc.lft.to/lastmile_qr_scan", "android": "https://dc.lft.to/lastmile_qr_scan"}, "lon": -77.0284625, "type": "electric_scooter"}, {"bike_id": "a5e5f762628206e27d5a36d5ac6f37de", "is_reserved": 0, "fusion_lon": 0.0, "lat": 38.91846666666667, "is_disabled": 0, "name": "a5e5f762628206e27d5a36d5ac6f37de", "fusion_lat": 0.0, "rental_uris": {"ios": "https://dc.lft.to/lastmile_qr_scan", "android": "https://dc.lft.to/lastmile_qr_scan"}, "lon": -77.03896616666667, "type": "electric_scooter"}, {"bike_id": "01004372e9b584ec3c1119cd53f08356", "is_reserved": 0, "fusion_lon": 0.0, "lat": 38.89770133333333, "is_disabled": 0, "name": "01004372e9b584ec3c1119cd53f08356", "fusion_lat": 0.0, "rental_uris": {"ios": "https://dc.lft.to/lastmile_qr_scan", "android": "https://dc.lft.to/lastmile_qr_scan"}, "lon": -77.026902, "type": "electric_scooter"}, {"bike_id": "472af69eac3fc1d621ba49db631f86fe", "is_reserved": 0, "fusion_lon": 0.0, "lat": 38.885069666666666, "is_disabled": 0, "name": "472af69eac3fc1d621ba49db631f86fe", "fusion_lat": 0.0, "rental_uris": {"ios": "https://dc.lft.to/lastmile_qr_scan", "android": "https://dc.lft.to/lastmile_qr_scan"}, "lon": -77.00566516666666, "type": "electric_scooter"}, {"bike_id": "4062e5eb3e655a13f658b9fbd14ca4a1", "is_reserved": 0, "fusion_lon": 0.0, "lat": 38.90961733333333, "is_disabled": 0, "name": "4062e5eb3e655a13f658b9fbd14ca4a1", "fusion_lat": 0.0, "rental_uris": {"ios": "https://dc.lft.to/lastmile_qr_scan", "android": "https://dc.lft.to/lastmile_qr_scan"}, "lon": -77.0445845, "type": "electric_scooter"}, {"bike_id": "74b5f8ead04c399727d3638b8a252878", "is_reserved": 0, "fusion_lon": 0.0, "lat": 38.917228, "is_disabled": 0, "name": "74b5f8ead04c399727d3638b8a252878", "fusion_lat": 0.0, "rental_uris": {"ios": "https://dc.lft.to/lastmile_qr_scan", "android": "https://dc.lft.to/lastmile_qr_scan"}, "lon": -77.02300316666667, "type": "electric_scooter"}, {"bike_id": "56025204412245231ad0f5b249900ed4", "is_reserved": 0, "fusion_lon": 0.0, "lat": 38.9283775, "is_disabled": 0, "name": "56025204412245231ad0f5b249900ed4", "fusion_lat": 0.0, "rental_uris": {"ios": "https://dc.lft.to/lastmile_qr_scan", "android": "https://dc.lft.to/lastmile_qr_scan"}, "lon": -77.055118, "type": "electric_scooter"}, {"bike_id": "210a9cafa22eb41f04c3239b1b7b7dd9", "is_reserved": 0, "fusion_lon": 0.0, "lat": 38.871783666666666, "is_disabled": 0, "name": "210a9cafa22eb41f04c3239b1b7b7dd9", "fusion_lat": 0.0, "rental_uris": {"ios": "https://dc.lft.to/lastmile_qr_scan", "android": "https://dc.lft.to/lastmile_qr_scan"}, "lon": -77.00624983333333, "type": "electric_scooter"}, {"bike_id": "5ce08be71cacc9fcae91e12c802da029", "is_reserved": 0, "fusion_lon": 0.0, "lat": 38.89537333333333, "is_disabled": 0, "name": "5ce08be71cacc9fcae91e12c802da029", "fusion_lat": 0.0, "rental_uris": {"ios": "https://dc.lft.to/lastmile_qr_scan", "android": "https://dc.lft.to/lastmile_qr_scan"}, "lon": -77.01204583333333, "type": "electric_bike"}, {"bike_id": "7c062e57313fca3382a21cc12a69be34", "is_reserved": 0, "fusion_lon": 0.0, "lat": 38.8872715, "is_disabled": 0, "name": "7c062e57313fca3382a21cc12a69be34", "fusion_lat": 0.0, "rental_uris": {"ios": "https://dc.lft.to/lastmile_qr_scan", "android": "https://dc.lft.to/lastmile_qr_scan"}, "lon": -77.0317655, "type": "electric_scooter"}, {"bike_id": "82840e9d6ed1621b521723646a392764", "is_reserved": 0, "fusion_lon": 0.0, "lat": 38.88040083333333, "is_disabled": 0, "name": "82840e9d6ed1621b521723646a392764", "fusion_lat": 0.0, "rental_uris": {"ios": "https://dc.lft.to/lastmile_qr_scan", "android": "https://dc.lft.to/lastmile_qr_scan"}, "lon": -77.02513916666666, "type": "electric_scooter"}, {"bike_id": "b0d8abb78f9e339b96add7942a4371c5", "is_reserved": 0, "fusion_lon": 0.0, "lat": 38.866285833333336, "is_disabled": 0, "name": "b0d8abb78f9e339b96add7942a4371c5", "fusion_lat": 0.0, "rental_uris": {"ios": "https://dc.lft.to/lastmile_qr_scan", "android": "https://dc.lft.to/lastmile_qr_scan"}, "lon": -76.9871485, "type": "electric_scooter"}, {"bike_id": "799f556b25af861f8f04233a298d777c", "is_reserved": 0, "fusion_lon": 0.0, "lat": 38.923414, "is_disabled": 0, "name": "799f556b25af861f8f04233a298d777c", "fusion_lat": 0.0, "rental_uris": {"ios": "https://dc.lft.to/lastmile_qr_scan", "android": "https://dc.lft.to/lastmile_qr_scan"}, "lon": -77.03498516666667, "type": "electric_scooter"}, {"bike_id": "821e26f649e7b5c3677a3a27a75fcddb", "is_reserved": 0, "fusion_lon": 0.0, "lat": 38.890073, "is_disabled": 0, "name": "821e26f649e7b5c3677a3a27a75fcddb", "fusion_lat": 0.0, "rental_uris": {"ios": "https://dc.lft.to/lastmile_qr_scan", "android": "https://dc.lft.to/lastmile_qr_scan"}, "lon": -76.93741933333334, "type": "electric_scooter"}, {"bike_id": "f49c3f803fd81fddd98ac6ccb09f8980", "is_reserved": 0, "fusion_lon": 0.0, "lat": 38.89771983333333, "is_disabled": 0, "name": "f49c3f803fd81fddd98ac6ccb09f8980", "fusion_lat": 0.0, "rental_uris": {"ios": "https://dc.lft.to/lastmile_qr_scan", "android": "https://dc.lft.to/lastmile_qr_scan"}, "lon": -76.9044205, "type": "electric_bike"}, {"bike_id": "7099b026a23af829aaf8e2dbc86d37bf", "is_reserved": 0, "fusion_lon": 0.0, "lat": 38.902437166666665, "is_disabled": 0, "name": "7099b026a23af829aaf8e2dbc86d37bf", "fusion_lat": 0.0, "rental_uris": {"ios": "https://dc.lft.to/lastmile_qr_scan", "android": "https://dc.lft.to/lastmile_qr_scan"}, "lon": -77.02688416666666, "type": "electric_scooter"}, {"bike_id": "1130f2cab3f2684674eb9a54ce6acb8d", "is_reserved": 0, "fusion_lon": 0.0, "lat": 38.919412666666666, "is_disabled": 0, "name": "1130f2cab3f2684674eb9a54ce6acb8d", "fusion_lat": 0.0, "rental_uris": {"ios": "https://dc.lft.to/lastmile_qr_scan", "android": "https://dc.lft.to/lastmile_qr_scan"}, "lon": -77.04491716666666, "type": "electric_scooter"}, {"bike_id": "c05bf2f6dbfbfe7ac37921b3b7f2a856", "is_reserved": 0, "fusion_lon": 0.0, "lat": 38.912793, "is_disabled": 0, "name": "c05bf2f6dbfbfe7ac37921b3b7f2a856", "fusion_lat": 0.0, "rental_uris": {"ios": "https://dc.lft.to/lastmile_qr_scan", "android": "https://dc.lft.to/lastmile_qr_scan"}, "lon": -77.01351933333333, "type": "electric_scooter"}, {"bike_id": "3f2920e07e13499041707fe8f9fa8b9d", "is_reserved": 0, "fusion_lon": 0.0, "lat": 38.90623083333333, "is_disabled": 0, "name": "3f2920e07e13499041707fe8f9fa8b9d", "fusion_lat": 0.0, "rental_uris": {"ios": "https://dc.lft.to/lastmile_qr_scan", "android": "https://dc.lft.to/lastmile_qr_scan"}, "lon": -77.04180983333333, "type": "electric_scooter"}, {"bike_id": "9ca7d3ec4718dfbd62315ce4e7b768d9", "is_reserved": 0, "fusion_lon": 0.0, "lat": 38.900108, "is_disabled": 0, "name": "9ca7d3ec4718dfbd62315ce4e7b768d9", "fusion_lat": 0.0, "rental_uris": {"ios": "https://dc.lft.to/lastmile_qr_scan", "android": "https://dc.lft.to/lastmile_qr_scan"}, "lon": -77.040423, "type": "electric_scooter"}, {"bike_id": "dd0c531baf761e2581b79bb384ac998c", "is_reserved": 0, "fusion_lon": 0.0, "lat": 38.9073105, "is_disabled": 0, "name": "dd0c531baf761e2581b79bb384ac998c", "fusion_lat": 0.0, "rental_uris": {"ios": "https://dc.lft.to/lastmile_qr_scan", "android": "https://dc.lft.to/lastmile_qr_scan"}, "lon": -77.032149, "type": "electric_scooter"}, {"bike_id": "f4b0f3833dc391ea74ffa4d40ddb3b33", "is_reserved": 0, "fusion_lon": 0.0, "lat": 38.90128516666667, "is_disabled": 0, "name": "f4b0f3833dc391ea74ffa4d40ddb3b33", "fusion_lat": 0.0, "rental_uris": {"ios": "https://dc.lft.to/lastmile_qr_scan", "android": "https://dc.lft.to/lastmile_qr_scan"}, "lon": -77.04656783333333, "type": "electric_scooter"}, {"bike_id": "6f0191e7dd4d930dd1b786f837c29f77", "is_reserved": 0, "fusion_lon": 0.0, "lat": 38.844261333333336, "is_disabled": 0, "name": "6f0191e7dd4d930dd1b786f837c29f77", "fusion_lat": 0.0, "rental_uris": {"ios": "https://dc.lft.to/lastmile_qr_scan", "android": "https://dc.lft.to/lastmile_qr_scan"}, "lon": -76.997784, "type": "electric_scooter"}, {"bike_id": "9e6ae6be76f05b6ce82c2938ee23755f", "is_reserved": 0, "fusion_lon": 0.0, "lat": 38.90091683333333, "is_disabled": 0, "name": "9e6ae6be76f05b6ce82c2938ee23755f", "fusion_lat": 0.0, "rental_uris": {"ios": "https://dc.lft.to/lastmile_qr_scan", "android": "https://dc.lft.to/lastmile_qr_scan"}, "lon": -77.021419, "type": "electric_scooter"}, {"bike_id": "d75b7a352264e6d43f4ad419536815d8", "is_reserved": 0, "fusion_lon": 0.0, "lat": 38.892624, "is_disabled": 0, "name": "d75b7a352264e6d43f4ad419536815d8", "fusion_lat": 0.0, "rental_uris": {"ios": "https://dc.lft.to/lastmile_qr_scan", "android": "https://dc.lft.to/lastmile_qr_scan"}, "lon": -77.02203816666666, "type": "electric_bike"}, {"bike_id": "8cd51d1e57c8a26bc11da0e363b5de6f", "is_reserved": 0, "fusion_lon": 0.0, "lat": 38.91273783333333, "is_disabled": 0, "name": "8cd51d1e57c8a26bc11da0e363b5de6f", "fusion_lat": 0.0, "rental_uris": {"ios": "https://dc.lft.to/lastmile_qr_scan", "android": "https://dc.lft.to/lastmile_qr_scan"}, "lon": -77.0269195, "type": "electric_scooter"}, {"bike_id": "2920eb261160ba232e13bf2596785bcf", "is_reserved": 0, "fusion_lon": 0.0, "lat": 38.906281666666665, "is_disabled": 0, "name": "2920eb261160ba232e13bf2596785bcf", "fusion_lat": 0.0, "rental_uris": {"ios": "https://dc.lft.to/lastmile_qr_scan", "android": "https://dc.lft.to/lastmile_qr_scan"}, "lon": -77.043267, "type": "electric_scooter"}, {"bike_id": "901aefa70d49020933c0945f056ccfb7", "is_reserved": 0, "fusion_lon": 0.0, "lat": 38.8860115, "is_disabled": 0, "name": "901aefa70d49020933c0945f056ccfb7", "fusion_lat": 0.0, "rental_uris": {"ios": "https://dc.lft.to/lastmile_qr_scan", "android": "https://dc.lft.to/lastmile_qr_scan"}, "lon": -77.01751283333333, "type": "electric_scooter"}, {"bike_id": "0f8b86192c7107343e6bd41c9be0742b", "is_reserved": 0, "fusion_lon": 0.0, "lat": 38.86935316666667, "is_disabled": 0, "name": "0f8b86192c7107343e6bd41c9be0742b", "fusion_lat": 0.0, "rental_uris": {"ios": "https://dc.lft.to/lastmile_qr_scan", "android": "https://dc.lft.to/lastmile_qr_scan"}, "lon": -76.9601415, "type": "electric_bike"}, {"bike_id": "bffd43be902a4426597ac3af497aaa8b", "is_reserved": 0, "fusion_lon": 0.0, "lat": 38.8636895, "is_disabled": 0, "name": "bffd43be902a4426597ac3af497aaa8b", "fusion_lat": 0.0, "rental_uris": {"ios": "https://dc.lft.to/lastmile_qr_scan", "android": "https://dc.lft.to/lastmile_qr_scan"}, "lon": -76.99043816666666, "type": "electric_scooter"}, {"bike_id": "3edd4c8ea13c6a4795e04b25d1e8a356", "is_reserved": 0, "fusion_lon": 0.0, "lat": 38.924830666666665, "is_disabled": 0, "name": "3edd4c8ea13c6a4795e04b25d1e8a356", "fusion_lat": 0.0, "rental_uris": {"ios": "https://dc.lft.to/lastmile_qr_scan", "android": "https://dc.lft.to/lastmile_qr_scan"}, "lon": -77.02835366666666, "type": "electric_scooter"}, {"bike_id": "a68203f20f101288becada3f61e7920a", "is_reserved": 0, "fusion_lon": 0.0, "lat": 38.913769333333335, "is_disabled": 0, "name": "a68203f20f101288becada3f61e7920a", "fusion_lat": 0.0, "rental_uris": {"ios": "https://dc.lft.to/lastmile_qr_scan", "android": "https://dc.lft.to/lastmile_qr_scan"}, "lon": -77.00823333333334, "type": "electric_scooter"}, {"bike_id": "cd9a4ecd276a24a4657a82826a469a74", "is_reserved": 0, "fusion_lon": 0.0, "lat": 38.9077195, "is_disabled": 0, "name": "cd9a4ecd276a24a4657a82826a469a74", "fusion_lat": 0.0, "rental_uris": {"ios": "https://dc.lft.to/lastmile_qr_scan", "android": "https://dc.lft.to/lastmile_qr_scan"}, "lon": -77.03179683333333, "type": "electric_scooter"}, {"bike_id": "64ddfa4e842738c1822102fbe5b2231d", "is_reserved": 0, "fusion_lon": 0.0, "lat": 38.951887166666666, "is_disabled": 0, "name": "64ddfa4e842738c1822102fbe5b2231d", "fusion_lat": 0.0, "rental_uris": {"ios": "https://dc.lft.to/lastmile_qr_scan", "android": "https://dc.lft.to/lastmile_qr_scan"}, "lon": -76.93543816666667, "type": "electric_bike"}, {"bike_id": "8fe947521b02b315ff70d2a9f2880f5a", "is_reserved": 0, "fusion_lon": 0.0, "lat": 38.91264733333333, "is_disabled": 0, "name": "8fe947521b02b315ff70d2a9f2880f5a", "fusion_lat": 0.0, "rental_uris": {"ios": "https://dc.lft.to/lastmile_qr_scan", "android": "https://dc.lft.to/lastmile_qr_scan"}, "lon": -77.03622016666667, "type": "electric_scooter"}, {"bike_id": "0992bad116bd2f8211ba4991e8c1f26e", "is_reserved": 0, "fusion_lon": 0.0, "lat": 38.9011055, "is_disabled": 0, "name": "0992bad116bd2f8211ba4991e8c1f26e", "fusion_lat": 0.0, "rental_uris": {"ios": "https://dc.lft.to/lastmile_qr_scan", "android": "https://dc.lft.to/lastmile_qr_scan"}, "lon": -77.04362416666666, "type": "electric_scooter"}, {"bike_id": "ce640e4568fc2119d64e6481259d75ea", "is_reserved": 0, "fusion_lon": 0.0, "lat": 38.90970866666667, "is_disabled": 0, "name": "ce640e4568fc2119d64e6481259d75ea", "fusion_lat": 0.0, "rental_uris": {"ios": "https://dc.lft.to/lastmile_qr_scan", "android": "https://dc.lft.to/lastmile_qr_scan"}, "lon": -77.02723633333333, "type": "electric_scooter"}, {"bike_id": "7a32654b0653ccdf031fb7c1d8f3e38f", "is_reserved": 0, "fusion_lon": 0.0, "lat": 38.91247233333333, "is_disabled": 0, "name": "7a32654b0653ccdf031fb7c1d8f3e38f", "fusion_lat": 0.0, "rental_uris": {"ios": "https://dc.lft.to/lastmile_qr_scan", "android": "https://dc.lft.to/lastmile_qr_scan"}, "lon": -77.01621516666667, "type": "electric_scooter"}, {"bike_id": "308f18efc8b2e813596de2cb1c38b8ee", "is_reserved": 0, "fusion_lon": 0.0, "lat": 38.928599, "is_disabled": 0, "name": "308f18efc8b2e813596de2cb1c38b8ee", "fusion_lat": 0.0, "rental_uris": {"ios": "https://dc.lft.to/lastmile_qr_scan", "android": "https://dc.lft.to/lastmile_qr_scan"}, "lon": -77.03250116666666, "type": "electric_scooter"}, {"bike_id": "688adaa007cfb91cda0117a125b0879a", "is_reserved": 0, "fusion_lon": 0.0, "lat": 38.921750333333335, "is_disabled": 0, "name": "688adaa007cfb91cda0117a125b0879a", "fusion_lat": 0.0, "rental_uris": {"ios": "https://dc.lft.to/lastmile_qr_scan", "android": "https://dc.lft.to/lastmile_qr_scan"}, "lon": -77.03290533333333, "type": "electric_scooter"}, {"bike_id": "713aeb68f5e155412182fc892c742b38", "is_reserved": 0, "fusion_lon": 0.0, "lat": 38.87175766666667, "is_disabled": 0, "name": "713aeb68f5e155412182fc892c742b38", "fusion_lat": 0.0, "rental_uris": {"ios": "https://dc.lft.to/lastmile_qr_scan", "android": "https://dc.lft.to/lastmile_qr_scan"}, "lon": -77.0062865, "type": "electric_scooter"}, {"bike_id": "4310f89bf6e24a3e0ae564787091d0f4", "is_reserved": 0, "fusion_lon": 0.0, "lat": 38.90614466666667, "is_disabled": 0, "name": "4310f89bf6e24a3e0ae564787091d0f4", "fusion_lat": 0.0, "rental_uris": {"ios": "https://dc.lft.to/lastmile_qr_scan", "android": "https://dc.lft.to/lastmile_qr_scan"}, "lon": -77.03988483333333, "type": "electric_scooter"}, {"bike_id": "738c2088f0220b687d9bedd574efa2ba", "is_reserved": 0, "fusion_lon": 0.0, "lat": 38.926172666666666, "is_disabled": 0, "name": "738c2088f0220b687d9bedd574efa2ba", "fusion_lat": 0.0, "rental_uris": {"ios": "https://dc.lft.to/lastmile_qr_scan", "android": "https://dc.lft.to/lastmile_qr_scan"}, "lon": -77.02160766666667, "type": "electric_scooter"}, {"bike_id": "93993d53145e14d0f7b3ff9cb50f6ef1", "is_reserved": 0, "fusion_lon": 0.0, "lat": 38.94400266666667, "is_disabled": 0, "name": "93993d53145e14d0f7b3ff9cb50f6ef1", "fusion_lat": 0.0, "rental_uris": {"ios": "https://dc.lft.to/lastmile_qr_scan", "android": "https://dc.lft.to/lastmile_qr_scan"}, "lon": -77.03892466666667, "type": "electric_scooter"}, {"bike_id": "38b878896051d9fce471e7d28890a5e4", "is_reserved": 0, "fusion_lon": 0.0, "lat": 38.9085665, "is_disabled": 0, "name": "38b878896051d9fce471e7d28890a5e4", "fusion_lat": 0.0, "rental_uris": {"ios": "https://dc.lft.to/lastmile_qr_scan", "android": "https://dc.lft.to/lastmile_qr_scan"}, "lon": -77.0449755, "type": "electric_scooter"}, {"bike_id": "7a8bdab4fe46cef6cd9f15aeae7df427", "is_reserved": 0, "fusion_lon": 0.0, "lat": 38.904772666666666, "is_disabled": 0, "name": "7a8bdab4fe46cef6cd9f15aeae7df427", "fusion_lat": 0.0, "rental_uris": {"ios": "https://dc.lft.to/lastmile_qr_scan", "android": "https://dc.lft.to/lastmile_qr_scan"}, "lon": -77.038434, "type": "electric_scooter"}, {"bike_id": "0dc54f541b70ae24cbc0cf45d0f5057c", "is_reserved": 0, "fusion_lon": 0.0, "lat": 38.91271283333333, "is_disabled": 0, "name": "0dc54f541b70ae24cbc0cf45d0f5057c", "fusion_lat": 0.0, "rental_uris": {"ios": "https://dc.lft.to/lastmile_qr_scan", "android": "https://dc.lft.to/lastmile_qr_scan"}, "lon": -77.02211433333333, "type": "electric_scooter"}, {"bike_id": "372050b13bb92110ac98574ce0694fe7", "is_reserved": 0, "fusion_lon": 0.0, "lat": 38.9158525, "is_disabled": 0, "name": "372050b13bb92110ac98574ce0694fe7", "fusion_lat": 0.0, "rental_uris": {"ios": "https://dc.lft.to/lastmile_qr_scan", "android": "https://dc.lft.to/lastmile_qr_scan"}, "lon": -77.01234983333333, "type": "electric_scooter"}, {"bike_id": "5d2ae574b71ec28db4686aec2b68c06f", "is_reserved": 0, "fusion_lon": 0.0, "lat": 38.9169545, "is_disabled": 0, "name": "5d2ae574b71ec28db4686aec2b68c06f", "fusion_lat": 0.0, "rental_uris": {"ios": "https://dc.lft.to/lastmile_qr_scan", "android": "https://dc.lft.to/lastmile_qr_scan"}, "lon": -77.02597216666666, "type": "electric_scooter"}, {"bike_id": "c287c86172c19e8f817e832bc191111a", "is_reserved": 0, "fusion_lon": 0.0, "lat": 38.91212016666667, "is_disabled": 0, "name": "c287c86172c19e8f817e832bc191111a", "fusion_lat": 0.0, "rental_uris": {"ios": "https://dc.lft.to/lastmile_qr_scan", "android": "https://dc.lft.to/lastmile_qr_scan"}, "lon": -77.04875916666667, "type": "electric_scooter"}, {"bike_id": "433c5565674da0090af37dc2f61e9402", "is_reserved": 0, "fusion_lon": 0.0, "lat": 38.90591416666667, "is_disabled": 0, "name": "433c5565674da0090af37dc2f61e9402", "fusion_lat": 0.0, "rental_uris": {"ios": "https://dc.lft.to/lastmile_qr_scan", "android": "https://dc.lft.to/lastmile_qr_scan"}, "lon": -77.046728, "type": "electric_scooter"}, {"bike_id": "e6b42121c089b7cde2c7fa215b6fdef1", "is_reserved": 0, "fusion_lon": 0.0, "lat": 38.89878566666667, "is_disabled": 0, "name": "e6b42121c089b7cde2c7fa215b6fdef1", "fusion_lat": 0.0, "rental_uris": {"ios": "https://dc.lft.to/lastmile_qr_scan", "android": "https://dc.lft.to/lastmile_qr_scan"}, "lon": -76.93157866666667, "type": "electric_scooter"}, {"bike_id": "0ac5c9964105545835cd1ac2c6435687", "is_reserved": 0, "fusion_lon": 0.0, "lat": 38.92478166666667, "is_disabled": 0, "name": "0ac5c9964105545835cd1ac2c6435687", "fusion_lat": 0.0, "rental_uris": {"ios": "https://dc.lft.to/lastmile_qr_scan", "android": "https://dc.lft.to/lastmile_qr_scan"}, "lon": -77.05208916666666, "type": "electric_scooter"}, {"bike_id": "62645342f8e1c1896222abeec7997994", "is_reserved": 0, "fusion_lon": 0.0, "lat": 38.9210895, "is_disabled": 0, "name": "62645342f8e1c1896222abeec7997994", "fusion_lat": 0.0, "rental_uris": {"ios": "https://dc.lft.to/lastmile_qr_scan", "android": "https://dc.lft.to/lastmile_qr_scan"}, "lon": -77.01770083333334, "type": "electric_scooter"}, {"bike_id": "170c015c77963d314449a228ed3dad2c", "is_reserved": 0, "fusion_lon": 0.0, "lat": 38.852923, "is_disabled": 0, "name": "170c015c77963d314449a228ed3dad2c", "fusion_lat": 0.0, "rental_uris": {"ios": "https://dc.lft.to/lastmile_qr_scan", "android": "https://dc.lft.to/lastmile_qr_scan"}, "lon": -77.05277933333333, "type": "electric_bike"}, {"bike_id": "523f3c59e487e7a3e48455b03e662af7", "is_reserved": 0, "fusion_lon": 0.0, "lat": 38.90398066666667, "is_disabled": 0, "name": "523f3c59e487e7a3e48455b03e662af7", "fusion_lat": 0.0, "rental_uris": {"ios": "https://dc.lft.to/lastmile_qr_scan", "android": "https://dc.lft.to/lastmile_qr_scan"}, "lon": -77.006657, "type": "electric_scooter"}, {"bike_id": "92cfae27cc2bdc8d7f5ca44c212cd4d4", "is_reserved": 0, "fusion_lon": 0.0, "lat": 38.87122983333333, "is_disabled": 0, "name": "92cfae27cc2bdc8d7f5ca44c212cd4d4", "fusion_lat": 0.0, "rental_uris": {"ios": "https://dc.lft.to/lastmile_qr_scan", "android": "https://dc.lft.to/lastmile_qr_scan"}, "lon": -76.97747383333333, "type": "electric_scooter"}, {"bike_id": "d5a881a3259217bdf6e44585c8b995cb", "is_reserved": 0, "fusion_lon": 0.0, "lat": 38.86524933333333, "is_disabled": 0, "name": "d5a881a3259217bdf6e44585c8b995cb", "fusion_lat": 0.0, "rental_uris": {"ios": "https://dc.lft.to/lastmile_qr_scan", "android": "https://dc.lft.to/lastmile_qr_scan"}, "lon": -76.990279, "type": "electric_scooter"}, {"bike_id": "0e67d893c6cad96f53c1e592763ad87e", "is_reserved": 0, "fusion_lon": 0.0, "lat": 38.92559516666667, "is_disabled": 0, "name": "0e67d893c6cad96f53c1e592763ad87e", "fusion_lat": 0.0, "rental_uris": {"ios": "https://dc.lft.to/lastmile_qr_scan", "android": "https://dc.lft.to/lastmile_qr_scan"}, "lon": -77.07332816666667, "type": "electric_bike"}, {"bike_id": "cc13e1b5a09dfd1ef5ff4e670ee91525", "is_reserved": 0, "fusion_lon": 0.0, "lat": 38.9011875, "is_disabled": 0, "name": "cc13e1b5a09dfd1ef5ff4e670ee91525", "fusion_lat": 0.0, "rental_uris": {"ios": "https://dc.lft.to/lastmile_qr_scan", "android": "https://dc.lft.to/lastmile_qr_scan"}, "lon": -77.03182266666667, "type": "electric_scooter"}, {"bike_id": "c3af4ff5ee354c46cf2112968e39766f", "is_reserved": 0, "fusion_lon": 0.0, "lat": 38.91034166666667, "is_disabled": 0, "name": "c3af4ff5ee354c46cf2112968e39766f", "fusion_lat": 0.0, "rental_uris": {"ios": "https://dc.lft.to/lastmile_qr_scan", "android": "https://dc.lft.to/lastmile_qr_scan"}, "lon": -77.03856833333333, "type": "electric_scooter"}, {"bike_id": "f84c04273eb05db77ca743985c0501b3", "is_reserved": 0, "fusion_lon": 0.0, "lat": 38.9198425, "is_disabled": 0, "name": "f84c04273eb05db77ca743985c0501b3", "fusion_lat": 0.0, "rental_uris": {"ios": "https://dc.lft.to/lastmile_qr_scan", "android": "https://dc.lft.to/lastmile_qr_scan"}, "lon": -77.02174216666667, "type": "electric_scooter"}, {"bike_id": "7f7aac6f8aeb2d022569613f0c17a6cf", "is_reserved": 0, "fusion_lon": 0.0, "lat": 38.887211666666666, "is_disabled": 0, "name": "7f7aac6f8aeb2d022569613f0c17a6cf", "fusion_lat": 0.0, "rental_uris": {"ios": "https://dc.lft.to/lastmile_qr_scan", "android": "https://dc.lft.to/lastmile_qr_scan"}, "lon": -77.0258185, "type": "electric_scooter"}, {"bike_id": "5d9ce1477da22c0501208145ee97e0a0", "is_reserved": 0, "fusion_lon": 0.0, "lat": 38.8568335, "is_disabled": 0, "name": "5d9ce1477da22c0501208145ee97e0a0", "fusion_lat": 0.0, "rental_uris": {"ios": "https://dc.lft.to/lastmile_qr_scan", "android": "https://dc.lft.to/lastmile_qr_scan"}, "lon": -77.0857015, "type": "electric_bike"}, {"bike_id": "3b430e92264249a2287d2be663e31e95", "is_reserved": 0, "fusion_lon": 0.0, "lat": 38.8986235, "is_disabled": 0, "name": "3b430e92264249a2287d2be663e31e95", "fusion_lat": 0.0, "rental_uris": {"ios": "https://dc.lft.to/lastmile_qr_scan", "android": "https://dc.lft.to/lastmile_qr_scan"}, "lon": -77.03274283333333, "type": "electric_scooter"}, {"bike_id": "ddcc809f9508a8878304a829eabda207", "is_reserved": 0, "fusion_lon": 0.0, "lat": 38.90032, "is_disabled": 0, "name": "ddcc809f9508a8878304a829eabda207", "fusion_lat": 0.0, "rental_uris": {"ios": "https://dc.lft.to/lastmile_qr_scan", "android": "https://dc.lft.to/lastmile_qr_scan"}, "lon": -77.02955033333333, "type": "electric_bike"}, {"bike_id": "5205ba37434d9840fffd5217a4a3c938", "is_reserved": 0, "fusion_lon": 0.0, "lat": 38.8637275, "is_disabled": 0, "name": "5205ba37434d9840fffd5217a4a3c938", "fusion_lat": 0.0, "rental_uris": {"ios": "https://dc.lft.to/lastmile_qr_scan", "android": "https://dc.lft.to/lastmile_qr_scan"}, "lon": -76.990608, "type": "electric_scooter"}, {"bike_id": "106d6cf7fc71719050702fd9610841ee", "is_reserved": 0, "fusion_lon": 0.0, "lat": 38.90261366666667, "is_disabled": 0, "name": "106d6cf7fc71719050702fd9610841ee", "fusion_lat": 0.0, "rental_uris": {"ios": "https://dc.lft.to/lastmile_qr_scan", "android": "https://dc.lft.to/lastmile_qr_scan"}, "lon": -77.046032, "type": "electric_scooter"}, {"bike_id": "cdeef84ab6e460e128c019daa86f3ea4", "is_reserved": 0, "fusion_lon": 0.0, "lat": 38.8874535, "is_disabled": 0, "name": "cdeef84ab6e460e128c019daa86f3ea4", "fusion_lat": 0.0, "rental_uris": {"ios": "https://dc.lft.to/lastmile_qr_scan", "android": "https://dc.lft.to/lastmile_qr_scan"}, "lon": -77.02265433333334, "type": "electric_bike"}, {"bike_id": "d657d67c525cf114da8f67de8b88e572", "is_reserved": 0, "fusion_lon": 0.0, "lat": 38.92352533333333, "is_disabled": 0, "name": "d657d67c525cf114da8f67de8b88e572", "fusion_lat": 0.0, "rental_uris": {"ios": "https://dc.lft.to/lastmile_qr_scan", "android": "https://dc.lft.to/lastmile_qr_scan"}, "lon": -77.04152316666666, "type": "electric_scooter"}, {"bike_id": "58fdda7f448b1342f5c38b8b2f286e0c", "is_reserved": 0, "fusion_lon": 0.0, "lat": 38.898850833333334, "is_disabled": 0, "name": "58fdda7f448b1342f5c38b8b2f286e0c", "fusion_lat": 0.0, "rental_uris": {"ios": "https://dc.lft.to/lastmile_qr_scan", "android": "https://dc.lft.to/lastmile_qr_scan"}, "lon": -77.00814566666666, "type": "electric_bike"}, {"bike_id": "8403b54fc6ba022b7c3b49774458d758", "is_reserved": 0, "fusion_lon": 0.0, "lat": 38.89849616666667, "is_disabled": 0, "name": "8403b54fc6ba022b7c3b49774458d758", "fusion_lat": 0.0, "rental_uris": {"ios": "https://dc.lft.to/lastmile_qr_scan", "android": "https://dc.lft.to/lastmile_qr_scan"}, "lon": -77.01733666666667, "type": "electric_bike"}, {"bike_id": "0819c34ccb0dfdf5851f16e055584ec4", "is_reserved": 0, "fusion_lon": 0.0, "lat": 38.953398166666666, "is_disabled": 0, "name": "0819c34ccb0dfdf5851f16e055584ec4", "fusion_lat": 0.0, "rental_uris": {"ios": "https://dc.lft.to/lastmile_qr_scan", "android": "https://dc.lft.to/lastmile_qr_scan"}, "lon": -77.00958216666666, "type": "electric_bike"}, {"bike_id": "2b1eb6b009d57cf8382579ef22b995f9", "is_reserved": 0, "fusion_lon": 0.0, "lat": 38.91559316666667, "is_disabled": 0, "name": "2b1eb6b009d57cf8382579ef22b995f9", "fusion_lat": 0.0, "rental_uris": {"ios": "https://dc.lft.to/lastmile_qr_scan", "android": "https://dc.lft.to/lastmile_qr_scan"}, "lon": -77.038674, "type": "electric_scooter"}, {"bike_id": "5bec747efeb11fc217f0020055684b38", "is_reserved": 0, "fusion_lon": 0.0, "lat": 38.95749883333333, "is_disabled": 0, "name": "5bec747efeb11fc217f0020055684b38", "fusion_lat": 0.0, "rental_uris": {"ios": "https://dc.lft.to/lastmile_qr_scan", "android": "https://dc.lft.to/lastmile_qr_scan"}, "lon": -77.02416183333334, "type": "electric_scooter"}, {"bike_id": "ed10f556f100a9eab9f5c4d8581fc843", "is_reserved": 0, "fusion_lon": 0.0, "lat": 39.088626166666664, "is_disabled": 0, "name": "ed10f556f100a9eab9f5c4d8581fc843", "fusion_lat": 0.0, "rental_uris": {"ios": "https://dc.lft.to/lastmile_qr_scan", "android": "https://dc.lft.to/lastmile_qr_scan"}, "lon": -77.17840566666666, "type": "electric_bike"}, {"bike_id": "568ace88b1bacddd3d6a06e969b14d90", "is_reserved": 0, "fusion_lon": 0.0, "lat": 38.92859283333333, "is_disabled": 0, "name": "568ace88b1bacddd3d6a06e969b14d90", "fusion_lat": 0.0, "rental_uris": {"ios": "https://dc.lft.to/lastmile_qr_scan", "android": "https://dc.lft.to/lastmile_qr_scan"}, "lon": -77.222159, "type": "electric_bike"}, {"bike_id": "3cb1573c3dacfba88f124c939b2eea39", "is_reserved": 0, "fusion_lon": 0.0, "lat": 38.905708, "is_disabled": 0, "name": "3cb1573c3dacfba88f124c939b2eea39", "fusion_lat": 0.0, "rental_uris": {"ios": "https://dc.lft.to/lastmile_qr_scan", "android": "https://dc.lft.to/lastmile_qr_scan"}, "lon": -77.02172866666666, "type": "electric_scooter"}, {"bike_id": "96c45380a58639f1e8ef92a4c2d9850c", "is_reserved": 0, "fusion_lon": 0.0, "lat": 38.956480666666664, "is_disabled": 0, "name": "96c45380a58639f1e8ef92a4c2d9850c", "fusion_lat": 0.0, "rental_uris": {"ios": "https://dc.lft.to/lastmile_qr_scan", "android": "https://dc.lft.to/lastmile_qr_scan"}, "lon": -77.03288866666666, "type": "electric_scooter"}, {"bike_id": "6130e9b12f562918ded8ad93a424bffa", "is_reserved": 0, "fusion_lon": 0.0, "lat": 38.917173, "is_disabled": 0, "name": "6130e9b12f562918ded8ad93a424bffa", "fusion_lat": 0.0, "rental_uris": {"ios": "https://dc.lft.to/lastmile_qr_scan", "android": "https://dc.lft.to/lastmile_qr_scan"}, "lon": -77.02299883333333, "type": "electric_scooter"}, {"bike_id": "338df690168c47d77d11a2362c0008d4", "is_reserved": 0, "fusion_lon": 0.0, "lat": 38.909424333333334, "is_disabled": 0, "name": "338df690168c47d77d11a2362c0008d4", "fusion_lat": 0.0, "rental_uris": {"ios": "https://dc.lft.to/lastmile_qr_scan", "android": "https://dc.lft.to/lastmile_qr_scan"}, "lon": -77.04884966666667, "type": "electric_scooter"}, {"bike_id": "6666ac616364cd79166b596c88a037c9", "is_reserved": 0, "fusion_lon": 0.0, "lat": 38.917048666666666, "is_disabled": 0, "name": "6666ac616364cd79166b596c88a037c9", "fusion_lat": 0.0, "rental_uris": {"ios": "https://dc.lft.to/lastmile_qr_scan", "android": "https://dc.lft.to/lastmile_qr_scan"}, "lon": -77.03107883333334, "type": "electric_scooter"}, {"bike_id": "a4ca9c3bc1d8ca2da9a0da4f30cbdc52", "is_reserved": 0, "fusion_lon": 0.0, "lat": 38.92011633333333, "is_disabled": 0, "name": "a4ca9c3bc1d8ca2da9a0da4f30cbdc52", "fusion_lat": 0.0, "rental_uris": {"ios": "https://dc.lft.to/lastmile_qr_scan", "android": "https://dc.lft.to/lastmile_qr_scan"}, "lon": -77.03777816666667, "type": "electric_scooter"}, {"bike_id": "f0d731ba5b839e6e08cd71e3ac06838f", "is_reserved": 0, "fusion_lon": 0.0, "lat": 38.904427166666665, "is_disabled": 0, "name": "f0d731ba5b839e6e08cd71e3ac06838f", "fusion_lat": 0.0, "rental_uris": {"ios": "https://dc.lft.to/lastmile_qr_scan", "android": "https://dc.lft.to/lastmile_qr_scan"}, "lon": -77.02899783333334, "type": "electric_scooter"}, {"bike_id": "b961c2ac8978e3d74621a3248e4061f0", "is_reserved": 0, "fusion_lon": 0.0, "lat": 38.934512833333336, "is_disabled": 0, "name": "b961c2ac8978e3d74621a3248e4061f0", "fusion_lat": 0.0, "rental_uris": {"ios": "https://dc.lft.to/lastmile_qr_scan", "android": "https://dc.lft.to/lastmile_qr_scan"}, "lon": -77.07230716666666, "type": "electric_scooter"}, {"bike_id": "a02879dbbc74057b451664f59b49bf1c", "is_reserved": 0, "fusion_lon": 0.0, "lat": 38.88576, "is_disabled": 0, "name": "a02879dbbc74057b451664f59b49bf1c", "fusion_lat": 0.0, "rental_uris": {"ios": "https://dc.lft.to/lastmile_qr_scan", "android": "https://dc.lft.to/lastmile_qr_scan"}, "lon": -77.01545883333333, "type": "electric_scooter"}, {"bike_id": "0c1cbe7da5e0896f4cbd7291bd2a562c", "is_reserved": 0, "fusion_lon": 0.0, "lat": 38.898191833333335, "is_disabled": 0, "name": "0c1cbe7da5e0896f4cbd7291bd2a562c", "fusion_lat": 0.0, "rental_uris": {"ios": "https://dc.lft.to/lastmile_qr_scan", "android": "https://dc.lft.to/lastmile_qr_scan"}, "lon": -77.02945533333333, "type": "electric_scooter"}, {"bike_id": "a7380d7277973f33fbe364e577245f47", "is_reserved": 0, "fusion_lon": 0.0, "lat": 38.91602266666666, "is_disabled": 0, "name": "a7380d7277973f33fbe364e577245f47", "fusion_lat": 0.0, "rental_uris": {"ios": "https://dc.lft.to/lastmile_qr_scan", "android": "https://dc.lft.to/lastmile_qr_scan"}, "lon": -76.98376833333333, "type": "electric_scooter"}, {"bike_id": "8866b871eeaac95b61f177441959afe7", "is_reserved": 0, "fusion_lon": 0.0, "lat": 38.883292, "is_disabled": 0, "name": "8866b871eeaac95b61f177441959afe7", "fusion_lat": 0.0, "rental_uris": {"ios": "https://dc.lft.to/lastmile_qr_scan", "android": "https://dc.lft.to/lastmile_qr_scan"}, "lon": -77.0174685, "type": "electric_scooter"}, {"bike_id": "b251a04cda6a02e697868e99be8ea542", "is_reserved": 0, "fusion_lon": 0.0, "lat": 38.897611833333336, "is_disabled": 0, "name": "b251a04cda6a02e697868e99be8ea542", "fusion_lat": 0.0, "rental_uris": {"ios": "https://dc.lft.to/lastmile_qr_scan", "android": "https://dc.lft.to/lastmile_qr_scan"}, "lon": -77.03020666666667, "type": "electric_scooter"}, {"bike_id": "f38ab4067cd6b919c764a04d89dabaa2", "is_reserved": 0, "fusion_lon": 0.0, "lat": 38.92565466666667, "is_disabled": 0, "name": "f38ab4067cd6b919c764a04d89dabaa2", "fusion_lat": 0.0, "rental_uris": {"ios": "https://dc.lft.to/lastmile_qr_scan", "android": "https://dc.lft.to/lastmile_qr_scan"}, "lon": -77.03900666666667, "type": "electric_scooter"}, {"bike_id": "39872fe312e2d30bdfe76a9a863110e2", "is_reserved": 0, "fusion_lon": 0.0, "lat": 38.9026865, "is_disabled": 0, "name": "39872fe312e2d30bdfe76a9a863110e2", "fusion_lat": 0.0, "rental_uris": {"ios": "https://dc.lft.to/lastmile_qr_scan", "android": "https://dc.lft.to/lastmile_qr_scan"}, "lon": -77.0392495, "type": "electric_scooter"}, {"bike_id": "64c30b803b23a9560f4184795a5ff618", "is_reserved": 0, "fusion_lon": 0.0, "lat": 38.89470433333334, "is_disabled": 0, "name": "64c30b803b23a9560f4184795a5ff618", "fusion_lat": 0.0, "rental_uris": {"ios": "https://dc.lft.to/lastmile_qr_scan", "android": "https://dc.lft.to/lastmile_qr_scan"}, "lon": -77.0306505, "type": "electric_scooter"}, {"bike_id": "03e90c875f7266ebf3a0ae294ef6098b", "is_reserved": 0, "fusion_lon": 0.0, "lat": 38.912165333333334, "is_disabled": 0, "name": "03e90c875f7266ebf3a0ae294ef6098b", "fusion_lat": 0.0, "rental_uris": {"ios": "https://dc.lft.to/lastmile_qr_scan", "android": "https://dc.lft.to/lastmile_qr_scan"}, "lon": -77.0758855, "type": "electric_scooter"}, {"bike_id": "a3d00a43e1eb4b63ce10a1087a743321", "is_reserved": 0, "fusion_lon": 0.0, "lat": 38.92213866666667, "is_disabled": 0, "name": "a3d00a43e1eb4b63ce10a1087a743321", "fusion_lat": 0.0, "rental_uris": {"ios": "https://dc.lft.to/lastmile_qr_scan", "android": "https://dc.lft.to/lastmile_qr_scan"}, "lon": -77.04253333333334, "type": "electric_scooter"}, {"bike_id": "cd490e9783a07af66db0b1d44e7e1b58", "is_reserved": 0, "fusion_lon": 0.0, "lat": 38.9038155, "is_disabled": 0, "name": "cd490e9783a07af66db0b1d44e7e1b58", "fusion_lat": 0.0, "rental_uris": {"ios": "https://dc.lft.to/lastmile_qr_scan", "android": "https://dc.lft.to/lastmile_qr_scan"}, "lon": -77.03639866666667, "type": "electric_scooter"}, {"bike_id": "2cb5e3ffc46a5f5383d694f59cb86643", "is_reserved": 0, "fusion_lon": 0.0, "lat": 38.8922345, "is_disabled": 0, "name": "2cb5e3ffc46a5f5383d694f59cb86643", "fusion_lat": 0.0, "rental_uris": {"ios": "https://dc.lft.to/lastmile_qr_scan", "android": "https://dc.lft.to/lastmile_qr_scan"}, "lon": -77.0316655, "type": "electric_scooter"}, {"bike_id": "d233f5a9479eebf40c9a0a2ef09e65a9", "is_reserved": 0, "fusion_lon": 0.0, "lat": 38.88503816666667, "is_disabled": 0, "name": "d233f5a9479eebf40c9a0a2ef09e65a9", "fusion_lat": 0.0, "rental_uris": {"ios": "https://dc.lft.to/lastmile_qr_scan", "android": "https://dc.lft.to/lastmile_qr_scan"}, "lon": -77.00894216666667, "type": "electric_scooter"}, {"bike_id": "6d3709e750b1aab6bf5ce271f4434981", "is_reserved": 0, "fusion_lon": 0.0, "lat": 38.8922425, "is_disabled": 0, "name": "6d3709e750b1aab6bf5ce271f4434981", "fusion_lat": 0.0, "rental_uris": {"ios": "https://dc.lft.to/lastmile_qr_scan", "android": "https://dc.lft.to/lastmile_qr_scan"}, "lon": -77.03214483333333, "type": "electric_scooter"}, {"bike_id": "fcf6efb2dbcca82050f95e2d2acbe13d", "is_reserved": 0, "fusion_lon": 0.0, "lat": 38.905722, "is_disabled": 0, "name": "fcf6efb2dbcca82050f95e2d2acbe13d", "fusion_lat": 0.0, "rental_uris": {"ios": "https://dc.lft.to/lastmile_qr_scan", "android": "https://dc.lft.to/lastmile_qr_scan"}, "lon": -77.00289366666667, "type": "electric_scooter"}, {"bike_id": "951a73d913d42dbee7219618af6b95ea", "is_reserved": 0, "fusion_lon": 0.0, "lat": 38.887487, "is_disabled": 0, "name": "951a73d913d42dbee7219618af6b95ea", "fusion_lat": 0.0, "rental_uris": {"ios": "https://dc.lft.to/lastmile_qr_scan", "android": "https://dc.lft.to/lastmile_qr_scan"}, "lon": -77.02863933333333, "type": "electric_scooter"}, {"bike_id": "faad640f72c33f8c73c14c23bfacf0ba", "is_reserved": 0, "fusion_lon": 0.0, "lat": 38.90530833333333, "is_disabled": 0, "name": "faad640f72c33f8c73c14c23bfacf0ba", "fusion_lat": 0.0, "rental_uris": {"ios": "https://dc.lft.to/lastmile_qr_scan", "android": "https://dc.lft.to/lastmile_qr_scan"}, "lon": -77.05004716666667, "type": "electric_scooter"}, {"bike_id": "06ebe70cc3533fc574c902aa4080a90b", "is_reserved": 0, "fusion_lon": 0.0, "lat": 38.90377, "is_disabled": 0, "name": "06ebe70cc3533fc574c902aa4080a90b", "fusion_lat": 0.0, "rental_uris": {"ios": "https://dc.lft.to/lastmile_qr_scan", "android": "https://dc.lft.to/lastmile_qr_scan"}, "lon": -77.04198816666667, "type": "electric_scooter"}, {"bike_id": "29be945c7f6e43c72df2309c936d5969", "is_reserved": 0, "fusion_lon": 0.0, "lat": 38.9024125, "is_disabled": 0, "name": "29be945c7f6e43c72df2309c936d5969", "fusion_lat": 0.0, "rental_uris": {"ios": "https://dc.lft.to/lastmile_qr_scan", "android": "https://dc.lft.to/lastmile_qr_scan"}, "lon": -77.01732583333333, "type": "electric_scooter"}, {"bike_id": "6b738da642959c94209e70f8c4d2bfbb", "is_reserved": 0, "fusion_lon": 0.0, "lat": 38.89910016666666, "is_disabled": 0, "name": "6b738da642959c94209e70f8c4d2bfbb", "fusion_lat": 0.0, "rental_uris": {"ios": "https://dc.lft.to/lastmile_qr_scan", "android": "https://dc.lft.to/lastmile_qr_scan"}, "lon": -76.93356616666667, "type": "electric_scooter"}, {"bike_id": "e0ca28ee65c78c1a08349c5713b918e7", "is_reserved": 0, "fusion_lon": 0.0, "lat": 38.87500933333333, "is_disabled": 0, "name": "e0ca28ee65c78c1a08349c5713b918e7", "fusion_lat": 0.0, "rental_uris": {"ios": "https://dc.lft.to/lastmile_qr_scan", "android": "https://dc.lft.to/lastmile_qr_scan"}, "lon": -76.99797733333334, "type": "electric_scooter"}, {"bike_id": "e15f2067d14fcba22d6f6a03b2bd9750", "is_reserved": 0, "fusion_lon": 0.0, "lat": 38.86242983333333, "is_disabled": 0, "name": "e15f2067d14fcba22d6f6a03b2bd9750", "fusion_lat": 0.0, "rental_uris": {"ios": "https://dc.lft.to/lastmile_qr_scan", "android": "https://dc.lft.to/lastmile_qr_scan"}, "lon": -76.99495766666666, "type": "electric_scooter"}, {"bike_id": "2b9b9400b5972d5614a6d217976f294c", "is_reserved": 0, "fusion_lon": 0.0, "lat": 38.9401275, "is_disabled": 0, "name": "2b9b9400b5972d5614a6d217976f294c", "fusion_lat": 0.0, "rental_uris": {"ios": "https://dc.lft.to/lastmile_qr_scan", "android": "https://dc.lft.to/lastmile_qr_scan"}, "lon": -77.07172683333333, "type": "electric_scooter"}, {"bike_id": "1a23a9feefb9c1bda8965b9cc9e69ce6", "is_reserved": 0, "fusion_lon": 0.0, "lat": 38.9037685, "is_disabled": 0, "name": "1a23a9feefb9c1bda8965b9cc9e69ce6", "fusion_lat": 0.0, "rental_uris": {"ios": "https://dc.lft.to/lastmile_qr_scan", "android": "https://dc.lft.to/lastmile_qr_scan"}, "lon": -77.04503983333333, "type": "electric_scooter"}, {"bike_id": "d2f2e1cbe68870caf284b3b647b4c562", "is_reserved": 0, "fusion_lon": 0.0, "lat": 38.90310566666667, "is_disabled": 0, "name": "d2f2e1cbe68870caf284b3b647b4c562", "fusion_lat": 0.0, "rental_uris": {"ios": "https://dc.lft.to/lastmile_qr_scan", "android": "https://dc.lft.to/lastmile_qr_scan"}, "lon": -77.022215, "type": "electric_scooter"}, {"bike_id": "6bb12f9dfb66e43986d21e3158f52feb", "is_reserved": 0, "fusion_lon": 0.0, "lat": 38.892002, "is_disabled": 0, "name": "6bb12f9dfb66e43986d21e3158f52feb", "fusion_lat": 0.0, "rental_uris": {"ios": "https://dc.lft.to/lastmile_qr_scan", "android": "https://dc.lft.to/lastmile_qr_scan"}, "lon": -77.02379316666666, "type": "electric_scooter"}, {"bike_id": "f7ec6737fb123c625a7f870480adf49a", "is_reserved": 0, "fusion_lon": 0.0, "lat": 38.8936535, "is_disabled": 0, "name": "f7ec6737fb123c625a7f870480adf49a", "fusion_lat": 0.0, "rental_uris": {"ios": "https://dc.lft.to/lastmile_qr_scan", "android": "https://dc.lft.to/lastmile_qr_scan"}, "lon": -76.98510816666666, "type": "electric_bike"}, {"bike_id": "6eac695f22cec3c15ff55cc31a0aebd3", "is_reserved": 0, "fusion_lon": 0.0, "lat": 38.93434, "is_disabled": 0, "name": "6eac695f22cec3c15ff55cc31a0aebd3", "fusion_lat": 0.0, "rental_uris": {"ios": "https://dc.lft.to/lastmile_qr_scan", "android": "https://dc.lft.to/lastmile_qr_scan"}, "lon": -77.0344, "type": "electric_scooter"}, {"bike_id": "e4f1a8d2ff3f56c90412a4171a4e4f4e", "is_reserved": 0, "fusion_lon": 0.0, "lat": 38.899547166666665, "is_disabled": 0, "name": "e4f1a8d2ff3f56c90412a4171a4e4f4e", "fusion_lat": 0.0, "rental_uris": {"ios": "https://dc.lft.to/lastmile_qr_scan", "android": "https://dc.lft.to/lastmile_qr_scan"}, "lon": -77.03353383333334, "type": "electric_scooter"}, {"bike_id": "284a638668050ac60aab79aa64ffa7dd", "is_reserved": 0, "fusion_lon": 0.0, "lat": 38.9617565, "is_disabled": 0, "name": "284a638668050ac60aab79aa64ffa7dd", "fusion_lat": 0.0, "rental_uris": {"ios": "https://dc.lft.to/lastmile_qr_scan", "android": "https://dc.lft.to/lastmile_qr_scan"}, "lon": -76.9958935, "type": "electric_bike"}, {"bike_id": "028bad1bc19b8272322d6735eb6a63e7", "is_reserved": 0, "fusion_lon": 0.0, "lat": 38.90531516666667, "is_disabled": 0, "name": "028bad1bc19b8272322d6735eb6a63e7", "fusion_lat": 0.0, "rental_uris": {"ios": "https://dc.lft.to/lastmile_qr_scan", "android": "https://dc.lft.to/lastmile_qr_scan"}, "lon": -77.043563, "type": "electric_scooter"}, {"bike_id": "65a176589fe058fa7dad9e939a00b5b7", "is_reserved": 0, "fusion_lon": 0.0, "lat": 38.925039166666664, "is_disabled": 0, "name": "65a176589fe058fa7dad9e939a00b5b7", "fusion_lat": 0.0, "rental_uris": {"ios": "https://dc.lft.to/lastmile_qr_scan", "android": "https://dc.lft.to/lastmile_qr_scan"}, "lon": -77.0089085, "type": "electric_scooter"}, {"bike_id": "65b562e168d37cd8a76899682c89eba0", "is_reserved": 0, "fusion_lon": 0.0, "lat": 38.902039333333335, "is_disabled": 0, "name": "65b562e168d37cd8a76899682c89eba0", "fusion_lat": 0.0, "rental_uris": {"ios": "https://dc.lft.to/lastmile_qr_scan", "android": "https://dc.lft.to/lastmile_qr_scan"}, "lon": -77.02173816666667, "type": "electric_scooter"}, {"bike_id": "ec94d25a9624de4b5fdd7d2f2801824c", "is_reserved": 0, "fusion_lon": 0.0, "lat": 38.907803, "is_disabled": 0, "name": "ec94d25a9624de4b5fdd7d2f2801824c", "fusion_lat": 0.0, "rental_uris": {"ios": "https://dc.lft.to/lastmile_qr_scan", "android": "https://dc.lft.to/lastmile_qr_scan"}, "lon": -77.038302, "type": "electric_scooter"}, {"bike_id": "c00035062bf2570d9e6be7d53c179055", "is_reserved": 0, "fusion_lon": 0.0, "lat": 38.89878383333333, "is_disabled": 0, "name": "c00035062bf2570d9e6be7d53c179055", "fusion_lat": 0.0, "rental_uris": {"ios": "https://dc.lft.to/lastmile_qr_scan", "android": "https://dc.lft.to/lastmile_qr_scan"}, "lon": -76.93161566666667, "type": "electric_scooter"}, {"bike_id": "49f7f44b0c86628c86d7db427ee667fb", "is_reserved": 0, "fusion_lon": 0.0, "lat": 38.89533383333333, "is_disabled": 0, "name": "49f7f44b0c86628c86d7db427ee667fb", "fusion_lat": 0.0, "rental_uris": {"ios": "https://dc.lft.to/lastmile_qr_scan", "android": "https://dc.lft.to/lastmile_qr_scan"}, "lon": -76.94888883333333, "type": "electric_scooter"}, {"bike_id": "bbc6fa31bbf4bb6f79aa81abec237601", "is_reserved": 0, "fusion_lon": 0.0, "lat": 38.8923625, "is_disabled": 0, "name": "bbc6fa31bbf4bb6f79aa81abec237601", "fusion_lat": 0.0, "rental_uris": {"ios": "https://dc.lft.to/lastmile_qr_scan", "android": "https://dc.lft.to/lastmile_qr_scan"}, "lon": -77.04999316666667, "type": "electric_scooter"}, {"bike_id": "0705025a3a7302d25444fa65e655cf7e", "is_reserved": 0, "fusion_lon": 0.0, "lat": 38.92596266666666, "is_disabled": 0, "name": "0705025a3a7302d25444fa65e655cf7e", "fusion_lat": 0.0, "rental_uris": {"ios": "https://dc.lft.to/lastmile_qr_scan", "android": "https://dc.lft.to/lastmile_qr_scan"}, "lon": -77.00480366666666, "type": "electric_scooter"}, {"bike_id": "1c108f4936a1e25937114850592228c6", "is_reserved": 0, "fusion_lon": 0.0, "lat": 38.928584666666666, "is_disabled": 0, "name": "1c108f4936a1e25937114850592228c6", "fusion_lat": 0.0, "rental_uris": {"ios": "https://dc.lft.to/lastmile_qr_scan", "android": "https://dc.lft.to/lastmile_qr_scan"}, "lon": -77.032504, "type": "electric_scooter"}, {"bike_id": "84c4577832508ec4ab2fcf487b7ab566", "is_reserved": 0, "fusion_lon": 0.0, "lat": 38.892386333333334, "is_disabled": 0, "name": "84c4577832508ec4ab2fcf487b7ab566", "fusion_lat": 0.0, "rental_uris": {"ios": "https://dc.lft.to/lastmile_qr_scan", "android": "https://dc.lft.to/lastmile_qr_scan"}, "lon": -77.02797383333333, "type": "electric_scooter"}, {"bike_id": "a61171788c3b5bd968873d067c377e18", "is_reserved": 0, "fusion_lon": 0.0, "lat": 38.93387416666667, "is_disabled": 0, "name": "a61171788c3b5bd968873d067c377e18", "fusion_lat": 0.0, "rental_uris": {"ios": "https://dc.lft.to/lastmile_qr_scan", "android": "https://dc.lft.to/lastmile_qr_scan"}, "lon": -77.02907133333333, "type": "electric_scooter"}, {"bike_id": "c28c61933857504644e96b02069ca2d8", "is_reserved": 0, "fusion_lon": 0.0, "lat": 38.883659333333334, "is_disabled": 0, "name": "c28c61933857504644e96b02069ca2d8", "fusion_lat": 0.0, "rental_uris": {"ios": "https://dc.lft.to/lastmile_qr_scan", "android": "https://dc.lft.to/lastmile_qr_scan"}, "lon": -77.03175333333333, "type": "electric_scooter"}, {"bike_id": "434f01b11a7d18e2627be02a0498566d", "is_reserved": 0, "fusion_lon": 0.0, "lat": 38.9085135, "is_disabled": 0, "name": "434f01b11a7d18e2627be02a0498566d", "fusion_lat": 0.0, "rental_uris": {"ios": "https://dc.lft.to/lastmile_qr_scan", "android": "https://dc.lft.to/lastmile_qr_scan"}, "lon": -77.08530683333333, "type": "electric_scooter"}, {"bike_id": "4ce6ba2e6fa7473b339dc34c12188fd0", "is_reserved": 0, "fusion_lon": 0.0, "lat": 38.909893, "is_disabled": 0, "name": "4ce6ba2e6fa7473b339dc34c12188fd0", "fusion_lat": 0.0, "rental_uris": {"ios": "https://dc.lft.to/lastmile_qr_scan", "android": "https://dc.lft.to/lastmile_qr_scan"}, "lon": -77.0318995, "type": "electric_scooter"}, {"bike_id": "f949dff7c3ac2b68ae37c30525d33148", "is_reserved": 0, "fusion_lon": 0.0, "lat": 38.8987915, "is_disabled": 0, "name": "f949dff7c3ac2b68ae37c30525d33148", "fusion_lat": 0.0, "rental_uris": {"ios": "https://dc.lft.to/lastmile_qr_scan", "android": "https://dc.lft.to/lastmile_qr_scan"}, "lon": -76.93187116666667, "type": "electric_scooter"}, {"bike_id": "5ba210c331b81b0386d7e1ad870660c2", "is_reserved": 0, "fusion_lon": 0.0, "lat": 38.9260995, "is_disabled": 0, "name": "5ba210c331b81b0386d7e1ad870660c2", "fusion_lat": 0.0, "rental_uris": {"ios": "https://dc.lft.to/lastmile_qr_scan", "android": "https://dc.lft.to/lastmile_qr_scan"}, "lon": -77.04414066666666, "type": "electric_scooter"}, {"bike_id": "39115414aaa92a6c4ed25b397edb7e70", "is_reserved": 0, "fusion_lon": 0.0, "lat": 38.862885666666664, "is_disabled": 0, "name": "39115414aaa92a6c4ed25b397edb7e70", "fusion_lat": 0.0, "rental_uris": {"ios": "https://dc.lft.to/lastmile_qr_scan", "android": "https://dc.lft.to/lastmile_qr_scan"}, "lon": -76.99237133333334, "type": "electric_scooter"}, {"bike_id": "51a8d4e69be0c2df12c804b6bc0712c0", "is_reserved": 0, "fusion_lon": 0.0, "lat": 38.89762233333333, "is_disabled": 0, "name": "51a8d4e69be0c2df12c804b6bc0712c0", "fusion_lat": 0.0, "rental_uris": {"ios": "https://dc.lft.to/lastmile_qr_scan", "android": "https://dc.lft.to/lastmile_qr_scan"}, "lon": -76.93910466666667, "type": "electric_scooter"}, {"bike_id": "06421b001c820d9bbfea1b7dcb350452", "is_reserved": 0, "fusion_lon": 0.0, "lat": 38.9195455, "is_disabled": 0, "name": "06421b001c820d9bbfea1b7dcb350452", "fusion_lat": 0.0, "rental_uris": {"ios": "https://dc.lft.to/lastmile_qr_scan", "android": "https://dc.lft.to/lastmile_qr_scan"}, "lon": -76.9789085, "type": "electric_bike"}, {"bike_id": "06f8a66c6c11aecc7c7aa4adba5e9307", "is_reserved": 0, "fusion_lon": 0.0, "lat": 38.900127499999996, "is_disabled": 0, "name": "06f8a66c6c11aecc7c7aa4adba5e9307", "fusion_lat": 0.0, "rental_uris": {"ios": "https://dc.lft.to/lastmile_qr_scan", "android": "https://dc.lft.to/lastmile_qr_scan"}, "lon": -76.99765283333333, "type": "electric_scooter"}, {"bike_id": "f450b822d0406358ba19cfe137c89284", "is_reserved": 0, "fusion_lon": 0.0, "lat": 38.91694733333333, "is_disabled": 0, "name": "f450b822d0406358ba19cfe137c89284", "fusion_lat": 0.0, "rental_uris": {"ios": "https://dc.lft.to/lastmile_qr_scan", "android": "https://dc.lft.to/lastmile_qr_scan"}, "lon": -77.02953216666667, "type": "electric_scooter"}, {"bike_id": "3173b15d1b28e161e25c18a622667871", "is_reserved": 0, "fusion_lon": 0.0, "lat": 38.865069, "is_disabled": 0, "name": "3173b15d1b28e161e25c18a622667871", "fusion_lat": 0.0, "rental_uris": {"ios": "https://dc.lft.to/lastmile_qr_scan", "android": "https://dc.lft.to/lastmile_qr_scan"}, "lon": -76.98977283333333, "type": "electric_scooter"}, {"bike_id": "c0815ee2bf149edc1afdcd0f40d7dd03", "is_reserved": 0, "fusion_lon": 0.0, "lat": 38.93673833333333, "is_disabled": 0, "name": "c0815ee2bf149edc1afdcd0f40d7dd03", "fusion_lat": 0.0, "rental_uris": {"ios": "https://dc.lft.to/lastmile_qr_scan", "android": "https://dc.lft.to/lastmile_qr_scan"}, "lon": -76.95226166666667, "type": "electric_bike"}, {"bike_id": "db5715c8cdde051015376fc1148a725b", "is_reserved": 0, "fusion_lon": 0.0, "lat": 38.9288325, "is_disabled": 0, "name": "db5715c8cdde051015376fc1148a725b", "fusion_lat": 0.0, "rental_uris": {"ios": "https://dc.lft.to/lastmile_qr_scan", "android": "https://dc.lft.to/lastmile_qr_scan"}, "lon": -77.04047316666667, "type": "electric_scooter"}, {"bike_id": "35dd6b62ec86b8c0a08d1cfa5f2532a0", "is_reserved": 0, "fusion_lon": 0.0, "lat": 38.90249416666666, "is_disabled": 0, "name": "35dd6b62ec86b8c0a08d1cfa5f2532a0", "fusion_lat": 0.0, "rental_uris": {"ios": "https://dc.lft.to/lastmile_qr_scan", "android": "https://dc.lft.to/lastmile_qr_scan"}, "lon": -77.04522816666666, "type": "electric_scooter"}, {"bike_id": "55decb0ff7bdaf1c47b5562cad817694", "is_reserved": 0, "fusion_lon": 0.0, "lat": 38.906627, "is_disabled": 0, "name": "55decb0ff7bdaf1c47b5562cad817694", "fusion_lat": 0.0, "rental_uris": {"ios": "https://dc.lft.to/lastmile_qr_scan", "android": "https://dc.lft.to/lastmile_qr_scan"}, "lon": -77.0382415, "type": "electric_scooter"}, {"bike_id": "448dcc0d00741f9753ea7717093f3657", "is_reserved": 0, "fusion_lon": 0.0, "lat": 38.899699166666664, "is_disabled": 0, "name": "448dcc0d00741f9753ea7717093f3657", "fusion_lat": 0.0, "rental_uris": {"ios": "https://dc.lft.to/lastmile_qr_scan", "android": "https://dc.lft.to/lastmile_qr_scan"}, "lon": -77.02699366666667, "type": "electric_scooter"}, {"bike_id": "b9e9413dd38945db6855896ef0411ce8", "is_reserved": 0, "fusion_lon": 0.0, "lat": 38.892203333333335, "is_disabled": 0, "name": "b9e9413dd38945db6855896ef0411ce8", "fusion_lat": 0.0, "rental_uris": {"ios": "https://dc.lft.to/lastmile_qr_scan", "android": "https://dc.lft.to/lastmile_qr_scan"}, "lon": -77.0321255, "type": "electric_scooter"}, {"bike_id": "84979bb2e9ba2fdd36fdff90f6d2b2aa", "is_reserved": 0, "fusion_lon": 0.0, "lat": 38.884050333333334, "is_disabled": 0, "name": "84979bb2e9ba2fdd36fdff90f6d2b2aa", "fusion_lat": 0.0, "rental_uris": {"ios": "https://dc.lft.to/lastmile_qr_scan", "android": "https://dc.lft.to/lastmile_qr_scan"}, "lon": -76.9605845, "type": "electric_bike"}, {"bike_id": "a78e65d1e1add322eee1f61c0346a4bd", "is_reserved": 0, "fusion_lon": 0.0, "lat": 38.871885, "is_disabled": 0, "name": "a78e65d1e1add322eee1f61c0346a4bd", "fusion_lat": 0.0, "rental_uris": {"ios": "https://dc.lft.to/lastmile_qr_scan", "android": "https://dc.lft.to/lastmile_qr_scan"}, "lon": -77.01374066666666, "type": "electric_scooter"}, {"bike_id": "18146edc4838a303878584ff0b651630", "is_reserved": 0, "fusion_lon": 0.0, "lat": 38.90458116666667, "is_disabled": 0, "name": "18146edc4838a303878584ff0b651630", "fusion_lat": 0.0, "rental_uris": {"ios": "https://dc.lft.to/lastmile_qr_scan", "android": "https://dc.lft.to/lastmile_qr_scan"}, "lon": -77.05326833333334, "type": "electric_scooter"}, {"bike_id": "9ce2e49f0159c413c380fd0b855afcc2", "is_reserved": 0, "fusion_lon": 0.0, "lat": 38.89231633333333, "is_disabled": 0, "name": "9ce2e49f0159c413c380fd0b855afcc2", "fusion_lat": 0.0, "rental_uris": {"ios": "https://dc.lft.to/lastmile_qr_scan", "android": "https://dc.lft.to/lastmile_qr_scan"}, "lon": -77.02178066666667, "type": "electric_scooter"}, {"bike_id": "dd6f089e7bf684d0f65432c38421c4e3", "is_reserved": 0, "fusion_lon": 0.0, "lat": 38.939549666666665, "is_disabled": 0, "name": "dd6f089e7bf684d0f65432c38421c4e3", "fusion_lat": 0.0, "rental_uris": {"ios": "https://dc.lft.to/lastmile_qr_scan", "android": "https://dc.lft.to/lastmile_qr_scan"}, "lon": -77.03258716666667, "type": "electric_scooter"}, {"bike_id": "ea85c78a729088b777cdf64122ab782f", "is_reserved": 0, "fusion_lon": 0.0, "lat": 38.95281333333333, "is_disabled": 0, "name": "ea85c78a729088b777cdf64122ab782f", "fusion_lat": 0.0, "rental_uris": {"ios": "https://dc.lft.to/lastmile_qr_scan", "android": "https://dc.lft.to/lastmile_qr_scan"}, "lon": -77.00788466666667, "type": "electric_scooter"}, {"bike_id": "013ce627a8afd2ce9dc583cab95d264c", "is_reserved": 0, "fusion_lon": 0.0, "lat": 38.89960266666667, "is_disabled": 0, "name": "013ce627a8afd2ce9dc583cab95d264c", "fusion_lat": 0.0, "rental_uris": {"ios": "https://dc.lft.to/lastmile_qr_scan", "android": "https://dc.lft.to/lastmile_qr_scan"}, "lon": -77.01630383333334, "type": "electric_scooter"}, {"bike_id": "8edb0a6c1849ec84e75ee947a64e1d49", "is_reserved": 0, "fusion_lon": 0.0, "lat": 38.903391666666664, "is_disabled": 0, "name": "8edb0a6c1849ec84e75ee947a64e1d49", "fusion_lat": 0.0, "rental_uris": {"ios": "https://dc.lft.to/lastmile_qr_scan", "android": "https://dc.lft.to/lastmile_qr_scan"}, "lon": -77.02585, "type": "electric_scooter"}, {"bike_id": "35fba6568e92d06d76326facc75b04a2", "is_reserved": 0, "fusion_lon": 0.0, "lat": 38.900211166666665, "is_disabled": 0, "name": "35fba6568e92d06d76326facc75b04a2", "fusion_lat": 0.0, "rental_uris": {"ios": "https://dc.lft.to/lastmile_qr_scan", "android": "https://dc.lft.to/lastmile_qr_scan"}, "lon": -76.997923, "type": "electric_scooter"}, {"bike_id": "223b43aede3e11d79d5969d6ec0b8675", "is_reserved": 0, "fusion_lon": 0.0, "lat": 38.85321716666667, "is_disabled": 0, "name": "223b43aede3e11d79d5969d6ec0b8675", "fusion_lat": 0.0, "rental_uris": {"ios": "https://dc.lft.to/lastmile_qr_scan", "android": "https://dc.lft.to/lastmile_qr_scan"}, "lon": -76.980027, "type": "electric_scooter"}, {"bike_id": "b16d4b0456ba3d4d1393bf493f2f79a3", "is_reserved": 0, "fusion_lon": 0.0, "lat": 38.99066883333333, "is_disabled": 0, "name": "b16d4b0456ba3d4d1393bf493f2f79a3", "fusion_lat": 0.0, "rental_uris": {"ios": "https://dc.lft.to/lastmile_qr_scan", "android": "https://dc.lft.to/lastmile_qr_scan"}, "lon": -77.1002905, "type": "electric_bike"}, {"bike_id": "ead90b52a560d56a4567e3aa7ef77aa9", "is_reserved": 0, "fusion_lon": 0.0, "lat": 38.922589, "is_disabled": 0, "name": "ead90b52a560d56a4567e3aa7ef77aa9", "fusion_lat": 0.0, "rental_uris": {"ios": "https://dc.lft.to/lastmile_qr_scan", "android": "https://dc.lft.to/lastmile_qr_scan"}, "lon": -77.041409, "type": "electric_scooter"}, {"bike_id": "0f4164427ac03724278a6eea2995e8a7", "is_reserved": 0, "fusion_lon": 0.0, "lat": 38.920509333333335, "is_disabled": 0, "name": "0f4164427ac03724278a6eea2995e8a7", "fusion_lat": 0.0, "rental_uris": {"ios": "https://dc.lft.to/lastmile_qr_scan", "android": "https://dc.lft.to/lastmile_qr_scan"}, "lon": -76.99815316666667, "type": "electric_scooter"}, {"bike_id": "f0cee9cb43e79e4a906fb56f17096543", "is_reserved": 0, "fusion_lon": 0.0, "lat": 38.93405883333333, "is_disabled": 0, "name": "f0cee9cb43e79e4a906fb56f17096543", "fusion_lat": 0.0, "rental_uris": {"ios": "https://dc.lft.to/lastmile_qr_scan", "android": "https://dc.lft.to/lastmile_qr_scan"}, "lon": -77.02070633333334, "type": "electric_scooter"}, {"bike_id": "dba1ca761cca24589860c7f981403c27", "is_reserved": 0, "fusion_lon": 0.0, "lat": 38.908107, "is_disabled": 0, "name": "dba1ca761cca24589860c7f981403c27", "fusion_lat": 0.0, "rental_uris": {"ios": "https://dc.lft.to/lastmile_qr_scan", "android": "https://dc.lft.to/lastmile_qr_scan"}, "lon": -77.034544, "type": "electric_scooter"}, {"bike_id": "dbe5c9d3dd9ed9830b98b2e8be45ef0c", "is_reserved": 0, "fusion_lon": 0.0, "lat": 38.909007333333335, "is_disabled": 0, "name": "dbe5c9d3dd9ed9830b98b2e8be45ef0c", "fusion_lat": 0.0, "rental_uris": {"ios": "https://dc.lft.to/lastmile_qr_scan", "android": "https://dc.lft.to/lastmile_qr_scan"}, "lon": -77.04292866666667, "type": "electric_scooter"}, {"bike_id": "e9751b564b4b94df1157d783ca37e850", "is_reserved": 0, "fusion_lon": 0.0, "lat": 38.911061, "is_disabled": 0, "name": "e9751b564b4b94df1157d783ca37e850", "fusion_lat": 0.0, "rental_uris": {"ios": "https://dc.lft.to/lastmile_qr_scan", "android": "https://dc.lft.to/lastmile_qr_scan"}, "lon": -77.036248, "type": "electric_scooter"}, {"bike_id": "00879bdd504ae430f1fdc15cb180d61a", "is_reserved": 0, "fusion_lon": 0.0, "lat": 38.918079666666664, "is_disabled": 0, "name": "00879bdd504ae430f1fdc15cb180d61a", "fusion_lat": 0.0, "rental_uris": {"ios": "https://dc.lft.to/lastmile_qr_scan", "android": "https://dc.lft.to/lastmile_qr_scan"}, "lon": -77.0344065, "type": "electric_scooter"}, {"bike_id": "2636a88eedd4b8b8ad8e956ba9e97aee", "is_reserved": 0, "fusion_lon": 0.0, "lat": 38.940499, "is_disabled": 0, "name": "2636a88eedd4b8b8ad8e956ba9e97aee", "fusion_lat": 0.0, "rental_uris": {"ios": "https://dc.lft.to/lastmile_qr_scan", "android": "https://dc.lft.to/lastmile_qr_scan"}, "lon": -77.02980933333333, "type": "electric_scooter"}, {"bike_id": "39ec58baa0211771790220669b331ea6", "is_reserved": 0, "fusion_lon": 0.0, "lat": 38.912806333333336, "is_disabled": 0, "name": "39ec58baa0211771790220669b331ea6", "fusion_lat": 0.0, "rental_uris": {"ios": "https://dc.lft.to/lastmile_qr_scan", "android": "https://dc.lft.to/lastmile_qr_scan"}, "lon": -77.07826316666667, "type": "electric_bike"}, {"bike_id": "c13049ef2a641c3ac9de17b0f06a82da", "is_reserved": 0, "fusion_lon": 0.0, "lat": 38.897168666666666, "is_disabled": 0, "name": "c13049ef2a641c3ac9de17b0f06a82da", "fusion_lat": 0.0, "rental_uris": {"ios": "https://dc.lft.to/lastmile_qr_scan", "android": "https://dc.lft.to/lastmile_qr_scan"}, "lon": -77.00796766666667, "type": "electric_scooter"}, {"bike_id": "7a58878633c9858da742f2b05ecfe854", "is_reserved": 0, "fusion_lon": 0.0, "lat": 38.930676, "is_disabled": 0, "name": "7a58878633c9858da742f2b05ecfe854", "fusion_lat": 0.0, "rental_uris": {"ios": "https://dc.lft.to/lastmile_qr_scan", "android": "https://dc.lft.to/lastmile_qr_scan"}, "lon": -77.02975966666666, "type": "electric_scooter"}, {"bike_id": "e1dace4c09a753fb2670c6fd59b42033", "is_reserved": 0, "fusion_lon": 0.0, "lat": 38.92419116666667, "is_disabled": 0, "name": "e1dace4c09a753fb2670c6fd59b42033", "fusion_lat": 0.0, "rental_uris": {"ios": "https://dc.lft.to/lastmile_qr_scan", "android": "https://dc.lft.to/lastmile_qr_scan"}, "lon": -77.01947266666667, "type": "electric_scooter"}, {"bike_id": "4602d17deaa1dd3a14a1fbcef854b47a", "is_reserved": 0, "fusion_lon": 0.0, "lat": 38.94090383333333, "is_disabled": 0, "name": "4602d17deaa1dd3a14a1fbcef854b47a", "fusion_lat": 0.0, "rental_uris": {"ios": "https://dc.lft.to/lastmile_qr_scan", "android": "https://dc.lft.to/lastmile_qr_scan"}, "lon": -77.02719016666667, "type": "electric_scooter"}, {"bike_id": "b40303a0e50567bf2e4ef1555433a44d", "is_reserved": 0, "fusion_lon": 0.0, "lat": 38.9508575, "is_disabled": 0, "name": "b40303a0e50567bf2e4ef1555433a44d", "fusion_lat": 0.0, "rental_uris": {"ios": "https://dc.lft.to/lastmile_qr_scan", "android": "https://dc.lft.to/lastmile_qr_scan"}, "lon": -77.02830516666667, "type": "electric_scooter"}, {"bike_id": "e2ced8abdf9c406ccf97f7eb537328aa", "is_reserved": 0, "fusion_lon": 0.0, "lat": 38.896410833333334, "is_disabled": 0, "name": "e2ced8abdf9c406ccf97f7eb537328aa", "fusion_lat": 0.0, "rental_uris": {"ios": "https://dc.lft.to/lastmile_qr_scan", "android": "https://dc.lft.to/lastmile_qr_scan"}, "lon": -77.04345733333334, "type": "electric_scooter"}, {"bike_id": "116620de1c5fc4f0950f9a85e07aa0cc", "is_reserved": 0, "fusion_lon": 0.0, "lat": 38.9008775, "is_disabled": 0, "name": "116620de1c5fc4f0950f9a85e07aa0cc", "fusion_lat": 0.0, "rental_uris": {"ios": "https://dc.lft.to/lastmile_qr_scan", "android": "https://dc.lft.to/lastmile_qr_scan"}, "lon": -77.020884, "type": "electric_scooter"}, {"bike_id": "109decd26c285591c651eab7b63f5eda", "is_reserved": 0, "fusion_lon": 0.0, "lat": 38.92191, "is_disabled": 0, "name": "109decd26c285591c651eab7b63f5eda", "fusion_lat": 0.0, "rental_uris": {"ios": "https://dc.lft.to/lastmile_qr_scan", "android": "https://dc.lft.to/lastmile_qr_scan"}, "lon": -77.0424925, "type": "electric_scooter"}, {"bike_id": "5643f1ab32839a60f99ba6c4761d2b6d", "is_reserved": 0, "fusion_lon": 0.0, "lat": 38.91562016666666, "is_disabled": 0, "name": "5643f1ab32839a60f99ba6c4761d2b6d", "fusion_lat": 0.0, "rental_uris": {"ios": "https://dc.lft.to/lastmile_qr_scan", "android": "https://dc.lft.to/lastmile_qr_scan"}, "lon": -77.03903716666666, "type": "electric_scooter"}, {"bike_id": "91754a3315913a01bc846a40292272a0", "is_reserved": 0, "fusion_lon": 0.0, "lat": 38.892323166666664, "is_disabled": 0, "name": "91754a3315913a01bc846a40292272a0", "fusion_lat": 0.0, "rental_uris": {"ios": "https://dc.lft.to/lastmile_qr_scan", "android": "https://dc.lft.to/lastmile_qr_scan"}, "lon": -77.021749, "type": "electric_scooter"}, {"bike_id": "80868841c0a6a265ba45c84bbcccaf90", "is_reserved": 0, "fusion_lon": 0.0, "lat": 38.90918966666667, "is_disabled": 0, "name": "80868841c0a6a265ba45c84bbcccaf90", "fusion_lat": 0.0, "rental_uris": {"ios": "https://dc.lft.to/lastmile_qr_scan", "android": "https://dc.lft.to/lastmile_qr_scan"}, "lon": -77.03134483333334, "type": "electric_scooter"}, {"bike_id": "b920a0c1b54c0033082eff102324d8da", "is_reserved": 0, "fusion_lon": 0.0, "lat": 38.8984265, "is_disabled": 0, "name": "b920a0c1b54c0033082eff102324d8da", "fusion_lat": 0.0, "rental_uris": {"ios": "https://dc.lft.to/lastmile_qr_scan", "android": "https://dc.lft.to/lastmile_qr_scan"}, "lon": -77.033317, "type": "electric_scooter"}, {"bike_id": "f32696836ac961619363a1676a3d0acc", "is_reserved": 0, "fusion_lon": 0.0, "lat": 38.92182416666667, "is_disabled": 0, "name": "f32696836ac961619363a1676a3d0acc", "fusion_lat": 0.0, "rental_uris": {"ios": "https://dc.lft.to/lastmile_qr_scan", "android": "https://dc.lft.to/lastmile_qr_scan"}, "lon": -77.04280183333333, "type": "electric_scooter"}, {"bike_id": "6a89d3662351ddbbc3ae4efb284a45ee", "is_reserved": 0, "fusion_lon": 0.0, "lat": 38.984654666666664, "is_disabled": 0, "name": "6a89d3662351ddbbc3ae4efb284a45ee", "fusion_lat": 0.0, "rental_uris": {"ios": "https://dc.lft.to/lastmile_qr_scan", "android": "https://dc.lft.to/lastmile_qr_scan"}, "lon": -76.955249, "type": "electric_bike"}, {"bike_id": "0d425c57001103c1025338f3e1367c68", "is_reserved": 0, "fusion_lon": 0.0, "lat": 38.985946, "is_disabled": 0, "name": "0d425c57001103c1025338f3e1367c68", "fusion_lat": 0.0, "rental_uris": {"ios": "https://dc.lft.to/lastmile_qr_scan", "android": "https://dc.lft.to/lastmile_qr_scan"}, "lon": -77.03749683333334, "type": "electric_bike"}, {"bike_id": "9595553f916c91ff9f9019dce8f82785", "is_reserved": 0, "fusion_lon": 0.0, "lat": 38.892352, "is_disabled": 0, "name": "9595553f916c91ff9f9019dce8f82785", "fusion_lat": 0.0, "rental_uris": {"ios": "https://dc.lft.to/lastmile_qr_scan", "android": "https://dc.lft.to/lastmile_qr_scan"}, "lon": -77.02581716666667, "type": "electric_scooter"}, {"bike_id": "d0ac7a05c29c1815640fda399880c831", "is_reserved": 0, "fusion_lon": 0.0, "lat": 38.91377633333333, "is_disabled": 0, "name": "d0ac7a05c29c1815640fda399880c831", "fusion_lat": 0.0, "rental_uris": {"ios": "https://dc.lft.to/lastmile_qr_scan", "android": "https://dc.lft.to/lastmile_qr_scan"}, "lon": -77.03969933333333, "type": "electric_scooter"}, {"bike_id": "0a24abe2a6b061bec43a047e0b6abc7b", "is_reserved": 0, "fusion_lon": 0.0, "lat": 38.9209, "is_disabled": 0, "name": "0a24abe2a6b061bec43a047e0b6abc7b", "fusion_lat": 0.0, "rental_uris": {"ios": "https://dc.lft.to/lastmile_qr_scan", "android": "https://dc.lft.to/lastmile_qr_scan"}, "lon": -77.0255425, "type": "electric_scooter"}, {"bike_id": "fd2a72fc8ea75b00b7843e432784dcdc", "is_reserved": 0, "fusion_lon": 0.0, "lat": 38.807008833333335, "is_disabled": 0, "name": "fd2a72fc8ea75b00b7843e432784dcdc", "fusion_lat": 0.0, "rental_uris": {"ios": "https://dc.lft.to/lastmile_qr_scan", "android": "https://dc.lft.to/lastmile_qr_scan"}, "lon": -77.05970083333334, "type": "electric_bike"}, {"bike_id": "1ae7577407ba661cbfcd2c458304b8d6", "is_reserved": 0, "fusion_lon": 0.0, "lat": 38.897416166666666, "is_disabled": 0, "name": "1ae7577407ba661cbfcd2c458304b8d6", "fusion_lat": 0.0, "rental_uris": {"ios": "https://dc.lft.to/lastmile_qr_scan", "android": "https://dc.lft.to/lastmile_qr_scan"}, "lon": -77.0272385, "type": "electric_scooter"}, {"bike_id": "d01a9ffff57940d07f46f154bf48afe0", "is_reserved": 0, "fusion_lon": 0.0, "lat": 38.90299133333333, "is_disabled": 0, "name": "d01a9ffff57940d07f46f154bf48afe0", "fusion_lat": 0.0, "rental_uris": {"ios": "https://dc.lft.to/lastmile_qr_scan", "android": "https://dc.lft.to/lastmile_qr_scan"}, "lon": -77.04068283333334, "type": "electric_scooter"}, {"bike_id": "31f85a4362a2943ccf8ef83d601d27f0", "is_reserved": 0, "fusion_lon": 0.0, "lat": 38.9388945, "is_disabled": 0, "name": "31f85a4362a2943ccf8ef83d601d27f0", "fusion_lat": 0.0, "rental_uris": {"ios": "https://dc.lft.to/lastmile_qr_scan", "android": "https://dc.lft.to/lastmile_qr_scan"}, "lon": -77.02831066666667, "type": "electric_scooter"}, {"bike_id": "fefd6019e2f7f8357704488aa9649be8", "is_reserved": 0, "fusion_lon": 0.0, "lat": 38.927488, "is_disabled": 0, "name": "fefd6019e2f7f8357704488aa9649be8", "fusion_lat": 0.0, "rental_uris": {"ios": "https://dc.lft.to/lastmile_qr_scan", "android": "https://dc.lft.to/lastmile_qr_scan"}, "lon": -77.05369633333333, "type": "electric_scooter"}, {"bike_id": "339704fb31767fa4a6fb68bd3f3be82a", "is_reserved": 0, "fusion_lon": 0.0, "lat": 38.939478666666666, "is_disabled": 0, "name": "339704fb31767fa4a6fb68bd3f3be82a", "fusion_lat": 0.0, "rental_uris": {"ios": "https://dc.lft.to/lastmile_qr_scan", "android": "https://dc.lft.to/lastmile_qr_scan"}, "lon": -77.03266833333333, "type": "electric_scooter"}, {"bike_id": "70ce9f4a3e64cbfabf2ea45de2e0315b", "is_reserved": 0, "fusion_lon": 0.0, "lat": 38.9237345, "is_disabled": 0, "name": "70ce9f4a3e64cbfabf2ea45de2e0315b", "fusion_lat": 0.0, "rental_uris": {"ios": "https://dc.lft.to/lastmile_qr_scan", "android": "https://dc.lft.to/lastmile_qr_scan"}, "lon": -77.01917566666667, "type": "electric_scooter"}, {"bike_id": "50cc58775ddd9ac9e85d4ec11c7773d1", "is_reserved": 0, "fusion_lon": 0.0, "lat": 38.86597583333333, "is_disabled": 0, "name": "50cc58775ddd9ac9e85d4ec11c7773d1", "fusion_lat": 0.0, "rental_uris": {"ios": "https://dc.lft.to/lastmile_qr_scan", "android": "https://dc.lft.to/lastmile_qr_scan"}, "lon": -76.93230683333333, "type": "electric_bike"}, {"bike_id": "084fbd5cb57208c055f8efcfeef4b59e", "is_reserved": 0, "fusion_lon": 0.0, "lat": 38.918099, "is_disabled": 0, "name": "084fbd5cb57208c055f8efcfeef4b59e", "fusion_lat": 0.0, "rental_uris": {"ios": "https://dc.lft.to/lastmile_qr_scan", "android": "https://dc.lft.to/lastmile_qr_scan"}, "lon": -77.03194783333333, "type": "electric_scooter"}, {"bike_id": "d22423e3eb95aa883314d40ba18a485a", "is_reserved": 0, "fusion_lon": 0.0, "lat": 38.90056416666667, "is_disabled": 0, "name": "d22423e3eb95aa883314d40ba18a485a", "fusion_lat": 0.0, "rental_uris": {"ios": "https://dc.lft.to/lastmile_qr_scan", "android": "https://dc.lft.to/lastmile_qr_scan"}, "lon": -77.00761816666666, "type": "electric_scooter"}, {"bike_id": "4918fdb38768e4f553aae2bea4adea84", "is_reserved": 0, "fusion_lon": 0.0, "lat": 38.92348483333333, "is_disabled": 0, "name": "4918fdb38768e4f553aae2bea4adea84", "fusion_lat": 0.0, "rental_uris": {"ios": "https://dc.lft.to/lastmile_qr_scan", "android": "https://dc.lft.to/lastmile_qr_scan"}, "lon": -77.0190615, "type": "electric_scooter"}, {"bike_id": "ffde043ace44ab7ae420bbbc2307c8b4", "is_reserved": 0, "fusion_lon": 0.0, "lat": 38.865656333333334, "is_disabled": 0, "name": "ffde043ace44ab7ae420bbbc2307c8b4", "fusion_lat": 0.0, "rental_uris": {"ios": "https://dc.lft.to/lastmile_qr_scan", "android": "https://dc.lft.to/lastmile_qr_scan"}, "lon": -76.989493, "type": "electric_scooter"}, {"bike_id": "54fcb6fd9c97efae29e17c222e2b07f3", "is_reserved": 0, "fusion_lon": 0.0, "lat": 38.939525, "is_disabled": 0, "name": "54fcb6fd9c97efae29e17c222e2b07f3", "fusion_lat": 0.0, "rental_uris": {"ios": "https://dc.lft.to/lastmile_qr_scan", "android": "https://dc.lft.to/lastmile_qr_scan"}, "lon": -77.03259583333333, "type": "electric_scooter"}, {"bike_id": "8ab943cc3a1c4dce78eb910f601441f2", "is_reserved": 0, "fusion_lon": 0.0, "lat": 38.85224216666667, "is_disabled": 0, "name": "8ab943cc3a1c4dce78eb910f601441f2", "fusion_lat": 0.0, "rental_uris": {"ios": "https://dc.lft.to/lastmile_qr_scan", "android": "https://dc.lft.to/lastmile_qr_scan"}, "lon": -77.12960133333333, "type": "electric_bike"}, {"bike_id": "1992275fa5b25825e1a60722d02e5ebd", "is_reserved": 0, "fusion_lon": 0.0, "lat": 38.892309833333336, "is_disabled": 0, "name": "1992275fa5b25825e1a60722d02e5ebd", "fusion_lat": 0.0, "rental_uris": {"ios": "https://dc.lft.to/lastmile_qr_scan", "android": "https://dc.lft.to/lastmile_qr_scan"}, "lon": -77.0283935, "type": "electric_scooter"}, {"bike_id": "85ca0371aa10e8e3ca7e3994b616654f", "is_reserved": 0, "fusion_lon": 0.0, "lat": 38.90426516666667, "is_disabled": 0, "name": "85ca0371aa10e8e3ca7e3994b616654f", "fusion_lat": 0.0, "rental_uris": {"ios": "https://dc.lft.to/lastmile_qr_scan", "android": "https://dc.lft.to/lastmile_qr_scan"}, "lon": -77.03443733333333, "type": "electric_scooter"}, {"bike_id": "825a459e24ad8002e590be02c74abb66", "is_reserved": 0, "fusion_lon": 0.0, "lat": 38.90772716666667, "is_disabled": 0, "name": "825a459e24ad8002e590be02c74abb66", "fusion_lat": 0.0, "rental_uris": {"ios": "https://dc.lft.to/lastmile_qr_scan", "android": "https://dc.lft.to/lastmile_qr_scan"}, "lon": -77.0386785, "type": "electric_scooter"}, {"bike_id": "d426f56cb3db18b0402a7a4b82549e1b", "is_reserved": 0, "fusion_lon": 0.0, "lat": 38.9007105, "is_disabled": 0, "name": "d426f56cb3db18b0402a7a4b82549e1b", "fusion_lat": 0.0, "rental_uris": {"ios": "https://dc.lft.to/lastmile_qr_scan", "android": "https://dc.lft.to/lastmile_qr_scan"}, "lon": -77.04529066666667, "type": "electric_scooter"}, {"bike_id": "250c9b99cf3f73cb7be4e1bc278e99e3", "is_reserved": 0, "fusion_lon": 0.0, "lat": 38.900181, "is_disabled": 0, "name": "250c9b99cf3f73cb7be4e1bc278e99e3", "fusion_lat": 0.0, "rental_uris": {"ios": "https://dc.lft.to/lastmile_qr_scan", "android": "https://dc.lft.to/lastmile_qr_scan"}, "lon": -77.0332175, "type": "electric_scooter"}, {"bike_id": "234376e3e21e8e9121388cda8454e93b", "is_reserved": 0, "fusion_lon": 0.0, "lat": 38.913329166666664, "is_disabled": 0, "name": "234376e3e21e8e9121388cda8454e93b", "fusion_lat": 0.0, "rental_uris": {"ios": "https://dc.lft.to/lastmile_qr_scan", "android": "https://dc.lft.to/lastmile_qr_scan"}, "lon": -77.04815883333333, "type": "electric_scooter"}, {"bike_id": "85d0d3cea0cfa4359197c710d3d18bd0", "is_reserved": 0, "fusion_lon": 0.0, "lat": 38.921954, "is_disabled": 0, "name": "85d0d3cea0cfa4359197c710d3d18bd0", "fusion_lat": 0.0, "rental_uris": {"ios": "https://dc.lft.to/lastmile_qr_scan", "android": "https://dc.lft.to/lastmile_qr_scan"}, "lon": -77.04236283333333, "type": "electric_scooter"}, {"bike_id": "21ce3aa6a5c7fc9baffd90bfe227536b", "is_reserved": 0, "fusion_lon": 0.0, "lat": 38.879250166666665, "is_disabled": 0, "name": "21ce3aa6a5c7fc9baffd90bfe227536b", "fusion_lat": 0.0, "rental_uris": {"ios": "https://dc.lft.to/lastmile_qr_scan", "android": "https://dc.lft.to/lastmile_qr_scan"}, "lon": -76.99249766666667, "type": "electric_scooter"}, {"bike_id": "b039b9c3bbea5fd0d139f4128374cb9e", "is_reserved": 0, "fusion_lon": 0.0, "lat": 38.91979583333333, "is_disabled": 0, "name": "b039b9c3bbea5fd0d139f4128374cb9e", "fusion_lat": 0.0, "rental_uris": {"ios": "https://dc.lft.to/lastmile_qr_scan", "android": "https://dc.lft.to/lastmile_qr_scan"}, "lon": -77.04439866666667, "type": "electric_scooter"}, {"bike_id": "8a25448e3f36eba710f807fed52569aa", "is_reserved": 0, "fusion_lon": 0.0, "lat": 38.9184875, "is_disabled": 0, "name": "8a25448e3f36eba710f807fed52569aa", "fusion_lat": 0.0, "rental_uris": {"ios": "https://dc.lft.to/lastmile_qr_scan", "android": "https://dc.lft.to/lastmile_qr_scan"}, "lon": -77.03894866666667, "type": "electric_scooter"}, {"bike_id": "5bda902d51b08333f0d429721df424af", "is_reserved": 0, "fusion_lon": 0.0, "lat": 38.910965, "is_disabled": 0, "name": "5bda902d51b08333f0d429721df424af", "fusion_lat": 0.0, "rental_uris": {"ios": "https://dc.lft.to/lastmile_qr_scan", "android": "https://dc.lft.to/lastmile_qr_scan"}, "lon": -77.03179983333334, "type": "electric_scooter"}, {"bike_id": "219798056ee8bbf27937228834bd4e03", "is_reserved": 0, "fusion_lon": 0.0, "lat": 38.996739166666664, "is_disabled": 0, "name": "219798056ee8bbf27937228834bd4e03", "fusion_lat": 0.0, "rental_uris": {"ios": "https://dc.lft.to/lastmile_qr_scan", "android": "https://dc.lft.to/lastmile_qr_scan"}, "lon": -77.0377845, "type": "electric_bike"}, {"bike_id": "2a52e1074ff106342a85b5398516bc5d", "is_reserved": 0, "fusion_lon": 0.0, "lat": 38.91046683333333, "is_disabled": 0, "name": "2a52e1074ff106342a85b5398516bc5d", "fusion_lat": 0.0, "rental_uris": {"ios": "https://dc.lft.to/lastmile_qr_scan", "android": "https://dc.lft.to/lastmile_qr_scan"}, "lon": -77.03207733333333, "type": "electric_scooter"}, {"bike_id": "83c6b91ed752e348c86d21b267010776", "is_reserved": 0, "fusion_lon": 0.0, "lat": 38.93643483333334, "is_disabled": 0, "name": "83c6b91ed752e348c86d21b267010776", "fusion_lat": 0.0, "rental_uris": {"ios": "https://dc.lft.to/lastmile_qr_scan", "android": "https://dc.lft.to/lastmile_qr_scan"}, "lon": -76.99637516666667, "type": "electric_scooter"}, {"bike_id": "f8933bef968ca8d148c4ceed6d5361af", "is_reserved": 0, "fusion_lon": 0.0, "lat": 38.88491233333333, "is_disabled": 0, "name": "f8933bef968ca8d148c4ceed6d5361af", "fusion_lat": 0.0, "rental_uris": {"ios": "https://dc.lft.to/lastmile_qr_scan", "android": "https://dc.lft.to/lastmile_qr_scan"}, "lon": -77.007137, "type": "electric_scooter"}, {"bike_id": "009ccabc7a3917c8e79b65148660a09e", "is_reserved": 0, "fusion_lon": 0.0, "lat": 38.90165283333333, "is_disabled": 0, "name": "009ccabc7a3917c8e79b65148660a09e", "fusion_lat": 0.0, "rental_uris": {"ios": "https://dc.lft.to/lastmile_qr_scan", "android": "https://dc.lft.to/lastmile_qr_scan"}, "lon": -77.0261325, "type": "electric_scooter"}, {"bike_id": "55b6925d42c4f09fe1adca7ea1557659", "is_reserved": 0, "fusion_lon": 0.0, "lat": 38.90277916666667, "is_disabled": 0, "name": "55b6925d42c4f09fe1adca7ea1557659", "fusion_lat": 0.0, "rental_uris": {"ios": "https://dc.lft.to/lastmile_qr_scan", "android": "https://dc.lft.to/lastmile_qr_scan"}, "lon": -77.038431, "type": "electric_scooter"}, {"bike_id": "d585f7fbcde6b8bdecd2910324ede735", "is_reserved": 0, "fusion_lon": 0.0, "lat": 38.891744333333335, "is_disabled": 0, "name": "d585f7fbcde6b8bdecd2910324ede735", "fusion_lat": 0.0, "rental_uris": {"ios": "https://dc.lft.to/lastmile_qr_scan", "android": "https://dc.lft.to/lastmile_qr_scan"}, "lon": -77.01543866666667, "type": "electric_scooter"}, {"bike_id": "0aa4f432ad67337672b3319073011146", "is_reserved": 0, "fusion_lon": 0.0, "lat": 38.8982615, "is_disabled": 0, "name": "0aa4f432ad67337672b3319073011146", "fusion_lat": 0.0, "rental_uris": {"ios": "https://dc.lft.to/lastmile_qr_scan", "android": "https://dc.lft.to/lastmile_qr_scan"}, "lon": -77.03308966666667, "type": "electric_scooter"}, {"bike_id": "eee9e9739af556bdae0f449035fbf4c4", "is_reserved": 0, "fusion_lon": 0.0, "lat": 38.876427666666665, "is_disabled": 0, "name": "eee9e9739af556bdae0f449035fbf4c4", "fusion_lat": 0.0, "rental_uris": {"ios": "https://dc.lft.to/lastmile_qr_scan", "android": "https://dc.lft.to/lastmile_qr_scan"}, "lon": -76.995863, "type": "electric_scooter"}, {"bike_id": "d9ca336c49706797569e6f7ed2db6aaa", "is_reserved": 0, "fusion_lon": 0.0, "lat": 38.905600666666665, "is_disabled": 0, "name": "d9ca336c49706797569e6f7ed2db6aaa", "fusion_lat": 0.0, "rental_uris": {"ios": "https://dc.lft.to/lastmile_qr_scan", "android": "https://dc.lft.to/lastmile_qr_scan"}, "lon": -77.03832983333334, "type": "electric_scooter"}, {"bike_id": "2931cc11e8a3a926f2643ef20c1c80e3", "is_reserved": 0, "fusion_lon": 0.0, "lat": 38.883201, "is_disabled": 0, "name": "2931cc11e8a3a926f2643ef20c1c80e3", "fusion_lat": 0.0, "rental_uris": {"ios": "https://dc.lft.to/lastmile_qr_scan", "android": "https://dc.lft.to/lastmile_qr_scan"}, "lon": -77.00936483333334, "type": "electric_scooter"}, {"bike_id": "7da1bfb554a28ab82b6585cc62741827", "is_reserved": 0, "fusion_lon": 0.0, "lat": 38.96620333333333, "is_disabled": 0, "name": "7da1bfb554a28ab82b6585cc62741827", "fusion_lat": 0.0, "rental_uris": {"ios": "https://dc.lft.to/lastmile_qr_scan", "android": "https://dc.lft.to/lastmile_qr_scan"}, "lon": -76.94424216666667, "type": "electric_bike"}, {"bike_id": "c8567d6b0992dcf98df28ab2352ad8b7", "is_reserved": 0, "fusion_lon": 0.0, "lat": 38.8990795, "is_disabled": 0, "name": "c8567d6b0992dcf98df28ab2352ad8b7", "fusion_lat": 0.0, "rental_uris": {"ios": "https://dc.lft.to/lastmile_qr_scan", "android": "https://dc.lft.to/lastmile_qr_scan"}, "lon": -77.03267583333333, "type": "electric_scooter"}, {"bike_id": "ecb52a8b114ba533b1730d046b32a4f0", "is_reserved": 0, "fusion_lon": 0.0, "lat": 38.9030215, "is_disabled": 0, "name": "ecb52a8b114ba533b1730d046b32a4f0", "fusion_lat": 0.0, "rental_uris": {"ios": "https://dc.lft.to/lastmile_qr_scan", "android": "https://dc.lft.to/lastmile_qr_scan"}, "lon": -77.03447983333334, "type": "electric_scooter"}, {"bike_id": "0b0a2ac4fd0095cc239d0d0e913fd3e9", "is_reserved": 0, "fusion_lon": 0.0, "lat": 38.89221216666667, "is_disabled": 0, "name": "0b0a2ac4fd0095cc239d0d0e913fd3e9", "fusion_lat": 0.0, "rental_uris": {"ios": "https://dc.lft.to/lastmile_qr_scan", "android": "https://dc.lft.to/lastmile_qr_scan"}, "lon": -77.02622966666667, "type": "electric_scooter"}, {"bike_id": "11dcc332b3ea0538ceae3fc767a260f1", "is_reserved": 0, "fusion_lon": 0.0, "lat": 38.9102715, "is_disabled": 0, "name": "11dcc332b3ea0538ceae3fc767a260f1", "fusion_lat": 0.0, "rental_uris": {"ios": "https://dc.lft.to/lastmile_qr_scan", "android": "https://dc.lft.to/lastmile_qr_scan"}, "lon": -77.04295766666667, "type": "electric_scooter"}, {"bike_id": "11e84dce297bbe96b1778b61eab30001", "is_reserved": 0, "fusion_lon": 0.0, "lat": 38.89253316666667, "is_disabled": 0, "name": "11e84dce297bbe96b1778b61eab30001", "fusion_lat": 0.0, "rental_uris": {"ios": "https://dc.lft.to/lastmile_qr_scan", "android": "https://dc.lft.to/lastmile_qr_scan"}, "lon": -76.943366, "type": "electric_scooter"}, {"bike_id": "a0dbc51482654ae840112c712ff620b9", "is_reserved": 0, "fusion_lon": 0.0, "lat": 38.953578, "is_disabled": 0, "name": "a0dbc51482654ae840112c712ff620b9", "fusion_lat": 0.0, "rental_uris": {"ios": "https://dc.lft.to/lastmile_qr_scan", "android": "https://dc.lft.to/lastmile_qr_scan"}, "lon": -76.98089216666666, "type": "electric_bike"}, {"bike_id": "220f62c72f46e61e8edfc7bd7c9f58b1", "is_reserved": 0, "fusion_lon": 0.0, "lat": 38.9038325, "is_disabled": 0, "name": "220f62c72f46e61e8edfc7bd7c9f58b1", "fusion_lat": 0.0, "rental_uris": {"ios": "https://dc.lft.to/lastmile_qr_scan", "android": "https://dc.lft.to/lastmile_qr_scan"}, "lon": -77.03857366666666, "type": "electric_scooter"}, {"bike_id": "8554cabeaf860f3d8c9b089881560645", "is_reserved": 0, "fusion_lon": 0.0, "lat": 38.8935905, "is_disabled": 0, "name": "8554cabeaf860f3d8c9b089881560645", "fusion_lat": 0.0, "rental_uris": {"ios": "https://dc.lft.to/lastmile_qr_scan", "android": "https://dc.lft.to/lastmile_qr_scan"}, "lon": -77.00333016666667, "type": "electric_scooter"}, {"bike_id": "2bdb3149c615bde63a356a8fd660ed9e", "is_reserved": 0, "fusion_lon": 0.0, "lat": 38.8714485, "is_disabled": 0, "name": "2bdb3149c615bde63a356a8fd660ed9e", "fusion_lat": 0.0, "rental_uris": {"ios": "https://dc.lft.to/lastmile_qr_scan", "android": "https://dc.lft.to/lastmile_qr_scan"}, "lon": -76.936638, "type": "electric_bike"}, {"bike_id": "99fe3279b48339e0c4d8adf272e301bc", "is_reserved": 0, "fusion_lon": 0.0, "lat": 38.905340833333334, "is_disabled": 0, "name": "99fe3279b48339e0c4d8adf272e301bc", "fusion_lat": 0.0, "rental_uris": {"ios": "https://dc.lft.to/lastmile_qr_scan", "android": "https://dc.lft.to/lastmile_qr_scan"}, "lon": -77.059717, "type": "electric_scooter"}, {"bike_id": "eee2d7d0460dd1a1c6074ff4218c1be8", "is_reserved": 0, "fusion_lon": 0.0, "lat": 38.8939865, "is_disabled": 0, "name": "eee2d7d0460dd1a1c6074ff4218c1be8", "fusion_lat": 0.0, "rental_uris": {"ios": "https://dc.lft.to/lastmile_qr_scan", "android": "https://dc.lft.to/lastmile_qr_scan"}, "lon": -76.99366616666667, "type": "electric_scooter"}, {"bike_id": "93ca7e3c6edfa232c927e9b00a77e212", "is_reserved": 0, "fusion_lon": 0.0, "lat": 38.884566, "is_disabled": 0, "name": "93ca7e3c6edfa232c927e9b00a77e212", "fusion_lat": 0.0, "rental_uris": {"ios": "https://dc.lft.to/lastmile_qr_scan", "android": "https://dc.lft.to/lastmile_qr_scan"}, "lon": -77.00577016666666, "type": "electric_scooter"}, {"bike_id": "4fb5f4e4facb4963a7ced41ef1e30cc0", "is_reserved": 0, "fusion_lon": 0.0, "lat": 38.94277133333333, "is_disabled": 0, "name": "4fb5f4e4facb4963a7ced41ef1e30cc0", "fusion_lat": 0.0, "rental_uris": {"ios": "https://dc.lft.to/lastmile_qr_scan", "android": "https://dc.lft.to/lastmile_qr_scan"}, "lon": -76.9807075, "type": "electric_bike"}, {"bike_id": "d4565fff4fcd0bbae1b7023eabcf2b8a", "is_reserved": 0, "fusion_lon": 0.0, "lat": 38.90649883333333, "is_disabled": 0, "name": "d4565fff4fcd0bbae1b7023eabcf2b8a", "fusion_lat": 0.0, "rental_uris": {"ios": "https://dc.lft.to/lastmile_qr_scan", "android": "https://dc.lft.to/lastmile_qr_scan"}, "lon": -77.00606766666667, "type": "electric_scooter"}, {"bike_id": "4f8e6ce5cb39a4d1193de90252fa256c", "is_reserved": 0, "fusion_lon": 0.0, "lat": 38.87650516666667, "is_disabled": 0, "name": "4f8e6ce5cb39a4d1193de90252fa256c", "fusion_lat": 0.0, "rental_uris": {"ios": "https://dc.lft.to/lastmile_qr_scan", "android": "https://dc.lft.to/lastmile_qr_scan"}, "lon": -77.00058883333334, "type": "electric_scooter"}, {"bike_id": "af7ebc2a3d28bcbf94f057f2a545b9f9", "is_reserved": 0, "fusion_lon": 0.0, "lat": 38.90427, "is_disabled": 0, "name": "af7ebc2a3d28bcbf94f057f2a545b9f9", "fusion_lat": 0.0, "rental_uris": {"ios": "https://dc.lft.to/lastmile_qr_scan", "android": "https://dc.lft.to/lastmile_qr_scan"}, "lon": -77.03864183333333, "type": "electric_scooter"}, {"bike_id": "aab777b23728000c370e96295ecb8eed", "is_reserved": 0, "fusion_lon": 0.0, "lat": 38.9013875, "is_disabled": 0, "name": "aab777b23728000c370e96295ecb8eed", "fusion_lat": 0.0, "rental_uris": {"ios": "https://dc.lft.to/lastmile_qr_scan", "android": "https://dc.lft.to/lastmile_qr_scan"}, "lon": -77.04160183333333, "type": "electric_bike"}, {"bike_id": "7c2831ee69dc294294022399ef267ac0", "is_reserved": 0, "fusion_lon": 0.0, "lat": 38.917241, "is_disabled": 0, "name": "7c2831ee69dc294294022399ef267ac0", "fusion_lat": 0.0, "rental_uris": {"ios": "https://dc.lft.to/lastmile_qr_scan", "android": "https://dc.lft.to/lastmile_qr_scan"}, "lon": -77.02971483333333, "type": "electric_scooter"}, {"bike_id": "3f407e8610c9d517b92b9fb1213a3a04", "is_reserved": 0, "fusion_lon": 0.0, "lat": 38.93456833333333, "is_disabled": 0, "name": "3f407e8610c9d517b92b9fb1213a3a04", "fusion_lat": 0.0, "rental_uris": {"ios": "https://dc.lft.to/lastmile_qr_scan", "android": "https://dc.lft.to/lastmile_qr_scan"}, "lon": -77.072351, "type": "electric_scooter"}, {"bike_id": "950476faabad6b3f6a1646418a65db73", "is_reserved": 0, "fusion_lon": 0.0, "lat": 38.89612416666667, "is_disabled": 0, "name": "950476faabad6b3f6a1646418a65db73", "fusion_lat": 0.0, "rental_uris": {"ios": "https://dc.lft.to/lastmile_qr_scan", "android": "https://dc.lft.to/lastmile_qr_scan"}, "lon": -77.04466583333334, "type": "electric_scooter"}, {"bike_id": "62acd5b836e8c3ff34786f174c0e9263", "is_reserved": 0, "fusion_lon": 0.0, "lat": 38.938674166666665, "is_disabled": 0, "name": "62acd5b836e8c3ff34786f174c0e9263", "fusion_lat": 0.0, "rental_uris": {"ios": "https://dc.lft.to/lastmile_qr_scan", "android": "https://dc.lft.to/lastmile_qr_scan"}, "lon": -77.02647583333334, "type": "electric_scooter"}, {"bike_id": "62f326848b0bb0dea4709977070a7ba9", "is_reserved": 0, "fusion_lon": 0.0, "lat": 38.89203066666666, "is_disabled": 0, "name": "62f326848b0bb0dea4709977070a7ba9", "fusion_lat": 0.0, "rental_uris": {"ios": "https://dc.lft.to/lastmile_qr_scan", "android": "https://dc.lft.to/lastmile_qr_scan"}, "lon": -77.02838783333333, "type": "electric_scooter"}, {"bike_id": "25215e77746586c31301e470cd23342f", "is_reserved": 0, "fusion_lon": 0.0, "lat": 38.9265255, "is_disabled": 0, "name": "25215e77746586c31301e470cd23342f", "fusion_lat": 0.0, "rental_uris": {"ios": "https://dc.lft.to/lastmile_qr_scan", "android": "https://dc.lft.to/lastmile_qr_scan"}, "lon": -77.03726583333334, "type": "electric_scooter"}, {"bike_id": "eb6f0430b6a2b17cdf8c0fc27fb3aaba", "is_reserved": 0, "fusion_lon": 0.0, "lat": 38.906657833333334, "is_disabled": 0, "name": "eb6f0430b6a2b17cdf8c0fc27fb3aaba", "fusion_lat": 0.0, "rental_uris": {"ios": "https://dc.lft.to/lastmile_qr_scan", "android": "https://dc.lft.to/lastmile_qr_scan"}, "lon": -77.05015833333333, "type": "electric_scooter"}, {"bike_id": "9efb8bb8ad3ebf92742764ed781fb377", "is_reserved": 0, "fusion_lon": 0.0, "lat": 38.90970566666667, "is_disabled": 0, "name": "9efb8bb8ad3ebf92742764ed781fb377", "fusion_lat": 0.0, "rental_uris": {"ios": "https://dc.lft.to/lastmile_qr_scan", "android": "https://dc.lft.to/lastmile_qr_scan"}, "lon": -77.0346405, "type": "electric_scooter"}, {"bike_id": "67a110cae42ae20a30c182f0707f8cad", "is_reserved": 0, "fusion_lon": 0.0, "lat": 38.903915833333336, "is_disabled": 0, "name": "67a110cae42ae20a30c182f0707f8cad", "fusion_lat": 0.0, "rental_uris": {"ios": "https://dc.lft.to/lastmile_qr_scan", "android": "https://dc.lft.to/lastmile_qr_scan"}, "lon": -77.0299025, "type": "electric_scooter"}, {"bike_id": "b79543fbcaeee105b71b78f51bcafff7", "is_reserved": 0, "fusion_lon": 0.0, "lat": 38.93871866666667, "is_disabled": 0, "name": "b79543fbcaeee105b71b78f51bcafff7", "fusion_lat": 0.0, "rental_uris": {"ios": "https://dc.lft.to/lastmile_qr_scan", "android": "https://dc.lft.to/lastmile_qr_scan"}, "lon": -77.024577, "type": "electric_scooter"}, {"bike_id": "46be3d31b8e0f1d5d06c3624e7ee165b", "is_reserved": 0, "fusion_lon": 0.0, "lat": 38.90654983333334, "is_disabled": 0, "name": "46be3d31b8e0f1d5d06c3624e7ee165b", "fusion_lat": 0.0, "rental_uris": {"ios": "https://dc.lft.to/lastmile_qr_scan", "android": "https://dc.lft.to/lastmile_qr_scan"}, "lon": -77.038976, "type": "electric_scooter"}, {"bike_id": "e3ba807497a661e8b4bb97f3de759e6c", "is_reserved": 0, "fusion_lon": 0.0, "lat": 38.91414666666667, "is_disabled": 0, "name": "e3ba807497a661e8b4bb97f3de759e6c", "fusion_lat": 0.0, "rental_uris": {"ios": "https://dc.lft.to/lastmile_qr_scan", "android": "https://dc.lft.to/lastmile_qr_scan"}, "lon": -77.0267985, "type": "electric_scooter"}, {"bike_id": "f20d93871f583ee82812ac248049ab74", "is_reserved": 0, "fusion_lon": 0.0, "lat": 38.908036, "is_disabled": 0, "name": "f20d93871f583ee82812ac248049ab74", "fusion_lat": 0.0, "rental_uris": {"ios": "https://dc.lft.to/lastmile_qr_scan", "android": "https://dc.lft.to/lastmile_qr_scan"}, "lon": -77.00017383333333, "type": "electric_scooter"}, {"bike_id": "f1fad5b68c082118d821d7d2edc3b01a", "is_reserved": 0, "fusion_lon": 0.0, "lat": 38.91752266666667, "is_disabled": 0, "name": "f1fad5b68c082118d821d7d2edc3b01a", "fusion_lat": 0.0, "rental_uris": {"ios": "https://dc.lft.to/lastmile_qr_scan", "android": "https://dc.lft.to/lastmile_qr_scan"}, "lon": -76.98977233333333, "type": "electric_bike"}, {"bike_id": "b37c64e74c3c920c9a5e4632a97f9b74", "is_reserved": 0, "fusion_lon": 0.0, "lat": 38.92082583333333, "is_disabled": 0, "name": "b37c64e74c3c920c9a5e4632a97f9b74", "fusion_lat": 0.0, "rental_uris": {"ios": "https://dc.lft.to/lastmile_qr_scan", "android": "https://dc.lft.to/lastmile_qr_scan"}, "lon": -77.03657233333334, "type": "electric_scooter"}, {"bike_id": "e320057a14893bd941988d8ffe631a0a", "is_reserved": 0, "fusion_lon": 0.0, "lat": 38.883884333333334, "is_disabled": 0, "name": "e320057a14893bd941988d8ffe631a0a", "fusion_lat": 0.0, "rental_uris": {"ios": "https://dc.lft.to/lastmile_qr_scan", "android": "https://dc.lft.to/lastmile_qr_scan"}, "lon": -76.94922933333334, "type": "electric_scooter"}, {"bike_id": "c0c2a116291d1b0702d56c7896753055", "is_reserved": 0, "fusion_lon": 0.0, "lat": 38.9056835, "is_disabled": 0, "name": "c0c2a116291d1b0702d56c7896753055", "fusion_lat": 0.0, "rental_uris": {"ios": "https://dc.lft.to/lastmile_qr_scan", "android": "https://dc.lft.to/lastmile_qr_scan"}, "lon": -77.03478883333334, "type": "electric_scooter"}, {"bike_id": "d164474a7d3dd2dac5b06212a798ca20", "is_reserved": 0, "fusion_lon": 0.0, "lat": 38.90902116666667, "is_disabled": 0, "name": "d164474a7d3dd2dac5b06212a798ca20", "fusion_lat": 0.0, "rental_uris": {"ios": "https://dc.lft.to/lastmile_qr_scan", "android": "https://dc.lft.to/lastmile_qr_scan"}, "lon": -77.08620516666667, "type": "electric_scooter"}, {"bike_id": "58e1cb4265ee18c0e6f9fae397024875", "is_reserved": 0, "fusion_lon": 0.0, "lat": 38.89782233333333, "is_disabled": 0, "name": "58e1cb4265ee18c0e6f9fae397024875", "fusion_lat": 0.0, "rental_uris": {"ios": "https://dc.lft.to/lastmile_qr_scan", "android": "https://dc.lft.to/lastmile_qr_scan"}, "lon": -77.00743033333333, "type": "electric_bike"}, {"bike_id": "527b0175e71bb3fef590ae7572879e8a", "is_reserved": 0, "fusion_lon": 0.0, "lat": 38.89240483333333, "is_disabled": 0, "name": "527b0175e71bb3fef590ae7572879e8a", "fusion_lat": 0.0, "rental_uris": {"ios": "https://dc.lft.to/lastmile_qr_scan", "android": "https://dc.lft.to/lastmile_qr_scan"}, "lon": -77.03195283333334, "type": "electric_scooter"}, {"bike_id": "3b37a1cdba1d9e4048d2a2e49906fd6e", "is_reserved": 0, "fusion_lon": 0.0, "lat": 38.95552983333333, "is_disabled": 0, "name": "3b37a1cdba1d9e4048d2a2e49906fd6e", "fusion_lat": 0.0, "rental_uris": {"ios": "https://dc.lft.to/lastmile_qr_scan", "android": "https://dc.lft.to/lastmile_qr_scan"}, "lon": -76.9401305, "type": "electric_bike"}, {"bike_id": "50860077c12c4fa132f481b8323f4c50", "is_reserved": 0, "fusion_lon": 0.0, "lat": 38.880068333333334, "is_disabled": 0, "name": "50860077c12c4fa132f481b8323f4c50", "fusion_lat": 0.0, "rental_uris": {"ios": "https://dc.lft.to/lastmile_qr_scan", "android": "https://dc.lft.to/lastmile_qr_scan"}, "lon": -76.9159715, "type": "electric_bike"}, {"bike_id": "1791ceafa1a60c564031820f27e37040", "is_reserved": 0, "fusion_lon": 0.0, "lat": 38.90291966666667, "is_disabled": 0, "name": "1791ceafa1a60c564031820f27e37040", "fusion_lat": 0.0, "rental_uris": {"ios": "https://dc.lft.to/lastmile_qr_scan", "android": "https://dc.lft.to/lastmile_qr_scan"}, "lon": -77.03661433333333, "type": "electric_scooter"}, {"bike_id": "e729a8fc6954f69404fb85aa26920645", "is_reserved": 0, "fusion_lon": 0.0, "lat": 38.92881916666666, "is_disabled": 0, "name": "e729a8fc6954f69404fb85aa26920645", "fusion_lat": 0.0, "rental_uris": {"ios": "https://dc.lft.to/lastmile_qr_scan", "android": "https://dc.lft.to/lastmile_qr_scan"}, "lon": -77.03302933333333, "type": "electric_scooter"}, {"bike_id": "8e6cb9c6de121823f517f937bd80ae5d", "is_reserved": 0, "fusion_lon": 0.0, "lat": 38.92603883333334, "is_disabled": 0, "name": "8e6cb9c6de121823f517f937bd80ae5d", "fusion_lat": 0.0, "rental_uris": {"ios": "https://dc.lft.to/lastmile_qr_scan", "android": "https://dc.lft.to/lastmile_qr_scan"}, "lon": -77.02154466666667, "type": "electric_scooter"}, {"bike_id": "6b317a6470388a26844393ca6dbd54fa", "is_reserved": 0, "fusion_lon": 0.0, "lat": 38.904158, "is_disabled": 0, "name": "6b317a6470388a26844393ca6dbd54fa", "fusion_lat": 0.0, "rental_uris": {"ios": "https://dc.lft.to/lastmile_qr_scan", "android": "https://dc.lft.to/lastmile_qr_scan"}, "lon": -77.02947766666666, "type": "electric_scooter"}, {"bike_id": "120509204f62790906a7d82c8416e759", "is_reserved": 0, "fusion_lon": 0.0, "lat": 38.91264, "is_disabled": 0, "name": "120509204f62790906a7d82c8416e759", "fusion_lat": 0.0, "rental_uris": {"ios": "https://dc.lft.to/lastmile_qr_scan", "android": "https://dc.lft.to/lastmile_qr_scan"}, "lon": -77.04549383333334, "type": "electric_scooter"}, {"bike_id": "efd57e13c8da1418961e80df376fdb96", "is_reserved": 0, "fusion_lon": 0.0, "lat": 38.82450266666667, "is_disabled": 0, "name": "efd57e13c8da1418961e80df376fdb96", "fusion_lat": 0.0, "rental_uris": {"ios": "https://dc.lft.to/lastmile_qr_scan", "android": "https://dc.lft.to/lastmile_qr_scan"}, "lon": -77.07044566666667, "type": "electric_bike"}, {"bike_id": "3a734f4254ed182e189c0e0a407f9c50", "is_reserved": 0, "fusion_lon": 0.0, "lat": 38.92354016666667, "is_disabled": 0, "name": "3a734f4254ed182e189c0e0a407f9c50", "fusion_lat": 0.0, "rental_uris": {"ios": "https://dc.lft.to/lastmile_qr_scan", "android": "https://dc.lft.to/lastmile_qr_scan"}, "lon": -77.04149933333333, "type": "electric_scooter"}, {"bike_id": "42869471afde3378fbf588f2c1545127", "is_reserved": 0, "fusion_lon": 0.0, "lat": 38.93340833333333, "is_disabled": 0, "name": "42869471afde3378fbf588f2c1545127", "fusion_lat": 0.0, "rental_uris": {"ios": "https://dc.lft.to/lastmile_qr_scan", "android": "https://dc.lft.to/lastmile_qr_scan"}, "lon": -77.0420005, "type": "electric_bike"}, {"bike_id": "9abdd74c13ce6b134013c917543de5e4", "is_reserved": 0, "fusion_lon": 0.0, "lat": 38.9028965, "is_disabled": 0, "name": "9abdd74c13ce6b134013c917543de5e4", "fusion_lat": 0.0, "rental_uris": {"ios": "https://dc.lft.to/lastmile_qr_scan", "android": "https://dc.lft.to/lastmile_qr_scan"}, "lon": -77.03642783333333, "type": "electric_scooter"}, {"bike_id": "ce9d9eef49aed80e2cf61019bea4504f", "is_reserved": 0, "fusion_lon": 0.0, "lat": 38.918561, "is_disabled": 0, "name": "ce9d9eef49aed80e2cf61019bea4504f", "fusion_lat": 0.0, "rental_uris": {"ios": "https://dc.lft.to/lastmile_qr_scan", "android": "https://dc.lft.to/lastmile_qr_scan"}, "lon": -76.96090316666667, "type": "electric_bike"}, {"bike_id": "000f5863c8ac4ae748cd1e7d9c65a62b", "is_reserved": 0, "fusion_lon": 0.0, "lat": 38.9000635, "is_disabled": 0, "name": "000f5863c8ac4ae748cd1e7d9c65a62b", "fusion_lat": 0.0, "rental_uris": {"ios": "https://dc.lft.to/lastmile_qr_scan", "android": "https://dc.lft.to/lastmile_qr_scan"}, "lon": -77.05260183333333, "type": "electric_scooter"}, {"bike_id": "2c421dcb2ba69a026e4d236f12c68ff6", "is_reserved": 0, "fusion_lon": 0.0, "lat": 38.88864516666667, "is_disabled": 0, "name": "2c421dcb2ba69a026e4d236f12c68ff6", "fusion_lat": 0.0, "rental_uris": {"ios": "https://dc.lft.to/lastmile_qr_scan", "android": "https://dc.lft.to/lastmile_qr_scan"}, "lon": -76.99477716666667, "type": "electric_bike"}, {"bike_id": "21e9b2d4155c05b51f9b17efb492916c", "is_reserved": 0, "fusion_lon": 0.0, "lat": 38.91113166666667, "is_disabled": 0, "name": "21e9b2d4155c05b51f9b17efb492916c", "fusion_lat": 0.0, "rental_uris": {"ios": "https://dc.lft.to/lastmile_qr_scan", "android": "https://dc.lft.to/lastmile_qr_scan"}, "lon": -77.0483475, "type": "electric_scooter"}, {"bike_id": "549ee17b1491a3f8138f715b6f7fa4b9", "is_reserved": 0, "fusion_lon": 0.0, "lat": 38.89226683333333, "is_disabled": 0, "name": "549ee17b1491a3f8138f715b6f7fa4b9", "fusion_lat": 0.0, "rental_uris": {"ios": "https://dc.lft.to/lastmile_qr_scan", "android": "https://dc.lft.to/lastmile_qr_scan"}, "lon": -77.02619816666666, "type": "electric_scooter"}, {"bike_id": "3855b1eebb5d076611b29d06c8e2bba0", "is_reserved": 0, "fusion_lon": 0.0, "lat": 38.89223833333333, "is_disabled": 0, "name": "3855b1eebb5d076611b29d06c8e2bba0", "fusion_lat": 0.0, "rental_uris": {"ios": "https://dc.lft.to/lastmile_qr_scan", "android": "https://dc.lft.to/lastmile_qr_scan"}, "lon": -77.04368433333333, "type": "electric_scooter"}, {"bike_id": "a20a4617a415e5cfadfd4a7dab3b8fed", "is_reserved": 0, "fusion_lon": 0.0, "lat": 38.894847166666665, "is_disabled": 0, "name": "a20a4617a415e5cfadfd4a7dab3b8fed", "fusion_lat": 0.0, "rental_uris": {"ios": "https://dc.lft.to/lastmile_qr_scan", "android": "https://dc.lft.to/lastmile_qr_scan"}, "lon": -76.948696, "type": "electric_scooter"}, {"bike_id": "d9d29626c8796255bc956dab7bb4cc15", "is_reserved": 0, "fusion_lon": 0.0, "lat": 38.90671533333333, "is_disabled": 0, "name": "d9d29626c8796255bc956dab7bb4cc15", "fusion_lat": 0.0, "rental_uris": {"ios": "https://dc.lft.to/lastmile_qr_scan", "android": "https://dc.lft.to/lastmile_qr_scan"}, "lon": -76.98786783333334, "type": "electric_scooter"}, {"bike_id": "8740f5bf0631c075fd1fdb1421ab4be7", "is_reserved": 0, "fusion_lon": 0.0, "lat": 38.925708166666666, "is_disabled": 0, "name": "8740f5bf0631c075fd1fdb1421ab4be7", "fusion_lat": 0.0, "rental_uris": {"ios": "https://dc.lft.to/lastmile_qr_scan", "android": "https://dc.lft.to/lastmile_qr_scan"}, "lon": -77.03100833333333, "type": "electric_scooter"}, {"bike_id": "cacafab2d45f7be0926a103091cdd908", "is_reserved": 0, "fusion_lon": 0.0, "lat": 38.88124783333333, "is_disabled": 0, "name": "cacafab2d45f7be0926a103091cdd908", "fusion_lat": 0.0, "rental_uris": {"ios": "https://dc.lft.to/lastmile_qr_scan", "android": "https://dc.lft.to/lastmile_qr_scan"}, "lon": -77.01664966666667, "type": "electric_bike"}, {"bike_id": "91c7660e6be7a6117007e01f8d78b412", "is_reserved": 0, "fusion_lon": 0.0, "lat": 38.899617166666665, "is_disabled": 0, "name": "91c7660e6be7a6117007e01f8d78b412", "fusion_lat": 0.0, "rental_uris": {"ios": "https://dc.lft.to/lastmile_qr_scan", "android": "https://dc.lft.to/lastmile_qr_scan"}, "lon": -76.975472, "type": "electric_scooter"}, {"bike_id": "7f7c13dee0bba5de905ebad937b8105e", "is_reserved": 0, "fusion_lon": 0.0, "lat": 38.862065333333334, "is_disabled": 0, "name": "7f7c13dee0bba5de905ebad937b8105e", "fusion_lat": 0.0, "rental_uris": {"ios": "https://dc.lft.to/lastmile_qr_scan", "android": "https://dc.lft.to/lastmile_qr_scan"}, "lon": -76.994639, "type": "electric_scooter"}, {"bike_id": "594fbe4ca808e7ceff9a0dbade9d0c9b", "is_reserved": 0, "fusion_lon": 0.0, "lat": 38.9024085, "is_disabled": 0, "name": "594fbe4ca808e7ceff9a0dbade9d0c9b", "fusion_lat": 0.0, "rental_uris": {"ios": "https://dc.lft.to/lastmile_qr_scan", "android": "https://dc.lft.to/lastmile_qr_scan"}, "lon": -77.03274683333333, "type": "electric_scooter"},