{"data": {"bikes": [{"rental_uris": {"android": "https://dc.lft.to/lastmile_qr_scan", "ios": "https://dc.lft.to/lastmile_qr_scan"}, "type": "electric_scooter", "lon": -77.01222816666667, "name": "5c505716bbed284d6c587557926a88b2", "bike_id": "5c505716bbed284d6c587557926a88b2", "fusion_lat": 0.0, "is_reserved": 0, "lat": 38.91542616666667, "fusion_lon": 0.0, "is_disabled": 0}, {"rental_uris": {"android": "https://dc.lft.to/lastmile_qr_scan", "ios": "https://dc.lft.to/lastmile_qr_scan"}, "type": "electric_scooter", "lon": -77.044815, "name": "07c6c6053c39304e864bc263034c3b16", "bike_id": "07c6c6053c39304e864bc263034c3b16", "fusion_lat": 0.0, "is_reserved": 0, "lat": 38.90110116666666, "fusion_lon": 0.0, "is_disabled": 0}, {"rental_uris": {"android": "https://dc.lft.to/lastmile_qr_scan", "ios": "https://dc.lft.to/lastmile_qr_scan"}, "type": "electric_scooter", "lon": -77.03753033333334, "name": "a2150b318575bc3bf93871d2e470d040", "bike_id": "a2150b318575bc3bf93871d2e470d040", "fusion_lat": 0.0, "is_reserved": 0, "lat": 38.91256583333333, "fusion_lon": 0.0, "is_disabled": 0}, {"rental_uris": {"android": "https://dc.lft.to/lastmile_qr_scan", "ios": "https://dc.lft.to/lastmile_qr_scan"}, "type": "electric_scooter", "lon": -76.93384033333334, "name": "7c76d0e2b3d55ec24788f450691aebbd", "bike_id": "7c76d0e2b3d55ec24788f450691aebbd", "fusion_lat": 0.0, "is_reserved": 0, "lat": 38.899150666666664, "fusion_lon": 0.0, "is_disabled": 0}, {"rental_uris": {"android": "https://dc.lft.to/lastmile_qr_scan", "ios": "https://dc.lft.to/lastmile_qr_scan"}, "type": "electric_scooter", "lon": -77.0716845, "name": "04772d9f91fd3f9a234d5c62e9fae898", "bike_id": "04772d9f91fd3f9a234d5c62e9fae898", "fusion_lat": 0.0, "is_reserved": 0, "lat": 38.9077435, "fusion_lon": 0.0, "is_disabled": 0}, {"rental_uris": {"android": "https://dc.lft.to/lastmile_qr_scan", "ios": "https://dc.lft.to/lastmile_qr_scan"}, "type": "electric_scooter", "lon": -77.041813, "name": "95469abb8203c18a0f22abd46fd9d46c", "bike_id": "95469abb8203c18a0f22abd46fd9d46c", "fusion_lat": 0.0, "is_reserved": 0, "lat": 38.91480116666666, "fusion_lon": 0.0, "is_disabled": 0}, {"rental_uris": {"android": "https://dc.lft.to/lastmile_qr_scan", "ios": "https://dc.lft.to/lastmile_qr_scan"}, "type": "electric_scooter", "lon": -77.04583083333333, "name": "a4ad90344c424912bbe75b2ec0523049", "bike_id": "a4ad90344c424912bbe75b2ec0523049", "fusion_lat": 0.0, "is_reserved": 0, "lat": 38.9213805, "fusion_lon": 0.0, "is_disabled": 0}, {"rental_uris": {"android": "https://dc.lft.to/lastmile_qr_scan", "ios": "https://dc.lft.to/lastmile_qr_scan"}, "type": "electric_bike", "lon": -77.0434245, "name": "51d54b690a3f6ffa4672a9ba8e38a681", "bike_id": "51d54b690a3f6ffa4672a9ba8e38a681", "fusion_lat": 0.0, "is_reserved": 0, "lat": 38.9063855, "fusion_lon": 0.0, "is_disabled": 0}, {"rental_uris": {"android": "https://dc.lft.to/lastmile_qr_scan", "ios": "https://dc.lft.to/lastmile_qr_scan"}, "type": "electric_scooter", "lon": -77.01731183333334, "name": "ce4c6b739696ed068302b61ddd83e366", "bike_id": "ce4c6b739696ed068302b61ddd83e366", "fusion_lat": 0.0, "is_reserved": 0, "lat": 38.87699666666666, "fusion_lon": 0.0, "is_disabled": 0}, {"rental_uris": {"android": "https://dc.lft.to/lastmile_qr_scan", "ios": "https://dc.lft.to/lastmile_qr_scan"}, "type": "electric_scooter", "lon": -77.00056183333334, "name": "f023878486c419058044c4860997be06", "bike_id": "f023878486c419058044c4860997be06", "fusion_lat": 0.0, "is_reserved": 0, "lat": 38.900581, "fusion_lon": 0.0, "is_disabled": 0}, {"rental_uris": {"android": "https://dc.lft.to/lastmile_qr_scan", "ios": "https://dc.lft.to/lastmile_qr_scan"}, "type": "electric_scooter", "lon": -77.05420666666667, "name": "86e8f82e66e2df318d1b1cf45cd9cf89", "bike_id": "86e8f82e66e2df318d1b1cf45cd9cf89", "fusion_lat": 0.0, "is_reserved": 0, "lat": 38.9286285, "fusion_lon": 0.0, "is_disabled": 0}, {"rental_uris": {"android": "https://dc.lft.to/lastmile_qr_scan", "ios": "https://dc.lft.to/lastmile_qr_scan"}, "type": "electric_scooter", "lon": -77.054206, "name": "4b69f50aa25455f946aaff956d6fd100", "bike_id": "4b69f50aa25455f946aaff956d6fd100", "fusion_lat": 0.0, "is_reserved": 0, "lat": 38.9286055, "fusion_lon": 0.0, "is_disabled": 0}, {"rental_uris": {"android": "https://dc.lft.to/lastmile_qr_scan", "ios": "https://dc.lft.to/lastmile_qr_scan"}, "type": "electric_bike", "lon": -77.095239, "name": "c80e978eeb5c6b5933994370c31b1ec9", "bike_id": "c80e978eeb5c6b5933994370c31b1ec9", "fusion_lat": 0.0, "is_reserved": 0, "lat": 38.8381075, "fusion_lon": 0.0, "is_disabled": 0}, {"rental_uris": {"android": "https://dc.lft.to/lastmile_qr_scan", "ios": "https://dc.lft.to/lastmile_qr_scan"}, "type": "electric_scooter", "lon": -76.99550316666667, "name": "344d6d5619873ddd7e72bb9e9ff3560c", "bike_id": "344d6d5619873ddd7e72bb9e9ff3560c", "fusion_lat": 0.0, "is_reserved": 0, "lat": 38.884208666666666, "fusion_lon": 0.0, "is_disabled": 0}, {"rental_uris": {"android": "https://dc.lft.to/lastmile_qr_scan", "ios": "https://dc.lft.to/lastmile_qr_scan"}, "type": "electric_scooter", "lon": -77.03230283333333, "name": "b3544e09881130f376dd19fe62b0bc2e", "bike_id": "b3544e09881130f376dd19fe62b0bc2e", "fusion_lat": 0.0, "is_reserved": 0, "lat": 38.92176966666667, "fusion_lon": 0.0, "is_disabled": 0}, {"rental_uris": {"android": "https://dc.lft.to/lastmile_qr_scan", "ios": "https://dc.lft.to/lastmile_qr_scan"}, "type": "electric_bike", "lon": -77.07253616666667, "name": "c1f5e32e7cb2396586c625dc919414c5", "bike_id": "c1f5e32e7cb2396586c625dc919414c5", "fusion_lat": 0.0, "is_reserved": 0, "lat": 38.959132833333335, "fusion_lon": 0.0, "is_disabled": 0}, {"rental_uris": {"android": "https://dc.lft.to/lastmile_qr_scan", "ios": "https://dc.lft.to/lastmile_qr_scan"}, "type": "electric_bike", "lon": -77.0954825, "name": "7a0bff5eb4a42b1dc9eb606aeb89d610", "bike_id": "7a0bff5eb4a42b1dc9eb606aeb89d610", "fusion_lat": 0.0, "is_reserved": 0, "lat": 38.838067333333335, "fusion_lon": 0.0, "is_disabled": 0}, {"rental_uris": {"android": "https://dc.lft.to/lastmile_qr_scan", "ios": "https://dc.lft.to/lastmile_qr_scan"}, "type": "electric_scooter", "lon": -76.98408133333334, "name": "11a7521dcfbbcf89dfc49e8654bf84e3", "bike_id": "11a7521dcfbbcf89dfc49e8654bf84e3", "fusion_lat": 0.0, "is_reserved": 0, "lat": 38.85972566666667, "fusion_lon": 0.0, "is_disabled": 0}, {"rental_uris": {"android": "https://dc.lft.to/lastmile_qr_scan", "ios": "https://dc.lft.to/lastmile_qr_scan"}, "type": "electric_bike", "lon": -77.1009915, "name": "e92d2d4c1906c5d8f6d6fef74613f893", "bike_id": "e92d2d4c1906c5d8f6d6fef74613f893", "fusion_lat": 0.0, "is_reserved": 0, "lat": 38.85865666666667, "fusion_lon": 0.0, "is_disabled": 0}, {"rental_uris": {"android": "https://dc.lft.to/lastmile_qr_scan", "ios": "https://dc.lft.to/lastmile_qr_scan"}, "type": "electric_scooter", "lon": -77.02950483333333, "name": "6bbbaf06fee768937162aed8ca2d32f7", "bike_id": "6bbbaf06fee768937162aed8ca2d32f7", "fusion_lat": 0.0, "is_reserved": 0, "lat": 38.90775383333333, "fusion_lon": 0.0, "is_disabled": 0}, {"rental_uris": {"android": "https://dc.lft.to/lastmile_qr_scan", "ios": "https://dc.lft.to/lastmile_qr_scan"}, "type": "electric_scooter", "lon": -77.0276205, "name": "fb259563b6e291ce1ef2252e64aa787a", "bike_id": "fb259563b6e291ce1ef2252e64aa787a", "fusion_lat": 0.0, "is_reserved": 0, "lat": 38.942907166666664, "fusion_lon": 0.0, "is_disabled": 0}, {"rental_uris": {"android": "https://dc.lft.to/lastmile_qr_scan", "ios": "https://dc.lft.to/lastmile_qr_scan"}, "type": "electric_scooter", "lon": -77.04246166666667, "name": "2feac8c8209dcac3005ea908f392e23e", "bike_id": "2feac8c8209dcac3005ea908f392e23e", "fusion_lat": 0.0, "is_reserved": 0, "lat": 38.917802, "fusion_lon": 0.0, "is_disabled": 0}, {"rental_uris": {"android": "https://dc.lft.to/lastmile_qr_scan", "ios": "https://dc.lft.to/lastmile_qr_scan"}, "type": "electric_scooter", "lon": -77.03262216666667, "name": "6c15c20b5235fe874dab7aca129619f3", "bike_id": "6c15c20b5235fe874dab7aca129619f3", "fusion_lat": 0.0, "is_reserved": 0, "lat": 38.932516, "fusion_lon": 0.0, "is_disabled": 0}, {"rental_uris": {"android": "https://dc.lft.to/lastmile_qr_scan", "ios": "https://dc.lft.to/lastmile_qr_scan"}, "type": "electric_scooter", "lon": -77.02256433333334, "name": "4c3f78ffea47e6bce5e77622ffce31ea", "bike_id": "4c3f78ffea47e6bce5e77622ffce31ea", "fusion_lat": 0.0, "is_reserved": 0, "lat": 38.92819683333333, "fusion_lon": 0.0, "is_disabled": 0}, {"rental_uris": {"android": "https://dc.lft.to/lastmile_qr_scan", "ios": "https://dc.lft.to/lastmile_qr_scan"}, "type": "electric_scooter", "lon": -77.007142, "name": "25bbdb62af554d198b717518e4b31e10", "bike_id": "25bbdb62af554d198b717518e4b31e10", "fusion_lat": 0.0, "is_reserved": 0, "lat": 38.88488433333333, "fusion_lon": 0.0, "is_disabled": 0}, {"rental_uris": {"android": "https://dc.lft.to/lastmile_qr_scan", "ios": "https://dc.lft.to/lastmile_qr_scan"}, "type": "electric_bike", "lon": -77.10510616666667, "name": "b5e9907a4b19ab5e47b173333bb7c86b", "bike_id": "b5e9907a4b19ab5e47b173333bb7c86b", "fusion_lat": 0.0, "is_reserved": 0, "lat": 38.928484833333336, "fusion_lon": 0.0, "is_disabled": 0}, {"rental_uris": {"android": "https://dc.lft.to/lastmile_qr_scan", "ios": "https://dc.lft.to/lastmile_qr_scan"}, "type": "electric_scooter", "lon": -77.05731066666667, "name": "cfcef584a555e472d3061b30101842b3", "bike_id": "cfcef584a555e472d3061b30101842b3", "fusion_lat": 0.0, "is_reserved": 0, "lat": 38.933685833333335, "fusion_lon": 0.0, "is_disabled": 0}, {"rental_uris": {"android": "https://dc.lft.to/lastmile_qr_scan", "ios": "https://dc.lft.to/lastmile_qr_scan"}, "type": "electric_scooter", "lon": -77.0498385, "name": "de50c44c988b0c67267010a6292bd5c7", "bike_id": "de50c44c988b0c67267010a6292bd5c7", "fusion_lat": 0.0, "is_reserved": 0, "lat": 38.901194333333336, "fusion_lon": 0.0, "is_disabled": 0}, {"rental_uris": {"android": "https://dc.lft.to/lastmile_qr_scan", "ios": "https://dc.lft.to/lastmile_qr_scan"}, "type": "electric_scooter", "lon": -77.03906916666666, "name": "4476369c258b3a64911874cd8f72d898", "bike_id": "4476369c258b3a64911874cd8f72d898", "fusion_lat": 0.0, "is_reserved": 0, "lat": 38.92244683333333, "fusion_lon": 0.0, "is_disabled": 0}, {"rental_uris": {"android": "https://dc.lft.to/lastmile_qr_scan", "ios": "https://dc.lft.to/lastmile_qr_scan"}, "type": "electric_scooter", "lon": -76.9873025, "name": "f5f1e4517bd2785fe3d6fa90dcfd8f90", "bike_id": "f5f1e4517bd2785fe3d6fa90dcfd8f90", "fusion_lat": 0.0, "is_reserved": 0, "lat": 38.86714583333333, "fusion_lon": 0.0, "is_disabled": 0}, {"rental_uris": {"android": "https://dc.lft.to/lastmile_qr_scan", "ios": "https://dc.lft.to/lastmile_qr_scan"}, "type": "electric_scooter", "lon": -77.03665716666667, "name": "220aa669b6ccc2dcb835c717e885e389", "bike_id": "220aa669b6ccc2dcb835c717e885e389", "fusion_lat": 0.0, "is_reserved": 0, "lat": 38.90277833333333, "fusion_lon": 0.0, "is_disabled": 0}, {"rental_uris": {"android": "https://dc.lft.to/lastmile_qr_scan", "ios": "https://dc.lft.to/lastmile_qr_scan"}, "type": "electric_scooter", "lon": -77.0498005, "name": "66e87516b8eca72f3c6983b50c5c5d5c", "bike_id": "66e87516b8eca72f3c6983b50c5c5d5c", "fusion_lat": 0.0, "is_reserved": 0, "lat": 38.905095, "fusion_lon": 0.0, "is_disabled": 0}, {"rental_uris": {"android": "https://dc.lft.to/lastmile_qr_scan", "ios": "https://dc.lft.to/lastmile_qr_scan"}, "type": "electric_scooter", "lon": -76.9498625, "name": "3acf76702554d1549918cab534967a40", "bike_id": "3acf76702554d1549918cab534967a40", "fusion_lat": 0.0, "is_reserved": 0, "lat": 38.89436766666667, "fusion_lon": 0.0, "is_disabled": 0}, {"rental_uris": {"android": "https://dc.lft.to/lastmile_qr_scan", "ios": "https://dc.lft.to/lastmile_qr_scan"}, "type": "electric_scooter", "lon": -77.04748716666667, "name": "3e0cf209cbb7f76f6e660e186c583b92", "bike_id": "3e0cf209cbb7f76f6e660e186c583b92", "fusion_lat": 0.0, "is_reserved": 0, "lat": 38.90536083333333, "fusion_lon": 0.0, "is_disabled": 0}, {"rental_uris": {"android": "https://dc.lft.to/lastmile_qr_scan", "ios": "https://dc.lft.to/lastmile_qr_scan"}, "type": "electric_scooter", "lon": -77.04348833333333, "name": "a1fe08b738a72ca41cb7f46b064799b2", "bike_id": "a1fe08b738a72ca41cb7f46b064799b2", "fusion_lat": 0.0, "is_reserved": 0, "lat": 38.921813, "fusion_lon": 0.0, "is_disabled": 0}, {"rental_uris": {"android": "https://dc.lft.to/lastmile_qr_scan", "ios": "https://dc.lft.to/lastmile_qr_scan"}, "type": "electric_scooter", "lon": -77.03844516666666, "name": "76b92cccfe9311ec6f72c582acff3eae", "bike_id": "76b92cccfe9311ec6f72c582acff3eae", "fusion_lat": 0.0, "is_reserved": 0, "lat": 38.912149, "fusion_lon": 0.0, "is_disabled": 0}, {"rental_uris": {"android": "https://dc.lft.to/lastmile_qr_scan", "ios": "https://dc.lft.to/lastmile_qr_scan"}, "type": "electric_scooter", "lon": -76.99453516666667, "name": "f889cb5d993b29dfc73348a4582d53a5", "bike_id": "f889cb5d993b29dfc73348a4582d53a5", "fusion_lat": 0.0, "is_reserved": 0, "lat": 38.90017133333333, "fusion_lon": 0.0, "is_disabled": 0}, {"rental_uris": {"android": "https://dc.lft.to/lastmile_qr_scan", "ios": "https://dc.lft.to/lastmile_qr_scan"}, "type": "electric_scooter", "lon": -77.00923983333334, "name": "409ae5b83e9bf794b9307f437d6bced9", "bike_id": "409ae5b83e9bf794b9307f437d6bced9", "fusion_lat": 0.0, "is_reserved": 0, "lat": 38.87451, "fusion_lon": 0.0, "is_disabled": 0}, {"rental_uris": {"android": "https://dc.lft.to/lastmile_qr_scan", "ios": "https://dc.lft.to/lastmile_qr_scan"}, "type": "electric_scooter", "lon": -76.97884, "name": "e001d4f37dbe9748d9293247ce245570", "bike_id": "e001d4f37dbe9748d9293247ce245570", "fusion_lat": 0.0, "is_reserved": 0, "lat": 38.920149333333335, "fusion_lon": 0.0, "is_disabled": 0}, {"rental_uris": {"android": "https://dc.lft.to/lastmile_qr_scan", "ios": "https://dc.lft.to/lastmile_qr_scan"}, "type": "electric_scooter", "lon": -77.046624, "name": "58173c6e6cf111785e6ef55f499482c3", "bike_id": "58173c6e6cf111785e6ef55f499482c3", "fusion_lat": 0.0, "is_reserved": 0, "lat": 38.900080333333335, "fusion_lon": 0.0, "is_disabled": 0}, {"rental_uris": {"android": "https://dc.lft.to/lastmile_qr_scan", "ios": "https://dc.lft.to/lastmile_qr_scan"}, "type": "electric_scooter", "lon": -77.04979283333333, "name": "17c6a89d60fb0f0a25e621b5b2734781", "bike_id": "17c6a89d60fb0f0a25e621b5b2734781", "fusion_lat": 0.0, "is_reserved": 0, "lat": 38.89610883333334, "fusion_lon": 0.0, "is_disabled": 0}, {"rental_uris": {"android": "https://dc.lft.to/lastmile_qr_scan", "ios": "https://dc.lft.to/lastmile_qr_scan"}, "type": "electric_scooter", "lon": -76.99977516666667, "name": "b61c5565845fbc5f1738598a070cab2c", "bike_id": "b61c5565845fbc5f1738598a070cab2c", "fusion_lat": 0.0, "is_reserved": 0, "lat": 38.838417166666666, "fusion_lon": 0.0, "is_disabled": 0}, {"rental_uris": {"android": "https://dc.lft.to/lastmile_qr_scan", "ios": "https://dc.lft.to/lastmile_qr_scan"}, "type": "electric_scooter", "lon": -76.99366066666667, "name": "6c64b152af3171ecfe640ab4b06d74e7", "bike_id": "6c64b152af3171ecfe640ab4b06d74e7", "fusion_lat": 0.0, "is_reserved": 0, "lat": 38.928420833333334, "fusion_lon": 0.0, "is_disabled": 0}, {"rental_uris": {"android": "https://dc.lft.to/lastmile_qr_scan", "ios": "https://dc.lft.to/lastmile_qr_scan"}, "type": "electric_scooter", "lon": -77.04298766666666, "name": "6cf124b6863135138f7e0b57b470287e", "bike_id": "6cf124b6863135138f7e0b57b470287e", "fusion_lat": 0.0, "is_reserved": 0, "lat": 38.92333283333333, "fusion_lon": 0.0, "is_disabled": 0}, {"rental_uris": {"android": "https://dc.lft.to/lastmile_qr_scan", "ios": "https://dc.lft.to/lastmile_qr_scan"}, "type": "electric_scooter", "lon": -76.99401333333333, "name": "d99f133d5ded59be8ce60e24b6a2da9c", "bike_id": "d99f133d5ded59be8ce60e24b6a2da9c", "fusion_lat": 0.0, "is_reserved": 0, "lat": 38.92265483333333, "fusion_lon": 0.0, "is_disabled": 0}, {"rental_uris": {"android": "https://dc.lft.to/lastmile_qr_scan", "ios": "https://dc.lft.to/lastmile_qr_scan"}, "type": "electric_scooter", "lon": -76.990771, "name": "f5a5bc4022a2ecf16d8ddcf1f38e9f3c", "bike_id": "f5a5bc4022a2ecf16d8ddcf1f38e9f3c", "fusion_lat": 0.0, "is_reserved": 0, "lat": 38.860477, "fusion_lon": 0.0, "is_disabled": 0}, {"rental_uris": {"android": "https://dc.lft.to/lastmile_qr_scan", "ios": "https://dc.lft.to/lastmile_qr_scan"}, "type": "electric_scooter", "lon": -76.990052, "name": "01cdaaad612a2ae6d9b99cc2b8fabb92", "bike_id": "01cdaaad612a2ae6d9b99cc2b8fabb92", "fusion_lat": 0.0, "is_reserved": 0, "lat": 38.865051333333334, "fusion_lon": 0.0, "is_disabled": 0}, {"rental_uris": {"android": "https://dc.lft.to/lastmile_qr_scan", "ios": "https://dc.lft.to/lastmile_qr_scan"}, "type": "electric_scooter", "lon": -77.04498116666667, "name": "d6af7858083b422744b0d9dc396e14d7", "bike_id": "d6af7858083b422744b0d9dc396e14d7", "fusion_lat": 0.0, "is_reserved": 0, "lat": 38.91846616666667, "fusion_lon": 0.0, "is_disabled": 0}, {"rental_uris": {"android": "https://dc.lft.to/lastmile_qr_scan", "ios": "https://dc.lft.to/lastmile_qr_scan"}, "type": "electric_bike", "lon": -76.95808866666667, "name": "911594a30cafefac7b47e418368f3c75", "bike_id": "911594a30cafefac7b47e418368f3c75", "fusion_lat": 0.0, "is_reserved": 0, "lat": 38.980467166666664, "fusion_lon": 0.0, "is_disabled": 0}, {"rental_uris": {"android": "https://dc.lft.to/lastmile_qr_scan", "ios": "https://dc.lft.to/lastmile_qr_scan"}, "type": "electric_scooter", "lon": -77.02448016666666, "name": "db6364a0605175cd84db036611f1c00f", "bike_id": "db6364a0605175cd84db036611f1c00f", "fusion_lat": 0.0, "is_reserved": 0, "lat": 38.89208333333333, "fusion_lon": 0.0, "is_disabled": 0}, {"rental_uris": {"android": "https://dc.lft.to/lastmile_qr_scan", "ios": "https://dc.lft.to/lastmile_qr_scan"}, "type": "electric_scooter", "lon": -77.0449995, "name": "3fe8be927726c88c1787aa91581c09cc", "bike_id": "3fe8be927726c88c1787aa91581c09cc", "fusion_lat": 0.0, "is_reserved": 0, "lat": 38.90384533333334, "fusion_lon": 0.0, "is_disabled": 0}, {"rental_uris": {"android": "https://dc.lft.to/lastmile_qr_scan", "ios": "https://dc.lft.to/lastmile_qr_scan"}, "type": "electric_scooter", "lon": -77.0211, "name": "13d0b1877e850e46c4115090fb419f53", "bike_id": "13d0b1877e850e46c4115090fb419f53", "fusion_lat": 0.0, "is_reserved": 0, "lat": 38.940962666666664, "fusion_lon": 0.0, "is_disabled": 0}, {"rental_uris": {"android": "https://dc.lft.to/lastmile_qr_scan", "ios": "https://dc.lft.to/lastmile_qr_scan"}, "type": "electric_scooter", "lon": -77.04040133333334, "name": "fd8de78ebc32c0b55aa31239f2f5409a", "bike_id": "fd8de78ebc32c0b55aa31239f2f5409a", "fusion_lat": 0.0, "is_reserved": 0, "lat": 38.906033, "fusion_lon": 0.0, "is_disabled": 0}, {"rental_uris": {"android": "https://dc.lft.to/lastmile_qr_scan", "ios": "https://dc.lft.to/lastmile_qr_scan"}, "type": "electric_scooter", "lon": -76.99947533333334, "name": "245aae37d9d78aff2f1895c7fb8dc1aa", "bike_id": "245aae37d9d78aff2f1895c7fb8dc1aa", "fusion_lat": 0.0, "is_reserved": 0, "lat": 38.842885333333335, "fusion_lon": 0.0, "is_disabled": 0}, {"rental_uris": {"android": "https://dc.lft.to/lastmile_qr_scan", "ios": "https://dc.lft.to/lastmile_qr_scan"}, "type": "electric_scooter", "lon": -77.00065816666667, "name": "bc45569cb3e66779bea290d5849044c8", "bike_id": "bc45569cb3e66779bea290d5849044c8", "fusion_lat": 0.0, "is_reserved": 0, "lat": 38.9191285, "fusion_lon": 0.0, "is_disabled": 0}, {"rental_uris": {"android": "https://dc.lft.to/lastmile_qr_scan", "ios": "https://dc.lft.to/lastmile_qr_scan"}, "type": "electric_scooter", "lon": -77.026959, "name": "a7cfa512fcfa09af6ff067f71ff4ef72", "bike_id": "a7cfa512fcfa09af6ff067f71ff4ef72", "fusion_lat": 0.0, "is_reserved": 0, "lat": 38.90845183333333, "fusion_lon": 0.0, "is_disabled": 0}, {"rental_uris": {"android": "https://dc.lft.to/lastmile_qr_scan", "ios": "https://dc.lft.to/lastmile_qr_scan"}, "type": "electric_scooter", "lon": -77.02092233333333, "name": "e162fc9b578e2d04b92f31635833f081", "bike_id": "e162fc9b578e2d04b92f31635833f081", "fusion_lat": 0.0, "is_reserved": 0, "lat": 38.92909183333333, "fusion_lon": 0.0, "is_disabled": 0}, {"rental_uris": {"android": "https://dc.lft.to/lastmile_qr_scan", "ios": "https://dc.lft.to/lastmile_qr_scan"}, "type": "electric_scooter", "lon": -77.0179645, "name": "53bf94d0aefc446a4bbbdaa776cfc2a9", "bike_id": "53bf94d0aefc446a4bbbdaa776cfc2a9", "fusion_lat": 0.0, "is_reserved": 0, "lat": 38.92107433333334, "fusion_lon": 0.0, "is_disabled": 0}, {"rental_uris": {"android": "https://dc.lft.to/lastmile_qr_scan", "ios": "https://dc.lft.to/lastmile_qr_scan"}, "type": "electric_scooter", "lon": -77.065153, "name": "5b28e01fb9cfc90769a1415837a2e62a", "bike_id": "5b28e01fb9cfc90769a1415837a2e62a", "fusion_lat": 0.0, "is_reserved": 0, "lat": 38.905182833333335, "fusion_lon": 0.0, "is_disabled": 0}, {"rental_uris": {"android": "https://dc.lft.to/lastmile_qr_scan", "ios": "https://dc.lft.to/lastmile_qr_scan"}, "type": "electric_scooter", "lon": -77.03856783333333, "name": "246e35e2ce7c19e477369830afc52986", "bike_id": "246e35e2ce7c19e477369830afc52986", "fusion_lat": 0.0, "is_reserved": 0, "lat": 38.91255966666667, "fusion_lon": 0.0, "is_disabled": 0}, {"rental_uris": {"android": "https://dc.lft.to/lastmile_qr_scan", "ios": "https://dc.lft.to/lastmile_qr_scan"}, "type": "electric_scooter", "lon": -77.006436, "name": "7fddc70eac6c7a2d32607297b30df640", "bike_id": "7fddc70eac6c7a2d32607297b30df640", "fusion_lat": 0.0, "is_reserved": 0, "lat": 38.88333816666667, "fusion_lon": 0.0, "is_disabled": 0}, {"rental_uris": {"android": "https://dc.lft.to/lastmile_qr_scan", "ios": "https://dc.lft.to/lastmile_qr_scan"}, "type": "electric_scooter", "lon": -77.03185983333333, "name": "ceadad357f423dc0ec9765488dd5e550", "bike_id": "ceadad357f423dc0ec9765488dd5e550", "fusion_lat": 0.0, "is_reserved": 0, "lat": 38.92976133333333, "fusion_lon": 0.0, "is_disabled": 0}, {"rental_uris": {"android": "https://dc.lft.to/lastmile_qr_scan", "ios": "https://dc.lft.to/lastmile_qr_scan"}, "type": "electric_scooter", "lon": -77.01466883333333, "name": "882ddffb5d25ff7fc8b67a70eb1c4c80", "bike_id": "882ddffb5d25ff7fc8b67a70eb1c4c80", "fusion_lat": 0.0, "is_reserved": 0, "lat": 38.926689333333336, "fusion_lon": 0.0, "is_disabled": 0}, {"rental_uris": {"android": "https://dc.lft.to/lastmile_qr_scan", "ios": "https://dc.lft.to/lastmile_qr_scan"}, "type": "electric_scooter", "lon": -77.03845866666667, "name": "532f91c840cee47561b5cc8aac9864c6", "bike_id": "532f91c840cee47561b5cc8aac9864c6", "fusion_lat": 0.0, "is_reserved": 0, "lat": 38.90282333333333, "fusion_lon": 0.0, "is_disabled": 0}, {"rental_uris": {"android": "https://dc.lft.to/lastmile_qr_scan", "ios": "https://dc.lft.to/lastmile_qr_scan"}, "type": "electric_scooter", "lon": -77.01812833333334, "name": "5bd6bc83188f75522cbde3dcc48ff2a3", "bike_id": "5bd6bc83188f75522cbde3dcc48ff2a3", "fusion_lat": 0.0, "is_reserved": 0, "lat": 38.87712033333333, "fusion_lon": 0.0, "is_disabled": 0}, {"rental_uris": {"android": "https://dc.lft.to/lastmile_qr_scan", "ios": "https://dc.lft.to/lastmile_qr_scan"}, "type": "electric_scooter", "lon": -77.03419933333333, "name": "359ef2d5a0ca5ac9880abd852d199ee8", "bike_id": "359ef2d5a0ca5ac9880abd852d199ee8", "fusion_lat": 0.0, "is_reserved": 0, "lat": 38.924261, "fusion_lon": 0.0, "is_disabled": 0}, {"rental_uris": {"android": "https://dc.lft.to/lastmile_qr_scan", "ios": "https://dc.lft.to/lastmile_qr_scan"}, "type": "electric_scooter", "lon": -76.99614466666667, "name": "1b556a1e81d9ec04556a55f8274e19f5", "bike_id": "1b556a1e81d9ec04556a55f8274e19f5", "fusion_lat": 0.0, "is_reserved": 0, "lat": 38.900317333333334, "fusion_lon": 0.0, "is_disabled": 0}, {"rental_uris": {"android": "https://dc.lft.to/lastmile_qr_scan", "ios": "https://dc.lft.to/lastmile_qr_scan"}, "type": "electric_bike", "lon": -77.10994616666666, "name": "51761bdb3b22f2151353703a4b3064e4", "bike_id": "51761bdb3b22f2151353703a4b3064e4", "fusion_lat": 0.0, "is_reserved": 0, "lat": 38.87053, "fusion_lon": 0.0, "is_disabled": 0}, {"rental_uris": {"android": "https://dc.lft.to/lastmile_qr_scan", "ios": "https://dc.lft.to/lastmile_qr_scan"}, "type": "electric_scooter", "lon": -77.0449855, "name": "47599bbd9a38352c0c26ec37e01913c5", "bike_id": "47599bbd9a38352c0c26ec37e01913c5", "fusion_lat": 0.0, "is_reserved": 0, "lat": 38.91190533333334, "fusion_lon": 0.0, "is_disabled": 0}, {"rental_uris": {"android": "https://dc.lft.to/lastmile_qr_scan", "ios": "https://dc.lft.to/lastmile_qr_scan"}, "type": "electric_scooter", "lon": -77.0386205, "name": "b25dc5fa185770df64e40a27cb014f49", "bike_id": "b25dc5fa185770df64e40a27cb014f49", "fusion_lat": 0.0, "is_reserved": 0, "lat": 38.91250383333333, "fusion_lon": 0.0, "is_disabled": 0}, {"rental_uris": {"android": "https://dc.lft.to/lastmile_qr_scan", "ios": "https://dc.lft.to/lastmile_qr_scan"}, "type": "electric_scooter", "lon": -76.994867, "name": "707fed4b1a699ce5bca2ffcf3d589a0e", "bike_id": "707fed4b1a699ce5bca2ffcf3d589a0e", "fusion_lat": 0.0, "is_reserved": 0, "lat": 38.877304333333335, "fusion_lon": 0.0, "is_disabled": 0}, {"rental_uris": {"android": "https://dc.lft.to/lastmile_qr_scan", "ios": "https://dc.lft.to/lastmile_qr_scan"}, "type": "electric_scooter", "lon": -77.021559, "name": "199f7fe172b195c6a42bf0e7ee327dde", "bike_id": "199f7fe172b195c6a42bf0e7ee327dde", "fusion_lat": 0.0, "is_reserved": 0, "lat": 38.884827666666666, "fusion_lon": 0.0, "is_disabled": 0}, {"rental_uris": {"android": "https://dc.lft.to/lastmile_qr_scan", "ios": "https://dc.lft.to/lastmile_qr_scan"}, "type": "electric_scooter", "lon": -77.04295583333334, "name": "5a386e552e6bb404a5536699bd5568f9", "bike_id": "5a386e552e6bb404a5536699bd5568f9", "fusion_lat": 0.0, "is_reserved": 0, "lat": 38.922521333333336, "fusion_lon": 0.0, "is_disabled": 0}, {"rental_uris": {"android": "https://dc.lft.to/lastmile_qr_scan", "ios": "https://dc.lft.to/lastmile_qr_scan"}, "type": "electric_scooter", "lon": -77.05137466666666, "name": "dce72980d00f17adba67ef1ea034018a", "bike_id": "dce72980d00f17adba67ef1ea034018a", "fusion_lat": 0.0, "is_reserved": 0, "lat": 38.906535, "fusion_lon": 0.0, "is_disabled": 0}, {"rental_uris": {"android": "https://dc.lft.to/lastmile_qr_scan", "ios": "https://dc.lft.to/lastmile_qr_scan"}, "type": "electric_scooter", "lon": -77.04163266666667, "name": "3f26252d7037c1feff9c5b78add1db62", "bike_id": "3f26252d7037c1feff9c5b78add1db62", "fusion_lat": 0.0, "is_reserved": 0, "lat": 38.91342733333333, "fusion_lon": 0.0, "is_disabled": 0}, {"rental_uris": {"android": "https://dc.lft.to/lastmile_qr_scan", "ios": "https://dc.lft.to/lastmile_qr_scan"}, "type": "electric_scooter", "lon": -77.02533883333334, "name": "0d73565f430da07513991aa47c6d348e", "bike_id": "0d73565f430da07513991aa47c6d348e", "fusion_lat": 0.0, "is_reserved": 0, "lat": 38.90186516666667, "fusion_lon": 0.0, "is_disabled": 0}, {"rental_uris": {"android": "https://dc.lft.to/lastmile_qr_scan", "ios": "https://dc.lft.to/lastmile_qr_scan"}, "type": "electric_scooter", "lon": -77.01920783333334, "name": "2b4869f1bcc6b2b1d1296399fafeab74", "bike_id": "2b4869f1bcc6b2b1d1296399fafeab74", "fusion_lat": 0.0, "is_reserved": 0, "lat": 38.935756166666664, "fusion_lon": 0.0, "is_disabled": 0}, {"rental_uris": {"android": "https://dc.lft.to/lastmile_qr_scan", "ios": "https://dc.lft.to/lastmile_qr_scan"}, "type": "electric_scooter", "lon": -76.94633766666666, "name": "9a9e6cffb13a571e2c6cfd27b09156a1", "bike_id": "9a9e6cffb13a571e2c6cfd27b09156a1", "fusion_lat": 0.0, "is_reserved": 0, "lat": 38.898444833333336, "fusion_lon": 0.0, "is_disabled": 0}, {"rental_uris": {"android": "https://dc.lft.to/lastmile_qr_scan", "ios": "https://dc.lft.to/lastmile_qr_scan"}, "type": "electric_scooter", "lon": -76.96417716666667, "name": "95e1e2fb4759bb0c3d4d8c691686264c", "bike_id": "95e1e2fb4759bb0c3d4d8c691686264c", "fusion_lat": 0.0, "is_reserved": 0, "lat": 38.934515, "fusion_lon": 0.0, "is_disabled": 0}, {"rental_uris": {"android": "https://dc.lft.to/lastmile_qr_scan", "ios": "https://dc.lft.to/lastmile_qr_scan"}, "type": "electric_scooter", "lon": -77.0075415, "name": "fae44343b65325f21eaaed48587ed5ef", "bike_id": "fae44343b65325f21eaaed48587ed5ef", "fusion_lat": 0.0, "is_reserved": 0, "lat": 38.926802333333335, "fusion_lon": 0.0, "is_disabled": 0}, {"rental_uris": {"android": "https://dc.lft.to/lastmile_qr_scan", "ios": "https://dc.lft.to/lastmile_qr_scan"}, "type": "electric_scooter", "lon": -77.0379065, "name": "cf06076fbec118c3c41b7cc73ce911a7", "bike_id": "cf06076fbec118c3c41b7cc73ce911a7", "fusion_lat": 0.0, "is_reserved": 0, "lat": 38.93107766666667, "fusion_lon": 0.0, "is_disabled": 0}, {"rental_uris": {"android": "https://dc.lft.to/lastmile_qr_scan", "ios": "https://dc.lft.to/lastmile_qr_scan"}, "type": "electric_scooter", "lon": -77.02343266666666, "name": "a3527481fdde4786f26c6de1a12c8526", "bike_id": "a3527481fdde4786f26c6de1a12c8526", "fusion_lat": 0.0, "is_reserved": 0, "lat": 38.962036499999996, "fusion_lon": 0.0, "is_disabled": 0}, {"rental_uris": {"android": "https://dc.lft.to/lastmile_qr_scan", "ios": "https://dc.lft.to/lastmile_qr_scan"}, "type": "electric_scooter", "lon": -77.0345925, "name": "ea6716b997a04351c7a80a1043f6d20d", "bike_id": "ea6716b997a04351c7a80a1043f6d20d", "fusion_lat": 0.0, "is_reserved": 0, "lat": 38.90323266666667, "fusion_lon": 0.0, "is_disabled": 0}, {"rental_uris": {"android": "https://dc.lft.to/lastmile_qr_scan", "ios": "https://dc.lft.to/lastmile_qr_scan"}, "type": "electric_scooter", "lon": -77.00557366666666, "name": "adfa90a78a992180615087fc96b62548", "bike_id": "adfa90a78a992180615087fc96b62548", "fusion_lat": 0.0, "is_reserved": 0, "lat": 38.90557116666667, "fusion_lon": 0.0, "is_disabled": 0}, {"rental_uris": {"android": "https://dc.lft.to/lastmile_qr_scan", "ios": "https://dc.lft.to/lastmile_qr_scan"}, "type": "electric_scooter", "lon": -76.98995, "name": "38a69ec4c7062d345a789b165f2a7603", "bike_id": "38a69ec4c7062d345a789b165f2a7603", "fusion_lat": 0.0, "is_reserved": 0, "lat": 38.8644325, "fusion_lon": 0.0, "is_disabled": 0}, {"rental_uris": {"android": "https://dc.lft.to/lastmile_qr_scan", "ios": "https://dc.lft.to/lastmile_qr_scan"}, "type": "electric_scooter", "lon": -77.05734383333333, "name": "127112cbbdda4f26f61b3c6d1f89932c", "bike_id": "127112cbbdda4f26f61b3c6d1f89932c", "fusion_lat": 0.0, "is_reserved": 0, "lat": 38.933657333333336, "fusion_lon": 0.0, "is_disabled": 0}, {"rental_uris": {"android": "https://dc.lft.to/lastmile_qr_scan", "ios": "https://dc.lft.to/lastmile_qr_scan"}, "type": "electric_scooter", "lon": -77.02355433333334, "name": "ad7c1eca7f8b5d0021fb58b24764c2a3", "bike_id": "ad7c1eca7f8b5d0021fb58b24764c2a3", "fusion_lat": 0.0, "is_reserved": 0, "lat": 38.892203333333335, "fusion_lon": 0.0, "is_disabled": 0}, {"rental_uris": {"android": "https://dc.lft.to/lastmile_qr_scan", "ios": "https://dc.lft.to/lastmile_qr_scan"}, "type": "electric_scooter", "lon": -77.023858, "name": "921bccca20e0c9c911dbee671dd75d0e", "bike_id": "921bccca20e0c9c911dbee671dd75d0e", "fusion_lat": 0.0, "is_reserved": 0, "lat": 38.907114666666665, "fusion_lon": 0.0, "is_disabled": 0}, {"rental_uris": {"android": "https://dc.lft.to/lastmile_qr_scan", "ios": "https://dc.lft.to/lastmile_qr_scan"}, "type": "electric_scooter", "lon": -77.06108266666666, "name": "e2ea8005ac63ee8b19423e4c079c028d", "bike_id": "e2ea8005ac63ee8b19423e4c079c028d", "fusion_lat": 0.0, "is_reserved": 0, "lat": 38.90439966666667, "fusion_lon": 0.0, "is_disabled": 0}, {"rental_uris": {"android": "https://dc.lft.to/lastmile_qr_scan", "ios": "https://dc.lft.to/lastmile_qr_scan"}, "type": "electric_scooter", "lon": -77.02166766666667, "name": "a0f7b3d7dbf3ab6ee02127ea9f00ce4e", "bike_id": "a0f7b3d7dbf3ab6ee02127ea9f00ce4e", "fusion_lat": 0.0, "is_reserved": 0, "lat": 38.887416, "fusion_lon": 0.0, "is_disabled": 0}, {"rental_uris": {"android": "https://dc.lft.to/lastmile_qr_scan", "ios": "https://dc.lft.to/lastmile_qr_scan"}, "type": "electric_bike", "lon": -76.94570866666666, "name": "9a6250c2c148aa077a3846470730aed7", "bike_id": "9a6250c2c148aa077a3846470730aed7", "fusion_lat": 0.0, "is_reserved": 0, "lat": 38.866212833333336, "fusion_lon": 0.0, "is_disabled": 0}, {"rental_uris": {"android": "https://dc.lft.to/lastmile_qr_scan", "ios": "https://dc.lft.to/lastmile_qr_scan"}, "type": "electric_scooter", "lon": -77.06886816666666, "name": "8bd026418b64847c3a92ad8d1a7db2f7", "bike_id": "8bd026418b64847c3a92ad8d1a7db2f7", "fusion_lat": 0.0, "is_reserved": 0, "lat": 38.905156166666664, "fusion_lon": 0.0, "is_disabled": 0}, {"rental_uris": {"android": "https://dc.lft.to/lastmile_qr_scan", "ios": "https://dc.lft.to/lastmile_qr_scan"}, "type": "electric_scooter", "lon": -77.0432345, "name": "148d9c55e3fc8aeeec473b1827007eeb", "bike_id": "148d9c55e3fc8aeeec473b1827007eeb", "fusion_lat": 0.0, "is_reserved": 0, "lat": 38.8922345, "fusion_lon": 0.0, "is_disabled": 0}, {"rental_uris": {"android": "https://dc.lft.to/lastmile_qr_scan", "ios": "https://dc.lft.to/lastmile_qr_scan"}, "type": "electric_bike", "lon": -77.005084, "name": "7ddbd3ae22d2a8cfd27acb9e22f8abbb", "bike_id": "7ddbd3ae22d2a8cfd27acb9e22f8abbb", "fusion_lat": 0.0, "is_reserved": 0, "lat": 38.87532916666667, "fusion_lon": 0.0, "is_disabled": 0}, {"rental_uris": {"android": "https://dc.lft.to/lastmile_qr_scan", "ios": "https://dc.lft.to/lastmile_qr_scan"}, "type": "electric_scooter", "lon": -76.9961155, "name": "5984eaf90d8ca0d1b2329e32b5560b6b", "bike_id": "5984eaf90d8ca0d1b2329e32b5560b6b", "fusion_lat": 0.0, "is_reserved": 0, "lat": 38.89759566666667, "fusion_lon": 0.0, "is_disabled": 0}, {"rental_uris": {"android": "https://dc.lft.to/lastmile_qr_scan", "ios": "https://dc.lft.to/lastmile_qr_scan"}, "type": "electric_scooter", "lon": -77.04232566666667, "name": "6ca8ee7ac90447ced7eee7202a283cc9", "bike_id": "6ca8ee7ac90447ced7eee7202a283cc9", "fusion_lat": 0.0, "is_reserved": 0, "lat": 38.921751666666665, "fusion_lon": 0.0, "is_disabled": 0}, {"rental_uris": {"android": "https://dc.lft.to/lastmile_qr_scan", "ios": "https://dc.lft.to/lastmile_qr_scan"}, "type": "electric_scooter", "lon": -76.99683616666667, "name": "e43c104c06662dff34d9902b31b240a5", "bike_id": "e43c104c06662dff34d9902b31b240a5", "fusion_lat": 0.0, "is_reserved": 0, "lat": 38.88699, "fusion_lon": 0.0, "is_disabled": 0}, {"rental_uris": {"android": "https://dc.lft.to/lastmile_qr_scan", "ios": "https://dc.lft.to/lastmile_qr_scan"}, "type": "electric_scooter", "lon": -77.03079566666666, "name": "e2680868f20b976c32617bfe217e1775", "bike_id": "e2680868f20b976c32617bfe217e1775", "fusion_lat": 0.0, "is_reserved": 0, "lat": 38.9272585, "fusion_lon": 0.0, "is_disabled": 0}, {"rental_uris": {"android": "https://dc.lft.to/lastmile_qr_scan", "ios": "https://dc.lft.to/lastmile_qr_scan"}, "type": "electric_scooter", "lon": -77.02367016666666, "name": "30acbae433e59455b9d32018b0e93f9d", "bike_id": "30acbae433e59455b9d32018b0e93f9d", "fusion_lat": 0.0, "is_reserved": 0, "lat": 38.894028, "fusion_lon": 0.0, "is_disabled": 0}, {"rental_uris": {"android": "https://dc.lft.to/lastmile_qr_scan", "ios": "https://dc.lft.to/lastmile_qr_scan"}, "type": "electric_scooter", "lon": -77.0340875, "name": "1c52a627b23cd632670adc735b6513ce", "bike_id": "1c52a627b23cd632670adc735b6513ce", "fusion_lat": 0.0, "is_reserved": 0, "lat": 38.94403766666667, "fusion_lon": 0.0, "is_disabled": 0}, {"rental_uris": {"android": "https://dc.lft.to/lastmile_qr_scan", "ios": "https://dc.lft.to/lastmile_qr_scan"}, "type": "electric_scooter", "lon": -77.01954883333333, "name": "afd1077b3adfe2c81789f16c55197219", "bike_id": "afd1077b3adfe2c81789f16c55197219", "fusion_lat": 0.0, "is_reserved": 0, "lat": 38.9225845, "fusion_lon": 0.0, "is_disabled": 0}, {"rental_uris": {"android": "https://dc.lft.to/lastmile_qr_scan", "ios": "https://dc.lft.to/lastmile_qr_scan"}, "type": "electric_bike", "lon": -77.05038983333333, "name": "799caae12dc9c01b36ae9ec231af4d66", "bike_id": "799caae12dc9c01b36ae9ec231af4d66", "fusion_lat": 0.0, "is_reserved": 0, "lat": 38.911188333333335, "fusion_lon": 0.0, "is_disabled": 0}, {"rental_uris": {"android": "https://dc.lft.to/lastmile_qr_scan", "ios": "https://dc.lft.to/lastmile_qr_scan"}, "type": "electric_scooter", "lon": -77.03182766666667, "name": "3a7f151478b33266285de7dea88c49ab", "bike_id": "3a7f151478b33266285de7dea88c49ab", "fusion_lat": 0.0, "is_reserved": 0, "lat": 38.8925255, "fusion_lon": 0.0, "is_disabled": 0}, {"rental_uris": {"android": "https://dc.lft.to/lastmile_qr_scan", "ios": "https://dc.lft.to/lastmile_qr_scan"}, "type": "electric_scooter", "lon": -77.03120716666666, "name": "3581c6ea1ce5b57d9ea7a0e865fec416", "bike_id": "3581c6ea1ce5b57d9ea7a0e865fec416", "fusion_lat": 0.0, "is_reserved": 0, "lat": 38.973765666666665, "fusion_lon": 0.0, "is_disabled": 0}, {"rental_uris": {"android": "https://dc.lft.to/lastmile_qr_scan", "ios": "https://dc.lft.to/lastmile_qr_scan"}, "type": "electric_scooter", "lon": -77.04655533333333, "name": "1daa10da7181911f844bf2943cdd2766", "bike_id": "1daa10da7181911f844bf2943cdd2766", "fusion_lat": 0.0, "is_reserved": 0, "lat": 38.892953166666665, "fusion_lon": 0.0, "is_disabled": 0}, {"rental_uris": {"android": "https://dc.lft.to/lastmile_qr_scan", "ios": "https://dc.lft.to/lastmile_qr_scan"}, "type": "electric_scooter", "lon": -77.04148866666667, "name": "49ab53e0f2948e8342ef66561af7a803", "bike_id": "49ab53e0f2948e8342ef66561af7a803", "fusion_lat": 0.0, "is_reserved": 0, "lat": 38.92351816666667, "fusion_lon": 0.0, "is_disabled": 0}, {"rental_uris": {"android": "https://dc.lft.to/lastmile_qr_scan", "ios": "https://dc.lft.to/lastmile_qr_scan"}, "type": "electric_bike", "lon": -77.09163016666666, "name": "70c07cc42be33e2a62fe3e7c0b098353", "bike_id": "70c07cc42be33e2a62fe3e7c0b098353", "fusion_lat": 0.0, "is_reserved": 0, "lat": 38.96761166666667, "fusion_lon": 0.0, "is_disabled": 0}, {"rental_uris": {"android": "https://dc.lft.to/lastmile_qr_scan", "ios": "https://dc.lft.to/lastmile_qr_scan"}, "type": "electric_scooter", "lon": -77.02990066666666, "name": "803292ad1612018868ec795490bef7f2", "bike_id": "803292ad1612018868ec795490bef7f2", "fusion_lat": 0.0, "is_reserved": 0, "lat": 38.922366333333336, "fusion_lon": 0.0, "is_disabled": 0}, {"rental_uris": {"android": "https://dc.lft.to/lastmile_qr_scan", "ios": "https://dc.lft.to/lastmile_qr_scan"}, "type": "electric_scooter", "lon": -77.04408233333334, "name": "b065002b73f6e5971e39fd2777d64041", "bike_id": "b065002b73f6e5971e39fd2777d64041", "fusion_lat": 0.0, "is_reserved": 0, "lat": 38.874278833333335, "fusion_lon": 0.0, "is_disabled": 0}, {"rental_uris": {"android": "https://dc.lft.to/lastmile_qr_scan", "ios": "https://dc.lft.to/lastmile_qr_scan"}, "type": "electric_scooter", "lon": -77.01733216666666, "name": "5cfc9f6ac5b8046deebfd270813a271b", "bike_id": "5cfc9f6ac5b8046deebfd270813a271b", "fusion_lat": 0.0, "is_reserved": 0, "lat": 38.877021666666664, "fusion_lon": 0.0, "is_disabled": 0}, {"rental_uris": {"android": "https://dc.lft.to/lastmile_qr_scan", "ios": "https://dc.lft.to/lastmile_qr_scan"}, "type": "electric_scooter", "lon": -77.0337595, "name": "e6d96ac8726d0143bb3e7dd16bf15294", "bike_id": "e6d96ac8726d0143bb3e7dd16bf15294", "fusion_lat": 0.0, "is_reserved": 0, "lat": 38.91033216666666, "fusion_lon": 0.0, "is_disabled": 0}, {"rental_uris": {"android": "https://dc.lft.to/lastmile_qr_scan", "ios": "https://dc.lft.to/lastmile_qr_scan"}, "type": "electric_scooter", "lon": -76.96919966666667, "name": "f6b854c8602410fc0e9971d260910eed", "bike_id": "f6b854c8602410fc0e9971d260910eed", "fusion_lat": 0.0, "is_reserved": 0, "lat": 38.85524183333333, "fusion_lon": 0.0, "is_disabled": 0}, {"rental_uris": {"android": "https://dc.lft.to/lastmile_qr_scan", "ios": "https://dc.lft.to/lastmile_qr_scan"}, "type": "electric_scooter", "lon": -77.02284283333333, "name": "61b349e2c35a1a59e7e3416c9e45fb06", "bike_id": "61b349e2c35a1a59e7e3416c9e45fb06", "fusion_lat": 0.0, "is_reserved": 0, "lat": 38.9128415, "fusion_lon": 0.0, "is_disabled": 0}, {"rental_uris": {"android": "https://dc.lft.to/lastmile_qr_scan", "ios": "https://dc.lft.to/lastmile_qr_scan"}, "type": "electric_scooter", "lon": -77.030301, "name": "44a394719f5eca1d29957d14d725d386", "bike_id": "44a394719f5eca1d29957d14d725d386", "fusion_lat": 0.0, "is_reserved": 0, "lat": 38.90518633333333, "fusion_lon": 0.0, "is_disabled": 0}, {"rental_uris": {"android": "https://dc.lft.to/lastmile_qr_scan", "ios": "https://dc.lft.to/lastmile_qr_scan"}, "type": "electric_scooter", "lon": -77.0391235, "name": "e1fa1cfc424b9c85716b48d866627e3f", "bike_id": "e1fa1cfc424b9c85716b48d866627e3f", "fusion_lat": 0.0, "is_reserved": 0, "lat": 38.906547, "fusion_lon": 0.0, "is_disabled": 0}, {"rental_uris": {"android": "https://dc.lft.to/lastmile_qr_scan", "ios": "https://dc.lft.to/lastmile_qr_scan"}, "type": "electric_scooter", "lon": -77.05515283333334, "name": "6c4496fac19f1a98f8ebff8bff894aa8", "bike_id": "6c4496fac19f1a98f8ebff8bff894aa8", "fusion_lat": 0.0, "is_reserved": 0, "lat": 38.944088666666666, "fusion_lon": 0.0, "is_disabled": 0}, {"rental_uris": {"android": "https://dc.lft.to/lastmile_qr_scan", "ios": "https://dc.lft.to/lastmile_qr_scan"}, "type": "electric_scooter", "lon": -76.94852466666667, "name": "c4907f8e42de104f9b7e7d3183ef0f41", "bike_id": "c4907f8e42de104f9b7e7d3183ef0f41", "fusion_lat": 0.0, "is_reserved": 0, "lat": 38.882972, "fusion_lon": 0.0, "is_disabled": 0}, {"rental_uris": {"android": "https://dc.lft.to/lastmile_qr_scan", "ios": "https://dc.lft.to/lastmile_qr_scan"}, "type": "electric_scooter", "lon": -76.99514433333333, "name": "135707f462e7ae0fa66ca4bd7dc05904", "bike_id": "135707f462e7ae0fa66ca4bd7dc05904", "fusion_lat": 0.0, "is_reserved": 0, "lat": 38.89479333333333, "fusion_lon": 0.0, "is_disabled": 0}, {"rental_uris": {"android": "https://dc.lft.to/lastmile_qr_scan", "ios": "https://dc.lft.to/lastmile_qr_scan"}, "type": "electric_scooter", "lon": -77.04320866666667, "name": "beb89460ccdc1981da7da2744a5b528f", "bike_id": "beb89460ccdc1981da7da2744a5b528f", "fusion_lat": 0.0, "is_reserved": 0, "lat": 38.91113933333333, "fusion_lon": 0.0, "is_disabled": 0}, {"rental_uris": {"android": "https://dc.lft.to/lastmile_qr_scan", "ios": "https://dc.lft.to/lastmile_qr_scan"}, "type": "electric_scooter", "lon": -77.03150566666666, "name": "b607da60cad6d31d0df87a9714590476", "bike_id": "b607da60cad6d31d0df87a9714590476", "fusion_lat": 0.0, "is_reserved": 0, "lat": 38.887616333333334, "fusion_lon": 0.0, "is_disabled": 0}, {"rental_uris": {"android": "https://dc.lft.to/lastmile_qr_scan", "ios": "https://dc.lft.to/lastmile_qr_scan"}, "type": "electric_scooter", "lon": -77.05293633333334, "name": "29ea848cbe06e88f5fb423524a95b175", "bike_id": "29ea848cbe06e88f5fb423524a95b175", "fusion_lat": 0.0, "is_reserved": 0, "lat": 38.92604266666667, "fusion_lon": 0.0, "is_disabled": 0}, {"rental_uris": {"android": "https://dc.lft.to/lastmile_qr_scan", "ios": "https://dc.lft.to/lastmile_qr_scan"}, "type": "electric_scooter", "lon": -77.02396916666666, "name": "a0bde6e5bbc3be18cfbcbac5f12a0820", "bike_id": "a0bde6e5bbc3be18cfbcbac5f12a0820", "fusion_lat": 0.0, "is_reserved": 0, "lat": 38.893777, "fusion_lon": 0.0, "is_disabled": 0}, {"rental_uris": {"android": "https://dc.lft.to/lastmile_qr_scan", "ios": "https://dc.lft.to/lastmile_qr_scan"}, "type": "electric_scooter", "lon": -77.035724, "name": "a3c6ddb1d59680ba031231c180285921", "bike_id": "a3c6ddb1d59680ba031231c180285921", "fusion_lat": 0.0, "is_reserved": 0, "lat": 38.903704833333336, "fusion_lon": 0.0, "is_disabled": 0}, {"rental_uris": {"android": "https://dc.lft.to/lastmile_qr_scan", "ios": "https://dc.lft.to/lastmile_qr_scan"}, "type": "electric_scooter", "lon": -76.94840666666667, "name": "1821d586462d1adecfe5d3ba6e5ed2a7", "bike_id": "1821d586462d1adecfe5d3ba6e5ed2a7", "fusion_lat": 0.0, "is_reserved": 0, "lat": 38.894827166666666, "fusion_lon": 0.0, "is_disabled": 0}, {"rental_uris": {"android": "https://dc.lft.to/lastmile_qr_scan", "ios": "https://dc.lft.to/lastmile_qr_scan"}, "type": "electric_scooter", "lon": -77.0344305, "name": "a200d5c121348bb70725f87974d525ed", "bike_id": "a200d5c121348bb70725f87974d525ed", "fusion_lat": 0.0, "is_reserved": 0, "lat": 38.90274983333333, "fusion_lon": 0.0, "is_disabled": 0}, {"rental_uris": {"android": "https://dc.lft.to/lastmile_qr_scan", "ios": "https://dc.lft.to/lastmile_qr_scan"}, "type": "electric_scooter", "lon": -77.03820583333334, "name": "416e78bcab88eab8050e7b0a3e0bd068", "bike_id": "416e78bcab88eab8050e7b0a3e0bd068", "fusion_lat": 0.0, "is_reserved": 0, "lat": 38.90732466666667, "fusion_lon": 0.0, "is_disabled": 0}, {"rental_uris": {"android": "https://dc.lft.to/lastmile_qr_scan", "ios": "https://dc.lft.to/lastmile_qr_scan"}, "type": "electric_scooter", "lon": -77.0010555, "name": "c911c807bd76c04f40d9712adf19124b", "bike_id": "c911c807bd76c04f40d9712adf19124b", "fusion_lat": 0.0, "is_reserved": 0, "lat": 38.916287, "fusion_lon": 0.0, "is_disabled": 0}, {"rental_uris": {"android": "https://dc.lft.to/lastmile_qr_scan", "ios": "https://dc.lft.to/lastmile_qr_scan"}, "type": "electric_scooter", "lon": -76.986083, "name": "fc43a29b3f29bc310b36b9b88585feac", "bike_id": "fc43a29b3f29bc310b36b9b88585feac", "fusion_lat": 0.0, "is_reserved": 0, "lat": 38.85441133333333, "fusion_lon": 0.0, "is_disabled": 0}, {"rental_uris": {"android": "https://dc.lft.to/lastmile_qr_scan", "ios": "https://dc.lft.to/lastmile_qr_scan"}, "type": "electric_scooter", "lon": -77.04579616666666, "name": "0aff37fe05655dba8e2ee3b7a6f4428a", "bike_id": "0aff37fe05655dba8e2ee3b7a6f4428a", "fusion_lat": 0.0, "is_reserved": 0, "lat": 38.921194, "fusion_lon": 0.0, "is_disabled": 0}, {"rental_uris": {"android": "https://dc.lft.to/lastmile_qr_scan", "ios": "https://dc.lft.to/lastmile_qr_scan"}, "type": "electric_bike", "lon": -76.99397383333333, "name": "29c8af98d2405249780645799afef440", "bike_id": "29c8af98d2405249780645799afef440", "fusion_lat": 0.0, "is_reserved": 0, "lat": 38.922576, "fusion_lon": 0.0, "is_disabled": 0}, {"rental_uris": {"android": "https://dc.lft.to/lastmile_qr_scan", "ios": "https://dc.lft.to/lastmile_qr_scan"}, "type": "electric_bike", "lon": -76.99058533333333, "name": "cd01e4c0b3b7a93a26a123d4ab2211ce", "bike_id": "cd01e4c0b3b7a93a26a123d4ab2211ce", "fusion_lat": 0.0, "is_reserved": 0, "lat": 38.93691283333333, "fusion_lon": 0.0, "is_disabled": 0}, {"rental_uris": {"android": "https://dc.lft.to/lastmile_qr_scan", "ios": "https://dc.lft.to/lastmile_qr_scan"}, "type": "electric_bike", "lon": -76.93414633333333, "name": "4dad76d477d96f26d83b8e87f0ca0bd4", "bike_id": "4dad76d477d96f26d83b8e87f0ca0bd4", "fusion_lat": 0.0, "is_reserved": 0, "lat": 38.946239166666665, "fusion_lon": 0.0, "is_disabled": 0}, {"rental_uris": {"android": "https://dc.lft.to/lastmile_qr_scan", "ios": "https://dc.lft.to/lastmile_qr_scan"}, "type": "electric_scooter", "lon": -77.02969733333333, "name": "47e56993e770cdc8769b5015ff49f844", "bike_id": "47e56993e770cdc8769b5015ff49f844", "fusion_lat": 0.0, "is_reserved": 0, "lat": 38.89323183333333, "fusion_lon": 0.0, "is_disabled": 0}, {"rental_uris": {"android": "https://dc.lft.to/lastmile_qr_scan", "ios": "https://dc.lft.to/lastmile_qr_scan"}, "type": "electric_scooter", "lon": -76.9240805, "name": "763070f56923f728c02083fb6113eac8", "bike_id": "763070f56923f728c02083fb6113eac8", "fusion_lat": 0.0, "is_reserved": 0, "lat": 38.889881333333335, "fusion_lon": 0.0, "is_disabled": 0}, {"rental_uris": {"android": "https://dc.lft.to/lastmile_qr_scan", "ios": "https://dc.lft.to/lastmile_qr_scan"}, "type": "electric_scooter", "lon": -77.02208933333333, "name": "7a6e2ba381b35ccca93cef617eb1f0cd", "bike_id": "7a6e2ba381b35ccca93cef617eb1f0cd", "fusion_lat": 0.0, "is_reserved": 0, "lat": 38.905716, "fusion_lon": 0.0, "is_disabled": 0}, {"rental_uris": {"android": "https://dc.lft.to/lastmile_qr_scan", "ios": "https://dc.lft.to/lastmile_qr_scan"}, "type": "electric_scooter", "lon": -76.9916475, "name": "5b13d7014c821dfa128a9176a8209870", "bike_id": "5b13d7014c821dfa128a9176a8209870", "fusion_lat": 0.0, "is_reserved": 0, "lat": 38.8791545, "fusion_lon": 0.0, "is_disabled": 0}, {"rental_uris": {"android": "https://dc.lft.to/lastmile_qr_scan", "ios": "https://dc.lft.to/lastmile_qr_scan"}, "type": "electric_scooter", "lon": -77.03805333333334, "name": "a8aa69722ddcf44033f915b6f66d6c63", "bike_id": "a8aa69722ddcf44033f915b6f66d6c63", "fusion_lat": 0.0, "is_reserved": 0, "lat": 38.90671716666667, "fusion_lon": 0.0, "is_disabled": 0}, {"rental_uris": {"android": "https://dc.lft.to/lastmile_qr_scan", "ios": "https://dc.lft.to/lastmile_qr_scan"}, "type": "electric_scooter", "lon": -76.97347083333334, "name": "a85e8e0f6028c55fe9bfab6a704e0820", "bike_id": "a85e8e0f6028c55fe9bfab6a704e0820", "fusion_lat": 0.0, "is_reserved": 0, "lat": 38.865088166666666, "fusion_lon": 0.0, "is_disabled": 0}, {"rental_uris": {"android": "https://dc.lft.to/lastmile_qr_scan", "ios": "https://dc.lft.to/lastmile_qr_scan"}, "type": "electric_scooter", "lon": -77.0230975, "name": "c644ffbc765fdf6995760941a7cfb850", "bike_id": "c644ffbc765fdf6995760941a7cfb850", "fusion_lat": 0.0, "is_reserved": 0, "lat": 38.928851333333334, "fusion_lon": 0.0, "is_disabled": 0}, {"rental_uris": {"android": "https://dc.lft.to/lastmile_qr_scan", "ios": "https://dc.lft.to/lastmile_qr_scan"}, "type": "electric_scooter", "lon": -77.00145216666667, "name": "034c0330cf440b58ef34a16c625154ab", "bike_id": "034c0330cf440b58ef34a16c625154ab", "fusion_lat": 0.0, "is_reserved": 0, "lat": 38.90006283333334, "fusion_lon": 0.0, "is_disabled": 0}, {"rental_uris": {"android": "https://dc.lft.to/lastmile_qr_scan", "ios": "https://dc.lft.to/lastmile_qr_scan"}, "type": "electric_scooter", "lon": -77.04988883333333, "name": "c6f6d600a729eebe83e5393a4a6da945", "bike_id": "c6f6d600a729eebe83e5393a4a6da945", "fusion_lat": 0.0, "is_reserved": 0, "lat": 38.89729, "fusion_lon": 0.0, "is_disabled": 0}, {"rental_uris": {"android": "https://dc.lft.to/lastmile_qr_scan", "ios": "https://dc.lft.to/lastmile_qr_scan"}, "type": "electric_scooter", "lon": -77.03184666666667, "name": "a875ee32d9c371fdec954977497c208f", "bike_id": "a875ee32d9c371fdec954977497c208f", "fusion_lat": 0.0, "is_reserved": 0, "lat": 38.89250716666667, "fusion_lon": 0.0, "is_disabled": 0}, {"rental_uris": {"android": "https://dc.lft.to/lastmile_qr_scan", "ios": "https://dc.lft.to/lastmile_qr_scan"}, "type": "electric_scooter", "lon": -76.970211, "name": "acad5b121b57e517436111e9117cb9bb", "bike_id": "acad5b121b57e517436111e9117cb9bb", "fusion_lat": 0.0, "is_reserved": 0, "lat": 38.920334, "fusion_lon": 0.0, "is_disabled": 0}, {"rental_uris": {"android": "https://dc.lft.to/lastmile_qr_scan", "ios": "https://dc.lft.to/lastmile_qr_scan"}, "type": "electric_scooter", "lon": -77.02979216666667, "name": "5e6f8010e2874c37b719782093b61f50", "bike_id": "5e6f8010e2874c37b719782093b61f50", "fusion_lat": 0.0, "is_reserved": 0, "lat": 38.923158666666666, "fusion_lon": 0.0, "is_disabled": 0}, {"rental_uris": {"android": "https://dc.lft.to/lastmile_qr_scan", "ios": "https://dc.lft.to/lastmile_qr_scan"}, "type": "electric_scooter", "lon": -77.02109, "name": "fe04fcfd65804ce6a8ca2b162fa13dee", "bike_id": "fe04fcfd65804ce6a8ca2b162fa13dee", "fusion_lat": 0.0, "is_reserved": 0, "lat": 38.8851555, "fusion_lon": 0.0, "is_disabled": 0}, {"rental_uris": {"android": "https://dc.lft.to/lastmile_qr_scan", "ios": "https://dc.lft.to/lastmile_qr_scan"}, "type": "electric_scooter", "lon": -76.99079666666667, "name": "510c5ce18aea581c6760464e7eb34b88", "bike_id": "510c5ce18aea581c6760464e7eb34b88", "fusion_lat": 0.0, "is_reserved": 0, "lat": 38.84287966666667, "fusion_lon": 0.0, "is_disabled": 0}, {"rental_uris": {"android": "https://dc.lft.to/lastmile_qr_scan", "ios": "https://dc.lft.to/lastmile_qr_scan"}, "type": "electric_scooter", "lon": -77.05140183333333, "name": "2c3963943f433b89db585848cdddc277", "bike_id": "2c3963943f433b89db585848cdddc277", "fusion_lat": 0.0, "is_reserved": 0, "lat": 38.904227, "fusion_lon": 0.0, "is_disabled": 0}, {"rental_uris": {"android": "https://dc.lft.to/lastmile_qr_scan", "ios": "https://dc.lft.to/lastmile_qr_scan"}, "type": "electric_scooter", "lon": -77.02374866666666, "name": "409f9728e5c6f2d611580a3eae10c1bf", "bike_id": "409f9728e5c6f2d611580a3eae10c1bf", "fusion_lat": 0.0, "is_reserved": 0, "lat": 38.902049166666664, "fusion_lon": 0.0, "is_disabled": 0}, {"rental_uris": {"android": "https://dc.lft.to/lastmile_qr_scan", "ios": "https://dc.lft.to/lastmile_qr_scan"}, "type": "electric_bike", "lon": -76.991031, "name": "208b9565b09891742a46cc8c3b139006", "bike_id": "208b9565b09891742a46cc8c3b139006", "fusion_lat": 0.0, "is_reserved": 0, "lat": 38.933756833333334, "fusion_lon": 0.0, "is_disabled": 0}, {"rental_uris": {"android": "https://dc.lft.to/lastmile_qr_scan", "ios": "https://dc.lft.to/lastmile_qr_scan"}, "type": "electric_scooter", "lon": -77.018967, "name": "84c75d59129a19d31c9e0ead8ef8a6de", "bike_id": "84c75d59129a19d31c9e0ead8ef8a6de", "fusion_lat": 0.0, "is_reserved": 0, "lat": 38.939175166666665, "fusion_lon": 0.0, "is_disabled": 0}, {"rental_uris": {"android": "https://dc.lft.to/lastmile_qr_scan", "ios": "https://dc.lft.to/lastmile_qr_scan"}, "type": "electric_scooter", "lon": -77.0237395, "name": "76f2765deb17bd9520f9fd316c93194a", "bike_id": "76f2765deb17bd9520f9fd316c93194a", "fusion_lat": 0.0, "is_reserved": 0, "lat": 38.902011333333334, "fusion_lon": 0.0, "is_disabled": 0}, {"rental_uris": {"android": "https://dc.lft.to/lastmile_qr_scan", "ios": "https://dc.lft.to/lastmile_qr_scan"}, "type": "electric_bike", "lon": -76.9477465, "name": "0c70e1cd024a803459ef966374efc5f0", "bike_id": "0c70e1cd024a803459ef966374efc5f0", "fusion_lat": 0.0, "is_reserved": 0, "lat": 38.89638133333333, "fusion_lon": 0.0, "is_disabled": 0}, {"rental_uris": {"android": "https://dc.lft.to/lastmile_qr_scan", "ios": "https://dc.lft.to/lastmile_qr_scan"}, "type": "electric_scooter", "lon": -77.03454316666667, "name": "aab4ffbcedc8c09914ee40b9677ca6e1", "bike_id": "aab4ffbcedc8c09914ee40b9677ca6e1", "fusion_lat": 0.0, "is_reserved": 0, "lat": 38.93559483333333, "fusion_lon": 0.0, "is_disabled": 0}, {"rental_uris": {"android": "https://dc.lft.to/lastmile_qr_scan", "ios": "https://dc.lft.to/lastmile_qr_scan"}, "type": "electric_bike", "lon": -76.97330516666666, "name": "589063cda09bafbc900d683464e826c0", "bike_id": "589063cda09bafbc900d683464e826c0", "fusion_lat": 0.0, "is_reserved": 0, "lat": 38.850644, "fusion_lon": 0.0, "is_disabled": 0}, {"rental_uris": {"android": "https://dc.lft.to/lastmile_qr_scan", "ios": "https://dc.lft.to/lastmile_qr_scan"}, "type": "electric_scooter", "lon": -77.0434115, "name": "7fcf554682780755654c12754ea3baaa", "bike_id": "7fcf554682780755654c12754ea3baaa", "fusion_lat": 0.0, "is_reserved": 0, "lat": 38.90309833333333, "fusion_lon": 0.0, "is_disabled": 0}, {"rental_uris": {"android": "https://dc.lft.to/lastmile_qr_scan", "ios": "https://dc.lft.to/lastmile_qr_scan"}, "type": "electric_scooter", "lon": -77.034455, "name": "f95f602819fd2e9a16c822fa12e78a70", "bike_id": "f95f602819fd2e9a16c822fa12e78a70", "fusion_lat": 0.0, "is_reserved": 0, "lat": 38.90725033333333, "fusion_lon": 0.0, "is_disabled": 0}, {"rental_uris": {"android": "https://dc.lft.to/lastmile_qr_scan", "ios": "https://dc.lft.to/lastmile_qr_scan"}, "type": "electric_scooter", "lon": -77.032739, "name": "b9ea52555d7b568e95391896b471cd9e", "bike_id": "b9ea52555d7b568e95391896b471cd9e", "fusion_lat": 0.0, "is_reserved": 0, "lat": 38.9325185, "fusion_lon": 0.0, "is_disabled": 0}, {"rental_uris": {"android": "https://dc.lft.to/lastmile_qr_scan", "ios": "https://dc.lft.to/lastmile_qr_scan"}, "type": "electric_scooter", "lon": -77.0240245, "name": "759d7082a46bad4f99c750b77cfa5e44", "bike_id": "759d7082a46bad4f99c750b77cfa5e44", "fusion_lat": 0.0, "is_reserved": 0, "lat": 38.91997766666667, "fusion_lon": 0.0, "is_disabled": 0}, {"rental_uris": {"android": "https://dc.lft.to/lastmile_qr_scan", "ios": "https://dc.lft.to/lastmile_qr_scan"}, "type": "electric_scooter", "lon": -77.03332416666667, "name": "4173a9dec34b18bb4fc0390500feabcf", "bike_id": "4173a9dec34b18bb4fc0390500feabcf", "fusion_lat": 0.0, "is_reserved": 0, "lat": 38.90368816666667, "fusion_lon": 0.0, "is_disabled": 0}, {"rental_uris": {"android": "https://dc.lft.to/lastmile_qr_scan", "ios": "https://dc.lft.to/lastmile_qr_scan"}, "type": "electric_scooter", "lon": -77.046037, "name": "fc36b784cce0ebbddb6c9a8d3282489e", "bike_id": "fc36b784cce0ebbddb6c9a8d3282489e", "fusion_lat": 0.0, "is_reserved": 0, "lat": 38.902508, "fusion_lon": 0.0, "is_disabled": 0}, {"rental_uris": {"android": "https://dc.lft.to/lastmile_qr_scan", "ios": "https://dc.lft.to/lastmile_qr_scan"}, "type": "electric_scooter", "lon": -76.977272, "name": "044c17515055367c64b9265025c47e96", "bike_id": "044c17515055367c64b9265025c47e96", "fusion_lat": 0.0, "is_reserved": 0, "lat": 38.8724705, "fusion_lon": 0.0, "is_disabled": 0}, {"rental_uris": {"android": "https://dc.lft.to/lastmile_qr_scan", "ios": "https://dc.lft.to/lastmile_qr_scan"}, "type": "electric_scooter", "lon": -77.031951, "name": "ccb354bdf3dbc47f7ec0cbc564be7af9", "bike_id": "ccb354bdf3dbc47f7ec0cbc564be7af9", "fusion_lat": 0.0, "is_reserved": 0, "lat": 38.92057666666667, "fusion_lon": 0.0, "is_disabled": 0}, {"rental_uris": {"android": "https://dc.lft.to/lastmile_qr_scan", "ios": "https://dc.lft.to/lastmile_qr_scan"}, "type": "electric_scooter", "lon": -77.0344385, "name": "5d7c1248d7e242cefae26bec9dcd17cf", "bike_id": "5d7c1248d7e242cefae26bec9dcd17cf", "fusion_lat": 0.0, "is_reserved": 0, "lat": 38.9287575, "fusion_lon": 0.0, "is_disabled": 0}, {"rental_uris": {"android": "https://dc.lft.to/lastmile_qr_scan", "ios": "https://dc.lft.to/lastmile_qr_scan"}, "type": "electric_scooter", "lon": -77.0250235, "name": "5372edf5776ce7475d67c0e907bb6481", "bike_id": "5372edf5776ce7475d67c0e907bb6481", "fusion_lat": 0.0, "is_reserved": 0, "lat": 38.94197333333334, "fusion_lon": 0.0, "is_disabled": 0}, {"rental_uris": {"android": "https://dc.lft.to/lastmile_qr_scan", "ios": "https://dc.lft.to/lastmile_qr_scan"}, "type": "electric_scooter", "lon": -77.0216965, "name": "7ebeb7d135c0b0597dd05ec0aed05927", "bike_id": "7ebeb7d135c0b0597dd05ec0aed05927", "fusion_lat": 0.0, "is_reserved": 0, "lat": 38.88745383333333, "fusion_lon": 0.0, "is_disabled": 0}, {"rental_uris": {"android": "https://dc.lft.to/lastmile_qr_scan", "ios": "https://dc.lft.to/lastmile_qr_scan"}, "type": "electric_scooter", "lon": -77.039545, "name": "ccb506ed8184f56792c92861db80b69b", "bike_id": "ccb506ed8184f56792c92861db80b69b", "fusion_lat": 0.0, "is_reserved": 0, "lat": 38.9060595, "fusion_lon": 0.0, "is_disabled": 0}, {"rental_uris": {"android": "https://dc.lft.to/lastmile_qr_scan", "ios": "https://dc.lft.to/lastmile_qr_scan"}, "type": "electric_scooter", "lon": -77.019601, "name": "78639cd940800f403eb5c42194e9afd6", "bike_id": "78639cd940800f403eb5c42194e9afd6", "fusion_lat": 0.0, "is_reserved": 0, "lat": 38.935751333333336, "fusion_lon": 0.0, "is_disabled": 0}, {"rental_uris": {"android": "https://dc.lft.to/lastmile_qr_scan", "ios": "https://dc.lft.to/lastmile_qr_scan"}, "type": "electric_scooter", "lon": -77.0471875, "name": "321cf5ca01cf7e79ad0bbf0d87058856", "bike_id": "321cf5ca01cf7e79ad0bbf0d87058856", "fusion_lat": 0.0, "is_reserved": 0, "lat": 38.896069833333335, "fusion_lon": 0.0, "is_disabled": 0}, {"rental_uris": {"android": "https://dc.lft.to/lastmile_qr_scan", "ios": "https://dc.lft.to/lastmile_qr_scan"}, "type": "electric_scooter", "lon": -77.03455866666667, "name": "c1278b32e2042351226586dc7f34c3f6", "bike_id": "c1278b32e2042351226586dc7f34c3f6", "fusion_lat": 0.0, "is_reserved": 0, "lat": 38.9100665, "fusion_lon": 0.0, "is_disabled": 0}, {"rental_uris": {"android": "https://dc.lft.to/lastmile_qr_scan", "ios": "https://dc.lft.to/lastmile_qr_scan"}, "type": "electric_scooter", "lon": -77.021658, "name": "37da38e1ce94c9732708cdb08a8ac1b8", "bike_id": "37da38e1ce94c9732708cdb08a8ac1b8", "fusion_lat": 0.0, "is_reserved": 0, "lat": 38.885084, "fusion_lon": 0.0, "is_disabled": 0}, {"rental_uris": {"android": "https://dc.lft.to/lastmile_qr_scan", "ios": "https://dc.lft.to/lastmile_qr_scan"}, "type": "electric_scooter", "lon": -76.99817566666667, "name": "17ac50b54508fced7c6c83c82afe30d2", "bike_id": "17ac50b54508fced7c6c83c82afe30d2", "fusion_lat": 0.0, "is_reserved": 0, "lat": 38.9003705, "fusion_lon": 0.0, "is_disabled": 0}, {"rental_uris": {"android": "https://dc.lft.to/lastmile_qr_scan", "ios": "https://dc.lft.to/lastmile_qr_scan"}, "type": "electric_scooter", "lon": -76.99577783333334, "name": "e27019a071db72d1ffc3aac6f81a1b71", "bike_id": "e27019a071db72d1ffc3aac6f81a1b71", "fusion_lat": 0.0, "is_reserved": 0, "lat": 38.94944183333333, "fusion_lon": 0.0, "is_disabled": 0}, {"rental_uris": {"android": "https://dc.lft.to/lastmile_qr_scan", "ios": "https://dc.lft.to/lastmile_qr_scan"}, "type": "electric_scooter", "lon": -77.04055083333333, "name": "9b2e0eb86e0ba9d6feb18f49b60ed715", "bike_id": "9b2e0eb86e0ba9d6feb18f49b60ed715", "fusion_lat": 0.0, "is_reserved": 0, "lat": 38.9088075, "fusion_lon": 0.0, "is_disabled": 0}, {"rental_uris": {"android": "https://dc.lft.to/lastmile_qr_scan", "ios": "https://dc.lft.to/lastmile_qr_scan"}, "type": "electric_scooter", "lon": -77.03845816666667, "name": "c2a7519185d65b70bae38ec4c8e2159f", "bike_id": "c2a7519185d65b70bae38ec4c8e2159f", "fusion_lat": 0.0, "is_reserved": 0, "lat": 38.90282083333334, "fusion_lon": 0.0, "is_disabled": 0}, {"rental_uris": {"android": "https://dc.lft.to/lastmile_qr_scan", "ios": "https://dc.lft.to/lastmile_qr_scan"}, "type": "electric_scooter", "lon": -77.08612133333334, "name": "dc04b0fd5a7c055292709649fbf1ec94", "bike_id": "dc04b0fd5a7c055292709649fbf1ec94", "fusion_lat": 0.0, "is_reserved": 0, "lat": 38.9587375, "fusion_lon": 0.0, "is_disabled": 0}, {"rental_uris": {"android": "https://dc.lft.to/lastmile_qr_scan", "ios": "https://dc.lft.to/lastmile_qr_scan"}, "type": "electric_scooter", "lon": -77.01381733333334, "name": "025fb04443abe34087983d8c9033cf14", "bike_id": "025fb04443abe34087983d8c9033cf14", "fusion_lat": 0.0, "is_reserved": 0, "lat": 38.92865533333333, "fusion_lon": 0.0, "is_disabled": 0}, {"rental_uris": {"android": "https://dc.lft.to/lastmile_qr_scan", "ios": "https://dc.lft.to/lastmile_qr_scan"}, "type": "electric_scooter", "lon": -77.02345766666667, "name": "10f9fb853fea99df828c2a99532c2fd7", "bike_id": "10f9fb853fea99df828c2a99532c2fd7", "fusion_lat": 0.0, "is_reserved": 0, "lat": 38.9297875, "fusion_lon": 0.0, "is_disabled": 0}, {"rental_uris": {"android": "https://dc.lft.to/lastmile_qr_scan", "ios": "https://dc.lft.to/lastmile_qr_scan"}, "type": "electric_bike", "lon": -76.95208733333334, "name": "01462cce88fdd131794351022eda158d", "bike_id": "01462cce88fdd131794351022eda158d", "fusion_lat": 0.0, "is_reserved": 0, "lat": 38.936732666666664, "fusion_lon": 0.0, "is_disabled": 0}, {"rental_uris": {"android": "https://dc.lft.to/lastmile_qr_scan", "ios": "https://dc.lft.to/lastmile_qr_scan"}, "type": "electric_scooter", "lon": -77.04034866666667, "name": "4b0fb4b23566c7a774a9be6d6287d9ac", "bike_id": "4b0fb4b23566c7a774a9be6d6287d9ac", "fusion_lat": 0.0, "is_reserved": 0, "lat": 38.8989985, "fusion_lon": 0.0, "is_disabled": 0}, {"rental_uris": {"android": "https://dc.lft.to/lastmile_qr_scan", "ios": "https://dc.lft.to/lastmile_qr_scan"}, "type": "electric_bike", "lon": -76.99029316666666, "name": "480b0cf5259364a34e14d4c2fc12c859", "bike_id": "480b0cf5259364a34e14d4c2fc12c859", "fusion_lat": 0.0, "is_reserved": 0, "lat": 38.898129, "fusion_lon": 0.0, "is_disabled": 0}, {"rental_uris": {"android": "https://dc.lft.to/lastmile_qr_scan", "ios": "https://dc.lft.to/lastmile_qr_scan"}, "type": "electric_scooter", "lon": -77.06975633333333, "name": "411c17316df5a83000a458fe11d20d91", "bike_id": "411c17316df5a83000a458fe11d20d91", "fusion_lat": 0.0, "is_reserved": 0, "lat": 38.95292716666667, "fusion_lon": 0.0, "is_disabled": 0}, {"rental_uris": {"android": "https://dc.lft.to/lastmile_qr_scan", "ios": "https://dc.lft.to/lastmile_qr_scan"}, "type": "electric_scooter", "lon": -77.01964333333333, "name": "1686cf013b1152ec5e158c9e3611afbc", "bike_id": "1686cf013b1152ec5e158c9e3611afbc", "fusion_lat": 0.0, "is_reserved": 0, "lat": 38.883733166666666, "fusion_lon": 0.0, "is_disabled": 0}, {"rental_uris": {"android": "https://dc.lft.to/lastmile_qr_scan", "ios": "https://dc.lft.to/lastmile_qr_scan"}, "type": "electric_bike", "lon": -76.96493433333333, "name": "fc225bac08ebd2498430c87207929360", "bike_id": "fc225bac08ebd2498430c87207929360", "fusion_lat": 0.0, "is_reserved": 0, "lat": 38.87551083333334, "fusion_lon": 0.0, "is_disabled": 0}, {"rental_uris": {"android": "https://dc.lft.to/lastmile_qr_scan", "ios": "https://dc.lft.to/lastmile_qr_scan"}, "type": "electric_scooter", "lon": -77.04683016666667, "name": "10897a202a86b2fc105fc088ff8eb26a", "bike_id": "10897a202a86b2fc105fc088ff8eb26a", "fusion_lat": 0.0, "is_reserved": 0, "lat": 38.903733, "fusion_lon": 0.0, "is_disabled": 0}, {"rental_uris": {"android": "https://dc.lft.to/lastmile_qr_scan", "ios": "https://dc.lft.to/lastmile_qr_scan"}, "type": "electric_scooter", "lon": -76.9318535, "name": "bfb9b63acaac08f899a36bc775c94766", "bike_id": "bfb9b63acaac08f899a36bc775c94766", "fusion_lat": 0.0, "is_reserved": 0, "lat": 38.89878066666667, "fusion_lon": 0.0, "is_disabled": 0}, {"rental_uris": {"android": "https://dc.lft.to/lastmile_qr_scan", "ios": "https://dc.lft.to/lastmile_qr_scan"}, "type": "electric_scooter", "lon": -76.93829366666667, "name": "7e11b99f3c86db1879c826591976b055", "bike_id": "7e11b99f3c86db1879c826591976b055", "fusion_lat": 0.0, "is_reserved": 0, "lat": 38.89757216666667, "fusion_lon": 0.0, "is_disabled": 0}, {"rental_uris": {"android": "https://dc.lft.to/lastmile_qr_scan", "ios": "https://dc.lft.to/lastmile_qr_scan"}, "type": "electric_scooter", "lon": -77.02807666666666, "name": "1d28adf3b398b653f9827d84e8369717", "bike_id": "1d28adf3b398b653f9827d84e8369717", "fusion_lat": 0.0, "is_reserved": 0, "lat": 38.944580333333334, "fusion_lon": 0.0, "is_disabled": 0}, {"rental_uris": {"android": "https://dc.lft.to/lastmile_qr_scan", "ios": "https://dc.lft.to/lastmile_qr_scan"}, "type": "electric_scooter", "lon": -76.99213916666666, "name": "5a4d6dfef9ba796512d4353b8553841d", "bike_id": "5a4d6dfef9ba796512d4353b8553841d", "fusion_lat": 0.0, "is_reserved": 0, "lat": 38.9046865, "fusion_lon": 0.0, "is_disabled": 0}, {"rental_uris": {"android": "https://dc.lft.to/lastmile_qr_scan", "ios": "https://dc.lft.to/lastmile_qr_scan"}, "type": "electric_scooter", "lon": -76.948432, "name": "008788fb2909e7c657eb546a20135dc7", "bike_id": "008788fb2909e7c657eb546a20135dc7", "fusion_lat": 0.0, "is_reserved": 0, "lat": 38.894817333333336, "fusion_lon": 0.0, "is_disabled": 0}, {"rental_uris": {"android": "https://dc.lft.to/lastmile_qr_scan", "ios": "https://dc.lft.to/lastmile_qr_scan"}, "type": "electric_scooter", "lon": -77.0034345, "name": "e3e684966fbbed8af332e2bd223af204", "bike_id": "e3e684966fbbed8af332e2bd223af204", "fusion_lat": 0.0, "is_reserved": 0, "lat": 38.913418, "fusion_lon": 0.0, "is_disabled": 0}, {"rental_uris": {"android": "https://dc.lft.to/lastmile_qr_scan", "ios": "https://dc.lft.to/lastmile_qr_scan"}, "type": "electric_scooter", "lon": -76.98418366666667, "name": "8d09a805d93cc62f1c9a8edfcad4665a", "bike_id": "8d09a805d93cc62f1c9a8edfcad4665a", "fusion_lat": 0.0, "is_reserved": 0, "lat": 38.913887833333334, "fusion_lon": 0.0, "is_disabled": 0}, {"rental_uris": {"android": "https://dc.lft.to/lastmile_qr_scan", "ios": "https://dc.lft.to/lastmile_qr_scan"}, "type": "electric_scooter", "lon": -77.0821095, "name": "74ccdcd8fc028cd894e289d885a173b4", "bike_id": "74ccdcd8fc028cd894e289d885a173b4", "fusion_lat": 0.0, "is_reserved": 0, "lat": 38.93552483333333, "fusion_lon": 0.0, "is_disabled": 0}, {"rental_uris": {"android": "https://dc.lft.to/lastmile_qr_scan", "ios": "https://dc.lft.to/lastmile_qr_scan"}, "type": "electric_scooter", "lon": -77.00291933333334, "name": "35a559a37784840a167103b163e34dd2", "bike_id": "35a559a37784840a167103b163e34dd2", "fusion_lat": 0.0, "is_reserved": 0, "lat": 38.88984816666667, "fusion_lon": 0.0, "is_disabled": 0}, {"rental_uris": {"android": "https://dc.lft.to/lastmile_qr_scan", "ios": "https://dc.lft.to/lastmile_qr_scan"}, "type": "electric_scooter", "lon": -77.00921766666667, "name": "68e70393c108ac24e0b6016d032ca235", "bike_id": "68e70393c108ac24e0b6016d032ca235", "fusion_lat": 0.0, "is_reserved": 0, "lat": 38.910514166666665, "fusion_lon": 0.0, "is_disabled": 0}, {"rental_uris": {"android": "https://dc.lft.to/lastmile_qr_scan", "ios": "https://dc.lft.to/lastmile_qr_scan"}, "type": "electric_scooter", "lon": -77.04340216666667, "name": "415f26207e3df1ceaaacc7dfc07dbbda", "bike_id": "415f26207e3df1ceaaacc7dfc07dbbda", "fusion_lat": 0.0, "is_reserved": 0, "lat": 38.900556, "fusion_lon": 0.0, "is_disabled": 0}, {"rental_uris": {"android": "https://dc.lft.to/lastmile_qr_scan", "ios": "https://dc.lft.to/lastmile_qr_scan"}, "type": "electric_scooter", "lon": -77.03057783333334, "name": "00a8b0c862fd4323fe6418c37a9972cb", "bike_id": "00a8b0c862fd4323fe6418c37a9972cb", "fusion_lat": 0.0, "is_reserved": 0, "lat": 38.91920533333333, "fusion_lon": 0.0, "is_disabled": 0}, {"rental_uris": {"android": "https://dc.lft.to/lastmile_qr_scan", "ios": "https://dc.lft.to/lastmile_qr_scan"}, "type": "electric_scooter", "lon": -77.0328165, "name": "91be1f50a02fdcee11f6963b89dacef0", "bike_id": "91be1f50a02fdcee11f6963b89dacef0", "fusion_lat": 0.0, "is_reserved": 0, "lat": 38.93985633333333, "fusion_lon": 0.0, "is_disabled": 0}, {"rental_uris": {"android": "https://dc.lft.to/lastmile_qr_scan", "ios": "https://dc.lft.to/lastmile_qr_scan"}, "type": "electric_scooter", "lon": -77.02814233333334, "name": "d7b501b6833ce3fb1c3bf9d403fdb10b", "bike_id": "d7b501b6833ce3fb1c3bf9d403fdb10b", "fusion_lat": 0.0, "is_reserved": 0, "lat": 38.961399666666665, "fusion_lon": 0.0, "is_disabled": 0}, {"rental_uris": {"android": "https://dc.lft.to/lastmile_qr_scan", "ios": "https://dc.lft.to/lastmile_qr_scan"}, "type": "electric_scooter", "lon": -76.9900965, "name": "71c91991f95af6e38f24387833807347", "bike_id": "71c91991f95af6e38f24387833807347", "fusion_lat": 0.0, "is_reserved": 0, "lat": 38.90394233333333, "fusion_lon": 0.0, "is_disabled": 0}, {"rental_uris": {"android": "https://dc.lft.to/lastmile_qr_scan", "ios": "https://dc.lft.to/lastmile_qr_scan"}, "type": "electric_scooter", "lon": -76.98686283333333, "name": "c34da93a9718141164504b51d678b939", "bike_id": "c34da93a9718141164504b51d678b939", "fusion_lat": 0.0, "is_reserved": 0, "lat": 38.882043833333334, "fusion_lon": 0.0, "is_disabled": 0}, {"rental_uris": {"android": "https://dc.lft.to/lastmile_qr_scan", "ios": "https://dc.lft.to/lastmile_qr_scan"}, "type": "electric_scooter", "lon": -77.031897, "name": "e49fefc0ca4d59721435d77b6a2f3799", "bike_id": "e49fefc0ca4d59721435d77b6a2f3799", "fusion_lat": 0.0, "is_reserved": 0, "lat": 38.907278, "fusion_lon": 0.0, "is_disabled": 0}, {"rental_uris": {"android": "https://dc.lft.to/lastmile_qr_scan", "ios": "https://dc.lft.to/lastmile_qr_scan"}, "type": "electric_scooter", "lon": -77.00679766666667, "name": "f0dd09fb247b76a278bd5df3822ee030", "bike_id": "f0dd09fb247b76a278bd5df3822ee030", "fusion_lat": 0.0, "is_reserved": 0, "lat": 38.949942166666666, "fusion_lon": 0.0, "is_disabled": 0}, {"rental_uris": {"android": "https://dc.lft.to/lastmile_qr_scan", "ios": "https://dc.lft.to/lastmile_qr_scan"}, "type": "electric_scooter", "lon": -77.03284983333333, "name": "f5d53f7b42947bc8bcf8f42a43f14390", "bike_id": "f5d53f7b42947bc8bcf8f42a43f14390", "fusion_lat": 0.0, "is_reserved": 0, "lat": 38.910455, "fusion_lon": 0.0, "is_disabled": 0}, {"rental_uris": {"android": "https://dc.lft.to/lastmile_qr_scan", "ios": "https://dc.lft.to/lastmile_qr_scan"}, "type": "electric_scooter", "lon": -77.0482145, "name": "242ed61a819d570209836dac9c5fe6b0", "bike_id": "242ed61a819d570209836dac9c5fe6b0", "fusion_lat": 0.0, "is_reserved": 0, "lat": 38.91488966666667, "fusion_lon": 0.0, "is_disabled": 0}, {"rental_uris": {"android": "https://dc.lft.to/lastmile_qr_scan", "ios": "https://dc.lft.to/lastmile_qr_scan"}, "type": "electric_scooter", "lon": -77.02958883333334, "name": "b3037fff087c0a0fe22c497b3bd2062a", "bike_id": "b3037fff087c0a0fe22c497b3bd2062a", "fusion_lat": 0.0, "is_reserved": 0, "lat": 38.9214265, "fusion_lon": 0.0, "is_disabled": 0}, {"rental_uris": {"android": "https://dc.lft.to/lastmile_qr_scan", "ios": "https://dc.lft.to/lastmile_qr_scan"}, "type": "electric_scooter", "lon": -77.020352, "name": "8573ae241e141da5dfee8f16612e3ec8", "bike_id": "8573ae241e141da5dfee8f16612e3ec8", "fusion_lat": 0.0, "is_reserved": 0, "lat": 38.89270716666667, "fusion_lon": 0.0, "is_disabled": 0}, {"rental_uris": {"android": "https://dc.lft.to/lastmile_qr_scan", "ios": "https://dc.lft.to/lastmile_qr_scan"}, "type": "electric_scooter", "lon": -77.0653695, "name": "df52585dd6f8e090ac603f16ec957310", "bike_id": "df52585dd6f8e090ac603f16ec957310", "fusion_lat": 0.0, "is_reserved": 0, "lat": 38.950666166666664, "fusion_lon": 0.0, "is_disabled": 0}, {"rental_uris": {"android": "https://dc.lft.to/lastmile_qr_scan", "ios": "https://dc.lft.to/lastmile_qr_scan"}, "type": "electric_scooter", "lon": -77.03750333333333, "name": "d363f7bf056918f36f956a4c7bed793f", "bike_id": "d363f7bf056918f36f956a4c7bed793f", "fusion_lat": 0.0, "is_reserved": 0, "lat": 38.9170045, "fusion_lon": 0.0, "is_disabled": 0}, {"rental_uris": {"android": "https://dc.lft.to/lastmile_qr_scan", "ios": "https://dc.lft.to/lastmile_qr_scan"}, "type": "electric_scooter", "lon": -77.01779533333334, "name": "08d7a76dfa658e954a6c01acb98d61fb", "bike_id": "08d7a76dfa658e954a6c01acb98d61fb", "fusion_lat": 0.0, "is_reserved": 0, "lat": 38.9199515, "fusion_lon": 0.0, "is_disabled": 0}, {"rental_uris": {"android": "https://dc.lft.to/lastmile_qr_scan", "ios": "https://dc.lft.to/lastmile_qr_scan"}, "type": "electric_scooter", "lon": -77.03758033333334, "name": "897661fe6a6eb88e5b23f205d230f79d", "bike_id": "897661fe6a6eb88e5b23f205d230f79d", "fusion_lat": 0.0, "is_reserved": 0, "lat": 38.89296433333333, "fusion_lon": 0.0, "is_disabled": 0}, {"rental_uris": {"android": "https://dc.lft.to/lastmile_qr_scan", "ios": "https://dc.lft.to/lastmile_qr_scan"}, "type": "electric_scooter", "lon": -77.02424183333333, "name": "29d1f79b1e9bae6bf6f7d0781fcdd943", "bike_id": "29d1f79b1e9bae6bf6f7d0781fcdd943", "fusion_lat": 0.0, "is_reserved": 0, "lat": 38.89215633333333, "fusion_lon": 0.0, "is_disabled": 0}, {"rental_uris": {"android": "https://dc.lft.to/lastmile_qr_scan", "ios": "https://dc.lft.to/lastmile_qr_scan"}, "type": "electric_bike", "lon": -77.0854495, "name": "dedf031145b15996fd9778dc5c841359", "bike_id": "dedf031145b15996fd9778dc5c841359", "fusion_lat": 0.0, "is_reserved": 0, "lat": 38.856154833333335, "fusion_lon": 0.0, "is_disabled": 0}, {"rental_uris": {"android": "https://dc.lft.to/lastmile_qr_scan", "ios": "https://dc.lft.to/lastmile_qr_scan"}, "type": "electric_scooter", "lon": -77.03639316666667, "name": "fd65c82fb535d7b11066aa67578c0eec", "bike_id": "fd65c82fb535d7b11066aa67578c0eec", "fusion_lat": 0.0, "is_reserved": 0, "lat": 38.913044, "fusion_lon": 0.0, "is_disabled": 0}, {"rental_uris": {"android": "https://dc.lft.to/lastmile_qr_scan", "ios": "https://dc.lft.to/lastmile_qr_scan"}, "type": "electric_scooter", "lon": -76.986999, "name": "7440c486fc57d0c1322ca86a834e6433", "bike_id": "7440c486fc57d0c1322ca86a834e6433", "fusion_lat": 0.0, "is_reserved": 0, "lat": 38.90201716666667, "fusion_lon": 0.0, "is_disabled": 0}, {"rental_uris": {"android": "https://dc.lft.to/lastmile_qr_scan", "ios": "https://dc.lft.to/lastmile_qr_scan"}, "type": "electric_scooter", "lon": -76.98508716666667, "name": "cf7563d17f5e74ddaec60fd7b655ec29", "bike_id": "cf7563d17f5e74ddaec60fd7b655ec29", "fusion_lat": 0.0, "is_reserved": 0, "lat": 38.880849, "fusion_lon": 0.0, "is_disabled": 0}, {"rental_uris": {"android": "https://dc.lft.to/lastmile_qr_scan", "ios": "https://dc.lft.to/lastmile_qr_scan"}, "type": "electric_scooter", "lon": -76.994526, "name": "26b8500598ab51a0bfe9c3aafdbccbfe", "bike_id": "26b8500598ab51a0bfe9c3aafdbccbfe", "fusion_lat": 0.0, "is_reserved": 0, "lat": 38.885989, "fusion_lon": 0.0, "is_disabled": 0}, {"rental_uris": {"android": "https://dc.lft.to/lastmile_qr_scan", "ios": "https://dc.lft.to/lastmile_qr_scan"}, "type": "electric_bike", "lon": -77.1780385, "name": "844bbc27fbf1f59f66600fb504c16b04", "bike_id": "844bbc27fbf1f59f66600fb504c16b04", "fusion_lat": 0.0, "is_reserved": 0, "lat": 39.088422333333334, "fusion_lon": 0.0, "is_disabled": 0}, {"rental_uris": {"android": "https://dc.lft.to/lastmile_qr_scan", "ios": "https://dc.lft.to/lastmile_qr_scan"}, "type": "electric_scooter", "lon": -77.02557566666667, "name": "0219279d29d0c9268a7d9dac9a12d0c0", "bike_id": "0219279d29d0c9268a7d9dac9a12d0c0", "fusion_lat": 0.0, "is_reserved": 0, "lat": 38.94166883333333, "fusion_lon": 0.0, "is_disabled": 0}, {"rental_uris": {"android": "https://dc.lft.to/lastmile_qr_scan", "ios": "https://dc.lft.to/lastmile_qr_scan"}, "type": "electric_scooter", "lon": -76.98887166666667, "name": "b4021d360b1ee42a7d878f2320507d27", "bike_id": "b4021d360b1ee42a7d878f2320507d27", "fusion_lat": 0.0, "is_reserved": 0, "lat": 38.866729166666666, "fusion_lon": 0.0, "is_disabled": 0}, {"rental_uris": {"android": "https://dc.lft.to/lastmile_qr_scan", "ios": "https://dc.lft.to/lastmile_qr_scan"}, "type": "electric_scooter", "lon": -76.98755433333334, "name": "7aa714d7b09e0e5367a04f4e456e7221", "bike_id": "7aa714d7b09e0e5367a04f4e456e7221", "fusion_lat": 0.0, "is_reserved": 0, "lat": 38.84454816666667, "fusion_lon": 0.0, "is_disabled": 0}, {"rental_uris": {"android": "https://dc.lft.to/lastmile_qr_scan", "ios": "https://dc.lft.to/lastmile_qr_scan"}, "type": "electric_bike", "lon": -77.0262975, "name": "6f502d8ceef37239deaa1af9c7d81ccd", "bike_id": "6f502d8ceef37239deaa1af9c7d81ccd", "fusion_lat": 0.0, "is_reserved": 0, "lat": 38.962261833333336, "fusion_lon": 0.0, "is_disabled": 0}, {"rental_uris": {"android": "https://dc.lft.to/lastmile_qr_scan", "ios": "https://dc.lft.to/lastmile_qr_scan"}, "type": "electric_scooter", "lon": -77.028021, "name": "445a7912e8423bee9d3959df8d62ae99", "bike_id": "445a7912e8423bee9d3959df8d62ae99", "fusion_lat": 0.0, "is_reserved": 0, "lat": 38.9614175, "fusion_lon": 0.0, "is_disabled": 0}, {"rental_uris": {"android": "https://dc.lft.to/lastmile_qr_scan", "ios": "https://dc.lft.to/lastmile_qr_scan"}, "type": "electric_scooter", "lon": -77.04215883333333, "name": "c7386e96ce114f06073d7cd81268718f", "bike_id": "c7386e96ce114f06073d7cd81268718f", "fusion_lat": 0.0, "is_reserved": 0, "lat": 38.90696766666667, "fusion_lon": 0.0, "is_disabled": 0}, {"rental_uris": {"android": "https://dc.lft.to/lastmile_qr_scan", "ios": "https://dc.lft.to/lastmile_qr_scan"}, "type": "electric_bike", "lon": -76.92341833333333, "name": "76f72f4b5c71c7cbbd975396114c371a", "bike_id": "76f72f4b5c71c7cbbd975396114c371a", "fusion_lat": 0.0, "is_reserved": 0, "lat": 38.88791916666667, "fusion_lon": 0.0, "is_disabled": 0}, {"rental_uris": {"android": "https://dc.lft.to/lastmile_qr_scan", "ios": "https://dc.lft.to/lastmile_qr_scan"}, "type": "electric_scooter", "lon": -76.98779833333333, "name": "5d30859a5cf91b6de66f9a78c1c9f871", "bike_id": "5d30859a5cf91b6de66f9a78c1c9f871", "fusion_lat": 0.0, "is_reserved": 0, "lat": 38.900310166666664, "fusion_lon": 0.0, "is_disabled": 0}, {"rental_uris": {"android": "https://dc.lft.to/lastmile_qr_scan", "ios": "https://dc.lft.to/lastmile_qr_scan"}, "type": "electric_scooter", "lon": -77.04227616666667, "name": "230b5acabb05c517dc3a5e9acf00226c", "bike_id": "230b5acabb05c517dc3a5e9acf00226c", "fusion_lat": 0.0, "is_reserved": 0, "lat": 38.92622083333333, "fusion_lon": 0.0, "is_disabled": 0}, {"rental_uris": {"android": "https://dc.lft.to/lastmile_qr_scan", "ios": "https://dc.lft.to/lastmile_qr_scan"}, "type": "electric_scooter", "lon": -77.02367416666667, "name": "31d678532147d0fb8656c7e94c65f68c", "bike_id": "31d678532147d0fb8656c7e94c65f68c", "fusion_lat": 0.0, "is_reserved": 0, "lat": 38.931359, "fusion_lon": 0.0, "is_disabled": 0}, {"rental_uris": {"android": "https://dc.lft.to/lastmile_qr_scan", "ios": "https://dc.lft.to/lastmile_qr_scan"}, "type": "electric_scooter", "lon": -77.0727185, "name": "45cc41a78664261b2af09eb45a3fe1a9", "bike_id": "45cc41a78664261b2af09eb45a3fe1a9", "fusion_lat": 0.0, "is_reserved": 0, "lat": 38.934781666666666, "fusion_lon": 0.0, "is_disabled": 0}, {"rental_uris": {"android": "https://dc.lft.to/lastmile_qr_scan", "ios": "https://dc.lft.to/lastmile_qr_scan"}, "type": "electric_scooter", "lon": -76.990264, "name": "2ee3b98b276819bdf704964616c4f9f7", "bike_id": "2ee3b98b276819bdf704964616c4f9f7", "fusion_lat": 0.0, "is_reserved": 0, "lat": 38.8640185, "fusion_lon": 0.0, "is_disabled": 0}, {"rental_uris": {"android": "https://dc.lft.to/lastmile_qr_scan", "ios": "https://dc.lft.to/lastmile_qr_scan"}, "type": "electric_bike", "lon": -77.00458583333334, "name": "e56481a29740f77beb8db3b73c2aad05", "bike_id": "e56481a29740f77beb8db3b73c2aad05", "fusion_lat": 0.0, "is_reserved": 0, "lat": 38.914381, "fusion_lon": 0.0, "is_disabled": 0}, {"rental_uris": {"android": "https://dc.lft.to/lastmile_qr_scan", "ios": "https://dc.lft.to/lastmile_qr_scan"}, "type": "electric_scooter", "lon": -77.04961433333334, "name": "792efb9c70786cd9dd4cf2a69ca009ac", "bike_id": "792efb9c70786cd9dd4cf2a69ca009ac", "fusion_lat": 0.0, "is_reserved": 0, "lat": 38.912594, "fusion_lon": 0.0, "is_disabled": 0}, {"rental_uris": {"android": "https://dc.lft.to/lastmile_qr_scan", "ios": "https://dc.lft.to/lastmile_qr_scan"}, "type": "electric_bike", "lon": -77.08941166666666, "name": "0389fe35313a76a3378ebc9693e51034", "bike_id": "0389fe35313a76a3378ebc9693e51034", "fusion_lat": 0.0, "is_reserved": 0, "lat": 38.841049, "fusion_lon": 0.0, "is_disabled": 0}, {"rental_uris": {"android": "https://dc.lft.to/lastmile_qr_scan", "ios": "https://dc.lft.to/lastmile_qr_scan"}, "type": "electric_scooter", "lon": -76.99779166666667, "name": "a6e2b8898a46c373ce3fd99c6e7b683a", "bike_id": "a6e2b8898a46c373ce3fd99c6e7b683a", "fusion_lat": 0.0, "is_reserved": 0, "lat": 38.84423, "fusion_lon": 0.0, "is_disabled": 0}, {"rental_uris": {"android": "https://dc.lft.to/lastmile_qr_scan", "ios": "https://dc.lft.to/lastmile_qr_scan"}, "type": "electric_scooter", "lon": -77.03290333333334, "name": "fc0391bef58c6189d2ddb9cf0b913dcf", "bike_id": "fc0391bef58c6189d2ddb9cf0b913dcf", "fusion_lat": 0.0, "is_reserved": 0, "lat": 38.956498833333335, "fusion_lon": 0.0, "is_disabled": 0}, {"rental_uris": {"android": "https://dc.lft.to/lastmile_qr_scan", "ios": "https://dc.lft.to/lastmile_qr_scan"}, "type": "electric_scooter", "lon": -76.94767633333333, "name": "b8a5209b3b72bee61e8ef3b3fbc8e6ac", "bike_id": "b8a5209b3b72bee61e8ef3b3fbc8e6ac", "fusion_lat": 0.0, "is_reserved": 0, "lat": 38.89625133333333, "fusion_lon": 0.0, "is_disabled": 0}, {"rental_uris": {"android": "https://dc.lft.to/lastmile_qr_scan", "ios": "https://dc.lft.to/lastmile_qr_scan"}, "type": "electric_bike", "lon": -77.03623083333333, "name": "0514b4f3e875a0d85c7d725b7fe0953a", "bike_id": "0514b4f3e875a0d85c7d725b7fe0953a", "fusion_lat": 0.0, "is_reserved": 0, "lat": 38.972964833333336, "fusion_lon": 0.0, "is_disabled": 0}, {"rental_uris": {"android": "https://dc.lft.to/lastmile_qr_scan", "ios": "https://dc.lft.to/lastmile_qr_scan"}, "type": "electric_bike", "lon": -77.0137745, "name": "a5cf4b3487274f70af8451eb44c4e5ec", "bike_id": "a5cf4b3487274f70af8451eb44c4e5ec", "fusion_lat": 0.0, "is_reserved": 0, "lat": 38.892269, "fusion_lon": 0.0, "is_disabled": 0}, {"rental_uris": {"android": "https://dc.lft.to/lastmile_qr_scan", "ios": "https://dc.lft.to/lastmile_qr_scan"}, "type": "electric_scooter", "lon": -77.04407966666666, "name": "f627df2bb30a081b8742226b8d87683a", "bike_id": "f627df2bb30a081b8742226b8d87683a", "fusion_lat": 0.0, "is_reserved": 0, "lat": 38.90918833333333, "fusion_lon": 0.0, "is_disabled": 0}, {"rental_uris": {"android": "https://dc.lft.to/lastmile_qr_scan", "ios": "https://dc.lft.to/lastmile_qr_scan"}, "type": "electric_scooter", "lon": -77.006075, "name": "f17a25fbc5900b9314e46b6f219a9dfc", "bike_id": "f17a25fbc5900b9314e46b6f219a9dfc", "fusion_lat": 0.0, "is_reserved": 0, "lat": 38.906391, "fusion_lon": 0.0, "is_disabled": 0}, {"rental_uris": {"android": "https://dc.lft.to/lastmile_qr_scan", "ios": "https://dc.lft.to/lastmile_qr_scan"}, "type": "electric_bike", "lon": -77.00368616666667, "name": "81bfae46debb7431ed778c6adbe1b4dd", "bike_id": "81bfae46debb7431ed778c6adbe1b4dd", "fusion_lat": 0.0, "is_reserved": 0, "lat": 38.836092, "fusion_lon": 0.0, "is_disabled": 0}, {"rental_uris": {"android": "https://dc.lft.to/lastmile_qr_scan", "ios": "https://dc.lft.to/lastmile_qr_scan"}, "type": "electric_scooter", "lon": -77.02121333333334, "name": "679c8b42a1842b830caaaa69634d67e4", "bike_id": "679c8b42a1842b830caaaa69634d67e4", "fusion_lat": 0.0, "is_reserved": 0, "lat": 38.9029935, "fusion_lon": 0.0, "is_disabled": 0}, {"rental_uris": {"android": "https://dc.lft.to/lastmile_qr_scan", "ios": "https://dc.lft.to/lastmile_qr_scan"}, "type": "electric_scooter", "lon": -76.949434, "name": "14c0f541e594c31e1fbd3b3c3cfc29d8", "bike_id": "14c0f541e594c31e1fbd3b3c3cfc29d8", "fusion_lat": 0.0, "is_reserved": 0, "lat": 38.883177333333336, "fusion_lon": 0.0, "is_disabled": 0}, {"rental_uris": {"android": "https://dc.lft.to/lastmile_qr_scan", "ios": "https://dc.lft.to/lastmile_qr_scan"}, "type": "electric_bike", "lon": -76.98328183333334, "name": "483546b94b6a42b5b2bf72915e440c74", "bike_id": "483546b94b6a42b5b2bf72915e440c74", "fusion_lat": 0.0, "is_reserved": 0, "lat": 38.96603783333333, "fusion_lon": 0.0, "is_disabled": 0}, {"rental_uris": {"android": "https://dc.lft.to/lastmile_qr_scan", "ios": "https://dc.lft.to/lastmile_qr_scan"}, "type": "electric_bike", "lon": -77.10125416666666, "name": "2d02980b93a63bbfa335f1b5379cbea0", "bike_id": "2d02980b93a63bbfa335f1b5379cbea0", "fusion_lat": 0.0, "is_reserved": 0, "lat": 38.85203283333333, "fusion_lon": 0.0, "is_disabled": 0}, {"rental_uris": {"android": "https://dc.lft.to/lastmile_qr_scan", "ios": "https://dc.lft.to/lastmile_qr_scan"}, "type": "electric_scooter", "lon": -77.02974883333333, "name": "9353d7f8ff1408fc4dc2bdd47dfd6e91", "bike_id": "9353d7f8ff1408fc4dc2bdd47dfd6e91", "fusion_lat": 0.0, "is_reserved": 0, "lat": 38.962269666666664, "fusion_lon": 0.0, "is_disabled": 0}, {"rental_uris": {"android": "https://dc.lft.to/lastmile_qr_scan", "ios": "https://dc.lft.to/lastmile_qr_scan"}, "type": "electric_scooter", "lon": -76.994924, "name": "b8a98029169b2851ff3df58fd4420f39", "bike_id": "b8a98029169b2851ff3df58fd4420f39", "fusion_lat": 0.0, "is_reserved": 0, "lat": 38.862183333333334, "fusion_lon": 0.0, "is_disabled": 0}, {"rental_uris": {"android": "https://dc.lft.to/lastmile_qr_scan", "ios": "https://dc.lft.to/lastmile_qr_scan"}, "type": "electric_scooter", "lon": -77.043886, "name": "e4bddabb3d174b0b73fa748cf83c1ebc", "bike_id": "e4bddabb3d174b0b73fa748cf83c1ebc", "fusion_lat": 0.0, "is_reserved": 0, "lat": 38.923528, "fusion_lon": 0.0, "is_disabled": 0}, {"rental_uris": {"android": "https://dc.lft.to/lastmile_qr_scan", "ios": "https://dc.lft.to/lastmile_qr_scan"}, "type": "electric_scooter", "lon": -77.0349155, "name": "ac3afe1d38c9e0cb81caf164a215ae27", "bike_id": "ac3afe1d38c9e0cb81caf164a215ae27", "fusion_lat": 0.0, "is_reserved": 0, "lat": 38.903664666666664, "fusion_lon": 0.0, "is_disabled": 0}, {"rental_uris": {"android": "https://dc.lft.to/lastmile_qr_scan", "ios": "https://dc.lft.to/lastmile_qr_scan"}, "type": "electric_scooter", "lon": -77.036233, "name": "9b8ceee0f903129cd55f43e683c32414", "bike_id": "9b8ceee0f903129cd55f43e683c32414", "fusion_lat": 0.0, "is_reserved": 0, "lat": 38.93674983333333, "fusion_lon": 0.0, "is_disabled": 0}, {"rental_uris": {"android": "https://dc.lft.to/lastmile_qr_scan", "ios": "https://dc.lft.to/lastmile_qr_scan"}, "type": "electric_scooter", "lon": -76.9861155, "name": "62ae65d28e037f1dad04aa67b374f330", "bike_id": "62ae65d28e037f1dad04aa67b374f330", "fusion_lat": 0.0, "is_reserved": 0, "lat": 38.90688733333333, "fusion_lon": 0.0, "is_disabled": 0}, {"rental_uris": {"android": "https://dc.lft.to/lastmile_qr_scan", "ios": "https://dc.lft.to/lastmile_qr_scan"}, "type": "electric_scooter", "lon": -77.04672866666667, "name": "d31cb1d1c8f5a6983cfa5577df7c83a9", "bike_id": "d31cb1d1c8f5a6983cfa5577df7c83a9", "fusion_lat": 0.0, "is_reserved": 0, "lat": 38.899063, "fusion_lon": 0.0, "is_disabled": 0}, {"rental_uris": {"android": "https://dc.lft.to/lastmile_qr_scan", "ios": "https://dc.lft.to/lastmile_qr_scan"}, "type": "electric_scooter", "lon": -77.01112383333333, "name": "3ace5865edd5395604c76b8e81ad4ef3", "bike_id": "3ace5865edd5395604c76b8e81ad4ef3", "fusion_lat": 0.0, "is_reserved": 0, "lat": 38.87079033333333, "fusion_lon": 0.0, "is_disabled": 0}, {"rental_uris": {"android": "https://dc.lft.to/lastmile_qr_scan", "ios": "https://dc.lft.to/lastmile_qr_scan"}, "type": "electric_scooter", "lon": -77.0387485, "name": "a808e8faba25e1d730887ba77ba0ebfd", "bike_id": "a808e8faba25e1d730887ba77ba0ebfd", "fusion_lat": 0.0, "is_reserved": 0, "lat": 38.93243616666667, "fusion_lon": 0.0, "is_disabled": 0}, {"rental_uris": {"android": "https://dc.lft.to/lastmile_qr_scan", "ios": "https://dc.lft.to/lastmile_qr_scan"}, "type": "electric_scooter", "lon": -77.01527066666667, "name": "9398ac1d0308b8960e12a88e3d3e5814", "bike_id": "9398ac1d0308b8960e12a88e3d3e5814", "fusion_lat": 0.0, "is_reserved": 0, "lat": 38.91351866666667, "fusion_lon": 0.0, "is_disabled": 0}, {"rental_uris": {"android": "https://dc.lft.to/lastmile_qr_scan", "ios": "https://dc.lft.to/lastmile_qr_scan"}, "type": "electric_scooter", "lon": -77.02386616666666, "name": "d46c972f936a5d1e8bdcfcc8f701bd0a", "bike_id": "d46c972f936a5d1e8bdcfcc8f701bd0a", "fusion_lat": 0.0, "is_reserved": 0, "lat": 38.90711866666667, "fusion_lon": 0.0, "is_disabled": 0}, {"rental_uris": {"android": "https://dc.lft.to/lastmile_qr_scan", "ios": "https://dc.lft.to/lastmile_qr_scan"}, "type": "electric_bike", "lon": -76.95678966666667, "name": "70f4b66b73106b6ea7121f2ea86f644d", "bike_id": "70f4b66b73106b6ea7121f2ea86f644d", "fusion_lat": 0.0, "is_reserved": 0, "lat": 38.9472965, "fusion_lon": 0.0, "is_disabled": 0}, {"rental_uris": {"android": "https://dc.lft.to/lastmile_qr_scan", "ios": "https://dc.lft.to/lastmile_qr_scan"}, "type": "electric_scooter", "lon": -77.0030435, "name": "17c5f5202ed32c309153791d75dd8cbf", "bike_id": "17c5f5202ed32c309153791d75dd8cbf", "fusion_lat": 0.0, "is_reserved": 0, "lat": 38.8922235, "fusion_lon": 0.0, "is_disabled": 0}, {"rental_uris": {"android": "https://dc.lft.to/lastmile_qr_scan", "ios": "https://dc.lft.to/lastmile_qr_scan"}, "type": "electric_scooter", "lon": -77.00595716666666, "name": "cf1da3d1d28194d256bfb6ad66f95ecd", "bike_id": "cf1da3d1d28194d256bfb6ad66f95ecd", "fusion_lat": 0.0, "is_reserved": 0, "lat": 38.905667666666666, "fusion_lon": 0.0, "is_disabled": 0}, {"rental_uris": {"android": "https://dc.lft.to/lastmile_qr_scan", "ios": "https://dc.lft.to/lastmile_qr_scan"}, "type": "electric_scooter", "lon": -76.95108466666667, "name": "2bbe6a3b8734a678480458d4575a7dcd", "bike_id": "2bbe6a3b8734a678480458d4575a7dcd", "fusion_lat": 0.0, "is_reserved": 0, "lat": 38.8878585, "fusion_lon": 0.0, "is_disabled": 0}, {"rental_uris": {"android": "https://dc.lft.to/lastmile_qr_scan", "ios": "https://dc.lft.to/lastmile_qr_scan"}, "type": "electric_scooter", "lon": -77.0187195, "name": "43db03ca62cac00cdda3224f5fa6bee2", "bike_id": "43db03ca62cac00cdda3224f5fa6bee2", "fusion_lat": 0.0, "is_reserved": 0, "lat": 38.899683333333336, "fusion_lon": 0.0, "is_disabled": 0}, {"rental_uris": {"android": "https://dc.lft.to/lastmile_qr_scan", "ios": "https://dc.lft.to/lastmile_qr_scan"}, "type": "electric_scooter", "lon": -77.032072, "name": "0ebfcfef92fbcec825d3edb5a06ce2f7", "bike_id": "0ebfcfef92fbcec825d3edb5a06ce2f7", "fusion_lat": 0.0, "is_reserved": 0, "lat": 38.904565166666664, "fusion_lon": 0.0, "is_disabled": 0}, {"rental_uris": {"android": "https://dc.lft.to/lastmile_qr_scan", "ios": "https://dc.lft.to/lastmile_qr_scan"}, "type": "electric_scooter", "lon": -77.01953766666666, "name": "3976398df43920eab00d9aa627ad2517", "bike_id": "3976398df43920eab00d9aa627ad2517", "fusion_lat": 0.0, "is_reserved": 0, "lat": 38.92256366666667, "fusion_lon": 0.0, "is_disabled": 0}, {"rental_uris": {"android": "https://dc.lft.to/lastmile_qr_scan", "ios": "https://dc.lft.to/lastmile_qr_scan"}, "type": "electric_scooter", "lon": -77.02975916666666, "name": "03f0be01d109e04be7e1b9e35ded3e5a", "bike_id": "03f0be01d109e04be7e1b9e35ded3e5a", "fusion_lat": 0.0, "is_reserved": 0, "lat": 38.90515416666667, "fusion_lon": 0.0, "is_disabled": 0}, {"rental_uris": {"android": "https://dc.lft.to/lastmile_qr_scan", "ios": "https://dc.lft.to/lastmile_qr_scan"}, "type": "electric_scooter", "lon": -77.03160616666666, "name": "30d830de97c144d52234eedc5a1b1753", "bike_id": "30d830de97c144d52234eedc5a1b1753", "fusion_lat": 0.0, "is_reserved": 0, "lat": 38.8997025, "fusion_lon": 0.0, "is_disabled": 0}, {"rental_uris": {"android": "https://dc.lft.to/lastmile_qr_scan", "ios": "https://dc.lft.to/lastmile_qr_scan"}, "type": "electric_scooter", "lon": -77.043454, "name": "cf376cc2e34a8c1a18d751b153f13e6e", "bike_id": "cf376cc2e34a8c1a18d751b153f13e6e", "fusion_lat": 0.0, "is_reserved": 0, "lat": 38.90507233333334, "fusion_lon": 0.0, "is_disabled": 0}, {"rental_uris": {"android": "https://dc.lft.to/lastmile_qr_scan", "ios": "https://dc.lft.to/lastmile_qr_scan"}, "type": "electric_scooter", "lon": -76.99460166666667, "name": "9c909baa9945102b65ef9f42f4bd0c98", "bike_id": "9c909baa9945102b65ef9f42f4bd0c98", "fusion_lat": 0.0, "is_reserved": 0, "lat": 38.851629333333335, "fusion_lon": 0.0, "is_disabled": 0}, {"rental_uris": {"android": "https://dc.lft.to/lastmile_qr_scan", "ios": "https://dc.lft.to/lastmile_qr_scan"}, "type": "electric_scooter", "lon": -77.00361733333334, "name": "b7a79f7fdbca08c6c6b3b4f5d3196a8d", "bike_id": "b7a79f7fdbca08c6c6b3b4f5d3196a8d", "fusion_lat": 0.0, "is_reserved": 0, "lat": 38.917624, "fusion_lon": 0.0, "is_disabled": 0}, {"rental_uris": {"android": "https://dc.lft.to/lastmile_qr_scan", "ios": "https://dc.lft.to/lastmile_qr_scan"}, "type": "electric_scooter", "lon": -76.93259633333334, "name": "5e99751301a13a33b77a99431d7af92d", "bike_id": "5e99751301a13a33b77a99431d7af92d", "fusion_lat": 0.0, "is_reserved": 0, "lat": 38.88767383333333, "fusion_lon": 0.0, "is_disabled": 0}, {"rental_uris": {"android": "https://dc.lft.to/lastmile_qr_scan", "ios": "https://dc.lft.to/lastmile_qr_scan"}, "type": "electric_scooter", "lon": -77.03262683333334, "name": "5890bb52e128b8b9b50e392d5a3e979b", "bike_id": "5890bb52e128b8b9b50e392d5a3e979b", "fusion_lat": 0.0, "is_reserved": 0, "lat": 38.928456, "fusion_lon": 0.0, "is_disabled": 0}, {"rental_uris": {"android": "https://dc.lft.to/lastmile_qr_scan", "ios": "https://dc.lft.to/lastmile_qr_scan"}, "type": "electric_bike", "lon": -76.981653, "name": "5b0c2ade7bbd6e0d098a24940589c11f", "bike_id": "5b0c2ade7bbd6e0d098a24940589c11f", "fusion_lat": 0.0, "is_reserved": 0, "lat": 38.95964416666666, "fusion_lon": 0.0, "is_disabled": 0}, {"rental_uris": {"android": "https://dc.lft.to/lastmile_qr_scan", "ios": "https://dc.lft.to/lastmile_qr_scan"}, "type": "electric_bike", "lon": -77.08050233333333, "name": "9b654f921407e397de7f3af1435c60d2", "bike_id": "9b654f921407e397de7f3af1435c60d2", "fusion_lat": 0.0, "is_reserved": 0, "lat": 38.8484415, "fusion_lon": 0.0, "is_disabled": 0}, {"rental_uris": {"android": "https://dc.lft.to/lastmile_qr_scan", "ios": "https://dc.lft.to/lastmile_qr_scan"}, "type": "electric_scooter", "lon": -76.9472615, "name": "108c24847edca589cb067090b3a52006", "bike_id": "108c24847edca589cb067090b3a52006", "fusion_lat": 0.0, "is_reserved": 0, "lat": 38.896792166666664, "fusion_lon": 0.0, "is_disabled": 0}, {"rental_uris": {"android": "https://dc.lft.to/lastmile_qr_scan", "ios": "https://dc.lft.to/lastmile_qr_scan"}, "type": "electric_scooter", "lon": -76.98041583333334, "name": "71ccf915ebac290f5810cd4ec680bedf", "bike_id": "71ccf915ebac290f5810cd4ec680bedf", "fusion_lat": 0.0, "is_reserved": 0, "lat": 38.91674783333333, "fusion_lon": 0.0, "is_disabled": 0}, {"rental_uris": {"android": "https://dc.lft.to/lastmile_qr_scan", "ios": "https://dc.lft.to/lastmile_qr_scan"}, "type": "electric_scooter", "lon": -77.019839, "name": "a0551932791001c4b56153b57bec531a", "bike_id": "a0551932791001c4b56153b57bec531a", "fusion_lat": 0.0, "is_reserved": 0, "lat": 38.898352, "fusion_lon": 0.0, "is_disabled": 0}, {"rental_uris": {"android": "https://dc.lft.to/lastmile_qr_scan", "ios": "https://dc.lft.to/lastmile_qr_scan"}, "type": "electric_scooter", "lon": -77.03361183333334, "name": "416cc37ca73de51d844d71b77a914105", "bike_id": "416cc37ca73de51d844d71b77a914105", "fusion_lat": 0.0, "is_reserved": 0, "lat": 38.91185016666667, "fusion_lon": 0.0, "is_disabled": 0}, {"rental_uris": {"android": "https://dc.lft.to/lastmile_qr_scan", "ios": "https://dc.lft.to/lastmile_qr_scan"}, "type": "electric_scooter", "lon": -77.04361616666667, "name": "09d293268a7cc5638601faa5f4f11ee0", "bike_id": "09d293268a7cc5638601faa5f4f11ee0", "fusion_lat": 0.0, "is_reserved": 0, "lat": 38.89232366666667, "fusion_lon": 0.0, "is_disabled": 0}, {"rental_uris": {"android": "https://dc.lft.to/lastmile_qr_scan", "ios": "https://dc.lft.to/lastmile_qr_scan"}, "type": "electric_scooter", "lon": -77.0543345, "name": "42a166520f4c7aa6a07d2c650e4af5c8", "bike_id": "42a166520f4c7aa6a07d2c650e4af5c8", "fusion_lat": 0.0, "is_reserved": 0, "lat": 38.89601016666667, "fusion_lon": 0.0, "is_disabled": 0}, {"rental_uris": {"android": "https://dc.lft.to/lastmile_qr_scan", "ios": "https://dc.lft.to/lastmile_qr_scan"}, "type": "electric_scooter", "lon": -76.99951783333333, "name": "0b9de9b63f49e6ad9d87d39205bd9250", "bike_id": "0b9de9b63f49e6ad9d87d39205bd9250", "fusion_lat": 0.0, "is_reserved": 0, "lat": 38.84291566666667, "fusion_lon": 0.0, "is_disabled": 0}, {"rental_uris": {"android": "https://dc.lft.to/lastmile_qr_scan", "ios": "https://dc.lft.to/lastmile_qr_scan"}, "type": "electric_scooter", "lon": -77.00565666666667, "name": "abaef7518c9802597bba17a6c514d565", "bike_id": "abaef7518c9802597bba17a6c514d565", "fusion_lat": 0.0, "is_reserved": 0, "lat": 38.8850305, "fusion_lon": 0.0, "is_disabled": 0}, {"rental_uris": {"android": "https://dc.lft.to/lastmile_qr_scan", "ios": "https://dc.lft.to/lastmile_qr_scan"}, "type": "electric_scooter", "lon": -77.02303983333333, "name": "240fc0175a8a89c2de10995c39e2f194", "bike_id": "240fc0175a8a89c2de10995c39e2f194", "fusion_lat": 0.0, "is_reserved": 0, "lat": 38.917357, "fusion_lon": 0.0, "is_disabled": 0}, {"rental_uris": {"android": "https://dc.lft.to/lastmile_qr_scan", "ios": "https://dc.lft.to/lastmile_qr_scan"}, "type": "electric_bike", "lon": -77.024917, "name": "ec8f32cf211ab76e1315ccac6f96dd0c", "bike_id": "ec8f32cf211ab76e1315ccac6f96dd0c", "fusion_lat": 0.0, "is_reserved": 0, "lat": 38.97404433333333, "fusion_lon": 0.0, "is_disabled": 0}, {"rental_uris": {"android": "https://dc.lft.to/lastmile_qr_scan", "ios": "https://dc.lft.to/lastmile_qr_scan"}, "type": "electric_scooter", "lon": -77.0302435, "name": "9747f420546924bd1bf036577295b0fe", "bike_id": "9747f420546924bd1bf036577295b0fe", "fusion_lat": 0.0, "is_reserved": 0, "lat": 38.92683066666667, "fusion_lon": 0.0, "is_disabled": 0}, {"rental_uris": {"android": "https://dc.lft.to/lastmile_qr_scan", "ios": "https://dc.lft.to/lastmile_qr_scan"},