{"data": {"bikes": [{"fusion_lat": 0.0, "name": "eaaa546ab702c861667deecf09a99d8f", "is_disabled": 0, "rental_uris": {"android": "https://dc.lft.to/lastmile_qr_scan", "ios": "https://dc.lft.to/lastmile_qr_scan"}, "fusion_lon": 0.0, "lat": 38.90520183333334, "bike_id": "eaaa546ab702c861667deecf09a99d8f", "type": "electric_scooter", "is_reserved": 0, "lon": -77.05968333333334}, {"fusion_lat": 0.0, "name": "1e8c59fffd58849bdfbf4f350deb1e20", "is_disabled": 0, "rental_uris": {"android": "https://dc.lft.to/lastmile_qr_scan", "ios": "https://dc.lft.to/lastmile_qr_scan"}, "fusion_lon": 0.0, "lat": 38.914241833333335, "bike_id": "1e8c59fffd58849bdfbf4f350deb1e20", "type": "electric_scooter", "is_reserved": 0, "lon": -77.03207716666667}, {"fusion_lat": 0.0, "name": "26df4a0f6dca106df7f125d43977e581", "is_disabled": 0, "rental_uris": {"android": "https://dc.lft.to/lastmile_qr_scan", "ios": "https://dc.lft.to/lastmile_qr_scan"}, "fusion_lon": 0.0, "lat": 38.95744716666667, "bike_id": "26df4a0f6dca106df7f125d43977e581", "type": "electric_bike", "is_reserved": 0, "lon": -77.021645}, {"fusion_lat": 0.0, "name": "9e0cc8001165e56426f673f182ff86bc", "is_disabled": 0, "rental_uris": {"android": "https://dc.lft.to/lastmile_qr_scan", "ios": "https://dc.lft.to/lastmile_qr_scan"}, "fusion_lon": 0.0, "lat": 38.895336, "bike_id": "9e0cc8001165e56426f673f182ff86bc", "type": "electric_scooter", "is_reserved": 0, "lon": -77.04227333333333}, {"fusion_lat": 0.0, "name": "426d43d2c9fa70c32a3b60f0cf1346c3", "is_disabled": 0, "rental_uris": {"android": "https://dc.lft.to/lastmile_qr_scan", "ios": "https://dc.lft.to/lastmile_qr_scan"}, "fusion_lon": 0.0, "lat": 38.911733166666664, "bike_id": "426d43d2c9fa70c32a3b60f0cf1346c3", "type": "electric_bike", "is_reserved": 0, "lon": -77.00276916666667}, {"fusion_lat": 0.0, "name": "777c9f2fb0672e8e7bbe0031e4c2974f", "is_disabled": 0, "rental_uris": {"android": "https://dc.lft.to/lastmile_qr_scan", "ios": "https://dc.lft.to/lastmile_qr_scan"}, "fusion_lon": 0.0, "lat": 38.843515, "bike_id": "777c9f2fb0672e8e7bbe0031e4c2974f", "type": "electric_bike", "is_reserved": 0, "lon": -76.978329}, {"fusion_lat": 0.0, "name": "218dd2cf9f2182840e41f3fa010277f4", "is_disabled": 0, "rental_uris": {"android": "https://dc.lft.to/lastmile_qr_scan", "ios": "https://dc.lft.to/lastmile_qr_scan"}, "fusion_lon": 0.0, "lat": 38.897360666666664, "bike_id": "218dd2cf9f2182840e41f3fa010277f4", "type": "electric_scooter", "is_reserved": 0, "lon": -77.0075025}, {"fusion_lat": 0.0, "name": "967746a7d355a937d71ba55c292d98d9", "is_disabled": 0, "rental_uris": {"android": "https://dc.lft.to/lastmile_qr_scan", "ios": "https://dc.lft.to/lastmile_qr_scan"}, "fusion_lon": 0.0, "lat": 38.88367783333333, "bike_id": "967746a7d355a937d71ba55c292d98d9", "type": "electric_scooter", "is_reserved": 0, "lon": -76.941501}, {"fusion_lat": 0.0, "name": "ddeb0333c10b52cfca961ff653b39414", "is_disabled": 0, "rental_uris": {"android": "https://dc.lft.to/lastmile_qr_scan", "ios": "https://dc.lft.to/lastmile_qr_scan"}, "fusion_lon": 0.0, "lat": 38.94501833333333, "bike_id": "ddeb0333c10b52cfca961ff653b39414", "type": "electric_scooter", "is_reserved": 0, "lon": -77.03149633333334}, {"fusion_lat": 0.0, "name": "cd9ce4d85c6db2fa1211bcb7eebbb919", "is_disabled": 0, "rental_uris": {"android": "https://dc.lft.to/lastmile_qr_scan", "ios": "https://dc.lft.to/lastmile_qr_scan"}, "fusion_lon": 0.0, "lat": 38.8952535, "bike_id": "cd9ce4d85c6db2fa1211bcb7eebbb919", "type": "electric_scooter", "is_reserved": 0, "lon": -77.0298895}, {"fusion_lat": 0.0, "name": "63508ecaa5ee038809a2377200d938df", "is_disabled": 0, "rental_uris": {"android": "https://dc.lft.to/lastmile_qr_scan", "ios": "https://dc.lft.to/lastmile_qr_scan"}, "fusion_lon": 0.0, "lat": 38.902488166666664, "bike_id": "63508ecaa5ee038809a2377200d938df", "type": "electric_scooter", "is_reserved": 0, "lon": -76.9866165}, {"fusion_lat": 0.0, "name": "a222a201e174c801ff3f41ccaa924a37", "is_disabled": 0, "rental_uris": {"android": "https://dc.lft.to/lastmile_qr_scan", "ios": "https://dc.lft.to/lastmile_qr_scan"}, "fusion_lon": 0.0, "lat": 38.916524, "bike_id": "a222a201e174c801ff3f41ccaa924a37", "type": "electric_scooter", "is_reserved": 0, "lon": -77.031573}, {"fusion_lat": 0.0, "name": "d18eff1fbafe87bf776ed3356d67062c", "is_disabled": 0, "rental_uris": {"android": "https://dc.lft.to/lastmile_qr_scan", "ios": "https://dc.lft.to/lastmile_qr_scan"}, "fusion_lon": 0.0, "lat": 38.9241315, "bike_id": "d18eff1fbafe87bf776ed3356d67062c", "type": "electric_scooter", "is_reserved": 0, "lon": -77.02106233333333}, {"fusion_lat": 0.0, "name": "99867d9309899a19dc2e3aa6b132e4ed", "is_disabled": 0, "rental_uris": {"android": "https://dc.lft.to/lastmile_qr_scan", "ios": "https://dc.lft.to/lastmile_qr_scan"}, "fusion_lon": 0.0, "lat": 38.923519666666664, "bike_id": "99867d9309899a19dc2e3aa6b132e4ed", "type": "electric_scooter", "is_reserved": 0, "lon": -77.03396933333333}, {"fusion_lat": 0.0, "name": "9ec3c707bbec89be431b8fb75ebd823a", "is_disabled": 0, "rental_uris": {"android": "https://dc.lft.to/lastmile_qr_scan", "ios": "https://dc.lft.to/lastmile_qr_scan"}, "fusion_lon": 0.0, "lat": 38.9053185, "bike_id": "9ec3c707bbec89be431b8fb75ebd823a", "type": "electric_scooter", "is_reserved": 0, "lon": -77.06140216666667}, {"fusion_lat": 0.0, "name": "0d9e86ca3464cd642259068686528e0c", "is_disabled": 0, "rental_uris": {"android": "https://dc.lft.to/lastmile_qr_scan", "ios": "https://dc.lft.to/lastmile_qr_scan"}, "fusion_lon": 0.0, "lat": 38.91403716666667, "bike_id": "0d9e86ca3464cd642259068686528e0c", "type": "electric_scooter", "is_reserved": 0, "lon": -77.03175283333333}, {"fusion_lat": 0.0, "name": "6da034aad228c9641ae711f6f29e1b1d", "is_disabled": 0, "rental_uris": {"android": "https://dc.lft.to/lastmile_qr_scan", "ios": "https://dc.lft.to/lastmile_qr_scan"}, "fusion_lon": 0.0, "lat": 38.9978315, "bike_id": "6da034aad228c9641ae711f6f29e1b1d", "type": "electric_bike", "is_reserved": 0, "lon": -77.04713816666667}, {"fusion_lat": 0.0, "name": "c6ea0115f0eea7f3b936b3a496f738f2", "is_disabled": 0, "rental_uris": {"android": "https://dc.lft.to/lastmile_qr_scan", "ios": "https://dc.lft.to/lastmile_qr_scan"}, "fusion_lon": 0.0, "lat": 38.904078, "bike_id": "c6ea0115f0eea7f3b936b3a496f738f2", "type": "electric_scooter", "is_reserved": 0, "lon": -76.97334166666667}, {"fusion_lat": 0.0, "name": "687e90dff9c1ecf860c9c3318b7c8d15", "is_disabled": 0, "rental_uris": {"android": "https://dc.lft.to/lastmile_qr_scan", "ios": "https://dc.lft.to/lastmile_qr_scan"}, "fusion_lon": 0.0, "lat": 38.898826, "bike_id": "687e90dff9c1ecf860c9c3318b7c8d15", "type": "electric_scooter", "is_reserved": 0, "lon": -77.03998933333334}, {"fusion_lat": 0.0, "name": "86c635cfd1499acee3ce0ae3c1698f60", "is_disabled": 0, "rental_uris": {"android": "https://dc.lft.to/lastmile_qr_scan", "ios": "https://dc.lft.to/lastmile_qr_scan"}, "fusion_lon": 0.0, "lat": 38.94125833333333, "bike_id": "86c635cfd1499acee3ce0ae3c1698f60", "type": "electric_scooter", "is_reserved": 0, "lon": -77.02646733333333}, {"fusion_lat": 0.0, "name": "79fc76c0f6d8bdde909d7a34c75dd892", "is_disabled": 0, "rental_uris": {"android": "https://dc.lft.to/lastmile_qr_scan", "ios": "https://dc.lft.to/lastmile_qr_scan"}, "fusion_lon": 0.0, "lat": 38.89616, "bike_id": "79fc76c0f6d8bdde909d7a34c75dd892", "type": "electric_scooter", "is_reserved": 0, "lon": -76.99413116666666}, {"fusion_lat": 0.0, "name": "c0ad953aa712dbf0293bc15f0a7ab9d4", "is_disabled": 0, "rental_uris": {"android": "https://dc.lft.to/lastmile_qr_scan", "ios": "https://dc.lft.to/lastmile_qr_scan"}, "fusion_lon": 0.0, "lat": 38.9002245, "bike_id": "c0ad953aa712dbf0293bc15f0a7ab9d4", "type": "electric_scooter", "is_reserved": 0, "lon": -77.01119683333333}, {"fusion_lat": 0.0, "name": "b89c1f2ce266021c8c7a640262486c0a", "is_disabled": 0, "rental_uris": {"android": "https://dc.lft.to/lastmile_qr_scan", "ios": "https://dc.lft.to/lastmile_qr_scan"}, "fusion_lon": 0.0, "lat": 38.90540683333333, "bike_id": "b89c1f2ce266021c8c7a640262486c0a", "type": "electric_scooter", "is_reserved": 0, "lon": -77.05905433333334}, {"fusion_lat": 0.0, "name": "e4ddf62f9c1d477ea945b58bf8825fbe", "is_disabled": 0, "rental_uris": {"android": "https://dc.lft.to/lastmile_qr_scan", "ios": "https://dc.lft.to/lastmile_qr_scan"}, "fusion_lon": 0.0, "lat": 38.924755, "bike_id": "e4ddf62f9c1d477ea945b58bf8825fbe", "type": "electric_scooter", "is_reserved": 0, "lon": -77.02679716666667}, {"fusion_lat": 0.0, "name": "ae0c297de5f4b55d845b329491b00f45", "is_disabled": 0, "rental_uris": {"android": "https://dc.lft.to/lastmile_qr_scan", "ios": "https://dc.lft.to/lastmile_qr_scan"}, "fusion_lon": 0.0, "lat": 38.898283166666666, "bike_id": "ae0c297de5f4b55d845b329491b00f45", "type": "electric_scooter", "is_reserved": 0, "lon": -77.04062833333333}, {"fusion_lat": 0.0, "name": "f4da5e4c292951b27422cb4c8789d2e3", "is_disabled": 0, "rental_uris": {"android": "https://dc.lft.to/lastmile_qr_scan", "ios": "https://dc.lft.to/lastmile_qr_scan"}, "fusion_lon": 0.0, "lat": 38.902369, "bike_id": "f4da5e4c292951b27422cb4c8789d2e3", "type": "electric_scooter", "is_reserved": 0, "lon": -77.05632883333334}, {"fusion_lat": 0.0, "name": "ab0145fb58b542492527001ff176508d", "is_disabled": 0, "rental_uris": {"android": "https://dc.lft.to/lastmile_qr_scan", "ios": "https://dc.lft.to/lastmile_qr_scan"}, "fusion_lon": 0.0, "lat": 38.90721216666667, "bike_id": "ab0145fb58b542492527001ff176508d", "type": "electric_scooter", "is_reserved": 0, "lon": -77.047331}, {"fusion_lat": 0.0, "name": "dbab85f3a5e62ec0b4940aec45e64c7c", "is_disabled": 0, "rental_uris": {"android": "https://dc.lft.to/lastmile_qr_scan", "ios": "https://dc.lft.to/lastmile_qr_scan"}, "fusion_lon": 0.0, "lat": 38.879006833333335, "bike_id": "dbab85f3a5e62ec0b4940aec45e64c7c", "type": "electric_scooter", "is_reserved": 0, "lon": -77.013617}, {"fusion_lat": 0.0, "name": "bcad8971a3473fbd8e69b3db8e0c35cf", "is_disabled": 0, "rental_uris": {"android": "https://dc.lft.to/lastmile_qr_scan", "ios": "https://dc.lft.to/lastmile_qr_scan"}, "fusion_lon": 0.0, "lat": 38.930225166666666, "bike_id": "bcad8971a3473fbd8e69b3db8e0c35cf", "type": "electric_scooter", "is_reserved": 0, "lon": -77.03785416666666}, {"fusion_lat": 0.0, "name": "78b32eacb6d298816cfbf30729dd849e", "is_disabled": 0, "rental_uris": {"android": "https://dc.lft.to/lastmile_qr_scan", "ios": "https://dc.lft.to/lastmile_qr_scan"}, "fusion_lon": 0.0, "lat": 38.924338166666665, "bike_id": "78b32eacb6d298816cfbf30729dd849e", "type": "electric_scooter", "is_reserved": 0, "lon": -77.02538083333333}, {"fusion_lat": 0.0, "name": "4069661dfeeeb30b2fd5fc2696790c48", "is_disabled": 0, "rental_uris": {"android": "https://dc.lft.to/lastmile_qr_scan", "ios": "https://dc.lft.to/lastmile_qr_scan"}, "fusion_lon": 0.0, "lat": 38.90154733333333, "bike_id": "4069661dfeeeb30b2fd5fc2696790c48", "type": "electric_scooter", "is_reserved": 0, "lon": -77.06110783333334}, {"fusion_lat": 0.0, "name": "a30d362e186474e8e0804adad1ad9f98", "is_disabled": 0, "rental_uris": {"android": "https://dc.lft.to/lastmile_qr_scan", "ios": "https://dc.lft.to/lastmile_qr_scan"}, "fusion_lon": 0.0, "lat": 38.895321333333335, "bike_id": "a30d362e186474e8e0804adad1ad9f98", "type": "electric_scooter", "is_reserved": 0, "lon": -76.93413566666666}, {"fusion_lat": 0.0, "name": "f19cbedd15c746d3331801693815bb08", "is_disabled": 0, "rental_uris": {"android": "https://dc.lft.to/lastmile_qr_scan", "ios": "https://dc.lft.to/lastmile_qr_scan"}, "fusion_lon": 0.0, "lat": 38.92809033333333, "bike_id": "f19cbedd15c746d3331801693815bb08", "type": "electric_scooter", "is_reserved": 0, "lon": -77.04363383333333}, {"fusion_lat": 0.0, "name": "f473b44beba331c2cc3e416e024b6e47", "is_disabled": 0, "rental_uris": {"android": "https://dc.lft.to/lastmile_qr_scan", "ios": "https://dc.lft.to/lastmile_qr_scan"}, "fusion_lon": 0.0, "lat": 38.90725583333333, "bike_id": "f473b44beba331c2cc3e416e024b6e47", "type": "electric_scooter", "is_reserved": 0, "lon": -77.00064816666666}, {"fusion_lat": 0.0, "name": "7cdd4a1fb443386ee2db69e261441cf5", "is_disabled": 0, "rental_uris": {"android": "https://dc.lft.to/lastmile_qr_scan", "ios": "https://dc.lft.to/lastmile_qr_scan"}, "fusion_lon": 0.0, "lat": 38.90510666666667, "bike_id": "7cdd4a1fb443386ee2db69e261441cf5", "type": "electric_scooter", "is_reserved": 0, "lon": -77.0481765}, {"fusion_lat": 0.0, "name": "5f9301843bc9dbf92ec86c2f710e2635", "is_disabled": 0, "rental_uris": {"android": "https://dc.lft.to/lastmile_qr_scan", "ios": "https://dc.lft.to/lastmile_qr_scan"}, "fusion_lon": 0.0, "lat": 38.879001, "bike_id": "5f9301843bc9dbf92ec86c2f710e2635", "type": "electric_scooter", "is_reserved": 0, "lon": -77.00709366666666}, {"fusion_lat": 0.0, "name": "0f3febfc6e681e2c1502aeb42d448822", "is_disabled": 0, "rental_uris": {"android": "https://dc.lft.to/lastmile_qr_scan", "ios": "https://dc.lft.to/lastmile_qr_scan"}, "fusion_lon": 0.0, "lat": 38.921035, "bike_id": "0f3febfc6e681e2c1502aeb42d448822", "type": "electric_scooter", "is_reserved": 0, "lon": -77.07473083333333}, {"fusion_lat": 0.0, "name": "9769bf84cbb78d75387cf69fb5b88c25", "is_disabled": 0, "rental_uris": {"android": "https://dc.lft.to/lastmile_qr_scan", "ios": "https://dc.lft.to/lastmile_qr_scan"}, "fusion_lon": 0.0, "lat": 38.89221333333333, "bike_id": "9769bf84cbb78d75387cf69fb5b88c25", "type": "electric_scooter", "is_reserved": 0, "lon": -77.04686616666666}, {"fusion_lat": 0.0, "name": "7ae2d72aec2e559e6c92714f35b46f35", "is_disabled": 0, "rental_uris": {"android": "https://dc.lft.to/lastmile_qr_scan", "ios": "https://dc.lft.to/lastmile_qr_scan"}, "fusion_lon": 0.0, "lat": 38.89879033333333, "bike_id": "7ae2d72aec2e559e6c92714f35b46f35", "type": "electric_scooter", "is_reserved": 0, "lon": -77.02027}, {"fusion_lat": 0.0, "name": "5e146fada96116fe7f64b49e2e8f4b24", "is_disabled": 0, "rental_uris": {"android": "https://dc.lft.to/lastmile_qr_scan", "ios": "https://dc.lft.to/lastmile_qr_scan"}, "fusion_lon": 0.0, "lat": 38.9271445, "bike_id": "5e146fada96116fe7f64b49e2e8f4b24", "type": "electric_scooter", "is_reserved": 0, "lon": -77.05362483333333}, {"fusion_lat": 0.0, "name": "ca726b0498fb408ff5400a10fcf2e769", "is_disabled": 0, "rental_uris": {"android": "https://dc.lft.to/lastmile_qr_scan", "ios": "https://dc.lft.to/lastmile_qr_scan"}, "fusion_lon": 0.0, "lat": 38.900333, "bike_id": "ca726b0498fb408ff5400a10fcf2e769", "type": "electric_scooter", "is_reserved": 0, "lon": -77.00386716666667}, {"fusion_lat": 0.0, "name": "ed39a17439f2cf62d5a7fc2cb3191df0", "is_disabled": 0, "rental_uris": {"android": "https://dc.lft.to/lastmile_qr_scan", "ios": "https://dc.lft.to/lastmile_qr_scan"}, "fusion_lon": 0.0, "lat": 38.90769316666667, "bike_id": "ed39a17439f2cf62d5a7fc2cb3191df0", "type": "electric_scooter", "is_reserved": 0, "lon": -77.0425685}, {"fusion_lat": 0.0, "name": "4e7bddfae79d86cdb7c9b8fe15283b07", "is_disabled": 0, "rental_uris": {"android": "https://dc.lft.to/lastmile_qr_scan", "ios": "https://dc.lft.to/lastmile_qr_scan"}, "fusion_lon": 0.0, "lat": 38.915758, "bike_id": "4e7bddfae79d86cdb7c9b8fe15283b07", "type": "electric_scooter", "is_reserved": 0, "lon": -77.03849466666667}, {"fusion_lat": 0.0, "name": "a11861b61e17bbef81e1980fb9f9f24c", "is_disabled": 0, "rental_uris": {"android": "https://dc.lft.to/lastmile_qr_scan", "ios": "https://dc.lft.to/lastmile_qr_scan"}, "fusion_lon": 0.0, "lat": 38.90626266666666, "bike_id": "a11861b61e17bbef81e1980fb9f9f24c", "type": "electric_scooter", "is_reserved": 0, "lon": -77.03707416666667}, {"fusion_lat": 0.0, "name": "cd353e5df8aa40725101a44d9857e80e", "is_disabled": 0, "rental_uris": {"android": "https://dc.lft.to/lastmile_qr_scan", "ios": "https://dc.lft.to/lastmile_qr_scan"}, "fusion_lon": 0.0, "lat": 38.92552, "bike_id": "cd353e5df8aa40725101a44d9857e80e", "type": "electric_scooter", "is_reserved": 0, "lon": -77.03832683333333}, {"fusion_lat": 0.0, "name": "28a2b7c1aa9659d4684fd3d21b82b0a3", "is_disabled": 0, "rental_uris": {"android": "https://dc.lft.to/lastmile_qr_scan", "ios": "https://dc.lft.to/lastmile_qr_scan"}, "fusion_lon": 0.0, "lat": 38.9387965, "bike_id": "28a2b7c1aa9659d4684fd3d21b82b0a3", "type": "electric_scooter", "is_reserved": 0, "lon": -77.02469783333333}, {"fusion_lat": 0.0, "name": "0379a7da534ba915e3ddf46ca5dcc06a", "is_disabled": 0, "rental_uris": {"android": "https://dc.lft.to/lastmile_qr_scan", "ios": "https://dc.lft.to/lastmile_qr_scan"}, "fusion_lon": 0.0, "lat": 38.89879216666667, "bike_id": "0379a7da534ba915e3ddf46ca5dcc06a", "type": "electric_scooter", "is_reserved": 0, "lon": -77.01508233333334}, {"fusion_lat": 0.0, "name": "ab47c18b8cd9d8b43c39d1212898f4a6", "is_disabled": 0, "rental_uris": {"android": "https://dc.lft.to/lastmile_qr_scan", "ios": "https://dc.lft.to/lastmile_qr_scan"}, "fusion_lon": 0.0, "lat": 38.89219583333333, "bike_id": "ab47c18b8cd9d8b43c39d1212898f4a6", "type": "electric_scooter", "is_reserved": 0, "lon": -77.03146733333334}, {"fusion_lat": 0.0, "name": "cc7029a771065f40cf663b5e23fcf9df", "is_disabled": 0, "rental_uris": {"android": "https://dc.lft.to/lastmile_qr_scan", "ios": "https://dc.lft.to/lastmile_qr_scan"}, "fusion_lon": 0.0, "lat": 38.9009625, "bike_id": "cc7029a771065f40cf663b5e23fcf9df", "type": "electric_scooter", "is_reserved": 0, "lon": -76.98330916666667}, {"fusion_lat": 0.0, "name": "d47d223e1fa6e1597898db1d9d3c07e5", "is_disabled": 0, "rental_uris": {"android": "https://dc.lft.to/lastmile_qr_scan", "ios": "https://dc.lft.to/lastmile_qr_scan"}, "fusion_lon": 0.0, "lat": 38.9104275, "bike_id": "d47d223e1fa6e1597898db1d9d3c07e5", "type": "electric_scooter", "is_reserved": 0, "lon": -77.00831083333334}, {"fusion_lat": 0.0, "name": "aa92ed28a658e6dbd7d77950da3d2e1c", "is_disabled": 0, "rental_uris": {"android": "https://dc.lft.to/lastmile_qr_scan", "ios": "https://dc.lft.to/lastmile_qr_scan"}, "fusion_lon": 0.0, "lat": 38.9222325, "bike_id": "aa92ed28a658e6dbd7d77950da3d2e1c", "type": "electric_scooter", "is_reserved": 0, "lon": -77.04237716666667}, {"fusion_lat": 0.0, "name": "88af0df03f875e4c47e753ade1273647", "is_disabled": 0, "rental_uris": {"android": "https://dc.lft.to/lastmile_qr_scan", "ios": "https://dc.lft.to/lastmile_qr_scan"}, "fusion_lon": 0.0, "lat": 38.93769783333333, "bike_id": "88af0df03f875e4c47e753ade1273647", "type": "electric_scooter", "is_reserved": 0, "lon": -77.03258216666667}, {"fusion_lat": 0.0, "name": "f31d5eb0be45639c1e4697c187fa53c7", "is_disabled": 0, "rental_uris": {"android": "https://dc.lft.to/lastmile_qr_scan", "ios": "https://dc.lft.to/lastmile_qr_scan"}, "fusion_lon": 0.0, "lat": 38.927924, "bike_id": "f31d5eb0be45639c1e4697c187fa53c7", "type": "electric_scooter", "is_reserved": 0, "lon": -77.032236}, {"fusion_lat": 0.0, "name": "ca50ea8cd157e1632901e24de990b59b", "is_disabled": 0, "rental_uris": {"android": "https://dc.lft.to/lastmile_qr_scan", "ios": "https://dc.lft.to/lastmile_qr_scan"}, "fusion_lon": 0.0, "lat": 38.87837233333333, "bike_id": "ca50ea8cd157e1632901e24de990b59b", "type": "electric_scooter", "is_reserved": 0, "lon": -76.9632055}, {"fusion_lat": 0.0, "name": "5098da804b6f27fbe1df2dda5fa18134", "is_disabled": 0, "rental_uris": {"android": "https://dc.lft.to/lastmile_qr_scan", "ios": "https://dc.lft.to/lastmile_qr_scan"}, "fusion_lon": 0.0, "lat": 38.92564016666667, "bike_id": "5098da804b6f27fbe1df2dda5fa18134", "type": "electric_scooter", "is_reserved": 0, "lon": -77.07760366666666}, {"fusion_lat": 0.0, "name": "d37e9065dbc3d343ff5b8fc2563cbe69", "is_disabled": 0, "rental_uris": {"android": "https://dc.lft.to/lastmile_qr_scan", "ios": "https://dc.lft.to/lastmile_qr_scan"}, "fusion_lon": 0.0, "lat": 38.919343166666664, "bike_id": "d37e9065dbc3d343ff5b8fc2563cbe69", "type": "electric_scooter", "is_reserved": 0, "lon": -77.07084616666667}, {"fusion_lat": 0.0, "name": "acd4339424894501f66033c0a4d11312", "is_disabled": 0, "rental_uris": {"android": "https://dc.lft.to/lastmile_qr_scan", "ios": "https://dc.lft.to/lastmile_qr_scan"}, "fusion_lon": 0.0, "lat": 38.9080255, "bike_id": "acd4339424894501f66033c0a4d11312", "type": "electric_scooter", "is_reserved": 0, "lon": -77.0435235}, {"fusion_lat": 0.0, "name": "77b658aed17a7941b00c2cc843ce0917", "is_disabled": 0, "rental_uris": {"android": "https://dc.lft.to/lastmile_qr_scan", "ios": "https://dc.lft.to/lastmile_qr_scan"}, "fusion_lon": 0.0, "lat": 38.913150333333334, "bike_id": "77b658aed17a7941b00c2cc843ce0917", "type": "electric_scooter", "is_reserved": 0, "lon": -77.048656}, {"fusion_lat": 0.0, "name": "cc6dcd3193d9a5b99cd9aa311d95e0e9", "is_disabled": 0, "rental_uris": {"android": "https://dc.lft.to/lastmile_qr_scan", "ios": "https://dc.lft.to/lastmile_qr_scan"}, "fusion_lon": 0.0, "lat": 38.90808466666667, "bike_id": "cc6dcd3193d9a5b99cd9aa311d95e0e9", "type": "electric_scooter", "is_reserved": 0, "lon": -77.0417405}, {"fusion_lat": 0.0, "name": "cd0c5b6c5cefb209001e2aa07f1c01be", "is_disabled": 0, "rental_uris": {"android": "https://dc.lft.to/lastmile_qr_scan", "ios": "https://dc.lft.to/lastmile_qr_scan"}, "fusion_lon": 0.0, "lat": 38.910867, "bike_id": "cd0c5b6c5cefb209001e2aa07f1c01be", "type": "electric_scooter", "is_reserved": 0, "lon": -77.06505716666666}, {"fusion_lat": 0.0, "name": "f1c4a0ae7c0981d9e015b04500f065e0", "is_disabled": 0, "rental_uris": {"android": "https://dc.lft.to/lastmile_qr_scan", "ios": "https://dc.lft.to/lastmile_qr_scan"}, "fusion_lon": 0.0, "lat": 38.89283783333333, "bike_id": "f1c4a0ae7c0981d9e015b04500f065e0", "type": "electric_scooter", "is_reserved": 0, "lon": -76.98306433333333}, {"fusion_lat": 0.0, "name": "30797b5ca634b857a19bf197bf2d7c9c", "is_disabled": 0, "rental_uris": {"android": "https://dc.lft.to/lastmile_qr_scan", "ios": "https://dc.lft.to/lastmile_qr_scan"}, "fusion_lon": 0.0, "lat": 38.920414, "bike_id": "30797b5ca634b857a19bf197bf2d7c9c", "type": "electric_scooter", "is_reserved": 0, "lon": -77.0172875}, {"fusion_lat": 0.0, "name": "7419df6de8ef67f887d293b0eb25c183", "is_disabled": 0, "rental_uris": {"android": "https://dc.lft.to/lastmile_qr_scan", "ios": "https://dc.lft.to/lastmile_qr_scan"}, "fusion_lon": 0.0, "lat": 38.804943333333334, "bike_id": "7419df6de8ef67f887d293b0eb25c183", "type": "electric_bike", "is_reserved": 0, "lon": -77.1016405}, {"fusion_lat": 0.0, "name": "1c1d0482662d00473a1847f3c673a019", "is_disabled": 0, "rental_uris": {"android": "https://dc.lft.to/lastmile_qr_scan", "ios": "https://dc.lft.to/lastmile_qr_scan"}, "fusion_lon": 0.0, "lat": 38.84276766666667, "bike_id": "1c1d0482662d00473a1847f3c673a019", "type": "electric_bike", "is_reserved": 0, "lon": -76.98841883333333}, {"fusion_lat": 0.0, "name": "7da3846ca61746f6782d272a17d0a94b", "is_disabled": 0, "rental_uris": {"android": "https://dc.lft.to/lastmile_qr_scan", "ios": "https://dc.lft.to/lastmile_qr_scan"}, "fusion_lon": 0.0, "lat": 38.914602333333335, "bike_id": "7da3846ca61746f6782d272a17d0a94b", "type": "electric_scooter", "is_reserved": 0, "lon": -76.9844635}, {"fusion_lat": 0.0, "name": "56527f6c823176f6743c923c2c815e85", "is_disabled": 0, "rental_uris": {"android": "https://dc.lft.to/lastmile_qr_scan", "ios": "https://dc.lft.to/lastmile_qr_scan"}, "fusion_lon": 0.0, "lat": 38.899709, "bike_id": "56527f6c823176f6743c923c2c815e85", "type": "electric_scooter", "is_reserved": 0, "lon": -77.04045366666666}, {"fusion_lat": 0.0, "name": "2e6bbeac4d622483ce9a0d3fc7478b7d", "is_disabled": 0, "rental_uris": {"android": "https://dc.lft.to/lastmile_qr_scan", "ios": "https://dc.lft.to/lastmile_qr_scan"}, "fusion_lon": 0.0, "lat": 38.902205, "bike_id": "2e6bbeac4d622483ce9a0d3fc7478b7d", "type": "electric_scooter", "is_reserved": 0, "lon": -77.02309816666667}, {"fusion_lat": 0.0, "name": "77fa63604fdbf95ab7f7e3e9fd89f004", "is_disabled": 0, "rental_uris": {"android": "https://dc.lft.to/lastmile_qr_scan", "ios": "https://dc.lft.to/lastmile_qr_scan"}, "fusion_lon": 0.0, "lat": 38.917913666666664, "bike_id": "77fa63604fdbf95ab7f7e3e9fd89f004", "type": "electric_scooter", "is_reserved": 0, "lon": -77.04023466666666}, {"fusion_lat": 0.0, "name": "0154656907cebdc67b19f43aee28bcf3", "is_disabled": 0, "rental_uris": {"android": "https://dc.lft.to/lastmile_qr_scan", "ios": "https://dc.lft.to/lastmile_qr_scan"}, "fusion_lon": 0.0, "lat": 38.93219533333333, "bike_id": "0154656907cebdc67b19f43aee28bcf3", "type": "electric_scooter", "is_reserved": 0, "lon": -77.04414633333333}, {"fusion_lat": 0.0, "name": "6a602630665b014a98ebc869464831bf", "is_disabled": 0, "rental_uris": {"android": "https://dc.lft.to/lastmile_qr_scan", "ios": "https://dc.lft.to/lastmile_qr_scan"}, "fusion_lon": 0.0, "lat": 38.90732233333333, "bike_id": "6a602630665b014a98ebc869464831bf", "type": "electric_scooter", "is_reserved": 0, "lon": -77.02890083333334}, {"fusion_lat": 0.0, "name": "01882f1cd429da0866d81a7bc73af6e9", "is_disabled": 0, "rental_uris": {"android": "https://dc.lft.to/lastmile_qr_scan", "ios": "https://dc.lft.to/lastmile_qr_scan"}, "fusion_lon": 0.0, "lat": 38.93874183333333, "bike_id": "01882f1cd429da0866d81a7bc73af6e9", "type": "electric_scooter", "is_reserved": 0, "lon": -77.03231116666667}, {"fusion_lat": 0.0, "name": "a4c054cf04f0bd2244a41987c8b6a8b5", "is_disabled": 0, "rental_uris": {"android": "https://dc.lft.to/lastmile_qr_scan", "ios": "https://dc.lft.to/lastmile_qr_scan"}, "fusion_lon": 0.0, "lat": 38.92550283333333, "bike_id": "a4c054cf04f0bd2244a41987c8b6a8b5", "type": "electric_scooter", "is_reserved": 0, "lon": -77.04299483333334}, {"fusion_lat": 0.0, "name": "04552c04a477148c07f03dca8795c4b5", "is_disabled": 0, "rental_uris": {"android": "https://dc.lft.to/lastmile_qr_scan", "ios": "https://dc.lft.to/lastmile_qr_scan"}, "fusion_lon": 0.0, "lat": 38.92620383333333, "bike_id": "04552c04a477148c07f03dca8795c4b5", "type": "electric_scooter", "is_reserved": 0, "lon": -77.0432705}, {"fusion_lat": 0.0, "name": "4fcbaff890bfe7e82eb3b69295b26782", "is_disabled": 0, "rental_uris": {"android": "https://dc.lft.to/lastmile_qr_scan", "ios": "https://dc.lft.to/lastmile_qr_scan"}, "fusion_lon": 0.0, "lat": 38.931140166666665, "bike_id": "4fcbaff890bfe7e82eb3b69295b26782", "type": "electric_scooter", "is_reserved": 0, "lon": -77.02094883333334}, {"fusion_lat": 0.0, "name": "1ddca60a8e1c1cb0fd25d5c2deb2abe8", "is_disabled": 0, "rental_uris": {"android": "https://dc.lft.to/lastmile_qr_scan", "ios": "https://dc.lft.to/lastmile_qr_scan"}, "fusion_lon": 0.0, "lat": 38.91991183333333, "bike_id": "1ddca60a8e1c1cb0fd25d5c2deb2abe8", "type": "electric_scooter", "is_reserved": 0, "lon": -77.03280016666666}, {"fusion_lat": 0.0, "name": "130be4f06f69882613303c568306801d", "is_disabled": 0, "rental_uris": {"android": "https://dc.lft.to/lastmile_qr_scan", "ios": "https://dc.lft.to/lastmile_qr_scan"}, "fusion_lon": 0.0, "lat": 38.90021433333333, "bike_id": "130be4f06f69882613303c568306801d", "type": "electric_scooter", "is_reserved": 0, "lon": -77.00026783333334}, {"fusion_lat": 0.0, "name": "659d424bd5d3a92f403f1e9b861f043c", "is_disabled": 0, "rental_uris": {"android": "https://dc.lft.to/lastmile_qr_scan", "ios": "https://dc.lft.to/lastmile_qr_scan"}, "fusion_lon": 0.0, "lat": 38.89704733333333, "bike_id": "659d424bd5d3a92f403f1e9b861f043c", "type": "electric_scooter", "is_reserved": 0, "lon": -77.023918}, {"fusion_lat": 0.0, "name": "bcaa40669227bd9e6cbdb4d17aa4fda8", "is_disabled": 0, "rental_uris": {"android": "https://dc.lft.to/lastmile_qr_scan", "ios": "https://dc.lft.to/lastmile_qr_scan"}, "fusion_lon": 0.0, "lat": 38.92014916666667, "bike_id": "bcaa40669227bd9e6cbdb4d17aa4fda8", "type": "electric_scooter", "is_reserved": 0, "lon": -77.07125}, {"fusion_lat": 0.0, "name": "5ed661443ec1b18adef7c2c9e21399bc", "is_disabled": 0, "rental_uris": {"android": "https://dc.lft.to/lastmile_qr_scan", "ios": "https://dc.lft.to/lastmile_qr_scan"}, "fusion_lon": 0.0, "lat": 38.93842166666667, "bike_id": "5ed661443ec1b18adef7c2c9e21399bc", "type": "electric_scooter", "is_reserved": 0, "lon": -77.06247933333333}, {"fusion_lat": 0.0, "name": "0171e482a8440b6c80044bff94922160", "is_disabled": 0, "rental_uris": {"android": "https://dc.lft.to/lastmile_qr_scan", "ios": "https://dc.lft.to/lastmile_qr_scan"}, "fusion_lon": 0.0, "lat": 38.915990666666666, "bike_id": "0171e482a8440b6c80044bff94922160", "type": "electric_scooter", "is_reserved": 0, "lon": -77.0490665}, {"fusion_lat": 0.0, "name": "fb8f00a3ce222398abcb491d87c56a55", "is_disabled": 0, "rental_uris": {"android": "https://dc.lft.to/lastmile_qr_scan", "ios": "https://dc.lft.to/lastmile_qr_scan"}, "fusion_lon": 0.0, "lat": 38.916458166666665, "bike_id": "fb8f00a3ce222398abcb491d87c56a55", "type": "electric_scooter", "is_reserved": 0, "lon": -77.032163}, {"fusion_lat": 0.0, "name": "0b89161dfeb57b1bbcc38c9abad7dadd", "is_disabled": 0, "rental_uris": {"android": "https://dc.lft.to/lastmile_qr_scan", "ios": "https://dc.lft.to/lastmile_qr_scan"}, "fusion_lon": 0.0, "lat": 38.922938333333335, "bike_id": "0b89161dfeb57b1bbcc38c9abad7dadd", "type": "electric_scooter", "is_reserved": 0, "lon": -77.02246333333333}, {"fusion_lat": 0.0, "name": "5082022af7b201f5d3573ce974f623da", "is_disabled": 0, "rental_uris": {"android": "https://dc.lft.to/lastmile_qr_scan", "ios": "https://dc.lft.to/lastmile_qr_scan"}, "fusion_lon": 0.0, "lat": 38.916942666666664, "bike_id": "5082022af7b201f5d3573ce974f623da", "type": "electric_scooter", "is_reserved": 0, "lon": -77.0349235}, {"fusion_lat": 0.0, "name": "23590550b79038166c161c69167e6cba", "is_disabled": 0, "rental_uris": {"android": "https://dc.lft.to/lastmile_qr_scan", "ios": "https://dc.lft.to/lastmile_qr_scan"}, "fusion_lon": 0.0, "lat": 38.913964666666665, "bike_id": "23590550b79038166c161c69167e6cba", "type": "electric_scooter", "is_reserved": 0, "lon": -77.03179566666667}, {"fusion_lat": 0.0, "name": "bc9bbeda3676e1036de95628b71cfb37", "is_disabled": 0, "rental_uris": {"android": "https://dc.lft.to/lastmile_qr_scan", "ios": "https://dc.lft.to/lastmile_qr_scan"}, "fusion_lon": 0.0, "lat": 38.8926145, "bike_id": "bc9bbeda3676e1036de95628b71cfb37", "type": "electric_scooter", "is_reserved": 0, "lon": -77.05020616666667}, {"fusion_lat": 0.0, "name": "474d878bbb15a411ca69be28d0ceca4d", "is_disabled": 0, "rental_uris": {"android": "https://dc.lft.to/lastmile_qr_scan", "ios": "https://dc.lft.to/lastmile_qr_scan"}, "fusion_lon": 0.0, "lat": 38.923297166666664, "bike_id": "474d878bbb15a411ca69be28d0ceca4d", "type": "electric_scooter", "is_reserved": 0, "lon": -77.05786933333333}, {"fusion_lat": 0.0, "name": "b2e4b25074b2eb437e32708546375ad2", "is_disabled": 0, "rental_uris": {"android": "https://dc.lft.to/lastmile_qr_scan", "ios": "https://dc.lft.to/lastmile_qr_scan"}, "fusion_lon": 0.0, "lat": 38.887063833333336, "bike_id": "b2e4b25074b2eb437e32708546375ad2", "type": "electric_scooter", "is_reserved": 0, "lon": -76.99672916666667}, {"fusion_lat": 0.0, "name": "ccda7ba96113dfc3e48ce1de22daf7fe", "is_disabled": 0, "rental_uris": {"android": "https://dc.lft.to/lastmile_qr_scan", "ios": "https://dc.lft.to/lastmile_qr_scan"}, "fusion_lon": 0.0, "lat": 38.915780833333336, "bike_id": "ccda7ba96113dfc3e48ce1de22daf7fe", "type": "electric_scooter", "is_reserved": 0, "lon": -77.02288283333333}, {"fusion_lat": 0.0, "name": "5312a5078a6ff5cdb2bde65f28f3f5c1", "is_disabled": 0, "rental_uris": {"android": "https://dc.lft.to/lastmile_qr_scan", "ios": "https://dc.lft.to/lastmile_qr_scan"}, "fusion_lon": 0.0, "lat": 38.91549083333334, "bike_id": "5312a5078a6ff5cdb2bde65f28f3f5c1", "type": "electric_scooter", "is_reserved": 0, "lon": -77.0325925}, {"fusion_lat": 0.0, "name": "b45c19a1db1d84206130723d8c602116", "is_disabled": 0, "rental_uris": {"android": "https://dc.lft.to/lastmile_qr_scan", "ios": "https://dc.lft.to/lastmile_qr_scan"}, "fusion_lon": 0.0, "lat": 38.926369333333334, "bike_id": "b45c19a1db1d84206130723d8c602116", "type": "electric_bike", "is_reserved": 0, "lon": -77.03300266666666}, {"fusion_lat": 0.0, "name": "6cc129bdf1fb2a476b824528ba13e10a", "is_disabled": 0, "rental_uris": {"android": "https://dc.lft.to/lastmile_qr_scan", "ios": "https://dc.lft.to/lastmile_qr_scan"}, "fusion_lon": 0.0, "lat": 38.902381166666665, "bike_id": "6cc129bdf1fb2a476b824528ba13e10a", "type": "electric_bike", "is_reserved": 0, "lon": -77.05911933333333}, {"fusion_lat": 0.0, "name": "8d971dc6badd9426c5f9de4749da4060", "is_disabled": 0, "rental_uris": {"android": "https://dc.lft.to/lastmile_qr_scan", "ios": "https://dc.lft.to/lastmile_qr_scan"}, "fusion_lon": 0.0, "lat": 38.93035233333333, "bike_id": "8d971dc6badd9426c5f9de4749da4060", "type": "electric_scooter", "is_reserved": 0, "lon": -77.01950316666667}, {"fusion_lat": 0.0, "name": "d8df159021c6f787356b3af82b00f797", "is_disabled": 0, "rental_uris": {"android": "https://dc.lft.to/lastmile_qr_scan", "ios": "https://dc.lft.to/lastmile_qr_scan"}, "fusion_lon": 0.0, "lat": 38.894965, "bike_id": "d8df159021c6f787356b3af82b00f797", "type": "electric_scooter", "is_reserved": 0, "lon": -77.01946566666666}, {"fusion_lat": 0.0, "name": "4f41d90e437fe467e96656678e31abdc", "is_disabled": 0, "rental_uris": {"android": "https://dc.lft.to/lastmile_qr_scan", "ios": "https://dc.lft.to/lastmile_qr_scan"}, "fusion_lon": 0.0, "lat": 38.81330033333333, "bike_id": "4f41d90e437fe467e96656678e31abdc", "type": "electric_bike", "is_reserved": 0, "lon": -77.05083416666666}, {"fusion_lat": 0.0, "name": "318df17f422c32b54c68e3a281af0bac", "is_disabled": 0, "rental_uris": {"android": "https://dc.lft.to/lastmile_qr_scan", "ios": "https://dc.lft.to/lastmile_qr_scan"}, "fusion_lon": 0.0, "lat": 38.9053385, "bike_id": "318df17f422c32b54c68e3a281af0bac", "type": "electric_scooter", "is_reserved": 0, "lon": -77.04792533333334}, {"fusion_lat": 0.0, "name": "808ab8bde67383e34b5700db10eb98fe", "is_disabled": 0, "rental_uris": {"android": "https://dc.lft.to/lastmile_qr_scan", "ios": "https://dc.lft.to/lastmile_qr_scan"}, "fusion_lon": 0.0, "lat": 38.90008516666666, "bike_id": "808ab8bde67383e34b5700db10eb98fe", "type": "electric_scooter", "is_reserved": 0, "lon": -77.029272}, {"fusion_lat": 0.0, "name": "ef3423da3bef7c6cb43d0a20df15ae5f", "is_disabled": 0, "rental_uris": {"android": "https://dc.lft.to/lastmile_qr_scan", "ios": "https://dc.lft.to/lastmile_qr_scan"}, "fusion_lon": 0.0, "lat": 38.918570833333334, "bike_id": "ef3423da3bef7c6cb43d0a20df15ae5f", "type": "electric_bike", "is_reserved": 0, "lon": -76.96088183333333}, {"fusion_lat": 0.0, "name": "a59872ed930e7acd028d94851ebd2b90", "is_disabled": 0, "rental_uris": {"android": "https://dc.lft.to/lastmile_qr_scan", "ios": "https://dc.lft.to/lastmile_qr_scan"}, "fusion_lon": 0.0, "lat": 38.90531416666666, "bike_id": "a59872ed930e7acd028d94851ebd2b90", "type": "electric_scooter", "is_reserved": 0, "lon": -77.05935883333333}, {"fusion_lat": 0.0, "name": "4c11cc651633d3ddaebe37660e0d32ec", "is_disabled": 0, "rental_uris": {"android": "https://dc.lft.to/lastmile_qr_scan", "ios": "https://dc.lft.to/lastmile_qr_scan"}, "fusion_lon": 0.0, "lat": 38.904083666666665, "bike_id": "4c11cc651633d3ddaebe37660e0d32ec", "type": "electric_scooter", "is_reserved": 0, "lon": -77.01789583333333}, {"fusion_lat": 0.0, "name": "91516a4a83f80408a2ce03e1af38039a", "is_disabled": 0, "rental_uris": {"android": "https://dc.lft.to/lastmile_qr_scan", "ios": "https://dc.lft.to/lastmile_qr_scan"}, "fusion_lon": 0.0, "lat": 38.91105116666667, "bike_id": "91516a4a83f80408a2ce03e1af38039a", "type": "electric_scooter", "is_reserved": 0, "lon": -77.044826}, {"fusion_lat": 0.0, "name": "29854d259fbcef3a3c494463b86905a7", "is_disabled": 0, "rental_uris": {"android": "https://dc.lft.to/lastmile_qr_scan", "ios": "https://dc.lft.to/lastmile_qr_scan"}, "fusion_lon": 0.0, "lat": 38.91962183333333, "bike_id": "29854d259fbcef3a3c494463b86905a7", "type": "electric_scooter", "is_reserved": 0, "lon": -77.01812316666667}, {"fusion_lat": 0.0, "name": "7936f6a3fd9527cf20c08ca17a789e85", "is_disabled": 0, "rental_uris": {"android": "https://dc.lft.to/lastmile_qr_scan", "ios": "https://dc.lft.to/lastmile_qr_scan"}, "fusion_lon": 0.0, "lat": 38.971246, "bike_id": "7936f6a3fd9527cf20c08ca17a789e85", "type": "electric_bike", "is_reserved": 0, "lon": -77.02087333333333}, {"fusion_lat": 0.0, "name": "386a7fe56bc20bce6cbeb911d0296b62", "is_disabled": 0, "rental_uris": {"android": "https://dc.lft.to/lastmile_qr_scan", "ios": "https://dc.lft.to/lastmile_qr_scan"}, "fusion_lon": 0.0, "lat": 38.927828166666664, "bike_id": "386a7fe56bc20bce6cbeb911d0296b62", "type": "electric_scooter", "is_reserved": 0, "lon": -77.03151433333333}, {"fusion_lat": 0.0, "name": "779f3eb531c4f2506a578515101ef263", "is_disabled": 0, "rental_uris": {"android": "https://dc.lft.to/lastmile_qr_scan", "ios": "https://dc.lft.to/lastmile_qr_scan"}, "fusion_lon": 0.0, "lat": 38.94126033333333, "bike_id": "779f3eb531c4f2506a578515101ef263", "type": "electric_bike", "is_reserved": 0, "lon": -76.99028316666667}, {"fusion_lat": 0.0, "name": "41481b80ba46d8e7dbae5e5299d93098", "is_disabled": 0, "rental_uris": {"android": "https://dc.lft.to/lastmile_qr_scan", "ios": "https://dc.lft.to/lastmile_qr_scan"}, "fusion_lon": 0.0, "lat": 38.8886505, "bike_id": "41481b80ba46d8e7dbae5e5299d93098", "type": "electric_scooter", "is_reserved": 0, "lon": -77.04010333333333}, {"fusion_lat": 0.0, "name": "3c3631e463f978f7080457514b601035", "is_disabled": 0, "rental_uris": {"android": "https://dc.lft.to/lastmile_qr_scan", "ios": "https://dc.lft.to/lastmile_qr_scan"}, "fusion_lon": 0.0, "lat": 38.933816, "bike_id": "3c3631e463f978f7080457514b601035", "type": "electric_scooter", "is_reserved": 0, "lon": -77.02414716666667}, {"fusion_lat": 0.0, "name": "980e7bab2202d701ee5c91f861b8de55", "is_disabled": 0, "rental_uris": {"android": "https://dc.lft.to/lastmile_qr_scan", "ios": "https://dc.lft.to/lastmile_qr_scan"}, "fusion_lon": 0.0, "lat": 38.90053866666667, "bike_id": "980e7bab2202d701ee5c91f861b8de55", "type": "electric_scooter", "is_reserved": 0, "lon": -77.01381916666666}, {"fusion_lat": 0.0, "name": "e42dc6a9ae3d7e205d23ac84d4bcfdaa", "is_disabled": 0, "rental_uris": {"android": "https://dc.lft.to/lastmile_qr_scan", "ios": "https://dc.lft.to/lastmile_qr_scan"}, "fusion_lon": 0.0, "lat": 38.881819166666666, "bike_id": "e42dc6a9ae3d7e205d23ac84d4bcfdaa", "type": "electric_scooter", "is_reserved": 0, "lon": -77.0357635}, {"fusion_lat": 0.0, "name": "6039102f487335c3fe191ac7daebf048", "is_disabled": 0, "rental_uris": {"android": "https://dc.lft.to/lastmile_qr_scan", "ios": "https://dc.lft.to/lastmile_qr_scan"}, "fusion_lon": 0.0, "lat": 38.942707, "bike_id": "6039102f487335c3fe191ac7daebf048", "type": "electric_scooter", "is_reserved": 0, "lon": -77.03262766666667}, {"fusion_lat": 0.0, "name": "e34bdaeaf83c3381552ef3cc05841653", "is_disabled": 0, "rental_uris": {"android": "https://dc.lft.to/lastmile_qr_scan", "ios": "https://dc.lft.to/lastmile_qr_scan"}, "fusion_lon": 0.0, "lat": 38.83512233333333, "bike_id": "e34bdaeaf83c3381552ef3cc05841653", "type": "electric_bike", "is_reserved": 0, "lon": -76.98679833333334}, {"fusion_lat": 0.0, "name": "535db4d555032ef8e32a045fd2bce69a", "is_disabled": 0, "rental_uris": {"android": "https://dc.lft.to/lastmile_qr_scan", "ios": "https://dc.lft.to/lastmile_qr_scan"}, "fusion_lon": 0.0, "lat": 38.897203, "bike_id": "535db4d555032ef8e32a045fd2bce69a", "type": "electric_scooter", "is_reserved": 0, "lon": -77.02145866666666}, {"fusion_lat": 0.0, "name": "e5d6827a21de4b31cf9149a91a51cf39", "is_disabled": 0, "rental_uris": {"android": "https://dc.lft.to/lastmile_qr_scan", "ios": "https://dc.lft.to/lastmile_qr_scan"}, "fusion_lon": 0.0, "lat": 38.915556, "bike_id": "e5d6827a21de4b31cf9149a91a51cf39", "type": "electric_scooter", "is_reserved": 0, "lon": -77.0113475}, {"fusion_lat": 0.0, "name": "30d41e18db854490f78122fe33e867e4", "is_disabled": 0, "rental_uris": {"android": "https://dc.lft.to/lastmile_qr_scan", "ios": "https://dc.lft.to/lastmile_qr_scan"}, "fusion_lon": 0.0, "lat": 38.9115775, "bike_id": "30d41e18db854490f78122fe33e867e4", "type": "electric_scooter", "is_reserved": 0, "lon": -77.07275566666667}, {"fusion_lat": 0.0, "name": "a95dadcb216f518749550670b78c9c1b", "is_disabled": 0, "rental_uris": {"android": "https://dc.lft.to/lastmile_qr_scan", "ios": "https://dc.lft.to/lastmile_qr_scan"}, "fusion_lon": 0.0, "lat": 38.94008683333333, "bike_id": "a95dadcb216f518749550670b78c9c1b", "type": "electric_scooter", "is_reserved": 0, "lon": -77.08415333333333}, {"fusion_lat": 0.0, "name": "b9c5dff46a9e8c1e7caf2d755574d527", "is_disabled": 0, "rental_uris": {"android": "https://dc.lft.to/lastmile_qr_scan", "ios": "https://dc.lft.to/lastmile_qr_scan"}, "fusion_lon": 0.0, "lat": 38.886766, "bike_id": "b9c5dff46a9e8c1e7caf2d755574d527", "type": "electric_scooter", "is_reserved": 0, "lon": -77.01379816666666}, {"fusion_lat": 0.0, "name": "1998c38d4ff36dbe9eedb40fb16e15f2", "is_disabled": 0, "rental_uris": {"android": "https://dc.lft.to/lastmile_qr_scan", "ios": "https://dc.lft.to/lastmile_qr_scan"}, "fusion_lon": 0.0, "lat": 38.900314333333334, "bike_id": "1998c38d4ff36dbe9eedb40fb16e15f2", "type": "electric_scooter", "is_reserved": 0, "lon": -77.0161855}, {"fusion_lat": 0.0, "name": "4d4dd3dc4817482de610ecd301ddaad5", "is_disabled": 0, "rental_uris": {"android": "https://dc.lft.to/lastmile_qr_scan", "ios": "https://dc.lft.to/lastmile_qr_scan"}, "fusion_lon": 0.0, "lat": 38.900599166666666, "bike_id": "4d4dd3dc4817482de610ecd301ddaad5", "type": "electric_scooter", "is_reserved": 0, "lon": -76.93385966666666}, {"fusion_lat": 0.0, "name": "908fb73e36e3cba4f33880765ddb7d71", "is_disabled": 0, "rental_uris": {"android": "https://dc.lft.to/lastmile_qr_scan", "ios": "https://dc.lft.to/lastmile_qr_scan"}, "fusion_lon": 0.0, "lat": 38.915330833333336, "bike_id": "908fb73e36e3cba4f33880765ddb7d71", "type": "electric_scooter", "is_reserved": 0, "lon": -77.0665645}, {"fusion_lat": 0.0, "name": "5f6cfe2d59bd405d1fa82a26e73b8c55", "is_disabled": 0, "rental_uris": {"android": "https://dc.lft.to/lastmile_qr_scan", "ios": "https://dc.lft.to/lastmile_qr_scan"}, "fusion_lon": 0.0, "lat": 38.907708666666664, "bike_id": "5f6cfe2d59bd405d1fa82a26e73b8c55", "type": "electric_scooter", "is_reserved": 0, "lon": -77.05594766666667}, {"fusion_lat": 0.0, "name": "155c781983e61ec53a1c7289ddc43789", "is_disabled": 0, "rental_uris": {"android": "https://dc.lft.to/lastmile_qr_scan", "ios": "https://dc.lft.to/lastmile_qr_scan"}, "fusion_lon": 0.0, "lat": 38.88743, "bike_id": "155c781983e61ec53a1c7289ddc43789", "type": "electric_scooter", "is_reserved": 0, "lon": -77.02381683333333}, {"fusion_lat": 0.0, "name": "1f283971fa8fd0d76ff2ceb7b94769e8", "is_disabled": 0, "rental_uris": {"android": "https://dc.lft.to/lastmile_qr_scan", "ios": "https://dc.lft.to/lastmile_qr_scan"}, "fusion_lon": 0.0, "lat": 38.94229466666667, "bike_id": "1f283971fa8fd0d76ff2ceb7b94769e8", "type": "electric_scooter", "is_reserved": 0, "lon": -77.01384516666667}, {"fusion_lat": 0.0, "name": "0463e217cc81101f2bb2adc2360b714d", "is_disabled": 0, "rental_uris": {"android": "https://dc.lft.to/lastmile_qr_scan", "ios": "https://dc.lft.to/lastmile_qr_scan"}, "fusion_lon": 0.0, "lat": 38.916280666666665, "bike_id": "0463e217cc81101f2bb2adc2360b714d", "type": "electric_scooter", "is_reserved": 0, "lon": -77.02800066666667}, {"fusion_lat": 0.0, "name": "511f2466b1cca0d40a60e3509ce16201", "is_disabled": 0, "rental_uris": {"android": "https://dc.lft.to/lastmile_qr_scan", "ios": "https://dc.lft.to/lastmile_qr_scan"}, "fusion_lon": 0.0, "lat": 38.887191666666666, "bike_id": "511f2466b1cca0d40a60e3509ce16201", "type": "electric_scooter", "is_reserved": 0, "lon": -77.01777966666667}, {"fusion_lat": 0.0, "name": "e70d3d231875f349cb072ba4d6136f78", "is_disabled": 0, "rental_uris": {"android": "https://dc.lft.to/lastmile_qr_scan", "ios": "https://dc.lft.to/lastmile_qr_scan"}, "fusion_lon": 0.0, "lat": 38.916534, "bike_id": "e70d3d231875f349cb072ba4d6136f78", "type": "electric_scooter", "is_reserved": 0, "lon": -76.98233133333333}, {"fusion_lat": 0.0, "name": "31fac75c5a37d324304e5501e558e0b6", "is_disabled": 0, "rental_uris": {"android": "https://dc.lft.to/lastmile_qr_scan", "ios": "https://dc.lft.to/lastmile_qr_scan"}, "fusion_lon": 0.0, "lat": 38.88314966666667, "bike_id": "31fac75c5a37d324304e5501e558e0b6", "type": "electric_scooter", "is_reserved": 0, "lon": -77.01772333333334}, {"fusion_lat": 0.0, "name": "f10bd3cf0a42988e64acfafeaf23a7f7", "is_disabled": 0, "rental_uris": {"android": "https://dc.lft.to/lastmile_qr_scan", "ios": "https://dc.lft.to/lastmile_qr_scan"}, "fusion_lon": 0.0, "lat": 38.89331383333333, "bike_id": "f10bd3cf0a42988e64acfafeaf23a7f7", "type": "electric_scooter", "is_reserved": 0, "lon": -77.0224385}, {"fusion_lat": 0.0, "name": "69c43e11a9586c32ecd6dfa7b071c1ee", "is_disabled": 0, "rental_uris": {"android": "https://dc.lft.to/lastmile_qr_scan", "ios": "https://dc.lft.to/lastmile_qr_scan"}, "fusion_lon": 0.0, "lat": 38.920779333333336, "bike_id": "69c43e11a9586c32ecd6dfa7b071c1ee", "type": "electric_bike", "is_reserved": 0, "lon": -76.98947966666667}, {"fusion_lat": 0.0, "name": "0e0111c27e64284772cdd17af42875ce", "is_disabled": 0, "rental_uris": {"android": "https://dc.lft.to/lastmile_qr_scan", "ios": "https://dc.lft.to/lastmile_qr_scan"}, "fusion_lon": 0.0, "lat": 38.887246833333336, "bike_id": "0e0111c27e64284772cdd17af42875ce", "type": "electric_scooter", "is_reserved": 0, "lon": -76.983597}, {"fusion_lat": 0.0, "name": "0e2095ee642a0be1077b8e315e7e83ce", "is_disabled": 0, "rental_uris": {"android": "https://dc.lft.to/lastmile_qr_scan", "ios": "https://dc.lft.to/lastmile_qr_scan"}, "fusion_lon": 0.0, "lat": 38.899717, "bike_id": "0e2095ee642a0be1077b8e315e7e83ce", "type": "electric_scooter", "is_reserved": 0, "lon": -76.9871435}, {"fusion_lat": 0.0, "name": "c5ef9f8df60448d19b39750010c75a6c", "is_disabled": 0, "rental_uris": {"android": "https://dc.lft.to/lastmile_qr_scan", "ios": "https://dc.lft.to/lastmile_qr_scan"}, "fusion_lon": 0.0, "lat": 38.928740833333336, "bike_id": "c5ef9f8df60448d19b39750010c75a6c", "type": "electric_scooter", "is_reserved": 0, "lon": -77.0135985}, {"fusion_lat": 0.0, "name": "3938e42c691c4dc15b314222c45faccc", "is_disabled": 0, "rental_uris": {"android": "https://dc.lft.to/lastmile_qr_scan", "ios": "https://dc.lft.to/lastmile_qr_scan"}, "fusion_lon": 0.0, "lat": 38.93317566666666, "bike_id": "3938e42c691c4dc15b314222c45faccc", "type": "electric_scooter", "is_reserved": 0, "lon": -77.02748283333334}, {"fusion_lat": 0.0, "name": "fbd6adb82925c89cffab4397be74d7d6", "is_disabled": 0, "rental_uris": {"android": "https://dc.lft.to/lastmile_qr_scan", "ios": "https://dc.lft.to/lastmile_qr_scan"}, "fusion_lon": 0.0, "lat": 38.9490095, "bike_id": "fbd6adb82925c89cffab4397be74d7d6", "type": "electric_bike", "is_reserved": 0, "lon": -76.96376666666667}, {"fusion_lat": 0.0, "name": "2388a2e9d4b5063fb8469c7a9443a02a", "is_disabled": 0, "rental_uris": {"android": "https://dc.lft.to/lastmile_qr_scan", "ios": "https://dc.lft.to/lastmile_qr_scan"}, "fusion_lon": 0.0, "lat": 38.91659033333333, "bike_id": "2388a2e9d4b5063fb8469c7a9443a02a", "type": "electric_scooter", "is_reserved": 0, "lon": -77.02795166666667}, {"fusion_lat": 0.0, "name": "af773af4ade7a45d1342a9a6d12d74a7", "is_disabled": 0, "rental_uris": {"android": "https://dc.lft.to/lastmile_qr_scan", "ios": "https://dc.lft.to/lastmile_qr_scan"}, "fusion_lon": 0.0, "lat": 38.87400933333333, "bike_id": "af773af4ade7a45d1342a9a6d12d74a7", "type": "electric_scooter", "is_reserved": 0, "lon": -77.0006785}, {"fusion_lat": 0.0, "name": "08c47c351cd8d3c4c7a9ac7de6a08691", "is_disabled": 0, "rental_uris": {"android": "https://dc.lft.to/lastmile_qr_scan", "ios": "https://dc.lft.to/lastmile_qr_scan"}, "fusion_lon": 0.0, "lat": 38.9019895, "bike_id": "08c47c351cd8d3c4c7a9ac7de6a08691", "type": "electric_scooter", "is_reserved": 0, "lon": -76.978589}, {"fusion_lat": 0.0, "name": "46e2fb9ab4fe720144c32c6a3bbfadaa", "is_disabled": 0, "rental_uris": {"android": "https://dc.lft.to/lastmile_qr_scan", "ios": "https://dc.lft.to/lastmile_qr_scan"}, "fusion_lon": 0.0, "lat": 38.916246, "bike_id": "46e2fb9ab4fe720144c32c6a3bbfadaa", "type": "electric_scooter", "is_reserved": 0, "lon": -77.031466}, {"fusion_lat": 0.0, "name": "6349d2f2df53850febf3fe962c3e8446", "is_disabled": 0, "rental_uris": {"android": "https://dc.lft.to/lastmile_qr_scan", "ios": "https://dc.lft.to/lastmile_qr_scan"}, "fusion_lon": 0.0, "lat": 38.9232115, "bike_id": "6349d2f2df53850febf3fe962c3e8446", "type": "electric_scooter", "is_reserved": 0, "lon": -77.038203}, {"fusion_lat": 0.0, "name": "0f256cfcb7f4ba340ba5b61ff339a55a", "is_disabled": 0, "rental_uris": {"android": "https://dc.lft.to/lastmile_qr_scan", "ios": "https://dc.lft.to/lastmile_qr_scan"}, "fusion_lon": 0.0, "lat": 38.88645416666667, "bike_id": "0f256cfcb7f4ba340ba5b61ff339a55a", "type": "electric_scooter", "is_reserved": 0, "lon": -77.01957933333334}, {"fusion_lat": 0.0, "name": "48cd7300f922b7fe2578b52c33bf1809", "is_disabled": 0, "rental_uris": {"android": "https://dc.lft.to/lastmile_qr_scan", "ios": "https://dc.lft.to/lastmile_qr_scan"}, "fusion_lon": 0.0, "lat": 38.905636666666666, "bike_id": "48cd7300f922b7fe2578b52c33bf1809", "type": "electric_scooter", "is_reserved": 0, "lon": -76.98199}, {"fusion_lat": 0.0, "name": "f472d7712c741268c7d8ecba7857d285", "is_disabled": 0, "rental_uris": {"android": "https://dc.lft.to/lastmile_qr_scan", "ios": "https://dc.lft.to/lastmile_qr_scan"}, "fusion_lon": 0.0, "lat": 38.9139935, "bike_id": "f472d7712c741268c7d8ecba7857d285", "type": "electric_scooter", "is_reserved": 0, "lon": -77.0318165}, {"fusion_lat": 0.0, "name": "cfaf425c7524894dbc968db549bba504", "is_disabled": 0, "rental_uris": {"android": "https://dc.lft.to/lastmile_qr_scan", "ios": "https://dc.lft.to/lastmile_qr_scan"}, "fusion_lon": 0.0, "lat": 38.922523166666664, "bike_id": "cfaf425c7524894dbc968db549bba504", "type": "electric_scooter", "is_reserved": 0, "lon": -77.07452033333334}, {"fusion_lat": 0.0, "name": "a05400d71036683ebaa8907f5e4f0c04", "is_disabled": 0, "rental_uris": {"android": "https://dc.lft.to/lastmile_qr_scan", "ios": "https://dc.lft.to/lastmile_qr_scan"}, "fusion_lon": 0.0, "lat": 38.91501616666667, "bike_id": "a05400d71036683ebaa8907f5e4f0c04", "type": "electric_scooter", "is_reserved": 0, "lon": -76.98360116666667}, {"fusion_lat": 0.0, "name": "f807619467a2898e3134d1abfae7ecbb", "is_disabled": 0, "rental_uris": {"android": "https://dc.lft.to/lastmile_qr_scan", "ios": "https://dc.lft.to/lastmile_qr_scan"}, "fusion_lon": 0.0, "lat": 38.8882645, "bike_id": "f807619467a2898e3134d1abfae7ecbb", "type": "electric_scooter", "is_reserved": 0, "lon": -76.98662833333333}, {"fusion_lat": 0.0, "name": "9c18eab5ccf164b6920e568db2dfdb24", "is_disabled": 0, "rental_uris": {"android": "https://dc.lft.to/lastmile_qr_scan", "ios": "https://dc.lft.to/lastmile_qr_scan"}, "fusion_lon": 0.0, "lat": 38.90793466666667, "bike_id": "9c18eab5ccf164b6920e568db2dfdb24", "type": "electric_scooter", "is_reserved": 0, "lon": -76.99428833333333}, {"fusion_lat": 0.0, "name": "422aa204180784dbc4955567236b0773", "is_disabled": 0, "rental_uris": {"android": "https://dc.lft.to/lastmile_qr_scan", "ios": "https://dc.lft.to/lastmile_qr_scan"}, "fusion_lon": 0.0, "lat": 38.915011166666666, "bike_id": "422aa204180784dbc4955567236b0773", "type": "electric_scooter", "is_reserved": 0, "lon": -77.06723}, {"fusion_lat": 0.0, "name": "220c00dbf4e896ed4f908334af8dfe30", "is_disabled": 0, "rental_uris": {"android": "https://dc.lft.to/lastmile_qr_scan", "ios": "https://dc.lft.to/lastmile_qr_scan"}, "fusion_lon": 0.0, "lat": 38.96495916666667, "bike_id": "220c00dbf4e896ed4f908334af8dfe30", "type": "electric_bike", "is_reserved": 0, "lon": -77.10719066666667}, {"fusion_lat": 0.0, "name": "98cdb59317ed703652bc84db4ec6031a", "is_disabled": 0, "rental_uris": {"android": "https://dc.lft.to/lastmile_qr_scan", "ios": "https://dc.lft.to/lastmile_qr_scan"}, "fusion_lon": 0.0, "lat": 38.914393833333335, "bike_id": "98cdb59317ed703652bc84db4ec6031a", "type": "electric_scooter", "is_reserved": 0, "lon": -76.99356316666666}, {"fusion_lat": 0.0, "name": "2745d66448f0203268c1c63504862430", "is_disabled": 0, "rental_uris": {"android": "https://dc.lft.to/lastmile_qr_scan", "ios": "https://dc.lft.to/lastmile_qr_scan"}, "fusion_lon": 0.0, "lat": 38.90020033333333, "bike_id": "2745d66448f0203268c1c63504862430", "type": "electric_scooter", "is_reserved": 0, "lon": -77.03507233333333}, {"fusion_lat": 0.0, "name": "5e3ecf21d7f419b272596307fc79c8f4", "is_disabled": 0, "rental_uris": {"android": "https://dc.lft.to/lastmile_qr_scan", "ios": "https://dc.lft.to/lastmile_qr_scan"}, "fusion_lon": 0.0, "lat": 38.885101166666665, "bike_id": "5e3ecf21d7f419b272596307fc79c8f4", "type": "electric_scooter", "is_reserved": 0, "lon": -77.0111485}, {"fusion_lat": 0.0, "name": "bef13cb80b2084444797fd1710170623", "is_disabled": 0, "rental_uris": {"android": "https://dc.lft.to/lastmile_qr_scan", "ios": "https://dc.lft.to/lastmile_qr_scan"}, "fusion_lon": 0.0, "lat": 38.922074, "bike_id": "bef13cb80b2084444797fd1710170623", "type": "electric_scooter", "is_reserved": 0, "lon": -77.03774816666666}, {"fusion_lat": 0.0, "name": "ba62de55fa70f7e577c486c71bcfb937", "is_disabled": 0, "rental_uris": {"android": "https://dc.lft.to/lastmile_qr_scan", "ios": "https://dc.lft.to/lastmile_qr_scan"}, "fusion_lon": 0.0, "lat": 38.9022365, "bike_id": "ba62de55fa70f7e577c486c71bcfb937", "type": "electric_scooter", "is_reserved": 0, "lon": -76.98608583333333}, {"fusion_lat": 0.0, "name": "24b8352ed6fc21705f036dc3fec99456", "is_disabled": 0, "rental_uris": {"android": "https://dc.lft.to/lastmile_qr_scan", "ios": "https://dc.lft.to/lastmile_qr_scan"}, "fusion_lon": 0.0, "lat": 38.93177583333333, "bike_id": "24b8352ed6fc21705f036dc3fec99456", "type": "electric_scooter", "is_reserved": 0, "lon": -77.03783266666667}, {"fusion_lat": 0.0, "name": "47abe40d004e5248b7c4331fd9b4c2e1", "is_disabled": 0, "rental_uris": {"android": "https://dc.lft.to/lastmile_qr_scan", "ios": "https://dc.lft.to/lastmile_qr_scan"}, "fusion_lon": 0.0, "lat": 38.909324, "bike_id": "47abe40d004e5248b7c4331fd9b4c2e1", "type": "electric_scooter", "is_reserved": 0, "lon": -77.064187}, {"fusion_lat": 0.0, "name": "9aab0c3e67a99320f0c33db97aa6f568", "is_disabled": 0, "rental_uris": {"android": "https://dc.lft.to/lastmile_qr_scan", "ios": "https://dc.lft.to/lastmile_qr_scan"}, "fusion_lon": 0.0, "lat": 38.939698, "bike_id": "9aab0c3e67a99320f0c33db97aa6f568", "type": "electric_scooter", "is_reserved": 0, "lon": -77.032802}, {"fusion_lat": 0.0, "name": "e556baa4db878d9523febf2441eb3aa4", "is_disabled": 0, "rental_uris": {"android": "https://dc.lft.to/lastmile_qr_scan", "ios": "https://dc.lft.to/lastmile_qr_scan"}, "fusion_lon": 0.0, "lat": 38.916844833333336, "bike_id": "e556baa4db878d9523febf2441eb3aa4", "type": "electric_scooter", "is_reserved": 0, "lon": -77.02376783333334}, {"fusion_lat": 0.0, "name": "e292b7b83c62f2f316259ebd1388b01a", "is_disabled": 0, "rental_uris": {"android": "https://dc.lft.to/lastmile_qr_scan", "ios": "https://dc.lft.to/lastmile_qr_scan"}, "fusion_lon": 0.0, "lat": 38.9290715, "bike_id": "e292b7b83c62f2f316259ebd1388b01a", "type": "electric_scooter", "is_reserved": 0, "lon": -77.02150516666667}, {"fusion_lat": 0.0, "name": "a9ebde9775da73227027668d1f5b56f7", "is_disabled": 0, "rental_uris": {"android": "https://dc.lft.to/lastmile_qr_scan", "ios": "https://dc.lft.to/lastmile_qr_scan"}, "fusion_lon": 0.0, "lat": 38.78262466666666, "bike_id": "a9ebde9775da73227027668d1f5b56f7", "type": "electric_bike", "is_reserved": 0, "lon": -77.0160975}, {"fusion_lat": 0.0, "name": "e1d091768052397090c28f03643ef0d3", "is_disabled": 0, "rental_uris": {"android": "https://dc.lft.to/lastmile_qr_scan", "ios": "https://dc.lft.to/lastmile_qr_scan"}, "fusion_lon": 0.0, "lat": 38.903629333333335, "bike_id": "e1d091768052397090c28f03643ef0d3", "type": "electric_scooter", "is_reserved": 0, "lon": -77.06267633333333}, {"fusion_lat": 0.0, "name": "3902a457f045d2dd4f7a216bdf5f5fd9", "is_disabled": 0, "rental_uris": {"android": "https://dc.lft.to/lastmile_qr_scan", "ios": "https://dc.lft.to/lastmile_qr_scan"}, "fusion_lon": 0.0, "lat": 38.9692925, "bike_id": "3902a457f045d2dd4f7a216bdf5f5fd9", "type": "electric_bike", "is_reserved": 0, "lon": -77.026167}, {"fusion_lat": 0.0, "name": "284ef1b1a01fbbaafb93d7e6b0a87ed7", "is_disabled": 0, "rental_uris": {"android": "https://dc.lft.to/lastmile_qr_scan", "ios": "https://dc.lft.to/lastmile_qr_scan"}, "fusion_lon": 0.0, "lat": 38.8765485, "bike_id": "284ef1b1a01fbbaafb93d7e6b0a87ed7", "type": "electric_scooter", "is_reserved": 0, "lon": -77.00745816666667}, {"fusion_lat": 0.0, "name": "771ce715339a7b02010ff409c3558b70", "is_disabled": 0, "rental_uris": {"android": "https://dc.lft.to/lastmile_qr_scan", "ios": "https://dc.lft.to/lastmile_qr_scan"}, "fusion_lon": 0.0, "lat": 38.90373116666667, "bike_id": "771ce715339a7b02010ff409c3558b70", "type": "electric_scooter", "is_reserved": 0, "lon": -77.033043}, {"fusion_lat": 0.0, "name": "433e5bdb65aaa79a0645b09ebae55a2a", "is_disabled": 0, "rental_uris": {"android": "https://dc.lft.to/lastmile_qr_scan", "ios": "https://dc.lft.to/lastmile_qr_scan"}, "fusion_lon": 0.0, "lat": 38.87694466666667, "bike_id": "433e5bdb65aaa79a0645b09ebae55a2a", "type": "electric_scooter", "is_reserved": 0, "lon": -77.0072175}, {"fusion_lat": 0.0, "name": "9fa88bc8b04762d1beed22e240a19c46", "is_disabled": 0, "rental_uris": {"android": "https://dc.lft.to/lastmile_qr_scan", "ios": "https://dc.lft.to/lastmile_qr_scan"}, "fusion_lon": 0.0, "lat": 38.86516866666667, "bike_id": "9fa88bc8b04762d1beed22e240a19c46", "type": "electric_bike", "is_reserved": 0, "lon": -76.97330583333333}, {"fusion_lat": 0.0, "name": "090066e5019b908729947776c46971ff", "is_disabled": 0, "rental_uris": {"android": "https://dc.lft.to/lastmile_qr_scan", "ios": "https://dc.lft.to/lastmile_qr_scan"}, "fusion_lon": 0.0, "lat": 38.92807766666667, "bike_id": "090066e5019b908729947776c46971ff", "type": "electric_scooter", "is_reserved": 0, "lon": -77.04361483333334}, {"fusion_lat": 0.0, "name": "d205850e597ee6795e56a1b64cbd4059", "is_disabled": 0, "rental_uris": {"android": "https://dc.lft.to/lastmile_qr_scan", "ios": "https://dc.lft.to/lastmile_qr_scan"}, "fusion_lon": 0.0, "lat": 38.8491555, "bike_id": "d205850e597ee6795e56a1b64cbd4059", "type": "electric_bike", "is_reserved": 0, "lon": -77.09977266666667}, {"fusion_lat": 0.0, "name": "356bc877a6ce4b01cf6d2226f4a7902d", "is_disabled": 0, "rental_uris": {"android": "https://dc.lft.to/lastmile_qr_scan", "ios": "https://dc.lft.to/lastmile_qr_scan"}, "fusion_lon": 0.0, "lat": 38.8972885, "bike_id": "356bc877a6ce4b01cf6d2226f4a7902d", "type": "electric_scooter", "is_reserved": 0, "lon": -76.94704616666667}, {"fusion_lat": 0.0, "name": "2695e4216970530b7e440ba75b91e747", "is_disabled": 0, "rental_uris": {"android": "https://dc.lft.to/lastmile_qr_scan", "ios": "https://dc.lft.to/lastmile_qr_scan"}, "fusion_lon": 0.0, "lat": 38.9085935, "bike_id": "2695e4216970530b7e440ba75b91e747", "type": "electric_scooter", "is_reserved": 0, "lon": -77.06392316666667}, {"fusion_lat": 0.0, "name": "2f720724f2b7ec7799572728d7841edc", "is_disabled": 0, "rental_uris": {"android": "https://dc.lft.to/lastmile_qr_scan", "ios": "https://dc.lft.to/lastmile_qr_scan"}, "fusion_lon": 0.0, "lat": 38.96071216666667, "bike_id": "2f720724f2b7ec7799572728d7841edc", "type": "electric_scooter", "is_reserved": 0, "lon": -77.00099866666666}, {"fusion_lat": 0.0, "name": "798d077ac0c2471b281d1197d0d7d9e9", "is_disabled": 0, "rental_uris": {"android": "https://dc.lft.to/lastmile_qr_scan", "ios": "https://dc.lft.to/lastmile_qr_scan"}, "fusion_lon": 0.0, "lat": 38.855623666666666, "bike_id": "798d077ac0c2471b281d1197d0d7d9e9", "type": "electric_bike", "is_reserved": 0, "lon": -77.113098}, {"fusion_lat": 0.0, "name": "3ca863e89bca7b64c56b9b79f552d15a", "is_disabled": 0, "rental_uris": {"android": "https://dc.lft.to/lastmile_qr_scan", "ios": "https://dc.lft.to/lastmile_qr_scan"}, "fusion_lon": 0.0, "lat": 38.894526666666664, "bike_id": "3ca863e89bca7b64c56b9b79f552d15a", "type": "electric_scooter", "is_reserved": 0, "lon": -77.04544866666667}, {"fusion_lat": 0.0, "name": "cf25bbe18adcf4f1b3b468fea5f4135d", "is_disabled": 0, "rental_uris": {"android": "https://dc.lft.to/lastmile_qr_scan", "ios": "https://dc.lft.to/lastmile_qr_scan"}, "fusion_lon": 0.0, "lat": 38.913233166666664, "bike_id": "cf25bbe18adcf4f1b3b468fea5f4135d", "type": "electric_scooter", "is_reserved": 0, "lon": -77.02135166666666}, {"fusion_lat": 0.0, "name": "6b71f39ac7be0790f4e47b5ae74c0d2e", "is_disabled": 0, "rental_uris": {"android": "https://dc.lft.to/lastmile_qr_scan", "ios": "https://dc.lft.to/lastmile_qr_scan"}, "fusion_lon": 0.0, "lat": 38.915587333333335, "bike_id": "6b71f39ac7be0790f4e47b5ae74c0d2e", "type": "electric_scooter", "is_reserved": 0, "lon": -77.03173466666667}, {"fusion_lat": 0.0, "name": "edf90a8d2783406cafbfcfd83ee1e78b", "is_disabled": 0, "rental_uris": {"android": "https://dc.lft.to/lastmile_qr_scan", "ios": "https://dc.lft.to/lastmile_qr_scan"}, "fusion_lon": 0.0, "lat": 38.92055416666667, "bike_id": "edf90a8d2783406cafbfcfd83ee1e78b", "type": "electric_scooter", "is_reserved": 0, "lon": -77.03464016666666}, {"fusion_lat": 0.0, "name": "ecdd309cf04b781c96cfc44cdf2097cd", "is_disabled": 0, "rental_uris": {"android": "https://dc.lft.to/lastmile_qr_scan", "ios": "https://dc.lft.to/lastmile_qr_scan"}, "fusion_lon": 0.0, "lat": 38.87967733333333, "bike_id": "ecdd309cf04b781c96cfc44cdf2097cd", "type": "electric_bike", "is_reserved": 0, "lon": -76.91620583333334}, {"fusion_lat": 0.0, "name": "1be9f2ff8982209a4964cc4e68b2bfc3", "is_disabled": 0, "rental_uris": {"android": "https://dc.lft.to/lastmile_qr_scan", "ios": "https://dc.lft.to/lastmile_qr_scan"}, "fusion_lon": 0.0, "lat": 38.918233666666666, "bike_id": "1be9f2ff8982209a4964cc4e68b2bfc3", "type": "electric_scooter", "is_reserved": 0, "lon": -77.03304033333333}, {"fusion_lat": 0.0, "name": "bd23d2dbe7747236e32c41cb34355dcc", "is_disabled": 0, "rental_uris": {"android": "https://dc.lft.to/lastmile_qr_scan", "ios": "https://dc.lft.to/lastmile_qr_scan"}, "fusion_lon": 0.0, "lat": 38.93883566666667, "bike_id": "bd23d2dbe7747236e32c41cb34355dcc", "type": "electric_scooter", "is_reserved": 0, "lon": -77.02460183333334}, {"fusion_lat": 0.0, "name": "0085c5f646670f67a02c0162e253b275", "is_disabled": 0, "rental_uris": {"android": "https://dc.lft.to/lastmile_qr_scan", "ios": "https://dc.lft.to/lastmile_qr_scan"}, "fusion_lon": 0.0, "lat": 38.89691, "bike_id": "0085c5f646670f67a02c0162e253b275", "type": "electric_scooter", "is_reserved": 0, "lon": -77.02145616666667}, {"fusion_lat": 0.0, "name": "cc72d3a1aeed2b0f1394a1cf61592efd", "is_disabled": 0, "rental_uris": {"android": "https://dc.lft.to/lastmile_qr_scan", "ios": "https://dc.lft.to/lastmile_qr_scan"}, "fusion_lon": 0.0, "lat": 38.92418166666667, "bike_id": "cc72d3a1aeed2b0f1394a1cf61592efd", "type": "electric_scooter", "is_reserved": 0, "lon": -77.01953966666666}, {"fusion_lat": 0.0, "name": "b1d5cb0ec1a8148ecdaac3c689b99579", "is_disabled": 0, "rental_uris": {"android": "https://dc.lft.to/lastmile_qr_scan", "ios": "https://dc.lft.to/lastmile_qr_scan"}, "fusion_lon": 0.0, "lat": 38.915004, "bike_id": "b1d5cb0ec1a8148ecdaac3c689b99579", "type": "electric_scooter", "is_reserved": 0, "lon": -77.03212683333334}, {"fusion_lat": 0.0, "name": "dc626d7298f5f927b9b2b69149a7a9ab", "is_disabled": 0, "rental_uris": {"android": "https://dc.lft.to/lastmile_qr_scan", "ios": "https://dc.lft.to/lastmile_qr_scan"}, "fusion_lon": 0.0, "lat": 38.90024233333333, "bike_id": "dc626d7298f5f927b9b2b69149a7a9ab", "type": "electric_scooter", "is_reserved": 0, "lon": -76.99450516666667}, {"fusion_lat": 0.0, "name": "7628f2adea89d10fdfca86418a79a94e", "is_disabled": 0, "rental_uris": {"android": "https://dc.lft.to/lastmile_qr_scan", "ios": "https://dc.lft.to/lastmile_qr_scan"}, "fusion_lon": 0.0, "lat": 38.91788916666667, "bike_id": "7628f2adea89d10fdfca86418a79a94e", "type": "electric_scooter", "is_reserved": 0, "lon": -77.0402805}, {"fusion_lat": 0.0, "name": "1a4b1a653b76153dcc04a8ee5cc96be1", "is_disabled": 0, "rental_uris": {"android": "https://dc.lft.to/lastmile_qr_scan", "ios": "https://dc.lft.to/lastmile_qr_scan"}, "fusion_lon": 0.0, "lat": 38.91661783333333, "bike_id": "1a4b1a653b76153dcc04a8ee5cc96be1", "type": "electric_scooter", "is_reserved": 0, "lon": -77.03850666666666}, {"fusion_lat": 0.0, "name": "558625be891d624ed0d004c3bff659bf", "is_disabled": 0, "rental_uris": {"android": "https://dc.lft.to/lastmile_qr_scan", "ios": "https://dc.lft.to/lastmile_qr_scan"}, "fusion_lon": 0.0, "lat": 38.92046583333333, "bike_id": "558625be891d624ed0d004c3bff659bf", "type": "electric_scooter", "is_reserved": 0, "lon": -76.99570283333334}, {"fusion_lat": 0.0, "name": "1a1f552dfa54713bb9fbcf3b7ad76a76", "is_disabled": 0, "rental_uris": {"android": "https://dc.lft.to/lastmile_qr_scan", "ios": "https://dc.lft.to/lastmile_qr_scan"}, "fusion_lon": 0.0, "lat": 38.88876783333333, "bike_id": "1a1f552dfa54713bb9fbcf3b7ad76a76", "type": "electric_scooter", "is_reserved": 0, "lon": -76.98454183333334}, {"fusion_lat": 0.0, "name": "d039483baae3ecdd91acc40012eca20e", "is_disabled": 0, "rental_uris": {"android": "https://dc.lft.to/lastmile_qr_scan", "ios": "https://dc.lft.to/lastmile_qr_scan"}, "fusion_lon": 0.0, "lat": 38.89485333333333, "bike_id": "d039483baae3ecdd91acc40012eca20e", "type": "electric_scooter", "is_reserved": 0, "lon": -76.99736916666667}, {"fusion_lat": 0.0, "name": "f6ccb83deb06eafbbf60802961fae115", "is_disabled": 0, "rental_uris": {"android": "https://dc.lft.to/lastmile_qr_scan", "ios": "https://dc.lft.to/lastmile_qr_scan"}, "fusion_lon": 0.0, "lat": 38.88259983333333, "bike_id": "f6ccb83deb06eafbbf60802961fae115", "type": "electric_scooter", "is_reserved": 0, "lon": -76.99033416666667}, {"fusion_lat": 0.0, "name": "9eb474631b5abe724ecbfdbbf75f2770", "is_disabled": 0, "rental_uris": {"android": "https://dc.lft.to/lastmile_qr_scan", "ios": "https://dc.lft.to/lastmile_qr_scan"}, "fusion_lon": 0.0, "lat": 38.90512233333333, "bike_id": "9eb474631b5abe724ecbfdbbf75f2770", "type": "electric_scooter", "is_reserved": 0, "lon": -77.017146}, {"fusion_lat": 0.0, "name": "2852e78b4103900f40f1ac70710278ec", "is_disabled": 0, "rental_uris": {"android": "https://dc.lft.to/lastmile_qr_scan", "ios": "https://dc.lft.to/lastmile_qr_scan"}, "fusion_lon": 0.0, "lat": 38.884228666666665, "bike_id": "2852e78b4103900f40f1ac70710278ec", "type": "electric_scooter", "is_reserved": 0, "lon": -77.0256495}, {"fusion_lat": 0.0, "name": "2909ae2a449332f95e3a0378904c9c5a", "is_disabled": 0, "rental_uris": {"android": "https://dc.lft.to/lastmile_qr_scan", "ios": "https://dc.lft.to/lastmile_qr_scan"}, "fusion_lon": 0.0, "lat": 38.87710783333333, "bike_id": "2909ae2a449332f95e3a0378904c9c5a", "type": "electric_scooter", "is_reserved": 0, "lon": -76.9938585}, {"fusion_lat": 0.0, "name": "bcfdc051af643b05146131853fb2a496", "is_disabled": 0, "rental_uris": {"android": "https://dc.lft.to/lastmile_qr_scan", "ios": "https://dc.lft.to/lastmile_qr_scan"}, "fusion_lon": 0.0, "lat": 38.886139166666666, "bike_id": "bcfdc051af643b05146131853fb2a496", "type": "electric_scooter", "is_reserved": 0, "lon": -77.01554816666666}, {"fusion_lat": 0.0, "name": "e36ff5b8d0f4159be4c8b4bb4474c688", "is_disabled": 0, "rental_uris": {"android": "https://dc.lft.to/lastmile_qr_scan", "ios": "https://dc.lft.to/lastmile_qr_scan"}, "fusion_lon": 0.0, "lat": 38.927671, "bike_id": "e36ff5b8d0f4159be4c8b4bb4474c688", "type": "electric_scooter", "is_reserved": 0, "lon": -77.03640583333333}, {"fusion_lat": 0.0, "name": "4800538a8263a52cb73deb12b94df493", "is_disabled": 0, "rental_uris": {"android": "https://dc.lft.to/lastmile_qr_scan", "ios": "https://dc.lft.to/lastmile_qr_scan"}, "fusion_lon": 0.0, "lat": 38.89223633333334, "bike_id": "4800538a8263a52cb73deb12b94df493", "type": "electric_scooter", "is_reserved": 0, "lon": -77.03341766666667}, {"fusion_lat": 0.0, "name": "875e8cc68cf0ac66e64f22a96ce87d99", "is_disabled": 0, "rental_uris": {"android": "https://dc.lft.to/lastmile_qr_scan", "ios": "https://dc.lft.to/lastmile_qr_scan"}, "fusion_lon": 0.0, "lat": 38.8922845, "bike_id": "875e8cc68cf0ac66e64f22a96ce87d99", "type": "electric_scooter", "is_reserved": 0, "lon": -77.03336833333333}, {"fusion_lat": 0.0, "name": "43ba4b6e19fa729f0d8091bece790e9a", "is_disabled": 0, "rental_uris": {"android": "https://dc.lft.to/lastmile_qr_scan", "ios": "https://dc.lft.to/lastmile_qr_scan"}, "fusion_lon": 0.0, "lat": 38.89821166666667, "bike_id": "43ba4b6e19fa729f0d8091bece790e9a", "type": "electric_scooter", "is_reserved": 0, "lon": -77.0271615}, {"fusion_lat": 0.0, "name": "19396c5167ff25cafe456f1dba2e5602", "is_disabled": 0, "rental_uris": {"android": "https://dc.lft.to/lastmile_qr_scan", "ios": "https://dc.lft.to/lastmile_qr_scan"}, "fusion_lon": 0.0, "lat": 38.8987405, "bike_id": "19396c5167ff25cafe456f1dba2e5602", "type": "electric_scooter", "is_reserved": 0, "lon": -76.93186866666667}, {"fusion_lat": 0.0, "name": "bf1d9ab4432c5eec1559eeb19f9dc546", "is_disabled": 0, "rental_uris": {"android": "https://dc.lft.to/lastmile_qr_scan", "ios": "https://dc.lft.to/lastmile_qr_scan"}, "fusion_lon": 0.0, "lat": 38.91127266666667, "bike_id": "bf1d9ab4432c5eec1559eeb19f9dc546", "type": "electric_scooter", "is_reserved": 0, "lon": -77.04350333333333}, {"fusion_lat": 0.0, "name": "4b3a26ecccbc1912608259043dd14952", "is_disabled": 0, "rental_uris": {"android": "https://dc.lft.to/lastmile_qr_scan", "ios": "https://dc.lft.to/lastmile_qr_scan"}, "fusion_lon": 0.0, "lat": 38.902638833333334, "bike_id": "4b3a26ecccbc1912608259043dd14952", "type": "electric_scooter", "is_reserved": 0, "lon": -77.03970316666667}, {"fusion_lat": 0.0, "name": "341847cec97b7853a5d9f314352cb546", "is_disabled": 0, "rental_uris": {"android": "https://dc.lft.to/lastmile_qr_scan", "ios": "https://dc.lft.to/lastmile_qr_scan"}, "fusion_lon": 0.0, "lat": 38.8870465, "bike_id": "341847cec97b7853a5d9f314352cb546", "type": "electric_scooter", "is_reserved": 0, "lon": -76.99610933333334}, {"fusion_lat": 0.0, "name": "af06444ebff93e69797934d7c446eb45", "is_disabled": 0, "rental_uris": {"android": "https://dc.lft.to/lastmile_qr_scan", "ios": "https://dc.lft.to/lastmile_qr_scan"}, "fusion_lon": 0.0, "lat": 38.81937216666667, "bike_id": "af06444ebff93e69797934d7c446eb45", "type": "electric_bike", "is_reserved": 0, "lon": -77.00201116666666}, {"fusion_lat": 0.0, "name": "f6a85728e491977de39e1f48987d16d0", "is_disabled": 0, "rental_uris": {"android": "https://dc.lft.to/lastmile_qr_scan", "ios": "https://dc.lft.to/lastmile_qr_scan"}, "fusion_lon": 0.0, "lat": 38.907238, "bike_id": "f6a85728e491977de39e1f48987d16d0", "type": "electric_scooter", "is_reserved": 0, "lon": -77.02544066666667}, {"fusion_lat": 0.0, "name": "23e946dd3af0817399db775858ae21b2", "is_disabled": 0, "rental_uris": {"android": "https://dc.lft.to/lastmile_qr_scan", "ios": "https://dc.lft.to/lastmile_qr_scan"}, "fusion_lon": 0.0, "lat": 38.95265, "bike_id": "23e946dd3af0817399db775858ae21b2", "type": "electric_bike", "is_reserved": 0, "lon": -76.99953566666667}, {"fusion_lat": 0.0, "name": "9d0654cbc53e3cdbc55fa6c12c7fcce3", "is_disabled": 0, "rental_uris": {"android": "https://dc.lft.to/lastmile_qr_scan", "ios": "https://dc.lft.to/lastmile_qr_scan"}, "fusion_lon": 0.0, "lat": 38.93154933333334, "bike_id": "9d0654cbc53e3cdbc55fa6c12c7fcce3", "type": "electric_scooter", "is_reserved": 0, "lon": -77.03968983333333}, {"fusion_lat": 0.0, "name": "f9c776d5d093ef621f5f061d81aeb546", "is_disabled": 0, "rental_uris": {"android": "https://dc.lft.to/lastmile_qr_scan", "ios": "https://dc.lft.to/lastmile_qr_scan"}, "fusion_lon": 0.0, "lat": 38.91385983333333, "bike_id": "f9c776d5d093ef621f5f061d81aeb546", "type": "electric_scooter", "is_reserved": 0, "lon": -77.032164}, {"fusion_lat": 0.0, "name": "b01bce0be16b8dfcd167efcb8032f320", "is_disabled": 0, "rental_uris": {"android": "https://dc.lft.to/lastmile_qr_scan", "ios": "https://dc.lft.to/lastmile_qr_scan"}, "fusion_lon": 0.0, "lat": 38.916110833333335, "bike_id": "b01bce0be16b8dfcd167efcb8032f320", "type": "electric_scooter", "is_reserved": 0, "lon": -77.02303816666667}, {"fusion_lat": 0.0, "name": "ea91a68ad8509296522c20748bc05487", "is_disabled": 0, "rental_uris": {"android": "https://dc.lft.to/lastmile_qr_scan", "ios": "https://dc.lft.to/lastmile_qr_scan"}, "fusion_lon": 0.0, "lat": 38.906486666666666, "bike_id": "ea91a68ad8509296522c20748bc05487", "type": "electric_scooter", "is_reserved": 0, "lon": -77.00655983333333}, {"fusion_lat": 0.0, "name": "890efd4fb1f517895c8e32a1f52a4f82", "is_disabled": 0, "rental_uris": {"android": "https://dc.lft.to/lastmile_qr_scan", "ios": "https://dc.lft.to/lastmile_qr_scan"}, "fusion_lon": 0.0, "lat": 38.905330666666664, "bike_id": "890efd4fb1f517895c8e32a1f52a4f82", "type": "electric_scooter", "is_reserved": 0, "lon": -77.05879916666666}, {"fusion_lat": 0.0, "name": "fa8ab353e58ca521572c52d69cf44f73", "is_disabled": 0, "rental_uris": {"android": "https://dc.lft.to/lastmile_qr_scan", "ios": "https://dc.lft.to/lastmile_qr_scan"}, "fusion_lon": 0.0, "lat": 38.966716, "bike_id": "fa8ab353e58ca521572c52d69cf44f73", "type": "electric_scooter", "is_reserved": 0, "lon": -77.02551633333333}, {"fusion_lat": 0.0, "name": "728ee639210219f91a36273375a083d0", "is_disabled": 0, "rental_uris": {"android": "https://dc.lft.to/lastmile_qr_scan", "ios": "https://dc.lft.to/lastmile_qr_scan"}, "fusion_lon": 0.0, "lat": 38.9130255, "bike_id": "728ee639210219f91a36273375a083d0", "type": "electric_scooter", "is_reserved": 0, "lon": -77.03648333333334}, {"fusion_lat": 0.0, "name": "2733566eafe0a48900aa97e854c78080", "is_disabled": 0, "rental_uris": {"android": "https://dc.lft.to/lastmile_qr_scan", "ios": "https://dc.lft.to/lastmile_qr_scan"}, "fusion_lon": 0.0, "lat": 38.900665333333336, "bike_id": "2733566eafe0a48900aa97e854c78080", "type": "electric_scooter", "is_reserved": 0, "lon": -77.05683}, {"fusion_lat": 0.0, "name": "ca7007937ff55f899f5fda4c4a8f2f45", "is_disabled": 0, "rental_uris": {"android": "https://dc.lft.to/lastmile_qr_scan", "ios": "https://dc.lft.to/lastmile_qr_scan"}, "fusion_lon": 0.0, "lat": 38.881449, "bike_id": "ca7007937ff55f899f5fda4c4a8f2f45", "type": "electric_scooter", "is_reserved": 0, "lon": -76.994979}, {"fusion_lat": 0.0, "name": "da3af31305c9c7a2be675ab2135b0543", "is_disabled": 0, "rental_uris": {"android": "https://dc.lft.to/lastmile_qr_scan", "ios": "https://dc.lft.to/lastmile_qr_scan"}, "fusion_lon": 0.0, "lat": 38.89679133333333, "bike_id": "da3af31305c9c7a2be675ab2135b0543", "type": "electric_scooter", "is_reserved": 0, "lon": -77.00548266666667}, {"fusion_lat": 0.0, "name": "58d0ce2341338a0b7e8863a67527daab", "is_disabled": 0, "rental_uris": {"android": "https://dc.lft.to/lastmile_qr_scan", "ios": "https://dc.lft.to/lastmile_qr_scan"}, "fusion_lon": 0.0, "lat": 38.886096333333334, "bike_id": "58d0ce2341338a0b7e8863a67527daab", "type": "electric_scooter", "is_reserved": 0, "lon": -77.0034095}, {"fusion_lat": 0.0, "name": "a046b0f08a7e4647e953451e85291a19", "is_disabled": 0, "rental_uris": {"android": "https://dc.lft.to/lastmile_qr_scan", "ios": "https://dc.lft.to/lastmile_qr_scan"}, "fusion_lon": 0.0, "lat": 38.91407066666667, "bike_id": "a046b0f08a7e4647e953451e85291a19", "type": "electric_scooter", "is_reserved": 0, "lon": -77.04098366666666}, {"fusion_lat": 0.0, "name": "40f9b2abe7818278da79446c4271721e", "is_disabled": 0, "rental_uris": {"android": "https://dc.lft.to/lastmile_qr_scan", "ios": "https://dc.lft.to/lastmile_qr_scan"}, "fusion_lon": 0.0, "lat": 38.896234166666666, "bike_id": "40f9b2abe7818278da79446c4271721e", "type": "electric_scooter", "is_reserved": 0, "lon": -77.02278766666667}, {"fusion_lat": 0.0, "name": "57003c57421e46b0978b34c1fbe08f50", "is_disabled": 0, "rental_uris": {"android": "https://dc.lft.to/lastmile_qr_scan", "ios": "https://dc.lft.to/lastmile_qr_scan"}, "fusion_lon": 0.0, "lat": 38.91109816666667, "bike_id": "57003c57421e46b0978b34c1fbe08f50", "type": "electric_scooter", "is_reserved": 0, "lon": -77.01001266666667}, {"fusion_lat": 0.0, "name": "bf43d858ec369bc314c74d6f9b120698", "is_disabled": 0, "rental_uris": {"android": "https://dc.lft.to/lastmile_qr_scan", "ios": "https://dc.lft.to/lastmile_qr_scan"}, "fusion_lon": 0.0, "lat": 38.88775616666667, "bike_id": "bf43d858ec369bc314c74d6f9b120698", "type": "electric_bike", "is_reserved": 0, "lon": -77.01832183333333}, {"fusion_lat": 0.0, "name": "7f893b9a2f4c0556b86a6eac7849248e", "is_disabled": 0, "rental_uris": {"android": "https://dc.lft.to/lastmile_qr_scan", "ios": "https://dc.lft.to/lastmile_qr_scan"}, "fusion_lon": 0.0, "lat": 38.922875833333336, "bike_id": "7f893b9a2f4c0556b86a6eac7849248e", "type": "electric_scooter", "is_reserved": 0, "lon": -77.02243216666666}, {"fusion_lat": 0.0, "name": "a9c4bd5524d594a6b4b563244ed34f11", "is_disabled": 0, "rental_uris": {"android": "https://dc.lft.to/lastmile_qr_scan", "ios": "https://dc.lft.to/lastmile_qr_scan"}, "fusion_lon": 0.0, "lat": 38.90726166666666, "bike_id": "a9c4bd5524d594a6b4b563244ed34f11", "type": "electric_scooter", "is_reserved": 0, "lon": -77.0477525}, {"fusion_lat": 0.0, "name": "ad0e0097520ae09c9462ca75f8d40c10", "is_disabled": 0, "rental_uris": {"android": "https://dc.lft.to/lastmile_qr_scan", "ios": "https://dc.lft.to/lastmile_qr_scan"}, "fusion_lon": 0.0, "lat": 38.9398255, "bike_id": "ad0e0097520ae09c9462ca75f8d40c10", "type": "electric_scooter", "is_reserved": 0, "lon": -77.02871666666667}, {"fusion_lat": 0.0, "name": "4fec0fd38d935f2193152b8247b39ea3", "is_disabled": 0, "rental_uris": {"android": "https://dc.lft.to/lastmile_qr_scan", "ios": "https://dc.lft.to/lastmile_qr_scan"}, "fusion_lon": 0.0, "lat": 38.8902365, "bike_id": "4fec0fd38d935f2193152b8247b39ea3", "type": "electric_scooter", "is_reserved": 0, "lon": -76.937385}, {"fusion_lat": 0.0, "name": "e3623333fc747bc04c49478a63652d14", "is_disabled": 0, "rental_uris": {"android": "https://dc.lft.to/lastmile_qr_scan", "ios": "https://dc.lft.to/lastmile_qr_scan"}, "fusion_lon": 0.0, "lat": 38.88728716666667, "bike_id": "e3623333fc747bc04c49478a63652d14", "type": "electric_scooter", "is_reserved": 0, "lon": -77.02212866666666}, {"fusion_lat": 0.0, "name": "5055b625e2e3249725314440138277fe", "is_disabled": 0, "rental_uris": {"android": "https://dc.lft.to/lastmile_qr_scan", "ios": "https://dc.lft.to/lastmile_qr_scan"}, "fusion_lon": 0.0, "lat": 38.908530166666665, "bike_id": "5055b625e2e3249725314440138277fe", "type": "electric_scooter", "is_reserved": 0, "lon": -77.00097983333333}, {"fusion_lat": 0.0, "name": "1a9caec2713b872bad14463721ba9f45", "is_disabled": 0, "rental_uris": {"android": "https://dc.lft.to/lastmile_qr_scan", "ios": "https://dc.lft.to/lastmile_qr_scan"}, "fusion_lon": 0.0, "lat": 38.89728483333333, "bike_id": "1a9caec2713b872bad14463721ba9f45", "type": "electric_scooter", "is_reserved": 0, "lon": -77.0276695}, {"fusion_lat": 0.0, "name": "d4cc58806467a08a4bdb486acb3549f5", "is_disabled": 0, "rental_uris": {"android": "https://dc.lft.to/lastmile_qr_scan", "ios": "https://dc.lft.to/lastmile_qr_scan"}, "fusion_lon": 0.0, "lat": 38.896050833333334, "bike_id": "d4cc58806467a08a4bdb486acb3549f5", "type": "electric_scooter", "is_reserved": 0, "lon": -76.98108316666666}, {"fusion_lat": 0.0, "name": "9a605a4a3c58497b630ba6bb3627434a", "is_disabled": 0, "rental_uris": {"android": "https://dc.lft.to/lastmile_qr_scan", "ios": "https://dc.lft.to/lastmile_qr_scan"}, "fusion_lon": 0.0, "lat": 38.91414916666667, "bike_id": "9a605a4a3c58497b630ba6bb3627434a", "type": "electric_scooter", "is_reserved": 0, "lon": -77.0344105}, {"fusion_lat": 0.0, "name": "dda6e1fc093a900f42847d888743df9e", "is_disabled": 0, "rental_uris": {"android": "https://dc.lft.to/lastmile_qr_scan", "ios": "https://dc.lft.to/lastmile_qr_scan"}, "fusion_lon": 0.0, "lat": 38.979826333333335, "bike_id": "dda6e1fc093a900f42847d888743df9e", "type": "electric_scooter", "is_reserved": 0, "lon": -77.026337}, {"fusion_lat": 0.0, "name": "f7c8fe54769face821d52898efafce31", "is_disabled": 0, "rental_uris": {"android": "https://dc.lft.to/lastmile_qr_scan", "ios": "https://dc.lft.to/lastmile_qr_scan"}, "fusion_lon": 0.0, "lat": 38.937833499999996, "bike_id": "f7c8fe54769face821d52898efafce31", "type": "electric_scooter", "is_reserved": 0, "lon": -77.02330833333333}, {"fusion_lat": 0.0, "name": "20d7c5ede0494e52d405a1d11524c104", "is_disabled": 0, "rental_uris": {"android": "https://dc.lft.to/lastmile_qr_scan", "ios": "https://dc.lft.to/lastmile_qr_scan"}, "fusion_lon": 0.0, "lat": 38.894682, "bike_id": "20d7c5ede0494e52d405a1d11524c104", "type": "electric_scooter", "is_reserved": 0, "lon": -77.010399}, {"fusion_lat": 0.0, "name": "f422937a2799593d3297d1648e65af7c", "is_disabled": 0, "rental_uris": {"android": "https://dc.lft.to/lastmile_qr_scan", "ios": "https://dc.lft.to/lastmile_qr_scan"}, "fusion_lon": 0.0, "lat": 38.92895933333333, "bike_id": "f422937a2799593d3297d1648e65af7c", "type": "electric_scooter", "is_reserved": 0, "lon": -77.03742533333333}, {"fusion_lat": 0.0, "name": "fed4df204b9cc223395abe90d7e62251", "is_disabled": 0, "rental_uris": {"android": "https://dc.lft.to/lastmile_qr_scan", "ios": "https://dc.lft.to/lastmile_qr_scan"}, "fusion_lon": 0.0, "lat": 38.9352585, "bike_id": "fed4df204b9cc223395abe90d7e62251", "type": "electric_scooter", "is_reserved": 0, "lon": -77.030843}, {"fusion_lat": 0.0, "name": "e14937a1c5f98a0c8dd8bd1ebddb06ba", "is_disabled": 0, "rental_uris": {"android": "https://dc.lft.to/lastmile_qr_scan", "ios": "https://dc.lft.to/lastmile_qr_scan"}, "fusion_lon": 0.0, "lat": 38.907714, "bike_id": "e14937a1c5f98a0c8dd8bd1ebddb06ba", "type": "electric_scooter", "is_reserved": 0, "lon": -77.03472733333334}, {"fusion_lat": 0.0, "name": "465079d302de3600a27659a9b232cb44", "is_disabled": 0, "rental_uris": {"android": "https://dc.lft.to/lastmile_qr_scan", "ios": "https://dc.lft.to/lastmile_qr_scan"}, "fusion_lon": 0.0, "lat": 38.922753166666666, "bike_id": "465079d302de3600a27659a9b232cb44", "type": "electric_scooter", "is_reserved": 0, "lon": -77.042474}, {"fusion_lat": 0.0, "name": "88b8996060991132a82c475600723241", "is_disabled": 0, "rental_uris": {"android": "https://dc.lft.to/lastmile_qr_scan", "ios": "https://dc.lft.to/lastmile_qr_scan"}, "fusion_lon": 0.0, "lat": 38.91057683333333, "bike_id": "88b8996060991132a82c475600723241", "type": "electric_scooter", "is_reserved": 0, "lon": -77.022013}, {"fusion_lat": 0.0, "name": "5429b538c4b47cee0226803e8f9c0107", "is_disabled": 0, "rental_uris": {"android": "https://dc.lft.to/lastmile_qr_scan", "ios": "https://dc.lft.to/lastmile_qr_scan"}, "fusion_lon": 0.0, "lat": 38.91873483333333, "bike_id": "5429b538c4b47cee0226803e8f9c0107", "type": "electric_scooter", "is_reserved": 0, "lon": -77.02597933333334}, {"fusion_lat": 0.0, "name": "ca518a75399eceb9588e4f9da811b106", "is_disabled": 0, "rental_uris": {"android": "https://dc.lft.to/lastmile_qr_scan", "ios": "https://dc.lft.to/lastmile_qr_scan"}, "fusion_lon": 0.0, "lat": 38.905822666666666, "bike_id": "ca518a75399eceb9588e4f9da811b106", "type": "electric_scooter", "is_reserved": 0, "lon": -77.040792}, {"fusion_lat": 0.0, "name": "7385ad6753c39e1bdd5005402b91ed5b", "is_disabled": 0, "rental_uris": {"android": "https://dc.lft.to/lastmile_qr_scan", "ios": "https://dc.lft.to/lastmile_qr_scan"}, "fusion_lon": 0.0, "lat": 38.9057355, "bike_id": "7385ad6753c39e1bdd5005402b91ed5b", "type": "electric_scooter", "is_reserved": 0, "lon": -77.006087}, {"fusion_lat": 0.0, "name": "1b33df18605c630af2254463f9bb913d", "is_disabled": 0, "rental_uris": {"android": "https://dc.lft.to/lastmile_qr_scan", "ios": "https://dc.lft.to/lastmile_qr_scan"}, "fusion_lon": 0.0, "lat": 38.9030555, "bike_id": "1b33df18605c630af2254463f9bb913d", "type": "electric_scooter", "is_reserved": 0, "lon": -76.976537}, {"fusion_lat": 0.0, "name": "89adb02663d6307984c9f1cbb0d075a6", "is_disabled": 0, "rental_uris": {"android": "https://dc.lft.to/lastmile_qr_scan", "ios": "https://dc.lft.to/lastmile_qr_scan"}, "fusion_lon": 0.0, "lat": 38.994438, "bike_id": "89adb02663d6307984c9f1cbb0d075a6", "type": "electric_bike", "is_reserved": 0, "lon": -76.99585516666667}, {"fusion_lat": 0.0, "name": "1db55c5165070f9db43691fd7696c228", "is_disabled": 0, "rental_uris": {"android": "https://dc.lft.to/lastmile_qr_scan", "ios": "https://dc.lft.to/lastmile_qr_scan"}, "fusion_lon": 0.0, "lat": 38.94057383333333, "bike_id": "1db55c5165070f9db43691fd7696c228", "type": "electric_bike", "is_reserved": 0, "lon": -76.90417983333333}, {"fusion_lat": 0.0, "name": "3d2e1ba46f85bfcc00d29361acd2daa1", "is_disabled": 0, "rental_uris": {"android": "https://dc.lft.to/lastmile_qr_scan", "ios": "https://dc.lft.to/lastmile_qr_scan"}, "fusion_lon": 0.0, "lat": 38.916741333333334, "bike_id": "3d2e1ba46f85bfcc00d29361acd2daa1", "type": "electric_scooter", "is_reserved": 0, "lon": -77.04184983333333}, {"fusion_lat": 0.0, "name": "404f7a0cea3930bb6fa6b35fbe5cefeb", "is_disabled": 0, "rental_uris": {"android": "https://dc.lft.to/lastmile_qr_scan", "ios": "https://dc.lft.to/lastmile_qr_scan"}, "fusion_lon": 0.0, "lat": 38.90118066666667, "bike_id": "404f7a0cea3930bb6fa6b35fbe5cefeb", "type": "electric_scooter", "is_reserved": 0, "lon": -77.01698133333333}, {"fusion_lat": 0.0, "name": "f69f920ef6fb35a20731dc4f0424ed8b", "is_disabled": 0, "rental_uris": {"android": "https://dc.lft.to/lastmile_qr_scan", "ios": "https://dc.lft.to/lastmile_qr_scan"}, "fusion_lon": 0.0, "lat": 38.917078333333336, "bike_id": "f69f920ef6fb35a20731dc4f0424ed8b", "type": "electric_scooter", "is_reserved": 0, "lon": -77.03467916666666}, {"fusion_lat": 0.0, "name": "2235c79a75b97910b731433065397b32", "is_disabled": 0, "rental_uris": {"android": "https://dc.lft.to/lastmile_qr_scan", "ios": "https://dc.lft.to/lastmile_qr_scan"}, "fusion_lon": 0.0, "lat": 38.9269125, "bike_id": "2235c79a75b97910b731433065397b32", "type": "electric_scooter", "is_reserved": 0, "lon": -77.007721}, {"fusion_lat": 0.0, "name": "2704b6ecfc37c8187402a5a2941b44f9", "is_disabled": 0, "rental_uris": {"android": "https://dc.lft.to/lastmile_qr_scan", "ios": "https://dc.lft.to/lastmile_qr_scan"}, "fusion_lon": 0.0, "lat": 38.8428435, "bike_id": "2704b6ecfc37c8187402a5a2941b44f9", "type": "electric_bike", "is_reserved": 0, "lon": -77.04494066666666}, {"fusion_lat": 0.0, "name": "c79565ea69c98f59e5dffd2fd14b1eed", "is_disabled": 0, "rental_uris": {"android": "https://dc.lft.to/lastmile_qr_scan", "ios": "https://dc.lft.to/lastmile_qr_scan"}, "fusion_lon": 0.0, "lat": 38.929523833333334, "bike_id": "c79565ea69c98f59e5dffd2fd14b1eed", "type": "electric_scooter", "is_reserved": 0, "lon": -77.03465266666667}, {"fusion_lat": 0.0, "name": "e77ca42d9aca9363b861162eb32e5380", "is_disabled": 0, "rental_uris": {"android": "https://dc.lft.to/lastmile_qr_scan", "ios": "https://dc.lft.to/lastmile_qr_scan"}, "fusion_lon": 0.0, "lat": 38.8956655, "bike_id": "e77ca42d9aca9363b861162eb32e5380", "type": "electric_bike", "is_reserved": 0, "lon": -77.12735633333334}, {"fusion_lat": 0.0, "name": "d1628ba365d3fc8621e5456132210a48", "is_disabled": 0, "rental_uris": {"android": "https://dc.lft.to/lastmile_qr_scan", "ios": "https://dc.lft.to/lastmile_qr_scan"}, "fusion_lon": 0.0, "lat": 38.911341, "bike_id": "d1628ba365d3fc8621e5456132210a48", "type": "electric_scooter", "is_reserved": 0, "lon": -77.010504}, {"fusion_lat": 0.0, "name": "5f4ea9c2ac0db43b56e9294d1b4014bb", "is_disabled": 0, "rental_uris": {"android": "https://dc.lft.to/lastmile_qr_scan", "ios": "https://dc.lft.to/lastmile_qr_scan"}, "fusion_lon": 0.0, "lat": 38.853126833333334, "bike_id": "5f4ea9c2ac0db43b56e9294d1b4014bb", "type": "electric_bike", "is_reserved": 0, "lon": -77.04599133333333}, {"fusion_lat": 0.0, "name": "29c6e3dec842782ddbf03a40d5eac208", "is_disabled": 0, "rental_uris": {"android": "https://dc.lft.to/lastmile_qr_scan", "ios": "https://dc.lft.to/lastmile_qr_scan"}, "fusion_lon": 0.0, "lat": 38.86627166666667, "bike_id": "29c6e3dec842782ddbf03a40d5eac208", "type": "electric_scooter", "is_reserved": 0, "lon": -76.987151}, {"fusion_lat": 0.0, "name": "35b2ea99f01d1b62b5053bab77f36bb2", "is_disabled": 0, "rental_uris": {"android": "https://dc.lft.to/lastmile_qr_scan", "ios": "https://dc.lft.to/lastmile_qr_scan"}, "fusion_lon": 0.0, "lat": 38.9511495, "bike_id": "35b2ea99f01d1b62b5053bab77f36bb2", "type": "electric_scooter", "is_reserved": 0, "lon": -77.05861233333333}, {"fusion_lat": 0.0, "name": "2de43e392a43c9f26aa6d61585db29ca", "is_disabled": 0, "rental_uris": {"android": "https://dc.lft.to/lastmile_qr_scan", "ios": "https://dc.lft.to/lastmile_qr_scan"}, "fusion_lon": 0.0, "lat": 38.954734333333334, "bike_id": "2de43e392a43c9f26aa6d61585db29ca", "type": "electric_scooter", "is_reserved": 0, "lon": -77.0777685}, {"fusion_lat": 0.0, "name": "e69d5bbdde7593d7cceee03387f0e5d2", "is_disabled": 0, "rental_uris": {"android": "https://dc.lft.to/lastmile_qr_scan", "ios": "https://dc.lft.to/lastmile_qr_scan"}, "fusion_lon": 0.0, "lat": 38.915035333333336, "bike_id": "e69d5bbdde7593d7cceee03387f0e5d2", "type": "electric_scooter", "is_reserved": 0, "lon": -77.03273216666666}, {"fusion_lat": 0.0, "name": "b027357d34e39a59e55ef7459ad75472", "is_disabled": 0, "rental_uris": {"android": "https://dc.lft.to/lastmile_qr_scan", "ios": "https://dc.lft.to/lastmile_qr_scan"}, "fusion_lon": 0.0, "lat": 38.91706633333333, "bike_id": "b027357d34e39a59e55ef7459ad75472", "type": "electric_scooter", "is_reserved": 0, "lon": -77.03711366666667}, {"fusion_lat": 0.0, "name": "e40bce97a204a50fe57422b464153650", "is_disabled": 0, "rental_uris": {"android": "https://dc.lft.to/lastmile_qr_scan", "ios": "https://dc.lft.to/lastmile_qr_scan"}, "fusion_lon": 0.0, "lat": 38.90529183333334, "bike_id": "e40bce97a204a50fe57422b464153650", "type": "electric_bike", "is_reserved": 0, "lon": -76.99806133333334}, {"fusion_lat": 0.0, "name": "d859a592971ca1425e22af31b3910633", "is_disabled": 0, "rental_uris": {"android": "https://dc.lft.to/lastmile_qr_scan", "ios": "https://dc.lft.to/lastmile_qr_scan"}, "fusion_lon": 0.0, "lat": 38.9086335, "bike_id": "d859a592971ca1425e22af31b3910633", "type": "electric_scooter", "is_reserved": 0, "lon": -77.027209}, {"fusion_lat": 0.0, "name": "f6a11fe352a92651d75a99d7424b1c6c", "is_disabled": 0, "rental_uris": {"android": "https://dc.lft.to/lastmile_qr_scan", "ios": "https://dc.lft.to/lastmile_qr_scan"}, "fusion_lon": 0.0, "lat": 38.907703, "bike_id": "f6a11fe352a92651d75a99d7424b1c6c", "type": "electric_scooter", "is_reserved": 0, "lon": -77.05013016666666}, {"fusion_lat": 0.0, "name": "f20ab9909ca81195b295f85e0807d7bc", "is_disabled": 0, "rental_uris": {"android": "https://dc.lft.to/lastmile_qr_scan", "ios": "https://dc.lft.to/lastmile_qr_scan"}, "fusion_lon": 0.0, "lat": 38.898758666666666, "bike_id": "f20ab9909ca81195b295f85e0807d7bc", "type": "electric_scooter", "is_reserved": 0, "lon": -76.931838}, {"fusion_lat": 0.0, "name": "8237b98f10c3fa95873ba6fa39ad5621", "is_disabled": 0, "rental_uris": {"android": "https://dc.lft.to/lastmile_qr_scan", "ios": "https://dc.lft.to/lastmile_qr_scan"}, "fusion_lon": 0.0, "lat": 38.905243166666665, "bike_id": "8237b98f10c3fa95873ba6fa39ad5621", "type": "electric_scooter", "is_reserved": 0, "lon": -77.05938}, {"fusion_lat": 0.0, "name": "54f73661ab38a7a779930909de2a4811", "is_disabled": 0, "rental_uris": {"android": "https://dc.lft.to/lastmile_qr_scan", "ios": "https://dc.lft.to/lastmile_qr_scan"}, "fusion_lon": 0.0, "lat": 39.05254166666667, "bike_id": "54f73661ab38a7a779930909de2a4811", "type": "electric_bike", "is_reserved": 0, "lon": -77.0806675}, {"fusion_lat": 0.0, "name": "33dde46bba1e427dd2c45cf1346d8b2a", "is_disabled": 0, "rental_uris": {"android": "https://dc.lft.to/lastmile_qr_scan", "ios": "https://dc.lft.to/lastmile_qr_scan"}, "fusion_lon": 0.0, "lat": 38.935190666666664, "bike_id": "33dde46bba1e427dd2c45cf1346d8b2a", "type": "electric_scooter", "is_reserved": 0, "lon": -77.07259833333333}, {"fusion_lat": 0.0, "name": "a9d7aea1fbeac0de4bb956cf2c71e9ea", "is_disabled": 0, "rental_uris": {"android": "https://dc.lft.to/lastmile_qr_scan", "ios": "https://dc.lft.to/lastmile_qr_scan"}, "fusion_lon": 0.0, "lat": 38.91413283333333, "bike_id": "a9d7aea1fbeac0de4bb956cf2c71e9ea", "type": "electric_scooter", "is_reserved": 0, "lon": -77.02825883333334}, {"fusion_lat": 0.0, "name": "91106997ba039d7aa14d0e805f0bb9a1", "is_disabled": 0, "rental_uris": {"android": "https://dc.lft.to/lastmile_qr_scan", "ios": "https://dc.lft.to/lastmile_qr_scan"}, "fusion_lon": 0.0, "lat": 38.84757833333333, "bike_id": "91106997ba039d7aa14d0e805f0bb9a1", "type": "electric_scooter", "is_reserved": 0, "lon": -76.99497}, {"fusion_lat": 0.0, "name": "e56a9a26baa32d9ef512c36509ff9bbd", "is_disabled": 0, "rental_uris": {"android": "https://dc.lft.to/lastmile_qr_scan", "ios": "https://dc.lft.to/lastmile_qr_scan"}, "fusion_lon": 0.0, "lat": 38.89442233333333, "bike_id": "e56a9a26baa32d9ef512c36509ff9bbd", "type": "electric_scooter", "is_reserved": 0, "lon": -76.93678933333334}, {"fusion_lat": 0.0, "name": "2d0e1457e0b2cfe04741432f0f2ef4cd", "is_disabled": 0, "rental_uris": {"android": "https://dc.lft.to/lastmile_qr_scan", "ios": "https://dc.lft.to/lastmile_qr_scan"}, "fusion_lon": 0.0, "lat": 38.90746433333333, "bike_id": "2d0e1457e0b2cfe04741432f0f2ef4cd", "type": "electric_scooter", "is_reserved": 0, "lon": -77.04557983333333}, {"fusion_lat": 0.0, "name": "2f3db76b6e0170f5d7811d6c8454a92c", "is_disabled": 0, "rental_uris": {"android": "https://dc.lft.to/lastmile_qr_scan", "ios": "https://dc.lft.to/lastmile_qr_scan"}, "fusion_lon": 0.0, "lat": 38.898499666666666, "bike_id": "2f3db76b6e0170f5d7811d6c8454a92c", "type": "electric_scooter", "is_reserved": 0, "lon": -76.99030716666667}, {"fusion_lat": 0.0, "name": "c387fee488693ecab5c1fe969420e884", "is_disabled": 0, "rental_uris": {"android": "https://dc.lft.to/lastmile_qr_scan", "ios": "https://dc.lft.to/lastmile_qr_scan"}, "fusion_lon": 0.0, "lat": 39.01419283333333, "bike_id": "c387fee488693ecab5c1fe969420e884", "type": "electric_bike", "is_reserved": 0, "lon": -77.04499033333333}, {"fusion_lat": 0.0, "name": "4b0f6755d1940b035b01f13f97052d50", "is_disabled": 0, "rental_uris": {"android": "https://dc.lft.to/lastmile_qr_scan", "ios": "https://dc.lft.to/lastmile_qr_scan"}, "fusion_lon": 0.0, "lat": 38.91458133333333, "bike_id": "4b0f6755d1940b035b01f13f97052d50", "type": "electric_scooter", "is_reserved": 0, "lon": -77.04160166666666}, {"fusion_lat": 0.0, "name": "8e3aa564315c97e80853477c09777fc7", "is_disabled": 0, "rental_uris": {"android": "https://dc.lft.to/lastmile_qr_scan", "ios": "https://dc.lft.to/lastmile_qr_scan"}, "fusion_lon": 0.0, "lat": 38.89696283333333, "bike_id": "8e3aa564315c97e80853477c09777fc7", "type": "electric_scooter", "is_reserved": 0, "lon": -77.023869}, {"fusion_lat": 0.0, "name": "228e132f934ff2099d074a3e35e4ab0c", "is_disabled": 0, "rental_uris": {"android": "https://dc.lft.to/lastmile_qr_scan", "ios": "https://dc.lft.to/lastmile_qr_scan"}, "fusion_lon": 0.0, "lat": 38.921589833333336, "bike_id": "228e132f934ff2099d074a3e35e4ab0c", "type": "electric_scooter", "is_reserved": 0, "lon": -77.02090766666667}, {"fusion_lat": 0.0, "name": "d80d7a96ee552dd6a79affe5eadfab7a", "is_disabled": 0, "rental_uris": {"android": "https://dc.lft.to/lastmile_qr_scan", "ios": "https://dc.lft.to/lastmile_qr_scan"}, "fusion_lon": 0.0, "lat": 38.895623, "bike_id": "d80d7a96ee552dd6a79affe5eadfab7a", "type": "electric_scooter", "is_reserved": 0, "lon": -76.994338}, {"fusion_lat": 0.0, "name": "8daf73e1106ef73fa194f85e832c9798", "is_disabled": 0, "rental_uris": {"android": "https://dc.lft.to/lastmile_qr_scan", "ios": "https://dc.lft.to/lastmile_qr_scan"}, "fusion_lon": 0.0, "lat": 39.056918833333334, "bike_id": "8daf73e1106ef73fa194f85e832c9798", "type": "electric_bike", "is_reserved": 0, "lon": -77.1147825}, {"fusion_lat": 0.0, "name": "16ed70dfc72e409e7ed1006608d35525", "is_disabled": 0, "rental_uris": {"android": "https://dc.lft.to/lastmile_qr_scan", "ios": "https://dc.lft.to/lastmile_qr_scan"}, "fusion_lon": 0.0, "lat": 38.91700766666666, "bike_id": "16ed70dfc72e409e7ed1006608d35525", "type": "electric_scooter", "is_reserved": 0, "lon": -77.03149133333334}, {"fusion_lat": 0.0, "name": "ed40ad0797c901af8165eda45075048a", "is_disabled": 0, "rental_uris": {"android": "https://dc.lft.to/lastmile_qr_scan", "ios": "https://dc.lft.to/lastmile_qr_scan"}, "fusion_lon": 0.0, "lat": 38.90526233333333, "bike_id": "ed40ad0797c901af8165eda45075048a", "type": "electric_scooter", "is_reserved": 0, "lon": -77.050132}, {"fusion_lat": 0.0, "name": "9ac3993a252fdf406c4e3f222c243317", "is_disabled": 0, "rental_uris": {"android": "https://dc.lft.to/lastmile_qr_scan", "ios": "https://dc.lft.to/lastmile_qr_scan"}, "fusion_lon": 0.0, "lat": 38.87640116666667, "bike_id": "9ac3993a252fdf406c4e3f222c243317", "type": "electric_scooter", "is_reserved": 0, "lon": -77.014809}, {"fusion_lat": 0.0, "name": "bddb19c51fb1a3a66f420a2099f95e05", "is_disabled": 0, "rental_uris": {"android": "https://dc.lft.to/lastmile_qr_scan", "ios": "https://dc.lft.to/lastmile_qr_scan"}, "fusion_lon": 0.0, "lat": 38.892155333333335, "bike_id": "bddb19c51fb1a3a66f420a2099f95e05", "type": "electric_scooter", "is_reserved": 0, "lon": -77.032264}, {"fusion_lat": 0.0, "name": "d0a52e4a425926fcef12ebc02a10d23c", "is_disabled": 0, "rental_uris": {"android": "https://dc.lft.to/lastmile_qr_scan", "ios": "https://dc.lft.to/lastmile_qr_scan"}, "fusion_lon": 0.0, "lat": 38.9055675, "bike_id": "d0a52e4a425926fcef12ebc02a10d23c", "type": "electric_scooter", "is_reserved": 0, "lon": -77.00804483333333}, {"fusion_lat": 0.0, "name": "e7c7c42e20dc9a10d4b2915e4894f50a", "is_disabled": 0, "rental_uris": {"android": "https://dc.lft.to/lastmile_qr_scan", "ios": "https://dc.lft.to/lastmile_qr_scan"}, "fusion_lon": 0.0, "lat": 38.91044183333333, "bike_id": "e7c7c42e20dc9a10d4b2915e4894f50a", "type": "electric_scooter", "is_reserved": 0, "lon": -77.03844466666666}, {"fusion_lat": 0.0, "name": "603ee14aa272ce22316645fbac6dea62", "is_disabled": 0, "rental_uris": {"android": "https://dc.lft.to/lastmile_qr_scan", "ios": "https://dc.lft.to/lastmile_qr_scan"}, "fusion_lon": 0.0, "lat": 38.92644133333334, "bike_id": "603ee14aa272ce22316645fbac6dea62", "type": "electric_scooter", "is_reserved": 0, "lon": -77.03856416666666}, {"fusion_lat": 0.0, "name": "008ce7cf0f99d6fbc67957e8f2f3e590", "is_disabled": 0, "rental_uris": {"android": "https://dc.lft.to/lastmile_qr_scan", "ios": "https://dc.lft.to/lastmile_qr_scan"}, "fusion_lon": 0.0, "lat": 38.91645833333333, "bike_id": "008ce7cf0f99d6fbc67957e8f2f3e590", "type": "electric_scooter", "is_reserved": 0, "lon": -77.0479705}, {"fusion_lat": 0.0, "name": "75f75a56ed260180d581c073236bd937", "is_disabled": 0, "rental_uris": {"android": "https://dc.lft.to/lastmile_qr_scan", "ios": "https://dc.lft.to/lastmile_qr_scan"}, "fusion_lon": 0.0, "lat": 38.91035933333333, "bike_id": "75f75a56ed260180d581c073236bd937", "type": "electric_scooter", "is_reserved": 0, "lon": -77.0333235}, {"fusion_lat": 0.0, "name": "6643b3d6e0c642556071f10a612c24d2", "is_disabled": 0, "rental_uris": {"android": "https://dc.lft.to/lastmile_qr_scan", "ios": "https://dc.lft.to/lastmile_qr_scan"}, "fusion_lon": 0.0, "lat": 38.911345, "bike_id": "6643b3d6e0c642556071f10a612c24d2", "type": "electric_scooter", "is_reserved": 0, "lon": -77.04410033333333}, {"fusion_lat": 0.0, "name": "db314ec2806ccd25bec5d62c1ed23e2d", "is_disabled": 0, "rental_uris": {"android": "https://dc.lft.to/lastmile_qr_scan", "ios": "https://dc.lft.to/lastmile_qr_scan"}, "fusion_lon": 0.0, "lat": 38.900004, "bike_id": "db314ec2806ccd25bec5d62c1ed23e2d", "type": "electric_scooter", "is_reserved": 0, "lon": -77.05498833333333},