{"data": {"bikes": [{"is_disabled": 0, "is_reserved": 0, "fusion_lat": 0.0, "lat": 38.894874333333334, "fusion_lon": 0.0, "rental_uris": {"ios": "https://dc.lft.to/lastmile_qr_scan", "android": "https://dc.lft.to/lastmile_qr_scan"}, "lon": -76.97881216666667, "bike_id": "1e001fde9bad3a4c4c0174ee1a2adc7a", "type": "electric_scooter", "name": "1e001fde9bad3a4c4c0174ee1a2adc7a"}, {"is_disabled": 0, "is_reserved": 0, "fusion_lat": 0.0, "lat": 38.919255166666666, "fusion_lon": 0.0, "rental_uris": {"ios": "https://dc.lft.to/lastmile_qr_scan", "android": "https://dc.lft.to/lastmile_qr_scan"}, "lon": -77.04632666666667, "bike_id": "80bb6bfe5427c17af8bbe911ba259ca2", "type": "electric_scooter", "name": "80bb6bfe5427c17af8bbe911ba259ca2"}, {"is_disabled": 0, "is_reserved": 0, "fusion_lat": 0.0, "lat": 38.9174145, "fusion_lon": 0.0, "rental_uris": {"ios": "https://dc.lft.to/lastmile_qr_scan", "android": "https://dc.lft.to/lastmile_qr_scan"}, "lon": -77.03335933333334, "bike_id": "0ffa4f44fb730fb65bb1ee0eb1b07124", "type": "electric_scooter", "name": "0ffa4f44fb730fb65bb1ee0eb1b07124"}, {"is_disabled": 0, "is_reserved": 0, "fusion_lat": 0.0, "lat": 38.92345666666667, "fusion_lon": 0.0, "rental_uris": {"ios": "https://dc.lft.to/lastmile_qr_scan", "android": "https://dc.lft.to/lastmile_qr_scan"}, "lon": -77.03522133333334, "bike_id": "b2ab7294f064a5b900a066fd2eb848d8", "type": "electric_scooter", "name": "b2ab7294f064a5b900a066fd2eb848d8"}, {"is_disabled": 0, "is_reserved": 0, "fusion_lat": 0.0, "lat": 38.937531166666666, "fusion_lon": 0.0, "rental_uris": {"ios": "https://dc.lft.to/lastmile_qr_scan", "android": "https://dc.lft.to/lastmile_qr_scan"}, "lon": -77.02439983333333, "bike_id": "8484a301c14b7ff2d3d8b62d82b53b7c", "type": "electric_scooter", "name": "8484a301c14b7ff2d3d8b62d82b53b7c"}, {"is_disabled": 0, "is_reserved": 0, "fusion_lat": 0.0, "lat": 38.925206, "fusion_lon": 0.0, "rental_uris": {"ios": "https://dc.lft.to/lastmile_qr_scan", "android": "https://dc.lft.to/lastmile_qr_scan"}, "lon": -77.0385025, "bike_id": "1d544f6ac9d6b0d1ee638763c14ee55d", "type": "electric_scooter", "name": "1d544f6ac9d6b0d1ee638763c14ee55d"}, {"is_disabled": 0, "is_reserved": 0, "fusion_lat": 0.0, "lat": 38.974790666666664, "fusion_lon": 0.0, "rental_uris": {"ios": "https://dc.lft.to/lastmile_qr_scan", "android": "https://dc.lft.to/lastmile_qr_scan"}, "lon": -77.01488033333334, "bike_id": "cf077ef52f968b01138066a2e8dcc7c6", "type": "electric_scooter", "name": "cf077ef52f968b01138066a2e8dcc7c6"}, {"is_disabled": 0, "is_reserved": 0, "fusion_lat": 0.0, "lat": 38.916284833333336, "fusion_lon": 0.0, "rental_uris": {"ios": "https://dc.lft.to/lastmile_qr_scan", "android": "https://dc.lft.to/lastmile_qr_scan"}, "lon": -77.05067766666667, "bike_id": "0a7a19fb470b5ce2040fd2a7d4a48e1e", "type": "electric_scooter", "name": "0a7a19fb470b5ce2040fd2a7d4a48e1e"}, {"is_disabled": 0, "is_reserved": 0, "fusion_lat": 0.0, "lat": 38.90680233333333, "fusion_lon": 0.0, "rental_uris": {"ios": "https://dc.lft.to/lastmile_qr_scan", "android": "https://dc.lft.to/lastmile_qr_scan"}, "lon": -77.026939, "bike_id": "5c76033d1788c86e1e0eaf3b19b56282", "type": "electric_scooter", "name": "5c76033d1788c86e1e0eaf3b19b56282"}, {"is_disabled": 0, "is_reserved": 0, "fusion_lat": 0.0, "lat": 38.873788166666664, "fusion_lon": 0.0, "rental_uris": {"ios": "https://dc.lft.to/lastmile_qr_scan", "android": "https://dc.lft.to/lastmile_qr_scan"}, "lon": -77.00097066666666, "bike_id": "d9bb0a0a9f365e0f8f856a2de2e43c5f", "type": "electric_scooter", "name": "d9bb0a0a9f365e0f8f856a2de2e43c5f"}, {"is_disabled": 0, "is_reserved": 0, "fusion_lat": 0.0, "lat": 38.956532333333335, "fusion_lon": 0.0, "rental_uris": {"ios": "https://dc.lft.to/lastmile_qr_scan", "android": "https://dc.lft.to/lastmile_qr_scan"}, "lon": -77.0196725, "bike_id": "8d41a3d3245a5723cbc12526f00a4d6a", "type": "electric_scooter", "name": "8d41a3d3245a5723cbc12526f00a4d6a"}, {"is_disabled": 0, "is_reserved": 0, "fusion_lat": 0.0, "lat": 38.90241316666667, "fusion_lon": 0.0, "rental_uris": {"ios": "https://dc.lft.to/lastmile_qr_scan", "android": "https://dc.lft.to/lastmile_qr_scan"}, "lon": -77.05196533333333, "bike_id": "691b4bb2d8bf96a09d283b463402b848", "type": "electric_scooter", "name": "691b4bb2d8bf96a09d283b463402b848"}, {"is_disabled": 0, "is_reserved": 0, "fusion_lat": 0.0, "lat": 38.949199, "fusion_lon": 0.0, "rental_uris": {"ios": "https://dc.lft.to/lastmile_qr_scan", "android": "https://dc.lft.to/lastmile_qr_scan"}, "lon": -77.01857616666666, "bike_id": "cc9656b30139677d26d008724ac7eaf8", "type": "electric_scooter", "name": "cc9656b30139677d26d008724ac7eaf8"}, {"is_disabled": 0, "is_reserved": 0, "fusion_lat": 0.0, "lat": 38.892343, "fusion_lon": 0.0, "rental_uris": {"ios": "https://dc.lft.to/lastmile_qr_scan", "android": "https://dc.lft.to/lastmile_qr_scan"}, "lon": -77.04358566666667, "bike_id": "15689a892e30cc4c59bf51b1f708fc1c", "type": "electric_scooter", "name": "15689a892e30cc4c59bf51b1f708fc1c"}, {"is_disabled": 0, "is_reserved": 0, "fusion_lat": 0.0, "lat": 38.91268483333333, "fusion_lon": 0.0, "rental_uris": {"ios": "https://dc.lft.to/lastmile_qr_scan", "android": "https://dc.lft.to/lastmile_qr_scan"}, "lon": -77.04868516666667, "bike_id": "9a1cb4b43e697c375b054fb9610d7366", "type": "electric_scooter", "name": "9a1cb4b43e697c375b054fb9610d7366"}, {"is_disabled": 0, "is_reserved": 0, "fusion_lat": 0.0, "lat": 38.91068466666667, "fusion_lon": 0.0, "rental_uris": {"ios": "https://dc.lft.to/lastmile_qr_scan", "android": "https://dc.lft.to/lastmile_qr_scan"}, "lon": -77.02974766666667, "bike_id": "fca9a120fdc8eca7d90cf6b131fc206f", "type": "electric_scooter", "name": "fca9a120fdc8eca7d90cf6b131fc206f"}, {"is_disabled": 0, "is_reserved": 0, "fusion_lat": 0.0, "lat": 38.902521666666665, "fusion_lon": 0.0, "rental_uris": {"ios": "https://dc.lft.to/lastmile_qr_scan", "android": "https://dc.lft.to/lastmile_qr_scan"}, "lon": -77.01758583333333, "bike_id": "30eacc5ce0e5d4a3e77c45aadca27695", "type": "electric_scooter", "name": "30eacc5ce0e5d4a3e77c45aadca27695"}, {"is_disabled": 0, "is_reserved": 0, "fusion_lat": 0.0, "lat": 38.909727, "fusion_lon": 0.0, "rental_uris": {"ios": "https://dc.lft.to/lastmile_qr_scan", "android": "https://dc.lft.to/lastmile_qr_scan"}, "lon": -77.03194233333333, "bike_id": "386efa1189da5d12666fe55160d93683", "type": "electric_scooter", "name": "386efa1189da5d12666fe55160d93683"}, {"is_disabled": 0, "is_reserved": 0, "fusion_lat": 0.0, "lat": 38.90592783333334, "fusion_lon": 0.0, "rental_uris": {"ios": "https://dc.lft.to/lastmile_qr_scan", "android": "https://dc.lft.to/lastmile_qr_scan"}, "lon": -77.0073535, "bike_id": "dbb02d9f5f52e8e491850f25acd610a1", "type": "electric_scooter", "name": "dbb02d9f5f52e8e491850f25acd610a1"}, {"is_disabled": 0, "is_reserved": 0, "fusion_lat": 0.0, "lat": 38.89233566666667, "fusion_lon": 0.0, "rental_uris": {"ios": "https://dc.lft.to/lastmile_qr_scan", "android": "https://dc.lft.to/lastmile_qr_scan"}, "lon": -77.04874383333333, "bike_id": "404748b55243c8d3088768ad6f1b00f5", "type": "electric_scooter", "name": "404748b55243c8d3088768ad6f1b00f5"}, {"is_disabled": 0, "is_reserved": 0, "fusion_lat": 0.0, "lat": 38.91770533333333, "fusion_lon": 0.0, "rental_uris": {"ios": "https://dc.lft.to/lastmile_qr_scan", "android": "https://dc.lft.to/lastmile_qr_scan"}, "lon": -77.03201416666667, "bike_id": "3f50f9d2b8fe9d11188c803b6aba1c49", "type": "electric_scooter", "name": "3f50f9d2b8fe9d11188c803b6aba1c49"}, {"is_disabled": 0, "is_reserved": 0, "fusion_lat": 0.0, "lat": 38.93359183333333, "fusion_lon": 0.0, "rental_uris": {"ios": "https://dc.lft.to/lastmile_qr_scan", "android": "https://dc.lft.to/lastmile_qr_scan"}, "lon": -77.0237445, "bike_id": "7601d0866410064a648b920cd1e17854", "type": "electric_scooter", "name": "7601d0866410064a648b920cd1e17854"}, {"is_disabled": 0, "is_reserved": 0, "fusion_lat": 0.0, "lat": 38.89609983333333, "fusion_lon": 0.0, "rental_uris": {"ios": "https://dc.lft.to/lastmile_qr_scan", "android": "https://dc.lft.to/lastmile_qr_scan"}, "lon": -77.024135, "bike_id": "71879bf218aa9d22c2b8db227c418574", "type": "electric_scooter", "name": "71879bf218aa9d22c2b8db227c418574"}, {"is_disabled": 0, "is_reserved": 0, "fusion_lat": 0.0, "lat": 38.902305, "fusion_lon": 0.0, "rental_uris": {"ios": "https://dc.lft.to/lastmile_qr_scan", "android": "https://dc.lft.to/lastmile_qr_scan"}, "lon": -77.01912533333333, "bike_id": "3f55feed03010a060f5be7a1b0212354", "type": "electric_scooter", "name": "3f55feed03010a060f5be7a1b0212354"}, {"is_disabled": 0, "is_reserved": 0, "fusion_lat": 0.0, "lat": 39.03478366666667, "fusion_lon": 0.0, "rental_uris": {"ios": "https://dc.lft.to/lastmile_qr_scan", "android": "https://dc.lft.to/lastmile_qr_scan"}, "lon": -77.01660266666667, "bike_id": "3675d94b0c25986f72cc5d3401591194", "type": "electric_bike", "name": "3675d94b0c25986f72cc5d3401591194"}, {"is_disabled": 0, "is_reserved": 0, "fusion_lat": 0.0, "lat": 39.08473466666667, "fusion_lon": 0.0, "rental_uris": {"ios": "https://dc.lft.to/lastmile_qr_scan", "android": "https://dc.lft.to/lastmile_qr_scan"}, "lon": -76.95067216666666, "bike_id": "217d9d93949e982e9dd07873e158b413", "type": "electric_bike", "name": "217d9d93949e982e9dd07873e158b413"}, {"is_disabled": 0, "is_reserved": 0, "fusion_lat": 0.0, "lat": 38.92171183333333, "fusion_lon": 0.0, "rental_uris": {"ios": "https://dc.lft.to/lastmile_qr_scan", "android": "https://dc.lft.to/lastmile_qr_scan"}, "lon": -77.04017216666666, "bike_id": "fe55ca8a0750cd96b1fad3592b05228d", "type": "electric_scooter", "name": "fe55ca8a0750cd96b1fad3592b05228d"}, {"is_disabled": 0, "is_reserved": 0, "fusion_lat": 0.0, "lat": 38.95353016666667, "fusion_lon": 0.0, "rental_uris": {"ios": "https://dc.lft.to/lastmile_qr_scan", "android": "https://dc.lft.to/lastmile_qr_scan"}, "lon": -77.0814985, "bike_id": "df1e207067bfe16f7965d4cc87303594", "type": "electric_scooter", "name": "df1e207067bfe16f7965d4cc87303594"}, {"is_disabled": 0, "is_reserved": 0, "fusion_lat": 0.0, "lat": 38.8919685, "fusion_lon": 0.0, "rental_uris": {"ios": "https://dc.lft.to/lastmile_qr_scan", "android": "https://dc.lft.to/lastmile_qr_scan"}, "lon": -77.024736, "bike_id": "b3a79d7c421bb95bfda62a3e36f8ac50", "type": "electric_scooter", "name": "b3a79d7c421bb95bfda62a3e36f8ac50"}, {"is_disabled": 0, "is_reserved": 0, "fusion_lat": 0.0, "lat": 38.89792966666667, "fusion_lon": 0.0, "rental_uris": {"ios": "https://dc.lft.to/lastmile_qr_scan", "android": "https://dc.lft.to/lastmile_qr_scan"}, "lon": -76.97182933333333, "bike_id": "a323a7f1cf0218a9500b0ec56d5d4635", "type": "electric_scooter", "name": "a323a7f1cf0218a9500b0ec56d5d4635"}, {"is_disabled": 0, "is_reserved": 0, "fusion_lat": 0.0, "lat": 38.90121166666667, "fusion_lon": 0.0, "rental_uris": {"ios": "https://dc.lft.to/lastmile_qr_scan", "android": "https://dc.lft.to/lastmile_qr_scan"}, "lon": -77.05005816666667, "bike_id": "a168eb17772981d4448e04afdc26c8bc", "type": "electric_bike", "name": "a168eb17772981d4448e04afdc26c8bc"}, {"is_disabled": 0, "is_reserved": 0, "fusion_lat": 0.0, "lat": 38.91414233333333, "fusion_lon": 0.0, "rental_uris": {"ios": "https://dc.lft.to/lastmile_qr_scan", "android": "https://dc.lft.to/lastmile_qr_scan"}, "lon": -77.022324, "bike_id": "690847552253811175ffd89c72532b8d", "type": "electric_scooter", "name": "690847552253811175ffd89c72532b8d"}, {"is_disabled": 0, "is_reserved": 0, "fusion_lat": 0.0, "lat": 38.9247435, "fusion_lon": 0.0, "rental_uris": {"ios": "https://dc.lft.to/lastmile_qr_scan", "android": "https://dc.lft.to/lastmile_qr_scan"}, "lon": -77.03542083333333, "bike_id": "fd45166221f84552a501f3de7c691611", "type": "electric_scooter", "name": "fd45166221f84552a501f3de7c691611"}, {"is_disabled": 0, "is_reserved": 0, "fusion_lat": 0.0, "lat": 38.88283583333333, "fusion_lon": 0.0, "rental_uris": {"ios": "https://dc.lft.to/lastmile_qr_scan", "android": "https://dc.lft.to/lastmile_qr_scan"}, "lon": -76.93243133333333, "bike_id": "47b8fa6c10bcacaea18341e1351089dd", "type": "electric_bike", "name": "47b8fa6c10bcacaea18341e1351089dd"}, {"is_disabled": 0, "is_reserved": 0, "fusion_lat": 0.0, "lat": 38.9020345, "fusion_lon": 0.0, "rental_uris": {"ios": "https://dc.lft.to/lastmile_qr_scan", "android": "https://dc.lft.to/lastmile_qr_scan"}, "lon": -77.05026216666667, "bike_id": "105c58d94244d8296d503c5974e62a44", "type": "electric_scooter", "name": "105c58d94244d8296d503c5974e62a44"}, {"is_disabled": 0, "is_reserved": 0, "fusion_lat": 0.0, "lat": 38.938628, "fusion_lon": 0.0, "rental_uris": {"ios": "https://dc.lft.to/lastmile_qr_scan", "android": "https://dc.lft.to/lastmile_qr_scan"}, "lon": -77.03046, "bike_id": "4bfd00bb8c9ac390d0d071210e2ab498", "type": "electric_scooter", "name": "4bfd00bb8c9ac390d0d071210e2ab498"}, {"is_disabled": 0, "is_reserved": 0, "fusion_lat": 0.0, "lat": 38.94817583333333, "fusion_lon": 0.0, "rental_uris": {"ios": "https://dc.lft.to/lastmile_qr_scan", "android": "https://dc.lft.to/lastmile_qr_scan"}, "lon": -77.02539166666666, "bike_id": "a31eb59ad0f308f88c8155742b1839a1", "type": "electric_scooter", "name": "a31eb59ad0f308f88c8155742b1839a1"}, {"is_disabled": 0, "is_reserved": 0, "fusion_lat": 0.0, "lat": 38.906819, "fusion_lon": 0.0, "rental_uris": {"ios": "https://dc.lft.to/lastmile_qr_scan", "android": "https://dc.lft.to/lastmile_qr_scan"}, "lon": -77.05320466666667, "bike_id": "92367d4c3bbee139a08f8f3457871930", "type": "electric_scooter", "name": "92367d4c3bbee139a08f8f3457871930"}, {"is_disabled": 0, "is_reserved": 0, "fusion_lat": 0.0, "lat": 38.90559366666667, "fusion_lon": 0.0, "rental_uris": {"ios": "https://dc.lft.to/lastmile_qr_scan", "android": "https://dc.lft.to/lastmile_qr_scan"}, "lon": -77.00742433333333, "bike_id": "9120c934e3f0f9bffaa5166cb89e8da8", "type": "electric_scooter", "name": "9120c934e3f0f9bffaa5166cb89e8da8"}, {"is_disabled": 0, "is_reserved": 0, "fusion_lat": 0.0, "lat": 38.9025695, "fusion_lon": 0.0, "rental_uris": {"ios": "https://dc.lft.to/lastmile_qr_scan", "android": "https://dc.lft.to/lastmile_qr_scan"}, "lon": -77.05901916666667, "bike_id": "e2dfb3930be77aea72b763940df6ffb4", "type": "electric_scooter", "name": "e2dfb3930be77aea72b763940df6ffb4"}, {"is_disabled": 0, "is_reserved": 0, "fusion_lat": 0.0, "lat": 38.90118183333333, "fusion_lon": 0.0, "rental_uris": {"ios": "https://dc.lft.to/lastmile_qr_scan", "android": "https://dc.lft.to/lastmile_qr_scan"}, "lon": -77.050057, "bike_id": "8decb17dcaf400966a33cb061bf3436b", "type": "electric_scooter", "name": "8decb17dcaf400966a33cb061bf3436b"}, {"is_disabled": 0, "is_reserved": 0, "fusion_lat": 0.0, "lat": 38.90527, "fusion_lon": 0.0, "rental_uris": {"ios": "https://dc.lft.to/lastmile_qr_scan", "android": "https://dc.lft.to/lastmile_qr_scan"}, "lon": -77.06144266666666, "bike_id": "0add38d480d6d941987cc88b212d8860", "type": "electric_scooter", "name": "0add38d480d6d941987cc88b212d8860"}, {"is_disabled": 0, "is_reserved": 0, "fusion_lat": 0.0, "lat": 38.85223216666667, "fusion_lon": 0.0, "rental_uris": {"ios": "https://dc.lft.to/lastmile_qr_scan", "android": "https://dc.lft.to/lastmile_qr_scan"}, "lon": -76.99372266666667, "bike_id": "351975077892a43f3e4322bb31e2337b", "type": "electric_bike", "name": "351975077892a43f3e4322bb31e2337b"}, {"is_disabled": 0, "is_reserved": 0, "fusion_lat": 0.0, "lat": 38.920258, "fusion_lon": 0.0, "rental_uris": {"ios": "https://dc.lft.to/lastmile_qr_scan", "android": "https://dc.lft.to/lastmile_qr_scan"}, "lon": -76.99571066666667, "bike_id": "a6fa96e3dc70f6b49311091cfe645b2e", "type": "electric_scooter", "name": "a6fa96e3dc70f6b49311091cfe645b2e"}, {"is_disabled": 0, "is_reserved": 0, "fusion_lat": 0.0, "lat": 38.95642, "fusion_lon": 0.0, "rental_uris": {"ios": "https://dc.lft.to/lastmile_qr_scan", "android": "https://dc.lft.to/lastmile_qr_scan"}, "lon": -77.03633033333334, "bike_id": "4f900ea2e8de5f3335ae8b69232847c9", "type": "electric_scooter", "name": "4f900ea2e8de5f3335ae8b69232847c9"}, {"is_disabled": 0, "is_reserved": 0, "fusion_lat": 0.0, "lat": 38.89088383333333, "fusion_lon": 0.0, "rental_uris": {"ios": "https://dc.lft.to/lastmile_qr_scan", "android": "https://dc.lft.to/lastmile_qr_scan"}, "lon": -76.95465816666666, "bike_id": "620de2b12dcb90a3c359e24926b8d18f", "type": "electric_bike", "name": "620de2b12dcb90a3c359e24926b8d18f"}, {"is_disabled": 0, "is_reserved": 0, "fusion_lat": 0.0, "lat": 38.92598483333333, "fusion_lon": 0.0, "rental_uris": {"ios": "https://dc.lft.to/lastmile_qr_scan", "android": "https://dc.lft.to/lastmile_qr_scan"}, "lon": -76.98239816666667, "bike_id": "65051e269a7d14f58506b395f19cee2d", "type": "electric_bike", "name": "65051e269a7d14f58506b395f19cee2d"}, {"is_disabled": 0, "is_reserved": 0, "fusion_lat": 0.0, "lat": 38.93192966666667, "fusion_lon": 0.0, "rental_uris": {"ios": "https://dc.lft.to/lastmile_qr_scan", "android": "https://dc.lft.to/lastmile_qr_scan"}, "lon": -77.018674, "bike_id": "aea89dbd10c4802c6b22fd0ffe94fc61", "type": "electric_scooter", "name": "aea89dbd10c4802c6b22fd0ffe94fc61"}, {"is_disabled": 0, "is_reserved": 0, "fusion_lat": 0.0, "lat": 38.918213333333334, "fusion_lon": 0.0, "rental_uris": {"ios": "https://dc.lft.to/lastmile_qr_scan", "android": "https://dc.lft.to/lastmile_qr_scan"}, "lon": -77.04522216666666, "bike_id": "ae8b698b6c38b85a66f96e4dddebb07b", "type": "electric_scooter", "name": "ae8b698b6c38b85a66f96e4dddebb07b"}, {"is_disabled": 0, "is_reserved": 0, "fusion_lat": 0.0, "lat": 38.9227925, "fusion_lon": 0.0, "rental_uris": {"ios": "https://dc.lft.to/lastmile_qr_scan", "android": "https://dc.lft.to/lastmile_qr_scan"}, "lon": -77.03406533333333, "bike_id": "a7f5e33ad38b01d202a1fc5c770555aa", "type": "electric_scooter", "name": "a7f5e33ad38b01d202a1fc5c770555aa"}, {"is_disabled": 0, "is_reserved": 0, "fusion_lat": 0.0, "lat": 38.91699083333334, "fusion_lon": 0.0, "rental_uris": {"ios": "https://dc.lft.to/lastmile_qr_scan", "android": "https://dc.lft.to/lastmile_qr_scan"}, "lon": -77.03160633333333, "bike_id": "7475fdcd806a27b3c7223473f1d276ba", "type": "electric_scooter", "name": "7475fdcd806a27b3c7223473f1d276ba"}, {"is_disabled": 0, "is_reserved": 0, "fusion_lat": 0.0, "lat": 38.91728166666667, "fusion_lon": 0.0, "rental_uris": {"ios": "https://dc.lft.to/lastmile_qr_scan", "android": "https://dc.lft.to/lastmile_qr_scan"}, "lon": -77.0333735, "bike_id": "4eb1d588ffe4a55c72c0aace3abc729d", "type": "electric_scooter", "name": "4eb1d588ffe4a55c72c0aace3abc729d"}, {"is_disabled": 0, "is_reserved": 0, "fusion_lat": 0.0, "lat": 38.90589816666667, "fusion_lon": 0.0, "rental_uris": {"ios": "https://dc.lft.to/lastmile_qr_scan", "android": "https://dc.lft.to/lastmile_qr_scan"}, "lon": -77.05150066666667, "bike_id": "cedf46380278268112b5fd261a9417f3", "type": "electric_scooter", "name": "cedf46380278268112b5fd261a9417f3"}, {"is_disabled": 0, "is_reserved": 0, "fusion_lat": 0.0, "lat": 38.90260283333333, "fusion_lon": 0.0, "rental_uris": {"ios": "https://dc.lft.to/lastmile_qr_scan", "android": "https://dc.lft.to/lastmile_qr_scan"}, "lon": -77.00170733333333, "bike_id": "b30b01dc0ee83bb7db9653126dbcaf63", "type": "electric_scooter", "name": "b30b01dc0ee83bb7db9653126dbcaf63"}, {"is_disabled": 0, "is_reserved": 0, "fusion_lat": 0.0, "lat": 38.90838466666666, "fusion_lon": 0.0, "rental_uris": {"ios": "https://dc.lft.to/lastmile_qr_scan", "android": "https://dc.lft.to/lastmile_qr_scan"}, "lon": -77.0731235, "bike_id": "99ef21d89dcaca3ed9f7536f6eb447ae", "type": "electric_scooter", "name": "99ef21d89dcaca3ed9f7536f6eb447ae"}, {"is_disabled": 0, "is_reserved": 0, "fusion_lat": 0.0, "lat": 38.924842166666664, "fusion_lon": 0.0, "rental_uris": {"ios": "https://dc.lft.to/lastmile_qr_scan", "android": "https://dc.lft.to/lastmile_qr_scan"}, "lon": -77.02792533333333, "bike_id": "9cac4a2fee13453d52f9c40e31cd0870", "type": "electric_scooter", "name": "9cac4a2fee13453d52f9c40e31cd0870"}, {"is_disabled": 0, "is_reserved": 0, "fusion_lat": 0.0, "lat": 38.934509166666665, "fusion_lon": 0.0, "rental_uris": {"ios": "https://dc.lft.to/lastmile_qr_scan", "android": "https://dc.lft.to/lastmile_qr_scan"}, "lon": -77.02836783333333, "bike_id": "bee5abf9e452cf0167ecc70f95787469", "type": "electric_scooter", "name": "bee5abf9e452cf0167ecc70f95787469"}, {"is_disabled": 0, "is_reserved": 0, "fusion_lat": 0.0, "lat": 38.927783166666664, "fusion_lon": 0.0, "rental_uris": {"ios": "https://dc.lft.to/lastmile_qr_scan", "android": "https://dc.lft.to/lastmile_qr_scan"}, "lon": -77.03139716666666, "bike_id": "4343e7ec9f6c9413b5741f6f93a91032", "type": "electric_scooter", "name": "4343e7ec9f6c9413b5741f6f93a91032"}, {"is_disabled": 0, "is_reserved": 0, "fusion_lat": 0.0, "lat": 38.896956, "fusion_lon": 0.0, "rental_uris": {"ios": "https://dc.lft.to/lastmile_qr_scan", "android": "https://dc.lft.to/lastmile_qr_scan"}, "lon": -77.024083, "bike_id": "fd9ea0b56ebdf9a3f401eb05b21a01af", "type": "electric_scooter", "name": "fd9ea0b56ebdf9a3f401eb05b21a01af"}, {"is_disabled": 0, "is_reserved": 0, "fusion_lat": 0.0, "lat": 38.89944066666666, "fusion_lon": 0.0, "rental_uris": {"ios": "https://dc.lft.to/lastmile_qr_scan", "android": "https://dc.lft.to/lastmile_qr_scan"}, "lon": -77.04771966666667, "bike_id": "6bf6b3b6dac98f58d09982b32eb10bc1", "type": "electric_scooter", "name": "6bf6b3b6dac98f58d09982b32eb10bc1"}, {"is_disabled": 0, "is_reserved": 0, "fusion_lat": 0.0, "lat": 38.905411666666666, "fusion_lon": 0.0, "rental_uris": {"ios": "https://dc.lft.to/lastmile_qr_scan", "android": "https://dc.lft.to/lastmile_qr_scan"}, "lon": -77.04093166666667, "bike_id": "ade5d63aee004c35c611a93b5074dfe7", "type": "electric_scooter", "name": "ade5d63aee004c35c611a93b5074dfe7"}, {"is_disabled": 0, "is_reserved": 0, "fusion_lat": 0.0, "lat": 38.93003566666667, "fusion_lon": 0.0, "rental_uris": {"ios": "https://dc.lft.to/lastmile_qr_scan", "android": "https://dc.lft.to/lastmile_qr_scan"}, "lon": -77.02402866666667, "bike_id": "50b5d53f3ef7dbcba33bea95c3b36d4f", "type": "electric_scooter", "name": "50b5d53f3ef7dbcba33bea95c3b36d4f"}, {"is_disabled": 0, "is_reserved": 0, "fusion_lat": 0.0, "lat": 38.8924575, "fusion_lon": 0.0, "rental_uris": {"ios": "https://dc.lft.to/lastmile_qr_scan", "android": "https://dc.lft.to/lastmile_qr_scan"}, "lon": -77.03184166666666, "bike_id": "87b088333cdad25e62f9b5ee883e82b8", "type": "electric_scooter", "name": "87b088333cdad25e62f9b5ee883e82b8"}, {"is_disabled": 0, "is_reserved": 0, "fusion_lat": 0.0, "lat": 38.89981816666667, "fusion_lon": 0.0, "rental_uris": {"ios": "https://dc.lft.to/lastmile_qr_scan", "android": "https://dc.lft.to/lastmile_qr_scan"}, "lon": -77.03360083333334, "bike_id": "badbf45c0ac308f561c06b71c9d91fa3", "type": "electric_scooter", "name": "badbf45c0ac308f561c06b71c9d91fa3"}, {"is_disabled": 0, "is_reserved": 0, "fusion_lat": 0.0, "lat": 38.92073233333333, "fusion_lon": 0.0, "rental_uris": {"ios": "https://dc.lft.to/lastmile_qr_scan", "android": "https://dc.lft.to/lastmile_qr_scan"}, "lon": -77.04186733333333, "bike_id": "f1934536dc0bc5777323f21f0bd14db0", "type": "electric_scooter", "name": "f1934536dc0bc5777323f21f0bd14db0"}, {"is_disabled": 0, "is_reserved": 0, "fusion_lat": 0.0, "lat": 38.91252016666667, "fusion_lon": 0.0, "rental_uris": {"ios": "https://dc.lft.to/lastmile_qr_scan", "android": "https://dc.lft.to/lastmile_qr_scan"}, "lon": -77.016138, "bike_id": "35363bb465eeeea1d7e349f49ed3e7fd", "type": "electric_scooter", "name": "35363bb465eeeea1d7e349f49ed3e7fd"}, {"is_disabled": 0, "is_reserved": 0, "fusion_lat": 0.0, "lat": 38.89217816666667, "fusion_lon": 0.0, "rental_uris": {"ios": "https://dc.lft.to/lastmile_qr_scan", "android": "https://dc.lft.to/lastmile_qr_scan"}, "lon": -77.02419783333333, "bike_id": "65504960ef9480e8abb9cffae90c6a50", "type": "electric_scooter", "name": "65504960ef9480e8abb9cffae90c6a50"}, {"is_disabled": 0, "is_reserved": 0, "fusion_lat": 0.0, "lat": 38.90059433333333, "fusion_lon": 0.0, "rental_uris": {"ios": "https://dc.lft.to/lastmile_qr_scan", "android": "https://dc.lft.to/lastmile_qr_scan"}, "lon": -76.987022, "bike_id": "ea52772cd707fe379256de766676920e", "type": "electric_scooter", "name": "ea52772cd707fe379256de766676920e"}, {"is_disabled": 0, "is_reserved": 0, "fusion_lat": 0.0, "lat": 38.862637166666666, "fusion_lon": 0.0, "rental_uris": {"ios": "https://dc.lft.to/lastmile_qr_scan", "android": "https://dc.lft.to/lastmile_qr_scan"}, "lon": -77.08932166666666, "bike_id": "fd8c4af336ea73e2b968fe340c49223b", "type": "electric_bike", "name": "fd8c4af336ea73e2b968fe340c49223b"}, {"is_disabled": 0, "is_reserved": 0, "fusion_lat": 0.0, "lat": 38.9088725, "fusion_lon": 0.0, "rental_uris": {"ios": "https://dc.lft.to/lastmile_qr_scan", "android": "https://dc.lft.to/lastmile_qr_scan"}, "lon": -77.04330883333333, "bike_id": "5e895b197646c9dfe4e95e666c1d2d4c", "type": "electric_scooter", "name": "5e895b197646c9dfe4e95e666c1d2d4c"}, {"is_disabled": 0, "is_reserved": 0, "fusion_lat": 0.0, "lat": 38.92326333333333, "fusion_lon": 0.0, "rental_uris": {"ios": "https://dc.lft.to/lastmile_qr_scan", "android": "https://dc.lft.to/lastmile_qr_scan"}, "lon": -77.07316366666667, "bike_id": "191d440ecd705a28f4ac5dd4c1dc9a99", "type": "electric_scooter", "name": "191d440ecd705a28f4ac5dd4c1dc9a99"}, {"is_disabled": 0, "is_reserved": 0, "fusion_lat": 0.0, "lat": 38.91816816666667, "fusion_lon": 0.0, "rental_uris": {"ios": "https://dc.lft.to/lastmile_qr_scan", "android": "https://dc.lft.to/lastmile_qr_scan"}, "lon": -77.03440183333333, "bike_id": "59192e05d171facc3a303a2800d6a648", "type": "electric_scooter", "name": "59192e05d171facc3a303a2800d6a648"}, {"is_disabled": 0, "is_reserved": 0, "fusion_lat": 0.0, "lat": 38.91319383333333, "fusion_lon": 0.0, "rental_uris": {"ios": "https://dc.lft.to/lastmile_qr_scan", "android": "https://dc.lft.to/lastmile_qr_scan"}, "lon": -77.01437366666667, "bike_id": "755d704755f63317ebe723e76286617f", "type": "electric_scooter", "name": "755d704755f63317ebe723e76286617f"}, {"is_disabled": 0, "is_reserved": 0, "fusion_lat": 0.0, "lat": 38.9055975, "fusion_lon": 0.0, "rental_uris": {"ios": "https://dc.lft.to/lastmile_qr_scan", "android": "https://dc.lft.to/lastmile_qr_scan"}, "lon": -77.00548566666667, "bike_id": "e63d98ae6789b87bb2d242a80be4e2dd", "type": "electric_scooter", "name": "e63d98ae6789b87bb2d242a80be4e2dd"}, {"is_disabled": 0, "is_reserved": 0, "fusion_lat": 0.0, "lat": 38.89921116666667, "fusion_lon": 0.0, "rental_uris": {"ios": "https://dc.lft.to/lastmile_qr_scan", "android": "https://dc.lft.to/lastmile_qr_scan"}, "lon": -77.03225466666666, "bike_id": "a29d64d0686467822ad861b92c5373b8", "type": "electric_scooter", "name": "a29d64d0686467822ad861b92c5373b8"}, {"is_disabled": 0, "is_reserved": 0, "fusion_lat": 0.0, "lat": 38.800201666666666, "fusion_lon": 0.0, "rental_uris": {"ios": "https://dc.lft.to/lastmile_qr_scan", "android": "https://dc.lft.to/lastmile_qr_scan"}, "lon": -77.12996866666667, "bike_id": "dc4a9c6f025cad2585fdabcd737247d9", "type": "electric_bike", "name": "dc4a9c6f025cad2585fdabcd737247d9"}, {"is_disabled": 0, "is_reserved": 0, "fusion_lat": 0.0, "lat": 38.90244716666667, "fusion_lon": 0.0, "rental_uris": {"ios": "https://dc.lft.to/lastmile_qr_scan", "android": "https://dc.lft.to/lastmile_qr_scan"}, "lon": -77.0514135, "bike_id": "59c8e6b39b9b5263ea5f967a838f1041", "type": "electric_scooter", "name": "59c8e6b39b9b5263ea5f967a838f1041"}, {"is_disabled": 0, "is_reserved": 0, "fusion_lat": 0.0, "lat": 38.88041483333333, "fusion_lon": 0.0, "rental_uris": {"ios": "https://dc.lft.to/lastmile_qr_scan", "android": "https://dc.lft.to/lastmile_qr_scan"}, "lon": -76.92722333333333, "bike_id": "e629bcd3ad5cba20dd526392a2ba8999", "type": "electric_scooter", "name": "e629bcd3ad5cba20dd526392a2ba8999"}, {"is_disabled": 0, "is_reserved": 0, "fusion_lat": 0.0, "lat": 38.914423, "fusion_lon": 0.0, "rental_uris": {"ios": "https://dc.lft.to/lastmile_qr_scan", "android": "https://dc.lft.to/lastmile_qr_scan"}, "lon": -77.02288216666666, "bike_id": "6c625d7e126e89f5848c45d29e047bb3", "type": "electric_scooter", "name": "6c625d7e126e89f5848c45d29e047bb3"}, {"is_disabled": 0, "is_reserved": 0, "fusion_lat": 0.0, "lat": 38.93171683333333, "fusion_lon": 0.0, "rental_uris": {"ios": "https://dc.lft.to/lastmile_qr_scan", "android": "https://dc.lft.to/lastmile_qr_scan"}, "lon": -77.0282085, "bike_id": "fbc7fec1db2a4f28f5d7a0a2988c2987", "type": "electric_scooter", "name": "fbc7fec1db2a4f28f5d7a0a2988c2987"}, {"is_disabled": 0, "is_reserved": 0, "fusion_lat": 0.0, "lat": 38.930316833333336, "fusion_lon": 0.0, "rental_uris": {"ios": "https://dc.lft.to/lastmile_qr_scan", "android": "https://dc.lft.to/lastmile_qr_scan"}, "lon": -77.06076683333333, "bike_id": "43cc1b37200620565e8a6717a8200b8d", "type": "electric_scooter", "name": "43cc1b37200620565e8a6717a8200b8d"}, {"is_disabled": 0, "is_reserved": 0, "fusion_lat": 0.0, "lat": 38.90043383333333, "fusion_lon": 0.0, "rental_uris": {"ios": "https://dc.lft.to/lastmile_qr_scan", "android": "https://dc.lft.to/lastmile_qr_scan"}, "lon": -77.00205433333333, "bike_id": "ecbcba0953701d76ca898fd6062d82f5", "type": "electric_scooter", "name": "ecbcba0953701d76ca898fd6062d82f5"}, {"is_disabled": 0, "is_reserved": 0, "fusion_lat": 0.0, "lat": 38.920475833333334, "fusion_lon": 0.0, "rental_uris": {"ios": "https://dc.lft.to/lastmile_qr_scan", "android": "https://dc.lft.to/lastmile_qr_scan"}, "lon": -77.04726166666667, "bike_id": "a7162b405b34e0b51dec90b643d2ecff", "type": "electric_scooter", "name": "a7162b405b34e0b51dec90b643d2ecff"}, {"is_disabled": 0, "is_reserved": 0, "fusion_lat": 0.0, "lat": 38.870675, "fusion_lon": 0.0, "rental_uris": {"ios": "https://dc.lft.to/lastmile_qr_scan", "android": "https://dc.lft.to/lastmile_qr_scan"}, "lon": -76.97975466666666, "bike_id": "1b2b868af929d83700ab4f9b5fed26f9", "type": "electric_scooter", "name": "1b2b868af929d83700ab4f9b5fed26f9"}, {"is_disabled": 0, "is_reserved": 0, "fusion_lat": 0.0, "lat": 38.8757995, "fusion_lon": 0.0, "rental_uris": {"ios": "https://dc.lft.to/lastmile_qr_scan", "android": "https://dc.lft.to/lastmile_qr_scan"}, "lon": -77.23410733333333, "bike_id": "cd17429d9f3ead4e713cb864565eb03b", "type": "electric_bike", "name": "cd17429d9f3ead4e713cb864565eb03b"}, {"is_disabled": 0, "is_reserved": 0, "fusion_lat": 0.0, "lat": 38.87171466666667, "fusion_lon": 0.0, "rental_uris": {"ios": "https://dc.lft.to/lastmile_qr_scan", "android": "https://dc.lft.to/lastmile_qr_scan"}, "lon": -77.0062335, "bike_id": "b1f9233b1a8f5b85785c516052f2cbaa", "type": "electric_scooter", "name": "b1f9233b1a8f5b85785c516052f2cbaa"}, {"is_disabled": 0, "is_reserved": 0, "fusion_lat": 0.0, "lat": 38.960488, "fusion_lon": 0.0, "rental_uris": {"ios": "https://dc.lft.to/lastmile_qr_scan", "android": "https://dc.lft.to/lastmile_qr_scan"}, "lon": -77.005112, "bike_id": "f5451904ea3d3ab7e301ffca8e0f837c", "type": "electric_scooter", "name": "f5451904ea3d3ab7e301ffca8e0f837c"}, {"is_disabled": 0, "is_reserved": 0, "fusion_lat": 0.0, "lat": 38.94795116666667, "fusion_lon": 0.0, "rental_uris": {"ios": "https://dc.lft.to/lastmile_qr_scan", "android": "https://dc.lft.to/lastmile_qr_scan"}, "lon": -77.0790015, "bike_id": "758a5d78db82b3baee1cc32ebe84a6c0", "type": "electric_scooter", "name": "758a5d78db82b3baee1cc32ebe84a6c0"}, {"is_disabled": 0, "is_reserved": 0, "fusion_lat": 0.0, "lat": 38.92672366666667, "fusion_lon": 0.0, "rental_uris": {"ios": "https://dc.lft.to/lastmile_qr_scan", "android": "https://dc.lft.to/lastmile_qr_scan"}, "lon": -77.0146635, "bike_id": "c719fc5adfa87cea2e0ca5f3796bf285", "type": "electric_scooter", "name": "c719fc5adfa87cea2e0ca5f3796bf285"}, {"is_disabled": 0, "is_reserved": 0, "fusion_lat": 0.0, "lat": 38.963833666666666, "fusion_lon": 0.0, "rental_uris": {"ios": "https://dc.lft.to/lastmile_qr_scan", "android": "https://dc.lft.to/lastmile_qr_scan"}, "lon": -77.01977683333334, "bike_id": "16ea4578bb6017a351a71c38d867a978", "type": "electric_bike", "name": "16ea4578bb6017a351a71c38d867a978"}, {"is_disabled": 0, "is_reserved": 0, "fusion_lat": 0.0, "lat": 38.95278733333333, "fusion_lon": 0.0, "rental_uris": {"ios": "https://dc.lft.to/lastmile_qr_scan", "android": "https://dc.lft.to/lastmile_qr_scan"}, "lon": -77.068808, "bike_id": "0b8787d8f9b71f09eacd5d74862ffd9f", "type": "electric_scooter", "name": "0b8787d8f9b71f09eacd5d74862ffd9f"}, {"is_disabled": 0, "is_reserved": 0, "fusion_lat": 0.0, "lat": 38.905928333333335, "fusion_lon": 0.0, "rental_uris": {"ios": "https://dc.lft.to/lastmile_qr_scan", "android": "https://dc.lft.to/lastmile_qr_scan"}, "lon": -77.06537333333333, "bike_id": "7cff2b52f961a76360e68b17068c8ffb", "type": "electric_scooter", "name": "7cff2b52f961a76360e68b17068c8ffb"}, {"is_disabled": 0, "is_reserved": 0, "fusion_lat": 0.0, "lat": 38.914226166666666, "fusion_lon": 0.0, "rental_uris": {"ios": "https://dc.lft.to/lastmile_qr_scan", "android": "https://dc.lft.to/lastmile_qr_scan"}, "lon": -77.03175016666667, "bike_id": "bf61b3cac056db64ee12839c73342707", "type": "electric_scooter", "name": "bf61b3cac056db64ee12839c73342707"}, {"is_disabled": 0, "is_reserved": 0, "fusion_lat": 0.0, "lat": 38.91815, "fusion_lon": 0.0, "rental_uris": {"ios": "https://dc.lft.to/lastmile_qr_scan", "android": "https://dc.lft.to/lastmile_qr_scan"}, "lon": -77.034399, "bike_id": "0b9ad1c357ef27fbef343dd6e5a78ec0", "type": "electric_scooter", "name": "0b9ad1c357ef27fbef343dd6e5a78ec0"}, {"is_disabled": 0, "is_reserved": 0, "fusion_lat": 0.0, "lat": 38.961763, "fusion_lon": 0.0, "rental_uris": {"ios": "https://dc.lft.to/lastmile_qr_scan", "android": "https://dc.lft.to/lastmile_qr_scan"}, "lon": -77.032248, "bike_id": "fc07ca7a6b28b65fb75a4dfd70cd7376", "type": "electric_bike", "name": "fc07ca7a6b28b65fb75a4dfd70cd7376"}, {"is_disabled": 0, "is_reserved": 0, "fusion_lat": 0.0, "lat": 38.949157166666666, "fusion_lon": 0.0, "rental_uris": {"ios": "https://dc.lft.to/lastmile_qr_scan", "android": "https://dc.lft.to/lastmile_qr_scan"}, "lon": -77.00794916666666, "bike_id": "5e62ed544c6baeedb9a50952a3ae7a0c", "type": "electric_bike", "name": "5e62ed544c6baeedb9a50952a3ae7a0c"}, {"is_disabled": 0, "is_reserved": 0, "fusion_lat": 0.0, "lat": 38.89668283333334, "fusion_lon": 0.0, "rental_uris": {"ios": "https://dc.lft.to/lastmile_qr_scan", "android": "https://dc.lft.to/lastmile_qr_scan"}, "lon": -77.04340066666667, "bike_id": "1943433c90da52358c2943cafa0d790d", "type": "electric_scooter", "name": "1943433c90da52358c2943cafa0d790d"}, {"is_disabled": 0, "is_reserved": 0, "fusion_lat": 0.0, "lat": 38.920979, "fusion_lon": 0.0, "rental_uris": {"ios": "https://dc.lft.to/lastmile_qr_scan", "android": "https://dc.lft.to/lastmile_qr_scan"}, "lon": -77.0259485, "bike_id": "eb32b887677feb441e5826ad4e1e059b", "type": "electric_scooter", "name": "eb32b887677feb441e5826ad4e1e059b"}, {"is_disabled": 0, "is_reserved": 0, "fusion_lat": 0.0, "lat": 38.89135816666667, "fusion_lon": 0.0, "rental_uris": {"ios": "https://dc.lft.to/lastmile_qr_scan", "android": "https://dc.lft.to/lastmile_qr_scan"}, "lon": -76.99946516666667, "bike_id": "3bbde621d97735ca0e03d523d9ef0a90", "type": "electric_scooter", "name": "3bbde621d97735ca0e03d523d9ef0a90"}, {"is_disabled": 0, "is_reserved": 0, "fusion_lat": 0.0, "lat": 38.8989465, "fusion_lon": 0.0, "rental_uris": {"ios": "https://dc.lft.to/lastmile_qr_scan", "android": "https://dc.lft.to/lastmile_qr_scan"}, "lon": -77.02827766666667, "bike_id": "238dec6375ca00c3320b44c75734ae4b", "type": "electric_scooter", "name": "238dec6375ca00c3320b44c75734ae4b"}, {"is_disabled": 0, "is_reserved": 0, "fusion_lat": 0.0, "lat": 38.91273283333334, "fusion_lon": 0.0, "rental_uris": {"ios": "https://dc.lft.to/lastmile_qr_scan", "android": "https://dc.lft.to/lastmile_qr_scan"}, "lon": -77.04481383333334, "bike_id": "8c97d85a7ce1d7c6d24ae8457f6575ca", "type": "electric_scooter", "name": "8c97d85a7ce1d7c6d24ae8457f6575ca"}, {"is_disabled": 0, "is_reserved": 0, "fusion_lat": 0.0, "lat": 38.876439, "fusion_lon": 0.0, "rental_uris": {"ios": "https://dc.lft.to/lastmile_qr_scan", "android": "https://dc.lft.to/lastmile_qr_scan"}, "lon": -76.9929815, "bike_id": "9cdae8d797ea6a02fc3f34c1e0dd9ff7", "type": "electric_scooter", "name": "9cdae8d797ea6a02fc3f34c1e0dd9ff7"}, {"is_disabled": 0, "is_reserved": 0, "fusion_lat": 0.0, "lat": 38.9065285, "fusion_lon": 0.0, "rental_uris": {"ios": "https://dc.lft.to/lastmile_qr_scan", "android": "https://dc.lft.to/lastmile_qr_scan"}, "lon": -77.014103, "bike_id": "a585107c1d48bba5357ed413655f3416", "type": "electric_scooter", "name": "a585107c1d48bba5357ed413655f3416"}, {"is_disabled": 0, "is_reserved": 0, "fusion_lat": 0.0, "lat": 38.901014, "fusion_lon": 0.0, "rental_uris": {"ios": "https://dc.lft.to/lastmile_qr_scan", "android": "https://dc.lft.to/lastmile_qr_scan"}, "lon": -77.04768483333334, "bike_id": "b5262d1da96f8f653d0462da880f373c", "type": "electric_scooter", "name": "b5262d1da96f8f653d0462da880f373c"}, {"is_disabled": 0, "is_reserved": 0, "fusion_lat": 0.0, "lat": 38.886047, "fusion_lon": 0.0, "rental_uris": {"ios": "https://dc.lft.to/lastmile_qr_scan", "android": "https://dc.lft.to/lastmile_qr_scan"}, "lon": -77.000799, "bike_id": "6f92d3098f56b1e694adb59405dbc7ca", "type": "electric_bike", "name": "6f92d3098f56b1e694adb59405dbc7ca"}, {"is_disabled": 0, "is_reserved": 0, "fusion_lat": 0.0, "lat": 38.914498, "fusion_lon": 0.0, "rental_uris": {"ios": "https://dc.lft.to/lastmile_qr_scan", "android": "https://dc.lft.to/lastmile_qr_scan"}, "lon": -76.9728215, "bike_id": "7c2d56e8902d248d355f625e4d890469", "type": "electric_bike", "name": "7c2d56e8902d248d355f625e4d890469"}, {"is_disabled": 0, "is_reserved": 0, "fusion_lat": 0.0, "lat": 38.924230666666666, "fusion_lon": 0.0, "rental_uris": {"ios": "https://dc.lft.to/lastmile_qr_scan", "android": "https://dc.lft.to/lastmile_qr_scan"}, "lon": -77.0202505, "bike_id": "0375e19fd68fdde1629fdcfa61e62033", "type": "electric_scooter", "name": "0375e19fd68fdde1629fdcfa61e62033"}, {"is_disabled": 0, "is_reserved": 0, "fusion_lat": 0.0, "lat": 38.89251, "fusion_lon": 0.0, "rental_uris": {"ios": "https://dc.lft.to/lastmile_qr_scan", "android": "https://dc.lft.to/lastmile_qr_scan"}, "lon": -77.0465755, "bike_id": "036184cb5846fbb73804f4ab3158d259", "type": "electric_scooter", "name": "036184cb5846fbb73804f4ab3158d259"}, {"is_disabled": 0, "is_reserved": 0, "fusion_lat": 0.0, "lat": 38.88298, "fusion_lon": 0.0, "rental_uris": {"ios": "https://dc.lft.to/lastmile_qr_scan", "android": "https://dc.lft.to/lastmile_qr_scan"}, "lon": -76.93494933333334, "bike_id": "99efe6016736d19d63419aab4d669a34", "type": "electric_scooter", "name": "99efe6016736d19d63419aab4d669a34"}, {"is_disabled": 0, "is_reserved": 0, "fusion_lat": 0.0, "lat": 38.913561333333334, "fusion_lon": 0.0, "rental_uris": {"ios": "https://dc.lft.to/lastmile_qr_scan", "android": "https://dc.lft.to/lastmile_qr_scan"}, "lon": -77.06399933333333, "bike_id": "c31a504f842b958f699afe8f0822c5a3", "type": "electric_scooter", "name": "c31a504f842b958f699afe8f0822c5a3"}, {"is_disabled": 0, "is_reserved": 0, "fusion_lat": 0.0, "lat": 38.90176483333333, "fusion_lon": 0.0, "rental_uris": {"ios": "https://dc.lft.to/lastmile_qr_scan", "android": "https://dc.lft.to/lastmile_qr_scan"}, "lon": -76.98067616666667, "bike_id": "86f412d887b28d6c8f09aaad10996956", "type": "electric_scooter", "name": "86f412d887b28d6c8f09aaad10996956"}, {"is_disabled": 0, "is_reserved": 0, "fusion_lat": 0.0, "lat": 38.90445483333333, "fusion_lon": 0.0, "rental_uris": {"ios": "https://dc.lft.to/lastmile_qr_scan", "android": "https://dc.lft.to/lastmile_qr_scan"}, "lon": -76.97310116666667, "bike_id": "90fc9ec1af15cb64a286032691d8eab2", "type": "electric_scooter", "name": "90fc9ec1af15cb64a286032691d8eab2"}, {"is_disabled": 0, "is_reserved": 0, "fusion_lat": 0.0, "lat": 38.87651433333333, "fusion_lon": 0.0, "rental_uris": {"ios": "https://dc.lft.to/lastmile_qr_scan", "android": "https://dc.lft.to/lastmile_qr_scan"}, "lon": -77.0158075, "bike_id": "6425f48ce4b2693ac9f4fa5eeb9b61ff", "type": "electric_scooter", "name": "6425f48ce4b2693ac9f4fa5eeb9b61ff"}, {"is_disabled": 0, "is_reserved": 0, "fusion_lat": 0.0, "lat": 38.963543333333334, "fusion_lon": 0.0, "rental_uris": {"ios": "https://dc.lft.to/lastmile_qr_scan", "android": "https://dc.lft.to/lastmile_qr_scan"}, "lon": -77.03446483333333, "bike_id": "5fd85cb165c0bc785b2a589fac1fe296", "type": "electric_scooter", "name": "5fd85cb165c0bc785b2a589fac1fe296"}, {"is_disabled": 0, "is_reserved": 0, "fusion_lat": 0.0, "lat": 38.903654333333336, "fusion_lon": 0.0, "rental_uris": {"ios": "https://dc.lft.to/lastmile_qr_scan", "android": "https://dc.lft.to/lastmile_qr_scan"}, "lon": -77.0601335, "bike_id": "301613824720f6b6fa027eed319a45ff", "type": "electric_scooter", "name": "301613824720f6b6fa027eed319a45ff"}, {"is_disabled": 0, "is_reserved": 0, "fusion_lat": 0.0, "lat": 38.842512666666664, "fusion_lon": 0.0, "rental_uris": {"ios": "https://dc.lft.to/lastmile_qr_scan", "android": "https://dc.lft.to/lastmile_qr_scan"}, "lon": -76.98840466666667, "bike_id": "73bf109d040c344989f2562e8bf5d4e5", "type": "electric_scooter", "name": "73bf109d040c344989f2562e8bf5d4e5"}, {"is_disabled": 0, "is_reserved": 0, "fusion_lat": 0.0, "lat": 38.92905116666667, "fusion_lon": 0.0, "rental_uris": {"ios": "https://dc.lft.to/lastmile_qr_scan", "android": "https://dc.lft.to/lastmile_qr_scan"}, "lon": -77.03251616666667, "bike_id": "cabef6ebefe71f238a054e503d5d54ce", "type": "electric_scooter", "name": "cabef6ebefe71f238a054e503d5d54ce"}, {"is_disabled": 0, "is_reserved": 0, "fusion_lat": 0.0, "lat": 38.92043833333334, "fusion_lon": 0.0, "rental_uris": {"ios": "https://dc.lft.to/lastmile_qr_scan", "android": "https://dc.lft.to/lastmile_qr_scan"}, "lon": -77.0346915, "bike_id": "11dae97e4caa72eb12840ec8767ca988", "type": "electric_scooter", "name": "11dae97e4caa72eb12840ec8767ca988"}, {"is_disabled": 0, "is_reserved": 0, "fusion_lat": 0.0, "lat": 38.879001333333335, "fusion_lon": 0.0, "rental_uris": {"ios": "https://dc.lft.to/lastmile_qr_scan", "android": "https://dc.lft.to/lastmile_qr_scan"}, "lon": -77.00783216666666, "bike_id": "4ccc3e4def89525f0f50b359a18ffa29", "type": "electric_scooter", "name": "4ccc3e4def89525f0f50b359a18ffa29"}, {"is_disabled": 0, "is_reserved": 0, "fusion_lat": 0.0, "lat": 38.9284185, "fusion_lon": 0.0, "rental_uris": {"ios": "https://dc.lft.to/lastmile_qr_scan", "android": "https://dc.lft.to/lastmile_qr_scan"}, "lon": -77.03735033333334, "bike_id": "5909d5fb4603d05aa240a772a34ae060", "type": "electric_scooter", "name": "5909d5fb4603d05aa240a772a34ae060"}, {"is_disabled": 0, "is_reserved": 0, "fusion_lat": 0.0, "lat": 38.92086966666667, "fusion_lon": 0.0, "rental_uris": {"ios": "https://dc.lft.to/lastmile_qr_scan", "android": "https://dc.lft.to/lastmile_qr_scan"}, "lon": -77.017995, "bike_id": "cedef510f6159a59bae6f8f206b2847f", "type": "electric_scooter", "name": "cedef510f6159a59bae6f8f206b2847f"}, {"is_disabled": 0, "is_reserved": 0, "fusion_lat": 0.0, "lat": 38.89743416666666, "fusion_lon": 0.0, "rental_uris": {"ios": "https://dc.lft.to/lastmile_qr_scan", "android": "https://dc.lft.to/lastmile_qr_scan"}, "lon": -76.99221616666667, "bike_id": "0be8903bfc8d14ed5763b6d90966d255", "type": "electric_bike", "name": "0be8903bfc8d14ed5763b6d90966d255"}, {"is_disabled": 0, "is_reserved": 0, "fusion_lat": 0.0, "lat": 38.87674, "fusion_lon": 0.0, "rental_uris": {"ios": "https://dc.lft.to/lastmile_qr_scan", "android": "https://dc.lft.to/lastmile_qr_scan"}, "lon": -77.0144445, "bike_id": "4d94bc254fdb184f8e9fec8c7f4c1c99", "type": "electric_bike", "name": "4d94bc254fdb184f8e9fec8c7f4c1c99"}, {"is_disabled": 0, "is_reserved": 0, "fusion_lat": 0.0, "lat": 38.95075716666667, "fusion_lon": 0.0, "rental_uris": {"ios": "https://dc.lft.to/lastmile_qr_scan", "android": "https://dc.lft.to/lastmile_qr_scan"}, "lon": -77.01200533333333, "bike_id": "14344a6de95af0596be9abd7b8ca1dde", "type": "electric_bike", "name": "14344a6de95af0596be9abd7b8ca1dde"}, {"is_disabled": 0, "is_reserved": 0, "fusion_lat": 0.0, "lat": 38.84858966666667, "fusion_lon": 0.0, "rental_uris": {"ios": "https://dc.lft.to/lastmile_qr_scan", "android": "https://dc.lft.to/lastmile_qr_scan"}, "lon": -77.06831483333333, "bike_id": "98e693e79810707ebe68aaf5a6716f79", "type": "electric_bike", "name": "98e693e79810707ebe68aaf5a6716f79"}, {"is_disabled": 0, "is_reserved": 0, "fusion_lat": 0.0, "lat": 38.8974205, "fusion_lon": 0.0, "rental_uris": {"ios": "https://dc.lft.to/lastmile_qr_scan", "android": "https://dc.lft.to/lastmile_qr_scan"}, "lon": -77.02793333333334, "bike_id": "18420fa7b24618bf1cb2eb4f0f11f4d1", "type": "electric_scooter", "name": "18420fa7b24618bf1cb2eb4f0f11f4d1"}, {"is_disabled": 0, "is_reserved": 0, "fusion_lat": 0.0, "lat": 38.91959816666667, "fusion_lon": 0.0, "rental_uris": {"ios": "https://dc.lft.to/lastmile_qr_scan", "android": "https://dc.lft.to/lastmile_qr_scan"}, "lon": -77.07873266666667, "bike_id": "ecfec171a40e6e84d6aa95a0c26700dd", "type": "electric_scooter", "name": "ecfec171a40e6e84d6aa95a0c26700dd"}, {"is_disabled": 0, "is_reserved": 0, "fusion_lat": 0.0, "lat": 38.907486666666664, "fusion_lon": 0.0, "rental_uris": {"ios": "https://dc.lft.to/lastmile_qr_scan", "android": "https://dc.lft.to/lastmile_qr_scan"}, "lon": -77.0020075, "bike_id": "9dcebbaa974299d7e166f8323feb68a7", "type": "electric_scooter", "name": "9dcebbaa974299d7e166f8323feb68a7"}, {"is_disabled": 0, "is_reserved": 0, "fusion_lat": 0.0, "lat": 38.92096316666667, "fusion_lon": 0.0, "rental_uris": {"ios": "https://dc.lft.to/lastmile_qr_scan", "android": "https://dc.lft.to/lastmile_qr_scan"}, "lon": -77.0326105, "bike_id": "3687558670f8396c80a2c68e43fb7512", "type": "electric_scooter", "name": "3687558670f8396c80a2c68e43fb7512"}, {"is_disabled": 0, "is_reserved": 0, "fusion_lat": 0.0, "lat": 38.80405483333333, "fusion_lon": 0.0, "rental_uris": {"ios": "https://dc.lft.to/lastmile_qr_scan", "android": "https://dc.lft.to/lastmile_qr_scan"}, "lon": -77.113314, "bike_id": "39e475627f6e73a32dee98217f55fd7c", "type": "electric_bike", "name": "39e475627f6e73a32dee98217f55fd7c"}, {"is_disabled": 0, "is_reserved": 0, "fusion_lat": 0.0, "lat": 38.911221, "fusion_lon": 0.0, "rental_uris": {"ios": "https://dc.lft.to/lastmile_qr_scan", "android": "https://dc.lft.to/lastmile_qr_scan"}, "lon": -77.03830616666667, "bike_id": "92f1d2f3e5ce3206cb130dae646f2547", "type": "electric_scooter", "name": "92f1d2f3e5ce3206cb130dae646f2547"}, {"is_disabled": 0, "is_reserved": 0, "fusion_lat": 0.0, "lat": 38.9363305, "fusion_lon": 0.0, "rental_uris": {"ios": "https://dc.lft.to/lastmile_qr_scan", "android": "https://dc.lft.to/lastmile_qr_scan"}, "lon": -77.03657933333334, "bike_id": "9e34a4690c78afb323106c86fb71d63f", "type": "electric_scooter", "name": "9e34a4690c78afb323106c86fb71d63f"}, {"is_disabled": 0, "is_reserved": 0, "fusion_lat": 0.0, "lat": 38.92991983333334, "fusion_lon": 0.0, "rental_uris": {"ios": "https://dc.lft.to/lastmile_qr_scan", "android": "https://dc.lft.to/lastmile_qr_scan"}, "lon": -77.02209633333334, "bike_id": "28b7e4daa9f46e286491c5d20e31708d", "type": "electric_scooter", "name": "28b7e4daa9f46e286491c5d20e31708d"}, {"is_disabled": 0, "is_reserved": 0, "fusion_lat": 0.0, "lat": 38.892541666666666, "fusion_lon": 0.0, "rental_uris": {"ios": "https://dc.lft.to/lastmile_qr_scan", "android": "https://dc.lft.to/lastmile_qr_scan"}, "lon": -77.0465685, "bike_id": "4ff90c0d7b760bcbd162d4dc545a5fad", "type": "electric_scooter", "name": "4ff90c0d7b760bcbd162d4dc545a5fad"}, {"is_disabled": 0, "is_reserved": 0, "fusion_lat": 0.0, "lat": 39.07470466666667, "fusion_lon": 0.0, "rental_uris": {"ios": "https://dc.lft.to/lastmile_qr_scan", "android": "https://dc.lft.to/lastmile_qr_scan"}, "lon": -77.1152605, "bike_id": "59c0e57bc06000e97e5e0c3235ecd409", "type": "electric_bike", "name": "59c0e57bc06000e97e5e0c3235ecd409"}, {"is_disabled": 0, "is_reserved": 0, "fusion_lat": 0.0, "lat": 38.935915666666666, "fusion_lon": 0.0, "rental_uris": {"ios": "https://dc.lft.to/lastmile_qr_scan", "android": "https://dc.lft.to/lastmile_qr_scan"}, "lon": -77.02412416666667, "bike_id": "406d2e25457e6201e0849c938e3a5d6e", "type": "electric_scooter", "name": "406d2e25457e6201e0849c938e3a5d6e"}, {"is_disabled": 0, "is_reserved": 0, "fusion_lat": 0.0, "lat": 38.855942, "fusion_lon": 0.0, "rental_uris": {"ios": "https://dc.lft.to/lastmile_qr_scan", "android": "https://dc.lft.to/lastmile_qr_scan"}, "lon": -76.97284283333333, "bike_id": "7370a7b3d975bea4fd38ebefbc0a4a79", "type": "electric_bike", "name": "7370a7b3d975bea4fd38ebefbc0a4a79"}, {"is_disabled": 0, "is_reserved": 0, "fusion_lat": 0.0, "lat": 38.921012, "fusion_lon": 0.0, "rental_uris": {"ios": "https://dc.lft.to/lastmile_qr_scan", "android": "https://dc.lft.to/lastmile_qr_scan"}, "lon": -77.046918, "bike_id": "5edc00c9aef1858d6ff3727348c412a8", "type": "electric_scooter", "name": "5edc00c9aef1858d6ff3727348c412a8"}, {"is_disabled": 0, "is_reserved": 0, "fusion_lat": 0.0, "lat": 38.90201716666667, "fusion_lon": 0.0, "rental_uris": {"ios": "https://dc.lft.to/lastmile_qr_scan", "android": "https://dc.lft.to/lastmile_qr_scan"}, "lon": -77.02186416666666, "bike_id": "aa24a89b6aeb29a38d29dc121cf84d9f", "type": "electric_scooter", "name": "aa24a89b6aeb29a38d29dc121cf84d9f"}, {"is_disabled": 0, "is_reserved": 0, "fusion_lat": 0.0, "lat": 38.94750466666667, "fusion_lon": 0.0, "rental_uris": {"ios": "https://dc.lft.to/lastmile_qr_scan", "android": "https://dc.lft.to/lastmile_qr_scan"}, "lon": -77.02359633333333, "bike_id": "645a86c8d57437394cd25bd3d9de99be", "type": "electric_scooter", "name": "645a86c8d57437394cd25bd3d9de99be"}, {"is_disabled": 0, "is_reserved": 0, "fusion_lat": 0.0, "lat": 38.916974, "fusion_lon": 0.0, "rental_uris": {"ios": "https://dc.lft.to/lastmile_qr_scan", "android": "https://dc.lft.to/lastmile_qr_scan"}, "lon": -77.03159583333333, "bike_id": "d351423bf0135750cd40f7d68777ee34", "type": "electric_scooter", "name": "d351423bf0135750cd40f7d68777ee34"}, {"is_disabled": 0, "is_reserved": 0, "fusion_lat": 0.0, "lat": 38.87289666666667, "fusion_lon": 0.0, "rental_uris": {"ios": "https://dc.lft.to/lastmile_qr_scan", "android": "https://dc.lft.to/lastmile_qr_scan"}, "lon": -77.00983083333334, "bike_id": "2614f1fe0d7a305bea85ebedf56070f2", "type": "electric_scooter", "name": "2614f1fe0d7a305bea85ebedf56070f2"}, {"is_disabled": 0, "is_reserved": 0, "fusion_lat": 0.0, "lat": 38.9398205, "fusion_lon": 0.0, "rental_uris": {"ios": "https://dc.lft.to/lastmile_qr_scan", "android": "https://dc.lft.to/lastmile_qr_scan"}, "lon": -77.030668, "bike_id": "bd8259c4fffe7a88175d8bce63c55cbd", "type": "electric_scooter", "name": "bd8259c4fffe7a88175d8bce63c55cbd"}, {"is_disabled": 0, "is_reserved": 0, "fusion_lat": 0.0, "lat": 38.919154666666664, "fusion_lon": 0.0, "rental_uris": {"ios": "https://dc.lft.to/lastmile_qr_scan", "android": "https://dc.lft.to/lastmile_qr_scan"}, "lon": -77.02326833333333, "bike_id": "30a6894eaa67dd7f1153dd35400e3fe2", "type": "electric_scooter", "name": "30a6894eaa67dd7f1153dd35400e3fe2"}, {"is_disabled": 0, "is_reserved": 0, "fusion_lat": 0.0, "lat": 38.862868166666665, "fusion_lon": 0.0, "rental_uris": {"ios": "https://dc.lft.to/lastmile_qr_scan", "android": "https://dc.lft.to/lastmile_qr_scan"}, "lon": -76.9452045, "bike_id": "1bc18f51d93302290d4e8cfa0b79e609", "type": "electric_bike", "name": "1bc18f51d93302290d4e8cfa0b79e609"}, {"is_disabled": 0, "is_reserved": 0, "fusion_lat": 0.0, "lat": 38.92348233333333, "fusion_lon": 0.0, "rental_uris": {"ios": "https://dc.lft.to/lastmile_qr_scan", "android": "https://dc.lft.to/lastmile_qr_scan"}, "lon": -77.033949, "bike_id": "40f519f66cd68345247ffb650078efaa", "type": "electric_scooter", "name": "40f519f66cd68345247ffb650078efaa"}, {"is_disabled": 0, "is_reserved": 0, "fusion_lat": 0.0, "lat": 38.90220983333333, "fusion_lon": 0.0, "rental_uris": {"ios": "https://dc.lft.to/lastmile_qr_scan", "android": "https://dc.lft.to/lastmile_qr_scan"}, "lon": -77.02367316666667, "bike_id": "90b45fe20adce4928d9846088610777a", "type": "electric_scooter", "name": "90b45fe20adce4928d9846088610777a"}, {"is_disabled": 0, "is_reserved": 0, "fusion_lat": 0.0, "lat": 38.916829, "fusion_lon": 0.0, "rental_uris": {"ios": "https://dc.lft.to/lastmile_qr_scan", "android": "https://dc.lft.to/lastmile_qr_scan"}, "lon": -77.02977, "bike_id": "a0d8a7963e344febe2cebaa7a42acf9e", "type": "electric_scooter", "name": "a0d8a7963e344febe2cebaa7a42acf9e"}, {"is_disabled": 0, "is_reserved": 0, "fusion_lat": 0.0, "lat": 38.911216333333336, "fusion_lon": 0.0, "rental_uris": {"ios": "https://dc.lft.to/lastmile_qr_scan", "android": "https://dc.lft.to/lastmile_qr_scan"}, "lon": -76.997442, "bike_id": "1436504ad1b530ff656df11ae812a829", "type": "electric_scooter", "name": "1436504ad1b530ff656df11ae812a829"}, {"is_disabled": 0, "is_reserved": 0, "fusion_lat": 0.0, "lat": 38.9385955, "fusion_lon": 0.0, "rental_uris": {"ios": "https://dc.lft.to/lastmile_qr_scan", "android": "https://dc.lft.to/lastmile_qr_scan"}, "lon": -77.02596283333334, "bike_id": "0552fee6ce4e7d4c2dfaf604c60dd911", "type": "electric_scooter", "name": "0552fee6ce4e7d4c2dfaf604c60dd911"}, {"is_disabled": 0, "is_reserved": 0, "fusion_lat": 0.0, "lat": 38.89221166666667, "fusion_lon": 0.0, "rental_uris": {"ios": "https://dc.lft.to/lastmile_qr_scan", "android": "https://dc.lft.to/lastmile_qr_scan"}, "lon": -77.0468275, "bike_id": "66f1ae15c101039a25d88f6811c9f93f", "type": "electric_scooter", "name": "66f1ae15c101039a25d88f6811c9f93f"}, {"is_disabled": 0, "is_reserved": 0, "fusion_lat": 0.0, "lat": 38.9025525, "fusion_lon": 0.0, "rental_uris": {"ios": "https://dc.lft.to/lastmile_qr_scan", "android": "https://dc.lft.to/lastmile_qr_scan"}, "lon": -77.02771033333333, "bike_id": "7f616b628c4b4fb03d969ca986edcb96", "type": "electric_scooter", "name": "7f616b628c4b4fb03d969ca986edcb96"}, {"is_disabled": 0, "is_reserved": 0, "fusion_lat": 0.0, "lat": 38.920462, "fusion_lon": 0.0, "rental_uris": {"ios": "https://dc.lft.to/lastmile_qr_scan", "android": "https://dc.lft.to/lastmile_qr_scan"}, "lon": -77.033877, "bike_id": "01fe0dc6a2e5c96d3b08ee7a7c4d0aa2", "type": "electric_scooter", "name": "01fe0dc6a2e5c96d3b08ee7a7c4d0aa2"}, {"is_disabled": 0, "is_reserved": 0, "fusion_lat": 0.0, "lat": 38.9678285, "fusion_lon": 0.0, "rental_uris": {"ios": "https://dc.lft.to/lastmile_qr_scan", "android": "https://dc.lft.to/lastmile_qr_scan"}, "lon": -76.99651433333334, "bike_id": "b6b6fafffedb16a9f1a5c80179a0d35e", "type": "electric_bike", "name": "b6b6fafffedb16a9f1a5c80179a0d35e"}, {"is_disabled": 0, "is_reserved": 0, "fusion_lat": 0.0, "lat": 38.93905433333333, "fusion_lon": 0.0, "rental_uris": {"ios": "https://dc.lft.to/lastmile_qr_scan", "android": "https://dc.lft.to/lastmile_qr_scan"}, "lon": -77.032815, "bike_id": "4c4bbd6fdd8d4f31e7e65762d488943e", "type": "electric_scooter", "name": "4c4bbd6fdd8d4f31e7e65762d488943e"}, {"is_disabled": 0, "is_reserved": 0, "fusion_lat": 0.0, "lat": 38.9056895, "fusion_lon": 0.0, "rental_uris": {"ios": "https://dc.lft.to/lastmile_qr_scan", "android": "https://dc.lft.to/lastmile_qr_scan"}, "lon": -77.0075185, "bike_id": "0c21e41a40d4a8003b03207f80475aeb", "type": "electric_scooter", "name": "0c21e41a40d4a8003b03207f80475aeb"}, {"is_disabled": 0, "is_reserved": 0, "fusion_lat": 0.0, "lat": 38.902603, "fusion_lon": 0.0, "rental_uris": {"ios": "https://dc.lft.to/lastmile_qr_scan", "android": "https://dc.lft.to/lastmile_qr_scan"}, "lon": -77.01758116666667, "bike_id": "743a1f97b81097909c8bccdc67b0683c", "type": "electric_scooter", "name": "743a1f97b81097909c8bccdc67b0683c"}, {"is_disabled": 0, "is_reserved": 0, "fusion_lat": 0.0, "lat": 38.904907, "fusion_lon": 0.0, "rental_uris": {"ios": "https://dc.lft.to/lastmile_qr_scan", "android": "https://dc.lft.to/lastmile_qr_scan"}, "lon": -76.949662, "bike_id": "b9a54f2b9fd150b1ac545aa743cdd3d9", "type": "electric_scooter", "name": "b9a54f2b9fd150b1ac545aa743cdd3d9"}, {"is_disabled": 0, "is_reserved": 0, "fusion_lat": 0.0, "lat": 38.939039, "fusion_lon": 0.0, "rental_uris": {"ios": "https://dc.lft.to/lastmile_qr_scan", "android": "https://dc.lft.to/lastmile_qr_scan"}, "lon": -77.077651, "bike_id": "e0d42e45a9dd3a254f2bf5ffe815cf42", "type": "electric_scooter", "name": "e0d42e45a9dd3a254f2bf5ffe815cf42"}, {"is_disabled": 0, "is_reserved": 0, "fusion_lat": 0.0, "lat": 38.9492295, "fusion_lon": 0.0, "rental_uris": {"ios": "https://dc.lft.to/lastmile_qr_scan", "android": "https://dc.lft.to/lastmile_qr_scan"}, "lon": -77.023171, "bike_id": "0171c993f74f7b40cb348a99e1a52416", "type": "electric_scooter", "name": "0171c993f74f7b40cb348a99e1a52416"}, {"is_disabled": 0, "is_reserved": 0, "fusion_lat": 0.0, "lat": 38.89746383333333, "fusion_lon": 0.0, "rental_uris": {"ios": "https://dc.lft.to/lastmile_qr_scan", "android": "https://dc.lft.to/lastmile_qr_scan"}, "lon": -77.0213005, "bike_id": "81d578d12185b5827d8993eb6c87fdf7", "type": "electric_scooter", "name": "81d578d12185b5827d8993eb6c87fdf7"}, {"is_disabled": 0, "is_reserved": 0, "fusion_lat": 0.0, "lat": 38.8960615, "fusion_lon": 0.0, "rental_uris": {"ios": "https://dc.lft.to/lastmile_qr_scan", "android": "https://dc.lft.to/lastmile_qr_scan"}, "lon": -77.0454135, "bike_id": "f6021bd288b35ebcee0492ec487714b5", "type": "electric_scooter", "name": "f6021bd288b35ebcee0492ec487714b5"}, {"is_disabled": 0, "is_reserved": 0, "fusion_lat": 0.0, "lat": 38.866859833333336, "fusion_lon": 0.0, "rental_uris": {"ios": "https://dc.lft.to/lastmile_qr_scan", "android": "https://dc.lft.to/lastmile_qr_scan"}, "lon": -76.94858, "bike_id": "12ce97e4fdf0d833649582aa26b2ddcc", "type": "electric_scooter", "name": "12ce97e4fdf0d833649582aa26b2ddcc"}, {"is_disabled": 0, "is_reserved": 0, "fusion_lat": 0.0, "lat": 38.8077115, "fusion_lon": 0.0, "rental_uris": {"ios": "https://dc.lft.to/lastmile_qr_scan", "android": "https://dc.lft.to/lastmile_qr_scan"}, "lon": -77.05741066666667, "bike_id": "362917df5fcd47b51333a666781f4666", "type": "electric_bike", "name": "362917df5fcd47b51333a666781f4666"}, {"is_disabled": 0, "is_reserved": 0, "fusion_lat": 0.0, "lat": 38.924371666666666, "fusion_lon": 0.0, "rental_uris": {"ios": "https://dc.lft.to/lastmile_qr_scan", "android": "https://dc.lft.to/lastmile_qr_scan"}, "lon": -77.03404133333333, "bike_id": "5cfa0d57b25b923377c4fa88b7615e6e", "type": "electric_scooter", "name": "5cfa0d57b25b923377c4fa88b7615e6e"}, {"is_disabled": 0, "is_reserved": 0, "fusion_lat": 0.0, "lat": 38.857240833333336, "fusion_lon": 0.0, "rental_uris": {"ios": "https://dc.lft.to/lastmile_qr_scan", "android": "https://dc.lft.to/lastmile_qr_scan"}, "lon": -76.980928, "bike_id": "afb27dc8df3b2de50f03cd80de01eaae", "type": "electric_scooter", "name": "afb27dc8df3b2de50f03cd80de01eaae"}, {"is_disabled": 0, "is_reserved": 0, "fusion_lat": 0.0, "lat": 38.90774583333334, "fusion_lon": 0.0, "rental_uris": {"ios": "https://dc.lft.to/lastmile_qr_scan", "android": "https://dc.lft.to/lastmile_qr_scan"}, "lon": -77.042268, "bike_id": "8199376f87947787289983d7dd650219", "type": "electric_scooter", "name": "8199376f87947787289983d7dd650219"}, {"is_disabled": 0, "is_reserved": 0, "fusion_lat": 0.0, "lat": 38.87168666666667, "fusion_lon": 0.0, "rental_uris": {"ios": "https://dc.lft.to/lastmile_qr_scan", "android": "https://dc.lft.to/lastmile_qr_scan"}, "lon": -77.0062405, "bike_id": "3e2337b019f0ebc3210a18270188b05a", "type": "electric_scooter", "name": "3e2337b019f0ebc3210a18270188b05a"}, {"is_disabled": 0, "is_reserved": 0, "fusion_lat": 0.0, "lat": 38.885003, "fusion_lon": 0.0, "rental_uris": {"ios": "https://dc.lft.to/lastmile_qr_scan", "android": "https://dc.lft.to/lastmile_qr_scan"}, "lon": -77.02667683333334, "bike_id": "22b85d3a8a185f69dea42826773b3561", "type": "electric_scooter", "name": "22b85d3a8a185f69dea42826773b3561"}, {"is_disabled": 0, "is_reserved": 0, "fusion_lat": 0.0, "lat": 38.915562, "fusion_lon": 0.0, "rental_uris": {"ios": "https://dc.lft.to/lastmile_qr_scan", "android": "https://dc.lft.to/lastmile_qr_scan"}, "lon": -77.0418015, "bike_id": "22909cd3b4fd737d583a65d0f91abc1a", "type": "electric_scooter", "name": "22909cd3b4fd737d583a65d0f91abc1a"}, {"is_disabled": 0, "is_reserved": 0, "fusion_lat": 0.0, "lat": 38.905036333333335, "fusion_lon": 0.0, "rental_uris": {"ios": "https://dc.lft.to/lastmile_qr_scan", "android": "https://dc.lft.to/lastmile_qr_scan"}, "lon": -77.06570383333333, "bike_id": "c9ae64503e7ca70a1c612b7d66001381", "type": "electric_scooter", "name": "c9ae64503e7ca70a1c612b7d66001381"}, {"is_disabled": 0, "is_reserved": 0, "fusion_lat": 0.0, "lat": 38.91770066666667, "fusion_lon": 0.0, "rental_uris": {"ios": "https://dc.lft.to/lastmile_qr_scan", "android": "https://dc.lft.to/lastmile_qr_scan"}, "lon": -77.02212816666666, "bike_id": "6b8fefc89eb2d5402b52502e9b9a8bc8", "type": "electric_scooter", "name": "6b8fefc89eb2d5402b52502e9b9a8bc8"}, {"is_disabled": 0, "is_reserved": 0, "fusion_lat": 0.0, "lat": 38.957823, "fusion_lon": 0.0, "rental_uris": {"ios": "https://dc.lft.to/lastmile_qr_scan", "android": "https://dc.lft.to/lastmile_qr_scan"}, "lon": -77.024164, "bike_id": "564770f0807b7c1a531465b9388348d8", "type": "electric_scooter", "name": "564770f0807b7c1a531465b9388348d8"}, {"is_disabled": 0, "is_reserved": 0, "fusion_lat": 0.0, "lat": 38.9215435, "fusion_lon": 0.0, "rental_uris": {"ios": "https://dc.lft.to/lastmile_qr_scan", "android": "https://dc.lft.to/lastmile_qr_scan"}, "lon": -77.03512466666666, "bike_id": "c2cf0509a286e29d9e005e1fc67cd263", "type": "electric_scooter", "name": "c2cf0509a286e29d9e005e1fc67cd263"}, {"is_disabled": 0, "is_reserved": 0, "fusion_lat": 0.0, "lat": 38.9150755, "fusion_lon": 0.0, "rental_uris": {"ios": "https://dc.lft.to/lastmile_qr_scan", "android": "https://dc.lft.to/lastmile_qr_scan"}, "lon": -77.01847783333334, "bike_id": "18ac61b25ffa5a670ec223596beb9c01", "type": "electric_scooter", "name": "18ac61b25ffa5a670ec223596beb9c01"}, {"is_disabled": 0, "is_reserved": 0, "fusion_lat": 0.0, "lat": 38.92971333333333, "fusion_lon": 0.0, "rental_uris": {"ios": "https://dc.lft.to/lastmile_qr_scan", "android": "https://dc.lft.to/lastmile_qr_scan"}, "lon": -77.02821233333333, "bike_id": "78a729557b8cc250a24930364620bea9", "type": "electric_scooter", "name": "78a729557b8cc250a24930364620bea9"}, {"is_disabled": 0, "is_reserved": 0, "fusion_lat": 0.0, "lat": 38.921725, "fusion_lon": 0.0, "rental_uris": {"ios": "https://dc.lft.to/lastmile_qr_scan", "android": "https://dc.lft.to/lastmile_qr_scan"}, "lon": -77.02682783333333, "bike_id": "2a20ff53f6d295ab20b1c82965a09f01", "type": "electric_scooter", "name": "2a20ff53f6d295ab20b1c82965a09f01"}, {"is_disabled": 0, "is_reserved": 0, "fusion_lat": 0.0, "lat": 38.87663716666667, "fusion_lon": 0.0, "rental_uris": {"ios": "https://dc.lft.to/lastmile_qr_scan", "android": "https://dc.lft.to/lastmile_qr_scan"}, "lon": -77.0081715, "bike_id": "2b4a061e77eb3cecdd27a25768351ea1", "type": "electric_scooter", "name": "2b4a061e77eb3cecdd27a25768351ea1"}, {"is_disabled": 0, "is_reserved": 0, "fusion_lat": 0.0, "lat": 38.89387883333333, "fusion_lon": 0.0, "rental_uris": {"ios": "https://dc.lft.to/lastmile_qr_scan", "android": "https://dc.lft.to/lastmile_qr_scan"}, "lon": -77.0443185, "bike_id": "bae06870619ab5324b7693b187417aae", "type": "electric_scooter", "name": "bae06870619ab5324b7693b187417aae"}, {"is_disabled": 0, "is_reserved": 0, "fusion_lat": 0.0, "lat": 38.91226366666667, "fusion_lon": 0.0, "rental_uris": {"ios": "https://dc.lft.to/lastmile_qr_scan", "android": "https://dc.lft.to/lastmile_qr_scan"}, "lon": -77.03642866666667, "bike_id": "9ee05e70c1ea5fd9620fb63ba46e404f", "type": "electric_scooter", "name": "9ee05e70c1ea5fd9620fb63ba46e404f"}, {"is_disabled": 0, "is_reserved": 0, "fusion_lat": 0.0, "lat": 38.8941105, "fusion_lon": 0.0, "rental_uris": {"ios": "https://dc.lft.to/lastmile_qr_scan", "android": "https://dc.lft.to/lastmile_qr_scan"}, "lon": -77.03379083333333, "bike_id": "32751c33c72f24c5a677cfe370cd9252", "type": "electric_scooter", "name": "32751c33c72f24c5a677cfe370cd9252"}, {"is_disabled": 0, "is_reserved": 0, "fusion_lat": 0.0, "lat": 38.918517, "fusion_lon": 0.0, "rental_uris": {"ios": "https://dc.lft.to/lastmile_qr_scan", "android": "https://dc.lft.to/lastmile_qr_scan"}, "lon": -76.96091383333334, "bike_id": "826097f7e117e850ae7f43d415fb0a15", "type": "electric_scooter", "name": "826097f7e117e850ae7f43d415fb0a15"}, {"is_disabled": 0, "is_reserved": 0, "fusion_lat": 0.0, "lat": 38.919249666666666, "fusion_lon": 0.0, "rental_uris": {"ios": "https://dc.lft.to/lastmile_qr_scan", "android": "https://dc.lft.to/lastmile_qr_scan"}, "lon": -77.013621, "bike_id": "3264f607518f24c8df7f231cea43de7d", "type": "electric_scooter", "name": "3264f607518f24c8df7f231cea43de7d"}, {"is_disabled": 0, "is_reserved": 0, "fusion_lat": 0.0, "lat": 38.8924925, "fusion_lon": 0.0, "rental_uris": {"ios": "https://dc.lft.to/lastmile_qr_scan", "android": "https://dc.lft.to/lastmile_qr_scan"}, "lon": -76.925553, "bike_id": "755a3d107d232f89b20c3034c64eb9f3", "type": "electric_scooter", "name": "755a3d107d232f89b20c3034c64eb9f3"}, {"is_disabled": 0, "is_reserved": 0, "fusion_lat": 0.0, "lat": 38.9083225, "fusion_lon": 0.0, "rental_uris": {"ios": "https://dc.lft.to/lastmile_qr_scan", "android": "https://dc.lft.to/lastmile_qr_scan"}, "lon": -77.0338045, "bike_id": "aa295928ada4624fd7aa37c1306507bc", "type": "electric_scooter", "name": "aa295928ada4624fd7aa37c1306507bc"}, {"is_disabled": 0, "is_reserved": 0, "fusion_lat": 0.0, "lat": 38.892216, "fusion_lon": 0.0, "rental_uris": {"ios": "https://dc.lft.to/lastmile_qr_scan", "android": "https://dc.lft.to/lastmile_qr_scan"}, "lon": -77.0242085, "bike_id": "9a5f796e3c4f7076d93463ef848b730b", "type": "electric_scooter", "name": "9a5f796e3c4f7076d93463ef848b730b"}, {"is_disabled": 0, "is_reserved": 0, "fusion_lat": 0.0, "lat": 38.949249333333334, "fusion_lon": 0.0, "rental_uris": {"ios": "https://dc.lft.to/lastmile_qr_scan", "android": "https://dc.lft.to/lastmile_qr_scan"}, "lon": -77.0193565, "bike_id": "10c4d857e51b6cf9785a9c563a44b43f", "type": "electric_scooter", "name": "10c4d857e51b6cf9785a9c563a44b43f"}, {"is_disabled": 0, "is_reserved": 0, "fusion_lat": 0.0, "lat": 38.906088, "fusion_lon": 0.0, "rental_uris": {"ios": "https://dc.lft.to/lastmile_qr_scan", "android": "https://dc.lft.to/lastmile_qr_scan"}, "lon": -76.9842375, "bike_id": "d22b7df4346ce9f3179a7e6b85ffbcd7", "type": "electric_scooter", "name": "d22b7df4346ce9f3179a7e6b85ffbcd7"}, {"is_disabled": 0, "is_reserved": 0, "fusion_lat": 0.0, "lat": 38.93450466666667, "fusion_lon": 0.0, "rental_uris": {"ios": "https://dc.lft.to/lastmile_qr_scan", "android": "https://dc.lft.to/lastmile_qr_scan"}, "lon": -77.02985166666667, "bike_id": "feaea1e6c1749e89fc7119beea9f98f1", "type": "electric_scooter", "name": "feaea1e6c1749e89fc7119beea9f98f1"}, {"is_disabled": 0, "is_reserved": 0, "fusion_lat": 0.0, "lat": 38.9041805, "fusion_lon": 0.0, "rental_uris": {"ios": "https://dc.lft.to/lastmile_qr_scan", "android": "https://dc.lft.to/lastmile_qr_scan"}, "lon": -77.025924, "bike_id": "8ae9dd82400421e91211ce7688431b37", "type": "electric_scooter", "name": "8ae9dd82400421e91211ce7688431b37"}, {"is_disabled": 0, "is_reserved": 0, "fusion_lat": 0.0, "lat": 38.9188675, "fusion_lon": 0.0, "rental_uris": {"ios": "https://dc.lft.to/lastmile_qr_scan", "android": "https://dc.lft.to/lastmile_qr_scan"}, "lon": -77.0348905, "bike_id": "641e13a857ac5543dd7d15807196eb97", "type": "electric_scooter", "name": "641e13a857ac5543dd7d15807196eb97"}, {"is_disabled": 0, "is_reserved": 0, "fusion_lat": 0.0, "lat": 38.918018000000004, "fusion_lon": 0.0, "rental_uris": {"ios": "https://dc.lft.to/lastmile_qr_scan", "android": "https://dc.lft.to/lastmile_qr_scan"}, "lon": -77.03181983333333, "bike_id": "b2238bf483e50c6e6c29993b28a4a746", "type": "electric_scooter", "name": "b2238bf483e50c6e6c29993b28a4a746"}, {"is_disabled": 0, "is_reserved": 0, "fusion_lat": 0.0, "lat": 38.90609233333333, "fusion_lon": 0.0, "rental_uris": {"ios": "https://dc.lft.to/lastmile_qr_scan", "android": "https://dc.lft.to/lastmile_qr_scan"}, "lon": -77.12901066666667, "bike_id": "fe0fc90e23e2ce0ec66867d54ed8ae66", "type": "electric_bike", "name": "fe0fc90e23e2ce0ec66867d54ed8ae66"}, {"is_disabled": 0, "is_reserved": 0, "fusion_lat": 0.0, "lat": 38.88102816666667, "fusion_lon": 0.0, "rental_uris": {"ios": "https://dc.lft.to/lastmile_qr_scan", "android": "https://dc.lft.to/lastmile_qr_scan"}, "lon": -77.012363, "bike_id": "e627b0cbb42196cc9a2a7a26666ae4ff", "type": "electric_scooter", "name": "e627b0cbb42196cc9a2a7a26666ae4ff"}, {"is_disabled": 0, "is_reserved": 0, "fusion_lat": 0.0, "lat": 38.965661, "fusion_lon": 0.0, "rental_uris": {"ios": "https://dc.lft.to/lastmile_qr_scan", "android": "https://dc.lft.to/lastmile_qr_scan"}, "lon": -77.02822916666666, "bike_id": "afb0c92ef1d33100bd354470698eca0f", "type": "electric_bike", "name": "afb0c92ef1d33100bd354470698eca0f"}, {"is_disabled": 0, "is_reserved": 0, "fusion_lat": 0.0, "lat": 38.8850355, "fusion_lon": 0.0, "rental_uris": {"ios": "https://dc.lft.to/lastmile_qr_scan", "android": "https://dc.lft.to/lastmile_qr_scan"}, "lon": -76.99617116666667, "bike_id": "89062a408f211f7f25d259f6147b0ab8", "type": "electric_scooter", "name": "89062a408f211f7f25d259f6147b0ab8"}, {"is_disabled": 0, "is_reserved": 0, "fusion_lat": 0.0, "lat": 38.922494, "fusion_lon": 0.0, "rental_uris": {"ios": "https://dc.lft.to/lastmile_qr_scan", "android": "https://dc.lft.to/lastmile_qr_scan"}, "lon": -77.0307535, "bike_id": "66fd45bafdee322197c23e50c746d192", "type": "electric_scooter", "name": "66fd45bafdee322197c23e50c746d192"}, {"is_disabled": 0, "is_reserved": 0, "fusion_lat": 0.0, "lat": 38.90713933333333, "fusion_lon": 0.0, "rental_uris": {"ios": "https://dc.lft.to/lastmile_qr_scan", "android": "https://dc.lft.to/lastmile_qr_scan"}, "lon": -77.04647566666667, "bike_id": "007c04cbffe2f55567c5198b274520d8", "type": "electric_scooter", "name": "007c04cbffe2f55567c5198b274520d8"}, {"is_disabled": 0, "is_reserved": 0, "fusion_lat": 0.0, "lat": 39.005359, "fusion_lon": 0.0, "rental_uris": {"ios": "https://dc.lft.to/lastmile_qr_scan", "android": "https://dc.lft.to/lastmile_qr_scan"}, "lon": -77.1040225, "bike_id": "efa406850f429636e6acafa9abeca4a5", "type": "electric_bike", "name": "efa406850f429636e6acafa9abeca4a5"}, {"is_disabled": 0, "is_reserved": 0, "fusion_lat": 0.0, "lat": 38.91574633333333, "fusion_lon": 0.0, "rental_uris": {"ios": "https://dc.lft.to/lastmile_qr_scan", "android": "https://dc.lft.to/lastmile_qr_scan"}, "lon": -77.036625, "bike_id": "9a119125bc3e501967a0c9910a7cfd73", "type": "electric_scooter", "name": "9a119125bc3e501967a0c9910a7cfd73"}, {"is_disabled": 0, "is_reserved": 0, "fusion_lat": 0.0, "lat": 38.97369233333333, "fusion_lon": 0.0, "rental_uris": {"ios": "https://dc.lft.to/lastmile_qr_scan", "android": "https://dc.lft.to/lastmile_qr_scan"}, "lon": -77.018682, "bike_id": "3b9935649e8e70ce8aa52b5706997419", "type": "electric_scooter", "name": "3b9935649e8e70ce8aa52b5706997419"}, {"is_disabled": 0, "is_reserved": 0, "fusion_lat": 0.0, "lat": 38.93151733333333, "fusion_lon": 0.0, "rental_uris": {"ios": "https://dc.lft.to/lastmile_qr_scan", "android": "https://dc.lft.to/lastmile_qr_scan"}, "lon": -77.07850183333333, "bike_id": "c34454049f864fa0ed9b5d521376a588", "type": "electric_scooter", "name": "c34454049f864fa0ed9b5d521376a588"}, {"is_disabled": 0, "is_reserved": 0, "fusion_lat": 0.0, "lat": 39.003803166666664, "fusion_lon": 0.0, "rental_uris": {"ios": "https://dc.lft.to/lastmile_qr_scan", "android": "https://dc.lft.to/lastmile_qr_scan"}, "lon": -77.0128845, "bike_id": "8873381659ec2efcda3bb678f52af0be", "type": "electric_bike", "name": "8873381659ec2efcda3bb678f52af0be"}, {"is_disabled": 0, "is_reserved": 0, "fusion_lat": 0.0, "lat": 38.891731666666665, "fusion_lon": 0.0, "rental_uris": {"ios": "https://dc.lft.to/lastmile_qr_scan", "android": "https://dc.lft.to/lastmile_qr_scan"}, "lon": -77.01563716666666, "bike_id": "91164ac75749f6abab4c3488c4fa0c2c", "type": "electric_scooter", "name": "91164ac75749f6abab4c3488c4fa0c2c"}, {"is_disabled": 0, "is_reserved": 0, "fusion_lat": 0.0, "lat": 38.95363316666667, "fusion_lon": 0.0, "rental_uris": {"ios": "https://dc.lft.to/lastmile_qr_scan", "android": "https://dc.lft.to/lastmile_qr_scan"}, "lon": -76.94297016666667, "bike_id": "7e5d04009cb8f45129085cc08ba98731", "type": "electric_bike", "name": "7e5d04009cb8f45129085cc08ba98731"}, {"is_disabled": 0, "is_reserved": 0, "fusion_lat": 0.0, "lat": 38.894376666666666, "fusion_lon": 0.0, "rental_uris": {"ios": "https://dc.lft.to/lastmile_qr_scan", "android": "https://dc.lft.to/lastmile_qr_scan"}, "lon": -76.9799065, "bike_id": "1add16b0a573ac760702bac03aca3a23", "type": "electric_scooter", "name": "1add16b0a573ac760702bac03aca3a23"}, {"is_disabled": 0, "is_reserved": 0, "fusion_lat": 0.0, "lat": 38.9397595, "fusion_lon": 0.0, "rental_uris": {"ios": "https://dc.lft.to/lastmile_qr_scan", "android": "https://dc.lft.to/lastmile_qr_scan"}, "lon": -77.03430766666666, "bike_id": "b7393c974c490f61b3e49ef2fd551105", "type": "electric_scooter", "name": "b7393c974c490f61b3e49ef2fd551105"}, {"is_disabled": 0, "is_reserved": 0, "fusion_lat": 0.0, "lat": 38.90609466666667, "fusion_lon": 0.0, "rental_uris": {"ios": "https://dc.lft.to/lastmile_qr_scan", "android": "https://dc.lft.to/lastmile_qr_scan"}, "lon": -77.04151583333334, "bike_id": "a0d00388a197ee4e0a5b5ec19656160d", "type": "electric_scooter", "name": "a0d00388a197ee4e0a5b5ec19656160d"}, {"is_disabled": 0, "is_reserved": 0, "fusion_lat": 0.0, "lat": 38.903417833333336, "fusion_lon": 0.0, "rental_uris": {"ios": "https://dc.lft.to/lastmile_qr_scan", "android": "https://dc.lft.to/lastmile_qr_scan"}, "lon": -76.97574483333334, "bike_id": "4d9523b1bb5ac9b6487674ad4aa74034", "type": "electric_scooter", "name": "4d9523b1bb5ac9b6487674ad4aa74034"}, {"is_disabled": 0, "is_reserved": 0, "fusion_lat": 0.0, "lat": 38.837732, "fusion_lon": 0.0, "rental_uris": {"ios": "https://dc.lft.to/lastmile_qr_scan", "android": "https://dc.lft.to/lastmile_qr_scan"}, "lon": -76.99858183333333, "bike_id": "8507e305f872503a464170d1018c8dd0", "type": "electric_scooter", "name": "8507e305f872503a464170d1018c8dd0"}, {"is_disabled": 0, "is_reserved": 0, "fusion_lat": 0.0, "lat": 38.9007695, "fusion_lon": 0.0, "rental_uris": {"ios": "https://dc.lft.to/lastmile_qr_scan", "android": "https://dc.lft.to/lastmile_qr_scan"}, "lon": -77.05063866666667, "bike_id": "7c0a36416d4ed5b6ba7a51328d63c3df", "type": "electric_scooter", "name": "7c0a36416d4ed5b6ba7a51328d63c3df"}, {"is_disabled": 0, "is_reserved": 0, "fusion_lat": 0.0, "lat": 38.919241666666665, "fusion_lon": 0.0, "rental_uris": {"ios": "https://dc.lft.to/lastmile_qr_scan", "android": "https://dc.lft.to/lastmile_qr_scan"}, "lon": -77.0342615, "bike_id": "679b8235947b477596f831d593262787", "type": "electric_scooter", "name": "679b8235947b477596f831d593262787"}, {"is_disabled": 0, "is_reserved": 0, "fusion_lat": 0.0, "lat": 38.9199605, "fusion_lon": 0.0, "rental_uris": {"ios": "https://dc.lft.to/lastmile_qr_scan", "android": "https://dc.lft.to/lastmile_qr_scan"}, "lon": -77.03253066666667, "bike_id": "e17a1f1146d356c22568d75b38e42376", "type": "electric_scooter", "name": "e17a1f1146d356c22568d75b38e42376"}, {"is_disabled": 0, "is_reserved": 0, "fusion_lat": 0.0, "lat": 38.807330666666665, "fusion_lon": 0.0, "rental_uris": {"ios": "https://dc.lft.to/lastmile_qr_scan", "android": "https://dc.lft.to/lastmile_qr_scan"}, "lon": -76.99262916666666, "bike_id": "460bea0f675c7da9886b345dc31db156", "type": "electric_bike", "name": "460bea0f675c7da9886b345dc31db156"}, {"is_disabled": 0, "is_reserved": 0, "fusion_lat": 0.0, "lat": 38.92451466666667, "fusion_lon": 0.0, "rental_uris": {"ios": "https://dc.lft.to/lastmile_qr_scan", "android": "https://dc.lft.to/lastmile_qr_scan"}, "lon": -77.02039033333334, "bike_id": "0869eb5c8598a378b2a56b689e6c272e", "type": "electric_scooter", "name": "0869eb5c8598a378b2a56b689e6c272e"}, {"is_disabled": 0, "is_reserved": 0, "fusion_lat": 0.0, "lat": 38.962143166666664, "fusion_lon": 0.0, "rental_uris": {"ios": "https://dc.lft.to/lastmile_qr_scan", "android": "https://dc.lft.to/lastmile_qr_scan"}, "lon": -77.026309, "bike_id": "dfe1501caa16cb87310150af5152fe98", "type": "electric_bike", "name": "dfe1501caa16cb87310150af5152fe98"}, {"is_disabled": 0, "is_reserved": 0, "fusion_lat": 0.0, "lat": 38.92273083333333, "fusion_lon": 0.0, "rental_uris": {"ios": "https://dc.lft.to/lastmile_qr_scan", "android": "https://dc.lft.to/lastmile_qr_scan"}, "lon": -77.02968033333333, "bike_id": "f31dcf9eaf7ec6d031d465c6627381eb", "type": "electric_scooter", "name": "f31dcf9eaf7ec6d031d465c6627381eb"}, {"is_disabled": 0, "is_reserved": 0, "fusion_lat": 0.0, "lat": 38.923517, "fusion_lon": 0.0, "rental_uris": {"ios": "https://dc.lft.to/lastmile_qr_scan", "android": "https://dc.lft.to/lastmile_qr_scan"}, "lon": -77.00197633333333, "bike_id": "81786e8ad814086cf759b36274c3ff62", "type": "electric_scooter", "name": "81786e8ad814086cf759b36274c3ff62"}, {"is_disabled": 0, "is_reserved": 0, "fusion_lat": 0.0, "lat": 38.883229166666666, "fusion_lon": 0.0, "rental_uris": {"ios": "https://dc.lft.to/lastmile_qr_scan", "android": "https://dc.lft.to/lastmile_qr_scan"}, "lon": -77.01743116666667, "bike_id": "49cb6e0852b21cb07b3c0f10b7ce10e3", "type": "electric_scooter", "name": "49cb6e0852b21cb07b3c0f10b7ce10e3"}, {"is_disabled": 0, "is_reserved": 0, "fusion_lat": 0.0, "lat": 38.907769, "fusion_lon": 0.0, "rental_uris": {"ios": "https://dc.lft.to/lastmile_qr_scan", "android": "https://dc.lft.to/lastmile_qr_scan"}, "lon": -77.04535116666666, "bike_id": "2db7d8fc2cad0f3194480e16f96c1cc9", "type": "electric_scooter", "name": "2db7d8fc2cad0f3194480e16f96c1cc9"}, {"is_disabled": 0, "is_reserved": 0, "fusion_lat": 0.0, "lat": 38.900247666666665, "fusion_lon": 0.0, "rental_uris": {"ios": "https://dc.lft.to/lastmile_qr_scan", "android": "https://dc.lft.to/lastmile_qr_scan"}, "lon": -77.0119925, "bike_id": "e43852ad29e059933bfd7602a633c2de", "type": "electric_scooter", "name": "e43852ad29e059933bfd7602a633c2de"}, {"is_disabled": 0, "is_reserved": 0, "fusion_lat": 0.0, "lat": 38.870847, "fusion_lon": 0.0, "rental_uris": {"ios": "https://dc.lft.to/lastmile_qr_scan", "android": "https://dc.lft.to/lastmile_qr_scan"}, "lon": -77.01083033333333, "bike_id": "0caebffacc90e90dfe12d3669b283c5a", "type": "electric_scooter", "name": "0caebffacc90e90dfe12d3669b283c5a"}, {"is_disabled": 0, "is_reserved": 0, "fusion_lat": 0.0, "lat": 38.92755233333333, "fusion_lon": 0.0, "rental_uris": {"ios": "https://dc.lft.to/lastmile_qr_scan", "android": "https://dc.lft.to/lastmile_qr_scan"}, "lon": -77.0296435, "bike_id": "2d5f08d4d24727c706b2a9c515f423e9", "type": "electric_scooter", "name": "2d5f08d4d24727c706b2a9c515f423e9"}, {"is_disabled": 0, "is_reserved": 0, "fusion_lat": 0.0, "lat": 38.902387166666664, "fusion_lon": 0.0, "rental_uris": {"ios": "https://dc.lft.to/lastmile_qr_scan", "android": "https://dc.lft.to/lastmile_qr_scan"}, "lon": -77.05201383333333, "bike_id": "cc7acfcb24a62307508dbfc8cbb7f5fb", "type": "electric_scooter", "name": "cc7acfcb24a62307508dbfc8cbb7f5fb"}, {"is_disabled": 0, "is_reserved": 0, "fusion_lat": 0.0, "lat": 38.950973833333336, "fusion_lon": 0.0, "rental_uris": {"ios": "https://dc.lft.to/lastmile_qr_scan", "android": "https://dc.lft.to/lastmile_qr_scan"}, "lon": -77.02963266666667, "bike_id": "0d8a3529203809760fa8d4782d55935f", "type": "electric_scooter", "name": "0d8a3529203809760fa8d4782d55935f"}, {"is_disabled": 0, "is_reserved": 0, "fusion_lat": 0.0, "lat": 38.896352666666665, "fusion_lon": 0.0, "rental_uris": {"ios": "https://dc.lft.to/lastmile_qr_scan", "android": "https://dc.lft.to/lastmile_qr_scan"}, "lon": -77.03218816666667, "bike_id": "21c5ebd9cba948983f5e67408e72b833", "type": "electric_scooter", "name": "21c5ebd9cba948983f5e67408e72b833"}, {"is_disabled": 0, "is_reserved": 0, "fusion_lat": 0.0, "lat": 38.8757175, "fusion_lon": 0.0, "rental_uris": {"ios": "https://dc.lft.to/lastmile_qr_scan", "android": "https://dc.lft.to/lastmile_qr_scan"}, "lon": -77.00595033333333, "bike_id": "70a8fa348ad48a997b0639c4bdc7e51b", "type": "electric_scooter", "name": "70a8fa348ad48a997b0639c4bdc7e51b"}, {"is_disabled": 0, "is_reserved": 0, "fusion_lat": 0.0, "lat": 38.941418166666665, "fusion_lon": 0.0, "rental_uris": {"ios": "https://dc.lft.to/lastmile_qr_scan", "android": "https://dc.lft.to/lastmile_qr_scan"}, "lon": -77.02331766666667, "bike_id": "9b9e7b125b9271a8be973d4b1ace0b95", "type": "electric_scooter", "name": "9b9e7b125b9271a8be973d4b1ace0b95"}, {"is_disabled": 0, "is_reserved": 0, "fusion_lat": 0.0, "lat": 38.89515316666667, "fusion_lon": 0.0, "rental_uris": {"ios": "https://dc.lft.to/lastmile_qr_scan", "android": "https://dc.lft.to/lastmile_qr_scan"}, "lon": -77.02289083333334, "bike_id": "929063ffc3c861f1fbbd2fa812de31ed", "type": "electric_scooter", "name": "929063ffc3c861f1fbbd2fa812de31ed"}, {"is_disabled": 0, "is_reserved": 0, "fusion_lat": 0.0, "lat": 38.905057666666664, "fusion_lon": 0.0, "rental_uris": {"ios": "https://dc.lft.to/lastmile_qr_scan", "android": "https://dc.lft.to/lastmile_qr_scan"}, "lon": -77.0657205, "bike_id": "61134c3c46edb2998934c5950a156005", "type": "electric_scooter", "name": "61134c3c46edb2998934c5950a156005"}, {"is_disabled": 0, "is_reserved": 0, "fusion_lat": 0.0, "lat": 38.9101585, "fusion_lon": 0.0, "rental_uris": {"ios": "https://dc.lft.to/lastmile_qr_scan", "android": "https://dc.lft.to/lastmile_qr_scan"}, "lon": -77.04456533333334, "bike_id": "970a3b1f905a49e4b92e0bbc0226c764", "type": "electric_scooter", "name": "970a3b1f905a49e4b92e0bbc0226c764"}, {"is_disabled": 0, "is_reserved": 0, "fusion_lat": 0.0, "lat": 38.91682216666667, "fusion_lon": 0.0, "rental_uris": {"ios": "https://dc.lft.to/lastmile_qr_scan", "android": "https://dc.lft.to/lastmile_qr_scan"}, "lon": -77.03639166666666, "bike_id": "f940e20252692117125150b2cb66819f", "type": "electric_scooter", "name": "f940e20252692117125150b2cb66819f"}, {"is_disabled": 0, "is_reserved": 0, "fusion_lat": 0.0, "lat": 38.918093166666665, "fusion_lon": 0.0, "rental_uris": {"ios": "https://dc.lft.to/lastmile_qr_scan", "android": "https://dc.lft.to/lastmile_qr_scan"}, "lon": -77.03436416666666, "bike_id": "44381f91f9489b9c0d1b14fb480bc0a7", "type": "electric_scooter", "name": "44381f91f9489b9c0d1b14fb480bc0a7"}, {"is_disabled": 0, "is_reserved": 0, "fusion_lat": 0.0, "lat": 38.887697, "fusion_lon": 0.0, "rental_uris": {"ios": "https://dc.lft.to/lastmile_qr_scan", "android": "https://dc.lft.to/lastmile_qr_scan"}, "lon": -77.01463566666666, "bike_id": "22d0505597050acf7cadbed13eb2a8e7", "type": "electric_scooter", "name": "22d0505597050acf7cadbed13eb2a8e7"}, {"is_disabled": 0, "is_reserved": 0, "fusion_lat": 0.0, "lat": 38.89747366666667, "fusion_lon": 0.0, "rental_uris": {"ios": "https://dc.lft.to/lastmile_qr_scan", "android": "https://dc.lft.to/lastmile_qr_scan"}, "lon": -77.054799, "bike_id": "bf6fbf7a86f276e79af092ef75edabf6", "type": "electric_scooter", "name": "bf6fbf7a86f276e79af092ef75edabf6"}, {"is_disabled": 0, "is_reserved": 0, "fusion_lat": 0.0, "lat": 38.8593525, "fusion_lon": 0.0, "rental_uris": {"ios": "https://dc.lft.to/lastmile_qr_scan", "android": "https://dc.lft.to/lastmile_qr_scan"}, "lon": -76.98681966666666, "bike_id": "3aa7a35d58800e3be3974d507ca0a009", "type": "electric_scooter", "name": "3aa7a35d58800e3be3974d507ca0a009"}, {"is_disabled": 0, "is_reserved": 0, "fusion_lat": 0.0, "lat": 38.92106166666667, "fusion_lon": 0.0, "rental_uris": {"ios": "https://dc.lft.to/lastmile_qr_scan", "android": "https://dc.lft.to/lastmile_qr_scan"}, "lon": -77.04122316666667, "bike_id": "59802ab5a38d5d4ec1a1d8981a5b0c46", "type": "electric_scooter", "name": "59802ab5a38d5d4ec1a1d8981a5b0c46"}, {"is_disabled": 0, "is_reserved": 0, "fusion_lat": 0.0, "lat": 38.896878, "fusion_lon": 0.0, "rental_uris": {"ios": "https://dc.lft.to/lastmile_qr_scan", "android": "https://dc.lft.to/lastmile_qr_scan"}, "lon": -76.9390815, "bike_id": "4926d21e51bdd749eec0ab4069697f6c", "type": "electric_scooter", "name": "4926d21e51bdd749eec0ab4069697f6c"}, {"is_disabled": 0, "is_reserved": 0, "fusion_lat": 0.0, "lat": 38.918405, "fusion_lon": 0.0, "rental_uris": {"ios": "https://dc.lft.to/lastmile_qr_scan", "android": "https://dc.lft.to/lastmile_qr_scan"}, "lon": -77.03910283333333, "bike_id": "7c6f48ccd8d67d04564ebc39e7a941a3", "type": "electric_scooter", "name": "7c6f48ccd8d67d04564ebc39e7a941a3"}, {"is_disabled": 0, "is_reserved": 0, "fusion_lat": 0.0, "lat": 38.91808433333333, "fusion_lon": 0.0, "rental_uris": {"ios": "https://dc.lft.to/lastmile_qr_scan", "android": "https://dc.lft.to/lastmile_qr_scan"}, "lon": -77.0372065, "bike_id": "6a143c30de05d44f8992bc7528881df5", "type": "electric_scooter", "name": "6a143c30de05d44f8992bc7528881df5"}, {"is_disabled": 0, "is_reserved": 0, "fusion_lat": 0.0, "lat": 38.947368833333336, "fusion_lon": 0.0, "rental_uris": {"ios": "https://dc.lft.to/lastmile_qr_scan", "android": "https://dc.lft.to/lastmile_qr_scan"}, "lon": -76.99584683333333, "bike_id": "54cbbc77b591030b6c3d71eb30e37ac6", "type": "electric_bike", "name": "54cbbc77b591030b6c3d71eb30e37ac6"}, {"is_disabled": 0, "is_reserved": 0, "fusion_lat": 0.0, "lat": 38.953414333333335, "fusion_lon": 0.0, "rental_uris": {"ios": "https://dc.lft.to/lastmile_qr_scan", "android": "https://dc.lft.to/lastmile_qr_scan"}, "lon": -76.98252866666667, "bike_id": "b0d435f79309f172edf42dc31cb0911d", "type": "electric_bike", "name": "b0d435f79309f172edf42dc31cb0911d"}, {"is_disabled": 0, "is_reserved": 0, "fusion_lat": 0.0, "lat": 38.926584166666665, "fusion_lon": 0.0, "rental_uris": {"ios": "https://dc.lft.to/lastmile_qr_scan", "android": "https://dc.lft.to/lastmile_qr_scan"}, "lon": -77.03726116666667, "bike_id": "b84f822d342ed0ab6d8ef0660c00ad49", "type": "electric_scooter", "name": "b84f822d342ed0ab6d8ef0660c00ad49"}, {"is_disabled": 0, "is_reserved": 0, "fusion_lat": 0.0, "lat": 38.887455333333335, "fusion_lon": 0.0, "rental_uris": {"ios": "https://dc.lft.to/lastmile_qr_scan", "android": "https://dc.lft.to/lastmile_qr_scan"}, "lon": -76.98356516666666, "bike_id": "26a7a9cdb6f2def8dffe7f6754b7b30e", "type": "electric_scooter", "name": "26a7a9cdb6f2def8dffe7f6754b7b30e"}, {"is_disabled": 0, "is_reserved": 0, "fusion_lat": 0.0, "lat": 38.922844, "fusion_lon": 0.0, "rental_uris": {"ios": "https://dc.lft.to/lastmile_qr_scan", "android": "https://dc.lft.to/lastmile_qr_scan"}, "lon": -77.03661766666667, "bike_id": "23e15bdf4523de3d3aff9c95b29cd2d9", "type": "electric_scooter", "name": "23e15bdf4523de3d3aff9c95b29cd2d9"}, {"is_disabled": 0, "is_reserved": 0, "fusion_lat": 0.0, "lat": 38.829083, "fusion_lon": 0.0, "rental_uris": {"ios": "https://dc.lft.to/lastmile_qr_scan", "android": "https://dc.lft.to/lastmile_qr_scan"}, "lon": -77.0728225, "bike_id": "39660982e955da7d16d8aa1b9d6c780a", "type": "electric_bike", "name": "39660982e955da7d16d8aa1b9d6c780a"}, {"is_disabled": 0, "is_reserved": 0, "fusion_lat": 0.0, "lat": 38.918341833333336, "fusion_lon": 0.0, "rental_uris": {"ios": "https://dc.lft.to/lastmile_qr_scan", "android": "https://dc.lft.to/lastmile_qr_scan"}, "lon": -77.03907883333333, "bike_id": "87558f8d218a449e92aa1fdeea353793", "type": "electric_scooter", "name": "87558f8d218a449e92aa1fdeea353793"}, {"is_disabled": 0, "is_reserved": 0, "fusion_lat": 0.0, "lat": 38.91821216666666, "fusion_lon": 0.0, "rental_uris": {"ios": "https://dc.lft.to/lastmile_qr_scan", "android": "https://dc.lft.to/lastmile_qr_scan"}, "lon": -77.03793533333334, "bike_id": "aa4090d77249677dff1d9ae08a5b8039", "type": "electric_scooter", "name": "aa4090d77249677dff1d9ae08a5b8039"}, {"is_disabled": 0, "is_reserved": 0, "fusion_lat": 0.0, "lat": 38.91260316666666, "fusion_lon": 0.0, "rental_uris": {"ios": "https://dc.lft.to/lastmile_qr_scan", "android": "https://dc.lft.to/lastmile_qr_scan"}, "lon": -77.03860233333333, "bike_id": "875afcbfdc34263430c8dd40951fdd52", "type": "electric_scooter", "name": "875afcbfdc34263430c8dd40951fdd52"}, {"is_disabled": 0, "is_reserved": 0, "fusion_lat": 0.0, "lat": 38.9300535, "fusion_lon": 0.0, "rental_uris": {"ios": "https://dc.lft.to/lastmile_qr_scan", "android": "https://dc.lft.to/lastmile_qr_scan"}, "lon": -77.03206, "bike_id": "2ac02fa4442c4cc1fe540a30f1f7bee8", "type": "electric_scooter", "name": "2ac02fa4442c4cc1fe540a30f1f7bee8"}, {"is_disabled": 0, "is_reserved": 0, "fusion_lat": 0.0, "lat": 38.9032175, "fusion_lon": 0.0, "rental_uris": {"ios": "https://dc.lft.to/lastmile_qr_scan", "android": "https://dc.lft.to/lastmile_qr_scan"}, "lon": -77.03658283333333, "bike_id": "20a6f5f615cfd204a1cdceabd6bbf15f", "type": "electric_scooter", "name": "20a6f5f615cfd204a1cdceabd6bbf15f"}, {"is_disabled": 0, "is_reserved": 0, "fusion_lat": 0.0, "lat": 38.904391333333336, "fusion_lon": 0.0, "rental_uris": {"ios": "https://dc.lft.to/lastmile_qr_scan", "android": "https://dc.lft.to/lastmile_qr_scan"}, "lon": -76.97233916666667, "bike_id": "6a68f4a24652f2a962786583e508b184", "type": "electric_bike", "name": "6a68f4a24652f2a962786583e508b184"}, {"is_disabled": 0, "is_reserved": 0, "fusion_lat": 0.0, "lat": 38.922623, "fusion_lon": 0.0, "rental_uris": {"ios": "https://dc.lft.to/lastmile_qr_scan", "android": "https://dc.lft.to/lastmile_qr_scan"}, "lon": -77.04305666666667, "bike_id": "53af5a118fa01ed88bfb58e355c0ca37", "type": "electric_scooter", "name": "53af5a118fa01ed88bfb58e355c0ca37"}, {"is_disabled": 0, "is_reserved": 0, "fusion_lat": 0.0, "lat": 38.9327665, "fusion_lon": 0.0, "rental_uris": {"ios": "https://dc.lft.to/lastmile_qr_scan", "android": "https://dc.lft.to/lastmile_qr_scan"}, "lon": -77.03503783333333, "bike_id": "eb3033ffc18be4d9e0b393e9abf5e2f1", "type": "electric_scooter", "name": "eb3033ffc18be4d9e0b393e9abf5e2f1"}, {"is_disabled": 0, "is_reserved": 0, "fusion_lat": 0.0, "lat": 38.900375833333335, "fusion_lon": 0.0, "rental_uris": {"ios": "https://dc.lft.to/lastmile_qr_scan", "android": "https://dc.lft.to/lastmile_qr_scan"}, "lon": -77.00211166666666, "bike_id": "312312e0b772baacb3f7db0dbc30dd2d", "type": "electric_scooter", "name": "312312e0b772baacb3f7db0dbc30dd2d"}, {"is_disabled": 0, "is_reserved": 0, "fusion_lat": 0.0, "lat": 38.918677, "fusion_lon": 0.0, "rental_uris": {"ios": "https://dc.lft.to/lastmile_qr_scan", "android": "https://dc.lft.to/lastmile_qr_scan"}, "lon": -77.02312866666666, "bike_id": "30e8b9e9583c683af00a239e13444317", "type": "electric_scooter", "name": "30e8b9e9583c683af00a239e13444317"}, {"is_disabled": 0, "is_reserved": 0, "fusion_lat": 0.0, "lat": 38.917111166666665, "fusion_lon": 0.0, "rental_uris": {"ios": "https://dc.lft.to/lastmile_qr_scan", "android": "https://dc.lft.to/lastmile_qr_scan"}, "lon": -77.0412215, "bike_id": "5723a15487e930384c31d6a58b95afc9", "type": "electric_scooter", "name": "5723a15487e930384c31d6a58b95afc9"}, {"is_disabled": 0, "is_reserved": 0, "fusion_lat": 0.0, "lat": 38.9141735, "fusion_lon": 0.0, "rental_uris": {"ios": "https://dc.lft.to/lastmile_qr_scan", "android": "https://dc.lft.to/lastmile_qr_scan"}, "lon": -77.0221685, "bike_id": "0bdc3084ccf03f9c1dc695c67b1efa41", "type": "electric_scooter", "name": "0bdc3084ccf03f9c1dc695c67b1efa41"}, {"is_disabled": 0, "is_reserved": 0, "fusion_lat": 0.0, "lat": 38.91680916666667, "fusion_lon": 0.0, "rental_uris": {"ios": "https://dc.lft.to/lastmile_qr_scan", "android": "https://dc.lft.to/lastmile_qr_scan"}, "lon": -77.02977666666666, "bike_id": "bb6ae699a6875b51be1a48ce712926ce", "type": "electric_scooter", "name": "bb6ae699a6875b51be1a48ce712926ce"}, {"is_disabled": 0, "is_reserved": 0, "fusion_lat": 0.0, "lat": 38.903844666666664, "fusion_lon": 0.0, "rental_uris": {"ios": "https://dc.lft.to/lastmile_qr_scan", "android": "https://dc.lft.to/lastmile_qr_scan"}, "lon": -77.01768933333334, "bike_id": "83c2a79be1e24c6ff1c95ab20e5c7927", "type": "electric_scooter", "name": "83c2a79be1e24c6ff1c95ab20e5c7927"}, {"is_disabled": 0, "is_reserved": 0, "fusion_lat": 0.0, "lat": 38.933508833333335, "fusion_lon": 0.0, "rental_uris": {"ios": "https://dc.lft.to/lastmile_qr_scan", "android": "https://dc.lft.to/lastmile_qr_scan"}, "lon": -77.034197, "bike_id": "91c95f2f24f7d771dc7d6a4724e0d995", "type": "electric_scooter", "name": "91c95f2f24f7d771dc7d6a4724e0d995"}, {"is_disabled": 0, "is_reserved": 0, "fusion_lat": 0.0, "lat": 38.816768833333334, "fusion_lon": 0.0, "rental_uris": {"ios": "https://dc.lft.to/lastmile_qr_scan", "android": "https://dc.lft.to/lastmile_qr_scan"}, "lon": -77.04862416666667, "bike_id": "345312df0752201bd1d2d30d95d528d6", "type": "electric_bike", "name": "345312df0752201bd1d2d30d95d528d6"}, {"is_disabled": 0, "is_reserved": 0, "fusion_lat": 0.0, "lat": 38.9563465, "fusion_lon": 0.0, "rental_uris": {"ios": "https://dc.lft.to/lastmile_qr_scan", "android": "https://dc.lft.to/lastmile_qr_scan"}, "lon": -77.02448966666667, "bike_id": "2005b7131aabc628f9a0891ed6380b6c", "type": "electric_scooter", "name": "2005b7131aabc628f9a0891ed6380b6c"}, {"is_disabled": 0, "is_reserved": 0, "fusion_lat": 0.0, "lat": 38.90042483333333, "fusion_lon": 0.0, "rental_uris": {"ios": "https://dc.lft.to/lastmile_qr_scan", "android": "https://dc.lft.to/lastmile_qr_scan"}, "lon": -76.98562583333333, "bike_id": "7f422211dec2e9eaaf03da86f154f69e", "type": "electric_scooter", "name": "7f422211dec2e9eaaf03da86f154f69e"}, {"is_disabled": 0, "is_reserved": 0, "fusion_lat": 0.0, "lat": 38.92933266666667, "fusion_lon": 0.0, "rental_uris": {"ios": "https://dc.lft.to/lastmile_qr_scan", "android": "https://dc.lft.to/lastmile_qr_scan"}, "lon": -77.006738, "bike_id": "27a9c8bdcabfdae633c71b82197b376b", "type": "electric_scooter", "name": "27a9c8bdcabfdae633c71b82197b376b"}, {"is_disabled": 0, "is_reserved": 0, "fusion_lat": 0.0, "lat": 38.937948666666664, "fusion_lon": 0.0, "rental_uris": {"ios": "https://dc.lft.to/lastmile_qr_scan", "android": "https://dc.lft.to/lastmile_qr_scan"}, "lon": -77.02979766666667, "bike_id": "214ccfea07df343cb02641f86a70e188", "type": "electric_scooter", "name": "214ccfea07df343cb02641f86a70e188"}, {"is_disabled": 0, "is_reserved": 0, "fusion_lat": 0.0, "lat": 38.92085016666667, "fusion_lon": 0.0, "rental_uris": {"ios": "https://dc.lft.to/lastmile_qr_scan", "android": "https://dc.lft.to/lastmile_qr_scan"}, "lon": -77.02541916666667, "bike_id": "2b3b39ad18ec5affd029acf7e777481f", "type": "electric_scooter", "name": "2b3b39ad18ec5affd029acf7e777481f"}, {"is_disabled": 0, "is_reserved": 0, "fusion_lat": 0.0, "lat": 38.874340333333336, "fusion_lon": 0.0, "rental_uris": {"ios": "https://dc.lft.to/lastmile_qr_scan", "android": "https://dc.lft.to/lastmile_qr_scan"}, "lon": -77.00035983333333, "bike_id": "5a73081470f059ae16131203de87cc8e", "type": "electric_scooter", "name": "5a73081470f059ae16131203de87cc8e"}, {"is_disabled": 0, "is_reserved": 0, "fusion_lat": 0.0, "lat": 38.9084645, "fusion_lon": 0.0, "rental_uris": {"ios": "https://dc.lft.to/lastmile_qr_scan", "android": "https://dc.lft.to/lastmile_qr_scan"}, "lon": -76.99796633333334, "bike_id": "2ac734a4f2ff814200b1525d9e5d24bf", "type": "electric_scooter", "name": "2ac734a4f2ff814200b1525d9e5d24bf"}, {"is_disabled": 0, "is_reserved": 0, "fusion_lat": 0.0, "lat": 38.83495766666667, "fusion_lon": 0.0, "rental_uris": {"ios": "https://dc.lft.to/lastmile_qr_scan", "android": "https://dc.lft.to/lastmile_qr_scan"}, "lon": -77.00434516666667, "bike_id": "706950635f5a98a8cdee9c7e91f93b10", "type": "electric_bike", "name": "706950635f5a98a8cdee9c7e91f93b10"}, {"is_disabled": 0, "is_reserved": 0, "fusion_lat": 0.0, "lat": 38.90589466666667, "fusion_lon": 0.0, "rental_uris": {"ios": "https://dc.lft.to/lastmile_qr_scan", "android": "https://dc.lft.to/lastmile_qr_scan"}, "lon": -76.98901733333334, "bike_id": "f99621c816fa1cec86447051d9153e9f", "type": "electric_scooter", "name": "f99621c816fa1cec86447051d9153e9f"}, {"is_disabled": 0, "is_reserved": 0, "fusion_lat": 0.0, "lat": 39.029255166666665, "fusion_lon": 0.0, "rental_uris": {"ios": "https://dc.lft.to/lastmile_qr_scan", "android": "https://dc.lft.to/lastmile_qr_scan"}, "lon": -77.01358116666667, "bike_id": "ba32ba74873c813187d7cf352ae39aea", "type": "electric_bike", "name": "ba32ba74873c813187d7cf352ae39aea"}, {"is_disabled": 0, "is_reserved": 0, "fusion_lat": 0.0, "lat": 38.887203, "fusion_lon": 0.0, "rental_uris": {"ios": "https://dc.lft.to/lastmile_qr_scan", "android": "https://dc.lft.to/lastmile_qr_scan"}, "lon": -76.9960895, "bike_id": "2e61facc7fc553b68db7615f9b943752", "type": "electric_scooter", "name": "2e61facc7fc553b68db7615f9b943752"}, {"is_disabled": 0, "is_reserved": 0, "fusion_lat": 0.0, "lat": 38.92199933333333, "fusion_lon": 0.0, "rental_uris": {"ios": "https://dc.lft.to/lastmile_qr_scan", "android": "https://dc.lft.to/lastmile_qr_scan"}, "lon": -77.0425305, "bike_id": "66bf4faf9f0cd045b056495ca8e400f8", "type": "electric_scooter", "name": "66bf4faf9f0cd045b056495ca8e400f8"}, {"is_disabled": 0, "is_reserved": 0, "fusion_lat": 0.0, "lat": 38.846286, "fusion_lon": 0.0, "rental_uris": {"ios": "https://dc.lft.to/lastmile_qr_scan", "android": "https://dc.lft.to/lastmile_qr_scan"}, "lon": -76.96909733333334, "bike_id": "0728b47da1ad3d67d1b84205f2930b8a", "type": "electric_bike", "name": "0728b47da1ad3d67d1b84205f2930b8a"}, {"is_disabled": 0, "is_reserved": 0, "fusion_lat": 0.0, "lat": 38.908655333333336, "fusion_lon": 0.0, "rental_uris": {"ios": "https://dc.lft.to/lastmile_qr_scan", "android": "https://dc.lft.to/lastmile_qr_scan"}, "lon": -77.04734616666667, "bike_id": "0a2d695c84fd35dc8a1328b4292a771d", "type": "electric_scooter", "name": "0a2d695c84fd35dc8a1328b4292a771d"}, {"is_disabled": 0, "is_reserved": 0, "fusion_lat": 0.0, "lat": 38.9085935, "fusion_lon": 0.0, "rental_uris": {"ios": "https://dc.lft.to/lastmile_qr_scan", "android": "https://dc.lft.to/lastmile_qr_scan"}, "lon": -77.04826116666666, "bike_id": "45c974dfe3d13102f8b0982eade997b7", "type": "electric_scooter", "name": "45c974dfe3d13102f8b0982eade997b7"}, {"is_disabled": 0, "is_reserved": 0, "fusion_lat": 0.0, "lat": 38.97474283333333, "fusion_lon": 0.0, "rental_uris": {"ios": "https://dc.lft.to/lastmile_qr_scan", "android": "https://dc.lft.to/lastmile_qr_scan"}, "lon": -76.98663316666666, "bike_id": "9b6338aa3fd3fa358a85752052dbbde6", "type": "electric_bike", "name": "9b6338aa3fd3fa358a85752052dbbde6"}, {"is_disabled": 0, "is_reserved": 0, "fusion_lat": 0.0, "lat": 38.898234333333335, "fusion_lon": 0.0, "rental_uris": {"ios": "https://dc.lft.to/lastmile_qr_scan", "android": "https://dc.lft.to/lastmile_qr_scan"}, "lon": -77.02932733333333, "bike_id": "4a6f5c57c8a16c9f571f98de90a412bc", "type": "electric_scooter", "name": "4a6f5c57c8a16c9f571f98de90a412bc"}, {"is_disabled": 0, "is_reserved": 0, "fusion_lat": 0.0, "lat": 38.921723166666666, "fusion_lon": 0.0, "rental_uris": {"ios": "https://dc.lft.to/lastmile_qr_scan", "android": "https://dc.lft.to/lastmile_qr_scan"}, "lon": -77.04030916666666, "bike_id": "f4762e27913a460f0831baa381cd568a", "type": "electric_scooter", "name": "f4762e27913a460f0831baa381cd568a"}, {"is_disabled": 0, "is_reserved": 0, "fusion_lat": 0.0, "lat": 38.90256516666667, "fusion_lon": 0.0, "rental_uris": {"ios": "https://dc.lft.to/lastmile_qr_scan", "android": "https://dc.lft.to/lastmile_qr_scan"}, "lon": -77.02652366666666, "bike_id": "a4f75f4a6b8f96d21099c90abab9ced0", "type": "electric_scooter", "name": "a4f75f4a6b8f96d21099c90abab9ced0"}, {"is_disabled": 0, "is_reserved": 0, "fusion_lat": 0.0, "lat": 38.921504166666665, "fusion_lon": 0.0, "rental_uris": {"ios": "https://dc.lft.to/lastmile_qr_scan", "android": "https://dc.lft.to/lastmile_qr_scan"}, "lon": -77.03515016666667, "bike_id": "00a4f89b52a9e58dafabe6f567cabee4", "type": "electric_scooter", "name": "00a4f89b52a9e58dafabe6f567cabee4"}, {"is_disabled": 0, "is_reserved": 0, "fusion_lat": 0.0, "lat": 38.91032516666667, "fusion_lon": 0.0, "rental_uris": {"ios": "https://dc.lft.to/lastmile_qr_scan", "android": "https://dc.lft.to/lastmile_qr_scan"},