{"data": {"bikes": [{"is_reserved": 0, "is_disabled": 0, "fusion_lon": 0.0, "lat": 38.898174833333336, "name": "0a46d738160021cb4d8cf3cddb829f43", "bike_id": "0a46d738160021cb4d8cf3cddb829f43", "lon": -77.02927016666666, "fusion_lat": 0.0, "rental_uris": {"android": "https://dc.lft.to/lastmile_qr_scan", "ios": "https://dc.lft.to/lastmile_qr_scan"}, "type": "electric_scooter"}, {"is_reserved": 0, "is_disabled": 0, "fusion_lon": 0.0, "lat": 38.918548333333334, "name": "da22a2553e541ab179586fcf475d3a98", "bike_id": "da22a2553e541ab179586fcf475d3a98", "lon": -77.03213516666666, "fusion_lat": 0.0, "rental_uris": {"android": "https://dc.lft.to/lastmile_qr_scan", "ios": "https://dc.lft.to/lastmile_qr_scan"}, "type": "electric_scooter"}, {"is_reserved": 0, "is_disabled": 0, "fusion_lon": 0.0, "lat": 38.875518, "name": "dc1cbc6773198214431759bcf676ca50", "bike_id": "dc1cbc6773198214431759bcf676ca50", "lon": -77.005722, "fusion_lat": 0.0, "rental_uris": {"android": "https://dc.lft.to/lastmile_qr_scan", "ios": "https://dc.lft.to/lastmile_qr_scan"}, "type": "electric_scooter"}, {"is_reserved": 0, "is_disabled": 0, "fusion_lon": 0.0, "lat": 38.9299285, "name": "758ff081e4357adc4687639b57eaadda", "bike_id": "758ff081e4357adc4687639b57eaadda", "lon": -77.03775516666667, "fusion_lat": 0.0, "rental_uris": {"android": "https://dc.lft.to/lastmile_qr_scan", "ios": "https://dc.lft.to/lastmile_qr_scan"}, "type": "electric_scooter"}, {"is_reserved": 0, "is_disabled": 0, "fusion_lon": 0.0, "lat": 38.913613166666664, "name": "f31c87b897ed62a50cc4e705b76b1e0e", "bike_id": "f31c87b897ed62a50cc4e705b76b1e0e", "lon": -77.01999016666667, "fusion_lat": 0.0, "rental_uris": {"android": "https://dc.lft.to/lastmile_qr_scan", "ios": "https://dc.lft.to/lastmile_qr_scan"}, "type": "electric_scooter"}, {"is_reserved": 0, "is_disabled": 0, "fusion_lon": 0.0, "lat": 38.917209166666666, "name": "a941818ec00e486c2005606833089115", "bike_id": "a941818ec00e486c2005606833089115", "lon": -77.031792, "fusion_lat": 0.0, "rental_uris": {"android": "https://dc.lft.to/lastmile_qr_scan", "ios": "https://dc.lft.to/lastmile_qr_scan"}, "type": "electric_scooter"}, {"is_reserved": 0, "is_disabled": 0, "fusion_lon": 0.0, "lat": 38.88461933333333, "name": "34dcb1bcd5a191da37fc9712f936eec8", "bike_id": "34dcb1bcd5a191da37fc9712f936eec8", "lon": -77.00038966666666, "fusion_lat": 0.0, "rental_uris": {"android": "https://dc.lft.to/lastmile_qr_scan", "ios": "https://dc.lft.to/lastmile_qr_scan"}, "type": "electric_scooter"}, {"is_reserved": 0, "is_disabled": 0, "fusion_lon": 0.0, "lat": 38.91634166666667, "name": "87ef152fcc524f5bab058c0e9274de66", "bike_id": "87ef152fcc524f5bab058c0e9274de66", "lon": -77.03188466666667, "fusion_lat": 0.0, "rental_uris": {"android": "https://dc.lft.to/lastmile_qr_scan", "ios": "https://dc.lft.to/lastmile_qr_scan"}, "type": "electric_scooter"}, {"is_reserved": 0, "is_disabled": 0, "fusion_lon": 0.0, "lat": 38.847035166666664, "name": "971e712384db0db88b628b244b44202e", "bike_id": "971e712384db0db88b628b244b44202e", "lon": -76.99620766666666, "fusion_lat": 0.0, "rental_uris": {"android": "https://dc.lft.to/lastmile_qr_scan", "ios": "https://dc.lft.to/lastmile_qr_scan"}, "type": "electric_scooter"}, {"is_reserved": 0, "is_disabled": 0, "fusion_lon": 0.0, "lat": 38.920876666666665, "name": "0cfa00d604187dcf84e595a2b7d1eb2c", "bike_id": "0cfa00d604187dcf84e595a2b7d1eb2c", "lon": -77.02592216666666, "fusion_lat": 0.0, "rental_uris": {"android": "https://dc.lft.to/lastmile_qr_scan", "ios": "https://dc.lft.to/lastmile_qr_scan"}, "type": "electric_scooter"}, {"is_reserved": 0, "is_disabled": 0, "fusion_lon": 0.0, "lat": 38.92415116666667, "name": "ca22cfd0b1faab3a027d191eac8b7a19", "bike_id": "ca22cfd0b1faab3a027d191eac8b7a19", "lon": -77.0271525, "fusion_lat": 0.0, "rental_uris": {"android": "https://dc.lft.to/lastmile_qr_scan", "ios": "https://dc.lft.to/lastmile_qr_scan"}, "type": "electric_scooter"}, {"is_reserved": 0, "is_disabled": 0, "fusion_lon": 0.0, "lat": 38.852200333333336, "name": "1ccd5d2ca1c8f61001089a9a9775b9f2", "bike_id": "1ccd5d2ca1c8f61001089a9a9775b9f2", "lon": -76.99373416666667, "fusion_lat": 0.0, "rental_uris": {"android": "https://dc.lft.to/lastmile_qr_scan", "ios": "https://dc.lft.to/lastmile_qr_scan"}, "type": "electric_scooter"}, {"is_reserved": 0, "is_disabled": 0, "fusion_lon": 0.0, "lat": 38.914048666666666, "name": "9a85cc39c94bdee52a97c0169034be76", "bike_id": "9a85cc39c94bdee52a97c0169034be76", "lon": -77.032563, "fusion_lat": 0.0, "rental_uris": {"android": "https://dc.lft.to/lastmile_qr_scan", "ios": "https://dc.lft.to/lastmile_qr_scan"}, "type": "electric_scooter"}, {"is_reserved": 0, "is_disabled": 0, "fusion_lon": 0.0, "lat": 38.9238465, "name": "04c1fd9925bf169382b6545171c7355c", "bike_id": "04c1fd9925bf169382b6545171c7355c", "lon": -77.02736533333334, "fusion_lat": 0.0, "rental_uris": {"android": "https://dc.lft.to/lastmile_qr_scan", "ios": "https://dc.lft.to/lastmile_qr_scan"}, "type": "electric_scooter"}, {"is_reserved": 0, "is_disabled": 0, "fusion_lon": 0.0, "lat": 38.92038466666666, "name": "63fef8db3e6e9804de69ffdc42488106", "bike_id": "63fef8db3e6e9804de69ffdc42488106", "lon": -77.01215933333333, "fusion_lat": 0.0, "rental_uris": {"android": "https://dc.lft.to/lastmile_qr_scan", "ios": "https://dc.lft.to/lastmile_qr_scan"}, "type": "electric_scooter"}, {"is_reserved": 0, "is_disabled": 0, "fusion_lon": 0.0, "lat": 38.955989333333335, "name": "7f469d329e4196480bbbe29423ef1583", "bike_id": "7f469d329e4196480bbbe29423ef1583", "lon": -77.0101275, "fusion_lat": 0.0, "rental_uris": {"android": "https://dc.lft.to/lastmile_qr_scan", "ios": "https://dc.lft.to/lastmile_qr_scan"}, "type": "electric_bike"}, {"is_reserved": 0, "is_disabled": 0, "fusion_lon": 0.0, "lat": 38.84226866666667, "name": "6f96e929ef3b096519a6737b57c950d2", "bike_id": "6f96e929ef3b096519a6737b57c950d2", "lon": -76.9489185, "fusion_lat": 0.0, "rental_uris": {"android": "https://dc.lft.to/lastmile_qr_scan", "ios": "https://dc.lft.to/lastmile_qr_scan"}, "type": "electric_bike"}, {"is_reserved": 0, "is_disabled": 0, "fusion_lon": 0.0, "lat": 38.925628833333334, "name": "6444a92d11f1081c668a636e20e43462", "bike_id": "6444a92d11f1081c668a636e20e43462", "lon": -77.0228, "fusion_lat": 0.0, "rental_uris": {"android": "https://dc.lft.to/lastmile_qr_scan", "ios": "https://dc.lft.to/lastmile_qr_scan"}, "type": "electric_scooter"}, {"is_reserved": 0, "is_disabled": 0, "fusion_lon": 0.0, "lat": 38.89475066666667, "name": "d6404f6f896c6c7fc376854e8d6952f5", "bike_id": "d6404f6f896c6c7fc376854e8d6952f5", "lon": -77.0416155, "fusion_lat": 0.0, "rental_uris": {"android": "https://dc.lft.to/lastmile_qr_scan", "ios": "https://dc.lft.to/lastmile_qr_scan"}, "type": "electric_scooter"}, {"is_reserved": 0, "is_disabled": 0, "fusion_lon": 0.0, "lat": 38.923348833333336, "name": "1f277c62264ee4874c612a8f18fd2e57", "bike_id": "1f277c62264ee4874c612a8f18fd2e57", "lon": -77.05680866666667, "fusion_lat": 0.0, "rental_uris": {"android": "https://dc.lft.to/lastmile_qr_scan", "ios": "https://dc.lft.to/lastmile_qr_scan"}, "type": "electric_scooter"}, {"is_reserved": 0, "is_disabled": 0, "fusion_lon": 0.0, "lat": 38.91113166666667, "name": "a0609fd88f964862c6929163a05ab3e4", "bike_id": "a0609fd88f964862c6929163a05ab3e4", "lon": -77.04510316666666, "fusion_lat": 0.0, "rental_uris": {"android": "https://dc.lft.to/lastmile_qr_scan", "ios": "https://dc.lft.to/lastmile_qr_scan"}, "type": "electric_scooter"}, {"is_reserved": 0, "is_disabled": 0, "fusion_lon": 0.0, "lat": 38.92696083333333, "name": "8d7aa502e70e5963767ff3b52ecb74f4", "bike_id": "8d7aa502e70e5963767ff3b52ecb74f4", "lon": -77.0206515, "fusion_lat": 0.0, "rental_uris": {"android": "https://dc.lft.to/lastmile_qr_scan", "ios": "https://dc.lft.to/lastmile_qr_scan"}, "type": "electric_scooter"}, {"is_reserved": 0, "is_disabled": 0, "fusion_lon": 0.0, "lat": 38.892221, "name": "4369732b2214baae2e1a9ebc17199692", "bike_id": "4369732b2214baae2e1a9ebc17199692", "lon": -77.04863383333333, "fusion_lat": 0.0, "rental_uris": {"android": "https://dc.lft.to/lastmile_qr_scan", "ios": "https://dc.lft.to/lastmile_qr_scan"}, "type": "electric_scooter"}, {"is_reserved": 0, "is_disabled": 0, "fusion_lon": 0.0, "lat": 38.860550333333336, "name": "e64f15d2a827039213b25a218f4fb157", "bike_id": "e64f15d2a827039213b25a218f4fb157", "lon": -76.98421733333333, "fusion_lat": 0.0, "rental_uris": {"android": "https://dc.lft.to/lastmile_qr_scan", "ios": "https://dc.lft.to/lastmile_qr_scan"}, "type": "electric_scooter"}, {"is_reserved": 0, "is_disabled": 0, "fusion_lon": 0.0, "lat": 38.9179925, "name": "66ede769e21c577a4d1a42c1313d3c03", "bike_id": "66ede769e21c577a4d1a42c1313d3c03", "lon": -77.04019083333333, "fusion_lat": 0.0, "rental_uris": {"android": "https://dc.lft.to/lastmile_qr_scan", "ios": "https://dc.lft.to/lastmile_qr_scan"}, "type": "electric_scooter"}, {"is_reserved": 0, "is_disabled": 0, "fusion_lon": 0.0, "lat": 38.902600666666665, "name": "034d83bed8731dd4bcb3a7521dd58988", "bike_id": "034d83bed8731dd4bcb3a7521dd58988", "lon": -77.03003533333333, "fusion_lat": 0.0, "rental_uris": {"android": "https://dc.lft.to/lastmile_qr_scan", "ios": "https://dc.lft.to/lastmile_qr_scan"}, "type": "electric_scooter"}, {"is_reserved": 0, "is_disabled": 0, "fusion_lon": 0.0, "lat": 38.89220566666667, "name": "a61c28958a56afd267977f5d4177863a", "bike_id": "a61c28958a56afd267977f5d4177863a", "lon": -77.04368666666667, "fusion_lat": 0.0, "rental_uris": {"android": "https://dc.lft.to/lastmile_qr_scan", "ios": "https://dc.lft.to/lastmile_qr_scan"}, "type": "electric_scooter"}, {"is_reserved": 0, "is_disabled": 0, "fusion_lon": 0.0, "lat": 38.89964716666667, "name": "9f8870cf2acc10a633b05d1b4bff2925", "bike_id": "9f8870cf2acc10a633b05d1b4bff2925", "lon": -77.0473845, "fusion_lat": 0.0, "rental_uris": {"android": "https://dc.lft.to/lastmile_qr_scan", "ios": "https://dc.lft.to/lastmile_qr_scan"}, "type": "electric_scooter"}, {"is_reserved": 0, "is_disabled": 0, "fusion_lon": 0.0, "lat": 38.923892, "name": "72c0b020507f46d2a9b187ce5c7d0908", "bike_id": "72c0b020507f46d2a9b187ce5c7d0908", "lon": -77.0265245, "fusion_lat": 0.0, "rental_uris": {"android": "https://dc.lft.to/lastmile_qr_scan", "ios": "https://dc.lft.to/lastmile_qr_scan"}, "type": "electric_scooter"}, {"is_reserved": 0, "is_disabled": 0, "fusion_lon": 0.0, "lat": 38.80732866666666, "name": "b21e5be81081bd780183bcef08f48a8d", "bike_id": "b21e5be81081bd780183bcef08f48a8d", "lon": -76.99252766666666, "fusion_lat": 0.0, "rental_uris": {"android": "https://dc.lft.to/lastmile_qr_scan", "ios": "https://dc.lft.to/lastmile_qr_scan"}, "type": "electric_bike"}, {"is_reserved": 0, "is_disabled": 0, "fusion_lon": 0.0, "lat": 38.9180165, "name": "74511f033a54a5b4c43cf80f77a0c333", "bike_id": "74511f033a54a5b4c43cf80f77a0c333", "lon": -77.024871, "fusion_lat": 0.0, "rental_uris": {"android": "https://dc.lft.to/lastmile_qr_scan", "ios": "https://dc.lft.to/lastmile_qr_scan"}, "type": "electric_scooter"}, {"is_reserved": 0, "is_disabled": 0, "fusion_lon": 0.0, "lat": 38.926845166666666, "name": "56557c612220117c75054a6ce5807888", "bike_id": "56557c612220117c75054a6ce5807888", "lon": -77.02960683333333, "fusion_lat": 0.0, "rental_uris": {"android": "https://dc.lft.to/lastmile_qr_scan", "ios": "https://dc.lft.to/lastmile_qr_scan"}, "type": "electric_scooter"}, {"is_reserved": 0, "is_disabled": 0, "fusion_lon": 0.0, "lat": 38.920717333333336, "name": "06e4860c02fb3b82c11451997bb61058", "bike_id": "06e4860c02fb3b82c11451997bb61058", "lon": -77.02390666666666, "fusion_lat": 0.0, "rental_uris": {"android": "https://dc.lft.to/lastmile_qr_scan", "ios": "https://dc.lft.to/lastmile_qr_scan"}, "type": "electric_scooter"}, {"is_reserved": 0, "is_disabled": 0, "fusion_lon": 0.0, "lat": 38.9164885, "name": "0b5f359bfbed6a7e518df200127846f5", "bike_id": "0b5f359bfbed6a7e518df200127846f5", "lon": -77.020324, "fusion_lat": 0.0, "rental_uris": {"android": "https://dc.lft.to/lastmile_qr_scan", "ios": "https://dc.lft.to/lastmile_qr_scan"}, "type": "electric_scooter"}, {"is_reserved": 0, "is_disabled": 0, "fusion_lon": 0.0, "lat": 38.916483, "name": "880d8946b2a6f4e7b94097913eb36c44", "bike_id": "880d8946b2a6f4e7b94097913eb36c44", "lon": -77.03179983333334, "fusion_lat": 0.0, "rental_uris": {"android": "https://dc.lft.to/lastmile_qr_scan", "ios": "https://dc.lft.to/lastmile_qr_scan"}, "type": "electric_scooter"}, {"is_reserved": 0, "is_disabled": 0, "fusion_lon": 0.0, "lat": 38.897238, "name": "5ff4f0546bcc6f86ace87fb0ab8b1267", "bike_id": "5ff4f0546bcc6f86ace87fb0ab8b1267", "lon": -77.002079, "fusion_lat": 0.0, "rental_uris": {"android": "https://dc.lft.to/lastmile_qr_scan", "ios": "https://dc.lft.to/lastmile_qr_scan"}, "type": "electric_scooter"}, {"is_reserved": 0, "is_disabled": 0, "fusion_lon": 0.0, "lat": 38.92361066666667, "name": "3d1fc18ab814a4eab65243c0c3025cff", "bike_id": "3d1fc18ab814a4eab65243c0c3025cff", "lon": -77.05030966666666, "fusion_lat": 0.0, "rental_uris": {"android": "https://dc.lft.to/lastmile_qr_scan", "ios": "https://dc.lft.to/lastmile_qr_scan"}, "type": "electric_scooter"}, {"is_reserved": 0, "is_disabled": 0, "fusion_lon": 0.0, "lat": 38.88434566666667, "name": "6dec2bcf05bb79cadf7bd9a76dff8fdc", "bike_id": "6dec2bcf05bb79cadf7bd9a76dff8fdc", "lon": -76.95734883333333, "fusion_lat": 0.0, "rental_uris": {"android": "https://dc.lft.to/lastmile_qr_scan", "ios": "https://dc.lft.to/lastmile_qr_scan"}, "type": "electric_scooter"}, {"is_reserved": 0, "is_disabled": 0, "fusion_lon": 0.0, "lat": 38.950807166666664, "name": "3d6b4d750669374ed16b7bc4e1e7bfd2", "bike_id": "3d6b4d750669374ed16b7bc4e1e7bfd2", "lon": -76.9978825, "fusion_lat": 0.0, "rental_uris": {"android": "https://dc.lft.to/lastmile_qr_scan", "ios": "https://dc.lft.to/lastmile_qr_scan"}, "type": "electric_scooter"}, {"is_reserved": 0, "is_disabled": 0, "fusion_lon": 0.0, "lat": 38.900771666666664, "name": "e6a2087f67e41718c68845f83360dca5", "bike_id": "e6a2087f67e41718c68845f83360dca5", "lon": -77.04870666666666, "fusion_lat": 0.0, "rental_uris": {"android": "https://dc.lft.to/lastmile_qr_scan", "ios": "https://dc.lft.to/lastmile_qr_scan"}, "type": "electric_scooter"}, {"is_reserved": 0, "is_disabled": 0, "fusion_lon": 0.0, "lat": 38.9020735, "name": "36e965a1fad351aebc89399408d4cb5f", "bike_id": "36e965a1fad351aebc89399408d4cb5f", "lon": -77.058995, "fusion_lat": 0.0, "rental_uris": {"android": "https://dc.lft.to/lastmile_qr_scan", "ios": "https://dc.lft.to/lastmile_qr_scan"}, "type": "electric_scooter"}, {"is_reserved": 0, "is_disabled": 0, "fusion_lon": 0.0, "lat": 38.919908666666664, "name": "25b614986bafee43ce32aaeb6001ee18", "bike_id": "25b614986bafee43ce32aaeb6001ee18", "lon": -77.03252216666667, "fusion_lat": 0.0, "rental_uris": {"android": "https://dc.lft.to/lastmile_qr_scan", "ios": "https://dc.lft.to/lastmile_qr_scan"}, "type": "electric_scooter"}, {"is_reserved": 0, "is_disabled": 0, "fusion_lon": 0.0, "lat": 38.915676166666664, "name": "8852a79281827d48107c8520a19ce435", "bike_id": "8852a79281827d48107c8520a19ce435", "lon": -77.04618433333333, "fusion_lat": 0.0, "rental_uris": {"android": "https://dc.lft.to/lastmile_qr_scan", "ios": "https://dc.lft.to/lastmile_qr_scan"}, "type": "electric_scooter"}, {"is_reserved": 0, "is_disabled": 0, "fusion_lon": 0.0, "lat": 38.88142083333334, "name": "28a55bb8b21859dcf0fc04f1db26de5f", "bike_id": "28a55bb8b21859dcf0fc04f1db26de5f", "lon": -77.01764, "fusion_lat": 0.0, "rental_uris": {"android": "https://dc.lft.to/lastmile_qr_scan", "ios": "https://dc.lft.to/lastmile_qr_scan"}, "type": "electric_scooter"}, {"is_reserved": 0, "is_disabled": 0, "fusion_lon": 0.0, "lat": 38.934999, "name": "7e43f75d5997e616d8f30108c1e89789", "bike_id": "7e43f75d5997e616d8f30108c1e89789", "lon": -77.03633683333334, "fusion_lat": 0.0, "rental_uris": {"android": "https://dc.lft.to/lastmile_qr_scan", "ios": "https://dc.lft.to/lastmile_qr_scan"}, "type": "electric_scooter"}, {"is_reserved": 0, "is_disabled": 0, "fusion_lon": 0.0, "lat": 38.920404, "name": "40194cfdbbd25d4a099ad723339b3be8", "bike_id": "40194cfdbbd25d4a099ad723339b3be8", "lon": -77.0480295, "fusion_lat": 0.0, "rental_uris": {"android": "https://dc.lft.to/lastmile_qr_scan", "ios": "https://dc.lft.to/lastmile_qr_scan"}, "type": "electric_scooter"}, {"is_reserved": 0, "is_disabled": 0, "fusion_lon": 0.0, "lat": 38.903118166666665, "name": "6ee5208ff94bee8a1f2dd35eef100601", "bike_id": "6ee5208ff94bee8a1f2dd35eef100601", "lon": -77.01954066666667, "fusion_lat": 0.0, "rental_uris": {"android": "https://dc.lft.to/lastmile_qr_scan", "ios": "https://dc.lft.to/lastmile_qr_scan"}, "type": "electric_scooter"}, {"is_reserved": 0, "is_disabled": 0, "fusion_lon": 0.0, "lat": 38.919456833333335, "name": "a1544f8b992190b9e8c2694817eb3af6", "bike_id": "a1544f8b992190b9e8c2694817eb3af6", "lon": -77.01793933333333, "fusion_lat": 0.0, "rental_uris": {"android": "https://dc.lft.to/lastmile_qr_scan", "ios": "https://dc.lft.to/lastmile_qr_scan"}, "type": "electric_scooter"}, {"is_reserved": 0, "is_disabled": 0, "fusion_lon": 0.0, "lat": 38.9055105, "name": "57a7ef3818e23a3ec33150ca3d783f24", "bike_id": "57a7ef3818e23a3ec33150ca3d783f24", "lon": -77.02173583333334, "fusion_lat": 0.0, "rental_uris": {"android": "https://dc.lft.to/lastmile_qr_scan", "ios": "https://dc.lft.to/lastmile_qr_scan"}, "type": "electric_scooter"}, {"is_reserved": 0, "is_disabled": 0, "fusion_lon": 0.0, "lat": 38.91633383333333, "name": "f9ec0cd021a13e85abac1cf998ea071f", "bike_id": "f9ec0cd021a13e85abac1cf998ea071f", "lon": -77.03193816666666, "fusion_lat": 0.0, "rental_uris": {"android": "https://dc.lft.to/lastmile_qr_scan", "ios": "https://dc.lft.to/lastmile_qr_scan"}, "type": "electric_scooter"}, {"is_reserved": 0, "is_disabled": 0, "fusion_lon": 0.0, "lat": 38.914109, "name": "68ba643586273e1eac5f7c46cc32d5f7", "bike_id": "68ba643586273e1eac5f7c46cc32d5f7", "lon": -77.0205535, "fusion_lat": 0.0, "rental_uris": {"android": "https://dc.lft.to/lastmile_qr_scan", "ios": "https://dc.lft.to/lastmile_qr_scan"}, "type": "electric_scooter"}, {"is_reserved": 0, "is_disabled": 0, "fusion_lon": 0.0, "lat": 38.90851883333333, "name": "467918f1da8cf8278bcc087c582e52ba", "bike_id": "467918f1da8cf8278bcc087c582e52ba", "lon": -76.9979835, "fusion_lat": 0.0, "rental_uris": {"android": "https://dc.lft.to/lastmile_qr_scan", "ios": "https://dc.lft.to/lastmile_qr_scan"}, "type": "electric_scooter"}, {"is_reserved": 0, "is_disabled": 0, "fusion_lon": 0.0, "lat": 38.902700833333334, "name": "143e871114026d0112e5592a231a2a71", "bike_id": "143e871114026d0112e5592a231a2a71", "lon": -77.02809966666666, "fusion_lat": 0.0, "rental_uris": {"android": "https://dc.lft.to/lastmile_qr_scan", "ios": "https://dc.lft.to/lastmile_qr_scan"}, "type": "electric_scooter"}, {"is_reserved": 0, "is_disabled": 0, "fusion_lon": 0.0, "lat": 38.93430383333333, "name": "9b871cde1667704c6deaf164080c94c5", "bike_id": "9b871cde1667704c6deaf164080c94c5", "lon": -77.034495, "fusion_lat": 0.0, "rental_uris": {"android": "https://dc.lft.to/lastmile_qr_scan", "ios": "https://dc.lft.to/lastmile_qr_scan"}, "type": "electric_scooter"}, {"is_reserved": 0, "is_disabled": 0, "fusion_lon": 0.0, "lat": 39.084995666666664, "name": "57a6f61e8bdfc64fd85a1da3c6dd15ed", "bike_id": "57a6f61e8bdfc64fd85a1da3c6dd15ed", "lon": -76.95052116666666, "fusion_lat": 0.0, "rental_uris": {"android": "https://dc.lft.to/lastmile_qr_scan", "ios": "https://dc.lft.to/lastmile_qr_scan"}, "type": "electric_bike"}, {"is_reserved": 0, "is_disabled": 0, "fusion_lon": 0.0, "lat": 38.910126166666664, "name": "ff917560227cc288035bb5a68f8202e2", "bike_id": "ff917560227cc288035bb5a68f8202e2", "lon": -77.022227, "fusion_lat": 0.0, "rental_uris": {"android": "https://dc.lft.to/lastmile_qr_scan", "ios": "https://dc.lft.to/lastmile_qr_scan"}, "type": "electric_scooter"}, {"is_reserved": 0, "is_disabled": 0, "fusion_lon": 0.0, "lat": 38.910053166666664, "name": "f9873329be168df6c850960d6f275852", "bike_id": "f9873329be168df6c850960d6f275852", "lon": -77.02096133333333, "fusion_lat": 0.0, "rental_uris": {"android": "https://dc.lft.to/lastmile_qr_scan", "ios": "https://dc.lft.to/lastmile_qr_scan"}, "type": "electric_scooter"}, {"is_reserved": 0, "is_disabled": 0, "fusion_lon": 0.0, "lat": 38.919526166666664, "name": "548b8d530f5bb96f3b201cf922578365", "bike_id": "548b8d530f5bb96f3b201cf922578365", "lon": -77.079787, "fusion_lat": 0.0, "rental_uris": {"android": "https://dc.lft.to/lastmile_qr_scan", "ios": "https://dc.lft.to/lastmile_qr_scan"}, "type": "electric_scooter"}, {"is_reserved": 0, "is_disabled": 0, "fusion_lon": 0.0, "lat": 38.944429166666666, "name": "aa386d1c898764d4528400b50b77623a", "bike_id": "aa386d1c898764d4528400b50b77623a", "lon": -77.06364666666667, "fusion_lat": 0.0, "rental_uris": {"android": "https://dc.lft.to/lastmile_qr_scan", "ios": "https://dc.lft.to/lastmile_qr_scan"}, "type": "electric_scooter"}, {"is_reserved": 0, "is_disabled": 0, "fusion_lon": 0.0, "lat": 38.989648833333334, "name": "413e241520cf10c4807a310abe33cba5", "bike_id": "413e241520cf10c4807a310abe33cba5", "lon": -77.09895283333333, "fusion_lat": 0.0, "rental_uris": {"android": "https://dc.lft.to/lastmile_qr_scan", "ios": "https://dc.lft.to/lastmile_qr_scan"}, "type": "electric_bike"}, {"is_reserved": 0, "is_disabled": 0, "fusion_lon": 0.0, "lat": 38.85218233333333, "name": "1eb2ebe1506ceb0796a44c36b1e82f87", "bike_id": "1eb2ebe1506ceb0796a44c36b1e82f87", "lon": -76.99367883333333, "fusion_lat": 0.0, "rental_uris": {"android": "https://dc.lft.to/lastmile_qr_scan", "ios": "https://dc.lft.to/lastmile_qr_scan"}, "type": "electric_bike"}, {"is_reserved": 0, "is_disabled": 0, "fusion_lon": 0.0, "lat": 38.924447666666666, "name": "235389e6ea5a7e7d15ce8b656d3f491f", "bike_id": "235389e6ea5a7e7d15ce8b656d3f491f", "lon": -77.0328545, "fusion_lat": 0.0, "rental_uris": {"android": "https://dc.lft.to/lastmile_qr_scan", "ios": "https://dc.lft.to/lastmile_qr_scan"}, "type": "electric_scooter"}, {"is_reserved": 0, "is_disabled": 0, "fusion_lon": 0.0, "lat": 38.91852733333333, "name": "fead3baca547cab59c7ae760d3a77f02", "bike_id": "fead3baca547cab59c7ae760d3a77f02", "lon": -77.03199883333333, "fusion_lat": 0.0, "rental_uris": {"android": "https://dc.lft.to/lastmile_qr_scan", "ios": "https://dc.lft.to/lastmile_qr_scan"}, "type": "electric_scooter"}, {"is_reserved": 0, "is_disabled": 0, "fusion_lon": 0.0, "lat": 38.922446, "name": "18e722f108f935aa49e9fedd9dbe3346", "bike_id": "18e722f108f935aa49e9fedd9dbe3346", "lon": -77.03512083333334, "fusion_lat": 0.0, "rental_uris": {"android": "https://dc.lft.to/lastmile_qr_scan", "ios": "https://dc.lft.to/lastmile_qr_scan"}, "type": "electric_scooter"}, {"is_reserved": 0, "is_disabled": 0, "fusion_lon": 0.0, "lat": 38.8985465, "name": "12eed72d394ab77a780c55c7285661a0", "bike_id": "12eed72d394ab77a780c55c7285661a0", "lon": -77.02265066666666, "fusion_lat": 0.0, "rental_uris": {"android": "https://dc.lft.to/lastmile_qr_scan", "ios": "https://dc.lft.to/lastmile_qr_scan"}, "type": "electric_scooter"}, {"is_reserved": 0, "is_disabled": 0, "fusion_lon": 0.0, "lat": 38.922328666666665, "name": "790828090a2dc586d396ca6734b16e2b", "bike_id": "790828090a2dc586d396ca6734b16e2b", "lon": -77.02110266666666, "fusion_lat": 0.0, "rental_uris": {"android": "https://dc.lft.to/lastmile_qr_scan", "ios": "https://dc.lft.to/lastmile_qr_scan"}, "type": "electric_scooter"}, {"is_reserved": 0, "is_disabled": 0, "fusion_lon": 0.0, "lat": 38.902416833333334, "name": "62fbddd20794cca8eb54eec8e8f5e4a9", "bike_id": "62fbddd20794cca8eb54eec8e8f5e4a9", "lon": -77.001965, "fusion_lat": 0.0, "rental_uris": {"android": "https://dc.lft.to/lastmile_qr_scan", "ios": "https://dc.lft.to/lastmile_qr_scan"}, "type": "electric_scooter"}, {"is_reserved": 0, "is_disabled": 0, "fusion_lon": 0.0, "lat": 38.897150833333335, "name": "66b7716327dd6fd32beb4c91d8806fef", "bike_id": "66b7716327dd6fd32beb4c91d8806fef", "lon": -77.03200666666666, "fusion_lat": 0.0, "rental_uris": {"android": "https://dc.lft.to/lastmile_qr_scan", "ios": "https://dc.lft.to/lastmile_qr_scan"}, "type": "electric_scooter"}, {"is_reserved": 0, "is_disabled": 0, "fusion_lon": 0.0, "lat": 38.92062, "name": "8750b8bd38234f984b7ba3eb0e4b19c9", "bike_id": "8750b8bd38234f984b7ba3eb0e4b19c9", "lon": -77.03473483333333, "fusion_lat": 0.0, "rental_uris": {"android": "https://dc.lft.to/lastmile_qr_scan", "ios": "https://dc.lft.to/lastmile_qr_scan"}, "type": "electric_scooter"}, {"is_reserved": 0, "is_disabled": 0, "fusion_lon": 0.0, "lat": 38.938666, "name": "ebb58fc4fe80bc3d9a9c18f9ed45ebeb", "bike_id": "ebb58fc4fe80bc3d9a9c18f9ed45ebeb", "lon": -77.03040133333333, "fusion_lat": 0.0, "rental_uris": {"android": "https://dc.lft.to/lastmile_qr_scan", "ios": "https://dc.lft.to/lastmile_qr_scan"}, "type": "electric_scooter"}, {"is_reserved": 0, "is_disabled": 0, "fusion_lon": 0.0, "lat": 38.909079, "name": "315b862af36e4f6cc295c0e8e7ba7142", "bike_id": "315b862af36e4f6cc295c0e8e7ba7142", "lon": -77.072662, "fusion_lat": 0.0, "rental_uris": {"android": "https://dc.lft.to/lastmile_qr_scan", "ios": "https://dc.lft.to/lastmile_qr_scan"}, "type": "electric_scooter"}, {"is_reserved": 0, "is_disabled": 0, "fusion_lon": 0.0, "lat": 38.882979166666665, "name": "0d66cbb47f501ae54237283622d00c93", "bike_id": "0d66cbb47f501ae54237283622d00c93", "lon": -76.93235416666667, "fusion_lat": 0.0, "rental_uris": {"android": "https://dc.lft.to/lastmile_qr_scan", "ios": "https://dc.lft.to/lastmile_qr_scan"}, "type": "electric_bike"}, {"is_reserved": 0, "is_disabled": 0, "fusion_lon": 0.0, "lat": 38.876537666666664, "name": "73cebc004bb1735173c5918030be1b35", "bike_id": "73cebc004bb1735173c5918030be1b35", "lon": -77.00421833333333, "fusion_lat": 0.0, "rental_uris": {"android": "https://dc.lft.to/lastmile_qr_scan", "ios": "https://dc.lft.to/lastmile_qr_scan"}, "type": "electric_scooter"}, {"is_reserved": 0, "is_disabled": 0, "fusion_lon": 0.0, "lat": 38.914517833333335, "name": "a69bfe7d6912c2c0e96bc68bd559c836", "bike_id": "a69bfe7d6912c2c0e96bc68bd559c836", "lon": -76.9728455, "fusion_lat": 0.0, "rental_uris": {"android": "https://dc.lft.to/lastmile_qr_scan", "ios": "https://dc.lft.to/lastmile_qr_scan"}, "type": "electric_bike"}, {"is_reserved": 0, "is_disabled": 0, "fusion_lon": 0.0, "lat": 38.90945333333333, "name": "4db790f7576ac77e144dc278aba1d640", "bike_id": "4db790f7576ac77e144dc278aba1d640", "lon": -77.01515183333333, "fusion_lat": 0.0, "rental_uris": {"android": "https://dc.lft.to/lastmile_qr_scan", "ios": "https://dc.lft.to/lastmile_qr_scan"}, "type": "electric_scooter"}, {"is_reserved": 0, "is_disabled": 0, "fusion_lon": 0.0, "lat": 38.9068555, "name": "becffd610345c2dc91dd411b27f3229c", "bike_id": "becffd610345c2dc91dd411b27f3229c", "lon": -77.04879133333333, "fusion_lat": 0.0, "rental_uris": {"android": "https://dc.lft.to/lastmile_qr_scan", "ios": "https://dc.lft.to/lastmile_qr_scan"}, "type": "electric_scooter"}, {"is_reserved": 0, "is_disabled": 0, "fusion_lon": 0.0, "lat": 38.9154995, "name": "c636c6b12c2efb5b58452283ef7a106f", "bike_id": "c636c6b12c2efb5b58452283ef7a106f", "lon": -77.01228733333333, "fusion_lat": 0.0, "rental_uris": {"android": "https://dc.lft.to/lastmile_qr_scan", "ios": "https://dc.lft.to/lastmile_qr_scan"}, "type": "electric_scooter"}, {"is_reserved": 0, "is_disabled": 0, "fusion_lon": 0.0, "lat": 38.9622585, "name": "82c4b11c22934ae7b32bf6e886a052c2", "bike_id": "82c4b11c22934ae7b32bf6e886a052c2", "lon": -77.013578, "fusion_lat": 0.0, "rental_uris": {"android": "https://dc.lft.to/lastmile_qr_scan", "ios": "https://dc.lft.to/lastmile_qr_scan"}, "type": "electric_scooter"}, {"is_reserved": 0, "is_disabled": 0, "fusion_lon": 0.0, "lat": 38.8973295, "name": "139ab659c1e9b6737cae1867a48a8800", "bike_id": "139ab659c1e9b6737cae1867a48a8800", "lon": -77.05524366666667, "fusion_lat": 0.0, "rental_uris": {"android": "https://dc.lft.to/lastmile_qr_scan", "ios": "https://dc.lft.to/lastmile_qr_scan"}, "type": "electric_scooter"}, {"is_reserved": 0, "is_disabled": 0, "fusion_lon": 0.0, "lat": 38.927940666666665, "name": "0b25d2a70a133f48fd7b7e0925394cd8", "bike_id": "0b25d2a70a133f48fd7b7e0925394cd8", "lon": -77.015546, "fusion_lat": 0.0, "rental_uris": {"android": "https://dc.lft.to/lastmile_qr_scan", "ios": "https://dc.lft.to/lastmile_qr_scan"}, "type": "electric_scooter"}, {"is_reserved": 0, "is_disabled": 0, "fusion_lon": 0.0, "lat": 38.78464566666667, "name": "57b3e4a0562e49d22e46dd989d9b1dbf", "bike_id": "57b3e4a0562e49d22e46dd989d9b1dbf", "lon": -77.054369, "fusion_lat": 0.0, "rental_uris": {"android": "https://dc.lft.to/lastmile_qr_scan", "ios": "https://dc.lft.to/lastmile_qr_scan"}, "type": "electric_bike"}, {"is_reserved": 0, "is_disabled": 0, "fusion_lon": 0.0, "lat": 38.921406833333336, "name": "c5bdf5928e38b489bb9c36f2627c2194", "bike_id": "c5bdf5928e38b489bb9c36f2627c2194", "lon": -77.018431, "fusion_lat": 0.0, "rental_uris": {"android": "https://dc.lft.to/lastmile_qr_scan", "ios": "https://dc.lft.to/lastmile_qr_scan"}, "type": "electric_scooter"}, {"is_reserved": 0, "is_disabled": 0, "fusion_lon": 0.0, "lat": 38.92157133333333, "name": "bd2889a386ea3206fc2d609e1024bb22", "bike_id": "bd2889a386ea3206fc2d609e1024bb22", "lon": -77.03376066666667, "fusion_lat": 0.0, "rental_uris": {"android": "https://dc.lft.to/lastmile_qr_scan", "ios": "https://dc.lft.to/lastmile_qr_scan"}, "type": "electric_scooter"}, {"is_reserved": 0, "is_disabled": 0, "fusion_lon": 0.0, "lat": 38.893246833333336, "name": "dec13bcdb731b7f202598770c0b3f877", "bike_id": "dec13bcdb731b7f202598770c0b3f877", "lon": -77.0221505, "fusion_lat": 0.0, "rental_uris": {"android": "https://dc.lft.to/lastmile_qr_scan", "ios": "https://dc.lft.to/lastmile_qr_scan"}, "type": "electric_scooter"}, {"is_reserved": 0, "is_disabled": 0, "fusion_lon": 0.0, "lat": 39.001610166666666, "name": "1e5001bc1541c2b429f2cc585964423e", "bike_id": "1e5001bc1541c2b429f2cc585964423e", "lon": -76.9023915, "fusion_lat": 0.0, "rental_uris": {"android": "https://dc.lft.to/lastmile_qr_scan", "ios": "https://dc.lft.to/lastmile_qr_scan"}, "type": "electric_bike"}, {"is_reserved": 0, "is_disabled": 0, "fusion_lon": 0.0, "lat": 38.9340835, "name": "54bd750cf4bfbca0e3bb4ba0083ab0cf", "bike_id": "54bd750cf4bfbca0e3bb4ba0083ab0cf", "lon": -77.04549566666667, "fusion_lat": 0.0, "rental_uris": {"android": "https://dc.lft.to/lastmile_qr_scan", "ios": "https://dc.lft.to/lastmile_qr_scan"}, "type": "electric_scooter"}, {"is_reserved": 0, "is_disabled": 0, "fusion_lon": 0.0, "lat": 38.9279015, "name": "4fa4b8dfcf25a85ac6a4b16126cb7dd8", "bike_id": "4fa4b8dfcf25a85ac6a4b16126cb7dd8", "lon": -77.03139533333334, "fusion_lat": 0.0, "rental_uris": {"android": "https://dc.lft.to/lastmile_qr_scan", "ios": "https://dc.lft.to/lastmile_qr_scan"}, "type": "electric_scooter"}, {"is_reserved": 0, "is_disabled": 0, "fusion_lon": 0.0, "lat": 38.87712033333333, "name": "8e6d1e4a330287a89f9b828a16850872", "bike_id": "8e6d1e4a330287a89f9b828a16850872", "lon": -77.01759466666667, "fusion_lat": 0.0, "rental_uris": {"android": "https://dc.lft.to/lastmile_qr_scan", "ios": "https://dc.lft.to/lastmile_qr_scan"}, "type": "electric_scooter"}, {"is_reserved": 0, "is_disabled": 0, "fusion_lon": 0.0, "lat": 38.916854666666666, "name": "8d2029dd39aca0ee50bc55458e3e3af8", "bike_id": "8d2029dd39aca0ee50bc55458e3e3af8", "lon": -77.017294, "fusion_lat": 0.0, "rental_uris": {"android": "https://dc.lft.to/lastmile_qr_scan", "ios": "https://dc.lft.to/lastmile_qr_scan"}, "type": "electric_scooter"}, {"is_reserved": 0, "is_disabled": 0, "fusion_lon": 0.0, "lat": 39.0292815, "name": "ae1fe701e090069168d39a96de1308dc", "bike_id": "ae1fe701e090069168d39a96de1308dc", "lon": -77.01361466666667, "fusion_lat": 0.0, "rental_uris": {"android": "https://dc.lft.to/lastmile_qr_scan", "ios": "https://dc.lft.to/lastmile_qr_scan"}, "type": "electric_bike"}, {"is_reserved": 0, "is_disabled": 0, "fusion_lon": 0.0, "lat": 38.8966685, "name": "a1991a6fd23314edf83ae0c6b781915f", "bike_id": "a1991a6fd23314edf83ae0c6b781915f", "lon": -77.0433455, "fusion_lat": 0.0, "rental_uris": {"android": "https://dc.lft.to/lastmile_qr_scan", "ios": "https://dc.lft.to/lastmile_qr_scan"}, "type": "electric_scooter"}, {"is_reserved": 0, "is_disabled": 0, "fusion_lon": 0.0, "lat": 38.90776983333333, "name": "06c510cd08c8808df6109ca70d694b4d", "bike_id": "06c510cd08c8808df6109ca70d694b4d", "lon": -77.03191083333333, "fusion_lat": 0.0, "rental_uris": {"android": "https://dc.lft.to/lastmile_qr_scan", "ios": "https://dc.lft.to/lastmile_qr_scan"}, "type": "electric_scooter"}, {"is_reserved": 0, "is_disabled": 0, "fusion_lon": 0.0, "lat": 38.87802666666666, "name": "3dc4d1b96b9edbad88acf2a468bb866c", "bike_id": "3dc4d1b96b9edbad88acf2a468bb866c", "lon": -76.9882075, "fusion_lat": 0.0, "rental_uris": {"android": "https://dc.lft.to/lastmile_qr_scan", "ios": "https://dc.lft.to/lastmile_qr_scan"}, "type": "electric_scooter"}, {"is_reserved": 0, "is_disabled": 0, "fusion_lon": 0.0, "lat": 38.85800033333334, "name": "ea6ee5fa14a157963ff37781d02b5252", "bike_id": "ea6ee5fa14a157963ff37781d02b5252", "lon": -76.98746583333333, "fusion_lat": 0.0, "rental_uris": {"android": "https://dc.lft.to/lastmile_qr_scan", "ios": "https://dc.lft.to/lastmile_qr_scan"}, "type": "electric_bike"}, {"is_reserved": 0, "is_disabled": 0, "fusion_lon": 0.0, "lat": 38.899797, "name": "b56972020bac85cb5f6c4a17f72dc078", "bike_id": "b56972020bac85cb5f6c4a17f72dc078", "lon": -77.04192933333333, "fusion_lat": 0.0, "rental_uris": {"android": "https://dc.lft.to/lastmile_qr_scan", "ios": "https://dc.lft.to/lastmile_qr_scan"}, "type": "electric_scooter"}, {"is_reserved": 0, "is_disabled": 0, "fusion_lon": 0.0, "lat": 38.93011933333333, "name": "b55b9cdd81f7d759878e438670805bb7", "bike_id": "b55b9cdd81f7d759878e438670805bb7", "lon": -77.01444733333334, "fusion_lat": 0.0, "rental_uris": {"android": "https://dc.lft.to/lastmile_qr_scan", "ios": "https://dc.lft.to/lastmile_qr_scan"}, "type": "electric_scooter"}, {"is_reserved": 0, "is_disabled": 0, "fusion_lon": 0.0, "lat": 38.83162016666667, "name": "177b00a0b1236e977c7ab492b32d15c9", "bike_id": "177b00a0b1236e977c7ab492b32d15c9", "lon": -76.9957065, "fusion_lat": 0.0, "rental_uris": {"android": "https://dc.lft.to/lastmile_qr_scan", "ios": "https://dc.lft.to/lastmile_qr_scan"}, "type": "electric_bike"}, {"is_reserved": 0, "is_disabled": 0, "fusion_lon": 0.0, "lat": 38.91700216666667, "name": "eb4aa57a9dcb81fa3b8b57e180a2de81", "bike_id": "eb4aa57a9dcb81fa3b8b57e180a2de81", "lon": -77.03798166666667, "fusion_lat": 0.0, "rental_uris": {"android": "https://dc.lft.to/lastmile_qr_scan", "ios": "https://dc.lft.to/lastmile_qr_scan"}, "type": "electric_scooter"}, {"is_reserved": 0, "is_disabled": 0, "fusion_lon": 0.0, "lat": 38.92365433333333, "name": "c3205b275a8382d8a18d64672ab2aa6e", "bike_id": "c3205b275a8382d8a18d64672ab2aa6e", "lon": -77.019509, "fusion_lat": 0.0, "rental_uris": {"android": "https://dc.lft.to/lastmile_qr_scan", "ios": "https://dc.lft.to/lastmile_qr_scan"}, "type": "electric_scooter"}, {"is_reserved": 0, "is_disabled": 0, "fusion_lon": 0.0, "lat": 38.922423, "name": "2fc1591d0cd7f3a2e3eff5ca8b13584c", "bike_id": "2fc1591d0cd7f3a2e3eff5ca8b13584c", "lon": -77.03065383333333, "fusion_lat": 0.0, "rental_uris": {"android": "https://dc.lft.to/lastmile_qr_scan", "ios": "https://dc.lft.to/lastmile_qr_scan"}, "type": "electric_scooter"}, {"is_reserved": 0, "is_disabled": 0, "fusion_lon": 0.0, "lat": 38.901157, "name": "25105cf8633183aede55cc6006e6f371", "bike_id": "25105cf8633183aede55cc6006e6f371", "lon": -77.021857, "fusion_lat": 0.0, "rental_uris": {"android": "https://dc.lft.to/lastmile_qr_scan", "ios": "https://dc.lft.to/lastmile_qr_scan"}, "type": "electric_scooter"}, {"is_reserved": 0, "is_disabled": 0, "fusion_lon": 0.0, "lat": 38.9207775, "name": "97254e87666e40c045824c083377d5cd", "bike_id": "97254e87666e40c045824c083377d5cd", "lon": -77.02404016666667, "fusion_lat": 0.0, "rental_uris": {"android": "https://dc.lft.to/lastmile_qr_scan", "ios": "https://dc.lft.to/lastmile_qr_scan"}, "type": "electric_scooter"}, {"is_reserved": 0, "is_disabled": 0, "fusion_lon": 0.0, "lat": 38.916864333333336, "name": "a722e95b8bce40c4ae96a191a937475d", "bike_id": "a722e95b8bce40c4ae96a191a937475d", "lon": -77.02948016666667, "fusion_lat": 0.0, "rental_uris": {"android": "https://dc.lft.to/lastmile_qr_scan", "ios": "https://dc.lft.to/lastmile_qr_scan"}, "type": "electric_scooter"}, {"is_reserved": 0, "is_disabled": 0, "fusion_lon": 0.0, "lat": 38.912707833333336, "name": "146b7b37894e34d30b4f64af6f2a3bc8", "bike_id": "146b7b37894e34d30b4f64af6f2a3bc8", "lon": -77.0318305, "fusion_lat": 0.0, "rental_uris": {"android": "https://dc.lft.to/lastmile_qr_scan", "ios": "https://dc.lft.to/lastmile_qr_scan"}, "type": "electric_scooter"}, {"is_reserved": 0, "is_disabled": 0, "fusion_lon": 0.0, "lat": 38.9281185, "name": "33b6d58408edf94f7eaed0f033a2d20b", "bike_id": "33b6d58408edf94f7eaed0f033a2d20b", "lon": -77.0223155, "fusion_lat": 0.0, "rental_uris": {"android": "https://dc.lft.to/lastmile_qr_scan", "ios": "https://dc.lft.to/lastmile_qr_scan"}, "type": "electric_scooter"}, {"is_reserved": 0, "is_disabled": 0, "fusion_lon": 0.0, "lat": 38.8719825, "name": "386d3c130089c3d7e642269f92eb56a7", "bike_id": "386d3c130089c3d7e642269f92eb56a7", "lon": -77.00576, "fusion_lat": 0.0, "rental_uris": {"android": "https://dc.lft.to/lastmile_qr_scan", "ios": "https://dc.lft.to/lastmile_qr_scan"}, "type": "electric_scooter"}, {"is_reserved": 0, "is_disabled": 0, "fusion_lon": 0.0, "lat": 38.922509166666664, "name": "b3e560b43992d55fb592a704ed66e4af", "bike_id": "b3e560b43992d55fb592a704ed66e4af", "lon": -77.04248533333333, "fusion_lat": 0.0, "rental_uris": {"android": "https://dc.lft.to/lastmile_qr_scan", "ios": "https://dc.lft.to/lastmile_qr_scan"}, "type": "electric_scooter"}, {"is_reserved": 0, "is_disabled": 0, "fusion_lon": 0.0, "lat": 38.9047625, "name": "8619e48f2a1f12baa35ce221add160ce", "bike_id": "8619e48f2a1f12baa35ce221add160ce", "lon": -77.02703766666667, "fusion_lat": 0.0, "rental_uris": {"android": "https://dc.lft.to/lastmile_qr_scan", "ios": "https://dc.lft.to/lastmile_qr_scan"}, "type": "electric_scooter"}, {"is_reserved": 0, "is_disabled": 0, "fusion_lon": 0.0, "lat": 38.913623333333334, "name": "62ec888394a254aa1e79d463f6d91bd7", "bike_id": "62ec888394a254aa1e79d463f6d91bd7", "lon": -77.09188816666666, "fusion_lat": 0.0, "rental_uris": {"android": "https://dc.lft.to/lastmile_qr_scan", "ios": "https://dc.lft.to/lastmile_qr_scan"}, "type": "electric_scooter"}, {"is_reserved": 0, "is_disabled": 0, "fusion_lon": 0.0, "lat": 38.895006333333335, "name": "0e5407aeaa0e73ea958987b1a9be7159", "bike_id": "0e5407aeaa0e73ea958987b1a9be7159", "lon": -77.04635866666666, "fusion_lat": 0.0, "rental_uris": {"android": "https://dc.lft.to/lastmile_qr_scan", "ios": "https://dc.lft.to/lastmile_qr_scan"}, "type": "electric_scooter"}, {"is_reserved": 0, "is_disabled": 0, "fusion_lon": 0.0, "lat": 38.89899033333333, "name": "050a80d5bda4f30af0815e09a8c98000", "bike_id": "050a80d5bda4f30af0815e09a8c98000", "lon": -77.0403205, "fusion_lat": 0.0, "rental_uris": {"android": "https://dc.lft.to/lastmile_qr_scan", "ios": "https://dc.lft.to/lastmile_qr_scan"}, "type": "electric_scooter"}, {"is_reserved": 0, "is_disabled": 0, "fusion_lon": 0.0, "lat": 38.90733816666667, "name": "0285473a517031e2c5b7c11e2ae619ba", "bike_id": "0285473a517031e2c5b7c11e2ae619ba", "lon": -77.04526083333333, "fusion_lat": 0.0, "rental_uris": {"android": "https://dc.lft.to/lastmile_qr_scan", "ios": "https://dc.lft.to/lastmile_qr_scan"}, "type": "electric_scooter"}, {"is_reserved": 0, "is_disabled": 0, "fusion_lon": 0.0, "lat": 38.938499666666665, "name": "f1356cb08725937050536dbe96a325cf", "bike_id": "f1356cb08725937050536dbe96a325cf", "lon": -77.02483616666666, "fusion_lat": 0.0, "rental_uris": {"android": "https://dc.lft.to/lastmile_qr_scan", "ios": "https://dc.lft.to/lastmile_qr_scan"}, "type": "electric_scooter"}, {"is_reserved": 0, "is_disabled": 0, "fusion_lon": 0.0, "lat": 38.915529666666664, "name": "1932c30bfcab850d38a7f636a4907358", "bike_id": "1932c30bfcab850d38a7f636a4907358", "lon": -77.01229933333333, "fusion_lat": 0.0, "rental_uris": {"android": "https://dc.lft.to/lastmile_qr_scan", "ios": "https://dc.lft.to/lastmile_qr_scan"}, "type": "electric_scooter"}, {"is_reserved": 0, "is_disabled": 0, "fusion_lon": 0.0, "lat": 38.89755133333333, "name": "696d4af4a214528a40e789986a0bd39d", "bike_id": "696d4af4a214528a40e789986a0bd39d", "lon": -76.975759, "fusion_lat": 0.0, "rental_uris": {"android": "https://dc.lft.to/lastmile_qr_scan", "ios": "https://dc.lft.to/lastmile_qr_scan"}, "type": "electric_scooter"}, {"is_reserved": 0, "is_disabled": 0, "fusion_lon": 0.0, "lat": 38.878984833333334, "name": "0d17695d2baa891c5a098bfcfeaf908f", "bike_id": "0d17695d2baa891c5a098bfcfeaf908f", "lon": -76.986688, "fusion_lat": 0.0, "rental_uris": {"android": "https://dc.lft.to/lastmile_qr_scan", "ios": "https://dc.lft.to/lastmile_qr_scan"}, "type": "electric_scooter"}, {"is_reserved": 0, "is_disabled": 0, "fusion_lon": 0.0, "lat": 38.883722666666664, "name": "68ae49a5b80a4feb3d4b1fbb1fa694b2", "bike_id": "68ae49a5b80a4feb3d4b1fbb1fa694b2", "lon": -76.9951785, "fusion_lat": 0.0, "rental_uris": {"android": "https://dc.lft.to/lastmile_qr_scan", "ios": "https://dc.lft.to/lastmile_qr_scan"}, "type": "electric_scooter"}, {"is_reserved": 0, "is_disabled": 0, "fusion_lon": 0.0, "lat": 38.908932166666666, "name": "9eb2ea60800dc3db3d505a19a5f1bd31", "bike_id": "9eb2ea60800dc3db3d505a19a5f1bd31", "lon": -77.033847, "fusion_lat": 0.0, "rental_uris": {"android": "https://dc.lft.to/lastmile_qr_scan", "ios": "https://dc.lft.to/lastmile_qr_scan"}, "type": "electric_scooter"}, {"is_reserved": 0, "is_disabled": 0, "fusion_lon": 0.0, "lat": 38.89226566666667, "name": "92b071e26e9d60e3942ff7051ca9cb2d", "bike_id": "92b071e26e9d60e3942ff7051ca9cb2d", "lon": -77.03183, "fusion_lat": 0.0, "rental_uris": {"android": "https://dc.lft.to/lastmile_qr_scan", "ios": "https://dc.lft.to/lastmile_qr_scan"}, "type": "electric_scooter"}, {"is_reserved": 0, "is_disabled": 0, "fusion_lon": 0.0, "lat": 38.92462483333333, "name": "a55473ce07e40f9e1d3dc798bba44dec", "bike_id": "a55473ce07e40f9e1d3dc798bba44dec", "lon": -77.03387883333333, "fusion_lat": 0.0, "rental_uris": {"android": "https://dc.lft.to/lastmile_qr_scan", "ios": "https://dc.lft.to/lastmile_qr_scan"}, "type": "electric_scooter"}, {"is_reserved": 0, "is_disabled": 0, "fusion_lon": 0.0, "lat": 38.92064033333333, "name": "2deb3f7e2784443472337c2b04adc814", "bike_id": "2deb3f7e2784443472337c2b04adc814", "lon": -77.0425415, "fusion_lat": 0.0, "rental_uris": {"android": "https://dc.lft.to/lastmile_qr_scan", "ios": "https://dc.lft.to/lastmile_qr_scan"}, "type": "electric_scooter"}, {"is_reserved": 0, "is_disabled": 0, "fusion_lon": 0.0, "lat": 38.917246, "name": "86c7d89e5d6f00e0e648c70f2d025fee", "bike_id": "86c7d89e5d6f00e0e648c70f2d025fee", "lon": -77.0320865, "fusion_lat": 0.0, "rental_uris": {"android": "https://dc.lft.to/lastmile_qr_scan", "ios": "https://dc.lft.to/lastmile_qr_scan"}, "type": "electric_scooter"}, {"is_reserved": 0, "is_disabled": 0, "fusion_lon": 0.0, "lat": 38.882707, "name": "ec01af44a5b08ef2377c298352cee470", "bike_id": "ec01af44a5b08ef2377c298352cee470", "lon": -76.99013966666666, "fusion_lat": 0.0, "rental_uris": {"android": "https://dc.lft.to/lastmile_qr_scan", "ios": "https://dc.lft.to/lastmile_qr_scan"}, "type": "electric_scooter"}, {"is_reserved": 0, "is_disabled": 0, "fusion_lon": 0.0, "lat": 38.906319333333336, "name": "0fe6744863234b16c6809396f7c11e33", "bike_id": "0fe6744863234b16c6809396f7c11e33", "lon": -77.0345655, "fusion_lat": 0.0, "rental_uris": {"android": "https://dc.lft.to/lastmile_qr_scan", "ios": "https://dc.lft.to/lastmile_qr_scan"}, "type": "electric_scooter"}, {"is_reserved": 0, "is_disabled": 0, "fusion_lon": 0.0, "lat": 38.928691, "name": "43a058ec0a3c8434013beb39744c84fb", "bike_id": "43a058ec0a3c8434013beb39744c84fb", "lon": -77.05430133333333, "fusion_lat": 0.0, "rental_uris": {"android": "https://dc.lft.to/lastmile_qr_scan", "ios": "https://dc.lft.to/lastmile_qr_scan"}, "type": "electric_scooter"}, {"is_reserved": 0, "is_disabled": 0, "fusion_lon": 0.0, "lat": 38.89019183333333, "name": "e263c9710fd58c04c4c959e9762d1693", "bike_id": "e263c9710fd58c04c4c959e9762d1693", "lon": -76.93737116666667, "fusion_lat": 0.0, "rental_uris": {"android": "https://dc.lft.to/lastmile_qr_scan", "ios": "https://dc.lft.to/lastmile_qr_scan"}, "type": "electric_scooter"}, {"is_reserved": 0, "is_disabled": 0, "fusion_lon": 0.0, "lat": 38.91917733333333, "name": "96102a6b0d7b0578f78ed12734fe7f10", "bike_id": "96102a6b0d7b0578f78ed12734fe7f10", "lon": -77.031794, "fusion_lat": 0.0, "rental_uris": {"android": "https://dc.lft.to/lastmile_qr_scan", "ios": "https://dc.lft.to/lastmile_qr_scan"}, "type": "electric_scooter"}, {"is_reserved": 0, "is_disabled": 0, "fusion_lon": 0.0, "lat": 38.92427033333333, "name": "a26585daa6778b1e7fc9ee5143948ec5", "bike_id": "a26585daa6778b1e7fc9ee5143948ec5", "lon": -77.02130283333334, "fusion_lat": 0.0, "rental_uris": {"android": "https://dc.lft.to/lastmile_qr_scan", "ios": "https://dc.lft.to/lastmile_qr_scan"}, "type": "electric_scooter"}, {"is_reserved": 0, "is_disabled": 0, "fusion_lon": 0.0, "lat": 38.901658833333336, "name": "28b01f5deef6d30eef984c402dce573e", "bike_id": "28b01f5deef6d30eef984c402dce573e", "lon": -77.04866266666667, "fusion_lat": 0.0, "rental_uris": {"android": "https://dc.lft.to/lastmile_qr_scan", "ios": "https://dc.lft.to/lastmile_qr_scan"}, "type": "electric_scooter"}, {"is_reserved": 0, "is_disabled": 0, "fusion_lon": 0.0, "lat": 38.95066666666666, "name": "b3a2b469928f6d932d3e663a4810bbf4", "bike_id": "b3a2b469928f6d932d3e663a4810bbf4", "lon": -76.97082816666666, "fusion_lat": 0.0, "rental_uris": {"android": "https://dc.lft.to/lastmile_qr_scan", "ios": "https://dc.lft.to/lastmile_qr_scan"}, "type": "electric_bike"}, {"is_reserved": 0, "is_disabled": 0, "fusion_lon": 0.0, "lat": 38.904432666666665, "name": "72747fe40921970e75ece1f1fe478f4b", "bike_id": "72747fe40921970e75ece1f1fe478f4b", "lon": -77.04320233333333, "fusion_lat": 0.0, "rental_uris": {"android": "https://dc.lft.to/lastmile_qr_scan", "ios": "https://dc.lft.to/lastmile_qr_scan"}, "type": "electric_scooter"}, {"is_reserved": 0, "is_disabled": 0, "fusion_lon": 0.0, "lat": 38.902334833333335, "name": "3258893f2e0fac0170f6ec9c3a4bd8f3", "bike_id": "3258893f2e0fac0170f6ec9c3a4bd8f3", "lon": -77.02820483333333, "fusion_lat": 0.0, "rental_uris": {"android": "https://dc.lft.to/lastmile_qr_scan", "ios": "https://dc.lft.to/lastmile_qr_scan"}, "type": "electric_scooter"}, {"is_reserved": 0, "is_disabled": 0, "fusion_lon": 0.0, "lat": 38.85790316666667, "name": "5142c7da5e6a759c8d527ba8c08160f3", "bike_id": "5142c7da5e6a759c8d527ba8c08160f3", "lon": -77.09960583333333, "fusion_lat": 0.0, "rental_uris": {"android": "https://dc.lft.to/lastmile_qr_scan", "ios": "https://dc.lft.to/lastmile_qr_scan"}, "type": "electric_bike"}, {"is_reserved": 0, "is_disabled": 0, "fusion_lon": 0.0, "lat": 38.87675466666666, "name": "ca3376c49f2f6db04000ec852d2465fc", "bike_id": "ca3376c49f2f6db04000ec852d2465fc", "lon": -77.01450783333334, "fusion_lat": 0.0, "rental_uris": {"android": "https://dc.lft.to/lastmile_qr_scan", "ios": "https://dc.lft.to/lastmile_qr_scan"}, "type": "electric_bike"}, {"is_reserved": 0, "is_disabled": 0, "fusion_lon": 0.0, "lat": 38.9248055, "name": "8c09dce906d0949cde3b14936f2998ce", "bike_id": "8c09dce906d0949cde3b14936f2998ce", "lon": -77.03790483333333, "fusion_lat": 0.0, "rental_uris": {"android": "https://dc.lft.to/lastmile_qr_scan", "ios": "https://dc.lft.to/lastmile_qr_scan"}, "type": "electric_scooter"}, {"is_reserved": 0, "is_disabled": 0, "fusion_lon": 0.0, "lat": 38.933162333333335, "name": "274ab2b73187c7ddf0aee43202cd6b7b", "bike_id": "274ab2b73187c7ddf0aee43202cd6b7b", "lon": -77.0362085, "fusion_lat": 0.0, "rental_uris": {"android": "https://dc.lft.to/lastmile_qr_scan", "ios": "https://dc.lft.to/lastmile_qr_scan"}, "type": "electric_scooter"}, {"is_reserved": 0, "is_disabled": 0, "fusion_lon": 0.0, "lat": 38.924858, "name": "589c77f157c13a32db6959969ef92d7b", "bike_id": "589c77f157c13a32db6959969ef92d7b", "lon": -77.02268766666667, "fusion_lat": 0.0, "rental_uris": {"android": "https://dc.lft.to/lastmile_qr_scan", "ios": "https://dc.lft.to/lastmile_qr_scan"}, "type": "electric_scooter"}, {"is_reserved": 0, "is_disabled": 0, "fusion_lon": 0.0, "lat": 38.88233316666667, "name": "5412a088c71a00e7bacc7792b91e0960", "bike_id": "5412a088c71a00e7bacc7792b91e0960", "lon": -76.994858, "fusion_lat": 0.0, "rental_uris": {"android": "https://dc.lft.to/lastmile_qr_scan", "ios": "https://dc.lft.to/lastmile_qr_scan"}, "type": "electric_scooter"}, {"is_reserved": 0, "is_disabled": 0, "fusion_lon": 0.0, "lat": 38.913261166666665, "name": "b7f1589fedf5aac6e61ccee7007c4658", "bike_id": "b7f1589fedf5aac6e61ccee7007c4658", "lon": -77.0453855, "fusion_lat": 0.0, "rental_uris": {"android": "https://dc.lft.to/lastmile_qr_scan", "ios": "https://dc.lft.to/lastmile_qr_scan"}, "type": "electric_scooter"}, {"is_reserved": 0, "is_disabled": 0, "fusion_lon": 0.0, "lat": 38.920826, "name": "82beeb35013a54250a5ad29dee84328e", "bike_id": "82beeb35013a54250a5ad29dee84328e", "lon": -77.02530583333333, "fusion_lat": 0.0, "rental_uris": {"android": "https://dc.lft.to/lastmile_qr_scan", "ios": "https://dc.lft.to/lastmile_qr_scan"}, "type": "electric_scooter"}, {"is_reserved": 0, "is_disabled": 0, "fusion_lon": 0.0, "lat": 38.894902333333334, "name": "a8c3180c630998b084bd1ab9ce60cedb", "bike_id": "a8c3180c630998b084bd1ab9ce60cedb", "lon": -76.995011, "fusion_lat": 0.0, "rental_uris": {"android": "https://dc.lft.to/lastmile_qr_scan", "ios": "https://dc.lft.to/lastmile_qr_scan"}, "type": "electric_scooter"}, {"is_reserved": 0, "is_disabled": 0, "fusion_lon": 0.0, "lat": 38.91567083333333, "name": "c512c199d2f80747908d7f8760a9d733", "bike_id": "c512c199d2f80747908d7f8760a9d733", "lon": -77.04477183333333, "fusion_lat": 0.0, "rental_uris": {"android": "https://dc.lft.to/lastmile_qr_scan", "ios": "https://dc.lft.to/lastmile_qr_scan"}, "type": "electric_scooter"}, {"is_reserved": 0, "is_disabled": 0, "fusion_lon": 0.0, "lat": 38.92318383333333, "name": "141bc6be8dcd7fc79c36f72742bbd87b", "bike_id": "141bc6be8dcd7fc79c36f72742bbd87b", "lon": -77.029615, "fusion_lat": 0.0, "rental_uris": {"android": "https://dc.lft.to/lastmile_qr_scan", "ios": "https://dc.lft.to/lastmile_qr_scan"}, "type": "electric_scooter"}, {"is_reserved": 0, "is_disabled": 0, "fusion_lon": 0.0, "lat": 38.91732, "name": "fa8c10e1a46bd5947e373300dcd50562", "bike_id": "fa8c10e1a46bd5947e373300dcd50562", "lon": -77.0417065, "fusion_lat": 0.0, "rental_uris": {"android": "https://dc.lft.to/lastmile_qr_scan", "ios": "https://dc.lft.to/lastmile_qr_scan"}, "type": "electric_scooter"}, {"is_reserved": 0, "is_disabled": 0, "fusion_lon": 0.0, "lat": 38.89881916666667, "name": "fdface94e94d1c7d4ac1c7320bf0da73", "bike_id": "fdface94e94d1c7d4ac1c7320bf0da73", "lon": -76.9799515, "fusion_lat": 0.0, "rental_uris": {"android": "https://dc.lft.to/lastmile_qr_scan", "ios": "https://dc.lft.to/lastmile_qr_scan"}, "type": "electric_scooter"}, {"is_reserved": 0, "is_disabled": 0, "fusion_lon": 0.0, "lat": 38.92458366666666, "name": "27c2d0ebd3d7a4858b0aab5dc08af046", "bike_id": "27c2d0ebd3d7a4858b0aab5dc08af046", "lon": -76.9990685, "fusion_lat": 0.0, "rental_uris": {"android": "https://dc.lft.to/lastmile_qr_scan", "ios": "https://dc.lft.to/lastmile_qr_scan"}, "type": "electric_scooter"}, {"is_reserved": 0, "is_disabled": 0, "fusion_lon": 0.0, "lat": 38.91335516666667, "name": "a409c27d18d2db9d9c8486ba9faf79df", "bike_id": "a409c27d18d2db9d9c8486ba9faf79df", "lon": -77.0398845, "fusion_lat": 0.0, "rental_uris": {"android": "https://dc.lft.to/lastmile_qr_scan", "ios": "https://dc.lft.to/lastmile_qr_scan"}, "type": "electric_scooter"}, {"is_reserved": 0, "is_disabled": 0, "fusion_lon": 0.0, "lat": 38.92083233333334, "name": "6516c0ac772c9d5a1382a49cdeeaad03", "bike_id": "6516c0ac772c9d5a1382a49cdeeaad03", "lon": -77.02333083333333, "fusion_lat": 0.0, "rental_uris": {"android": "https://dc.lft.to/lastmile_qr_scan", "ios": "https://dc.lft.to/lastmile_qr_scan"}, "type": "electric_scooter"}, {"is_reserved": 0, "is_disabled": 0, "fusion_lon": 0.0, "lat": 38.92062266666667, "name": "dbe69e002789ab4bb83a0bbf1a1e8559", "bike_id": "dbe69e002789ab4bb83a0bbf1a1e8559", "lon": -77.033171, "fusion_lat": 0.0, "rental_uris": {"android": "https://dc.lft.to/lastmile_qr_scan", "ios": "https://dc.lft.to/lastmile_qr_scan"}, "type": "electric_bike"}, {"is_reserved": 0, "is_disabled": 0, "fusion_lon": 0.0, "lat": 38.936979, "name": "79169587bfe9db1dd68790cf90ff68eb", "bike_id": "79169587bfe9db1dd68790cf90ff68eb", "lon": -77.03277016666667, "fusion_lat": 0.0, "rental_uris": {"android": "https://dc.lft.to/lastmile_qr_scan", "ios": "https://dc.lft.to/lastmile_qr_scan"}, "type": "electric_scooter"}, {"is_reserved": 0, "is_disabled": 0, "fusion_lon": 0.0, "lat": 38.929751, "name": "cc0f61a8c5d04fa8ab99af3809c0b9f0", "bike_id": "cc0f61a8c5d04fa8ab99af3809c0b9f0", "lon": -77.023355, "fusion_lat": 0.0, "rental_uris": {"android": "https://dc.lft.to/lastmile_qr_scan", "ios": "https://dc.lft.to/lastmile_qr_scan"}, "type": "electric_scooter"}, {"is_reserved": 0, "is_disabled": 0, "fusion_lon": 0.0, "lat": 38.9213075, "name": "6f62f87fb4822894b75e3587ceef78a0", "bike_id": "6f62f87fb4822894b75e3587ceef78a0", "lon": -77.04570916666667, "fusion_lat": 0.0, "rental_uris": {"android": "https://dc.lft.to/lastmile_qr_scan", "ios": "https://dc.lft.to/lastmile_qr_scan"}, "type": "electric_scooter"}, {"is_reserved": 0, "is_disabled": 0, "fusion_lon": 0.0, "lat": 38.86487266666666, "name": "7199cdd874abc900e13fed5a077b28b8", "bike_id": "7199cdd874abc900e13fed5a077b28b8", "lon": -76.97741616666667, "fusion_lat": 0.0, "rental_uris": {"android": "https://dc.lft.to/lastmile_qr_scan", "ios": "https://dc.lft.to/lastmile_qr_scan"}, "type": "electric_bike"}, {"is_reserved": 0, "is_disabled": 0, "fusion_lon": 0.0, "lat": 38.935391833333334, "name": "79b6679ad6d3692be16d577b842e3eb0", "bike_id": "79b6679ad6d3692be16d577b842e3eb0", "lon": -77.0234485, "fusion_lat": 0.0, "rental_uris": {"android": "https://dc.lft.to/lastmile_qr_scan", "ios": "https://dc.lft.to/lastmile_qr_scan"}, "type": "electric_scooter"}, {"is_reserved": 0, "is_disabled": 0, "fusion_lon": 0.0, "lat": 38.91490183333333, "name": "e4a5ddb3ba705fc4dec6a8959ea587a4", "bike_id": "e4a5ddb3ba705fc4dec6a8959ea587a4", "lon": -77.01851366666666, "fusion_lat": 0.0, "rental_uris": {"android": "https://dc.lft.to/lastmile_qr_scan", "ios": "https://dc.lft.to/lastmile_qr_scan"}, "type": "electric_scooter"}, {"is_reserved": 0, "is_disabled": 0, "fusion_lon": 0.0, "lat": 38.926687, "name": "83b4f09cebab1d4f8dd4c0927ae8355c", "bike_id": "83b4f09cebab1d4f8dd4c0927ae8355c", "lon": -77.05431633333333, "fusion_lat": 0.0, "rental_uris": {"android": "https://dc.lft.to/lastmile_qr_scan", "ios": "https://dc.lft.to/lastmile_qr_scan"}, "type": "electric_scooter"}, {"is_reserved": 0, "is_disabled": 0, "fusion_lon": 0.0, "lat": 38.91957416666666, "name": "0ad7d2d046dcf0911c6cbc51c0a0ccd0", "bike_id": "0ad7d2d046dcf0911c6cbc51c0a0ccd0", "lon": -77.07872566666667, "fusion_lat": 0.0, "rental_uris": {"android": "https://dc.lft.to/lastmile_qr_scan", "ios": "https://dc.lft.to/lastmile_qr_scan"}, "type": "electric_scooter"}, {"is_reserved": 0, "is_disabled": 0, "fusion_lon": 0.0, "lat": 38.902646, "name": "00feafe55c1c27b0f78320406ccb7430", "bike_id": "00feafe55c1c27b0f78320406ccb7430", "lon": -77.01756666666667, "fusion_lat": 0.0, "rental_uris": {"android": "https://dc.lft.to/lastmile_qr_scan", "ios": "https://dc.lft.to/lastmile_qr_scan"}, "type": "electric_scooter"}, {"is_reserved": 0, "is_disabled": 0, "fusion_lon": 0.0, "lat": 38.91538416666667, "name": "defa92dd9a88f8f8730a516cd8f125a4", "bike_id": "defa92dd9a88f8f8730a516cd8f125a4", "lon": -77.04429866666666, "fusion_lat": 0.0, "rental_uris": {"android": "https://dc.lft.to/lastmile_qr_scan", "ios": "https://dc.lft.to/lastmile_qr_scan"}, "type": "electric_scooter"}, {"is_reserved": 0, "is_disabled": 0, "fusion_lon": 0.0, "lat": 38.892889, "name": "d0dc875fad337bc16a611ed514278c37", "bike_id": "d0dc875fad337bc16a611ed514278c37", "lon": -76.97615983333333, "fusion_lat": 0.0, "rental_uris": {"android": "https://dc.lft.to/lastmile_qr_scan", "ios": "https://dc.lft.to/lastmile_qr_scan"}, "type": "electric_bike"}, {"is_reserved": 0, "is_disabled": 0, "fusion_lon": 0.0, "lat": 38.95122533333333, "name": "447908697c1cae404837e603bd0cc186", "bike_id": "447908697c1cae404837e603bd0cc186", "lon": -77.01572266666666, "fusion_lat": 0.0, "rental_uris": {"android": "https://dc.lft.to/lastmile_qr_scan", "ios": "https://dc.lft.to/lastmile_qr_scan"}, "type": "electric_scooter"}, {"is_reserved": 0, "is_disabled": 0, "fusion_lon": 0.0, "lat": 38.93492766666667, "name": "1098c6a77a4d482e897e49469b7a2ee2", "bike_id": "1098c6a77a4d482e897e49469b7a2ee2", "lon": -76.981966, "fusion_lat": 0.0, "rental_uris": {"android": "https://dc.lft.to/lastmile_qr_scan", "ios": "https://dc.lft.to/lastmile_qr_scan"}, "type": "electric_scooter"}, {"is_reserved": 0, "is_disabled": 0, "fusion_lon": 0.0, "lat": 38.89391666666667, "name": "80b107934d27434324327e6024c541c5", "bike_id": "80b107934d27434324327e6024c541c5", "lon": -77.04651766666667, "fusion_lat": 0.0, "rental_uris": {"android": "https://dc.lft.to/lastmile_qr_scan", "ios": "https://dc.lft.to/lastmile_qr_scan"}, "type": "electric_scooter"}, {"is_reserved": 0, "is_disabled": 0, "fusion_lon": 0.0, "lat": 38.9326525, "name": "60f86043ed54e0905a808059fc60e1a3", "bike_id": "60f86043ed54e0905a808059fc60e1a3", "lon": -76.9961905, "fusion_lat": 0.0, "rental_uris": {"android": "https://dc.lft.to/lastmile_qr_scan", "ios": "https://dc.lft.to/lastmile_qr_scan"}, "type": "electric_scooter"}, {"is_reserved": 0, "is_disabled": 0, "fusion_lon": 0.0, "lat": 38.883817666666666, "name": "e68a7e8b5300edbcb5a103dc11b8f273", "bike_id": "e68a7e8b5300edbcb5a103dc11b8f273", "lon": -77.01980916666666, "fusion_lat": 0.0, "rental_uris": {"android": "https://dc.lft.to/lastmile_qr_scan", "ios": "https://dc.lft.to/lastmile_qr_scan"}, "type": "electric_scooter"}, {"is_reserved": 0, "is_disabled": 0, "fusion_lon": 0.0, "lat": 38.8662775, "name": "36ed0cd16da0adbc74fbf2384d196e9d", "bike_id": "36ed0cd16da0adbc74fbf2384d196e9d", "lon": -76.987126, "fusion_lat": 0.0, "rental_uris": {"android": "https://dc.lft.to/lastmile_qr_scan", "ios": "https://dc.lft.to/lastmile_qr_scan"}, "type": "electric_scooter"}, {"is_reserved": 0, "is_disabled": 0, "fusion_lon": 0.0, "lat": 38.919289666666664, "name": "c94eddd3ceab9caed496efc47a24f54d", "bike_id": "c94eddd3ceab9caed496efc47a24f54d", "lon": -77.03473283333334, "fusion_lat": 0.0, "rental_uris": {"android": "https://dc.lft.to/lastmile_qr_scan", "ios": "https://dc.lft.to/lastmile_qr_scan"}, "type": "electric_scooter"}, {"is_reserved": 0, "is_disabled": 0, "fusion_lon": 0.0, "lat": 38.94264966666667, "name": "ed6bec330e9fd1a9a7cff0ba788d5201", "bike_id": "ed6bec330e9fd1a9a7cff0ba788d5201", "lon": -77.02843866666667, "fusion_lat": 0.0, "rental_uris": {"android": "https://dc.lft.to/lastmile_qr_scan", "ios": "https://dc.lft.to/lastmile_qr_scan"}, "type": "electric_scooter"}, {"is_reserved": 0, "is_disabled": 0, "fusion_lon": 0.0, "lat": 38.9232305, "name": "22dbee07d633106531cb9ead26db9202", "bike_id": "22dbee07d633106531cb9ead26db9202", "lon": -77.01949516666667, "fusion_lat": 0.0, "rental_uris": {"android": "https://dc.lft.to/lastmile_qr_scan", "ios": "https://dc.lft.to/lastmile_qr_scan"}, "type": "electric_scooter"}, {"is_reserved": 0, "is_disabled": 0, "fusion_lon": 0.0, "lat": 38.91801733333333, "name": "aa65cd23c660e219b6bae5dbb1d15b1f", "bike_id": "aa65cd23c660e219b6bae5dbb1d15b1f", "lon": -77.02484616666666, "fusion_lat": 0.0, "rental_uris": {"android": "https://dc.lft.to/lastmile_qr_scan", "ios": "https://dc.lft.to/lastmile_qr_scan"}, "type": "electric_scooter"}, {"is_reserved": 0, "is_disabled": 0, "fusion_lon": 0.0, "lat": 38.92459216666666, "name": "4d850cc93bc5650364e5468bae192c69", "bike_id": "4d850cc93bc5650364e5468bae192c69", "lon": -77.0575955, "fusion_lat": 0.0, "rental_uris": {"android": "https://dc.lft.to/lastmile_qr_scan", "ios": "https://dc.lft.to/lastmile_qr_scan"}, "type": "electric_scooter"}, {"is_reserved": 0, "is_disabled": 0, "fusion_lon": 0.0, "lat": 38.9245605, "name": "707cd1abb81d67c459d515f318c10c77", "bike_id": "707cd1abb81d67c459d515f318c10c77", "lon": -77.03976483333334, "fusion_lat": 0.0, "rental_uris": {"android": "https://dc.lft.to/lastmile_qr_scan", "ios": "https://dc.lft.to/lastmile_qr_scan"}, "type": "electric_scooter"}, {"is_reserved": 0, "is_disabled": 0, "fusion_lon": 0.0, "lat": 38.890510666666664, "name": "d6e1139e8eb1b25008a5fce23e2aa139", "bike_id": "d6e1139e8eb1b25008a5fce23e2aa139", "lon": -77.04491116666667, "fusion_lat": 0.0, "rental_uris": {"android": "https://dc.lft.to/lastmile_qr_scan", "ios": "https://dc.lft.to/lastmile_qr_scan"}, "type": "electric_scooter"}, {"is_reserved": 0, "is_disabled": 0, "fusion_lon": 0.0, "lat": 38.949699833333334, "name": "1124e473f01373c6a05f6c0932a1a638", "bike_id": "1124e473f01373c6a05f6c0932a1a638", "lon": -76.96096233333333, "fusion_lat": 0.0, "rental_uris": {"android": "https://dc.lft.to/lastmile_qr_scan", "ios": "https://dc.lft.to/lastmile_qr_scan"}, "type": "electric_bike"}, {"is_reserved": 0, "is_disabled": 0, "fusion_lon": 0.0, "lat": 38.895100166666666, "name": "6e51a9a2aac24cf2456d2bbc27d4e5e4", "bike_id": "6e51a9a2aac24cf2456d2bbc27d4e5e4", "lon": -76.948825, "fusion_lat": 0.0, "rental_uris": {"android": "https://dc.lft.to/lastmile_qr_scan", "ios": "https://dc.lft.to/lastmile_qr_scan"}, "type": "electric_scooter"}, {"is_reserved": 0, "is_disabled": 0, "fusion_lon": 0.0, "lat": 38.95737733333333, "name": "68293d8180df48981428faf9213da4f4", "bike_id": "68293d8180df48981428faf9213da4f4", "lon": -77.02414966666667, "fusion_lat": 0.0, "rental_uris": {"android": "https://dc.lft.to/lastmile_qr_scan", "ios": "https://dc.lft.to/lastmile_qr_scan"}, "type": "electric_scooter"}, {"is_reserved": 0, "is_disabled": 0, "fusion_lon": 0.0, "lat": 38.924510833333336, "name": "803c4169fe4e7935fe1d17fc49e3a94f", "bike_id": "803c4169fe4e7935fe1d17fc49e3a94f", "lon": -77.04013, "fusion_lat": 0.0, "rental_uris": {"android": "https://dc.lft.to/lastmile_qr_scan", "ios": "https://dc.lft.to/lastmile_qr_scan"}, "type": "electric_scooter"}, {"is_reserved": 0, "is_disabled": 0, "fusion_lon": 0.0, "lat": 38.9121795, "name": "e75eae63c7a85bfa8691e25c1c89a669", "bike_id": "e75eae63c7a85bfa8691e25c1c89a669", "lon": -77.03176316666666, "fusion_lat": 0.0, "rental_uris": {"android": "https://dc.lft.to/lastmile_qr_scan", "ios": "https://dc.lft.to/lastmile_qr_scan"}, "type": "electric_scooter"}, {"is_reserved": 0, "is_disabled": 0, "fusion_lon": 0.0, "lat": 38.9301245, "name": "8eb713240aeaa7b7d29762595e302738", "bike_id": "8eb713240aeaa7b7d29762595e302738", "lon": -77.061924, "fusion_lat": 0.0, "rental_uris": {"android": "https://dc.lft.to/lastmile_qr_scan", "ios": "https://dc.lft.to/lastmile_qr_scan"}, "type": "electric_scooter"}, {"is_reserved": 0, "is_disabled": 0, "fusion_lon": 0.0, "lat": 38.91153416666667, "name": "e17d55d1b308d5ecf506b440d8f1bbef", "bike_id": "e17d55d1b308d5ecf506b440d8f1bbef", "lon": -77.02198, "fusion_lat": 0.0, "rental_uris": {"android": "https://dc.lft.to/lastmile_qr_scan", "ios": "https://dc.lft.to/lastmile_qr_scan"}, "type": "electric_scooter"}, {"is_reserved": 0, "is_disabled": 0, "fusion_lon": 0.0, "lat": 38.888222, "name": "3325c50dee11d7294afd2d370629f575", "bike_id": "3325c50dee11d7294afd2d370629f575", "lon": -76.97701583333334, "fusion_lat": 0.0, "rental_uris": {"android": "https://dc.lft.to/lastmile_qr_scan", "ios": "https://dc.lft.to/lastmile_qr_scan"}, "type": "electric_scooter"}, {"is_reserved": 0, "is_disabled": 0, "fusion_lon": 0.0, "lat": 38.9265725, "name": "e276f1e186ab28fa6b7f9e6dc5cf49ae", "bike_id": "e276f1e186ab28fa6b7f9e6dc5cf49ae", "lon": -77.038457, "fusion_lat": 0.0, "rental_uris": {"android": "https://dc.lft.to/lastmile_qr_scan", "ios": "https://dc.lft.to/lastmile_qr_scan"}, "type": "electric_scooter"}, {"is_reserved": 0, "is_disabled": 0, "fusion_lon": 0.0, "lat": 38.92433616666667, "name": "ae6b395ccbbe5d83c58f7cab78d8615c", "bike_id": "ae6b395ccbbe5d83c58f7cab78d8615c", "lon": -77.0031735, "fusion_lat": 0.0, "rental_uris": {"android": "https://dc.lft.to/lastmile_qr_scan", "ios": "https://dc.lft.to/lastmile_qr_scan"}, "type": "electric_scooter"}, {"is_reserved": 0, "is_disabled": 0, "fusion_lon": 0.0, "lat": 38.897503666666665, "name": "3d4f906cd00f67b19e42ef295339b9e9", "bike_id": "3d4f906cd00f67b19e42ef295339b9e9", "lon": -77.01901883333333, "fusion_lat": 0.0, "rental_uris": {"android": "https://dc.lft.to/lastmile_qr_scan", "ios": "https://dc.lft.to/lastmile_qr_scan"}, "type": "electric_scooter"}, {"is_reserved": 0, "is_disabled": 0, "fusion_lon": 0.0, "lat": 38.89700466666667, "name": "0fbb6cc6b346e7a2813ead247fb0ad8f", "bike_id": "0fbb6cc6b346e7a2813ead247fb0ad8f", "lon": -76.93925033333333, "fusion_lat": 0.0, "rental_uris": {"android": "https://dc.lft.to/lastmile_qr_scan", "ios": "https://dc.lft.to/lastmile_qr_scan"}, "type": "electric_scooter"}, {"is_reserved": 0, "is_disabled": 0, "fusion_lon": 0.0, "lat": 38.902651666666664, "name": "0e4a355ca6c3b4b5211479d66266e6e9", "bike_id": "0e4a355ca6c3b4b5211479d66266e6e9", "lon": -76.99846116666667, "fusion_lat": 0.0, "rental_uris": {"android": "https://dc.lft.to/lastmile_qr_scan", "ios": "https://dc.lft.to/lastmile_qr_scan"}, "type": "electric_scooter"}, {"is_reserved": 0, "is_disabled": 0, "fusion_lon": 0.0, "lat": 38.876566, "name": "41c0a06eddb4784b7d15cdd0446dcc66", "bike_id": "41c0a06eddb4784b7d15cdd0446dcc66", "lon": -77.0116805, "fusion_lat": 0.0, "rental_uris": {"android": "https://dc.lft.to/lastmile_qr_scan", "ios": "https://dc.lft.to/lastmile_qr_scan"}, "type": "electric_scooter"}, {"is_reserved": 0, "is_disabled": 0, "fusion_lon": 0.0, "lat": 38.89355583333333, "name": "4cb21dabbec9a244c41dd8fec6a47f1f", "bike_id": "4cb21dabbec9a244c41dd8fec6a47f1f", "lon": -77.04621483333334, "fusion_lat": 0.0, "rental_uris": {"android": "https://dc.lft.to/lastmile_qr_scan", "ios": "https://dc.lft.to/lastmile_qr_scan"}, "type": "electric_scooter"}, {"is_reserved": 0, "is_disabled": 0, "fusion_lon": 0.0, "lat": 38.906778833333334, "name": "d525838c0eeae022102439543098eda5", "bike_id": "d525838c0eeae022102439543098eda5", "lon": -76.98368383333333, "fusion_lat": 0.0, "rental_uris": {"android": "https://dc.lft.to/lastmile_qr_scan", "ios": "https://dc.lft.to/lastmile_qr_scan"}, "type": "electric_scooter"}, {"is_reserved": 0, "is_disabled": 0, "fusion_lon": 0.0, "lat": 38.93859366666667, "name": "26f4cb5d7d0cadcdbc88f3755593b802", "bike_id": "26f4cb5d7d0cadcdbc88f3755593b802", "lon": -77.03417716666667, "fusion_lat": 0.0, "rental_uris": {"android": "https://dc.lft.to/lastmile_qr_scan", "ios": "https://dc.lft.to/lastmile_qr_scan"}, "type": "electric_scooter"}, {"is_reserved": 0, "is_disabled": 0, "fusion_lon": 0.0, "lat": 38.89833983333333, "name": "90ba9e84b9440bac7162afeb845cc4a1", "bike_id": "90ba9e84b9440bac7162afeb845cc4a1", "lon": -76.946396, "fusion_lat": 0.0, "rental_uris": {"android": "https://dc.lft.to/lastmile_qr_scan", "ios": "https://dc.lft.to/lastmile_qr_scan"}, "type": "electric_scooter"}, {"is_reserved": 0, "is_disabled": 0, "fusion_lon": 0.0, "lat": 38.90030633333333, "name": "c4af70fa643ce370cee653d560922d5c", "bike_id": "c4af70fa643ce370cee653d560922d5c", "lon": -77.01747333333333, "fusion_lat": 0.0, "rental_uris": {"android": "https://dc.lft.to/lastmile_qr_scan", "ios": "https://dc.lft.to/lastmile_qr_scan"}, "type": "electric_scooter"}, {"is_reserved": 0, "is_disabled": 0, "fusion_lon": 0.0, "lat": 38.91560616666666, "name": "43b182fdee15e6de52fd332a97c3b0d9", "bike_id": "43b182fdee15e6de52fd332a97c3b0d9", "lon": -77.00718216666667, "fusion_lat": 0.0, "rental_uris": {"android": "https://dc.lft.to/lastmile_qr_scan", "ios": "https://dc.lft.to/lastmile_qr_scan"}, "type": "electric_scooter"}, {"is_reserved": 0, "is_disabled": 0, "fusion_lon": 0.0, "lat": 38.88024466666667, "name": "4dd243f1b672c2be2d324b95d6c16fcc", "bike_id": "4dd243f1b672c2be2d324b95d6c16fcc", "lon": -76.94324033333334, "fusion_lat": 0.0, "rental_uris": {"android": "https://dc.lft.to/lastmile_qr_scan", "ios": "https://dc.lft.to/lastmile_qr_scan"}, "type": "electric_scooter"}, {"is_reserved": 0, "is_disabled": 0, "fusion_lon": 0.0, "lat": 38.921483, "name": "1771e31d96d2836a9d04a9cf9c37cbec", "bike_id": "1771e31d96d2836a9d04a9cf9c37cbec", "lon": -77.04021216666666, "fusion_lat": 0.0, "rental_uris": {"android": "https://dc.lft.to/lastmile_qr_scan", "ios": "https://dc.lft.to/lastmile_qr_scan"}, "type": "electric_scooter"}, {"is_reserved": 0, "is_disabled": 0, "fusion_lon": 0.0, "lat": 38.9036845, "name": "6217d96f2439aff1846ae09d4275c985", "bike_id": "6217d96f2439aff1846ae09d4275c985", "lon": -77.03665333333333, "fusion_lat": 0.0, "rental_uris": {"android": "https://dc.lft.to/lastmile_qr_scan", "ios": "https://dc.lft.to/lastmile_qr_scan"}, "type": "electric_scooter"}, {"is_reserved": 0, "is_disabled": 0, "fusion_lon": 0.0, "lat": 38.887108166666664, "name": "48f7a1849f03255c31033b790a3900ac", "bike_id": "48f7a1849f03255c31033b790a3900ac", "lon": -76.98339966666667, "fusion_lat": 0.0, "rental_uris": {"android": "https://dc.lft.to/lastmile_qr_scan", "ios": "https://dc.lft.to/lastmile_qr_scan"}, "type": "electric_scooter"}, {"is_reserved": 0, "is_disabled": 0, "fusion_lon": 0.0, "lat": 38.9399495, "name": "735b4ce2f9c9ce30ab4429e2ae4238e2", "bike_id": "735b4ce2f9c9ce30ab4429e2ae4238e2", "lon": -77.01740183333334, "fusion_lat": 0.0, "rental_uris": {"android": "https://dc.lft.to/lastmile_qr_scan", "ios": "https://dc.lft.to/lastmile_qr_scan"}, "type": "electric_scooter"}, {"is_reserved": 0, "is_disabled": 0, "fusion_lon": 0.0, "lat": 38.881291166666664, "name": "858aaf76f8284ca906b400ff623b1077", "bike_id": "858aaf76f8284ca906b400ff623b1077", "lon": -76.99344683333334, "fusion_lat": 0.0, "rental_uris": {"android": "https://dc.lft.to/lastmile_qr_scan", "ios": "https://dc.lft.to/lastmile_qr_scan"}, "type": "electric_scooter"}, {"is_reserved": 0, "is_disabled": 0, "fusion_lon": 0.0, "lat": 38.910241166666665, "name": "015728aaa535c2c02ca92ca0c20ba820", "bike_id": "015728aaa535c2c02ca92ca0c20ba820", "lon": -77.0293755, "fusion_lat": 0.0, "rental_uris": {"android": "https://dc.lft.to/lastmile_qr_scan", "ios": "https://dc.lft.to/lastmile_qr_scan"}, "type": "electric_scooter"}, {"is_reserved": 0, "is_disabled": 0, "fusion_lon": 0.0, "lat": 38.85810033333333, "name": "1f45c7d81b192fd738b82a66cdaae47e", "bike_id": "1f45c7d81b192fd738b82a66cdaae47e", "lon": -76.9900255, "fusion_lat": 0.0, "rental_uris": {"android": "https://dc.lft.to/lastmile_qr_scan", "ios": "https://dc.lft.to/lastmile_qr_scan"}, "type": "electric_scooter"}, {"is_reserved": 0, "is_disabled": 0, "fusion_lon": 0.0, "lat": 38.9127285, "name": "9f2086b29c3de9d692816d7e5c8b6cd7", "bike_id": "9f2086b29c3de9d692816d7e5c8b6cd7", "lon": -77.02214983333333, "fusion_lat": 0.0, "rental_uris": {"android": "https://dc.lft.to/lastmile_qr_scan", "ios": "https://dc.lft.to/lastmile_qr_scan"}, "type": "electric_scooter"}, {"is_reserved": 0, "is_disabled": 0, "fusion_lon": 0.0, "lat": 38.90557066666667, "name": "de9db112166ad271cf8226335741243a", "bike_id": "de9db112166ad271cf8226335741243a", "lon": -76.98370933333334, "fusion_lat": 0.0, "rental_uris": {"android": "https://dc.lft.to/lastmile_qr_scan", "ios": "https://dc.lft.to/lastmile_qr_scan"}, "type": "electric_scooter"}, {"is_reserved": 0, "is_disabled": 0, "fusion_lon": 0.0, "lat": 38.917640666666664, "name": "ff5c53f6cdecc98ae12dfac564dad997", "bike_id": "ff5c53f6cdecc98ae12dfac564dad997", "lon": -77.014969, "fusion_lat": 0.0, "rental_uris": {"android": "https://dc.lft.to/lastmile_qr_scan", "ios": "https://dc.lft.to/lastmile_qr_scan"}, "type": "electric_scooter"}, {"is_reserved": 0, "is_disabled": 0, "fusion_lon": 0.0, "lat": 38.803807166666665, "name": "63f45a3dfdfe19800119c54042536ca3", "bike_id": "63f45a3dfdfe19800119c54042536ca3", "lon": -76.98813433333333, "fusion_lat": 0.0, "rental_uris": {"android": "https://dc.lft.to/lastmile_qr_scan", "ios": "https://dc.lft.to/lastmile_qr_scan"}, "type": "electric_bike"}, {"is_reserved": 0, "is_disabled": 0, "fusion_lon": 0.0, "lat": 38.94266266666666, "name": "941deccc25b23e14fb744623bf96ad2b", "bike_id": "941deccc25b23e14fb744623bf96ad2b", "lon": -77.0258505, "fusion_lat": 0.0, "rental_uris": {"android": "https://dc.lft.to/lastmile_qr_scan", "ios": "https://dc.lft.to/lastmile_qr_scan"}, "type": "electric_scooter"}, {"is_reserved": 0, "is_disabled": 0, "fusion_lon": 0.0, "lat": 38.9003165, "name": "378d883325b6748b47c4224faf42afd6", "bike_id": "378d883325b6748b47c4224faf42afd6", "lon": -77.0019295, "fusion_lat": 0.0, "rental_uris": {"android": "https://dc.lft.to/lastmile_qr_scan", "ios": "https://dc.lft.to/lastmile_qr_scan"}, "type": "electric_scooter"}, {"is_reserved": 0, "is_disabled": 0, "fusion_lon": 0.0, "lat": 38.9353215, "name": "bc0b202b5a03299d079006602f579a02", "bike_id": "bc0b202b5a03299d079006602f579a02", "lon": -77.05433333333333, "fusion_lat": 0.0, "rental_uris": {"android": "https://dc.lft.to/lastmile_qr_scan", "ios": "https://dc.lft.to/lastmile_qr_scan"}, "type": "electric_scooter"}, {"is_reserved": 0, "is_disabled": 0, "fusion_lon": 0.0, "lat": 38.92485666666666, "name": "02c6a3f1df7c6683c6c02a439d995114", "bike_id": "02c6a3f1df7c6683c6c02a439d995114", "lon": -77.022679, "fusion_lat": 0.0, "rental_uris": {"android": "https://dc.lft.to/lastmile_qr_scan", "ios": "https://dc.lft.to/lastmile_qr_scan"}, "type": "electric_scooter"}, {"is_reserved": 0, "is_disabled": 0, "fusion_lon": 0.0, "lat": 38.92791233333333, "name": "b598c02401845c18734c2db98e62be02", "bike_id": "b598c02401845c18734c2db98e62be02", "lon": -77.03717, "fusion_lat": 0.0, "rental_uris": {"android": "https://dc.lft.to/lastmile_qr_scan", "ios": "https://dc.lft.to/lastmile_qr_scan"}, "type": "electric_scooter"}, {"is_reserved": 0, "is_disabled": 0, "fusion_lon": 0.0, "lat": 38.921569166666664, "name": "5f97bbef2a09aafadabac9c2d2aafe73", "bike_id": "5f97bbef2a09aafadabac9c2d2aafe73", "lon": -77.03385116666666, "fusion_lat": 0.0, "rental_uris": {"android": "https://dc.lft.to/lastmile_qr_scan", "ios": "https://dc.lft.to/lastmile_qr_scan"}, "type": "electric_scooter"}, {"is_reserved": 0, "is_disabled": 0, "fusion_lon": 0.0, "lat": 38.93312616666667, "name": "56180b97c956d5b66839166df699e927", "bike_id": "56180b97c956d5b66839166df699e927", "lon": -77.03212316666666, "fusion_lat": 0.0, "rental_uris": {"android": "https://dc.lft.to/lastmile_qr_scan", "ios": "https://dc.lft.to/lastmile_qr_scan"}, "type": "electric_bike"}, {"is_reserved": 0, "is_disabled": 0, "fusion_lon": 0.0, "lat": 38.92638183333333, "name": "4be60eff5df479bd3efc2d58f355ae75", "bike_id": "4be60eff5df479bd3efc2d58f355ae75", "lon": -77.03706216666667, "fusion_lat": 0.0, "rental_uris": {"android": "https://dc.lft.to/lastmile_qr_scan", "ios": "https://dc.lft.to/lastmile_qr_scan"}, "type": "electric_scooter"}, {"is_reserved": 0, "is_disabled": 0, "fusion_lon": 0.0, "lat": 38.937192833333334, "name": "ac015bc80e076bfd77adbe78e4110712", "bike_id": "ac015bc80e076bfd77adbe78e4110712", "lon": -77.03288116666667, "fusion_lat": 0.0, "rental_uris": {"android": "https://dc.lft.to/lastmile_qr_scan", "ios": "https://dc.lft.to/lastmile_qr_scan"}, "type": "electric_scooter"}, {"is_reserved": 0, "is_disabled": 0, "fusion_lon": 0.0, "lat": 38.920725833333336, "name": "dfdf8cd915c8254a8a4a61060264ccce", "bike_id": "dfdf8cd915c8254a8a4a61060264ccce", "lon": -77.0220785, "fusion_lat": 0.0, "rental_uris": {"android": "https://dc.lft.to/lastmile_qr_scan", "ios": "https://dc.lft.to/lastmile_qr_scan"}, "type": "electric_scooter"}, {"is_reserved": 0, "is_disabled": 0, "fusion_lon": 0.0, "lat": 38.88713383333333, "name": "2035765eff7097e60b95a89b6cff36fa", "bike_id": "2035765eff7097e60b95a89b6cff36fa", "lon": -76.98341216666667, "fusion_lat": 0.0, "rental_uris": {"android": "https://dc.lft.to/lastmile_qr_scan", "ios": "https://dc.lft.to/lastmile_qr_scan"}, "type": "electric_scooter"}, {"is_reserved": 0, "is_disabled": 0, "fusion_lon": 0.0, "lat": 38.930206166666665, "name": "23e4f653ac2c33f88d5b68d861bcb343", "bike_id": "23e4f653ac2c33f88d5b68d861bcb343", "lon": -77.01981583333334, "fusion_lat": 0.0, "rental_uris": {"android": "https://dc.lft.to/lastmile_qr_scan", "ios": "https://dc.lft.to/lastmile_qr_scan"}, "type": "electric_scooter"}, {"is_reserved": 0, "is_disabled": 0, "fusion_lon": 0.0, "lat": 38.8450525, "name": "ed42fd89e562eb4c61d80ae573718a97", "bike_id": "ed42fd89e562eb4c61d80ae573718a97", "lon": -76.993642, "fusion_lat": 0.0, "rental_uris": {"android": "https://dc.lft.to/lastmile_qr_scan", "ios": "https://dc.lft.to/lastmile_qr_scan"}, "type": "electric_bike"}, {"is_reserved": 0, "is_disabled": 0, "fusion_lon": 0.0, "lat": 38.804048333333334, "name": "6b450be2f296e9f365b10857066ce18e", "bike_id": "6b450be2f296e9f365b10857066ce18e", "lon": -77.11332683333333, "fusion_lat": 0.0, "rental_uris": {"android": "https://dc.lft.to/lastmile_qr_scan", "ios": "https://dc.lft.to/lastmile_qr_scan"}, "type": "electric_bike"}, {"is_reserved": 0, "is_disabled": 0, "fusion_lon": 0.0, "lat": 38.905771, "name": "9f0cc444c90c4303611bbcabc2d5338f", "bike_id": "9f0cc444c90c4303611bbcabc2d5338f", "lon": -77.03419133333334, "fusion_lat": 0.0, "rental_uris": {"android": "https://dc.lft.to/lastmile_qr_scan", "ios": "https://dc.lft.to/lastmile_qr_scan"}, "type": "electric_scooter"}, {"is_reserved": 0, "is_disabled": 0, "fusion_lon": 0.0, "lat": 38.917968333333334, "name": "e3f32c08ff0c98a2bb35baa3aa6c7d05", "bike_id": "e3f32c08ff0c98a2bb35baa3aa6c7d05", "lon": -77.03441766666667, "fusion_lat": 0.0, "rental_uris": {"android": "https://dc.lft.to/lastmile_qr_scan", "ios": "https://dc.lft.to/lastmile_qr_scan"}, "type": "electric_scooter"}, {"is_reserved": 0, "is_disabled": 0, "fusion_lon": 0.0, "lat": 38.90959183333333, "name": "d68d357e49ce53f96a5f8f26ee1e65f0", "bike_id": "d68d357e49ce53f96a5f8f26ee1e65f0", "lon": -77.02580533333334, "fusion_lat": 0.0, "rental_uris": {"android": "https://dc.lft.to/lastmile_qr_scan", "ios": "https://dc.lft.to/lastmile_qr_scan"}, "type": "electric_scooter"}, {"is_reserved": 0, "is_disabled": 0, "fusion_lon": 0.0, "lat": 38.9238935, "name": "81a25d77a6dc8af4d928f55dc4c897e7", "bike_id": "81a25d77a6dc8af4d928f55dc4c897e7", "lon": -77.0259075, "fusion_lat": 0.0, "rental_uris": {"android": "https://dc.lft.to/lastmile_qr_scan", "ios": "https://dc.lft.to/lastmile_qr_scan"}, "type": "electric_scooter"}, {"is_reserved": 0, "is_disabled": 0, "fusion_lon": 0.0, "lat": 38.90329466666667, "name": "79975efe2f2752109c714674b8331d5c", "bike_id": "79975efe2f2752109c714674b8331d5c", "lon": -76.97519183333333, "fusion_lat": 0.0, "rental_uris": {"android": "https://dc.lft.to/lastmile_qr_scan", "ios": "https://dc.lft.to/lastmile_qr_scan"}, "type": "electric_bike"}, {"is_reserved": 0, "is_disabled": 0, "fusion_lon": 0.0, "lat": 38.872192, "name": "c29b7c4ec07bbe96bc7cef71eff35c81", "bike_id": "c29b7c4ec07bbe96bc7cef71eff35c81", "lon": -77.01614383333333, "fusion_lat": 0.0, "rental_uris": {"android": "https://dc.lft.to/lastmile_qr_scan", "ios": "https://dc.lft.to/lastmile_qr_scan"}, "type": "electric_scooter"}, {"is_reserved": 0, "is_disabled": 0, "fusion_lon": 0.0, "lat": 38.91060933333333, "name": "99d7b447810d9ddd1b78659890edecc5", "bike_id": "99d7b447810d9ddd1b78659890edecc5", "lon": -77.04118566666666, "fusion_lat": 0.0, "rental_uris": {"android": "https://dc.lft.to/lastmile_qr_scan", "ios": "https://dc.lft.to/lastmile_qr_scan"}, "type": "electric_scooter"}, {"is_reserved": 0, "is_disabled": 0, "fusion_lon": 0.0, "lat": 38.920741, "name": "91a7e96baeca974fb1c73d395d44bfa3", "bike_id": "91a7e96baeca974fb1c73d395d44bfa3", "lon": -77.07463116666666, "fusion_lat": 0.0, "rental_uris": {"android": "https://dc.lft.to/lastmile_qr_scan", "ios": "https://dc.lft.to/lastmile_qr_scan"}, "type": "electric_scooter"}, {"is_reserved": 0, "is_disabled": 0, "fusion_lon": 0.0, "lat": 38.900653, "name": "e02a067935484c17352c233d26170773", "bike_id": "e02a067935484c17352c233d26170773", "lon": -76.9870515, "fusion_lat": 0.0, "rental_uris": {"android": "https://dc.lft.to/lastmile_qr_scan", "ios": "https://dc.lft.to/lastmile_qr_scan"}, "type": "electric_scooter"}, {"is_reserved": 0, "is_disabled": 0, "fusion_lon": 0.0, "lat": 38.92055233333333, "name": "dcec95cdf36ae0567a4b936f36e3971d", "bike_id": "dcec95cdf36ae0567a4b936f36e3971d", "lon": -76.984304, "fusion_lat": 0.0, "rental_uris": {"android": "https://dc.lft.to/lastmile_qr_scan", "ios": "https://dc.lft.to/lastmile_qr_scan"}, "type": "electric_scooter"}, {"is_reserved": 0, "is_disabled": 0, "fusion_lon": 0.0, "lat": 38.9240545, "name": "4b41f5f7c9e3bd89b106fd91bc3bcb55", "bike_id": "4b41f5f7c9e3bd89b106fd91bc3bcb55", "lon": -77.02033916666667, "fusion_lat": 0.0, "rental_uris": {"android": "https://dc.lft.to/lastmile_qr_scan", "ios": "https://dc.lft.to/lastmile_qr_scan"}, "type": "electric_scooter"}, {"is_reserved": 0, "is_disabled": 0, "fusion_lon": 0.0, "lat": 38.935257, "name": "2596f5d22ca7be7f4d75c8a51b84a0a5", "bike_id": "2596f5d22ca7be7f4d75c8a51b84a0a5", "lon": -77.02354233333334, "fusion_lat": 0.0, "rental_uris": {"android": "https://dc.lft.to/lastmile_qr_scan", "ios": "https://dc.lft.to/lastmile_qr_scan"}, "type": "electric_scooter"}, {"is_reserved": 0, "is_disabled": 0, "fusion_lon": 0.0, "lat": 38.97331633333334, "name": "4f82a9918e81d85ae7cc8e8dfd6080c3", "bike_id": "4f82a9918e81d85ae7cc8e8dfd6080c3", "lon": -76.99567866666666, "fusion_lat": 0.0, "rental_uris": {"android": "https://dc.lft.to/lastmile_qr_scan", "ios": "https://dc.lft.to/lastmile_qr_scan"}, "type": "electric_bike"}, {"is_reserved": 0, "is_disabled": 0, "fusion_lon": 0.0, "lat": 38.858792333333334, "name": "43630da20b3879b2957a0627679da763", "bike_id": "43630da20b3879b2957a0627679da763", "lon": -76.98924883333333, "fusion_lat": 0.0, "rental_uris": {"android": "https://dc.lft.to/lastmile_qr_scan", "ios": "https://dc.lft.to/lastmile_qr_scan"}, "type": "electric_scooter"}, {"is_reserved": 0, "is_disabled": 0, "fusion_lon": 0.0, "lat": 38.91942683333333, "name": "55c37ab2567aa96051eedc60185c2697", "bike_id": "55c37ab2567aa96051eedc60185c2697", "lon": -77.017957, "fusion_lat": 0.0, "rental_uris": {"android": "https://dc.lft.to/lastmile_qr_scan", "ios": "https://dc.lft.to/lastmile_qr_scan"}, "type": "electric_scooter"}, {"is_reserved": 0, "is_disabled": 0, "fusion_lon": 0.0, "lat": 38.9296885, "name": "bd1c0d8d70c0fcf5d5e2ef2d0c7bb5b5", "bike_id": "bd1c0d8d70c0fcf5d5e2ef2d0c7bb5b5", "lon": -77.04114616666666, "fusion_lat": 0.0, "rental_uris": {"android": "https://dc.lft.to/lastmile_qr_scan", "ios": "https://dc.lft.to/lastmile_qr_scan"}, "type": "electric_scooter"}, {"is_reserved": 0, "is_disabled": 0, "fusion_lon": 0.0, "lat": 38.88878033333334, "name": "8b035c4f6b90b4383a4a113c87d3b8d2", "bike_id": "8b035c4f6b90b4383a4a113c87d3b8d2", "lon": -76.99027816666667, "fusion_lat": 0.0, "rental_uris": {"android": "https://dc.lft.to/lastmile_qr_scan", "ios": "https://dc.lft.to/lastmile_qr_scan"}, "type": "electric_scooter"}, {"is_reserved": 0, "is_disabled": 0, "fusion_lon": 0.0, "lat": 38.91341416666667, "name": "4599f4426362bd25a8efc01e148a6f3e", "bike_id": "4599f4426362bd25a8efc01e148a6f3e", "lon": -77.02054716666666, "fusion_lat": 0.0, "rental_uris": {"android": "https://dc.lft.to/lastmile_qr_scan", "ios": "https://dc.lft.to/lastmile_qr_scan"}, "type": "electric_scooter"}, {"is_reserved": 0, "is_disabled": 0, "fusion_lon": 0.0, "lat": 38.91322983333333, "name": "e1070c71a7074153cd59a92111e336c8", "bike_id": "e1070c71a7074153cd59a92111e336c8", "lon": -77.0453885, "fusion_lat": 0.0, "rental_uris": {"android": "https://dc.lft.to/lastmile_qr_scan", "ios": "https://dc.lft.to/lastmile_qr_scan"}, "type": "electric_scooter"}, {"is_reserved": 0, "is_disabled": 0, "fusion_lon": 0.0, "lat": 39.042344166666666, "name": "f6cc85fc5c015802798a0a7c3fcf0dff", "bike_id": "f6cc85fc5c015802798a0a7c3fcf0dff", "lon": -76.99735116666666, "fusion_lat": 0.0, "rental_uris": {"android": "https://dc.lft.to/lastmile_qr_scan", "ios": "https://dc.lft.to/lastmile_qr_scan"}, "type": "electric_bike"}, {"is_reserved": 0, "is_disabled": 0, "fusion_lon": 0.0, "lat": 38.90649633333334, "name": "5977444a0f12072efd98760b5f8471c8", "bike_id": "5977444a0f12072efd98760b5f8471c8", "lon": -77.01686266666667, "fusion_lat": 0.0, "rental_uris": {"android": "https://dc.lft.to/lastmile_qr_scan", "ios": "https://dc.lft.to/lastmile_qr_scan"}, "type": "electric_scooter"}, {"is_reserved": 0, "is_disabled": 0, "fusion_lon": 0.0, "lat": 38.92388616666667, "name": "fa97663d10c05d066d7e5da4dfd05299", "bike_id": "fa97663d10c05d066d7e5da4dfd05299", "lon": -77.00064266666666, "fusion_lat": 0.0, "rental_uris": {"android": "https://dc.lft.to/lastmile_qr_scan", "ios": "https://dc.lft.to/lastmile_qr_scan"}, "type": "electric_scooter"}, {"is_reserved": 0, "is_disabled": 0, "fusion_lon": 0.0, "lat": 38.92118983333334, "name": "40f4e600be40ead98c56e1990534be50", "bike_id": "40f4e600be40ead98c56e1990534be50", "lon": -77.0206645, "fusion_lat": 0.0, "rental_uris": {"android": "https://dc.lft.to/lastmile_qr_scan", "ios": "https://dc.lft.to/lastmile_qr_scan"}, "type": "electric_scooter"}, {"is_reserved": 0, "is_disabled": 0, "fusion_lon": 0.0, "lat": 38.90272433333333, "name": "c88245b448f8c57076583f8c91c98576", "bike_id": "c88245b448f8c57076583f8c91c98576", "lon": -77.06438383333334, "fusion_lat": 0.0, "rental_uris": {"android": "https://dc.lft.to/lastmile_qr_scan", "ios": "https://dc.lft.to/lastmile_qr_scan"}, "type": "electric_scooter"}, {"is_reserved": 0, "is_disabled": 0, "fusion_lon": 0.0, "lat": 38.88870216666667, "name": "1357b3fc997b171bdf74aaf15a9bbe27", "bike_id": "1357b3fc997b171bdf74aaf15a9bbe27", "lon": -76.98388233333333, "fusion_lat": 0.0, "rental_uris": {"android": "https://dc.lft.to/lastmile_qr_scan", "ios": "https://dc.lft.to/lastmile_qr_scan"}, "type": "electric_bike"}, {"is_reserved": 0, "is_disabled": 0, "fusion_lon": 0.0, "lat": 38.904991, "name": "5905c7011fe9ca4a6cd1ca58cd50da1a", "bike_id": "5905c7011fe9ca4a6cd1ca58cd50da1a", "lon": -77.05462283333334, "fusion_lat": 0.0, "rental_uris": {"android": "https://dc.lft.to/lastmile_qr_scan", "ios": "https://dc.lft.to/lastmile_qr_scan"}, "type": "electric_scooter"}, {"is_reserved": 0, "is_disabled": 0, "fusion_lon": 0.0, "lat": 38.8843325, "name": "85d93d2c4e8f4e89971e75e3c7d86355", "bike_id": "85d93d2c4e8f4e89971e75e3c7d86355", "lon": -77.02590866666667, "fusion_lat": 0.0, "rental_uris": {"android": "https://dc.lft.to/lastmile_qr_scan", "ios": "https://dc.lft.to/lastmile_qr_scan"}, "type": "electric_scooter"}, {"is_reserved": 0, "is_disabled": 0, "fusion_lon": 0.0, "lat": 38.94201916666667, "name": "e123ac616b1c9b26c0a32158ab4f77f2", "bike_id": "e123ac616b1c9b26c0a32158ab4f77f2", "lon": -77.01833766666667, "fusion_lat": 0.0, "rental_uris": {"android": "https://dc.lft.to/lastmile_qr_scan", "ios": "https://dc.lft.to/lastmile_qr_scan"}, "type": "electric_scooter"}, {"is_reserved": 0, "is_disabled": 0, "fusion_lon": 0.0, "lat": 38.93878766666667, "name": "32685a35032ff24e008366211eb61a56", "bike_id": "32685a35032ff24e008366211eb61a56", "lon": -77.02517916666666, "fusion_lat": 0.0, "rental_uris": {"android": "https://dc.lft.to/lastmile_qr_scan", "ios": "https://dc.lft.to/lastmile_qr_scan"}, "type": "electric_scooter"}, {"is_reserved": 0, "is_disabled": 0, "fusion_lon": 0.0, "lat": 38.890131333333336, "name": "c2797b92167ce3d61c399fb3983c86c2", "bike_id": "c2797b92167ce3d61c399fb3983c86c2", "lon": -76.93741816666666, "fusion_lat": 0.0, "rental_uris": {"android": "https://dc.lft.to/lastmile_qr_scan", "ios": "https://dc.lft.to/lastmile_qr_scan"}, "type": "electric_scooter"}, {"is_reserved": 0, "is_disabled": 0, "fusion_lon": 0.0, "lat": 38.898792666666665, "name": "118b7ce888c1bacbbbf379cb135822f5", "bike_id": "118b7ce888c1bacbbbf379cb135822f5", "lon": -76.93187983333334, "fusion_lat": 0.0, "rental_uris": {"android": "https://dc.lft.to/lastmile_qr_scan", "ios": "https://dc.lft.to/lastmile_qr_scan"}, "type": "electric_bike"}, {"is_reserved": 0, "is_disabled": 0, "fusion_lon": 0.0, "lat": 38.92447216666667, "name": "77f4c12f1d5deb6f7197b1bdedfe8701", "bike_id": "77f4c12f1d5deb6f7197b1bdedfe8701", "lon": -76.9683825, "fusion_lat": 0.0, "rental_uris": {"android": "https://dc.lft.to/lastmile_qr_scan", "ios": "https://dc.lft.to/lastmile_qr_scan"}, "type": "electric_bike"}, {"is_reserved": 0, "is_disabled": 0, "fusion_lon": 0.0, "lat": 38.87937733333333, "name": "2fd86583c2f54682f240c10df8e691bd", "bike_id": "2fd86583c2f54682f240c10df8e691bd", "lon": -77.00369966666666, "fusion_lat": 0.0, "rental_uris": {"android": "https://dc.lft.to/lastmile_qr_scan", "ios": "https://dc.lft.to/lastmile_qr_scan"}, "type": "electric_scooter"}, {"is_reserved": 0, "is_disabled": 0, "fusion_lon": 0.0, "lat": 38.917119666666665, "name": "04fe9001fdd340ae29d4e36d12b19bed", "bike_id": "04fe9001fdd340ae29d4e36d12b19bed", "lon": -77.0382975, "fusion_lat": 0.0, "rental_uris": {"android": "https://dc.lft.to/lastmile_qr_scan", "ios": "https://dc.lft.to/lastmile_qr_scan"}, "type": "electric_scooter"}, {"is_reserved": 0, "is_disabled": 0, "fusion_lon": 0.0, "lat": 38.90235966666667, "name": "311e2e45bf95a111422f95fc876ea69e", "bike_id": "311e2e45bf95a111422f95fc876ea69e", "lon": -77.00202133333333, "fusion_lat": 0.0, "rental_uris": {"android": "https://dc.lft.to/lastmile_qr_scan", "ios": "https://dc.lft.to/lastmile_qr_scan"}, "type": "electric_scooter"}, {"is_reserved": 0, "is_disabled": 0, "fusion_lon": 0.0, "lat": 38.89910416666667, "name": "c72a47ed1d3c6215227d225ea420f375", "bike_id": "c72a47ed1d3c6215227d225ea420f375", "lon": -76.9338015, "fusion_lat": 0.0, "rental_uris": {"android": "https://dc.lft.to/lastmile_qr_scan", "ios": "https://dc.lft.to/lastmile_qr_scan"}, "type": "electric_scooter"}, {"is_reserved": 0, "is_disabled": 0, "fusion_lon": 0.0, "lat": 38.904071, "name": "020332c7ce513e142072c6659bf73b3b", "bike_id": "020332c7ce513e142072c6659bf73b3b", "lon": -77.02583433333334, "fusion_lat": 0.0, "rental_uris": {"android": "https://dc.lft.to/lastmile_qr_scan", "ios": "https://dc.lft.to/lastmile_qr_scan"}, "type": "electric_scooter"}, {"is_reserved": 0, "is_disabled": 0, "fusion_lon": 0.0, "lat": 38.924598, "name": "338d16e713ff07549e01a50c5089a86e", "bike_id": "338d16e713ff07549e01a50c5089a86e", "lon": -77.0224285, "fusion_lat": 0.0, "rental_uris": {"android": "https://dc.lft.to/lastmile_qr_scan", "ios": "https://dc.lft.to/lastmile_qr_scan"}, "type": "electric_scooter"}, {"is_reserved": 0, "is_disabled": 0, "fusion_lon": 0.0, "lat": 38.9396955, "name": "58f7cbe2e3ca2d79f648710fa04fe184", "bike_id": "58f7cbe2e3ca2d79f648710fa04fe184", "lon": -77.03025866666667, "fusion_lat": 0.0, "rental_uris": {"android": "https://dc.lft.to/lastmile_qr_scan", "ios": "https://dc.lft.to/lastmile_qr_scan"}, "type": "electric_scooter"}, {"is_reserved": 0, "is_disabled": 0, "fusion_lon": 0.0, "lat": 38.96389816666667, "name": "31a5140dc175a839c23f6052a1efab3c", "bike_id": "31a5140dc175a839c23f6052a1efab3c", "lon": -77.025867, "fusion_lat": 0.0, "rental_uris": {"android": "https://dc.lft.to/lastmile_qr_scan", "ios": "https://dc.lft.to/lastmile_qr_scan"}, "type": "electric_scooter"}, {"is_reserved": 0, "is_disabled": 0, "fusion_lon": 0.0, "lat": 38.9033935, "name": "8e42d6288fa090c66c7bcb314bdb64d0", "bike_id": "8e42d6288fa090c66c7bcb314bdb64d0", "lon": -76.97609733333333, "fusion_lat": 0.0, "rental_uris": {"android": "https://dc.lft.to/lastmile_qr_scan", "ios": "https://dc.lft.to/lastmile_qr_scan"}, "type": "electric_scooter"}, {"is_reserved": 0, "is_disabled": 0, "fusion_lon": 0.0, "lat": 38.9244575, "name": "a5a9a28be183c5749e8c8f4fc42c8db9", "bike_id": "a5a9a28be183c5749e8c8f4fc42c8db9", "lon": -77.02969116666667, "fusion_lat": 0.0, "rental_uris": {"android": "https://dc.lft.to/lastmile_qr_scan", "ios": "https://dc.lft.to/lastmile_qr_scan"}, "type": "electric_scooter"}, {"is_reserved": 0, "is_disabled": 0, "fusion_lon": 0.0, "lat": 38.835872333333334, "name": "bfe93e4c14f1040fe539ff93b89fb6c0", "bike_id": "bfe93e4c14f1040fe539ff93b89fb6c0", "lon": -76.99029633333333, "fusion_lat": 0.0, "rental_uris": {"android": "https://dc.lft.to/lastmile_qr_scan", "ios": "https://dc.lft.to/lastmile_qr_scan"}, "type": "electric_bike"}, {"is_reserved": 0, "is_disabled": 0, "fusion_lon": 0.0, "lat": 38.8936025, "name": "29c14636e595a3236928256a76263483", "bike_id": "29c14636e595a3236928256a76263483", "lon": -77.00335316666667, "fusion_lat": 0.0, "rental_uris": {"android": "https://dc.lft.to/lastmile_qr_scan", "ios": "https://dc.lft.to/lastmile_qr_scan"}, "type": "electric_scooter"}, {"is_reserved": 0, "is_disabled": 0, "fusion_lon": 0.0, "lat": 38.89608716666667, "name": "3b9742026bfd7c29daa722d1452af717", "bike_id": "3b9742026bfd7c29daa722d1452af717", "lon": -76.9924475, "fusion_lat": 0.0, "rental_uris": {"android": "https://dc.lft.to/lastmile_qr_scan", "ios": "https://dc.lft.to/lastmile_qr_scan"}, "type": "electric_scooter"}, {"is_reserved": 0, "is_disabled": 0, "fusion_lon": 0.0, "lat": 38.914917, "name": "9f7a0cb309a678c45489c7460632d2fb", "bike_id": "9f7a0cb309a678c45489c7460632d2fb", "lon": -77.032285, "fusion_lat": 0.0, "rental_uris": {"android": "https://dc.lft.to/lastmile_qr_scan", "ios": "https://dc.lft.to/lastmile_qr_scan"}, "type": "electric_scooter"}, {"is_reserved": 0, "is_disabled": 0, "fusion_lon": 0.0, "lat": 38.918938833333335, "name": "82939fa32b95fc1692a026a2a3b7a244", "bike_id": "82939fa32b95fc1692a026a2a3b7a244", "lon": -77.101676, "fusion_lat": 0.0, "rental_uris": {"android": "https://dc.lft.to/lastmile_qr_scan", "ios": "https://dc.lft.to/lastmile_qr_scan"}, "type": "electric_bike"}, {"is_reserved": 0, "is_disabled": 0, "fusion_lon": 0.0, "lat": 38.89983683333333, "name": "2e90c23baf5899f33f7175aa9f91c0b0", "bike_id": "2e90c23baf5899f33f7175aa9f91c0b0", "lon": -77.04191566666667, "fusion_lat": 0.0, "rental_uris": {"android": "https://dc.lft.to/lastmile_qr_scan", "ios": "https://dc.lft.to/lastmile_qr_scan"}, "type": "electric_scooter"}, {"is_reserved": 0, "is_disabled": 0, "fusion_lon": 0.0, "lat": 38.9168925, "name": "859a2eaa969855ca8a6454866d5b694a", "bike_id": "859a2eaa969855ca8a6454866d5b694a", "lon": -77.0363555, "fusion_lat": 0.0, "rental_uris": {"android": "https://dc.lft.to/lastmile_qr_scan", "ios": "https://dc.lft.to/lastmile_qr_scan"}, "type": "electric_scooter"}, {"is_reserved": 0, "is_disabled": 0, "fusion_lon": 0.0, "lat": 38.89904833333333, "name": "6f3eb211614f0c50c642543c10cea7ec", "bike_id": "6f3eb211614f0c50c642543c10cea7ec", "lon": -76.98823766666666, "fusion_lat": 0.0, "rental_uris": {"android": "https://dc.lft.to/lastmile_qr_scan", "ios": "https://dc.lft.to/lastmile_qr_scan"}, "type": "electric_scooter"}, {"is_reserved": 0, "is_disabled": 0, "fusion_lon": 0.0, "lat": 38.90554683333333, "name": "aff8729558c35b3b412425cdae938e60", "bike_id": "aff8729558c35b3b412425cdae938e60", "lon": -77.0058615, "fusion_lat": 0.0, "rental_uris": {"android": "https://dc.lft.to/lastmile_qr_scan", "ios": "https://dc.lft.to/lastmile_qr_scan"}, "type": "electric_scooter"}, {"is_reserved": 0, "is_disabled": 0, "fusion_lon": 0.0, "lat": 38.92621066666667, "name": "06c655e9e92c3f823d099cba0f47af43", "bike_id": "06c655e9e92c3f823d099cba0f47af43", "lon": -77.073022, "fusion_lat": 0.0, "rental_uris": {"android": "https://dc.lft.to/lastmile_qr_scan", "ios": "https://dc.lft.to/lastmile_qr_scan"}, "type": "electric_scooter"}, {"is_reserved": 0, "is_disabled": 0, "fusion_lon": 0.0, "lat": 38.919679, "name": "bd84f5288aad7a9e2b49cd865398df47", "bike_id": "bd84f5288aad7a9e2b49cd865398df47", "lon": -77.0276855, "fusion_lat": 0.0, "rental_uris": {"android": "https://dc.lft.to/lastmile_qr_scan", "ios": "https://dc.lft.to/lastmile_qr_scan"}, "type": "electric_scooter"}, {"is_reserved": 0, "is_disabled": 0, "fusion_lon": 0.0, "lat": 38.926060666666665, "name": "476a733d8e280895ac9292afeae1170b", "bike_id": "476a733d8e280895ac9292afeae1170b", "lon": -77.0570285, "fusion_lat": 0.0, "rental_uris": {"android": "https://dc.lft.to/lastmile_qr_scan", "ios": "https://dc.lft.to/lastmile_qr_scan"}, "type": "electric_scooter"}, {"is_reserved": 0, "is_disabled": 0, "fusion_lon": 0.0, "lat": 38.90260583333333, "name": "0e70a70b81c2c01f88592ab35b78dbe8", "bike_id": "0e70a70b81c2c01f88592ab35b78dbe8", "lon": -76.998438, "fusion_lat": 0.0, "rental_uris": {"android": "https://dc.lft.to/lastmile_qr_scan", "ios": "https://dc.lft.to/lastmile_qr_scan"}, "type": "electric_scooter"}, {"is_reserved": 0, "is_disabled": 0, "fusion_lon": 0.0, "lat": 38.93460533333333, "name": "2c63704b00612804c924a82f6146796c", "bike_id": "2c63704b00612804c924a82f6146796c", "lon": -77.0580525, "fusion_lat": 0.0, "rental_uris": {"android": "https://dc.lft.to/lastmile_qr_scan", "ios": "https://dc.lft.to/lastmile_qr_scan"}, "type": "electric_scooter"}, {"is_reserved": 0, "is_disabled": 0, "fusion_lon": 0.0, "lat": 38.9234325, "name": "d6b6288f47445b675570a44e95f5d22e", "bike_id": "d6b6288f47445b675570a44e95f5d22e", "lon": -77.019041, "fusion_lat": 0.0, "rental_uris": {"android": "https://dc.lft.to/lastmile_qr_scan", "ios": "https://dc.lft.to/lastmile_qr_scan"}, "type": "electric_scooter"}, {"is_reserved": 0, "is_disabled": 0, "fusion_lon": 0.0, "lat": 38.915688833333334, "name": "b3bb37d142c25cedfc1964dd4094c137", "bike_id": "b3bb37d142c25cedfc1964dd4094c137", "lon": -77.02187366666666, "fusion_lat": 0.0, "rental_uris": {"android": "https://dc.lft.to/lastmile_qr_scan", "ios": "https://dc.lft.to/lastmile_qr_scan"}, "type": "electric_scooter"}, {"is_reserved": 0, "is_disabled": 0, "fusion_lon": 0.0, "lat": 38.92790333333333, "name": "f2c65b5a25331022aebe3cdb466918f4", "bike_id": "f2c65b5a25331022aebe3cdb466918f4", "lon": -77.03082883333333, "fusion_lat": 0.0, "rental_uris": {"android": "https://dc.lft.to/lastmile_qr_scan", "ios": "https://dc.lft.to/lastmile_qr_scan"}, "type": "electric_scooter"}, {"is_reserved": 0, "is_disabled": 0, "fusion_lon": 0.0, "lat": 38.89359366666667, "name": "4869615ca9d74f85975011e9addd7c74", "bike_id": "4869615ca9d74f85975011e9addd7c74", "lon": -77.00333183333333, "fusion_lat": 0.0, "rental_uris": {"android": "https://dc.lft.to/lastmile_qr_scan", "ios": "https://dc.lft.to/lastmile_qr_scan"}, "type": "electric_scooter"}, {"is_reserved": 0, "is_disabled": 0, "fusion_lon": 0.0, "lat": 38.91416866666667, "name": "f67f9950219e091d5fe9a1a1e757d187", "bike_id": "f67f9950219e091d5fe9a1a1e757d187", "lon": -77.012908, "fusion_lat": 0.0, "rental_uris": {"android": "https://dc.lft.to/lastmile_qr_scan", "ios": "https://dc.lft.to/lastmile_qr_scan"}, "type": "electric_scooter"}, {"is_reserved": 0, "is_disabled": 0, "fusion_lon": 0.0, "lat": 38.94108966666667, "name": "054a988538bc41e2264658229f9ee928", "bike_id": "054a988538bc41e2264658229f9ee928", "lon": -77.06138116666666, "fusion_lat": 0.0, "rental_uris": {"android": "https://dc.lft.to/lastmile_qr_scan", "ios": "https://dc.lft.to/lastmile_qr_scan"}, "type": "electric_scooter"}, {"is_reserved": 0, "is_disabled": 0, "fusion_lon": 0.0, "lat": 38.924965666666665, "name": "bf7504f91974a10875562d983244a843", "bike_id": "bf7504f91974a10875562d983244a843", "lon": -77.04129733333333, "fusion_lat": 0.0, "rental_uris": {"android": "https://dc.lft.to/lastmile_qr_scan", "ios": "https://dc.lft.to/lastmile_qr_scan"}, "type": "electric_scooter"},