{"data": {"bikes": [{"fusion_lat": 0.0, "lon": -77.03555016666667, "is_reserved": 0, "bike_id": "3656632ca8b10d6768e09f983da57267", "fusion_lon": 0.0, "rental_uris": {"android": "https://dc.lft.to/lastmile_qr_scan", "ios": "https://dc.lft.to/lastmile_qr_scan"}, "name": "3656632ca8b10d6768e09f983da57267", "type": "electric_scooter", "lat": 38.928647833333336, "is_disabled": 0}, {"fusion_lat": 0.0, "lon": -77.03517633333334, "is_reserved": 0, "bike_id": "55acec9180d9d2d26f7757e3e40d5f3b", "fusion_lon": 0.0, "rental_uris": {"android": "https://dc.lft.to/lastmile_qr_scan", "ios": "https://dc.lft.to/lastmile_qr_scan"}, "name": "55acec9180d9d2d26f7757e3e40d5f3b", "type": "electric_scooter", "lat": 38.9219835, "is_disabled": 0}, {"fusion_lat": 0.0, "lon": -77.0297575, "is_reserved": 0, "bike_id": "9cbf65278a9a6e81ffe94ad7c8c5430b", "fusion_lon": 0.0, "rental_uris": {"android": "https://dc.lft.to/lastmile_qr_scan", "ios": "https://dc.lft.to/lastmile_qr_scan"}, "name": "9cbf65278a9a6e81ffe94ad7c8c5430b", "type": "electric_scooter", "lat": 38.929520333333336, "is_disabled": 0}, {"fusion_lat": 0.0, "lon": -76.98545666666666, "is_reserved": 0, "bike_id": "132736226c20a25819e6e516f7919c51", "fusion_lon": 0.0, "rental_uris": {"android": "https://dc.lft.to/lastmile_qr_scan", "ios": "https://dc.lft.to/lastmile_qr_scan"}, "name": "132736226c20a25819e6e516f7919c51", "type": "electric_bike", "lat": 38.881876166666665, "is_disabled": 0}, {"fusion_lat": 0.0, "lon": -77.00592866666666, "is_reserved": 0, "bike_id": "36ca0c0e604d6cd52795cec890fde30c", "fusion_lon": 0.0, "rental_uris": {"android": "https://dc.lft.to/lastmile_qr_scan", "ios": "https://dc.lft.to/lastmile_qr_scan"}, "name": "36ca0c0e604d6cd52795cec890fde30c", "type": "electric_scooter", "lat": 38.9057845, "is_disabled": 0}, {"fusion_lat": 0.0, "lon": -77.011415, "is_reserved": 0, "bike_id": "faad9b5425e438a13428b728eded0087", "fusion_lon": 0.0, "rental_uris": {"android": "https://dc.lft.to/lastmile_qr_scan", "ios": "https://dc.lft.to/lastmile_qr_scan"}, "name": "faad9b5425e438a13428b728eded0087", "type": "electric_scooter", "lat": 38.90649066666667, "is_disabled": 0}, {"fusion_lat": 0.0, "lon": -77.02380683333334, "is_reserved": 0, "bike_id": "c9067676c7745bc79aa314560715b552", "fusion_lon": 0.0, "rental_uris": {"android": "https://dc.lft.to/lastmile_qr_scan", "ios": "https://dc.lft.to/lastmile_qr_scan"}, "name": "c9067676c7745bc79aa314560715b552", "type": "electric_scooter", "lat": 38.919952, "is_disabled": 0}, {"fusion_lat": 0.0, "lon": -77.04567583333333, "is_reserved": 0, "bike_id": "77c73ddc852fab7f86eea548b83983d8", "fusion_lon": 0.0, "rental_uris": {"android": "https://dc.lft.to/lastmile_qr_scan", "ios": "https://dc.lft.to/lastmile_qr_scan"}, "name": "77c73ddc852fab7f86eea548b83983d8", "type": "electric_scooter", "lat": 38.89732216666667, "is_disabled": 0}, {"fusion_lat": 0.0, "lon": -77.11591466666667, "is_reserved": 0, "bike_id": "c5401cb9bcd4b4eb7169c5818c653f8e", "fusion_lon": 0.0, "rental_uris": {"android": "https://dc.lft.to/lastmile_qr_scan", "ios": "https://dc.lft.to/lastmile_qr_scan"}, "name": "c5401cb9bcd4b4eb7169c5818c653f8e", "type": "electric_bike", "lat": 39.0749485, "is_disabled": 0}, {"fusion_lat": 0.0, "lon": -77.02977166666666, "is_reserved": 0, "bike_id": "8b2f9d31bf20b098f2dc209870b3b026", "fusion_lon": 0.0, "rental_uris": {"android": "https://dc.lft.to/lastmile_qr_scan", "ios": "https://dc.lft.to/lastmile_qr_scan"}, "name": "8b2f9d31bf20b098f2dc209870b3b026", "type": "electric_bike", "lat": 38.924483333333335, "is_disabled": 0}, {"fusion_lat": 0.0, "lon": -77.03445766666667, "is_reserved": 0, "bike_id": "a86075d9c94ac2fd5f93a2b9e8a6872b", "fusion_lon": 0.0, "rental_uris": {"android": "https://dc.lft.to/lastmile_qr_scan", "ios": "https://dc.lft.to/lastmile_qr_scan"}, "name": "a86075d9c94ac2fd5f93a2b9e8a6872b", "type": "electric_scooter", "lat": 38.910125666666666, "is_disabled": 0}, {"fusion_lat": 0.0, "lon": -77.0176445, "is_reserved": 0, "bike_id": "e29db39aecd2be1270e46e1ee0aee65a", "fusion_lon": 0.0, "rental_uris": {"android": "https://dc.lft.to/lastmile_qr_scan", "ios": "https://dc.lft.to/lastmile_qr_scan"}, "name": "e29db39aecd2be1270e46e1ee0aee65a", "type": "electric_scooter", "lat": 38.87219966666667, "is_disabled": 0}, {"fusion_lat": 0.0, "lon": -77.01152266666666, "is_reserved": 0, "bike_id": "e1fbd99bd519ed7c05f08c02123458df", "fusion_lon": 0.0, "rental_uris": {"android": "https://dc.lft.to/lastmile_qr_scan", "ios": "https://dc.lft.to/lastmile_qr_scan"}, "name": "e1fbd99bd519ed7c05f08c02123458df", "type": "electric_bike", "lat": 38.91153883333333, "is_disabled": 0}, {"fusion_lat": 0.0, "lon": -77.039636, "is_reserved": 0, "bike_id": "b7dca5857099e3074172c1b9dd0ac535", "fusion_lon": 0.0, "rental_uris": {"android": "https://dc.lft.to/lastmile_qr_scan", "ios": "https://dc.lft.to/lastmile_qr_scan"}, "name": "b7dca5857099e3074172c1b9dd0ac535", "type": "electric_scooter", "lat": 38.911903833333334, "is_disabled": 0}, {"fusion_lat": 0.0, "lon": -77.042519, "is_reserved": 0, "bike_id": "a0f26176184ea32daa11a30e49a470f1", "fusion_lon": 0.0, "rental_uris": {"android": "https://dc.lft.to/lastmile_qr_scan", "ios": "https://dc.lft.to/lastmile_qr_scan"}, "name": "a0f26176184ea32daa11a30e49a470f1", "type": "electric_scooter", "lat": 38.92250333333333, "is_disabled": 0}, {"fusion_lat": 0.0, "lon": -77.118463, "is_reserved": 0, "bike_id": "3e4933d1e760d30a7b6c06df0fc8ff02", "fusion_lon": 0.0, "rental_uris": {"android": "https://dc.lft.to/lastmile_qr_scan", "ios": "https://dc.lft.to/lastmile_qr_scan"}, "name": "3e4933d1e760d30a7b6c06df0fc8ff02", "type": "electric_bike", "lat": 38.87734316666667, "is_disabled": 0}, {"fusion_lat": 0.0, "lon": -77.00759333333333, "is_reserved": 0, "bike_id": "1b835fc00231d0b5b2ca8f32d1a69404", "fusion_lon": 0.0, "rental_uris": {"android": "https://dc.lft.to/lastmile_qr_scan", "ios": "https://dc.lft.to/lastmile_qr_scan"}, "name": "1b835fc00231d0b5b2ca8f32d1a69404", "type": "electric_scooter", "lat": 38.926761, "is_disabled": 0}, {"fusion_lat": 0.0, "lon": -77.031635, "is_reserved": 0, "bike_id": "eb0f63192a6b82b12a21dd6af4a71e90", "fusion_lon": 0.0, "rental_uris": {"android": "https://dc.lft.to/lastmile_qr_scan", "ios": "https://dc.lft.to/lastmile_qr_scan"}, "name": "eb0f63192a6b82b12a21dd6af4a71e90", "type": "electric_scooter", "lat": 38.887702166666664, "is_disabled": 0}, {"fusion_lat": 0.0, "lon": -77.00194633333334, "is_reserved": 0, "bike_id": "060a701f11410142e4e1ece56bd25272", "fusion_lon": 0.0, "rental_uris": {"android": "https://dc.lft.to/lastmile_qr_scan", "ios": "https://dc.lft.to/lastmile_qr_scan"}, "name": "060a701f11410142e4e1ece56bd25272", "type": "electric_scooter", "lat": 38.902991, "is_disabled": 0}, {"fusion_lat": 0.0, "lon": -76.99767583333333, "is_reserved": 0, "bike_id": "2d7194c438b072b4b4f2219d0ea5c7c9", "fusion_lon": 0.0, "rental_uris": {"android": "https://dc.lft.to/lastmile_qr_scan", "ios": "https://dc.lft.to/lastmile_qr_scan"}, "name": "2d7194c438b072b4b4f2219d0ea5c7c9", "type": "electric_scooter", "lat": 38.91128666666667, "is_disabled": 0}, {"fusion_lat": 0.0, "lon": -77.045138, "is_reserved": 0, "bike_id": "a0826963f2e5eb81dbe55b2f34ea44e7", "fusion_lon": 0.0, "rental_uris": {"android": "https://dc.lft.to/lastmile_qr_scan", "ios": "https://dc.lft.to/lastmile_qr_scan"}, "name": "a0826963f2e5eb81dbe55b2f34ea44e7", "type": "electric_scooter", "lat": 38.907832166666665, "is_disabled": 0}, {"fusion_lat": 0.0, "lon": -77.021511, "is_reserved": 0, "bike_id": "5f522f31985d7872a43f4bbd8df56f65", "fusion_lon": 0.0, "rental_uris": {"android": "https://dc.lft.to/lastmile_qr_scan", "ios": "https://dc.lft.to/lastmile_qr_scan"}, "name": "5f522f31985d7872a43f4bbd8df56f65", "type": "electric_scooter", "lat": 38.87924733333333, "is_disabled": 0}, {"fusion_lat": 0.0, "lon": -77.00375416666667, "is_reserved": 0, "bike_id": "e748459d6096322fc5bfc06b436e17c8", "fusion_lon": 0.0, "rental_uris": {"android": "https://dc.lft.to/lastmile_qr_scan", "ios": "https://dc.lft.to/lastmile_qr_scan"}, "name": "e748459d6096322fc5bfc06b436e17c8", "type": "electric_scooter", "lat": 38.897331666666666, "is_disabled": 0}, {"fusion_lat": 0.0, "lon": -77.02694516666666, "is_reserved": 0, "bike_id": "93eb595f2d8d05dfab19a16305be85e9", "fusion_lon": 0.0, "rental_uris": {"android": "https://dc.lft.to/lastmile_qr_scan", "ios": "https://dc.lft.to/lastmile_qr_scan"}, "name": "93eb595f2d8d05dfab19a16305be85e9", "type": "electric_scooter", "lat": 38.92335333333333, "is_disabled": 0}, {"fusion_lat": 0.0, "lon": -77.0398595, "is_reserved": 0, "bike_id": "9715691ddd3b88acdda1147243821333", "fusion_lon": 0.0, "rental_uris": {"android": "https://dc.lft.to/lastmile_qr_scan", "ios": "https://dc.lft.to/lastmile_qr_scan"}, "name": "9715691ddd3b88acdda1147243821333", "type": "electric_scooter", "lat": 38.9175855, "is_disabled": 0}, {"fusion_lat": 0.0, "lon": -77.01136283333334, "is_reserved": 0, "bike_id": "5b4507bba200c520749e5905055e387a", "fusion_lon": 0.0, "rental_uris": {"android": "https://dc.lft.to/lastmile_qr_scan", "ios": "https://dc.lft.to/lastmile_qr_scan"}, "name": "5b4507bba200c520749e5905055e387a", "type": "electric_scooter", "lat": 38.880398666666665, "is_disabled": 0}, {"fusion_lat": 0.0, "lon": -77.01815966666666, "is_reserved": 0, "bike_id": "6e7528c0bf64e9b6b03d55110a667f43", "fusion_lon": 0.0, "rental_uris": {"android": "https://dc.lft.to/lastmile_qr_scan", "ios": "https://dc.lft.to/lastmile_qr_scan"}, "name": "6e7528c0bf64e9b6b03d55110a667f43", "type": "electric_scooter", "lat": 38.90973283333334, "is_disabled": 0}, {"fusion_lat": 0.0, "lon": -76.980338, "is_reserved": 0, "bike_id": "a7351ff2e47ee5205f9092f89e092f63", "fusion_lon": 0.0, "rental_uris": {"android": "https://dc.lft.to/lastmile_qr_scan", "ios": "https://dc.lft.to/lastmile_qr_scan"}, "name": "a7351ff2e47ee5205f9092f89e092f63", "type": "electric_bike", "lat": 38.8896995, "is_disabled": 0}, {"fusion_lat": 0.0, "lon": -77.03343966666667, "is_reserved": 0, "bike_id": "30c10c08f39978653a56b7acabb37d97", "fusion_lon": 0.0, "rental_uris": {"android": "https://dc.lft.to/lastmile_qr_scan", "ios": "https://dc.lft.to/lastmile_qr_scan"}, "name": "30c10c08f39978653a56b7acabb37d97", "type": "electric_scooter", "lat": 38.899029666666664, "is_disabled": 0}, {"fusion_lat": 0.0, "lon": -77.007082, "is_reserved": 0, "bike_id": "9cab8634e90ea25db6a16c0a848e39b7", "fusion_lon": 0.0, "rental_uris": {"android": "https://dc.lft.to/lastmile_qr_scan", "ios": "https://dc.lft.to/lastmile_qr_scan"}, "name": "9cab8634e90ea25db6a16c0a848e39b7", "type": "electric_scooter", "lat": 38.905786, "is_disabled": 0}, {"fusion_lat": 0.0, "lon": -77.048074, "is_reserved": 0, "bike_id": "f2caa194d33146ecadca73475d692ab0", "fusion_lon": 0.0, "rental_uris": {"android": "https://dc.lft.to/lastmile_qr_scan", "ios": "https://dc.lft.to/lastmile_qr_scan"}, "name": "f2caa194d33146ecadca73475d692ab0", "type": "electric_scooter", "lat": 38.919149, "is_disabled": 0}, {"fusion_lat": 0.0, "lon": -77.00986133333333, "is_reserved": 0, "bike_id": "0416b80a6db6c2cf4b72fd01659659aa", "fusion_lon": 0.0, "rental_uris": {"android": "https://dc.lft.to/lastmile_qr_scan", "ios": "https://dc.lft.to/lastmile_qr_scan"}, "name": "0416b80a6db6c2cf4b72fd01659659aa", "type": "electric_scooter", "lat": 38.87290633333333, "is_disabled": 0}, {"fusion_lat": 0.0, "lon": -77.02389633333334, "is_reserved": 0, "bike_id": "282c6b61061df0cba4feb34e91a52feb", "fusion_lon": 0.0, "rental_uris": {"android": "https://dc.lft.to/lastmile_qr_scan", "ios": "https://dc.lft.to/lastmile_qr_scan"}, "name": "282c6b61061df0cba4feb34e91a52feb", "type": "electric_scooter", "lat": 38.9160545, "is_disabled": 0}, {"fusion_lat": 0.0, "lon": -76.99424983333333, "is_reserved": 0, "bike_id": "ade30d12eab7b3911fcfbbd09d4eee7e", "fusion_lon": 0.0, "rental_uris": {"android": "https://dc.lft.to/lastmile_qr_scan", "ios": "https://dc.lft.to/lastmile_qr_scan"}, "name": "ade30d12eab7b3911fcfbbd09d4eee7e", "type": "electric_scooter", "lat": 38.9505665, "is_disabled": 0}, {"fusion_lat": 0.0, "lon": -76.9865105, "is_reserved": 0, "bike_id": "4bd7af318d97b71e8f9d9c7ba96ee951", "fusion_lon": 0.0, "rental_uris": {"android": "https://dc.lft.to/lastmile_qr_scan", "ios": "https://dc.lft.to/lastmile_qr_scan"}, "name": "4bd7af318d97b71e8f9d9c7ba96ee951", "type": "electric_scooter", "lat": 38.867283, "is_disabled": 0}, {"fusion_lat": 0.0, "lon": -76.95467516666666, "is_reserved": 0, "bike_id": "aaf6d3ab96d295012dd31b9e0a6cb557", "fusion_lon": 0.0, "rental_uris": {"android": "https://dc.lft.to/lastmile_qr_scan", "ios": "https://dc.lft.to/lastmile_qr_scan"}, "name": "aaf6d3ab96d295012dd31b9e0a6cb557", "type": "electric_scooter", "lat": 38.88643, "is_disabled": 0}, {"fusion_lat": 0.0, "lon": -77.00962166666666, "is_reserved": 0, "bike_id": "9d8865ae0d8a6d665f60a34823c82f14", "fusion_lon": 0.0, "rental_uris": {"android": "https://dc.lft.to/lastmile_qr_scan", "ios": "https://dc.lft.to/lastmile_qr_scan"}, "name": "9d8865ae0d8a6d665f60a34823c82f14", "type": "electric_scooter", "lat": 38.90786416666667, "is_disabled": 0}, {"fusion_lat": 0.0, "lon": -77.02229283333334, "is_reserved": 0, "bike_id": "e683f65ad172ed6da69a908278e166b6", "fusion_lon": 0.0, "rental_uris": {"android": "https://dc.lft.to/lastmile_qr_scan", "ios": "https://dc.lft.to/lastmile_qr_scan"}, "name": "e683f65ad172ed6da69a908278e166b6", "type": "electric_scooter", "lat": 38.89223783333333, "is_disabled": 0}, {"fusion_lat": 0.0, "lon": -77.00053533333333, "is_reserved": 0, "bike_id": "7ff3fe429d5bb63e57abed6e355cb249", "fusion_lon": 0.0, "rental_uris": {"android": "https://dc.lft.to/lastmile_qr_scan", "ios": "https://dc.lft.to/lastmile_qr_scan"}, "name": "7ff3fe429d5bb63e57abed6e355cb249", "type": "electric_scooter", "lat": 38.89632566666667, "is_disabled": 0}, {"fusion_lat": 0.0, "lon": -76.94531633333334, "is_reserved": 0, "bike_id": "94952530b2f97262efa176acd805d2f4", "fusion_lon": 0.0, "rental_uris": {"android": "https://dc.lft.to/lastmile_qr_scan", "ios": "https://dc.lft.to/lastmile_qr_scan"}, "name": "94952530b2f97262efa176acd805d2f4", "type": "electric_bike", "lat": 38.8675705, "is_disabled": 0}, {"fusion_lat": 0.0, "lon": -76.9398425, "is_reserved": 0, "bike_id": "734bb6736a7ea119b31cff2b619cb030", "fusion_lon": 0.0, "rental_uris": {"android": "https://dc.lft.to/lastmile_qr_scan", "ios": "https://dc.lft.to/lastmile_qr_scan"}, "name": "734bb6736a7ea119b31cff2b619cb030", "type": "electric_scooter", "lat": 38.89984316666666, "is_disabled": 0}, {"fusion_lat": 0.0, "lon": -77.03841366666667, "is_reserved": 0, "bike_id": "7b1860105c13e8b61949e39c4f81feaf", "fusion_lon": 0.0, "rental_uris": {"android": "https://dc.lft.to/lastmile_qr_scan", "ios": "https://dc.lft.to/lastmile_qr_scan"}, "name": "7b1860105c13e8b61949e39c4f81feaf", "type": "electric_scooter", "lat": 38.916423333333334, "is_disabled": 0}, {"fusion_lat": 0.0, "lon": -77.0363545, "is_reserved": 0, "bike_id": "5de6f87730d5046cb7e31814a850b71a", "fusion_lon": 0.0, "rental_uris": {"android": "https://dc.lft.to/lastmile_qr_scan", "ios": "https://dc.lft.to/lastmile_qr_scan"}, "name": "5de6f87730d5046cb7e31814a850b71a", "type": "electric_scooter", "lat": 38.93678966666667, "is_disabled": 0}, {"fusion_lat": 0.0, "lon": -77.03663766666666, "is_reserved": 0, "bike_id": "fc696cbb6ad9d1937cd84a185019804f", "fusion_lon": 0.0, "rental_uris": {"android": "https://dc.lft.to/lastmile_qr_scan", "ios": "https://dc.lft.to/lastmile_qr_scan"}, "name": "fc696cbb6ad9d1937cd84a185019804f", "type": "electric_scooter", "lat": 38.923220666666666, "is_disabled": 0}, {"fusion_lat": 0.0, "lon": -77.00030983333333, "is_reserved": 0, "bike_id": "1615d02569eaf9efc6953c10d64d61c1", "fusion_lon": 0.0, "rental_uris": {"android": "https://dc.lft.to/lastmile_qr_scan", "ios": "https://dc.lft.to/lastmile_qr_scan"}, "name": "1615d02569eaf9efc6953c10d64d61c1", "type": "electric_scooter", "lat": 38.897458666666665, "is_disabled": 0}, {"fusion_lat": 0.0, "lon": -77.1828455, "is_reserved": 0, "bike_id": "39720d2ecf6e4af18baea5ceb5843fd3", "fusion_lon": 0.0, "rental_uris": {"android": "https://dc.lft.to/lastmile_qr_scan", "ios": "https://dc.lft.to/lastmile_qr_scan"}, "name": "39720d2ecf6e4af18baea5ceb5843fd3", "type": "electric_bike", "lat": 38.890783166666665, "is_disabled": 0}, {"fusion_lat": 0.0, "lon": -77.03675383333334, "is_reserved": 0, "bike_id": "63f01dbe2134b521b7276cdfd2590490", "fusion_lon": 0.0, "rental_uris": {"android": "https://dc.lft.to/lastmile_qr_scan", "ios": "https://dc.lft.to/lastmile_qr_scan"}, "name": "63f01dbe2134b521b7276cdfd2590490", "type": "electric_scooter", "lat": 38.92035633333333, "is_disabled": 0}, {"fusion_lat": 0.0, "lon": -77.024081, "is_reserved": 0, "bike_id": "80df781c7332dca0597100f6ae9d1492", "fusion_lon": 0.0, "rental_uris": {"android": "https://dc.lft.to/lastmile_qr_scan", "ios": "https://dc.lft.to/lastmile_qr_scan"}, "name": "80df781c7332dca0597100f6ae9d1492", "type": "electric_scooter", "lat": 38.89780066666667, "is_disabled": 0}, {"fusion_lat": 0.0, "lon": -77.0181475, "is_reserved": 0, "bike_id": "7d0cf824417f85805ab05a0a3469654c", "fusion_lon": 0.0, "rental_uris": {"android": "https://dc.lft.to/lastmile_qr_scan", "ios": "https://dc.lft.to/lastmile_qr_scan"}, "name": "7d0cf824417f85805ab05a0a3469654c", "type": "electric_scooter", "lat": 38.89304966666667, "is_disabled": 0}, {"fusion_lat": 0.0, "lon": -77.04357633333333, "is_reserved": 0, "bike_id": "96d99d7bfe42fce15da50a712d2f26e3", "fusion_lon": 0.0, "rental_uris": {"android": "https://dc.lft.to/lastmile_qr_scan", "ios": "https://dc.lft.to/lastmile_qr_scan"}, "name": "96d99d7bfe42fce15da50a712d2f26e3", "type": "electric_scooter", "lat": 38.9030365, "is_disabled": 0}, {"fusion_lat": 0.0, "lon": -77.00598983333333, "is_reserved": 0, "bike_id": "09a62a2b4d23091b9ef48937d3533e51", "fusion_lon": 0.0, "rental_uris": {"android": "https://dc.lft.to/lastmile_qr_scan", "ios": "https://dc.lft.to/lastmile_qr_scan"}, "name": "09a62a2b4d23091b9ef48937d3533e51", "type": "electric_bike", "lat": 38.89812216666667, "is_disabled": 0}, {"fusion_lat": 0.0, "lon": -77.0543165, "is_reserved": 0, "bike_id": "a73358f296d4af2f0c85c29d698bb2fd", "fusion_lon": 0.0, "rental_uris": {"android": "https://dc.lft.to/lastmile_qr_scan", "ios": "https://dc.lft.to/lastmile_qr_scan"}, "name": "a73358f296d4af2f0c85c29d698bb2fd", "type": "electric_scooter", "lat": 38.9285895, "is_disabled": 0}, {"fusion_lat": 0.0, "lon": -77.03258266666667, "is_reserved": 0, "bike_id": "0cf7367c503ce59e5b2f98d5d31f9655", "fusion_lon": 0.0, "rental_uris": {"android": "https://dc.lft.to/lastmile_qr_scan", "ios": "https://dc.lft.to/lastmile_qr_scan"}, "name": "0cf7367c503ce59e5b2f98d5d31f9655", "type": "electric_scooter", "lat": 38.932519666666664, "is_disabled": 0}, {"fusion_lat": 0.0, "lon": -76.95017883333334, "is_reserved": 0, "bike_id": "7517dad3119c9292364344665c35f490", "fusion_lon": 0.0, "rental_uris": {"android": "https://dc.lft.to/lastmile_qr_scan", "ios": "https://dc.lft.to/lastmile_qr_scan"}, "name": "7517dad3119c9292364344665c35f490", "type": "electric_scooter", "lat": 38.893899, "is_disabled": 0}, {"fusion_lat": 0.0, "lon": -77.08591533333333, "is_reserved": 0, "bike_id": "c8e141569d21133176bee962593c20b2", "fusion_lon": 0.0, "rental_uris": {"android": "https://dc.lft.to/lastmile_qr_scan", "ios": "https://dc.lft.to/lastmile_qr_scan"}, "name": "c8e141569d21133176bee962593c20b2", "type": "electric_scooter", "lat": 38.9086985, "is_disabled": 0}, {"fusion_lat": 0.0, "lon": -76.96465783333333, "is_reserved": 0, "bike_id": "da8c0d23c46de7a54ff906dd9155434d", "fusion_lon": 0.0, "rental_uris": {"android": "https://dc.lft.to/lastmile_qr_scan", "ios": "https://dc.lft.to/lastmile_qr_scan"}, "name": "da8c0d23c46de7a54ff906dd9155434d", "type": "electric_scooter", "lat": 38.93449366666667, "is_disabled": 0}, {"fusion_lat": 0.0, "lon": -76.987434, "is_reserved": 0, "bike_id": "d0ca4a8b59adac6a8cd210172367a8e2", "fusion_lon": 0.0, "rental_uris": {"android": "https://dc.lft.to/lastmile_qr_scan", "ios": "https://dc.lft.to/lastmile_qr_scan"}, "name": "d0ca4a8b59adac6a8cd210172367a8e2", "type": "electric_scooter", "lat": 38.844845166666666, "is_disabled": 0}, {"fusion_lat": 0.0, "lon": -77.07269083333334, "is_reserved": 0, "bike_id": "4b8280d9c6b1e4f72a861833e7f37791", "fusion_lon": 0.0, "rental_uris": {"android": "https://dc.lft.to/lastmile_qr_scan", "ios": "https://dc.lft.to/lastmile_qr_scan"}, "name": "4b8280d9c6b1e4f72a861833e7f37791", "type": "electric_scooter", "lat": 38.934866666666665, "is_disabled": 0}, {"fusion_lat": 0.0, "lon": -77.03264216666666, "is_reserved": 0, "bike_id": "dea20f0ff73fbb4d98615cac591244c7", "fusion_lon": 0.0, "rental_uris": {"android": "https://dc.lft.to/lastmile_qr_scan", "ios": "https://dc.lft.to/lastmile_qr_scan"}, "name": "dea20f0ff73fbb4d98615cac591244c7", "type": "electric_scooter", "lat": 38.9274145, "is_disabled": 0}, {"fusion_lat": 0.0, "lon": -76.98536516666667, "is_reserved": 0, "bike_id": "a7bc5b97d0dc86ecdd804eafa20bbb3f", "fusion_lon": 0.0, "rental_uris": {"android": "https://dc.lft.to/lastmile_qr_scan", "ios": "https://dc.lft.to/lastmile_qr_scan"}, "name": "a7bc5b97d0dc86ecdd804eafa20bbb3f", "type": "electric_scooter", "lat": 38.9102035, "is_disabled": 0}, {"fusion_lat": 0.0, "lon": -77.02680666666667, "is_reserved": 0, "bike_id": "bc26a541cda6765b435f70814d8ca4c5", "fusion_lon": 0.0, "rental_uris": {"android": "https://dc.lft.to/lastmile_qr_scan", "ios": "https://dc.lft.to/lastmile_qr_scan"}, "name": "bc26a541cda6765b435f70814d8ca4c5", "type": "electric_scooter", "lat": 38.92774883333333, "is_disabled": 0}, {"fusion_lat": 0.0, "lon": -77.02682033333333, "is_reserved": 0, "bike_id": "8a39567da4e3e9f65572924d62c4c3b1", "fusion_lon": 0.0, "rental_uris": {"android": "https://dc.lft.to/lastmile_qr_scan", "ios": "https://dc.lft.to/lastmile_qr_scan"}, "name": "8a39567da4e3e9f65572924d62c4c3b1", "type": "electric_scooter", "lat": 38.984905833333336, "is_disabled": 0}, {"fusion_lat": 0.0, "lon": -77.029489, "is_reserved": 0, "bike_id": "5ee00481a27e15f7d3fd6a520b92a61d", "fusion_lon": 0.0, "rental_uris": {"android": "https://dc.lft.to/lastmile_qr_scan", "ios": "https://dc.lft.to/lastmile_qr_scan"}, "name": "5ee00481a27e15f7d3fd6a520b92a61d", "type": "electric_scooter", "lat": 38.932482666666665, "is_disabled": 0}, {"fusion_lat": 0.0, "lon": -77.0318635, "is_reserved": 0, "bike_id": "e6369070ea707d50ef4287b0fd8ce85c", "fusion_lon": 0.0, "rental_uris": {"android": "https://dc.lft.to/lastmile_qr_scan", "ios": "https://dc.lft.to/lastmile_qr_scan"}, "name": "e6369070ea707d50ef4287b0fd8ce85c", "type": "electric_scooter", "lat": 38.88415416666667, "is_disabled": 0}, {"fusion_lat": 0.0, "lon": -76.9920955, "is_reserved": 0, "bike_id": "677ba31f48ac95dc71347cd3c75d7f27", "fusion_lon": 0.0, "rental_uris": {"android": "https://dc.lft.to/lastmile_qr_scan", "ios": "https://dc.lft.to/lastmile_qr_scan"}, "name": "677ba31f48ac95dc71347cd3c75d7f27", "type": "electric_scooter", "lat": 38.895206, "is_disabled": 0}, {"fusion_lat": 0.0, "lon": -77.037697, "is_reserved": 0, "bike_id": "6e68d7fa5d232167c1ef77c8313e50fe", "fusion_lon": 0.0, "rental_uris": {"android": "https://dc.lft.to/lastmile_qr_scan", "ios": "https://dc.lft.to/lastmile_qr_scan"}, "name": "6e68d7fa5d232167c1ef77c8313e50fe", "type": "electric_scooter", "lat": 38.916884833333334, "is_disabled": 0}, {"fusion_lat": 0.0, "lon": -76.99193316666667, "is_reserved": 0, "bike_id": "18a6f1397d1070be5eaad078c29e1c82", "fusion_lon": 0.0, "rental_uris": {"android": "https://dc.lft.to/lastmile_qr_scan", "ios": "https://dc.lft.to/lastmile_qr_scan"}, "name": "18a6f1397d1070be5eaad078c29e1c82", "type": "electric_scooter", "lat": 38.9002685, "is_disabled": 0}, {"fusion_lat": 0.0, "lon": -77.02396633333333, "is_reserved": 0, "bike_id": "a9ba4cd09512b352133f3baa7b0ac093", "fusion_lon": 0.0, "rental_uris": {"android": "https://dc.lft.to/lastmile_qr_scan", "ios": "https://dc.lft.to/lastmile_qr_scan"}, "name": "a9ba4cd09512b352133f3baa7b0ac093", "type": "electric_scooter", "lat": 38.919608333333336, "is_disabled": 0}, {"fusion_lat": 0.0, "lon": -76.99703116666667, "is_reserved": 0, "bike_id": "b2990665ef94dc952d5a396df0ac8e7d", "fusion_lon": 0.0, "rental_uris": {"android": "https://dc.lft.to/lastmile_qr_scan", "ios": "https://dc.lft.to/lastmile_qr_scan"}, "name": "b2990665ef94dc952d5a396df0ac8e7d", "type": "electric_scooter", "lat": 38.9083815, "is_disabled": 0}, {"fusion_lat": 0.0, "lon": -77.035343, "is_reserved": 0, "bike_id": "5eda39dd61341b7dedfba50b9796be91", "fusion_lon": 0.0, "rental_uris": {"android": "https://dc.lft.to/lastmile_qr_scan", "ios": "https://dc.lft.to/lastmile_qr_scan"}, "name": "5eda39dd61341b7dedfba50b9796be91", "type": "electric_scooter", "lat": 38.915577666666664, "is_disabled": 0}, {"fusion_lat": 0.0, "lon": -77.0268815, "is_reserved": 0, "bike_id": "a7bbf6f0658c419317a390c8d8e858aa", "fusion_lon": 0.0, "rental_uris": {"android": "https://dc.lft.to/lastmile_qr_scan", "ios": "https://dc.lft.to/lastmile_qr_scan"}, "name": "a7bbf6f0658c419317a390c8d8e858aa", "type": "electric_scooter", "lat": 38.948887, "is_disabled": 0}, {"fusion_lat": 0.0, "lon": -77.01406966666667, "is_reserved": 0, "bike_id": "a8ab134c0cd8a22a6cbd774fdcbea450", "fusion_lon": 0.0, "rental_uris": {"android": "https://dc.lft.to/lastmile_qr_scan", "ios": "https://dc.lft.to/lastmile_qr_scan"}, "name": "a8ab134c0cd8a22a6cbd774fdcbea450", "type": "electric_scooter", "lat": 38.887483, "is_disabled": 0}, {"fusion_lat": 0.0, "lon": -77.02081083333333, "is_reserved": 0, "bike_id": "52ba41f1a2904eb3664a3fdb41f188dc", "fusion_lon": 0.0, "rental_uris": {"android": "https://dc.lft.to/lastmile_qr_scan", "ios": "https://dc.lft.to/lastmile_qr_scan"}, "name": "52ba41f1a2904eb3664a3fdb41f188dc", "type": "electric_scooter", "lat": 38.8818375, "is_disabled": 0}, {"fusion_lat": 0.0, "lon": -76.9847665, "is_reserved": 0, "bike_id": "6fc185fe96c8298d2d1d1183037f36e3", "fusion_lon": 0.0, "rental_uris": {"android": "https://dc.lft.to/lastmile_qr_scan", "ios": "https://dc.lft.to/lastmile_qr_scan"}, "name": "6fc185fe96c8298d2d1d1183037f36e3", "type": "electric_bike", "lat": 38.928938333333335, "is_disabled": 0}, {"fusion_lat": 0.0, "lon": -77.0319835, "is_reserved": 0, "bike_id": "bccbef5d72e87add5bba590224113874", "fusion_lon": 0.0, "rental_uris": {"android": "https://dc.lft.to/lastmile_qr_scan", "ios": "https://dc.lft.to/lastmile_qr_scan"}, "name": "bccbef5d72e87add5bba590224113874", "type": "electric_scooter", "lat": 38.917890166666666, "is_disabled": 0}, {"fusion_lat": 0.0, "lon": -77.17841116666666, "is_reserved": 0, "bike_id": "e689dad51432a6cace938b0657127b66", "fusion_lon": 0.0, "rental_uris": {"android": "https://dc.lft.to/lastmile_qr_scan", "ios": "https://dc.lft.to/lastmile_qr_scan"}, "name": "e689dad51432a6cace938b0657127b66", "type": "electric_bike", "lat": 39.08856733333333, "is_disabled": 0}, {"fusion_lat": 0.0, "lon": -77.03080166666666, "is_reserved": 0, "bike_id": "c3978865cea9b4772b72d4123a5afdb6", "fusion_lon": 0.0, "rental_uris": {"android": "https://dc.lft.to/lastmile_qr_scan", "ios": "https://dc.lft.to/lastmile_qr_scan"}, "name": "c3978865cea9b4772b72d4123a5afdb6", "type": "electric_scooter", "lat": 38.905769, "is_disabled": 0}, {"fusion_lat": 0.0, "lon": -77.02655816666666, "is_reserved": 0, "bike_id": "49304f14dd5a02e625527cf741157a24", "fusion_lon": 0.0, "rental_uris": {"android": "https://dc.lft.to/lastmile_qr_scan", "ios": "https://dc.lft.to/lastmile_qr_scan"}, "name": "49304f14dd5a02e625527cf741157a24", "type": "electric_scooter", "lat": 38.892148666666664, "is_disabled": 0}, {"fusion_lat": 0.0, "lon": -76.956553, "is_reserved": 0, "bike_id": "a6cd41926396b8669c0f8b0ff7aefeba", "fusion_lon": 0.0, "rental_uris": {"android": "https://dc.lft.to/lastmile_qr_scan", "ios": "https://dc.lft.to/lastmile_qr_scan"}, "name": "a6cd41926396b8669c0f8b0ff7aefeba", "type": "electric_scooter", "lat": 38.89554033333334, "is_disabled": 0}, {"fusion_lat": 0.0, "lon": -77.01224416666666, "is_reserved": 0, "bike_id": "22c3dc6c7679b50b8a4a90fbe28a7680", "fusion_lon": 0.0, "rental_uris": {"android": "https://dc.lft.to/lastmile_qr_scan", "ios": "https://dc.lft.to/lastmile_qr_scan"}, "name": "22c3dc6c7679b50b8a4a90fbe28a7680", "type": "electric_bike", "lat": 38.871958, "is_disabled": 0}, {"fusion_lat": 0.0, "lon": -76.991611, "is_reserved": 0, "bike_id": "4e1969c34cd5c292c0d0b4bf1fceb7b5", "fusion_lon": 0.0, "rental_uris": {"android": "https://dc.lft.to/lastmile_qr_scan", "ios": "https://dc.lft.to/lastmile_qr_scan"}, "name": "4e1969c34cd5c292c0d0b4bf1fceb7b5", "type": "electric_scooter", "lat": 38.8980065, "is_disabled": 0}, {"fusion_lat": 0.0, "lon": -76.9900715, "is_reserved": 0, "bike_id": "31ce64a6d2679466f6259e023d5d7cd0", "fusion_lon": 0.0, "rental_uris": {"android": "https://dc.lft.to/lastmile_qr_scan", "ios": "https://dc.lft.to/lastmile_qr_scan"}, "name": "31ce64a6d2679466f6259e023d5d7cd0", "type": "electric_scooter", "lat": 38.9039105, "is_disabled": 0}, {"fusion_lat": 0.0, "lon": -77.04290033333334, "is_reserved": 0, "bike_id": "c32b0d1a9d9f0fb573adcd53f63bd893", "fusion_lon": 0.0, "rental_uris": {"android": "https://dc.lft.to/lastmile_qr_scan", "ios": "https://dc.lft.to/lastmile_qr_scan"}, "name": "c32b0d1a9d9f0fb573adcd53f63bd893", "type": "electric_scooter", "lat": 38.91695683333333, "is_disabled": 0}, {"fusion_lat": 0.0, "lon": -76.99953066666667, "is_reserved": 0, "bike_id": "c410b5323dedc2d54f9458476f4d06db", "fusion_lon": 0.0, "rental_uris": {"android": "https://dc.lft.to/lastmile_qr_scan", "ios": "https://dc.lft.to/lastmile_qr_scan"}, "name": "c410b5323dedc2d54f9458476f4d06db", "type": "electric_scooter", "lat": 38.9235385, "is_disabled": 0}, {"fusion_lat": 0.0, "lon": -77.03860266666666, "is_reserved": 0, "bike_id": "06ba6bc13371808b53854dd6214f6185", "fusion_lon": 0.0, "rental_uris": {"android": "https://dc.lft.to/lastmile_qr_scan", "ios": "https://dc.lft.to/lastmile_qr_scan"}, "name": "06ba6bc13371808b53854dd6214f6185", "type": "electric_scooter", "lat": 38.91560233333333, "is_disabled": 0}, {"fusion_lat": 0.0, "lon": -77.05624616666667, "is_reserved": 0, "bike_id": "6693049987b2cfb61611e113d664bc74", "fusion_lon": 0.0, "rental_uris": {"android": "https://dc.lft.to/lastmile_qr_scan", "ios": "https://dc.lft.to/lastmile_qr_scan"}, "name": "6693049987b2cfb61611e113d664bc74", "type": "electric_scooter", "lat": 38.960722833333335, "is_disabled": 0}, {"fusion_lat": 0.0, "lon": -77.0959595, "is_reserved": 0, "bike_id": "7d3732842d4d9826d3b72c0c4dc9479c", "fusion_lon": 0.0, "rental_uris": {"android": "https://dc.lft.to/lastmile_qr_scan", "ios": "https://dc.lft.to/lastmile_qr_scan"}, "name": "7d3732842d4d9826d3b72c0c4dc9479c", "type": "electric_bike", "lat": 39.02890816666667, "is_disabled": 0}, {"fusion_lat": 0.0, "lon": -77.03089766666666, "is_reserved": 0, "bike_id": "3d1b7a93e29151ccab077814a727dfc2", "fusion_lon": 0.0, "rental_uris": {"android": "https://dc.lft.to/lastmile_qr_scan", "ios": "https://dc.lft.to/lastmile_qr_scan"}, "name": "3d1b7a93e29151ccab077814a727dfc2", "type": "electric_scooter", "lat": 38.92240366666667, "is_disabled": 0}, {"fusion_lat": 0.0, "lon": -77.02549783333333, "is_reserved": 0, "bike_id": "1bbb391e4c4fcbf5e2d2a1a2c44ddb5f", "fusion_lon": 0.0, "rental_uris": {"android": "https://dc.lft.to/lastmile_qr_scan", "ios": "https://dc.lft.to/lastmile_qr_scan"}, "name": "1bbb391e4c4fcbf5e2d2a1a2c44ddb5f", "type": "electric_scooter", "lat": 38.942234, "is_disabled": 0}, {"fusion_lat": 0.0, "lon": -77.018412, "is_reserved": 0, "bike_id": "c848f2d0301bea275bb8426f7b31f7b6", "fusion_lon": 0.0, "rental_uris": {"android": "https://dc.lft.to/lastmile_qr_scan", "ios": "https://dc.lft.to/lastmile_qr_scan"}, "name": "c848f2d0301bea275bb8426f7b31f7b6", "type": "electric_scooter", "lat": 38.94999116666666, "is_disabled": 0}, {"fusion_lat": 0.0, "lon": -77.00203333333333, "is_reserved": 0, "bike_id": "7b304c7f655e5ca4ca075f9068594866", "fusion_lon": 0.0, "rental_uris": {"android": "https://dc.lft.to/lastmile_qr_scan", "ios": "https://dc.lft.to/lastmile_qr_scan"}, "name": "7b304c7f655e5ca4ca075f9068594866", "type": "electric_scooter", "lat": 38.90046666666667, "is_disabled": 0}, {"fusion_lat": 0.0, "lon": -77.060787, "is_reserved": 0, "bike_id": "c28085d63f999c2de1a2abee248ac914", "fusion_lon": 0.0, "rental_uris": {"android": "https://dc.lft.to/lastmile_qr_scan", "ios": "https://dc.lft.to/lastmile_qr_scan"}, "name": "c28085d63f999c2de1a2abee248ac914", "type": "electric_bike", "lat": 38.885896, "is_disabled": 0}, {"fusion_lat": 0.0, "lon": -77.03539916666666, "is_reserved": 0, "bike_id": "d8d8159f9c48236b20b38eb1a877c8d3", "fusion_lon": 0.0, "rental_uris": {"android": "https://dc.lft.to/lastmile_qr_scan", "ios": "https://dc.lft.to/lastmile_qr_scan"}, "name": "d8d8159f9c48236b20b38eb1a877c8d3", "type": "electric_scooter", "lat": 38.9242575, "is_disabled": 0}, {"fusion_lat": 0.0, "lon": -76.99527066666667, "is_reserved": 0, "bike_id": "e07370b0ff8ca3d0174f5f5cd2ea0060", "fusion_lon": 0.0, "rental_uris": {"android": "https://dc.lft.to/lastmile_qr_scan", "ios": "https://dc.lft.to/lastmile_qr_scan"}, "name": "e07370b0ff8ca3d0174f5f5cd2ea0060", "type": "electric_scooter", "lat": 38.877613833333335, "is_disabled": 0}, {"fusion_lat": 0.0, "lon": -77.0062675, "is_reserved": 0, "bike_id": "ed53ee06b2a280db4d251bd8a539a0b7", "fusion_lon": 0.0, "rental_uris": {"android": "https://dc.lft.to/lastmile_qr_scan", "ios": "https://dc.lft.to/lastmile_qr_scan"}, "name": "ed53ee06b2a280db4d251bd8a539a0b7", "type": "electric_scooter", "lat": 38.908178666666664, "is_disabled": 0}, {"fusion_lat": 0.0, "lon": -77.02991633333333, "is_reserved": 0, "bike_id": "c92689a8108647ad716ba5ed3e5b41c2", "fusion_lon": 0.0, "rental_uris": {"android": "https://dc.lft.to/lastmile_qr_scan", "ios": "https://dc.lft.to/lastmile_qr_scan"}, "name": "c92689a8108647ad716ba5ed3e5b41c2", "type": "electric_scooter", "lat": 38.90579683333333, "is_disabled": 0}, {"fusion_lat": 0.0, "lon": -77.13099216666667, "is_reserved": 0, "bike_id": "aeadcdcdf9ca7f006b0e3e33daa33a3a", "fusion_lon": 0.0, "rental_uris": {"android": "https://dc.lft.to/lastmile_qr_scan", "ios": "https://dc.lft.to/lastmile_qr_scan"}, "name": "aeadcdcdf9ca7f006b0e3e33daa33a3a", "type": "electric_bike", "lat": 39.024355166666666, "is_disabled": 0}, {"fusion_lat": 0.0, "lon": -77.05042816666666, "is_reserved": 0, "bike_id": "19e7e61072394e61bbac993ab2e4b747", "fusion_lon": 0.0, "rental_uris": {"android": "https://dc.lft.to/lastmile_qr_scan", "ios": "https://dc.lft.to/lastmile_qr_scan"}, "name": "19e7e61072394e61bbac993ab2e4b747", "type": "electric_scooter", "lat": 38.90536483333333, "is_disabled": 0}, {"fusion_lat": 0.0, "lon": -77.01966016666667, "is_reserved": 0, "bike_id": "c9007e55f1d4bb92ce44343020f45c47", "fusion_lon": 0.0, "rental_uris": {"android": "https://dc.lft.to/lastmile_qr_scan", "ios": "https://dc.lft.to/lastmile_qr_scan"}, "name": "c9007e55f1d4bb92ce44343020f45c47", "type": "electric_scooter", "lat": 38.95018266666666, "is_disabled": 0}, {"fusion_lat": 0.0, "lon": -77.0301505, "is_reserved": 0, "bike_id": "31779b98d00da4400f662b024c238f63", "fusion_lon": 0.0, "rental_uris": {"android": "https://dc.lft.to/lastmile_qr_scan", "ios": "https://dc.lft.to/lastmile_qr_scan"}, "name": "31779b98d00da4400f662b024c238f63", "type": "electric_scooter", "lat": 38.92673633333333, "is_disabled": 0}, {"fusion_lat": 0.0, "lon": -77.02364316666667, "is_reserved": 0, "bike_id": "4a50d510bdf21eda214348656373c46f", "fusion_lon": 0.0, "rental_uris": {"android": "https://dc.lft.to/lastmile_qr_scan", "ios": "https://dc.lft.to/lastmile_qr_scan"}, "name": "4a50d510bdf21eda214348656373c46f", "type": "electric_scooter", "lat": 38.89223283333333, "is_disabled": 0}, {"fusion_lat": 0.0, "lon": -77.03849266666667, "is_reserved": 0, "bike_id": "f64db3f48becea1b2402410dafc965bc", "fusion_lon": 0.0, "rental_uris": {"android": "https://dc.lft.to/lastmile_qr_scan", "ios": "https://dc.lft.to/lastmile_qr_scan"}, "name": "f64db3f48becea1b2402410dafc965bc", "type": "electric_scooter", "lat": 38.9216975, "is_disabled": 0}, {"fusion_lat": 0.0, "lon": -77.05017866666667, "is_reserved": 0, "bike_id": "fed2d067a9fab0f539bc4415fb61cdeb", "fusion_lon": 0.0, "rental_uris": {"android": "https://dc.lft.to/lastmile_qr_scan", "ios": "https://dc.lft.to/lastmile_qr_scan"}, "name": "fed2d067a9fab0f539bc4415fb61cdeb", "type": "electric_scooter", "lat": 38.90554183333333, "is_disabled": 0}, {"fusion_lat": 0.0, "lon": -77.0632245, "is_reserved": 0, "bike_id": "3d0c77e6278e9a509b2712a757fe289f", "fusion_lon": 0.0, "rental_uris": {"android": "https://dc.lft.to/lastmile_qr_scan", "ios": "https://dc.lft.to/lastmile_qr_scan"}, "name": "3d0c77e6278e9a509b2712a757fe289f", "type": "electric_scooter", "lat": 38.944157833333335, "is_disabled": 0}, {"fusion_lat": 0.0, "lon": -77.019796, "is_reserved": 0, "bike_id": "7bad0e3ddaeb13881b747ead53113f53", "fusion_lon": 0.0, "rental_uris": {"android": "https://dc.lft.to/lastmile_qr_scan", "ios": "https://dc.lft.to/lastmile_qr_scan"}, "name": "7bad0e3ddaeb13881b747ead53113f53", "type": "electric_scooter", "lat": 38.8858745, "is_disabled": 0}, {"fusion_lat": 0.0, "lon": -76.95405833333334, "is_reserved": 0, "bike_id": "cd49d7ff46a0d269e123f6b6f821c24d", "fusion_lon": 0.0, "rental_uris": {"android": "https://dc.lft.to/lastmile_qr_scan", "ios": "https://dc.lft.to/lastmile_qr_scan"}, "name": "cd49d7ff46a0d269e123f6b6f821c24d", "type": "electric_scooter", "lat": 38.884731, "is_disabled": 0}, {"fusion_lat": 0.0, "lon": -77.0271195, "is_reserved": 0, "bike_id": "24f3de8b56f4a2af2f6ee38bf859eea8", "fusion_lon": 0.0, "rental_uris": {"android": "https://dc.lft.to/lastmile_qr_scan", "ios": "https://dc.lft.to/lastmile_qr_scan"}, "name": "24f3de8b56f4a2af2f6ee38bf859eea8", "type": "electric_scooter", "lat": 38.906725, "is_disabled": 0}, {"fusion_lat": 0.0, "lon": -77.0592045, "is_reserved": 0, "bike_id": "ec14a07d01306682eb7c57bf3b4d8e8d", "fusion_lon": 0.0, "rental_uris": {"android": "https://dc.lft.to/lastmile_qr_scan", "ios": "https://dc.lft.to/lastmile_qr_scan"}, "name": "ec14a07d01306682eb7c57bf3b4d8e8d", "type": "electric_scooter", "lat": 38.901604, "is_disabled": 0}, {"fusion_lat": 0.0, "lon": -77.05487733333334, "is_reserved": 0, "bike_id": "e8950e5d13a0c61fdfae696339511a62", "fusion_lon": 0.0, "rental_uris": {"android": "https://dc.lft.to/lastmile_qr_scan", "ios": "https://dc.lft.to/lastmile_qr_scan"}, "name": "e8950e5d13a0c61fdfae696339511a62", "type": "electric_scooter", "lat": 38.89384483333333, "is_disabled": 0}, {"fusion_lat": 0.0, "lon": -76.98712083333334, "is_reserved": 0, "bike_id": "b0078ff960bad76c7cd660d8a62d1721", "fusion_lon": 0.0, "rental_uris": {"android": "https://dc.lft.to/lastmile_qr_scan", "ios": "https://dc.lft.to/lastmile_qr_scan"}, "name": "b0078ff960bad76c7cd660d8a62d1721", "type": "electric_scooter", "lat": 38.866266, "is_disabled": 0}, {"fusion_lat": 0.0, "lon": -77.03331583333333, "is_reserved": 0, "bike_id": "5baf8b001288786ab0d096b99476bc99", "fusion_lon": 0.0, "rental_uris": {"android": "https://dc.lft.to/lastmile_qr_scan", "ios": "https://dc.lft.to/lastmile_qr_scan"}, "name": "5baf8b001288786ab0d096b99476bc99", "type": "electric_scooter", "lat": 38.900180666666664, "is_disabled": 0}, {"fusion_lat": 0.0, "lon": -77.0150365, "is_reserved": 0, "bike_id": "c06503ac1f5c227992011d8d6d78f603", "fusion_lon": 0.0, "rental_uris": {"android": "https://dc.lft.to/lastmile_qr_scan", "ios": "https://dc.lft.to/lastmile_qr_scan"}, "name": "c06503ac1f5c227992011d8d6d78f603", "type": "electric_scooter", "lat": 38.886652166666664, "is_disabled": 0}, {"fusion_lat": 0.0, "lon": -76.99154283333333, "is_reserved": 0, "bike_id": "5f41a35e45e152582576a988a1bc853d", "fusion_lon": 0.0, "rental_uris": {"android": "https://dc.lft.to/lastmile_qr_scan", "ios": "https://dc.lft.to/lastmile_qr_scan"}, "name": "5f41a35e45e152582576a988a1bc853d", "type": "electric_scooter", "lat": 38.86326116666667, "is_disabled": 0}, {"fusion_lat": 0.0, "lon": -77.03292166666667, "is_reserved": 0, "bike_id": "5e61fc05f41c73bfe325c6f5ebbb9c6e", "fusion_lon": 0.0, "rental_uris": {"android": "https://dc.lft.to/lastmile_qr_scan", "ios": "https://dc.lft.to/lastmile_qr_scan"}, "name": "5e61fc05f41c73bfe325c6f5ebbb9c6e", "type": "electric_scooter", "lat": 38.92062816666667, "is_disabled": 0}, {"fusion_lat": 0.0, "lon": -77.04620466666667, "is_reserved": 0, "bike_id": "7e8f1aceae8966a062869c3457ecdd5b", "fusion_lon": 0.0, "rental_uris": {"android": "https://dc.lft.to/lastmile_qr_scan", "ios": "https://dc.lft.to/lastmile_qr_scan"}, "name": "7e8f1aceae8966a062869c3457ecdd5b", "type": "electric_scooter", "lat": 38.91612766666667, "is_disabled": 0}, {"fusion_lat": 0.0, "lon": -77.01980333333333, "is_reserved": 0, "bike_id": "a1d48384b812484f088268899a682bad", "fusion_lon": 0.0, "rental_uris": {"android": "https://dc.lft.to/lastmile_qr_scan", "ios": "https://dc.lft.to/lastmile_qr_scan"}, "name": "a1d48384b812484f088268899a682bad", "type": "electric_scooter", "lat": 38.887211666666666, "is_disabled": 0}, {"fusion_lat": 0.0, "lon": -77.04291, "is_reserved": 0, "bike_id": "f0be1055f9e6428045ca1a4e8f05782f", "fusion_lon": 0.0, "rental_uris": {"android": "https://dc.lft.to/lastmile_qr_scan", "ios": "https://dc.lft.to/lastmile_qr_scan"}, "name": "f0be1055f9e6428045ca1a4e8f05782f", "type": "electric_scooter", "lat": 38.916532333333336, "is_disabled": 0}, {"fusion_lat": 0.0, "lon": -77.04450083333333, "is_reserved": 0, "bike_id": "3638216acd9b6a1f9e1661f1c1e23861", "fusion_lon": 0.0, "rental_uris": {"android": "https://dc.lft.to/lastmile_qr_scan", "ios": "https://dc.lft.to/lastmile_qr_scan"}, "name": "3638216acd9b6a1f9e1661f1c1e23861", "type": "electric_scooter", "lat": 38.924025666666665, "is_disabled": 0}, {"fusion_lat": 0.0, "lon": -77.02719933333333, "is_reserved": 0, "bike_id": "5d3322b88632fe26b238307adcc7d669", "fusion_lon": 0.0, "rental_uris": {"android": "https://dc.lft.to/lastmile_qr_scan", "ios": "https://dc.lft.to/lastmile_qr_scan"}, "name": "5d3322b88632fe26b238307adcc7d669", "type": "electric_scooter", "lat": 38.911056, "is_disabled": 0}, {"fusion_lat": 0.0, "lon": -77.03198016666667, "is_reserved": 0, "bike_id": "bbdd66b94309bf3c2acddc1b97aa1380", "fusion_lon": 0.0, "rental_uris": {"android": "https://dc.lft.to/lastmile_qr_scan", "ios": "https://dc.lft.to/lastmile_qr_scan"}, "name": "bbdd66b94309bf3c2acddc1b97aa1380", "type": "electric_scooter", "lat": 38.9158535, "is_disabled": 0}, {"fusion_lat": 0.0, "lon": -77.02653016666666, "is_reserved": 0, "bike_id": "91017e6f1833d71d0d23ffa95e537435", "fusion_lon": 0.0, "rental_uris": {"android": "https://dc.lft.to/lastmile_qr_scan", "ios": "https://dc.lft.to/lastmile_qr_scan"}, "name": "91017e6f1833d71d0d23ffa95e537435", "type": "electric_scooter", "lat": 38.892187166666666, "is_disabled": 0}, {"fusion_lat": 0.0, "lon": -77.03080133333333, "is_reserved": 0, "bike_id": "0af88473f36c3f99c4fbbef65cc7d12d", "fusion_lon": 0.0, "rental_uris": {"android": "https://dc.lft.to/lastmile_qr_scan", "ios": "https://dc.lft.to/lastmile_qr_scan"}, "name": "0af88473f36c3f99c4fbbef65cc7d12d", "type": "electric_scooter", "lat": 38.907579166666665, "is_disabled": 0}, {"fusion_lat": 0.0, "lon": -77.0363785, "is_reserved": 0, "bike_id": "4cbc79125735b1aba531dadeddaad7fc", "fusion_lon": 0.0, "rental_uris": {"android": "https://dc.lft.to/lastmile_qr_scan", "ios": "https://dc.lft.to/lastmile_qr_scan"}, "name": "4cbc79125735b1aba531dadeddaad7fc", "type": "electric_scooter", "lat": 38.937129666666664, "is_disabled": 0}, {"fusion_lat": 0.0, "lon": -77.02439516666666, "is_reserved": 0, "bike_id": "7d2092c91e0ece4ce0255b2a29b8b3b5", "fusion_lon": 0.0, "rental_uris": {"android": "https://dc.lft.to/lastmile_qr_scan", "ios": "https://dc.lft.to/lastmile_qr_scan"}, "name": "7d2092c91e0ece4ce0255b2a29b8b3b5", "type": "electric_scooter", "lat": 38.897465, "is_disabled": 0}, {"fusion_lat": 0.0, "lon": -77.0462675, "is_reserved": 0, "bike_id": "fe442e8d38d0b7c7ed9c6b8f0813b3e7", "fusion_lon": 0.0, "rental_uris": {"android": "https://dc.lft.to/lastmile_qr_scan", "ios": "https://dc.lft.to/lastmile_qr_scan"}, "name": "fe442e8d38d0b7c7ed9c6b8f0813b3e7", "type": "electric_scooter", "lat": 38.923261, "is_disabled": 0}, {"fusion_lat": 0.0, "lon": -77.02788833333334, "is_reserved": 0, "bike_id": "657fcd135e360fa4f2507af801a13765", "fusion_lon": 0.0, "rental_uris": {"android": "https://dc.lft.to/lastmile_qr_scan", "ios": "https://dc.lft.to/lastmile_qr_scan"}, "name": "657fcd135e360fa4f2507af801a13765", "type": "electric_scooter", "lat": 38.92684583333333, "is_disabled": 0}, {"fusion_lat": 0.0, "lon": -77.06046483333333, "is_reserved": 0, "bike_id": "0a1320c7424f489ee7010403e20ed0b1", "fusion_lon": 0.0, "rental_uris": {"android": "https://dc.lft.to/lastmile_qr_scan", "ios": "https://dc.lft.to/lastmile_qr_scan"}, "name": "0a1320c7424f489ee7010403e20ed0b1", "type": "electric_scooter", "lat": 38.939108833333336, "is_disabled": 0}, {"fusion_lat": 0.0, "lon": -77.04023433333333, "is_reserved": 0, "bike_id": "896700f76eae4d95c69f13b8de6ac250", "fusion_lon": 0.0, "rental_uris": {"android": "https://dc.lft.to/lastmile_qr_scan", "ios": "https://dc.lft.to/lastmile_qr_scan"}, "name": "896700f76eae4d95c69f13b8de6ac250", "type": "electric_scooter", "lat": 38.92456816666667, "is_disabled": 0}, {"fusion_lat": 0.0, "lon": -76.99602566666667, "is_reserved": 0, "bike_id": "4f72d1e74d97d9b2e60c9031f91ac816", "fusion_lon": 0.0, "rental_uris": {"android": "https://dc.lft.to/lastmile_qr_scan", "ios": "https://dc.lft.to/lastmile_qr_scan"}, "name": "4f72d1e74d97d9b2e60c9031f91ac816", "type": "electric_scooter", "lat": 38.90012483333334, "is_disabled": 0}, {"fusion_lat": 0.0, "lon": -77.0435295, "is_reserved": 0, "bike_id": "e9fcc308bf10bcb2c3ab95981a5172d1", "fusion_lon": 0.0, "rental_uris": {"android": "https://dc.lft.to/lastmile_qr_scan", "ios": "https://dc.lft.to/lastmile_qr_scan"}, "name": "e9fcc308bf10bcb2c3ab95981a5172d1", "type": "electric_scooter", "lat": 38.9042355, "is_disabled": 0}, {"fusion_lat": 0.0, "lon": -77.02972933333334, "is_reserved": 0, "bike_id": "03b08c8ea5478ba8b97bb349a169aeb9", "fusion_lon": 0.0, "rental_uris": {"android": "https://dc.lft.to/lastmile_qr_scan", "ios": "https://dc.lft.to/lastmile_qr_scan"}, "name": "03b08c8ea5478ba8b97bb349a169aeb9", "type": "electric_scooter", "lat": 38.91059633333333, "is_disabled": 0}, {"fusion_lat": 0.0, "lon": -76.99467916666667, "is_reserved": 0, "bike_id": "12840f3a9bd995cef36be1a5c02467d9", "fusion_lon": 0.0, "rental_uris": {"android": "https://dc.lft.to/lastmile_qr_scan", "ios": "https://dc.lft.to/lastmile_qr_scan"}, "name": "12840f3a9bd995cef36be1a5c02467d9", "type": "electric_scooter", "lat": 38.8622255, "is_disabled": 0}, {"fusion_lat": 0.0, "lon": -77.00718316666666, "is_reserved": 0, "bike_id": "b050f728c1caf826a3d512118e39a893", "fusion_lon": 0.0, "rental_uris": {"android": "https://dc.lft.to/lastmile_qr_scan", "ios": "https://dc.lft.to/lastmile_qr_scan"}, "name": "b050f728c1caf826a3d512118e39a893", "type": "electric_scooter", "lat": 38.878428, "is_disabled": 0}, {"fusion_lat": 0.0, "lon": -77.02458366666667, "is_reserved": 0, "bike_id": "5a66cb60082fc03fd3b46455ad282224", "fusion_lon": 0.0, "rental_uris": {"android": "https://dc.lft.to/lastmile_qr_scan", "ios": "https://dc.lft.to/lastmile_qr_scan"}, "name": "5a66cb60082fc03fd3b46455ad282224", "type": "electric_scooter", "lat": 38.93720233333333, "is_disabled": 0}, {"fusion_lat": 0.0, "lon": -77.017382, "is_reserved": 0, "bike_id": "a826b719365b4a9b8ebae95cc231a6f8", "fusion_lon": 0.0, "rental_uris": {"android": "https://dc.lft.to/lastmile_qr_scan", "ios": "https://dc.lft.to/lastmile_qr_scan"}, "name": "a826b719365b4a9b8ebae95cc231a6f8", "type": "electric_scooter", "lat": 38.872800833333336, "is_disabled": 0}, {"fusion_lat": 0.0, "lon": -77.03837983333334, "is_reserved": 0, "bike_id": "ae67925e1a34a2ed73f7be989cd50fb1", "fusion_lon": 0.0, "rental_uris": {"android": "https://dc.lft.to/lastmile_qr_scan", "ios": "https://dc.lft.to/lastmile_qr_scan"}, "name": "ae67925e1a34a2ed73f7be989cd50fb1", "type": "electric_scooter", "lat": 38.909925666666666, "is_disabled": 0}, {"fusion_lat": 0.0, "lon": -77.0160985, "is_reserved": 0, "bike_id": "d78926e7b9faccd6736cd02d3c78314d", "fusion_lon": 0.0, "rental_uris": {"android": "https://dc.lft.to/lastmile_qr_scan", "ios": "https://dc.lft.to/lastmile_qr_scan"}, "name": "d78926e7b9faccd6736cd02d3c78314d", "type": "electric_scooter", "lat": 38.883198666666665, "is_disabled": 0}, {"fusion_lat": 0.0, "lon": -77.042079, "is_reserved": 0, "bike_id": "cddfd6fc4db0015629ebed82e96cdb90", "fusion_lon": 0.0, "rental_uris": {"android": "https://dc.lft.to/lastmile_qr_scan", "ios": "https://dc.lft.to/lastmile_qr_scan"}, "name": "cddfd6fc4db0015629ebed82e96cdb90", "type": "electric_scooter", "lat": 38.919662, "is_disabled": 0}, {"fusion_lat": 0.0, "lon": -76.99749883333334, "is_reserved": 0, "bike_id": "bb6784f46feb7819a8611692eb71d881", "fusion_lon": 0.0, "rental_uris": {"android": "https://dc.lft.to/lastmile_qr_scan", "ios": "https://dc.lft.to/lastmile_qr_scan"}, "name": "bb6784f46feb7819a8611692eb71d881", "type": "electric_scooter", "lat": 38.90844383333334, "is_disabled": 0}, {"fusion_lat": 0.0, "lon": -77.07346366666667, "is_reserved": 0, "bike_id": "3299455202738323d2f79b4c5854de47", "fusion_lon": 0.0, "rental_uris": {"android": "https://dc.lft.to/lastmile_qr_scan", "ios": "https://dc.lft.to/lastmile_qr_scan"}, "name": "3299455202738323d2f79b4c5854de47", "type": "electric_scooter", "lat": 38.9110625, "is_disabled": 0}, {"fusion_lat": 0.0, "lon": -76.98143566666667, "is_reserved": 0, "bike_id": "6c4fc5b7d1058753ce0b730ebd52353a", "fusion_lon": 0.0, "rental_uris": {"android": "https://dc.lft.to/lastmile_qr_scan", "ios": "https://dc.lft.to/lastmile_qr_scan"}, "name": "6c4fc5b7d1058753ce0b730ebd52353a", "type": "electric_scooter", "lat": 38.905696, "is_disabled": 0}, {"fusion_lat": 0.0, "lon": -77.061295, "is_reserved": 0, "bike_id": "1eb661b1bdec67f105e928177bdf3372", "fusion_lon": 0.0, "rental_uris": {"android": "https://dc.lft.to/lastmile_qr_scan", "ios": "https://dc.lft.to/lastmile_qr_scan"}, "name": "1eb661b1bdec67f105e928177bdf3372", "type": "electric_scooter", "lat": 38.940857666666666, "is_disabled": 0}, {"fusion_lat": 0.0, "lon": -76.9961075, "is_reserved": 0, "bike_id": "4205f8153d5730b53737974367db4eaa", "fusion_lon": 0.0, "rental_uris": {"android": "https://dc.lft.to/lastmile_qr_scan", "ios": "https://dc.lft.to/lastmile_qr_scan"}, "name": "4205f8153d5730b53737974367db4eaa", "type": "electric_scooter", "lat": 38.8870295, "is_disabled": 0}, {"fusion_lat": 0.0, "lon": -77.03591666666667, "is_reserved": 0, "bike_id": "924549a1f3f21ddce62454a709f6a241", "fusion_lon": 0.0, "rental_uris": {"android": "https://dc.lft.to/lastmile_qr_scan", "ios": "https://dc.lft.to/lastmile_qr_scan"}, "name": "924549a1f3f21ddce62454a709f6a241", "type": "electric_scooter", "lat": 38.936745, "is_disabled": 0}, {"fusion_lat": 0.0, "lon": -77.02380633333334, "is_reserved": 0, "bike_id": "2db1a8c43ee333f484180bbcd32edeeb", "fusion_lon": 0.0, "rental_uris": {"android": "https://dc.lft.to/lastmile_qr_scan", "ios": "https://dc.lft.to/lastmile_qr_scan"}, "name": "2db1a8c43ee333f484180bbcd32edeeb", "type": "electric_scooter", "lat": 38.90818266666667, "is_disabled": 0}, {"fusion_lat": 0.0, "lon": -77.02389716666667, "is_reserved": 0, "bike_id": "e8e91bb69f1611feb4b02136b46ed43f", "fusion_lon": 0.0, "rental_uris": {"android": "https://dc.lft.to/lastmile_qr_scan", "ios": "https://dc.lft.to/lastmile_qr_scan"}, "name": "e8e91bb69f1611feb4b02136b46ed43f", "type": "electric_scooter", "lat": 38.90964566666667, "is_disabled": 0}, {"fusion_lat": 0.0, "lon": -77.03163066666667, "is_reserved": 0, "bike_id": "80d5192461f6a0afdb76b4a167e85de1", "fusion_lon": 0.0, "rental_uris": {"android": "https://dc.lft.to/lastmile_qr_scan", "ios": "https://dc.lft.to/lastmile_qr_scan"}, "name": "80d5192461f6a0afdb76b4a167e85de1", "type": "electric_bike", "lat": 38.9209255, "is_disabled": 0}, {"fusion_lat": 0.0, "lon": -77.04111933333333, "is_reserved": 0, "bike_id": "0e6da930ca54b50f372b4a743d63806a", "fusion_lon": 0.0, "rental_uris": {"android": "https://dc.lft.to/lastmile_qr_scan", "ios": "https://dc.lft.to/lastmile_qr_scan"}, "name": "0e6da930ca54b50f372b4a743d63806a", "type": "electric_scooter", "lat": 38.924553333333336, "is_disabled": 0}, {"fusion_lat": 0.0, "lon": -77.07136866666667, "is_reserved": 0, "bike_id": "a084a6aed50a2e2c1272648fbcf0cf87", "fusion_lon": 0.0, "rental_uris": {"android": "https://dc.lft.to/lastmile_qr_scan", "ios": "https://dc.lft.to/lastmile_qr_scan"}, "name": "a084a6aed50a2e2c1272648fbcf0cf87", "type": "electric_scooter", "lat": 38.9203235, "is_disabled": 0}, {"fusion_lat": 0.0, "lon": -76.99942116666666, "is_reserved": 0, "bike_id": "82eb2f67c572b09b39be426557a8f576", "fusion_lon": 0.0, "rental_uris": {"android": "https://dc.lft.to/lastmile_qr_scan", "ios": "https://dc.lft.to/lastmile_qr_scan"}, "name": "82eb2f67c572b09b39be426557a8f576", "type": "electric_scooter", "lat": 38.896475, "is_disabled": 0}, {"fusion_lat": 0.0, "lon": -77.0431615, "is_reserved": 0, "bike_id": "e84698f23431798f243ed65140e99864", "fusion_lon": 0.0, "rental_uris": {"android": "https://dc.lft.to/lastmile_qr_scan", "ios": "https://dc.lft.to/lastmile_qr_scan"}, "name": "e84698f23431798f243ed65140e99864", "type": "electric_scooter", "lat": 38.92653083333333, "is_disabled": 0}, {"fusion_lat": 0.0, "lon": -77.0358675, "is_reserved": 0, "bike_id": "32147965cb8b1cc6d4aa653df22d798e", "fusion_lon": 0.0, "rental_uris": {"android": "https://dc.lft.to/lastmile_qr_scan", "ios": "https://dc.lft.to/lastmile_qr_scan"}, "name": "32147965cb8b1cc6d4aa653df22d798e", "type": "electric_scooter", "lat": 38.91760033333333, "is_disabled": 0}, {"fusion_lat": 0.0, "lon": -77.0481305, "is_reserved": 0, "bike_id": "95880f5d5f4cbfb2360b8a1095ca8d0e", "fusion_lon": 0.0, "rental_uris": {"android": "https://dc.lft.to/lastmile_qr_scan", "ios": "https://dc.lft.to/lastmile_qr_scan"}, "name": "95880f5d5f4cbfb2360b8a1095ca8d0e", "type": "electric_scooter", "lat": 38.920396833333335, "is_disabled": 0}, {"fusion_lat": 0.0, "lon": -76.98884283333334, "is_reserved": 0, "bike_id": "749c9e7ff11175decc1a8d17268ac382", "fusion_lon": 0.0, "rental_uris": {"android": "https://dc.lft.to/lastmile_qr_scan", "ios": "https://dc.lft.to/lastmile_qr_scan"}, "name": "749c9e7ff11175decc1a8d17268ac382", "type": "electric_scooter", "lat": 38.86649333333333, "is_disabled": 0}, {"fusion_lat": 0.0, "lon": -77.047293, "is_reserved": 0, "bike_id": "5f190a3546925ccf00f75feff04bd088", "fusion_lon": 0.0, "rental_uris": {"android": "https://dc.lft.to/lastmile_qr_scan", "ios": "https://dc.lft.to/lastmile_qr_scan"}, "name": "5f190a3546925ccf00f75feff04bd088", "type": "electric_scooter", "lat": 38.912618333333334, "is_disabled": 0}, {"fusion_lat": 0.0, "lon": -76.93738733333333, "is_reserved": 0, "bike_id": "fb2f3e29da8e62aeb9796d2eb3e4d107", "fusion_lon": 0.0, "rental_uris": {"android": "https://dc.lft.to/lastmile_qr_scan", "ios": "https://dc.lft.to/lastmile_qr_scan"}, "name": "fb2f3e29da8e62aeb9796d2eb3e4d107", "type": "electric_scooter", "lat": 38.89017316666666, "is_disabled": 0}, {"fusion_lat": 0.0, "lon": -77.00126416666667, "is_reserved": 0, "bike_id": "377a1432d69aea82b85345ec1115c4a4", "fusion_lon": 0.0, "rental_uris": {"android": "https://dc.lft.to/lastmile_qr_scan", "ios": "https://dc.lft.to/lastmile_qr_scan"}, "name": "377a1432d69aea82b85345ec1115c4a4", "type": "electric_scooter", "lat": 38.90758133333333, "is_disabled": 0}, {"fusion_lat": 0.0, "lon": -77.01821083333333, "is_reserved": 0, "bike_id": "423b25800e1923032ff059506c1fba00", "fusion_lon": 0.0, "rental_uris": {"android": "https://dc.lft.to/lastmile_qr_scan", "ios": "https://dc.lft.to/lastmile_qr_scan"}, "name": "423b25800e1923032ff059506c1fba00", "type": "electric_scooter", "lat": 38.901435166666666, "is_disabled": 0}, {"fusion_lat": 0.0, "lon": -77.00927216666666, "is_reserved": 0, "bike_id": "083aacc71c21059b99dcc539a8947fe8", "fusion_lon": 0.0, "rental_uris": {"android": "https://dc.lft.to/lastmile_qr_scan", "ios": "https://dc.lft.to/lastmile_qr_scan"}, "name": "083aacc71c21059b99dcc539a8947fe8", "type": "electric_scooter", "lat": 38.89611466666667, "is_disabled": 0}, {"fusion_lat": 0.0, "lon": -76.98767183333334, "is_reserved": 0, "bike_id": "8b3d992af328a74bcc801fa2d2bea675", "fusion_lon": 0.0, "rental_uris": {"android": "https://dc.lft.to/lastmile_qr_scan", "ios": "https://dc.lft.to/lastmile_qr_scan"}, "name": "8b3d992af328a74bcc801fa2d2bea675", "type": "electric_scooter", "lat": 38.90031966666667, "is_disabled": 0}, {"fusion_lat": 0.0, "lon": -77.03133466666667, "is_reserved": 0, "bike_id": "77ba210d6bea872746e12c6113dc353e", "fusion_lon": 0.0, "rental_uris": {"android": "https://dc.lft.to/lastmile_qr_scan", "ios": "https://dc.lft.to/lastmile_qr_scan"}, "name": "77ba210d6bea872746e12c6113dc353e", "type": "electric_scooter", "lat": 38.92372233333333, "is_disabled": 0}, {"fusion_lat": 0.0, "lon": -76.99704716666666, "is_reserved": 0, "bike_id": "7ded34e926ca34438a77fb0f327ec45c", "fusion_lon": 0.0, "rental_uris": {"android": "https://dc.lft.to/lastmile_qr_scan", "ios": "https://dc.lft.to/lastmile_qr_scan"}, "name": "7ded34e926ca34438a77fb0f327ec45c", "type": "electric_scooter", "lat": 38.8443585, "is_disabled": 0}, {"fusion_lat": 0.0, "lon": -77.00211116666667, "is_reserved": 0, "bike_id": "cac85bbd18686d19037d844abc36751f", "fusion_lon": 0.0, "rental_uris": {"android": "https://dc.lft.to/lastmile_qr_scan", "ios": "https://dc.lft.to/lastmile_qr_scan"}, "name": "cac85bbd18686d19037d844abc36751f", "type": "electric_scooter", "lat": 38.9004815, "is_disabled": 0}, {"fusion_lat": 0.0, "lon": -77.0220425, "is_reserved": 0, "bike_id": "aa64d0fc819a55f48135993faaf0d853", "fusion_lon": 0.0, "rental_uris": {"android": "https://dc.lft.to/lastmile_qr_scan", "ios": "https://dc.lft.to/lastmile_qr_scan"}, "name": "aa64d0fc819a55f48135993faaf0d853", "type": "electric_scooter", "lat": 38.92049566666667, "is_disabled": 0}, {"fusion_lat": 0.0, "lon": -77.02191783333333, "is_reserved": 0, "bike_id": "cb1c59cf903a1a44ceedbd02fe972e6c", "fusion_lon": 0.0, "rental_uris": {"android": "https://dc.lft.to/lastmile_qr_scan", "ios": "https://dc.lft.to/lastmile_qr_scan"}, "name": "cb1c59cf903a1a44ceedbd02fe972e6c", "type": "electric_scooter", "lat": 38.9206445, "is_disabled": 0}, {"fusion_lat": 0.0, "lon": -76.99803216666666, "is_reserved": 0, "bike_id": "72f260927dae478679d5e06750f50a15", "fusion_lon": 0.0, "rental_uris": {"android": "https://dc.lft.to/lastmile_qr_scan", "ios": "https://dc.lft.to/lastmile_qr_scan"}, "name": "72f260927dae478679d5e06750f50a15", "type": "electric_scooter", "lat": 38.885673833333335, "is_disabled": 0}, {"fusion_lat": 0.0, "lon": -77.048177, "is_reserved": 0, "bike_id": "5ba88520fe8ce8b75db38f868279bf3f", "fusion_lon": 0.0, "rental_uris": {"android": "https://dc.lft.to/lastmile_qr_scan", "ios": "https://dc.lft.to/lastmile_qr_scan"}, "name": "5ba88520fe8ce8b75db38f868279bf3f", "type": "electric_scooter", "lat": 38.910466166666666, "is_disabled": 0}, {"fusion_lat": 0.0, "lon": -77.0418905, "is_reserved": 0, "bike_id": "98566e781d98615ee29c57b1b27cb692", "fusion_lon": 0.0, "rental_uris": {"android": "https://dc.lft.to/lastmile_qr_scan", "ios": "https://dc.lft.to/lastmile_qr_scan"}, "name": "98566e781d98615ee29c57b1b27cb692", "type": "electric_scooter", "lat": 38.91991866666667, "is_disabled": 0}, {"fusion_lat": 0.0, "lon": -77.00339466666667, "is_reserved": 0, "bike_id": "3f55c2e5aaf4ba14434fb3fe7e57cfda", "fusion_lon": 0.0, "rental_uris": {"android": "https://dc.lft.to/lastmile_qr_scan", "ios": "https://dc.lft.to/lastmile_qr_scan"}, "name": "3f55c2e5aaf4ba14434fb3fe7e57cfda", "type": "electric_scooter", "lat": 38.889899, "is_disabled": 0}, {"fusion_lat": 0.0, "lon": -77.03258033333333, "is_reserved": 0, "bike_id": "d6f95c130337799c34f244d0a6e3d24e", "fusion_lon": 0.0, "rental_uris": {"android": "https://dc.lft.to/lastmile_qr_scan", "ios": "https://dc.lft.to/lastmile_qr_scan"}, "name": "d6f95c130337799c34f244d0a6e3d24e", "type": "electric_scooter", "lat": 38.902748333333335, "is_disabled": 0}, {"fusion_lat": 0.0, "lon": -76.99574866666667, "is_reserved": 0, "bike_id": "062f8e7cd54bf8544bc93a5aaf9f52cb", "fusion_lon": 0.0, "rental_uris": {"android": "https://dc.lft.to/lastmile_qr_scan", "ios": "https://dc.lft.to/lastmile_qr_scan"}, "name": "062f8e7cd54bf8544bc93a5aaf9f52cb", "type": "electric_scooter", "lat": 38.88424783333333, "is_disabled": 0}, {"fusion_lat": 0.0, "lon": -77.019839, "is_reserved": 0, "bike_id": "429714485a739f053708875c4b92e33e", "fusion_lon": 0.0, "rental_uris": {"android": "https://dc.lft.to/lastmile_qr_scan", "ios": "https://dc.lft.to/lastmile_qr_scan"}, "name": "429714485a739f053708875c4b92e33e", "type": "electric_scooter", "lat": 38.89549366666667, "is_disabled": 0}, {"fusion_lat": 0.0, "lon": -77.006003, "is_reserved": 0, "bike_id": "4fa3a71733fb906f4001917be8ecee2b", "fusion_lon": 0.0, "rental_uris": {"android": "https://dc.lft.to/lastmile_qr_scan", "ios": "https://dc.lft.to/lastmile_qr_scan"}, "name": "4fa3a71733fb906f4001917be8ecee2b", "type": "electric_scooter", "lat": 38.87547683333333, "is_disabled": 0}, {"fusion_lat": 0.0, "lon": -77.003259, "is_reserved": 0, "bike_id": "a9870a8672fc14ab2d105b52877fda20", "fusion_lon": 0.0, "rental_uris": {"android": "https://dc.lft.to/lastmile_qr_scan", "ios": "https://dc.lft.to/lastmile_qr_scan"}, "name": "a9870a8672fc14ab2d105b52877fda20", "type": "electric_scooter", "lat": 38.902624, "is_disabled": 0}, {"fusion_lat": 0.0, "lon": -77.02052366666666, "is_reserved": 0, "bike_id": "d43eafcc6d7405e73889c69d9bc0295e", "fusion_lon": 0.0, "rental_uris": {"android": "https://dc.lft.to/lastmile_qr_scan", "ios": "https://dc.lft.to/lastmile_qr_scan"}, "name": "d43eafcc6d7405e73889c69d9bc0295e", "type": "electric_bike", "lat": 38.95760883333333, "is_disabled": 0}, {"fusion_lat": 0.0, "lon": -77.07611183333333, "is_reserved": 0, "bike_id": "53b787ff05236f550f70398e922b09db", "fusion_lon": 0.0, "rental_uris": {"android": "https://dc.lft.to/lastmile_qr_scan", "ios": "https://dc.lft.to/lastmile_qr_scan"}, "name": "53b787ff05236f550f70398e922b09db", "type": "electric_scooter", "lat": 38.9206265, "is_disabled": 0}, {"fusion_lat": 0.0, "lon": -77.016976, "is_reserved": 0, "bike_id": "da662bd66dbb86efcd25b63cf428140a", "fusion_lon": 0.0, "rental_uris": {"android": "https://dc.lft.to/lastmile_qr_scan", "ios": "https://dc.lft.to/lastmile_qr_scan"}, "name": "da662bd66dbb86efcd25b63cf428140a", "type": "electric_scooter", "lat": 38.97498383333333, "is_disabled": 0}, {"fusion_lat": 0.0, "lon": -77.0003545, "is_reserved": 0, "bike_id": "59026682b244e1e2dc66685f71e21942", "fusion_lon": 0.0, "rental_uris": {"android": "https://dc.lft.to/lastmile_qr_scan", "ios": "https://dc.lft.to/lastmile_qr_scan"}, "name": "59026682b244e1e2dc66685f71e21942", "type": "electric_scooter", "lat": 38.908027833333335, "is_disabled": 0}, {"fusion_lat": 0.0, "lon": -77.027418, "is_reserved": 0, "bike_id": "abc43b3c6e55130c9a749661a23167f5", "fusion_lon": 0.0, "rental_uris": {"android": "https://dc.lft.to/lastmile_qr_scan", "ios": "https://dc.lft.to/lastmile_qr_scan"}, "name": "abc43b3c6e55130c9a749661a23167f5", "type": "electric_scooter", "lat": 38.92385183333333, "is_disabled": 0}, {"fusion_lat": 0.0, "lon": -77.01354033333334, "is_reserved": 0, "bike_id": "44447c0b3c2e7c57090960779b66a307", "fusion_lon": 0.0, "rental_uris": {"android": "https://dc.lft.to/lastmile_qr_scan", "ios": "https://dc.lft.to/lastmile_qr_scan"}, "name": "44447c0b3c2e7c57090960779b66a307", "type": "electric_scooter", "lat": 38.86973733333333, "is_disabled": 0}, {"fusion_lat": 0.0, "lon": -77.03516016666667, "is_reserved": 0, "bike_id": "a6eb9e6d27114fe06495a5c1aa5154a9", "fusion_lon": 0.0, "rental_uris": {"android": "https://dc.lft.to/lastmile_qr_scan", "ios": "https://dc.lft.to/lastmile_qr_scan"}, "name": "a6eb9e6d27114fe06495a5c1aa5154a9", "type": "electric_scooter", "lat": 38.921571666666665, "is_disabled": 0}, {"fusion_lat": 0.0, "lon": -77.024357, "is_reserved": 0, "bike_id": "73311bfea86a5db49a22d9bdae985a24", "fusion_lon": 0.0, "rental_uris": {"android": "https://dc.lft.to/lastmile_qr_scan", "ios": "https://dc.lft.to/lastmile_qr_scan"}, "name": "73311bfea86a5db49a22d9bdae985a24", "type": "electric_scooter", "lat": 38.920452166666664, "is_disabled": 0}, {"fusion_lat": 0.0, "lon": -77.04875383333334, "is_reserved": 0, "bike_id": "b87e84686d9fa87f697ce0e59eb19dd6", "fusion_lon": 0.0, "rental_uris": {"android": "https://dc.lft.to/lastmile_qr_scan", "ios": "https://dc.lft.to/lastmile_qr_scan"}, "name": "b87e84686d9fa87f697ce0e59eb19dd6", "type": "electric_scooter", "lat": 38.909805666666664, "is_disabled": 0}, {"fusion_lat": 0.0, "lon": -77.02543216666666, "is_reserved": 0, "bike_id": "adcca387fcf1e19d92ecc3486560696b", "fusion_lon": 0.0, "rental_uris": {"android": "https://dc.lft.to/lastmile_qr_scan", "ios": "https://dc.lft.to/lastmile_qr_scan"}, "name": "adcca387fcf1e19d92ecc3486560696b", "type": "electric_scooter", "lat": 38.90720816666666, "is_disabled": 0}, {"fusion_lat": 0.0, "lon": -76.99548383333334, "is_reserved": 0, "bike_id": "db36741591020ce0d3bdcb3597c34206", "fusion_lon": 0.0, "rental_uris": {"android": "https://dc.lft.to/lastmile_qr_scan", "ios": "https://dc.lft.to/lastmile_qr_scan"}, "name": "db36741591020ce0d3bdcb3597c34206", "type": "electric_scooter", "lat": 38.86262583333333, "is_disabled": 0}, {"fusion_lat": 0.0, "lon": -76.931308, "is_reserved": 0, "bike_id": "8f7eb13b89b47a4d23232769c50fbfc0", "fusion_lon": 0.0, "rental_uris": {"android": "https://dc.lft.to/lastmile_qr_scan", "ios": "https://dc.lft.to/lastmile_qr_scan"}, "name": "8f7eb13b89b47a4d23232769c50fbfc0", "type": "electric_scooter", "lat": 38.876157, "is_disabled": 0}, {"fusion_lat": 0.0, "lon": -77.0236215, "is_reserved": 0, "bike_id": "4ca2bae2be0a9af35cc5ed946ac3857b", "fusion_lon": 0.0, "rental_uris": {"android": "https://dc.lft.to/lastmile_qr_scan", "ios": "https://dc.lft.to/lastmile_qr_scan"}, "name": "4ca2bae2be0a9af35cc5ed946ac3857b", "type": "electric_scooter", "lat": 38.89218133333333, "is_disabled": 0}, {"fusion_lat": 0.0, "lon": -77.0391525, "is_reserved": 0, "bike_id": "0f361bc7204ecb07898a7f0cabc5a1d1", "fusion_lon": 0.0, "rental_uris": {"android": "https://dc.lft.to/lastmile_qr_scan", "ios": "https://dc.lft.to/lastmile_qr_scan"}, "name": "0f361bc7204ecb07898a7f0cabc5a1d1", "type": "electric_scooter", "lat": 38.92316533333333, "is_disabled": 0}, {"fusion_lat": 0.0, "lon": -76.99544883333333, "is_reserved": 0, "bike_id": "067431748eb347878a11f8e6ddcfb8cc", "fusion_lon": 0.0, "rental_uris": {"android": "https://dc.lft.to/lastmile_qr_scan", "ios": "https://dc.lft.to/lastmile_qr_scan"}, "name": "067431748eb347878a11f8e6ddcfb8cc", "type": "electric_scooter", "lat": 38.92676266666667, "is_disabled": 0}, {"fusion_lat": 0.0, "lon": -77.01986616666667, "is_reserved": 0, "bike_id": "6d8d32578ee440afe57299be435bdb04", "fusion_lon": 0.0, "rental_uris": {"android": "https://dc.lft.to/lastmile_qr_scan", "ios": "https://dc.lft.to/lastmile_qr_scan"}, "name": "6d8d32578ee440afe57299be435bdb04", "type": "electric_scooter", "lat": 38.911044833333335, "is_disabled": 0}, {"fusion_lat": 0.0, "lon": -77.01974983333334, "is_reserved": 0, "bike_id": "fb1943cdedb5b2b898ff1dfd7423356e", "fusion_lon": 0.0, "rental_uris": {"android": "https://dc.lft.to/lastmile_qr_scan", "ios": "https://dc.lft.to/lastmile_qr_scan"}, "name": "fb1943cdedb5b2b898ff1dfd7423356e", "type": "electric_scooter", "lat": 38.912787, "is_disabled": 0}, {"fusion_lat": 0.0, "lon": -76.98094316666666, "is_reserved": 0, "bike_id": "a73d1508192db1632c071e1835cf5f3d", "fusion_lon": 0.0, "rental_uris": {"android": "https://dc.lft.to/lastmile_qr_scan", "ios": "https://dc.lft.to/lastmile_qr_scan"}, "name": "a73d1508192db1632c071e1835cf5f3d", "type": "electric_bike", "lat": 38.95360083333333, "is_disabled": 0}, {"fusion_lat": 0.0, "lon": -77.01032283333333, "is_reserved": 0, "bike_id": "b5a599a655dd0c81da25122e624875e6", "fusion_lon": 0.0, "rental_uris": {"android": "https://dc.lft.to/lastmile_qr_scan", "ios": "https://dc.lft.to/lastmile_qr_scan"}, "name": "b5a599a655dd0c81da25122e624875e6", "type": "electric_scooter", "lat": 38.919148666666665, "is_disabled": 0}, {"fusion_lat": 0.0, "lon": -77.02376916666667, "is_reserved": 0, "bike_id": "dda7715d29d3127fc4b922964734ed29", "fusion_lon": 0.0, "rental_uris": {"android": "https://dc.lft.to/lastmile_qr_scan", "ios": "https://dc.lft.to/lastmile_qr_scan"}, "name": "dda7715d29d3127fc4b922964734ed29", "type": "electric_scooter", "lat": 38.91998933333333, "is_disabled": 0}, {"fusion_lat": 0.0, "lon": -77.026133, "is_reserved": 0, "bike_id": "2daa0cd11d2f649a87727e539c06ae52", "fusion_lon": 0.0, "rental_uris": {"android": "https://dc.lft.to/lastmile_qr_scan", "ios": "https://dc.lft.to/lastmile_qr_scan"}, "name": "2daa0cd11d2f649a87727e539c06ae52", "type": "electric_scooter", "lat": 38.908665166666665, "is_disabled": 0}, {"fusion_lat": 0.0, "lon": -77.0313265, "is_reserved": 0, "bike_id": "44317c1aba73c56e7e6364fdf76fe696", "fusion_lon": 0.0, "rental_uris": {"android": "https://dc.lft.to/lastmile_qr_scan", "ios": "https://dc.lft.to/lastmile_qr_scan"}, "name": "44317c1aba73c56e7e6364fdf76fe696", "type": "electric_scooter", "lat": 38.92570283333333, "is_disabled": 0}, {"fusion_lat": 0.0, "lon": -77.0541645, "is_reserved": 0, "bike_id": "f075b6daf962655744b787e8175d2a5f", "fusion_lon": 0.0, "rental_uris": {"android": "https://dc.lft.to/lastmile_qr_scan", "ios": "https://dc.lft.to/lastmile_qr_scan"}, "name": "f075b6daf962655744b787e8175d2a5f", "type": "electric_scooter", "lat": 38.90239966666667, "is_disabled": 0}, {"fusion_lat": 0.0, "lon": -76.93371833333333, "is_reserved": 0, "bike_id": "9096a98b8af43e6086056aa189884638", "fusion_lon": 0.0, "rental_uris": {"android": "https://dc.lft.to/lastmile_qr_scan", "ios": "https://dc.lft.to/lastmile_qr_scan"}, "name": "9096a98b8af43e6086056aa189884638", "type": "electric_scooter", "lat": 38.899156, "is_disabled": 0}, {"fusion_lat": 0.0, "lon": -76.99478883333333, "is_reserved": 0, "bike_id": "cd61bb882cbc19b9bb5ca7ff9a998b00", "fusion_lon": 0.0, "rental_uris": {"android": "https://dc.lft.to/lastmile_qr_scan", "ios": "https://dc.lft.to/lastmile_qr_scan"}, "name": "cd61bb882cbc19b9bb5ca7ff9a998b00", "type": "electric_scooter", "lat": 38.8621565, "is_disabled": 0}, {"fusion_lat": 0.0, "lon": -76.98838916666666, "is_reserved": 0, "bike_id": "c5d925a48a0e479578bf693f8b1fd859", "fusion_lon": 0.0, "rental_uris": {"android": "https://dc.lft.to/lastmile_qr_scan", "ios": "https://dc.lft.to/lastmile_qr_scan"}, "name": "c5d925a48a0e479578bf693f8b1fd859", "type": "electric_scooter", "lat": 38.892563333333335, "is_disabled": 0}, {"fusion_lat": 0.0, "lon": -77.04183716666667, "is_reserved": 0, "bike_id": "d6b8be2cc3e0e0776435222049f79933", "fusion_lon": 0.0, "rental_uris": {"android": "https://dc.lft.to/lastmile_qr_scan", "ios": "https://dc.lft.to/lastmile_qr_scan"}, "name": "d6b8be2cc3e0e0776435222049f79933", "type": "electric_scooter", "lat": 38.92624683333333, "is_disabled": 0}, {"fusion_lat": 0.0, "lon": -77.0219, "is_reserved": 0, "bike_id": "30b841f3a5a155fc54151cde6dd63b26", "fusion_lon": 0.0, "rental_uris": {"android": "https://dc.lft.to/lastmile_qr_scan", "ios": "https://dc.lft.to/lastmile_qr_scan"}, "name": "30b841f3a5a155fc54151cde6dd63b26", "type": "electric_scooter", "lat": 38.922734, "is_disabled": 0}, {"fusion_lat": 0.0, "lon": -77.0356365, "is_reserved": 0, "bike_id": "6f01479eeba9c34361b5e066c6045654", "fusion_lon": 0.0, "rental_uris": {"android": "https://dc.lft.to/lastmile_qr_scan", "ios": "https://dc.lft.to/lastmile_qr_scan"}, "name": "6f01479eeba9c34361b5e066c6045654", "type": "electric_scooter", "lat": 38.91718766666666, "is_disabled": 0}, {"fusion_lat": 0.0, "lon": -76.91165483333333, "is_reserved": 0, "bike_id": "8aeba1b716a8e70ea020ab2a56ef74fd", "fusion_lon": 0.0, "rental_uris": {"android": "https://dc.lft.to/lastmile_qr_scan", "ios": "https://dc.lft.to/lastmile_qr_scan"}, "name": "8aeba1b716a8e70ea020ab2a56ef74fd", "type": "electric_scooter", "lat": 38.89410433333333, "is_disabled": 0}, {"fusion_lat": 0.0, "lon": -77.022943, "is_reserved": 0, "bike_id": "52eb80c1108734eae98870566d18e223", "fusion_lon": 0.0, "rental_uris": {"android": "https://dc.lft.to/lastmile_qr_scan", "ios": "https://dc.lft.to/lastmile_qr_scan"}, "name": "52eb80c1108734eae98870566d18e223", "type": "electric_scooter", "lat": 38.9179325, "is_disabled": 0}, {"fusion_lat": 0.0, "lon": -77.01993983333334, "is_reserved": 0, "bike_id": "da0719679ec00681f10acfb7b4163065", "fusion_lon": 0.0, "rental_uris": {"android": "https://dc.lft.to/lastmile_qr_scan", "ios": "https://dc.lft.to/lastmile_qr_scan"}, "name": "da0719679ec00681f10acfb7b4163065", "type": "electric_scooter", "lat": 38.913681833333335, "is_disabled": 0}, {"fusion_lat": 0.0, "lon": -77.02380783333334, "is_reserved": 0, "bike_id": "0682bd35286909790e72330eebdc4cbd", "fusion_lon": 0.0, "rental_uris": {"android": "https://dc.lft.to/lastmile_qr_scan", "ios": "https://dc.lft.to/lastmile_qr_scan"}, "name": "0682bd35286909790e72330eebdc4cbd", "type": "electric_scooter", "lat": 38.90953566666666, "is_disabled": 0}, {"fusion_lat": 0.0, "lon": -77.06354433333334, "is_reserved": 0, "bike_id": "adbba3f247a71c5e8cf38ae11be172ea", "fusion_lon": 0.0, "rental_uris": {"android": "https://dc.lft.to/lastmile_qr_scan", "ios": "https://dc.lft.to/lastmile_qr_scan"}, "name": "adbba3f247a71c5e8cf38ae11be172ea", "type": "electric_scooter", "lat": 38.906844, "is_disabled": 0}, {"fusion_lat": 0.0, "lon": -77.04251316666667, "is_reserved": 0, "bike_id": "389ae3feaff7a19d20d9d59dd86d761d", "fusion_lon": 0.0, "rental_uris": {"android": "https://dc.lft.to/lastmile_qr_scan", "ios": "https://dc.lft.to/lastmile_qr_scan"}, "name": "389ae3feaff7a19d20d9d59dd86d761d", "type": "electric_scooter", "lat": 38.92249433333333, "is_disabled": 0}, {"fusion_lat": 0.0, "lon": -77.03629, "is_reserved": 0, "bike_id": "c0fc4bd7ea58df83863b4ffd14627e22", "fusion_lon": 0.0, "rental_uris": {"android": "https://dc.lft.to/lastmile_qr_scan", "ios": "https://dc.lft.to/lastmile_qr_scan"}, "name": "c0fc4bd7ea58df83863b4ffd14627e22", "type": "electric_scooter", "lat": 38.906820833333335, "is_disabled": 0}, {"fusion_lat": 0.0, "lon": -76.99848716666666, "is_reserved": 0, "bike_id": "c2c287388eeb26374e9a56c076ca1a1c", "fusion_lon": 0.0, "rental_uris": {"android": "https://dc.lft.to/lastmile_qr_scan", "ios": "https://dc.lft.to/lastmile_qr_scan"}, "name": "c2c287388eeb26374e9a56c076ca1a1c", "type": "electric_scooter", "lat": 38.8874375, "is_disabled": 0}, {"fusion_lat": 0.0, "lon": -76.9809075, "is_reserved": 0, "bike_id": "100ee788d623dac8140444b329bc05bd", "fusion_lon": 0.0, "rental_uris": {"android": "https://dc.lft.to/lastmile_qr_scan", "ios": "https://dc.lft.to/lastmile_qr_scan"}, "name": "100ee788d623dac8140444b329bc05bd", "type": "electric_bike", "lat": 38.8813705, "is_disabled": 0}, {"fusion_lat": 0.0, "lon": -76.95191083333333, "is_reserved": 0, "bike_id": "3320a1bcb2b87a5909bdad608c57a794", "fusion_lon": 0.0, "rental_uris": {"android": "https://dc.lft.to/lastmile_qr_scan", "ios": "https://dc.lft.to/lastmile_qr_scan"}, "name": "3320a1bcb2b87a5909bdad608c57a794", "type": "electric_scooter", "lat": 38.89999483333333, "is_disabled": 0}, {"fusion_lat": 0.0, "lon": -77.0238125, "is_reserved": 0, "bike_id": "3dfa87c418ffc4ce650797ab6215fec6", "fusion_lon": 0.0, "rental_uris": {"android": "https://dc.lft.to/lastmile_qr_scan", "ios": "https://dc.lft.to/lastmile_qr_scan"}, "name": "3dfa87c418ffc4ce650797ab6215fec6", "type": "electric_scooter", "lat": 38.918222666666665, "is_disabled": 0}, {"fusion_lat": 0.0, "lon": -76.993712, "is_reserved": 0, "bike_id": "055f2e095dcfa1b0a30d1ef09743545b", "fusion_lon": 0.0, "rental_uris": {"android": "https://dc.lft.to/lastmile_qr_scan", "ios": "https://dc.lft.to/lastmile_qr_scan"}, "name": "055f2e095dcfa1b0a30d1ef09743545b", "type": "electric_scooter", "lat": 38.88345566666667, "is_disabled": 0}, {"fusion_lat": 0.0, "lon": -77.03813683333334, "is_reserved": 0, "bike_id": "389f3bc146a6c9716bd589d4d7ed2827", "fusion_lon": 0.0, "rental_uris": {"android": "https://dc.lft.to/lastmile_qr_scan", "ios": "https://dc.lft.to/lastmile_qr_scan"}, "name": "389f3bc146a6c9716bd589d4d7ed2827", "type": "electric_scooter", "lat": 38.909751, "is_disabled": 0}, {"fusion_lat": 0.0, "lon": -77.02313766666667, "is_reserved": 0, "bike_id": "f561cf9d0f5f5a823a519eca9c4f3536", "fusion_lon": 0.0, "rental_uris": {"android": "https://dc.lft.to/lastmile_qr_scan", "ios": "https://dc.lft.to/lastmile_qr_scan"}, "name": "f561cf9d0f5f5a823a519eca9c4f3536", "type": "electric_scooter", "lat": 38.917927166666665, "is_disabled": 0}, {"fusion_lat": 0.0, "lon": -77.01815583333334, "is_reserved": 0, "bike_id": "743f18c1c5eea196a2a177bce2af12c0", "fusion_lon": 0.0, "rental_uris": {"android": "https://dc.lft.to/lastmile_qr_scan", "ios": "https://dc.lft.to/lastmile_qr_scan"}, "name": "743f18c1c5eea196a2a177bce2af12c0", "type": "electric_scooter", "lat": 38.92368616666667, "is_disabled": 0}, {"fusion_lat": 0.0, "lon": -77.07235433333334, "is_reserved": 0, "bike_id": "e6b3c3c21226c088edde2688ad1c96fa", "fusion_lon": 0.0, "rental_uris": {"android": "https://dc.lft.to/lastmile_qr_scan", "ios": "https://dc.lft.to/lastmile_qr_scan"}, "name": "e6b3c3c21226c088edde2688ad1c96fa", "type": "electric_scooter", "lat": 38.959734, "is_disabled": 0}, {"fusion_lat": 0.0, "lon": -77.03792183333333, "is_reserved": 0, "bike_id": "6cfaf86b2bd5d3046e7ebe8a960330cf", "fusion_lon": 0.0, "rental_uris": {"android": "https://dc.lft.to/lastmile_qr_scan", "ios": "https://dc.lft.to/lastmile_qr_scan"}, "name": "6cfaf86b2bd5d3046e7ebe8a960330cf", "type": "electric_scooter", "lat": 38.925084, "is_disabled": 0}, {"fusion_lat": 0.0, "lon": -77.02385833333334, "is_reserved": 0, "bike_id": "a825e754f2dc0eecb7df8335a05d20d6", "fusion_lon": 0.0, "rental_uris": {"android": "https://dc.lft.to/lastmile_qr_scan", "ios": "https://dc.lft.to/lastmile_qr_scan"}, "name": "a825e754f2dc0eecb7df8335a05d20d6", "type": "electric_scooter", "lat": 38.92911183333333, "is_disabled": 0}, {"fusion_lat": 0.0, "lon": -77.03830233333333, "is_reserved": 0, "bike_id": "5cc8a668939d4239671068020ba3b7cf", "fusion_lon": 0.0, "rental_uris": {"android": "https://dc.lft.to/lastmile_qr_scan", "ios": "https://dc.lft.to/lastmile_qr_scan"}, "name": "5cc8a668939d4239671068020ba3b7cf", "type": "electric_scooter", "lat": 38.91122566666667, "is_disabled": 0}, {"fusion_lat": 0.0, "lon": -77.006059, "is_reserved": 0, "bike_id": "70026dd350db16710ae7cfb459e63210", "fusion_lon": 0.0, "rental_uris": {"android": "https://dc.lft.to/lastmile_qr_scan", "ios": "https://dc.lft.to/lastmile_qr_scan"}, "name": "70026dd350db16710ae7cfb459e63210", "type": "electric_scooter", "lat": 38.87551233333333, "is_disabled": 0}, {"fusion_lat": 0.0, "lon": -77.04543333333334, "is_reserved": 0, "bike_id": "bdf826e25f737b001127cbe7c5587ae5", "fusion_lon": 0.0, "rental_uris": {"android": "https://dc.lft.to/lastmile_qr_scan", "ios": "https://dc.lft.to/lastmile_qr_scan"}, "name": "bdf826e25f737b001127cbe7c5587ae5", "type": "electric_scooter", "lat": 38.90966566666667, "is_disabled": 0}, {"fusion_lat": 0.0, "lon": -76.9845915, "is_reserved": 0, "bike_id": "619969d03cb38ae44f169dec3c225ff5", "fusion_lon": 0.0, "rental_uris": {"android": "https://dc.lft.to/lastmile_qr_scan", "ios": "https://dc.lft.to/lastmile_qr_scan"}, "name": "619969d03cb38ae44f169dec3c225ff5", "type": "electric_scooter", "lat": 38.900396, "is_disabled": 0}, {"fusion_lat": 0.0, "lon": -77.0510555, "is_reserved": 0, "bike_id": "07abc249c3a7d177c13e273d21fb7fd1", "fusion_lon": 0.0, "rental_uris": {"android": "https://dc.lft.to/lastmile_qr_scan", "ios": "https://dc.lft.to/lastmile_qr_scan"}, "name": "07abc249c3a7d177c13e273d21fb7fd1", "type": "electric_scooter", "lat": 38.8976635, "is_disabled": 0}, {"fusion_lat": 0.0, "lon": -77.03859, "is_reserved": 0, "bike_id": "cfbcf99ae7160f4e356ffb58bffe93b5", "fusion_lon": 0.0, "rental_uris": {"android": "https://dc.lft.to/lastmile_qr_scan", "ios": "https://dc.lft.to/lastmile_qr_scan"}, "name": "cfbcf99ae7160f4e356ffb58bffe93b5", "type": "electric_scooter", "lat": 38.906615, "is_disabled": 0}, {"fusion_lat": 0.0, "lon": -77.00071116666666, "is_reserved": 0, "bike_id": "25e7497eeb0b8fb8acb7613e1ac787c8", "fusion_lon": 0.0, "rental_uris": {"android": "https://dc.lft.to/lastmile_qr_scan", "ios": "https://dc.lft.to/lastmile_qr_scan"}, "name": "25e7497eeb0b8fb8acb7613e1ac787c8", "type": "electric_scooter", "lat": 38.900499333333336, "is_disabled": 0}, {"fusion_lat": 0.0, "lon": -77.03172983333333, "is_reserved": 0, "bike_id": "687ed8d6ec3d1ba5ea8c3b15a21a2446", "fusion_lon": 0.0, "rental_uris": {"android": "https://dc.lft.to/lastmile_qr_scan", "ios": "https://dc.lft.to/lastmile_qr_scan"}, "name": "687ed8d6ec3d1ba5ea8c3b15a21a2446", "type": "electric_scooter", "lat": 38.915522, "is_disabled": 0}, {"fusion_lat": 0.0, "lon": -77.044278, "is_reserved": 0, "bike_id": "ad91ffe4df30976417fdd1c78ab54c2f", "fusion_lon": 0.0, "rental_uris": {"android": "https://dc.lft.to/lastmile_qr_scan", "ios": "https://dc.lft.to/lastmile_qr_scan"}, "name": "ad91ffe4df30976417fdd1c78ab54c2f", "type": "electric_scooter", "lat": 38.913639833333335, "is_disabled": 0}, {"fusion_lat": 0.0, "lon": -77.01258216666666, "is_reserved": 0, "bike_id": "15329cf516c8342f606c1edaabfdbeae", "fusion_lon": 0.0, "rental_uris": {"android": "https://dc.lft.to/lastmile_qr_scan", "ios": "https://dc.lft.to/lastmile_qr_scan"}, "name": "15329cf516c8342f606c1edaabfdbeae", "type": "electric_scooter", "lat": 38.908482166666666, "is_disabled": 0}, {"fusion_lat": 0.0, "lon": -77.001881, "is_reserved": 0, "bike_id": "398b1f3815109d589f2f40eec41e4f32", "fusion_lon": 0.0, "rental_uris": {"android": "https://dc.lft.to/lastmile_qr_scan", "ios": "https://dc.lft.to/lastmile_qr_scan"}, "name": "398b1f3815109d589f2f40eec41e4f32", "type": "electric_scooter", "lat": 38.903811, "is_disabled": 0}, {"fusion_lat": 0.0, "lon": -77.07271983333334, "is_reserved": 0, "bike_id": "af99687ffafe957ec163c76d0cb68659", "fusion_lon": 0.0, "rental_uris": {"android": "https://dc.lft.to/lastmile_qr_scan", "ios": "https://dc.lft.to/lastmile_qr_scan"}, "name": "af99687ffafe957ec163c76d0cb68659", "type": "electric_scooter", "lat": 38.93489016666667, "is_disabled": 0}, {"fusion_lat": 0.0, "lon": -77.0294055, "is_reserved": 0, "bike_id": "470b797acae4c90c5e0a6291cf8d8840", "fusion_lon": 0.0, "rental_uris": {"android": "https://dc.lft.to/lastmile_qr_scan", "ios": "https://dc.lft.to/lastmile_qr_scan"}, "name": "470b797acae4c90c5e0a6291cf8d8840", "type": "electric_scooter", "lat": 38.932581166666665, "is_disabled": 0}, {"fusion_lat": 0.0, "lon": -77.036553, "is_reserved": 0, "bike_id": "b6b386bd25b716642a13e5759b244a4e", "fusion_lon": 0.0, "rental_uris": {"android": "https://dc.lft.to/lastmile_qr_scan", "ios": "https://dc.lft.to/lastmile_qr_scan"}, "name": "b6b386bd25b716642a13e5759b244a4e", "type": "electric_scooter", "lat": 38.9229925, "is_disabled": 0}, {"fusion_lat": 0.0, "lon": -77.02783066666667, "is_reserved": 0, "bike_id": "c895495affc377df84d9354358f04fdd", "fusion_lon": 0.0, "rental_uris": {"android": "https://dc.lft.to/lastmile_qr_scan", "ios": "https://dc.lft.to/lastmile_qr_scan"}, "name": "c895495affc377df84d9354358f04fdd", "type": "electric_scooter", "lat": 38.92759683333333, "is_disabled": 0}, {"fusion_lat": 0.0, "lon": -77.014193, "is_reserved": 0, "bike_id": "27f970a55ae1f9e150c8bc40b8f5c597", "fusion_lon": 0.0, "rental_uris": {"android": "https://dc.lft.to/lastmile_qr_scan", "ios": "https://dc.lft.to/lastmile_qr_scan"}, "name": "27f970a55ae1f9e150c8bc40b8f5c597", "type": "electric_scooter", "lat": 38.92844983333333, "is_disabled": 0}, {"fusion_lat": 0.0, "lon": -77.002051, "is_reserved": 0, "bike_id": "490f5d75e430ff47fd11029fa16127f8", "fusion_lon": 0.0, "rental_uris": {"android": "https://dc.lft.to/lastmile_qr_scan", "ios": "https://dc.lft.to/lastmile_qr_scan"}, "name": "490f5d75e430ff47fd11029fa16127f8", "type": "electric_scooter", "lat": 38.900465833333335, "is_disabled": 0}, {"fusion_lat": 0.0, "lon": -77.04659716666667, "is_reserved": 0, "bike_id": "99ec5d6c91817974dc4b3ef2022395a0", "fusion_lon": 0.0, "rental_uris": {"android": "https://dc.lft.to/lastmile_qr_scan", "ios": "https://dc.lft.to/lastmile_qr_scan"}, "name": "99ec5d6c91817974dc4b3ef2022395a0", "type": "electric_scooter", "lat": 38.912730333333336, "is_disabled": 0}, {"fusion_lat": 0.0, "lon": -77.04677433333333, "is_reserved": 0, "bike_id": "2388eec2ae22720da9c24a8dfd75fd2e", "fusion_lon": 0.0, "rental_uris": {"android": "https://dc.lft.to/lastmile_qr_scan", "ios": "https://dc.lft.to/lastmile_qr_scan"}, "name": "2388eec2ae22720da9c24a8dfd75fd2e", "type": "electric_scooter", "lat": 38.90347916666666, "is_disabled": 0}, {"fusion_lat": 0.0, "lon": -77.0429755, "is_reserved": 0, "bike_id": "24beffd93f231c4d65765a18c4765f85", "fusion_lon": 0.0, "rental_uris": {"android": "https://dc.lft.to/lastmile_qr_scan", "ios": "https://dc.lft.to/lastmile_qr_scan"}, "name": "24beffd93f231c4d65765a18c4765f85", "type": "electric_scooter", "lat": 38.923165166666664, "is_disabled": 0}, {"fusion_lat": 0.0, "lon": -77.00268683333333, "is_reserved": 0, "bike_id": "75377e19a7aab28b2906d5f9172fc43d", "fusion_lon": 0.0, "rental_uris": {"android": "https://dc.lft.to/lastmile_qr_scan", "ios": "https://dc.lft.to/lastmile_qr_scan"}, "name": "75377e19a7aab28b2906d5f9172fc43d", "type": "electric_bike", "lat": 38.91173333333333, "is_disabled": 0}, {"fusion_lat": 0.0, "lon": -76.92997683333333, "is_reserved": 0, "bike_id": "83d3933cfa30591497de5e1e5e444527", "fusion_lon": 0.0, "rental_uris": {"android": "https://dc.lft.to/lastmile_qr_scan", "ios": "https://dc.lft.to/lastmile_qr_scan"}, "name": "83d3933cfa30591497de5e1e5e444527", "type": "electric_scooter", "lat": 38.9018725, "is_disabled": 0}, {"fusion_lat": 0.0, "lon": -77.031757, "is_reserved": 0, "bike_id": "e4100aced7b36a75587b9e7a09b472d3", "fusion_lon": 0.0, "rental_uris": {"android": "https://dc.lft.to/lastmile_qr_scan", "ios": "https://dc.lft.to/lastmile_qr_scan"}, "name": "e4100aced7b36a75587b9e7a09b472d3", "type": "electric_scooter", "lat": 38.91967283333334, "is_disabled": 0}, {"fusion_lat": 0.0, "lon": -77.00112833333333, "is_reserved": 0, "bike_id": "83ba43ccfc4b2fd5c2d32f6437573800", "fusion_lon": 0.0, "rental_uris": {"android": "https://dc.lft.to/lastmile_qr_scan", "ios": "https://dc.lft.to/lastmile_qr_scan"}, "name": "83ba43ccfc4b2fd5c2d32f6437573800", "type": "electric_scooter", "lat": 38.9170805, "is_disabled": 0}, {"fusion_lat": 0.0, "lon": -77.10910683333333, "is_reserved": 0, "bike_id": "e1e050d6e1ef5e0a6ad5137558f4ab3e", "fusion_lon": 0.0, "rental_uris": {"android": "https://dc.lft.to/lastmile_qr_scan", "ios": "https://dc.lft.to/lastmile_qr_scan"}, "name": "e1e050d6e1ef5e0a6ad5137558f4ab3e", "type": "electric_bike", "lat": 39.0520505, "is_disabled": 0}, {"fusion_lat": 0.0, "lon": -77.02833833333334, "is_reserved": 0, "bike_id": "5a96bff26002b0e5b304abdd2c7d35ac", "fusion_lon": 0.0, "rental_uris": {"android": "https://dc.lft.to/lastmile_qr_scan", "ios": "https://dc.lft.to/lastmile_qr_scan"}, "name": "5a96bff26002b0e5b304abdd2c7d35ac", "type": "electric_scooter", "lat": 38.924764, "is_disabled": 0}, {"fusion_lat": 0.0, "lon": -77.05814333333333, "is_reserved": 0, "bike_id": "d1cdc2327cc0de8d31ea4ae06f9c0f47", "fusion_lon": 0.0, "rental_uris": {"android": "https://dc.lft.to/lastmile_qr_scan", "ios": "https://dc.lft.to/lastmile_qr_scan"}, "name": "d1cdc2327cc0de8d31ea4ae06f9c0f47", "type": "electric_scooter", "lat": 38.935308, "is_disabled": 0}, {"fusion_lat": 0.0, "lon": -77.03639833333334, "is_reserved": 0, "bike_id": "86fbcf02777c6e9146fb8871ed246b78", "fusion_lon": 0.0, "rental_uris": {"android": "https://dc.lft.to/lastmile_qr_scan", "ios": "https://dc.lft.to/lastmile_qr_scan"}, "name": "86fbcf02777c6e9146fb8871ed246b78", "type": "electric_scooter", "lat": 38.9226625, "is_disabled": 0}, {"fusion_lat": 0.0, "lon": -77.01207466666666, "is_reserved": 0, "bike_id": "969d52cd3a109a2827f4bce462054f54", "fusion_lon": 0.0, "rental_uris": {"android": "https://dc.lft.to/lastmile_qr_scan", "ios": "https://dc.lft.to/lastmile_qr_scan"}, "name": "969d52cd3a109a2827f4bce462054f54", "type": "electric_scooter", "lat": 38.92125016666667, "is_disabled": 0}, {"fusion_lat": 0.0, "lon": -76.99789833333334, "is_reserved": 0, "bike_id": "55128ab7b12114b6f005d787097d5b10", "fusion_lon": 0.0, "rental_uris": {"android": "https://dc.lft.to/lastmile_qr_scan", "ios": "https://dc.lft.to/lastmile_qr_scan"}, "name": "55128ab7b12114b6f005d787097d5b10", "type": "electric_scooter", "lat": 38.89092616666667, "is_disabled": 0}, {"fusion_lat": 0.0, "lon": -76.9946675, "is_reserved": 0, "bike_id": "0d58d6a2fe10d967304dd1ebf811bad9", "fusion_lon": 0.0, "rental_uris": {"android": "https://dc.lft.to/lastmile_qr_scan", "ios": "https://dc.lft.to/lastmile_qr_scan"}, "name": "0d58d6a2fe10d967304dd1ebf811bad9", "type": "electric_scooter", "lat": 38.86227183333333, "is_disabled": 0}, {"fusion_lat": 0.0, "lon": -76.996451, "is_reserved": 0, "bike_id": "19550545af1989ce0a9cb18318dffbe8", "fusion_lon": 0.0, "rental_uris": {"android": "https://dc.lft.to/lastmile_qr_scan", "ios": "https://dc.lft.to/lastmile_qr_scan"}, "name": "19550545af1989ce0a9cb18318dffbe8", "type": "electric_scooter", "lat": 38.887207833333335, "is_disabled": 0}, {"fusion_lat": 0.0, "lon": -77.0005055, "is_reserved": 0, "bike_id": "dd98dcee8495c5359ab7d619e0119b6a", "fusion_lon": 0.0, "rental_uris": {"android": "https://dc.lft.to/lastmile_qr_scan", "ios": "https://dc.lft.to/lastmile_qr_scan"}, "name": "dd98dcee8495c5359ab7d619e0119b6a", "type": "electric_scooter", "lat": 38.89162683333333, "is_disabled": 0}, {"fusion_lat": 0.0, "lon": -76.993509, "is_reserved": 0, "bike_id": "2b1ea224b8e5ead1edbd172db042d337", "fusion_lon": 0.0, "rental_uris": {"android": "https://dc.lft.to/lastmile_qr_scan", "ios": "https://dc.lft.to/lastmile_qr_scan"}, "name": "2b1ea224b8e5ead1edbd172db042d337", "type": "electric_scooter", "lat": 38.91484466666667, "is_disabled": 0}, {"fusion_lat": 0.0, "lon": -77.04336483333333, "is_reserved": 0, "bike_id": "6aaa70e74ec124753e2f2c3af11f0d59", "fusion_lon": 0.0, "rental_uris": {"android": "https://dc.lft.to/lastmile_qr_scan", "ios": "https://dc.lft.to/lastmile_qr_scan"}, "name": "6aaa70e74ec124753e2f2c3af11f0d59", "type": "electric_scooter", "lat": 38.905978833333336, "is_disabled": 0}, {"fusion_lat": 0.0, "lon": -77.0517075, "is_reserved": 0, "bike_id": "b23ce1aaa8cfcf33f620c3fb8b54b16a", "fusion_lon": 0.0, "rental_uris": {"android": "https://dc.lft.to/lastmile_qr_scan", "ios": "https://dc.lft.to/lastmile_qr_scan"}, "name": "b23ce1aaa8cfcf33f620c3fb8b54b16a", "type": "electric_scooter", "lat": 38.924086833333334, "is_disabled": 0}, {"fusion_lat": 0.0, "lon": -77.00565, "is_reserved": 0, "bike_id": "190ca01866d3e598e7237ce48dce09a0", "fusion_lon": 0.0, "rental_uris": {"android": "https://dc.lft.to/lastmile_qr_scan", "ios": "https://dc.lft.to/lastmile_qr_scan"}, "name": "190ca01866d3e598e7237ce48dce09a0", "type": "electric_scooter", "lat": 38.900365666666666, "is_disabled": 0}, {"fusion_lat": 0.0, "lon": -77.01961483333334, "is_reserved": 0, "bike_id": "d9927db1ae92506eae63cf52a97e3ed0", "fusion_lon": 0.0, "rental_uris": {"android": "https://dc.lft.to/lastmile_qr_scan", "ios": "https://dc.lft.to/lastmile_qr_scan"}, "name": "d9927db1ae92506eae63cf52a97e3ed0", "type": "electric_scooter", "lat": 38.919929833333335, "is_disabled": 0}, {"fusion_lat": 0.0, "lon": -76.98105316666667, "is_reserved": 0, "bike_id": "b798c7c055f9f05c61aa1befb263a36a", "fusion_lon": 0.0, "rental_uris": {"android": "https://dc.lft.to/lastmile_qr_scan", "ios": "https://dc.lft.to/lastmile_qr_scan"}, "name": "b798c7c055f9f05c61aa1befb263a36a", "type": "electric_bike", "lat": 38.877308166666666, "is_disabled": 0}, {"fusion_lat": 0.0, "lon": -77.03532616666666, "is_reserved": 0, "bike_id": "31955937af0ff4c1564cb16d382e68d0", "fusion_lon": 0.0, "rental_uris": {"android": "https://dc.lft.to/lastmile_qr_scan", "ios": "https://dc.lft.to/lastmile_qr_scan"}, "name": "31955937af0ff4c1564cb16d382e68d0", "type": "electric_scooter", "lat": 38.91877616666667, "is_disabled": 0}, {"fusion_lat": 0.0, "lon": -77.02650066666666, "is_reserved": 0, "bike_id": "4a6a97ba7fa3280b2a1ddf2a903793d0", "fusion_lon": 0.0, "rental_uris": {"android": "https://dc.lft.to/lastmile_qr_scan", "ios": "https://dc.lft.to/lastmile_qr_scan"}, "name": "4a6a97ba7fa3280b2a1ddf2a903793d0", "type": "electric_scooter", "lat": 38.938661333333336, "is_disabled": 0}, {"fusion_lat": 0.0, "lon": -77.04028833333334, "is_reserved": 0, "bike_id": "2ad9d9dc92bf81bf41ea96fad9869b7c", "fusion_lon": 0.0, "rental_uris": {"android": "https://dc.lft.to/lastmile_qr_scan", "ios": "https://dc.lft.to/lastmile_qr_scan"}, "name": "2ad9d9dc92bf81bf41ea96fad9869b7c", "type": "electric_scooter", "lat": 38.9171255, "is_disabled": 0}, {"fusion_lat": 0.0, "lon": -77.07576983333334, "is_reserved": 0, "bike_id": "9ebc7eb40dcaabfae360f88ba5bad3ae", "fusion_lon": 0.0, "rental_uris": {"android": "https://dc.lft.to/lastmile_qr_scan", "ios": "https://dc.lft.to/lastmile_qr_scan"}, "name": "9ebc7eb40dcaabfae360f88ba5bad3ae", "type": "electric_scooter", "lat": 38.938643166666665, "is_disabled": 0}, {"fusion_lat": 0.0, "lon": -76.98552416666666, "is_reserved": 0, "bike_id": "4ff0327a7b8a5cef65492ee273a9b63e", "fusion_lon": 0.0, "rental_uris": {"android": "https://dc.lft.to/lastmile_qr_scan", "ios": "https://dc.lft.to/lastmile_qr_scan"}, "name": "4ff0327a7b8a5cef65492ee273a9b63e", "type": "electric_scooter", "lat": 38.910354166666664, "is_disabled": 0}, {"fusion_lat": 0.0, "lon": -77.01591816666667, "is_reserved": 0, "bike_id": "8f0d815a49c00cd1f941091876181703", "fusion_lon": 0.0, "rental_uris": {"android": "https://dc.lft.to/lastmile_qr_scan", "ios": "https://dc.lft.to/lastmile_qr_scan"}, "name": "8f0d815a49c00cd1f941091876181703", "type": "electric_scooter", "lat": 38.9494105, "is_disabled": 0}, {"fusion_lat": 0.0, "lon": -77.03448333333333, "is_reserved": 0, "bike_id": "5efcbe7a475cbc3562d57d6f1b850152", "fusion_lon": 0.0, "rental_uris": {"android": "https://dc.lft.to/lastmile_qr_scan", "ios": "https://dc.lft.to/lastmile_qr_scan"}, "name": "5efcbe7a475cbc3562d57d6f1b850152", "type": "electric_scooter", "lat": 38.910094, "is_disabled": 0}, {"fusion_lat": 0.0, "lon": -77.03606916666666, "is_reserved": 0, "bike_id": "d5aeb19a3ccbb49e86f894571a9e2659", "fusion_lon": 0.0, "rental_uris": {"android": "https://dc.lft.to/lastmile_qr_scan", "ios": "https://dc.lft.to/lastmile_qr_scan"}, "name": "d5aeb19a3ccbb49e86f894571a9e2659", "type": "electric_scooter", "lat": 38.9232905, "is_disabled": 0}, {"fusion_lat": 0.0, "lon": -77.05252866666666, "is_reserved": 0, "bike_id": "501345c7ea34cf003132f0038510b96e", "fusion_lon": 0.0, "rental_uris": {"android": "https://dc.lft.to/lastmile_qr_scan", "ios": "https://dc.lft.to/lastmile_qr_scan"}, "name": "501345c7ea34cf003132f0038510b96e", "type": "electric_scooter", "lat": 38.923761166666665, "is_disabled": 0}, {"fusion_lat": 0.0, "lon": -76.98781733333334, "is_reserved": 0, "bike_id": "b3cfe0639c241a0368be8327db32ce4f", "fusion_lon": 0.0, "rental_uris": {"android": "https://dc.lft.to/lastmile_qr_scan", "ios": "https://dc.lft.to/lastmile_qr_scan"}, "name": "b3cfe0639c241a0368be8327db32ce4f", "type": "electric_scooter", "lat": 38.903003, "is_disabled": 0}, {"fusion_lat": 0.0, "lon": -77.02536283333333, "is_reserved": 0, "bike_id": "9dbcf1a303402d076d48742f0a7f849d", "fusion_lon": 0.0, "rental_uris": {"android": "https://dc.lft.to/lastmile_qr_scan", "ios": "https://dc.lft.to/lastmile_qr_scan"}, "name": "9dbcf1a303402d076d48742f0a7f849d", "type": "electric_scooter", "lat": 38.927491333333336, "is_disabled": 0}, {"fusion_lat": 0.0, "lon": -76.99503333333334, "is_reserved": 0, "bike_id": "12ff28e63bcdac6b2b11750d8c1510b5", "fusion_lon": 0.0, "rental_uris": {"android": "https://dc.lft.to/lastmile_qr_scan", "ios": "https://dc.lft.to/lastmile_qr_scan"}, "name": "12ff28e63bcdac6b2b11750d8c1510b5", "type": "electric_scooter", "lat": 38.909796166666666, "is_disabled": 0}, {"fusion_lat": 0.0, "lon": -76.94683516666667, "is_reserved": 0, "bike_id": "681b96a384e1d9aa37d41e16ee0c8340", "fusion_lon": 0.0, "rental_uris": {"android": "https://dc.lft.to/lastmile_qr_scan", "ios": "https://dc.lft.to/lastmile_qr_scan"}, "name": "681b96a384e1d9aa37d41e16ee0c8340", "type": "electric_scooter", "lat": 38.88631816666667, "is_disabled": 0}, {"fusion_lat": 0.0, "lon": -77.0436025, "is_reserved": 0, "bike_id": "c8615156576943bf6b427158728d207a", "fusion_lon": 0.0, "rental_uris": {"android": "https://dc.lft.to/lastmile_qr_scan", "ios": "https://dc.lft.to/lastmile_qr_scan"}, "name": "c8615156576943bf6b427158728d207a", "type": "electric_scooter", "lat": 38.89232833333333, "is_disabled": 0}, {"fusion_lat": 0.0, "lon": -77.038493, "is_reserved": 0, "bike_id": "e49a9dc4899727dc1d181c9b3c25cd19", "fusion_lon": 0.0, "rental_uris": {"android": "https://dc.lft.to/lastmile_qr_scan", "ios": "https://dc.lft.to/lastmile_qr_scan"}, "name": "e49a9dc4899727dc1d181c9b3c25cd19", "type": "electric_scooter", "lat": 38.92523283333333, "is_disabled": 0}, {"fusion_lat": 0.0, "lon": -77.003822, "is_reserved": 0, "bike_id": "04cc4f68cd2a63fc1148a33ff4e0a3f0", "fusion_lon": 0.0, "rental_uris": {"android": "https://dc.lft.to/lastmile_qr_scan", "ios": "https://dc.lft.to/lastmile_qr_scan"}, "name": "04cc4f68cd2a63fc1148a33ff4e0a3f0", "type": "electric_scooter", "lat": 38.87638966666667, "is_disabled": 0}, {"fusion_lat": 0.0, "lon": -77.04502516666666, "is_reserved": 0, "bike_id": "9589df480605f8f90823df3281ade7e1", "fusion_lon": 0.0, "rental_uris": {"android": "https://dc.lft.to/lastmile_qr_scan", "ios": "https://dc.lft.to/lastmile_qr_scan"}, "name": "9589df480605f8f90823df3281ade7e1", "type": "electric_scooter", "lat": 38.911108666666664, "is_disabled": 0}, {"fusion_lat": 0.0, "lon": -77.003386, "is_reserved": 0, "bike_id": "392412e6e2ecc3df04820884b30609f9", "fusion_lon": 0.0, "rental_uris": {"android": "https://dc.lft.to/lastmile_qr_scan", "ios": "https://dc.lft.to/lastmile_qr_scan"}, "name": "392412e6e2ecc3df04820884b30609f9", "type": "electric_scooter", "lat": 38.90360966666667, "is_disabled": 0}, {"fusion_lat": 0.0, "lon": -77.04486833333333, "is_reserved": 0, "bike_id": "1b3178fc87c1339ff483f333843cbe68", "fusion_lon": 0.0, "rental_uris": {"android": "https://dc.lft.to/lastmile_qr_scan", "ios": "https://dc.lft.to/lastmile_qr_scan"}, "name": "1b3178fc87c1339ff483f333843cbe68", "type": "electric_scooter", "lat": 38.90511816666667, "is_disabled": 0}, {"fusion_lat": 0.0, "lon": -77.0788435, "is_reserved": 0, "bike_id": "dd0a51f0fa663c537425b5764d5a80a3", "fusion_lon": 0.0, "rental_uris": {"android": "https://dc.lft.to/lastmile_qr_scan", "ios": "https://dc.lft.to/lastmile_qr_scan"}, "name": "dd0a51f0fa663c537425b5764d5a80a3", "type": "electric_bike", "lat": 38.95027866666667, "is_disabled": 0}, {"fusion_lat": 0.0, "lon": -76.94201483333333, "is_reserved": 0, "bike_id": "d53c668ea5940430ebb814e74a9a2f4c", "fusion_lon": 0.0, "rental_uris": {"android": "https://dc.lft.to/lastmile_qr_scan", "ios": "https://dc.lft.to/lastmile_qr_scan"}, "name": "d53c668ea5940430ebb814e74a9a2f4c", "type": "electric_scooter", "lat": 38.89376933333333, "is_disabled": 0}, {"fusion_lat": 0.0, "lon": -76.99760033333334, "is_reserved": 0, "bike_id": "68c0a43a61ce4183ef39ed2c981e3f63", "fusion_lon": 0.0, "rental_uris": {"android": "https://dc.lft.to/lastmile_qr_scan", "ios": "https://dc.lft.to/lastmile_qr_scan"}, "name": "68c0a43a61ce4183ef39ed2c981e3f63", "type": "electric_scooter", "lat": 38.887702, "is_disabled": 0},