{"data": {"bikes": [{"is_disabled": 0, "is_reserved": 0, "fusion_lat": 0.0, "lat": 38.93659566666667, "fusion_lon": 0.0, "rental_uris": {"ios": "https://dc.lft.to/lastmile_qr_scan", "android": "https://dc.lft.to/lastmile_qr_scan"}, "lon": -77.06606066666667, "bike_id": "1062eca33fca854d276716098edbdf36", "type": "electric_scooter", "name": "1062eca33fca854d276716098edbdf36"}, {"is_disabled": 0, "is_reserved": 0, "fusion_lat": 0.0, "lat": 38.909164, "fusion_lon": 0.0, "rental_uris": {"ios": "https://dc.lft.to/lastmile_qr_scan", "android": "https://dc.lft.to/lastmile_qr_scan"}, "lon": -77.04405583333333, "bike_id": "855d1e3a9d9cc27a1705cc5d46445301", "type": "electric_scooter", "name": "855d1e3a9d9cc27a1705cc5d46445301"}, {"is_disabled": 0, "is_reserved": 0, "fusion_lat": 0.0, "lat": 38.87785683333333, "fusion_lon": 0.0, "rental_uris": {"ios": "https://dc.lft.to/lastmile_qr_scan", "android": "https://dc.lft.to/lastmile_qr_scan"}, "lon": -77.00133983333333, "bike_id": "a974a46ca40608022886fac4dd9a3eb9", "type": "electric_scooter", "name": "a974a46ca40608022886fac4dd9a3eb9"}, {"is_disabled": 0, "is_reserved": 0, "fusion_lat": 0.0, "lat": 38.902572, "fusion_lon": 0.0, "rental_uris": {"ios": "https://dc.lft.to/lastmile_qr_scan", "android": "https://dc.lft.to/lastmile_qr_scan"}, "lon": -77.0345525, "bike_id": "4fb7dc0aa5a3deec8baeccd1ff014906", "type": "electric_scooter", "name": "4fb7dc0aa5a3deec8baeccd1ff014906"}, {"is_disabled": 0, "is_reserved": 0, "fusion_lat": 0.0, "lat": 38.93006533333333, "fusion_lon": 0.0, "rental_uris": {"ios": "https://dc.lft.to/lastmile_qr_scan", "android": "https://dc.lft.to/lastmile_qr_scan"}, "lon": -77.03787, "bike_id": "ced831f839c65fbd8f57e44f9ef751d2", "type": "electric_scooter", "name": "ced831f839c65fbd8f57e44f9ef751d2"}, {"is_disabled": 0, "is_reserved": 0, "fusion_lat": 0.0, "lat": 38.9060985, "fusion_lon": 0.0, "rental_uris": {"ios": "https://dc.lft.to/lastmile_qr_scan", "android": "https://dc.lft.to/lastmile_qr_scan"}, "lon": -77.016171, "bike_id": "89c4cb3b080867c658cbf3980c73822e", "type": "electric_scooter", "name": "89c4cb3b080867c658cbf3980c73822e"}, {"is_disabled": 0, "is_reserved": 0, "fusion_lat": 0.0, "lat": 38.925503166666665, "fusion_lon": 0.0, "rental_uris": {"ios": "https://dc.lft.to/lastmile_qr_scan", "android": "https://dc.lft.to/lastmile_qr_scan"}, "lon": -77.00321166666667, "bike_id": "530dc92d1805a38e2b0401e00c78a621", "type": "electric_scooter", "name": "530dc92d1805a38e2b0401e00c78a621"}, {"is_disabled": 0, "is_reserved": 0, "fusion_lat": 0.0, "lat": 38.881842166666665, "fusion_lon": 0.0, "rental_uris": {"ios": "https://dc.lft.to/lastmile_qr_scan", "android": "https://dc.lft.to/lastmile_qr_scan"}, "lon": -77.00888616666667, "bike_id": "b6ee1049e2558089ebc5e55a01438423", "type": "electric_scooter", "name": "b6ee1049e2558089ebc5e55a01438423"}, {"is_disabled": 0, "is_reserved": 0, "fusion_lat": 0.0, "lat": 38.909622, "fusion_lon": 0.0, "rental_uris": {"ios": "https://dc.lft.to/lastmile_qr_scan", "android": "https://dc.lft.to/lastmile_qr_scan"}, "lon": -77.02380266666667, "bike_id": "de0c5cacb6bf8656e9d35316b7f1f524", "type": "electric_scooter", "name": "de0c5cacb6bf8656e9d35316b7f1f524"}, {"is_disabled": 0, "is_reserved": 0, "fusion_lat": 0.0, "lat": 38.94452066666667, "fusion_lon": 0.0, "rental_uris": {"ios": "https://dc.lft.to/lastmile_qr_scan", "android": "https://dc.lft.to/lastmile_qr_scan"}, "lon": -77.0291285, "bike_id": "3100e2c50401516f08e616fa84e74cea", "type": "electric_scooter", "name": "3100e2c50401516f08e616fa84e74cea"}, {"is_disabled": 0, "is_reserved": 0, "fusion_lat": 0.0, "lat": 38.92342133333333, "fusion_lon": 0.0, "rental_uris": {"ios": "https://dc.lft.to/lastmile_qr_scan", "android": "https://dc.lft.to/lastmile_qr_scan"}, "lon": -76.99870016666667, "bike_id": "d2dd99456585f7d657a650d5bc8df48a", "type": "electric_scooter", "name": "d2dd99456585f7d657a650d5bc8df48a"}, {"is_disabled": 0, "is_reserved": 0, "fusion_lat": 0.0, "lat": 38.874693666666666, "fusion_lon": 0.0, "rental_uris": {"ios": "https://dc.lft.to/lastmile_qr_scan", "android": "https://dc.lft.to/lastmile_qr_scan"}, "lon": -77.00516, "bike_id": "3f50922249be2309a00ddc2bdcfe4311", "type": "electric_scooter", "name": "3f50922249be2309a00ddc2bdcfe4311"}, {"is_disabled": 0, "is_reserved": 0, "fusion_lat": 0.0, "lat": 38.88858316666666, "fusion_lon": 0.0, "rental_uris": {"ios": "https://dc.lft.to/lastmile_qr_scan", "android": "https://dc.lft.to/lastmile_qr_scan"}, "lon": -76.97905383333334, "bike_id": "db5bb8143ff0b7bc1e195d7e24c0eb34", "type": "electric_scooter", "name": "db5bb8143ff0b7bc1e195d7e24c0eb34"}, {"is_disabled": 0, "is_reserved": 0, "fusion_lat": 0.0, "lat": 38.902456666666666, "fusion_lon": 0.0, "rental_uris": {"ios": "https://dc.lft.to/lastmile_qr_scan", "android": "https://dc.lft.to/lastmile_qr_scan"}, "lon": -77.0175365, "bike_id": "878326c56fce0c9dc929b908a1ac2f93", "type": "electric_scooter", "name": "878326c56fce0c9dc929b908a1ac2f93"}, {"is_disabled": 0, "is_reserved": 0, "fusion_lat": 0.0, "lat": 38.8997305, "fusion_lon": 0.0, "rental_uris": {"ios": "https://dc.lft.to/lastmile_qr_scan", "android": "https://dc.lft.to/lastmile_qr_scan"}, "lon": -77.01967083333334, "bike_id": "b50e5aebdd8eb6a7c36c13cde95e3730", "type": "electric_scooter", "name": "b50e5aebdd8eb6a7c36c13cde95e3730"}, {"is_disabled": 0, "is_reserved": 0, "fusion_lat": 0.0, "lat": 38.883521, "fusion_lon": 0.0, "rental_uris": {"ios": "https://dc.lft.to/lastmile_qr_scan", "android": "https://dc.lft.to/lastmile_qr_scan"}, "lon": -76.99499833333333, "bike_id": "f395cbd1e42a2b0643e6bbef2b1e7895", "type": "electric_scooter", "name": "f395cbd1e42a2b0643e6bbef2b1e7895"}, {"is_disabled": 0, "is_reserved": 0, "fusion_lat": 0.0, "lat": 38.8625275, "fusion_lon": 0.0, "rental_uris": {"ios": "https://dc.lft.to/lastmile_qr_scan", "android": "https://dc.lft.to/lastmile_qr_scan"}, "lon": -76.983447, "bike_id": "eb3accb3348a97db2af3f714a57a2887", "type": "electric_bike", "name": "eb3accb3348a97db2af3f714a57a2887"}, {"is_disabled": 0, "is_reserved": 0, "fusion_lat": 0.0, "lat": 38.92144, "fusion_lon": 0.0, "rental_uris": {"ios": "https://dc.lft.to/lastmile_qr_scan", "android": "https://dc.lft.to/lastmile_qr_scan"}, "lon": -77.018021, "bike_id": "ec193543bd8588d884559cfee0ddc9e0", "type": "electric_scooter", "name": "ec193543bd8588d884559cfee0ddc9e0"}, {"is_disabled": 0, "is_reserved": 0, "fusion_lat": 0.0, "lat": 38.874718666666666, "fusion_lon": 0.0, "rental_uris": {"ios": "https://dc.lft.to/lastmile_qr_scan", "android": "https://dc.lft.to/lastmile_qr_scan"}, "lon": -77.00518933333333, "bike_id": "4226a982e217468ac94990c17d08968e", "type": "electric_scooter", "name": "4226a982e217468ac94990c17d08968e"}, {"is_disabled": 0, "is_reserved": 0, "fusion_lat": 0.0, "lat": 38.935985, "fusion_lon": 0.0, "rental_uris": {"ios": "https://dc.lft.to/lastmile_qr_scan", "android": "https://dc.lft.to/lastmile_qr_scan"}, "lon": -77.0387255, "bike_id": "0c99da9192baec482ecd913ce659dcfc", "type": "electric_scooter", "name": "0c99da9192baec482ecd913ce659dcfc"}, {"is_disabled": 0, "is_reserved": 0, "fusion_lat": 0.0, "lat": 38.84283466666667, "fusion_lon": 0.0, "rental_uris": {"ios": "https://dc.lft.to/lastmile_qr_scan", "android": "https://dc.lft.to/lastmile_qr_scan"}, "lon": -76.9884065, "bike_id": "18e14f0c7fdc6dc5b49eb3d0f14d13d8", "type": "electric_bike", "name": "18e14f0c7fdc6dc5b49eb3d0f14d13d8"}, {"is_disabled": 0, "is_reserved": 0, "fusion_lat": 0.0, "lat": 38.91053683333333, "fusion_lon": 0.0, "rental_uris": {"ios": "https://dc.lft.to/lastmile_qr_scan", "android": "https://dc.lft.to/lastmile_qr_scan"}, "lon": -77.04407, "bike_id": "99ba3708c21c214277b3550f876229d6", "type": "electric_scooter", "name": "99ba3708c21c214277b3550f876229d6"}, {"is_disabled": 0, "is_reserved": 0, "fusion_lat": 0.0, "lat": 38.89614133333333, "fusion_lon": 0.0, "rental_uris": {"ios": "https://dc.lft.to/lastmile_qr_scan", "android": "https://dc.lft.to/lastmile_qr_scan"}, "lon": -77.04112616666667, "bike_id": "50aea0e63c546b15a406ece5b10c5d2a", "type": "electric_scooter", "name": "50aea0e63c546b15a406ece5b10c5d2a"}, {"is_disabled": 0, "is_reserved": 0, "fusion_lat": 0.0, "lat": 38.929906333333335, "fusion_lon": 0.0, "rental_uris": {"ios": "https://dc.lft.to/lastmile_qr_scan", "android": "https://dc.lft.to/lastmile_qr_scan"}, "lon": -77.0347225, "bike_id": "aab67add46eb4b27a7c8423c8e31f60e", "type": "electric_scooter", "name": "aab67add46eb4b27a7c8423c8e31f60e"}, {"is_disabled": 0, "is_reserved": 0, "fusion_lat": 0.0, "lat": 38.8949445, "fusion_lon": 0.0, "rental_uris": {"ios": "https://dc.lft.to/lastmile_qr_scan", "android": "https://dc.lft.to/lastmile_qr_scan"}, "lon": -77.02593416666667, "bike_id": "0d4b8d2e9393ccf9f913f92ba61d1cf5", "type": "electric_scooter", "name": "0d4b8d2e9393ccf9f913f92ba61d1cf5"}, {"is_disabled": 0, "is_reserved": 0, "fusion_lat": 0.0, "lat": 38.895456333333335, "fusion_lon": 0.0, "rental_uris": {"ios": "https://dc.lft.to/lastmile_qr_scan", "android": "https://dc.lft.to/lastmile_qr_scan"}, "lon": -77.026699, "bike_id": "0fc8a8ce18c7bbd96e9227ead9701ebc", "type": "electric_scooter", "name": "0fc8a8ce18c7bbd96e9227ead9701ebc"}, {"is_disabled": 0, "is_reserved": 0, "fusion_lat": 0.0, "lat": 38.88761916666667, "fusion_lon": 0.0, "rental_uris": {"ios": "https://dc.lft.to/lastmile_qr_scan", "android": "https://dc.lft.to/lastmile_qr_scan"}, "lon": -77.1565045, "bike_id": "327e95ebd36d4e0b296e69c0f4e08854", "type": "electric_bike", "name": "327e95ebd36d4e0b296e69c0f4e08854"}, {"is_disabled": 0, "is_reserved": 0, "fusion_lat": 0.0, "lat": 38.89987883333333, "fusion_lon": 0.0, "rental_uris": {"ios": "https://dc.lft.to/lastmile_qr_scan", "android": "https://dc.lft.to/lastmile_qr_scan"}, "lon": -76.99473383333333, "bike_id": "305d5768d3fcdc0e85af5d9996e51bfe", "type": "electric_bike", "name": "305d5768d3fcdc0e85af5d9996e51bfe"}, {"is_disabled": 0, "is_reserved": 0, "fusion_lat": 0.0, "lat": 38.876403833333335, "fusion_lon": 0.0, "rental_uris": {"ios": "https://dc.lft.to/lastmile_qr_scan", "android": "https://dc.lft.to/lastmile_qr_scan"}, "lon": -76.99293433333334, "bike_id": "461b93112c9ea67a8dfb379a1d71f8c8", "type": "electric_scooter", "name": "461b93112c9ea67a8dfb379a1d71f8c8"}, {"is_disabled": 0, "is_reserved": 0, "fusion_lat": 0.0, "lat": 38.915914, "fusion_lon": 0.0, "rental_uris": {"ios": "https://dc.lft.to/lastmile_qr_scan", "android": "https://dc.lft.to/lastmile_qr_scan"}, "lon": -76.98291383333333, "bike_id": "fdd455549845ddf61fc668c93e3b725c", "type": "electric_scooter", "name": "fdd455549845ddf61fc668c93e3b725c"}, {"is_disabled": 0, "is_reserved": 0, "fusion_lat": 0.0, "lat": 38.92489616666667, "fusion_lon": 0.0, "rental_uris": {"ios": "https://dc.lft.to/lastmile_qr_scan", "android": "https://dc.lft.to/lastmile_qr_scan"}, "lon": -77.031863, "bike_id": "1ab5c5e7e69015e63b75cfb2df3ea452", "type": "electric_scooter", "name": "1ab5c5e7e69015e63b75cfb2df3ea452"}, {"is_disabled": 0, "is_reserved": 0, "fusion_lat": 0.0, "lat": 38.934622, "fusion_lon": 0.0, "rental_uris": {"ios": "https://dc.lft.to/lastmile_qr_scan", "android": "https://dc.lft.to/lastmile_qr_scan"}, "lon": -77.02765, "bike_id": "ccb108cfacffee3a30b68049bb63caad", "type": "electric_scooter", "name": "ccb108cfacffee3a30b68049bb63caad"}, {"is_disabled": 0, "is_reserved": 0, "fusion_lat": 0.0, "lat": 38.9018695, "fusion_lon": 0.0, "rental_uris": {"ios": "https://dc.lft.to/lastmile_qr_scan", "android": "https://dc.lft.to/lastmile_qr_scan"}, "lon": -77.002218, "bike_id": "b69cdceeda36ffeb50876c1802fd3757", "type": "electric_scooter", "name": "b69cdceeda36ffeb50876c1802fd3757"}, {"is_disabled": 0, "is_reserved": 0, "fusion_lat": 0.0, "lat": 38.866305, "fusion_lon": 0.0, "rental_uris": {"ios": "https://dc.lft.to/lastmile_qr_scan", "android": "https://dc.lft.to/lastmile_qr_scan"}, "lon": -76.98257483333333, "bike_id": "eb37783d0134e702cb3f462c646e9d29", "type": "electric_scooter", "name": "eb37783d0134e702cb3f462c646e9d29"}, {"is_disabled": 0, "is_reserved": 0, "fusion_lat": 0.0, "lat": 38.89473383333333, "fusion_lon": 0.0, "rental_uris": {"ios": "https://dc.lft.to/lastmile_qr_scan", "android": "https://dc.lft.to/lastmile_qr_scan"}, "lon": -76.97733183333334, "bike_id": "56d3db3748a1d38a1a1f6ffce5900b70", "type": "electric_scooter", "name": "56d3db3748a1d38a1a1f6ffce5900b70"}, {"is_disabled": 0, "is_reserved": 0, "fusion_lat": 0.0, "lat": 38.914623666666664, "fusion_lon": 0.0, "rental_uris": {"ios": "https://dc.lft.to/lastmile_qr_scan", "android": "https://dc.lft.to/lastmile_qr_scan"}, "lon": -77.032169, "bike_id": "e6fad2ceff575f3ec555fec96a6e1907", "type": "electric_scooter", "name": "e6fad2ceff575f3ec555fec96a6e1907"}, {"is_disabled": 0, "is_reserved": 0, "fusion_lat": 0.0, "lat": 38.91300283333333, "fusion_lon": 0.0, "rental_uris": {"ios": "https://dc.lft.to/lastmile_qr_scan", "android": "https://dc.lft.to/lastmile_qr_scan"}, "lon": -77.04329966666667, "bike_id": "6d7ef039597755a88256f309362ca65f", "type": "electric_scooter", "name": "6d7ef039597755a88256f309362ca65f"}, {"is_disabled": 0, "is_reserved": 0, "fusion_lat": 0.0, "lat": 38.909091, "fusion_lon": 0.0, "rental_uris": {"ios": "https://dc.lft.to/lastmile_qr_scan", "android": "https://dc.lft.to/lastmile_qr_scan"}, "lon": -77.03507733333333, "bike_id": "f72ca759530613f4879b9ee9b278557e", "type": "electric_scooter", "name": "f72ca759530613f4879b9ee9b278557e"}, {"is_disabled": 0, "is_reserved": 0, "fusion_lat": 0.0, "lat": 38.90132416666667, "fusion_lon": 0.0, "rental_uris": {"ios": "https://dc.lft.to/lastmile_qr_scan", "android": "https://dc.lft.to/lastmile_qr_scan"}, "lon": -77.038181, "bike_id": "bb5ae6d20005545bf0d6a6a239286beb", "type": "electric_scooter", "name": "bb5ae6d20005545bf0d6a6a239286beb"}, {"is_disabled": 0, "is_reserved": 0, "fusion_lat": 0.0, "lat": 38.83157533333333, "fusion_lon": 0.0, "rental_uris": {"ios": "https://dc.lft.to/lastmile_qr_scan", "android": "https://dc.lft.to/lastmile_qr_scan"}, "lon": -76.99548333333334, "bike_id": "cc58bb6e0b4a6ac1e6398c05a993fddd", "type": "electric_bike", "name": "cc58bb6e0b4a6ac1e6398c05a993fddd"}, {"is_disabled": 0, "is_reserved": 0, "fusion_lat": 0.0, "lat": 38.90189483333333, "fusion_lon": 0.0, "rental_uris": {"ios": "https://dc.lft.to/lastmile_qr_scan", "android": "https://dc.lft.to/lastmile_qr_scan"}, "lon": -77.00192416666667, "bike_id": "1425d73aedc4413bf622e658c6646df2", "type": "electric_scooter", "name": "1425d73aedc4413bf622e658c6646df2"}, {"is_disabled": 0, "is_reserved": 0, "fusion_lat": 0.0, "lat": 38.8948955, "fusion_lon": 0.0, "rental_uris": {"ios": "https://dc.lft.to/lastmile_qr_scan", "android": "https://dc.lft.to/lastmile_qr_scan"}, "lon": -77.02173366666666, "bike_id": "9d6b0a6d0d2dc424d90a4da809dc5a78", "type": "electric_scooter", "name": "9d6b0a6d0d2dc424d90a4da809dc5a78"}, {"is_disabled": 0, "is_reserved": 0, "fusion_lat": 0.0, "lat": 38.910375, "fusion_lon": 0.0, "rental_uris": {"ios": "https://dc.lft.to/lastmile_qr_scan", "android": "https://dc.lft.to/lastmile_qr_scan"}, "lon": -77.0379845, "bike_id": "6092a01d7e8ba5d7d4f5426153448fd7", "type": "electric_scooter", "name": "6092a01d7e8ba5d7d4f5426153448fd7"}, {"is_disabled": 0, "is_reserved": 0, "fusion_lat": 0.0, "lat": 38.90240466666667, "fusion_lon": 0.0, "rental_uris": {"ios": "https://dc.lft.to/lastmile_qr_scan", "android": "https://dc.lft.to/lastmile_qr_scan"}, "lon": -77.04667083333334, "bike_id": "ae5192edf2eec3db3fd9e04ce2fe3eca", "type": "electric_scooter", "name": "ae5192edf2eec3db3fd9e04ce2fe3eca"}, {"is_disabled": 0, "is_reserved": 0, "fusion_lat": 0.0, "lat": 38.89813783333334, "fusion_lon": 0.0, "rental_uris": {"ios": "https://dc.lft.to/lastmile_qr_scan", "android": "https://dc.lft.to/lastmile_qr_scan"}, "lon": -77.00205033333333, "bike_id": "20b474b0da39cbc571b4f172b286b0a7", "type": "electric_scooter", "name": "20b474b0da39cbc571b4f172b286b0a7"}, {"is_disabled": 0, "is_reserved": 0, "fusion_lat": 0.0, "lat": 38.92047066666667, "fusion_lon": 0.0, "rental_uris": {"ios": "https://dc.lft.to/lastmile_qr_scan", "android": "https://dc.lft.to/lastmile_qr_scan"}, "lon": -77.033779, "bike_id": "cc66687a44144033f2817e3839068575", "type": "electric_scooter", "name": "cc66687a44144033f2817e3839068575"}, {"is_disabled": 0, "is_reserved": 0, "fusion_lat": 0.0, "lat": 38.906303666666666, "fusion_lon": 0.0, "rental_uris": {"ios": "https://dc.lft.to/lastmile_qr_scan", "android": "https://dc.lft.to/lastmile_qr_scan"}, "lon": -77.0271305, "bike_id": "24eea47c1855cec87d12812c00b780d1", "type": "electric_scooter", "name": "24eea47c1855cec87d12812c00b780d1"}, {"is_disabled": 0, "is_reserved": 0, "fusion_lat": 0.0, "lat": 38.908779333333335, "fusion_lon": 0.0, "rental_uris": {"ios": "https://dc.lft.to/lastmile_qr_scan", "android": "https://dc.lft.to/lastmile_qr_scan"}, "lon": -77.023014, "bike_id": "fbdaf5d704a04cfbad950673b893a344", "type": "electric_scooter", "name": "fbdaf5d704a04cfbad950673b893a344"}, {"is_disabled": 0, "is_reserved": 0, "fusion_lat": 0.0, "lat": 38.92275433333333, "fusion_lon": 0.0, "rental_uris": {"ios": "https://dc.lft.to/lastmile_qr_scan", "android": "https://dc.lft.to/lastmile_qr_scan"}, "lon": -77.04238283333333, "bike_id": "5ce20094270a417b892483ef0f2c3712", "type": "electric_scooter", "name": "5ce20094270a417b892483ef0f2c3712"}, {"is_disabled": 0, "is_reserved": 0, "fusion_lat": 0.0, "lat": 38.924161166666664, "fusion_lon": 0.0, "rental_uris": {"ios": "https://dc.lft.to/lastmile_qr_scan", "android": "https://dc.lft.to/lastmile_qr_scan"}, "lon": -77.02035166666667, "bike_id": "7ffbaf218a56579f42fd0b931e00434d", "type": "electric_scooter", "name": "7ffbaf218a56579f42fd0b931e00434d"}, {"is_disabled": 0, "is_reserved": 0, "fusion_lat": 0.0, "lat": 38.917095333333336, "fusion_lon": 0.0, "rental_uris": {"ios": "https://dc.lft.to/lastmile_qr_scan", "android": "https://dc.lft.to/lastmile_qr_scan"}, "lon": -77.0275035, "bike_id": "b04eaa1c888690626fb037d1f430f525", "type": "electric_scooter", "name": "b04eaa1c888690626fb037d1f430f525"}, {"is_disabled": 0, "is_reserved": 0, "fusion_lat": 0.0, "lat": 38.921453166666666, "fusion_lon": 0.0, "rental_uris": {"ios": "https://dc.lft.to/lastmile_qr_scan", "android": "https://dc.lft.to/lastmile_qr_scan"}, "lon": -77.031923, "bike_id": "eeccef73598b4bd2f37f5c399f6bfc84", "type": "electric_scooter", "name": "eeccef73598b4bd2f37f5c399f6bfc84"}, {"is_disabled": 0, "is_reserved": 0, "fusion_lat": 0.0, "lat": 38.926536, "fusion_lon": 0.0, "rental_uris": {"ios": "https://dc.lft.to/lastmile_qr_scan", "android": "https://dc.lft.to/lastmile_qr_scan"}, "lon": -77.02433733333334, "bike_id": "5b9c0e3374a38633da79bc05b490bc14", "type": "electric_scooter", "name": "5b9c0e3374a38633da79bc05b490bc14"}, {"is_disabled": 0, "is_reserved": 0, "fusion_lat": 0.0, "lat": 38.913328666666665, "fusion_lon": 0.0, "rental_uris": {"ios": "https://dc.lft.to/lastmile_qr_scan", "android": "https://dc.lft.to/lastmile_qr_scan"}, "lon": -77.030401, "bike_id": "c0572a8a8962dc1b7854ff5af6a90d96", "type": "electric_scooter", "name": "c0572a8a8962dc1b7854ff5af6a90d96"}, {"is_disabled": 0, "is_reserved": 0, "fusion_lat": 0.0, "lat": 38.944625333333335, "fusion_lon": 0.0, "rental_uris": {"ios": "https://dc.lft.to/lastmile_qr_scan", "android": "https://dc.lft.to/lastmile_qr_scan"}, "lon": -77.00658433333334, "bike_id": "fde23052196141370c668cc3cd17716d", "type": "electric_scooter", "name": "fde23052196141370c668cc3cd17716d"}, {"is_disabled": 0, "is_reserved": 0, "fusion_lat": 0.0, "lat": 38.912134333333334, "fusion_lon": 0.0, "rental_uris": {"ios": "https://dc.lft.to/lastmile_qr_scan", "android": "https://dc.lft.to/lastmile_qr_scan"}, "lon": -77.00664333333333, "bike_id": "1e0444735e8b1b371099ce2aa9334c6b", "type": "electric_scooter", "name": "1e0444735e8b1b371099ce2aa9334c6b"}, {"is_disabled": 0, "is_reserved": 0, "fusion_lat": 0.0, "lat": 38.92093833333333, "fusion_lon": 0.0, "rental_uris": {"ios": "https://dc.lft.to/lastmile_qr_scan", "android": "https://dc.lft.to/lastmile_qr_scan"}, "lon": -77.02511566666666, "bike_id": "d551089b344b22c69bf1e7d9d377292a", "type": "electric_scooter", "name": "d551089b344b22c69bf1e7d9d377292a"}, {"is_disabled": 0, "is_reserved": 0, "fusion_lat": 0.0, "lat": 38.89822, "fusion_lon": 0.0, "rental_uris": {"ios": "https://dc.lft.to/lastmile_qr_scan", "android": "https://dc.lft.to/lastmile_qr_scan"}, "lon": -76.992719, "bike_id": "2cec40b537b24e1b6528060eff52c56e", "type": "electric_scooter", "name": "2cec40b537b24e1b6528060eff52c56e"}, {"is_disabled": 0, "is_reserved": 0, "fusion_lat": 0.0, "lat": 38.935547166666666, "fusion_lon": 0.0, "rental_uris": {"ios": "https://dc.lft.to/lastmile_qr_scan", "android": "https://dc.lft.to/lastmile_qr_scan"}, "lon": -77.07705583333333, "bike_id": "7807a2fb9d8924e59e3894685512239b", "type": "electric_scooter", "name": "7807a2fb9d8924e59e3894685512239b"}, {"is_disabled": 0, "is_reserved": 0, "fusion_lat": 0.0, "lat": 38.87108883333333, "fusion_lon": 0.0, "rental_uris": {"ios": "https://dc.lft.to/lastmile_qr_scan", "android": "https://dc.lft.to/lastmile_qr_scan"}, "lon": -77.00744883333333, "bike_id": "cca891ffe602a0409135dbd452a5ae22", "type": "electric_scooter", "name": "cca891ffe602a0409135dbd452a5ae22"}, {"is_disabled": 0, "is_reserved": 0, "fusion_lat": 0.0, "lat": 38.898038166666666, "fusion_lon": 0.0, "rental_uris": {"ios": "https://dc.lft.to/lastmile_qr_scan", "android": "https://dc.lft.to/lastmile_qr_scan"}, "lon": -77.04878716666667, "bike_id": "4ebbd425ad8c31e4c902b954772b6f75", "type": "electric_scooter", "name": "4ebbd425ad8c31e4c902b954772b6f75"}, {"is_disabled": 0, "is_reserved": 0, "fusion_lat": 0.0, "lat": 38.91930283333333, "fusion_lon": 0.0, "rental_uris": {"ios": "https://dc.lft.to/lastmile_qr_scan", "android": "https://dc.lft.to/lastmile_qr_scan"}, "lon": -77.02473983333333, "bike_id": "10743661bf4fea691bd04698d2799f88", "type": "electric_scooter", "name": "10743661bf4fea691bd04698d2799f88"}, {"is_disabled": 0, "is_reserved": 0, "fusion_lat": 0.0, "lat": 38.923839666666666, "fusion_lon": 0.0, "rental_uris": {"ios": "https://dc.lft.to/lastmile_qr_scan", "android": "https://dc.lft.to/lastmile_qr_scan"}, "lon": -77.0403185, "bike_id": "ba03e561456f00375e29b189a87692ef", "type": "electric_scooter", "name": "ba03e561456f00375e29b189a87692ef"}, {"is_disabled": 0, "is_reserved": 0, "fusion_lat": 0.0, "lat": 38.90259066666667, "fusion_lon": 0.0, "rental_uris": {"ios": "https://dc.lft.to/lastmile_qr_scan", "android": "https://dc.lft.to/lastmile_qr_scan"}, "lon": -76.928462, "bike_id": "e113f3ca7b8ab4fb8ee688860bcc9478", "type": "electric_scooter", "name": "e113f3ca7b8ab4fb8ee688860bcc9478"}, {"is_disabled": 0, "is_reserved": 0, "fusion_lat": 0.0, "lat": 38.876410666666665, "fusion_lon": 0.0, "rental_uris": {"ios": "https://dc.lft.to/lastmile_qr_scan", "android": "https://dc.lft.to/lastmile_qr_scan"}, "lon": -77.00808666666667, "bike_id": "a057852f298295fb04da6be1d40ec416", "type": "electric_scooter", "name": "a057852f298295fb04da6be1d40ec416"}, {"is_disabled": 0, "is_reserved": 0, "fusion_lat": 0.0, "lat": 38.964282, "fusion_lon": 0.0, "rental_uris": {"ios": "https://dc.lft.to/lastmile_qr_scan", "android": "https://dc.lft.to/lastmile_qr_scan"}, "lon": -77.0242695, "bike_id": "5455904768c7d02174672c3ad6565a59", "type": "electric_bike", "name": "5455904768c7d02174672c3ad6565a59"}, {"is_disabled": 0, "is_reserved": 0, "fusion_lat": 0.0, "lat": 38.917861, "fusion_lon": 0.0, "rental_uris": {"ios": "https://dc.lft.to/lastmile_qr_scan", "android": "https://dc.lft.to/lastmile_qr_scan"}, "lon": -77.03183, "bike_id": "c09c8918ba4ce7295e4e0878154b8f84", "type": "electric_scooter", "name": "c09c8918ba4ce7295e4e0878154b8f84"}, {"is_disabled": 0, "is_reserved": 0, "fusion_lat": 0.0, "lat": 38.883613833333335, "fusion_lon": 0.0, "rental_uris": {"ios": "https://dc.lft.to/lastmile_qr_scan", "android": "https://dc.lft.to/lastmile_qr_scan"}, "lon": -76.92785916666666, "bike_id": "dcd4b95313687f99aabca1b96ecbde47", "type": "electric_scooter", "name": "dcd4b95313687f99aabca1b96ecbde47"}, {"is_disabled": 0, "is_reserved": 0, "fusion_lat": 0.0, "lat": 38.912611, "fusion_lon": 0.0, "rental_uris": {"ios": "https://dc.lft.to/lastmile_qr_scan", "android": "https://dc.lft.to/lastmile_qr_scan"}, "lon": -77.03139983333334, "bike_id": "61952e4f2b24f969e2e35cb2d8aa92f2", "type": "electric_scooter", "name": "61952e4f2b24f969e2e35cb2d8aa92f2"}, {"is_disabled": 0, "is_reserved": 0, "fusion_lat": 0.0, "lat": 38.902750166666664, "fusion_lon": 0.0, "rental_uris": {"ios": "https://dc.lft.to/lastmile_qr_scan", "android": "https://dc.lft.to/lastmile_qr_scan"}, "lon": -77.03444783333333, "bike_id": "6983e5641e6833dc4567dd578a632e4b", "type": "electric_scooter", "name": "6983e5641e6833dc4567dd578a632e4b"}, {"is_disabled": 0, "is_reserved": 0, "fusion_lat": 0.0, "lat": 38.8921985, "fusion_lon": 0.0, "rental_uris": {"ios": "https://dc.lft.to/lastmile_qr_scan", "android": "https://dc.lft.to/lastmile_qr_scan"}, "lon": -77.0445535, "bike_id": "329a071ce2d3a060115d35fbb5a2562f", "type": "electric_scooter", "name": "329a071ce2d3a060115d35fbb5a2562f"}, {"is_disabled": 0, "is_reserved": 0, "fusion_lat": 0.0, "lat": 38.92865483333333, "fusion_lon": 0.0, "rental_uris": {"ios": "https://dc.lft.to/lastmile_qr_scan", "android": "https://dc.lft.to/lastmile_qr_scan"}, "lon": -77.078895, "bike_id": "2acc6e1204be3515913c8dfcff80cc3a", "type": "electric_scooter", "name": "2acc6e1204be3515913c8dfcff80cc3a"}, {"is_disabled": 0, "is_reserved": 0, "fusion_lat": 0.0, "lat": 38.894972, "fusion_lon": 0.0, "rental_uris": {"ios": "https://dc.lft.to/lastmile_qr_scan", "android": "https://dc.lft.to/lastmile_qr_scan"}, "lon": -77.02304533333333, "bike_id": "a4687cb7ca074b1349544358b2c1f077", "type": "electric_scooter", "name": "a4687cb7ca074b1349544358b2c1f077"}, {"is_disabled": 0, "is_reserved": 0, "fusion_lat": 0.0, "lat": 38.93662833333333, "fusion_lon": 0.0, "rental_uris": {"ios": "https://dc.lft.to/lastmile_qr_scan", "android": "https://dc.lft.to/lastmile_qr_scan"}, "lon": -77.06603933333334, "bike_id": "9b19b264c96926c553a8a06bac43e7b3", "type": "electric_scooter", "name": "9b19b264c96926c553a8a06bac43e7b3"}, {"is_disabled": 0, "is_reserved": 0, "fusion_lat": 0.0, "lat": 38.928930666666666, "fusion_lon": 0.0, "rental_uris": {"ios": "https://dc.lft.to/lastmile_qr_scan", "android": "https://dc.lft.to/lastmile_qr_scan"}, "lon": -77.01937566666666, "bike_id": "d3ffd80329e6203a2cb05b15c42a5365", "type": "electric_scooter", "name": "d3ffd80329e6203a2cb05b15c42a5365"}, {"is_disabled": 0, "is_reserved": 0, "fusion_lat": 0.0, "lat": 38.920876666666665, "fusion_lon": 0.0, "rental_uris": {"ios": "https://dc.lft.to/lastmile_qr_scan", "android": "https://dc.lft.to/lastmile_qr_scan"}, "lon": -77.0251265, "bike_id": "2f5dbe326c8c0521a64777189a3e5af3", "type": "electric_scooter", "name": "2f5dbe326c8c0521a64777189a3e5af3"}, {"is_disabled": 0, "is_reserved": 0, "fusion_lat": 0.0, "lat": 38.916920166666664, "fusion_lon": 0.0, "rental_uris": {"ios": "https://dc.lft.to/lastmile_qr_scan", "android": "https://dc.lft.to/lastmile_qr_scan"}, "lon": -77.02852183333333, "bike_id": "ecaab167dd87a53ffca412c7e2370a4f", "type": "electric_scooter", "name": "ecaab167dd87a53ffca412c7e2370a4f"}, {"is_disabled": 0, "is_reserved": 0, "fusion_lat": 0.0, "lat": 38.89512333333333, "fusion_lon": 0.0, "rental_uris": {"ios": "https://dc.lft.to/lastmile_qr_scan", "android": "https://dc.lft.to/lastmile_qr_scan"}, "lon": -77.02418483333334, "bike_id": "fc961329951a2ce983aa0c7d1e82cc51", "type": "electric_scooter", "name": "fc961329951a2ce983aa0c7d1e82cc51"}, {"is_disabled": 0, "is_reserved": 0, "fusion_lat": 0.0, "lat": 38.923546333333334, "fusion_lon": 0.0, "rental_uris": {"ios": "https://dc.lft.to/lastmile_qr_scan", "android": "https://dc.lft.to/lastmile_qr_scan"}, "lon": -77.0731025, "bike_id": "4a4317a80c4912859ebc1bfa31611353", "type": "electric_scooter", "name": "4a4317a80c4912859ebc1bfa31611353"}, {"is_disabled": 0, "is_reserved": 0, "fusion_lat": 0.0, "lat": 38.93605783333334, "fusion_lon": 0.0, "rental_uris": {"ios": "https://dc.lft.to/lastmile_qr_scan", "android": "https://dc.lft.to/lastmile_qr_scan"}, "lon": -77.05588783333333, "bike_id": "062a783505b74cad87e4ca68da357e53", "type": "electric_scooter", "name": "062a783505b74cad87e4ca68da357e53"}, {"is_disabled": 0, "is_reserved": 0, "fusion_lat": 0.0, "lat": 38.98283283333333, "fusion_lon": 0.0, "rental_uris": {"ios": "https://dc.lft.to/lastmile_qr_scan", "android": "https://dc.lft.to/lastmile_qr_scan"}, "lon": -76.97636716666666, "bike_id": "71cd631fe7c220209d349ee4aeb5f88c", "type": "electric_bike", "name": "71cd631fe7c220209d349ee4aeb5f88c"}, {"is_disabled": 0, "is_reserved": 0, "fusion_lat": 0.0, "lat": 38.9265535, "fusion_lon": 0.0, "rental_uris": {"ios": "https://dc.lft.to/lastmile_qr_scan", "android": "https://dc.lft.to/lastmile_qr_scan"}, "lon": -77.02424883333333, "bike_id": "08b9f21403e9d35184011e59662a8331", "type": "electric_scooter", "name": "08b9f21403e9d35184011e59662a8331"}, {"is_disabled": 0, "is_reserved": 0, "fusion_lat": 0.0, "lat": 38.93685833333333, "fusion_lon": 0.0, "rental_uris": {"ios": "https://dc.lft.to/lastmile_qr_scan", "android": "https://dc.lft.to/lastmile_qr_scan"}, "lon": -77.0562865, "bike_id": "6a8ae4d93600a342b776fdff513b2afd", "type": "electric_scooter", "name": "6a8ae4d93600a342b776fdff513b2afd"}, {"is_disabled": 0, "is_reserved": 0, "fusion_lat": 0.0, "lat": 38.926549, "fusion_lon": 0.0, "rental_uris": {"ios": "https://dc.lft.to/lastmile_qr_scan", "android": "https://dc.lft.to/lastmile_qr_scan"}, "lon": -77.02445383333334, "bike_id": "df455daed5c5e51de6f2c7618b62c955", "type": "electric_scooter", "name": "df455daed5c5e51de6f2c7618b62c955"}, {"is_disabled": 0, "is_reserved": 0, "fusion_lat": 0.0, "lat": 38.934668, "fusion_lon": 0.0, "rental_uris": {"ios": "https://dc.lft.to/lastmile_qr_scan", "android": "https://dc.lft.to/lastmile_qr_scan"}, "lon": -77.0275715, "bike_id": "ba030a4476680ad558b62cf3a5172dec", "type": "electric_scooter", "name": "ba030a4476680ad558b62cf3a5172dec"}, {"is_disabled": 0, "is_reserved": 0, "fusion_lat": 0.0, "lat": 38.901511, "fusion_lon": 0.0, "rental_uris": {"ios": "https://dc.lft.to/lastmile_qr_scan", "android": "https://dc.lft.to/lastmile_qr_scan"}, "lon": -77.04162083333334, "bike_id": "c6f951d2355e3d1198f8cbbaad2fc71c", "type": "electric_scooter", "name": "c6f951d2355e3d1198f8cbbaad2fc71c"}, {"is_disabled": 0, "is_reserved": 0, "fusion_lat": 0.0, "lat": 38.89366316666667, "fusion_lon": 0.0, "rental_uris": {"ios": "https://dc.lft.to/lastmile_qr_scan", "android": "https://dc.lft.to/lastmile_qr_scan"}, "lon": -77.0114635, "bike_id": "a7fdc027a1e19d7a2669958cf14cac59", "type": "electric_scooter", "name": "a7fdc027a1e19d7a2669958cf14cac59"}, {"is_disabled": 0, "is_reserved": 0, "fusion_lat": 0.0, "lat": 38.9249415, "fusion_lon": 0.0, "rental_uris": {"ios": "https://dc.lft.to/lastmile_qr_scan", "android": "https://dc.lft.to/lastmile_qr_scan"}, "lon": -77.04330616666667, "bike_id": "df64555ae10c353883d61e5f1c660baa", "type": "electric_scooter", "name": "df64555ae10c353883d61e5f1c660baa"}, {"is_disabled": 0, "is_reserved": 0, "fusion_lat": 0.0, "lat": 38.88105433333333, "fusion_lon": 0.0, "rental_uris": {"ios": "https://dc.lft.to/lastmile_qr_scan", "android": "https://dc.lft.to/lastmile_qr_scan"}, "lon": -77.02639733333334, "bike_id": "184806e0741d389befdaf33d04aa3d95", "type": "electric_scooter", "name": "184806e0741d389befdaf33d04aa3d95"}, {"is_disabled": 0, "is_reserved": 0, "fusion_lat": 0.0, "lat": 38.92569966666667, "fusion_lon": 0.0, "rental_uris": {"ios": "https://dc.lft.to/lastmile_qr_scan", "android": "https://dc.lft.to/lastmile_qr_scan"}, "lon": -76.99493216666667, "bike_id": "b2fbd5efd5e740190d7c5c148f77bc50", "type": "electric_scooter", "name": "b2fbd5efd5e740190d7c5c148f77bc50"}, {"is_disabled": 0, "is_reserved": 0, "fusion_lat": 0.0, "lat": 38.93063816666667, "fusion_lon": 0.0, "rental_uris": {"ios": "https://dc.lft.to/lastmile_qr_scan", "android": "https://dc.lft.to/lastmile_qr_scan"}, "lon": -77.03815433333334, "bike_id": "1e1b529e531c1f7adb90e3b03261e1ea", "type": "electric_scooter", "name": "1e1b529e531c1f7adb90e3b03261e1ea"}, {"is_disabled": 0, "is_reserved": 0, "fusion_lat": 0.0, "lat": 38.917643166666664, "fusion_lon": 0.0, "rental_uris": {"ios": "https://dc.lft.to/lastmile_qr_scan", "android": "https://dc.lft.to/lastmile_qr_scan"}, "lon": -77.02701833333333, "bike_id": "a67121da7481cc1192696c01b8031822", "type": "electric_scooter", "name": "a67121da7481cc1192696c01b8031822"}, {"is_disabled": 0, "is_reserved": 0, "fusion_lat": 0.0, "lat": 38.942009666666664, "fusion_lon": 0.0, "rental_uris": {"ios": "https://dc.lft.to/lastmile_qr_scan", "android": "https://dc.lft.to/lastmile_qr_scan"}, "lon": -77.01336533333334, "bike_id": "b0f19be384bfe487958a74cfc9fc87bc", "type": "electric_scooter", "name": "b0f19be384bfe487958a74cfc9fc87bc"}, {"is_disabled": 0, "is_reserved": 0, "fusion_lat": 0.0, "lat": 38.927061, "fusion_lon": 0.0, "rental_uris": {"ios": "https://dc.lft.to/lastmile_qr_scan", "android": "https://dc.lft.to/lastmile_qr_scan"}, "lon": -76.9607885, "bike_id": "c690cb7f26ed56f210b63dd357dbe5bf", "type": "electric_scooter", "name": "c690cb7f26ed56f210b63dd357dbe5bf"}, {"is_disabled": 0, "is_reserved": 0, "fusion_lat": 0.0, "lat": 38.897954666666664, "fusion_lon": 0.0, "rental_uris": {"ios": "https://dc.lft.to/lastmile_qr_scan", "android": "https://dc.lft.to/lastmile_qr_scan"}, "lon": -77.0503425, "bike_id": "0e89d891ce484527153e05af24dda0ba", "type": "electric_scooter", "name": "0e89d891ce484527153e05af24dda0ba"}, {"is_disabled": 0, "is_reserved": 0, "fusion_lat": 0.0, "lat": 38.872682833333336, "fusion_lon": 0.0, "rental_uris": {"ios": "https://dc.lft.to/lastmile_qr_scan", "android": "https://dc.lft.to/lastmile_qr_scan"}, "lon": -77.0169275, "bike_id": "78c970e9727a77fa89d338b0268e9db4", "type": "electric_scooter", "name": "78c970e9727a77fa89d338b0268e9db4"}, {"is_disabled": 0, "is_reserved": 0, "fusion_lat": 0.0, "lat": 38.88581166666667, "fusion_lon": 0.0, "rental_uris": {"ios": "https://dc.lft.to/lastmile_qr_scan", "android": "https://dc.lft.to/lastmile_qr_scan"}, "lon": -77.0122435, "bike_id": "51a1df2bf361bf253b6e5411dd0ad908", "type": "electric_scooter", "name": "51a1df2bf361bf253b6e5411dd0ad908"}, {"is_disabled": 0, "is_reserved": 0, "fusion_lat": 0.0, "lat": 38.9068065, "fusion_lon": 0.0, "rental_uris": {"ios": "https://dc.lft.to/lastmile_qr_scan", "android": "https://dc.lft.to/lastmile_qr_scan"}, "lon": -77.062896, "bike_id": "24ed4bf334535d7afb449b2187afefe1", "type": "electric_scooter", "name": "24ed4bf334535d7afb449b2187afefe1"}, {"is_disabled": 0, "is_reserved": 0, "fusion_lat": 0.0, "lat": 38.95368766666667, "fusion_lon": 0.0, "rental_uris": {"ios": "https://dc.lft.to/lastmile_qr_scan", "android": "https://dc.lft.to/lastmile_qr_scan"}, "lon": -76.99846383333333, "bike_id": "7431bfc8d148563a6a4a4c8713f5015f", "type": "electric_scooter", "name": "7431bfc8d148563a6a4a4c8713f5015f"}, {"is_disabled": 0, "is_reserved": 0, "fusion_lat": 0.0, "lat": 38.9023385, "fusion_lon": 0.0, "rental_uris": {"ios": "https://dc.lft.to/lastmile_qr_scan", "android": "https://dc.lft.to/lastmile_qr_scan"}, "lon": -77.000625, "bike_id": "2ee3dc0338ca12469940628f5cad362a", "type": "electric_scooter", "name": "2ee3dc0338ca12469940628f5cad362a"}, {"is_disabled": 0, "is_reserved": 0, "fusion_lat": 0.0, "lat": 38.87655483333333, "fusion_lon": 0.0, "rental_uris": {"ios": "https://dc.lft.to/lastmile_qr_scan", "android": "https://dc.lft.to/lastmile_qr_scan"}, "lon": -77.00748716666666, "bike_id": "f9b1aeaea590d915bc442e95dbccd2e5", "type": "electric_bike", "name": "f9b1aeaea590d915bc442e95dbccd2e5"}, {"is_disabled": 0, "is_reserved": 0, "fusion_lat": 0.0, "lat": 38.916929833333334, "fusion_lon": 0.0, "rental_uris": {"ios": "https://dc.lft.to/lastmile_qr_scan", "android": "https://dc.lft.to/lastmile_qr_scan"}, "lon": -77.03849033333333, "bike_id": "365ea357928db4cba9ffee603577010c", "type": "electric_scooter", "name": "365ea357928db4cba9ffee603577010c"}, {"is_disabled": 0, "is_reserved": 0, "fusion_lat": 0.0, "lat": 38.93702966666667, "fusion_lon": 0.0, "rental_uris": {"ios": "https://dc.lft.to/lastmile_qr_scan", "android": "https://dc.lft.to/lastmile_qr_scan"}, "lon": -77.055995, "bike_id": "744489b6b5c1fc87234e506409792de4", "type": "electric_scooter", "name": "744489b6b5c1fc87234e506409792de4"}, {"is_disabled": 0, "is_reserved": 0, "fusion_lat": 0.0, "lat": 38.95302016666667, "fusion_lon": 0.0, "rental_uris": {"ios": "https://dc.lft.to/lastmile_qr_scan", "android": "https://dc.lft.to/lastmile_qr_scan"}, "lon": -77.0202645, "bike_id": "3089b5e4c38beb6f1910bc69b9f7517b", "type": "electric_scooter", "name": "3089b5e4c38beb6f1910bc69b9f7517b"}, {"is_disabled": 0, "is_reserved": 0, "fusion_lat": 0.0, "lat": 38.900779166666666, "fusion_lon": 0.0, "rental_uris": {"ios": "https://dc.lft.to/lastmile_qr_scan", "android": "https://dc.lft.to/lastmile_qr_scan"}, "lon": -77.04472066666666, "bike_id": "59403991331c80daf65f8b732ac90bc1", "type": "electric_scooter", "name": "59403991331c80daf65f8b732ac90bc1"}, {"is_disabled": 0, "is_reserved": 0, "fusion_lat": 0.0, "lat": 38.915603833333336, "fusion_lon": 0.0, "rental_uris": {"ios": "https://dc.lft.to/lastmile_qr_scan", "android": "https://dc.lft.to/lastmile_qr_scan"}, "lon": -77.020901, "bike_id": "a650a8ec48cc18fc7284dc448454c759", "type": "electric_scooter", "name": "a650a8ec48cc18fc7284dc448454c759"}, {"is_disabled": 0, "is_reserved": 0, "fusion_lat": 0.0, "lat": 38.905355666666665, "fusion_lon": 0.0, "rental_uris": {"ios": "https://dc.lft.to/lastmile_qr_scan", "android": "https://dc.lft.to/lastmile_qr_scan"}, "lon": -77.05875416666667, "bike_id": "998ea6a66873d26eb7b0f91740737eed", "type": "electric_scooter", "name": "998ea6a66873d26eb7b0f91740737eed"}, {"is_disabled": 0, "is_reserved": 0, "fusion_lat": 0.0, "lat": 38.916574833333335, "fusion_lon": 0.0, "rental_uris": {"ios": "https://dc.lft.to/lastmile_qr_scan", "android": "https://dc.lft.to/lastmile_qr_scan"}, "lon": -77.0439045, "bike_id": "2ab584490ca97b6b163c7fe830b2ba88", "type": "electric_scooter", "name": "2ab584490ca97b6b163c7fe830b2ba88"}, {"is_disabled": 0, "is_reserved": 0, "fusion_lat": 0.0, "lat": 38.9240585, "fusion_lon": 0.0, "rental_uris": {"ios": "https://dc.lft.to/lastmile_qr_scan", "android": "https://dc.lft.to/lastmile_qr_scan"}, "lon": -77.0516925, "bike_id": "d84a17b6359f0eeef85ed93308b67705", "type": "electric_scooter", "name": "d84a17b6359f0eeef85ed93308b67705"}, {"is_disabled": 0, "is_reserved": 0, "fusion_lat": 0.0, "lat": 38.89748483333333, "fusion_lon": 0.0, "rental_uris": {"ios": "https://dc.lft.to/lastmile_qr_scan", "android": "https://dc.lft.to/lastmile_qr_scan"}, "lon": -77.05485766666666, "bike_id": "f1f15adb171ff4a3bf03571de98063a7", "type": "electric_scooter", "name": "f1f15adb171ff4a3bf03571de98063a7"}, {"is_disabled": 0, "is_reserved": 0, "fusion_lat": 0.0, "lat": 38.880714, "fusion_lon": 0.0, "rental_uris": {"ios": "https://dc.lft.to/lastmile_qr_scan", "android": "https://dc.lft.to/lastmile_qr_scan"}, "lon": -77.02560883333334, "bike_id": "46c9c47e80a8dff56d629d4b22360fa0", "type": "electric_scooter", "name": "46c9c47e80a8dff56d629d4b22360fa0"}, {"is_disabled": 0, "is_reserved": 0, "fusion_lat": 0.0, "lat": 38.87839566666667, "fusion_lon": 0.0, "rental_uris": {"ios": "https://dc.lft.to/lastmile_qr_scan", "android": "https://dc.lft.to/lastmile_qr_scan"}, "lon": -77.006884, "bike_id": "ed6e456b8feca4c136fd220637d0a951", "type": "electric_scooter", "name": "ed6e456b8feca4c136fd220637d0a951"}, {"is_disabled": 0, "is_reserved": 0, "fusion_lat": 0.0, "lat": 38.8949775, "fusion_lon": 0.0, "rental_uris": {"ios": "https://dc.lft.to/lastmile_qr_scan", "android": "https://dc.lft.to/lastmile_qr_scan"}, "lon": -77.02305816666667, "bike_id": "3a964e4d162606b80a140ed13cc7acdc", "type": "electric_scooter", "name": "3a964e4d162606b80a140ed13cc7acdc"}, {"is_disabled": 0, "is_reserved": 0, "fusion_lat": 0.0, "lat": 38.893904166666665, "fusion_lon": 0.0, "rental_uris": {"ios": "https://dc.lft.to/lastmile_qr_scan", "android": "https://dc.lft.to/lastmile_qr_scan"}, "lon": -77.02187966666666, "bike_id": "556761df568d3eb958067d38678ec2b0", "type": "electric_scooter", "name": "556761df568d3eb958067d38678ec2b0"}, {"is_disabled": 0, "is_reserved": 0, "fusion_lat": 0.0, "lat": 38.805240166666664, "fusion_lon": 0.0, "rental_uris": {"ios": "https://dc.lft.to/lastmile_qr_scan", "android": "https://dc.lft.to/lastmile_qr_scan"}, "lon": -77.04334766666666, "bike_id": "57b3203e82d7dfd6b5db5e9a0c732855", "type": "electric_bike", "name": "57b3203e82d7dfd6b5db5e9a0c732855"}, {"is_disabled": 0, "is_reserved": 0, "fusion_lat": 0.0, "lat": 38.92093333333333, "fusion_lon": 0.0, "rental_uris": {"ios": "https://dc.lft.to/lastmile_qr_scan", "android": "https://dc.lft.to/lastmile_qr_scan"}, "lon": -77.024042, "bike_id": "dbcd8a6353fb420271ce04eb21978af8", "type": "electric_scooter", "name": "dbcd8a6353fb420271ce04eb21978af8"}, {"is_disabled": 0, "is_reserved": 0, "fusion_lat": 0.0, "lat": 38.8974625, "fusion_lon": 0.0, "rental_uris": {"ios": "https://dc.lft.to/lastmile_qr_scan", "android": "https://dc.lft.to/lastmile_qr_scan"}, "lon": -77.017583, "bike_id": "cb7d9bafd1ec8fda289b4c885b03fbe3", "type": "electric_scooter", "name": "cb7d9bafd1ec8fda289b4c885b03fbe3"}, {"is_disabled": 0, "is_reserved": 0, "fusion_lat": 0.0, "lat": 38.88025783333333, "fusion_lon": 0.0, "rental_uris": {"ios": "https://dc.lft.to/lastmile_qr_scan", "android": "https://dc.lft.to/lastmile_qr_scan"}, "lon": -76.9431945, "bike_id": "3b5bc1c810af1fa54d0b756d62e42bfb", "type": "electric_scooter", "name": "3b5bc1c810af1fa54d0b756d62e42bfb"}, {"is_disabled": 0, "is_reserved": 0, "fusion_lat": 0.0, "lat": 38.86491066666667, "fusion_lon": 0.0, "rental_uris": {"ios": "https://dc.lft.to/lastmile_qr_scan", "android": "https://dc.lft.to/lastmile_qr_scan"}, "lon": -76.96980216666667, "bike_id": "6bc1b84505ac661eda905f63a76933b5", "type": "electric_bike", "name": "6bc1b84505ac661eda905f63a76933b5"}, {"is_disabled": 0, "is_reserved": 0, "fusion_lat": 0.0, "lat": 38.9006655, "fusion_lon": 0.0, "rental_uris": {"ios": "https://dc.lft.to/lastmile_qr_scan", "android": "https://dc.lft.to/lastmile_qr_scan"}, "lon": -77.04930833333333, "bike_id": "7ef8eae1bc749f72b9175711709ef576", "type": "electric_scooter", "name": "7ef8eae1bc749f72b9175711709ef576"}, {"is_disabled": 0, "is_reserved": 0, "fusion_lat": 0.0, "lat": 38.905671166666664, "fusion_lon": 0.0, "rental_uris": {"ios": "https://dc.lft.to/lastmile_qr_scan", "android": "https://dc.lft.to/lastmile_qr_scan"}, "lon": -77.017173, "bike_id": "c7d3f8516db5a2c7b1316e4ab4a800e1", "type": "electric_scooter", "name": "c7d3f8516db5a2c7b1316e4ab4a800e1"}, {"is_disabled": 0, "is_reserved": 0, "fusion_lat": 0.0, "lat": 38.94633533333333, "fusion_lon": 0.0, "rental_uris": {"ios": "https://dc.lft.to/lastmile_qr_scan", "android": "https://dc.lft.to/lastmile_qr_scan"}, "lon": -77.01840916666667, "bike_id": "ed16334563ebc3c37cd78c9cd9a0edb6", "type": "electric_scooter", "name": "ed16334563ebc3c37cd78c9cd9a0edb6"}, {"is_disabled": 0, "is_reserved": 0, "fusion_lat": 0.0, "lat": 38.91265683333334, "fusion_lon": 0.0, "rental_uris": {"ios": "https://dc.lft.to/lastmile_qr_scan", "android": "https://dc.lft.to/lastmile_qr_scan"}, "lon": -77.04593316666667, "bike_id": "c8990ddfd9ccb9b43aabac774c65bba0", "type": "electric_scooter", "name": "c8990ddfd9ccb9b43aabac774c65bba0"}, {"is_disabled": 0, "is_reserved": 0, "fusion_lat": 0.0, "lat": 38.92406833333333, "fusion_lon": 0.0, "rental_uris": {"ios": "https://dc.lft.to/lastmile_qr_scan", "android": "https://dc.lft.to/lastmile_qr_scan"}, "lon": -77.05168566666667, "bike_id": "a150915f403ed6cb97067e780504e485", "type": "electric_scooter", "name": "a150915f403ed6cb97067e780504e485"}, {"is_disabled": 0, "is_reserved": 0, "fusion_lat": 0.0, "lat": 38.900366166666664, "fusion_lon": 0.0, "rental_uris": {"ios": "https://dc.lft.to/lastmile_qr_scan", "android": "https://dc.lft.to/lastmile_qr_scan"}, "lon": -76.99496933333333, "bike_id": "68aa8e8ee98ffde56a527b1a240a5529", "type": "electric_scooter", "name": "68aa8e8ee98ffde56a527b1a240a5529"}, {"is_disabled": 0, "is_reserved": 0, "fusion_lat": 0.0, "lat": 38.89825116666667, "fusion_lon": 0.0, "rental_uris": {"ios": "https://dc.lft.to/lastmile_qr_scan", "android": "https://dc.lft.to/lastmile_qr_scan"}, "lon": -77.027999, "bike_id": "841b6cf738aae062986b7fc201c8bd17", "type": "electric_scooter", "name": "841b6cf738aae062986b7fc201c8bd17"}, {"is_disabled": 0, "is_reserved": 0, "fusion_lat": 0.0, "lat": 38.94589216666667, "fusion_lon": 0.0, "rental_uris": {"ios": "https://dc.lft.to/lastmile_qr_scan", "android": "https://dc.lft.to/lastmile_qr_scan"}, "lon": -77.020341, "bike_id": "5d477d0f73c2a996cc4b3195865c818e", "type": "electric_scooter", "name": "5d477d0f73c2a996cc4b3195865c818e"}, {"is_disabled": 0, "is_reserved": 0, "fusion_lat": 0.0, "lat": 38.9199045, "fusion_lon": 0.0, "rental_uris": {"ios": "https://dc.lft.to/lastmile_qr_scan", "android": "https://dc.lft.to/lastmile_qr_scan"}, "lon": -76.973039, "bike_id": "b7c6a8742110fd4cab61b77f8263ce2e", "type": "electric_scooter", "name": "b7c6a8742110fd4cab61b77f8263ce2e"}, {"is_disabled": 0, "is_reserved": 0, "fusion_lat": 0.0, "lat": 38.8428035, "fusion_lon": 0.0, "rental_uris": {"ios": "https://dc.lft.to/lastmile_qr_scan", "android": "https://dc.lft.to/lastmile_qr_scan"}, "lon": -76.98836016666667, "bike_id": "bb7106e21bd799e5dfe41a0fd3218896", "type": "electric_bike", "name": "bb7106e21bd799e5dfe41a0fd3218896"}, {"is_disabled": 0, "is_reserved": 0, "fusion_lat": 0.0, "lat": 38.92391766666667, "fusion_lon": 0.0, "rental_uris": {"ios": "https://dc.lft.to/lastmile_qr_scan", "android": "https://dc.lft.to/lastmile_qr_scan"}, "lon": -77.040416, "bike_id": "77a0d5a756d385e6091b7918925acf41", "type": "electric_scooter", "name": "77a0d5a756d385e6091b7918925acf41"}, {"is_disabled": 0, "is_reserved": 0, "fusion_lat": 0.0, "lat": 38.9157325, "fusion_lon": 0.0, "rental_uris": {"ios": "https://dc.lft.to/lastmile_qr_scan", "android": "https://dc.lft.to/lastmile_qr_scan"}, "lon": -77.03143316666667, "bike_id": "74baf48eb9a2e9350fd4338a74182e66", "type": "electric_scooter", "name": "74baf48eb9a2e9350fd4338a74182e66"}, {"is_disabled": 0, "is_reserved": 0, "fusion_lat": 0.0, "lat": 38.908262666666666, "fusion_lon": 0.0, "rental_uris": {"ios": "https://dc.lft.to/lastmile_qr_scan", "android": "https://dc.lft.to/lastmile_qr_scan"}, "lon": -77.03859483333333, "bike_id": "3fd6333ca941be355eac6bf011e5dca2", "type": "electric_bike", "name": "3fd6333ca941be355eac6bf011e5dca2"}, {"is_disabled": 0, "is_reserved": 0, "fusion_lat": 0.0, "lat": 38.916498833333335, "fusion_lon": 0.0, "rental_uris": {"ios": "https://dc.lft.to/lastmile_qr_scan", "android": "https://dc.lft.to/lastmile_qr_scan"}, "lon": -77.03194466666666, "bike_id": "ba778c663694dfec494fb635be2ae4dd", "type": "electric_scooter", "name": "ba778c663694dfec494fb635be2ae4dd"}, {"is_disabled": 0, "is_reserved": 0, "fusion_lat": 0.0, "lat": 38.924217666666664, "fusion_lon": 0.0, "rental_uris": {"ios": "https://dc.lft.to/lastmile_qr_scan", "android": "https://dc.lft.to/lastmile_qr_scan"}, "lon": -77.03543033333334, "bike_id": "6ecabf832342e81281add79e1ae2ef74", "type": "electric_scooter", "name": "6ecabf832342e81281add79e1ae2ef74"}, {"is_disabled": 0, "is_reserved": 0, "fusion_lat": 0.0, "lat": 38.9063945, "fusion_lon": 0.0, "rental_uris": {"ios": "https://dc.lft.to/lastmile_qr_scan", "android": "https://dc.lft.to/lastmile_qr_scan"}, "lon": -77.04540733333333, "bike_id": "4f3543bc241c984d02c4cc951a0f9a7a", "type": "electric_scooter", "name": "4f3543bc241c984d02c4cc951a0f9a7a"}, {"is_disabled": 0, "is_reserved": 0, "fusion_lat": 0.0, "lat": 38.8708885, "fusion_lon": 0.0, "rental_uris": {"ios": "https://dc.lft.to/lastmile_qr_scan", "android": "https://dc.lft.to/lastmile_qr_scan"}, "lon": -77.01078266666667, "bike_id": "3c2f5df852a055f0e44aa8a09c4831da", "type": "electric_scooter", "name": "3c2f5df852a055f0e44aa8a09c4831da"}, {"is_disabled": 0, "is_reserved": 0, "fusion_lat": 0.0, "lat": 38.88972666666667, "fusion_lon": 0.0, "rental_uris": {"ios": "https://dc.lft.to/lastmile_qr_scan", "android": "https://dc.lft.to/lastmile_qr_scan"}, "lon": -76.98172266666667, "bike_id": "320e11f98d29a975ada0cce5fa3a38b5", "type": "electric_scooter", "name": "320e11f98d29a975ada0cce5fa3a38b5"}, {"is_disabled": 0, "is_reserved": 0, "fusion_lat": 0.0, "lat": 38.876396166666666, "fusion_lon": 0.0, "rental_uris": {"ios": "https://dc.lft.to/lastmile_qr_scan", "android": "https://dc.lft.to/lastmile_qr_scan"}, "lon": -77.0020545, "bike_id": "bda3d1618aad0c00cec023ec0f1ff20d", "type": "electric_scooter", "name": "bda3d1618aad0c00cec023ec0f1ff20d"}, {"is_disabled": 0, "is_reserved": 0, "fusion_lat": 0.0, "lat": 38.879250666666664, "fusion_lon": 0.0, "rental_uris": {"ios": "https://dc.lft.to/lastmile_qr_scan", "android": "https://dc.lft.to/lastmile_qr_scan"}, "lon": -77.02370333333333, "bike_id": "9fcd97039cc448d791a4f8c2bbf70aec", "type": "electric_scooter", "name": "9fcd97039cc448d791a4f8c2bbf70aec"}, {"is_disabled": 0, "is_reserved": 0, "fusion_lat": 0.0, "lat": 38.924307666666664, "fusion_lon": 0.0, "rental_uris": {"ios": "https://dc.lft.to/lastmile_qr_scan", "android": "https://dc.lft.to/lastmile_qr_scan"}, "lon": -77.01951633333333, "bike_id": "3ea4b5a7cf8c98cff77ee402e31f52df", "type": "electric_scooter", "name": "3ea4b5a7cf8c98cff77ee402e31f52df"}, {"is_disabled": 0, "is_reserved": 0, "fusion_lat": 0.0, "lat": 38.903911666666666, "fusion_lon": 0.0, "rental_uris": {"ios": "https://dc.lft.to/lastmile_qr_scan", "android": "https://dc.lft.to/lastmile_qr_scan"}, "lon": -77.01766133333334, "bike_id": "82de688ce4f0ca1d1f68f0e8bd648950", "type": "electric_scooter", "name": "82de688ce4f0ca1d1f68f0e8bd648950"}, {"is_disabled": 0, "is_reserved": 0, "fusion_lat": 0.0, "lat": 38.917451666666665, "fusion_lon": 0.0, "rental_uris": {"ios": "https://dc.lft.to/lastmile_qr_scan", "android": "https://dc.lft.to/lastmile_qr_scan"}, "lon": -77.01085666666667, "bike_id": "62be5a0dba271632f15acdb0a12e690d", "type": "electric_scooter", "name": "62be5a0dba271632f15acdb0a12e690d"}, {"is_disabled": 0, "is_reserved": 0, "fusion_lat": 0.0, "lat": 38.899343333333334, "fusion_lon": 0.0, "rental_uris": {"ios": "https://dc.lft.to/lastmile_qr_scan", "android": "https://dc.lft.to/lastmile_qr_scan"}, "lon": -76.93762100000001, "bike_id": "0c7b0ea839a3dbd49d3cdb1b0ecf5e2e", "type": "electric_scooter", "name": "0c7b0ea839a3dbd49d3cdb1b0ecf5e2e"}, {"is_disabled": 0, "is_reserved": 0, "fusion_lat": 0.0, "lat": 38.902692, "fusion_lon": 0.0, "rental_uris": {"ios": "https://dc.lft.to/lastmile_qr_scan", "android": "https://dc.lft.to/lastmile_qr_scan"}, "lon": -77.06272033333333, "bike_id": "3070468817afdab10a7fea4bf6bc1cae", "type": "electric_scooter", "name": "3070468817afdab10a7fea4bf6bc1cae"}, {"is_disabled": 0, "is_reserved": 0, "fusion_lat": 0.0, "lat": 38.873485333333335, "fusion_lon": 0.0, "rental_uris": {"ios": "https://dc.lft.to/lastmile_qr_scan", "android": "https://dc.lft.to/lastmile_qr_scan"}, "lon": -77.00195983333333, "bike_id": "42d4e29e4c0a680a73f3c90f3e8e50f0", "type": "electric_scooter", "name": "42d4e29e4c0a680a73f3c90f3e8e50f0"}, {"is_disabled": 0, "is_reserved": 0, "fusion_lat": 0.0, "lat": 38.9229085, "fusion_lon": 0.0, "rental_uris": {"ios": "https://dc.lft.to/lastmile_qr_scan", "android": "https://dc.lft.to/lastmile_qr_scan"}, "lon": -77.02970616666667, "bike_id": "ff3ab57930c102bebd8372d6ca528baf", "type": "electric_scooter", "name": "ff3ab57930c102bebd8372d6ca528baf"}, {"is_disabled": 0, "is_reserved": 0, "fusion_lat": 0.0, "lat": 38.90445116666667, "fusion_lon": 0.0, "rental_uris": {"ios": "https://dc.lft.to/lastmile_qr_scan", "android": "https://dc.lft.to/lastmile_qr_scan"}, "lon": -76.97304833333334, "bike_id": "636669ce627891d2fd93732a7a80ca29", "type": "electric_scooter", "name": "636669ce627891d2fd93732a7a80ca29"}, {"is_disabled": 0, "is_reserved": 0, "fusion_lat": 0.0, "lat": 38.8427345, "fusion_lon": 0.0, "rental_uris": {"ios": "https://dc.lft.to/lastmile_qr_scan", "android": "https://dc.lft.to/lastmile_qr_scan"}, "lon": -76.988373, "bike_id": "706e40a6666879bd307e36f19d0601b9", "type": "electric_scooter", "name": "706e40a6666879bd307e36f19d0601b9"}, {"is_disabled": 0, "is_reserved": 0, "fusion_lat": 0.0, "lat": 38.956444, "fusion_lon": 0.0, "rental_uris": {"ios": "https://dc.lft.to/lastmile_qr_scan", "android": "https://dc.lft.to/lastmile_qr_scan"}, "lon": -77.028174, "bike_id": "402c68647a75d966b8c02fc2f48f2b9f", "type": "electric_scooter", "name": "402c68647a75d966b8c02fc2f48f2b9f"}, {"is_disabled": 0, "is_reserved": 0, "fusion_lat": 0.0, "lat": 38.87648766666667, "fusion_lon": 0.0, "rental_uris": {"ios": "https://dc.lft.to/lastmile_qr_scan", "android": "https://dc.lft.to/lastmile_qr_scan"}, "lon": -77.0083205, "bike_id": "ebb99be6a9f8614da6505cee739240f5", "type": "electric_scooter", "name": "ebb99be6a9f8614da6505cee739240f5"}, {"is_disabled": 0, "is_reserved": 0, "fusion_lat": 0.0, "lat": 38.89783833333333, "fusion_lon": 0.0, "rental_uris": {"ios": "https://dc.lft.to/lastmile_qr_scan", "android": "https://dc.lft.to/lastmile_qr_scan"}, "lon": -77.04670966666667, "bike_id": "2110515763299803509f4c51c630c144", "type": "electric_scooter", "name": "2110515763299803509f4c51c630c144"}, {"is_disabled": 0, "is_reserved": 0, "fusion_lat": 0.0, "lat": 38.9135065, "fusion_lon": 0.0, "rental_uris": {"ios": "https://dc.lft.to/lastmile_qr_scan", "android": "https://dc.lft.to/lastmile_qr_scan"}, "lon": -77.0442125, "bike_id": "bea537c88d4cbe2b4ad4e3ab0d18dfa1", "type": "electric_scooter", "name": "bea537c88d4cbe2b4ad4e3ab0d18dfa1"}, {"is_disabled": 0, "is_reserved": 0, "fusion_lat": 0.0, "lat": 38.89370483333333, "fusion_lon": 0.0, "rental_uris": {"ios": "https://dc.lft.to/lastmile_qr_scan", "android": "https://dc.lft.to/lastmile_qr_scan"}, "lon": -77.011528, "bike_id": "492f52ac4f2d1b846322a222e4d1cc84", "type": "electric_scooter", "name": "492f52ac4f2d1b846322a222e4d1cc84"}, {"is_disabled": 0, "is_reserved": 0, "fusion_lat": 0.0, "lat": 38.92380716666667, "fusion_lon": 0.0, "rental_uris": {"ios": "https://dc.lft.to/lastmile_qr_scan", "android": "https://dc.lft.to/lastmile_qr_scan"}, "lon": -77.02031916666667, "bike_id": "5335e6aff005b699eb56bbc03b1a23ae", "type": "electric_scooter", "name": "5335e6aff005b699eb56bbc03b1a23ae"}, {"is_disabled": 0, "is_reserved": 0, "fusion_lat": 0.0, "lat": 38.943142333333334, "fusion_lon": 0.0, "rental_uris": {"ios": "https://dc.lft.to/lastmile_qr_scan", "android": "https://dc.lft.to/lastmile_qr_scan"}, "lon": -77.017261, "bike_id": "b4f92d30c18314146b26c19b2beaa984", "type": "electric_scooter", "name": "b4f92d30c18314146b26c19b2beaa984"}, {"is_disabled": 0, "is_reserved": 0, "fusion_lat": 0.0, "lat": 38.90728266666667, "fusion_lon": 0.0, "rental_uris": {"ios": "https://dc.lft.to/lastmile_qr_scan", "android": "https://dc.lft.to/lastmile_qr_scan"}, "lon": -77.003407, "bike_id": "39d93a973a920e4b8cbba7194f4147af", "type": "electric_scooter", "name": "39d93a973a920e4b8cbba7194f4147af"}, {"is_disabled": 0, "is_reserved": 0, "fusion_lat": 0.0, "lat": 38.90542583333333, "fusion_lon": 0.0, "rental_uris": {"ios": "https://dc.lft.to/lastmile_qr_scan", "android": "https://dc.lft.to/lastmile_qr_scan"}, "lon": -77.05697483333333, "bike_id": "6322a522226c1e6375ee717aca932006", "type": "electric_scooter", "name": "6322a522226c1e6375ee717aca932006"}, {"is_disabled": 0, "is_reserved": 0, "fusion_lat": 0.0, "lat": 38.9155395, "fusion_lon": 0.0, "rental_uris": {"ios": "https://dc.lft.to/lastmile_qr_scan", "android": "https://dc.lft.to/lastmile_qr_scan"}, "lon": -77.03135533333334, "bike_id": "3128b2288343143a83139988974d9e5e", "type": "electric_scooter", "name": "3128b2288343143a83139988974d9e5e"}, {"is_disabled": 0, "is_reserved": 0, "fusion_lat": 0.0, "lat": 38.92220016666667, "fusion_lon": 0.0, "rental_uris": {"ios": "https://dc.lft.to/lastmile_qr_scan", "android": "https://dc.lft.to/lastmile_qr_scan"}, "lon": -77.04267883333333, "bike_id": "bc13093060ebcd3ee1d855479b879fca", "type": "electric_scooter", "name": "bc13093060ebcd3ee1d855479b879fca"}, {"is_disabled": 0, "is_reserved": 0, "fusion_lat": 0.0, "lat": 38.895498, "fusion_lon": 0.0, "rental_uris": {"ios": "https://dc.lft.to/lastmile_qr_scan", "android": "https://dc.lft.to/lastmile_qr_scan"}, "lon": -77.0398625, "bike_id": "b1989162b43813ea0abf605f4542036c", "type": "electric_scooter", "name": "b1989162b43813ea0abf605f4542036c"}, {"is_disabled": 0, "is_reserved": 0, "fusion_lat": 0.0, "lat": 38.919235, "fusion_lon": 0.0, "rental_uris": {"ios": "https://dc.lft.to/lastmile_qr_scan", "android": "https://dc.lft.to/lastmile_qr_scan"}, "lon": -77.00970716666667, "bike_id": "10bbfd679f8e295223059da9c4b2c1cf", "type": "electric_scooter", "name": "10bbfd679f8e295223059da9c4b2c1cf"}, {"is_disabled": 0, "is_reserved": 0, "fusion_lat": 0.0, "lat": 38.90185233333333, "fusion_lon": 0.0, "rental_uris": {"ios": "https://dc.lft.to/lastmile_qr_scan", "android": "https://dc.lft.to/lastmile_qr_scan"}, "lon": -77.00208366666666, "bike_id": "42cad9d48c422b0ccc3a2c3fcde63a32", "type": "electric_scooter", "name": "42cad9d48c422b0ccc3a2c3fcde63a32"}, {"is_disabled": 0, "is_reserved": 0, "fusion_lat": 0.0, "lat": 38.90093816666667, "fusion_lon": 0.0, "rental_uris": {"ios": "https://dc.lft.to/lastmile_qr_scan", "android": "https://dc.lft.to/lastmile_qr_scan"}, "lon": -77.01761333333333, "bike_id": "3ed3aa85064dd7a99d879287556ff1e4", "type": "electric_scooter", "name": "3ed3aa85064dd7a99d879287556ff1e4"}, {"is_disabled": 0, "is_reserved": 0, "fusion_lat": 0.0, "lat": 38.9275245, "fusion_lon": 0.0, "rental_uris": {"ios": "https://dc.lft.to/lastmile_qr_scan", "android": "https://dc.lft.to/lastmile_qr_scan"}, "lon": -77.03264416666667, "bike_id": "16320f72f9d6c182c1bdd408657e1867", "type": "electric_scooter", "name": "16320f72f9d6c182c1bdd408657e1867"}, {"is_disabled": 0, "is_reserved": 0, "fusion_lat": 0.0, "lat": 38.90778733333333, "fusion_lon": 0.0, "rental_uris": {"ios": "https://dc.lft.to/lastmile_qr_scan", "android": "https://dc.lft.to/lastmile_qr_scan"}, "lon": -77.06839183333334, "bike_id": "8d132ee4086167c5eae0043a2b630398", "type": "electric_scooter", "name": "8d132ee4086167c5eae0043a2b630398"}, {"is_disabled": 0, "is_reserved": 0, "fusion_lat": 0.0, "lat": 38.902045333333334, "fusion_lon": 0.0, "rental_uris": {"ios": "https://dc.lft.to/lastmile_qr_scan", "android": "https://dc.lft.to/lastmile_qr_scan"}, "lon": -76.99256866666667, "bike_id": "b1f0f857963d74d9185c17e9b1f9f86c", "type": "electric_scooter", "name": "b1f0f857963d74d9185c17e9b1f9f86c"}, {"is_disabled": 0, "is_reserved": 0, "fusion_lat": 0.0, "lat": 38.89478666666667, "fusion_lon": 0.0, "rental_uris": {"ios": "https://dc.lft.to/lastmile_qr_scan", "android": "https://dc.lft.to/lastmile_qr_scan"}, "lon": -77.02271383333333, "bike_id": "65bc1f23306100e4baa8ebd54681fd43", "type": "electric_scooter", "name": "65bc1f23306100e4baa8ebd54681fd43"}, {"is_disabled": 0, "is_reserved": 0, "fusion_lat": 0.0, "lat": 38.91465766666666, "fusion_lon": 0.0, "rental_uris": {"ios": "https://dc.lft.to/lastmile_qr_scan", "android": "https://dc.lft.to/lastmile_qr_scan"}, "lon": -77.0219195, "bike_id": "2ed5faec4b8e1fc8257847f00c0cb926", "type": "electric_scooter", "name": "2ed5faec4b8e1fc8257847f00c0cb926"}, {"is_disabled": 0, "is_reserved": 0, "fusion_lat": 0.0, "lat": 38.906153833333335, "fusion_lon": 0.0, "rental_uris": {"ios": "https://dc.lft.to/lastmile_qr_scan", "android": "https://dc.lft.to/lastmile_qr_scan"}, "lon": -77.02108216666667, "bike_id": "841aafb38f26d41f4504feeb7f6b77e5", "type": "electric_scooter", "name": "841aafb38f26d41f4504feeb7f6b77e5"}, {"is_disabled": 0, "is_reserved": 0, "fusion_lat": 0.0, "lat": 38.8551695, "fusion_lon": 0.0, "rental_uris": {"ios": "https://dc.lft.to/lastmile_qr_scan", "android": "https://dc.lft.to/lastmile_qr_scan"}, "lon": -76.991388, "bike_id": "6ed7399203fc259b93ccfdf4d0f2c0d6", "type": "electric_scooter", "name": "6ed7399203fc259b93ccfdf4d0f2c0d6"}, {"is_disabled": 0, "is_reserved": 0, "fusion_lat": 0.0, "lat": 38.92221, "fusion_lon": 0.0, "rental_uris": {"ios": "https://dc.lft.to/lastmile_qr_scan", "android": "https://dc.lft.to/lastmile_qr_scan"}, "lon": -77.032859, "bike_id": "5b726ef5265d485dcd0ca9431f175d54", "type": "electric_scooter", "name": "5b726ef5265d485dcd0ca9431f175d54"}, {"is_disabled": 0, "is_reserved": 0, "fusion_lat": 0.0, "lat": 38.9017225, "fusion_lon": 0.0, "rental_uris": {"ios": "https://dc.lft.to/lastmile_qr_scan", "android": "https://dc.lft.to/lastmile_qr_scan"}, "lon": -76.98733283333334, "bike_id": "0b33a7ee0ff98928c778eafab22f7cd7", "type": "electric_scooter", "name": "0b33a7ee0ff98928c778eafab22f7cd7"}, {"is_disabled": 0, "is_reserved": 0, "fusion_lat": 0.0, "lat": 38.917859, "fusion_lon": 0.0, "rental_uris": {"ios": "https://dc.lft.to/lastmile_qr_scan", "android": "https://dc.lft.to/lastmile_qr_scan"}, "lon": -77.03171083333334, "bike_id": "21c48ee88de4a7640e86284bcf4e1fbe", "type": "electric_scooter", "name": "21c48ee88de4a7640e86284bcf4e1fbe"}, {"is_disabled": 0, "is_reserved": 0, "fusion_lat": 0.0, "lat": 38.904773666666664, "fusion_lon": 0.0, "rental_uris": {"ios": "https://dc.lft.to/lastmile_qr_scan", "android": "https://dc.lft.to/lastmile_qr_scan"}, "lon": -76.950557, "bike_id": "5d7538b0f1a8c6c3a24f89f9c7c42f2e", "type": "electric_scooter", "name": "5d7538b0f1a8c6c3a24f89f9c7c42f2e"}, {"is_disabled": 0, "is_reserved": 0, "fusion_lat": 0.0, "lat": 38.8984985, "fusion_lon": 0.0, "rental_uris": {"ios": "https://dc.lft.to/lastmile_qr_scan", "android": "https://dc.lft.to/lastmile_qr_scan"}, "lon": -77.00051166666667, "bike_id": "8a09ca2d9608a383d4c2f5eaa6be6ade", "type": "electric_scooter", "name": "8a09ca2d9608a383d4c2f5eaa6be6ade"}, {"is_disabled": 0, "is_reserved": 0, "fusion_lat": 0.0, "lat": 38.971549, "fusion_lon": 0.0, "rental_uris": {"ios": "https://dc.lft.to/lastmile_qr_scan", "android": "https://dc.lft.to/lastmile_qr_scan"}, "lon": -76.983613, "bike_id": "91ffed9f4aa20b0608b3692d5134aa05", "type": "electric_bike", "name": "91ffed9f4aa20b0608b3692d5134aa05"}, {"is_disabled": 0, "is_reserved": 0, "fusion_lat": 0.0, "lat": 38.90835916666666, "fusion_lon": 0.0, "rental_uris": {"ios": "https://dc.lft.to/lastmile_qr_scan", "android": "https://dc.lft.to/lastmile_qr_scan"}, "lon": -76.996923, "bike_id": "fea49a24871e58722f39ac3bb5c93636", "type": "electric_scooter", "name": "fea49a24871e58722f39ac3bb5c93636"}, {"is_disabled": 0, "is_reserved": 0, "fusion_lat": 0.0, "lat": 38.923744, "fusion_lon": 0.0, "rental_uris": {"ios": "https://dc.lft.to/lastmile_qr_scan", "android": "https://dc.lft.to/lastmile_qr_scan"}, "lon": -77.02919583333333, "bike_id": "9bd5718c751ceca75c3638099695f990", "type": "electric_scooter", "name": "9bd5718c751ceca75c3638099695f990"}, {"is_disabled": 0, "is_reserved": 0, "fusion_lat": 0.0, "lat": 38.91626466666666, "fusion_lon": 0.0, "rental_uris": {"ios": "https://dc.lft.to/lastmile_qr_scan", "android": "https://dc.lft.to/lastmile_qr_scan"}, "lon": -77.0050185, "bike_id": "c3108f3536944b26d8a21e6b326121f6", "type": "electric_scooter", "name": "c3108f3536944b26d8a21e6b326121f6"}, {"is_disabled": 0, "is_reserved": 0, "fusion_lat": 0.0, "lat": 38.9393195, "fusion_lon": 0.0, "rental_uris": {"ios": "https://dc.lft.to/lastmile_qr_scan", "android": "https://dc.lft.to/lastmile_qr_scan"}, "lon": -77.02586516666666, "bike_id": "d81f3fa7c1fb5bdd68bf6392494a9a19", "type": "electric_scooter", "name": "d81f3fa7c1fb5bdd68bf6392494a9a19"}, {"is_disabled": 0, "is_reserved": 0, "fusion_lat": 0.0, "lat": 38.8962975, "fusion_lon": 0.0, "rental_uris": {"ios": "https://dc.lft.to/lastmile_qr_scan", "android": "https://dc.lft.to/lastmile_qr_scan"}, "lon": -77.03335383333334, "bike_id": "f897e5ed84419618de14469dde455c4f", "type": "electric_scooter", "name": "f897e5ed84419618de14469dde455c4f"}, {"is_disabled": 0, "is_reserved": 0, "fusion_lat": 0.0, "lat": 38.91703316666667, "fusion_lon": 0.0, "rental_uris": {"ios": "https://dc.lft.to/lastmile_qr_scan", "android": "https://dc.lft.to/lastmile_qr_scan"}, "lon": -77.02406566666667, "bike_id": "957fed8af359c71b24ba3f67aa595ee2", "type": "electric_scooter", "name": "957fed8af359c71b24ba3f67aa595ee2"}, {"is_disabled": 0, "is_reserved": 0, "fusion_lat": 0.0, "lat": 38.90346016666667, "fusion_lon": 0.0, "rental_uris": {"ios": "https://dc.lft.to/lastmile_qr_scan", "android": "https://dc.lft.to/lastmile_qr_scan"}, "lon": -76.97492583333333, "bike_id": "b28e8a96308bde61697220982dac5405", "type": "electric_scooter", "name": "b28e8a96308bde61697220982dac5405"}, {"is_disabled": 0, "is_reserved": 0, "fusion_lat": 0.0, "lat": 38.9264955, "fusion_lon": 0.0, "rental_uris": {"ios": "https://dc.lft.to/lastmile_qr_scan", "android": "https://dc.lft.to/lastmile_qr_scan"}, "lon": -77.090176, "bike_id": "702cd85ccb2dadf88c2769e0eef5c57f", "type": "electric_bike", "name": "702cd85ccb2dadf88c2769e0eef5c57f"}, {"is_disabled": 0, "is_reserved": 0, "fusion_lat": 0.0, "lat": 38.92331716666666, "fusion_lon": 0.0, "rental_uris": {"ios": "https://dc.lft.to/lastmile_qr_scan", "android": "https://dc.lft.to/lastmile_qr_scan"}, "lon": -77.02806633333333, "bike_id": "60d664050eb2f636071cb1f79b80d8c1", "type": "electric_scooter", "name": "60d664050eb2f636071cb1f79b80d8c1"}, {"is_disabled": 0, "is_reserved": 0, "fusion_lat": 0.0, "lat": 38.87842416666667, "fusion_lon": 0.0, "rental_uris": {"ios": "https://dc.lft.to/lastmile_qr_scan", "android": "https://dc.lft.to/lastmile_qr_scan"}, "lon": -76.931306, "bike_id": "49707e8c2b51e73271f8b1272f6b3407", "type": "electric_scooter", "name": "49707e8c2b51e73271f8b1272f6b3407"}, {"is_disabled": 0, "is_reserved": 0, "fusion_lat": 0.0, "lat": 38.9055175, "fusion_lon": 0.0, "rental_uris": {"ios": "https://dc.lft.to/lastmile_qr_scan", "android": "https://dc.lft.to/lastmile_qr_scan"}, "lon": -77.0031895, "bike_id": "8fb6c19a9d21931cffc8618ea2277557", "type": "electric_scooter", "name": "8fb6c19a9d21931cffc8618ea2277557"}, {"is_disabled": 0, "is_reserved": 0, "fusion_lat": 0.0, "lat": 38.903740166666665, "fusion_lon": 0.0, "rental_uris": {"ios": "https://dc.lft.to/lastmile_qr_scan", "android": "https://dc.lft.to/lastmile_qr_scan"}, "lon": -77.0056235, "bike_id": "80baed4b85719f8490e4062c43f48a89", "type": "electric_scooter", "name": "80baed4b85719f8490e4062c43f48a89"}, {"is_disabled": 0, "is_reserved": 0, "fusion_lat": 0.0, "lat": 38.907155833333334, "fusion_lon": 0.0, "rental_uris": {"ios": "https://dc.lft.to/lastmile_qr_scan", "android": "https://dc.lft.to/lastmile_qr_scan"}, "lon": -77.050492, "bike_id": "293ad3356dd1b3f9c931d94b12865766", "type": "electric_scooter", "name": "293ad3356dd1b3f9c931d94b12865766"}, {"is_disabled": 0, "is_reserved": 0, "fusion_lat": 0.0, "lat": 38.901255166666665, "fusion_lon": 0.0, "rental_uris": {"ios": "https://dc.lft.to/lastmile_qr_scan", "android": "https://dc.lft.to/lastmile_qr_scan"}, "lon": -77.00356083333334, "bike_id": "0c1ba7d1ab39f4de7527dca651f23d59", "type": "electric_scooter", "name": "0c1ba7d1ab39f4de7527dca651f23d59"}, {"is_disabled": 0, "is_reserved": 0, "fusion_lat": 0.0, "lat": 38.98147616666667, "fusion_lon": 0.0, "rental_uris": {"ios": "https://dc.lft.to/lastmile_qr_scan", "android": "https://dc.lft.to/lastmile_qr_scan"}, "lon": -77.00771366666666, "bike_id": "af8aa91d43564cedb3bf015c62062659", "type": "electric_bike", "name": "af8aa91d43564cedb3bf015c62062659"}, {"is_disabled": 0, "is_reserved": 0, "fusion_lat": 0.0, "lat": 39.01069066666667, "fusion_lon": 0.0, "rental_uris": {"ios": "https://dc.lft.to/lastmile_qr_scan", "android": "https://dc.lft.to/lastmile_qr_scan"}, "lon": -76.9223685, "bike_id": "721d3cd21e037e978bee3d92edf2113f", "type": "electric_bike", "name": "721d3cd21e037e978bee3d92edf2113f"}, {"is_disabled": 0, "is_reserved": 0, "fusion_lat": 0.0, "lat": 38.9014555, "fusion_lon": 0.0, "rental_uris": {"ios": "https://dc.lft.to/lastmile_qr_scan", "android": "https://dc.lft.to/lastmile_qr_scan"}, "lon": -76.98554216666666, "bike_id": "6d5c1c2fe877cc9c06a02181f5220812", "type": "electric_scooter", "name": "6d5c1c2fe877cc9c06a02181f5220812"}, {"is_disabled": 0, "is_reserved": 0, "fusion_lat": 0.0, "lat": 38.918063833333335, "fusion_lon": 0.0, "rental_uris": {"ios": "https://dc.lft.to/lastmile_qr_scan", "android": "https://dc.lft.to/lastmile_qr_scan"}, "lon": -77.02493533333333, "bike_id": "329c7cd8f48f3d0c9f47fe129bff3d83", "type": "electric_scooter", "name": "329c7cd8f48f3d0c9f47fe129bff3d83"}, {"is_disabled": 0, "is_reserved": 0, "fusion_lat": 0.0, "lat": 38.9191785, "fusion_lon": 0.0, "rental_uris": {"ios": "https://dc.lft.to/lastmile_qr_scan", "android": "https://dc.lft.to/lastmile_qr_scan"}, "lon": -77.03436716666667, "bike_id": "b249c658f0eacfcd6fda370b746310a1", "type": "electric_scooter", "name": "b249c658f0eacfcd6fda370b746310a1"}, {"is_disabled": 0, "is_reserved": 0, "fusion_lat": 0.0, "lat": 38.87445533333333, "fusion_lon": 0.0, "rental_uris": {"ios": "https://dc.lft.to/lastmile_qr_scan", "android": "https://dc.lft.to/lastmile_qr_scan"}, "lon": -77.0092215, "bike_id": "776d6e1b0254252db647cc42ff32415b", "type": "electric_scooter", "name": "776d6e1b0254252db647cc42ff32415b"}, {"is_disabled": 0, "is_reserved": 0, "fusion_lat": 0.0, "lat": 38.880098, "fusion_lon": 0.0, "rental_uris": {"ios": "https://dc.lft.to/lastmile_qr_scan", "android": "https://dc.lft.to/lastmile_qr_scan"}, "lon": -76.99740083333333, "bike_id": "4bf7bf1e38dc02c33fda61da16b24a8b", "type": "electric_scooter", "name": "4bf7bf1e38dc02c33fda61da16b24a8b"}, {"is_disabled": 0, "is_reserved": 0, "fusion_lat": 0.0, "lat": 38.863729166666666, "fusion_lon": 0.0, "rental_uris": {"ios": "https://dc.lft.to/lastmile_qr_scan", "android": "https://dc.lft.to/lastmile_qr_scan"}, "lon": -77.01357066666667, "bike_id": "5cb573fb0db7321bdd174bdf42a8594d", "type": "electric_scooter", "name": "5cb573fb0db7321bdd174bdf42a8594d"}, {"is_disabled": 0, "is_reserved": 0, "fusion_lat": 0.0, "lat": 38.900809833333334, "fusion_lon": 0.0, "rental_uris": {"ios": "https://dc.lft.to/lastmile_qr_scan", "android": "https://dc.lft.to/lastmile_qr_scan"}, "lon": -77.04986116666667, "bike_id": "aea1fbcff080c149d34bf64a472f206f", "type": "electric_scooter", "name": "aea1fbcff080c149d34bf64a472f206f"}, {"is_disabled": 0, "is_reserved": 0, "fusion_lat": 0.0, "lat": 38.920282, "fusion_lon": 0.0, "rental_uris": {"ios": "https://dc.lft.to/lastmile_qr_scan", "android": "https://dc.lft.to/lastmile_qr_scan"}, "lon": -77.038517, "bike_id": "5c00af5aeed9b2e8eb8e03a765f5de2c", "type": "electric_scooter", "name": "5c00af5aeed9b2e8eb8e03a765f5de2c"}, {"is_disabled": 0, "is_reserved": 0, "fusion_lat": 0.0, "lat": 38.90236683333333, "fusion_lon": 0.0, "rental_uris": {"ios": "https://dc.lft.to/lastmile_qr_scan", "android": "https://dc.lft.to/lastmile_qr_scan"}, "lon": -77.01910433333333, "bike_id": "21084fc931e63a7ab5dc6044e3d06a3d", "type": "electric_scooter", "name": "21084fc931e63a7ab5dc6044e3d06a3d"}, {"is_disabled": 0, "is_reserved": 0, "fusion_lat": 0.0, "lat": 38.927227, "fusion_lon": 0.0, "rental_uris": {"ios": "https://dc.lft.to/lastmile_qr_scan", "android": "https://dc.lft.to/lastmile_qr_scan"}, "lon": -77.0513055, "bike_id": "889bc6d41e8b5a0d0ee1bde1b90591cb", "type": "electric_scooter", "name": "889bc6d41e8b5a0d0ee1bde1b90591cb"}, {"is_disabled": 0, "is_reserved": 0, "fusion_lat": 0.0, "lat": 38.89678, "fusion_lon": 0.0, "rental_uris": {"ios": "https://dc.lft.to/lastmile_qr_scan", "android": "https://dc.lft.to/lastmile_qr_scan"}, "lon": -77.04340366666666, "bike_id": "7a809987287f586d6533c1daacc92b52", "type": "electric_scooter", "name": "7a809987287f586d6533c1daacc92b52"}, {"is_disabled": 0, "is_reserved": 0, "fusion_lat": 0.0, "lat": 38.908420666666665, "fusion_lon": 0.0, "rental_uris": {"ios": "https://dc.lft.to/lastmile_qr_scan", "android": "https://dc.lft.to/lastmile_qr_scan"}, "lon": -77.02693733333334, "bike_id": "164a591f2dbac3b427a6ac7dce879a7e", "type": "electric_scooter", "name": "164a591f2dbac3b427a6ac7dce879a7e"}, {"is_disabled": 0, "is_reserved": 0, "fusion_lat": 0.0, "lat": 38.924069, "fusion_lon": 0.0, "rental_uris": {"ios": "https://dc.lft.to/lastmile_qr_scan", "android": "https://dc.lft.to/lastmile_qr_scan"}, "lon": -77.0389415, "bike_id": "62ad479ff70753eab80eb24c16d7c357", "type": "electric_scooter", "name": "62ad479ff70753eab80eb24c16d7c357"}, {"is_disabled": 0, "is_reserved": 0, "fusion_lat": 0.0, "lat": 38.905889, "fusion_lon": 0.0, "rental_uris": {"ios": "https://dc.lft.to/lastmile_qr_scan", "android": "https://dc.lft.to/lastmile_qr_scan"}, "lon": -77.04451983333334, "bike_id": "0d0cbb6394f657d715a8e50c31f256ca", "type": "electric_scooter", "name": "0d0cbb6394f657d715a8e50c31f256ca"}, {"is_disabled": 0, "is_reserved": 0, "fusion_lat": 0.0, "lat": 38.89881883333334, "fusion_lon": 0.0, "rental_uris": {"ios": "https://dc.lft.to/lastmile_qr_scan", "android": "https://dc.lft.to/lastmile_qr_scan"}, "lon": -76.93173733333333, "bike_id": "c447544ba8e6f37580552223ea6f68c4", "type": "electric_scooter", "name": "c447544ba8e6f37580552223ea6f68c4"}, {"is_disabled": 0, "is_reserved": 0, "fusion_lat": 0.0, "lat": 38.927838, "fusion_lon": 0.0, "rental_uris": {"ios": "https://dc.lft.to/lastmile_qr_scan", "android": "https://dc.lft.to/lastmile_qr_scan"}, "lon": -77.031441, "bike_id": "8f6741019cedc6d211eec0d8eabf1767", "type": "electric_scooter", "name": "8f6741019cedc6d211eec0d8eabf1767"}, {"is_disabled": 0, "is_reserved": 0, "fusion_lat": 0.0, "lat": 38.93751183333333, "fusion_lon": 0.0, "rental_uris": {"ios": "https://dc.lft.to/lastmile_qr_scan", "android": "https://dc.lft.to/lastmile_qr_scan"}, "lon": -77.02445183333333, "bike_id": "4f52bd112aae6357ca28f7e62d291e17", "type": "electric_scooter", "name": "4f52bd112aae6357ca28f7e62d291e17"}, {"is_disabled": 0, "is_reserved": 0, "fusion_lat": 0.0, "lat": 38.9188855, "fusion_lon": 0.0, "rental_uris": {"ios": "https://dc.lft.to/lastmile_qr_scan", "android": "https://dc.lft.to/lastmile_qr_scan"}, "lon": -77.0347495, "bike_id": "54009e4e59ba62be47303f03d205bccb", "type": "electric_scooter", "name": "54009e4e59ba62be47303f03d205bccb"}, {"is_disabled": 0, "is_reserved": 0, "fusion_lat": 0.0, "lat": 38.87678116666667, "fusion_lon": 0.0, "rental_uris": {"ios": "https://dc.lft.to/lastmile_qr_scan", "android": "https://dc.lft.to/lastmile_qr_scan"}, "lon": -77.00339666666666, "bike_id": "98c7fabc403d62140f7c5ad8432edfca", "type": "electric_scooter", "name": "98c7fabc403d62140f7c5ad8432edfca"}, {"is_disabled": 0, "is_reserved": 0, "fusion_lat": 0.0, "lat": 38.898421666666664, "fusion_lon": 0.0, "rental_uris": {"ios": "https://dc.lft.to/lastmile_qr_scan", "android": "https://dc.lft.to/lastmile_qr_scan"}, "lon": -76.98822183333333, "bike_id": "a51513418cc3bae05b440ba60d94a705", "type": "electric_scooter", "name": "a51513418cc3bae05b440ba60d94a705"}, {"is_disabled": 0, "is_reserved": 0, "fusion_lat": 0.0, "lat": 38.923522, "fusion_lon": 0.0, "rental_uris": {"ios": "https://dc.lft.to/lastmile_qr_scan", "android": "https://dc.lft.to/lastmile_qr_scan"}, "lon": -77.03316183333334, "bike_id": "50be72539550c4dcc1b6e55a702ba79f", "type": "electric_scooter", "name": "50be72539550c4dcc1b6e55a702ba79f"}, {"is_disabled": 0, "is_reserved": 0, "fusion_lat": 0.0, "lat": 38.89504566666667, "fusion_lon": 0.0, "rental_uris": {"ios": "https://dc.lft.to/lastmile_qr_scan", "android": "https://dc.lft.to/lastmile_qr_scan"}, "lon": -77.022952, "bike_id": "4bc0060884fded4e8369fe90c88133ca", "type": "electric_scooter", "name": "4bc0060884fded4e8369fe90c88133ca"}, {"is_disabled": 0, "is_reserved": 0, "fusion_lat": 0.0, "lat": 38.898554833333336, "fusion_lon": 0.0, "rental_uris": {"ios": "https://dc.lft.to/lastmile_qr_scan", "android": "https://dc.lft.to/lastmile_qr_scan"}, "lon": -77.01884066666666, "bike_id": "d1e7eae264ea234256ea0844aec61352", "type": "electric_scooter", "name": "d1e7eae264ea234256ea0844aec61352"}, {"is_disabled": 0, "is_reserved": 0, "fusion_lat": 0.0, "lat": 38.80481533333333, "fusion_lon": 0.0, "rental_uris": {"ios": "https://dc.lft.to/lastmile_qr_scan", "android": "https://dc.lft.to/lastmile_qr_scan"}, "lon": -76.99103583333333, "bike_id": "7e32b52a2142f60ba74855e819b68fa1", "type": "electric_bike", "name": "7e32b52a2142f60ba74855e819b68fa1"}, {"is_disabled": 0, "is_reserved": 0, "fusion_lat": 0.0, "lat": 38.91947866666667, "fusion_lon": 0.0, "rental_uris": {"ios": "https://dc.lft.to/lastmile_qr_scan", "android": "https://dc.lft.to/lastmile_qr_scan"}, "lon": -77.0249535, "bike_id": "dbe512edca5af3a228ac7b9f80fd6158", "type": "electric_scooter", "name": "dbe512edca5af3a228ac7b9f80fd6158"}, {"is_disabled": 0, "is_reserved": 0, "fusion_lat": 0.0, "lat": 38.90234783333333, "fusion_lon": 0.0, "rental_uris": {"ios": "https://dc.lft.to/lastmile_qr_scan", "android": "https://dc.lft.to/lastmile_qr_scan"}, "lon": -77.0608055, "bike_id": "df217d88e9032980b4cad4ce1984685e", "type": "electric_scooter", "name": "df217d88e9032980b4cad4ce1984685e"}, {"is_disabled": 0, "is_reserved": 0, "fusion_lat": 0.0, "lat": 38.917359833333336, "fusion_lon": 0.0, "rental_uris": {"ios": "https://dc.lft.to/lastmile_qr_scan", "android": "https://dc.lft.to/lastmile_qr_scan"}, "lon": -77.06890516666667, "bike_id": "81c2091c8fa4858f6d42b9e4bfbe1f09", "type": "electric_scooter", "name": "81c2091c8fa4858f6d42b9e4bfbe1f09"}, {"is_disabled": 0, "is_reserved": 0, "fusion_lat": 0.0, "lat": 38.915535166666665, "fusion_lon": 0.0, "rental_uris": {"ios": "https://dc.lft.to/lastmile_qr_scan", "android": "https://dc.lft.to/lastmile_qr_scan"}, "lon": -77.023361, "bike_id": "2f22170bdc832c627ff8a99ba266cdae", "type": "electric_scooter", "name": "2f22170bdc832c627ff8a99ba266cdae"}, {"is_disabled": 0, "is_reserved": 0, "fusion_lat": 0.0, "lat": 39.02623116666667, "fusion_lon": 0.0, "rental_uris": {"ios": "https://dc.lft.to/lastmile_qr_scan", "android": "https://dc.lft.to/lastmile_qr_scan"}, "lon": -77.03880333333333, "bike_id": "cd69134f1f1db3fe86179e91cdbe6262", "type": "electric_bike", "name": "cd69134f1f1db3fe86179e91cdbe6262"}, {"is_disabled": 0, "is_reserved": 0, "fusion_lat": 0.0, "lat": 38.9388465, "fusion_lon": 0.0, "rental_uris": {"ios": "https://dc.lft.to/lastmile_qr_scan", "android": "https://dc.lft.to/lastmile_qr_scan"}, "lon": -77.0283085, "bike_id": "7a1f1103f9353ae7fb7fe94dfdee1d3c", "type": "electric_scooter", "name": "7a1f1103f9353ae7fb7fe94dfdee1d3c"}, {"is_disabled": 0, "is_reserved": 0, "fusion_lat": 0.0, "lat": 38.9248575, "fusion_lon": 0.0, "rental_uris": {"ios": "https://dc.lft.to/lastmile_qr_scan", "android": "https://dc.lft.to/lastmile_qr_scan"}, "lon": -77.0318195, "bike_id": "5fba85e1b88b984fe338fdc2614917a0", "type": "electric_scooter", "name": "5fba85e1b88b984fe338fdc2614917a0"}, {"is_disabled": 0, "is_reserved": 0, "fusion_lat": 0.0, "lat": 38.917044833333335, "fusion_lon": 0.0, "rental_uris": {"ios": "https://dc.lft.to/lastmile_qr_scan", "android": "https://dc.lft.to/lastmile_qr_scan"}, "lon": -77.00193466666667, "bike_id": "929ddf705551b8fc26ba5a6bf24562d9", "type": "electric_bike", "name": "929ddf705551b8fc26ba5a6bf24562d9"}, {"is_disabled": 0, "is_reserved": 0, "fusion_lat": 0.0, "lat": 38.9209, "fusion_lon": 0.0, "rental_uris": {"ios": "https://dc.lft.to/lastmile_qr_scan", "android": "https://dc.lft.to/lastmile_qr_scan"}, "lon": -77.023977, "bike_id": "51a8b856233bc2f694e9c6605284e9b5", "type": "electric_scooter", "name": "51a8b856233bc2f694e9c6605284e9b5"}, {"is_disabled": 0, "is_reserved": 0, "fusion_lat": 0.0, "lat": 38.911603, "fusion_lon": 0.0, "rental_uris": {"ios": "https://dc.lft.to/lastmile_qr_scan", "android": "https://dc.lft.to/lastmile_qr_scan"}, "lon": -77.0020215, "bike_id": "99ae8fee17f1db7a62827e8531a8289d", "type": "electric_scooter", "name": "99ae8fee17f1db7a62827e8531a8289d"}, {"is_disabled": 0, "is_reserved": 0, "fusion_lat": 0.0, "lat": 38.858006, "fusion_lon": 0.0, "rental_uris": {"ios": "https://dc.lft.to/lastmile_qr_scan", "android": "https://dc.lft.to/lastmile_qr_scan"}, "lon": -76.9874895, "bike_id": "7bf5054bedbe9e4f48ea7d9276417f8c", "type": "electric_bike", "name": "7bf5054bedbe9e4f48ea7d9276417f8c"}, {"is_disabled": 0, "is_reserved": 0, "fusion_lat": 0.0, "lat": 38.88509083333334, "fusion_lon": 0.0, "rental_uris": {"ios": "https://dc.lft.to/lastmile_qr_scan", "android": "https://dc.lft.to/lastmile_qr_scan"}, "lon": -76.997504, "bike_id": "5ada0e3e57a01e0c755a4a2cfb1b1e24", "type": "electric_scooter", "name": "5ada0e3e57a01e0c755a4a2cfb1b1e24"}, {"is_disabled": 0, "is_reserved": 0, "fusion_lat": 0.0, "lat": 38.9053235, "fusion_lon": 0.0, "rental_uris": {"ios": "https://dc.lft.to/lastmile_qr_scan", "android": "https://dc.lft.to/lastmile_qr_scan"}, "lon": -77.0609395, "bike_id": "88258ec1a6881dbf51a2ce65ca39d08a", "type": "electric_scooter", "name": "88258ec1a6881dbf51a2ce65ca39d08a"}, {"is_disabled": 0, "is_reserved": 0, "fusion_lat": 0.0, "lat": 38.894236666666664, "fusion_lon": 0.0, "rental_uris": {"ios": "https://dc.lft.to/lastmile_qr_scan", "android": "https://dc.lft.to/lastmile_qr_scan"}, "lon": -77.0213425, "bike_id": "6a396fd41d8174f7323e57962edce60f", "type": "electric_scooter", "name": "6a396fd41d8174f7323e57962edce60f"}, {"is_disabled": 0, "is_reserved": 0, "fusion_lat": 0.0, "lat": 38.91489883333333, "fusion_lon": 0.0, "rental_uris": {"ios": "https://dc.lft.to/lastmile_qr_scan", "android": "https://dc.lft.to/lastmile_qr_scan"}, "lon": -77.04946116666666, "bike_id": "1a4cc8c16bf29674d68f77c8c856f7bf", "type": "electric_scooter", "name": "1a4cc8c16bf29674d68f77c8c856f7bf"}, {"is_disabled": 0, "is_reserved": 0, "fusion_lat": 0.0, "lat": 38.89532483333333, "fusion_lon": 0.0, "rental_uris": {"ios": "https://dc.lft.to/lastmile_qr_scan", "android": "https://dc.lft.to/lastmile_qr_scan"}, "lon": -76.948892, "bike_id": "6d084d956608ccb941bcc3b366c6f95c", "type": "electric_scooter", "name": "6d084d956608ccb941bcc3b366c6f95c"}, {"is_disabled": 0, "is_reserved": 0, "fusion_lat": 0.0, "lat": 38.94364433333333, "fusion_lon": 0.0, "rental_uris": {"ios": "https://dc.lft.to/lastmile_qr_scan", "android": "https://dc.lft.to/lastmile_qr_scan"}, "lon": -77.06114566666666, "bike_id": "9513369b46f63895c1103f30d91e6ad7", "type": "electric_scooter", "name": "9513369b46f63895c1103f30d91e6ad7"}, {"is_disabled": 0, "is_reserved": 0, "fusion_lat": 0.0, "lat": 38.91116383333333, "fusion_lon": 0.0, "rental_uris": {"ios": "https://dc.lft.to/lastmile_qr_scan", "android": "https://dc.lft.to/lastmile_qr_scan"}, "lon": -77.03169883333334, "bike_id": "1c9fc5a0b034325f14c6fb09ebae56cd", "type": "electric_scooter", "name": "1c9fc5a0b034325f14c6fb09ebae56cd"}, {"is_disabled": 0, "is_reserved": 0, "fusion_lat": 0.0, "lat": 38.93698666666667, "fusion_lon": 0.0, "rental_uris": {"ios": "https://dc.lft.to/lastmile_qr_scan", "android": "https://dc.lft.to/lastmile_qr_scan"}, "lon": -77.05686316666667, "bike_id": "ba6507072fd91e9aa86915a228901bf2", "type": "electric_scooter", "name": "ba6507072fd91e9aa86915a228901bf2"}, {"is_disabled": 0, "is_reserved": 0, "fusion_lat": 0.0, "lat": 38.91712616666667, "fusion_lon": 0.0, "rental_uris": {"ios": "https://dc.lft.to/lastmile_qr_scan", "android": "https://dc.lft.to/lastmile_qr_scan"}, "lon": -77.03229183333333, "bike_id": "80476a72b2dbe173ae357d4345553d0e", "type": "electric_scooter", "name": "80476a72b2dbe173ae357d4345553d0e"}, {"is_disabled": 0, "is_reserved": 0, "fusion_lat": 0.0, "lat": 38.918064, "fusion_lon": 0.0, "rental_uris": {"ios": "https://dc.lft.to/lastmile_qr_scan", "android": "https://dc.lft.to/lastmile_qr_scan"}, "lon": -77.0249265, "bike_id": "ade71f9c4f8fb73c8c5c2d0c67c34297", "type": "electric_scooter", "name": "ade71f9c4f8fb73c8c5c2d0c67c34297"}, {"is_disabled": 0, "is_reserved": 0, "fusion_lat": 0.0, "lat": 38.9252815, "fusion_lon": 0.0, "rental_uris": {"ios": "https://dc.lft.to/lastmile_qr_scan", "android": "https://dc.lft.to/lastmile_qr_scan"}, "lon": -77.041195, "bike_id": "29e01f2004240e4788f6db6b2cb15460", "type": "electric_scooter", "name": "29e01f2004240e4788f6db6b2cb15460"}, {"is_disabled": 0, "is_reserved": 0, "fusion_lat": 0.0, "lat": 38.914558666666665, "fusion_lon": 0.0, "rental_uris": {"ios": "https://dc.lft.to/lastmile_qr_scan", "android": "https://dc.lft.to/lastmile_qr_scan"}, "lon": -77.02693333333333, "bike_id": "4a0f12fa8a8a2c8a21d608621740a581", "type": "electric_scooter", "name": "4a0f12fa8a8a2c8a21d608621740a581"}, {"is_disabled": 0, "is_reserved": 0, "fusion_lat": 0.0, "lat": 38.90569166666667, "fusion_lon": 0.0, "rental_uris": {"ios": "https://dc.lft.to/lastmile_qr_scan", "android": "https://dc.lft.to/lastmile_qr_scan"}, "lon": -77.04872683333333, "bike_id": "1999e235f8d824277bfefeba80a65c2b", "type": "electric_scooter", "name": "1999e235f8d824277bfefeba80a65c2b"}, {"is_disabled": 0, "is_reserved": 0, "fusion_lat": 0.0, "lat": 38.89343216666666, "fusion_lon": 0.0, "rental_uris": {"ios": "https://dc.lft.to/lastmile_qr_scan", "android": "https://dc.lft.to/lastmile_qr_scan"}, "lon": -76.98554183333333, "bike_id": "f294f82b43f75c2d761e6042abb59ff2", "type": "electric_scooter", "name": "f294f82b43f75c2d761e6042abb59ff2"}, {"is_disabled": 0, "is_reserved": 0, "fusion_lat": 0.0, "lat": 38.9203365, "fusion_lon": 0.0, "rental_uris": {"ios": "https://dc.lft.to/lastmile_qr_scan", "android": "https://dc.lft.to/lastmile_qr_scan"}, "lon": -77.038575, "bike_id": "e425a168b376c8afd307d195532cbb7d", "type": "electric_scooter", "name": "e425a168b376c8afd307d195532cbb7d"}, {"is_disabled": 0, "is_reserved": 0, "fusion_lat": 0.0, "lat": 38.91866016666667, "fusion_lon": 0.0, "rental_uris": {"ios": "https://dc.lft.to/lastmile_qr_scan", "android": "https://dc.lft.to/lastmile_qr_scan"}, "lon": -77.035506, "bike_id": "a37e27b3d1ddc701dbbac8d0465d3ef8", "type": "electric_scooter", "name": "a37e27b3d1ddc701dbbac8d0465d3ef8"}, {"is_disabled": 0, "is_reserved": 0, "fusion_lat": 0.0, "lat": 38.93588716666667, "fusion_lon": 0.0, "rental_uris": {"ios": "https://dc.lft.to/lastmile_qr_scan", "android": "https://dc.lft.to/lastmile_qr_scan"}, "lon": -77.07428816666666, "bike_id": "2790201d11b1549ee4134f1ede80e88d", "type": "electric_scooter", "name": "2790201d11b1549ee4134f1ede80e88d"}, {"is_disabled": 0, "is_reserved": 0, "fusion_lat": 0.0, "lat": 38.918064, "fusion_lon": 0.0, "rental_uris": {"ios": "https://dc.lft.to/lastmile_qr_scan", "android": "https://dc.lft.to/lastmile_qr_scan"}, "lon": -77.02493766666667, "bike_id": "6e10f1a378d5614ae17cc7fb0ed475d8", "type": "electric_scooter", "name": "6e10f1a378d5614ae17cc7fb0ed475d8"}, {"is_disabled": 0, "is_reserved": 0, "fusion_lat": 0.0, "lat": 38.917029166666666, "fusion_lon": 0.0, "rental_uris": {"ios": "https://dc.lft.to/lastmile_qr_scan", "android": "https://dc.lft.to/lastmile_qr_scan"}, "lon": -77.02409766666666, "bike_id": "ba4d5d4556fecf86a71f77e72c3007bb", "type": "electric_scooter", "name": "ba4d5d4556fecf86a71f77e72c3007bb"}, {"is_disabled": 0, "is_reserved": 0, "fusion_lat": 0.0, "lat": 38.876604, "fusion_lon": 0.0, "rental_uris": {"ios": "https://dc.lft.to/lastmile_qr_scan", "android": "https://dc.lft.to/lastmile_qr_scan"}, "lon": -77.00750466666666, "bike_id": "fcd6bcb6bc7fae3170184640db228739", "type": "electric_scooter", "name": "fcd6bcb6bc7fae3170184640db228739"}, {"is_disabled": 0, "is_reserved": 0, "fusion_lat": 0.0, "lat": 38.910781166666666, "fusion_lon": 0.0, "rental_uris": {"ios": "https://dc.lft.to/lastmile_qr_scan", "android": "https://dc.lft.to/lastmile_qr_scan"}, "lon": -77.023911, "bike_id": "4281554d38bbd5e4bc15748c7c5cb5eb", "type": "electric_scooter", "name": "4281554d38bbd5e4bc15748c7c5cb5eb"}, {"is_disabled": 0, "is_reserved": 0, "fusion_lat": 0.0, "lat": 38.900242, "fusion_lon": 0.0, "rental_uris": {"ios": "https://dc.lft.to/lastmile_qr_scan", "android": "https://dc.lft.to/lastmile_qr_scan"}, "lon": -77.006338, "bike_id": "cc5b4d46ed236f15a670d9813876c534", "type": "electric_scooter", "name": "cc5b4d46ed236f15a670d9813876c534"}, {"is_disabled": 0, "is_reserved": 0, "fusion_lat": 0.0, "lat": 38.886619333333336, "fusion_lon": 0.0, "rental_uris": {"ios": "https://dc.lft.to/lastmile_qr_scan", "android": "https://dc.lft.to/lastmile_qr_scan"}, "lon": -77.1623185, "bike_id": "00c5a28eee7f2232c6e90092561685f3", "type": "electric_bike", "name": "00c5a28eee7f2232c6e90092561685f3"}, {"is_disabled": 0, "is_reserved": 0, "fusion_lat": 0.0, "lat": 38.900764, "fusion_lon": 0.0, "rental_uris": {"ios": "https://dc.lft.to/lastmile_qr_scan", "android": "https://dc.lft.to/lastmile_qr_scan"}, "lon": -77.0505995, "bike_id": "34283bd7e25f41076c789aee82fb2992", "type": "electric_scooter", "name": "34283bd7e25f41076c789aee82fb2992"}, {"is_disabled": 0, "is_reserved": 0, "fusion_lat": 0.0, "lat": 38.903591666666664, "fusion_lon": 0.0, "rental_uris": {"ios": "https://dc.lft.to/lastmile_qr_scan", "android": "https://dc.lft.to/lastmile_qr_scan"}, "lon": -77.032119, "bike_id": "5ff1afe1b17e03314a5228ac21e90478", "type": "electric_scooter", "name": "5ff1afe1b17e03314a5228ac21e90478"}, {"is_disabled": 0, "is_reserved": 0, "fusion_lat": 0.0, "lat": 38.90510483333333, "fusion_lon": 0.0, "rental_uris": {"ios": "https://dc.lft.to/lastmile_qr_scan", "android": "https://dc.lft.to/lastmile_qr_scan"}, "lon": -76.99038566666667, "bike_id": "47da7e544847f285f82c828e8fb03122", "type": "electric_scooter", "name": "47da7e544847f285f82c828e8fb03122"}, {"is_disabled": 0, "is_reserved": 0, "fusion_lat": 0.0, "lat": 38.91683033333333, "fusion_lon": 0.0, "rental_uris": {"ios": "https://dc.lft.to/lastmile_qr_scan", "android": "https://dc.lft.to/lastmile_qr_scan"}, "lon": -77.02970916666666, "bike_id": "3df1fccc2908cbdceb494b82c639ed65", "type": "electric_scooter", "name": "3df1fccc2908cbdceb494b82c639ed65"}, {"is_disabled": 0, "is_reserved": 0, "fusion_lat": 0.0, "lat": 38.967627, "fusion_lon": 0.0, "rental_uris": {"ios": "https://dc.lft.to/lastmile_qr_scan", "android": "https://dc.lft.to/lastmile_qr_scan"}, "lon": -77.034184, "bike_id": "253a1f4b5ea7f400240fc81d8ed2ffa7", "type": "electric_scooter", "name": "253a1f4b5ea7f400240fc81d8ed2ffa7"}, {"is_disabled": 0, "is_reserved": 0, "fusion_lat": 0.0, "lat": 38.9274765, "fusion_lon": 0.0, "rental_uris": {"ios": "https://dc.lft.to/lastmile_qr_scan", "android": "https://dc.lft.to/lastmile_qr_scan"}, "lon": -77.02369466666667, "bike_id": "b5059fdb9f171109e46c1602268db3b3", "type": "electric_scooter", "name": "b5059fdb9f171109e46c1602268db3b3"}, {"is_disabled": 0, "is_reserved": 0, "fusion_lat": 0.0, "lat": 38.94101966666667, "fusion_lon": 0.0, "rental_uris": {"ios": "https://dc.lft.to/lastmile_qr_scan", "android": "https://dc.lft.to/lastmile_qr_scan"}, "lon": -76.95625966666667, "bike_id": "581f8b792f86688a19245633f7172b5d", "type": "electric_bike", "name": "581f8b792f86688a19245633f7172b5d"}, {"is_disabled": 0, "is_reserved": 0, "fusion_lat": 0.0, "lat": 38.918087, "fusion_lon": 0.0, "rental_uris": {"ios": "https://dc.lft.to/lastmile_qr_scan", "android": "https://dc.lft.to/lastmile_qr_scan"}, "lon": -77.031347, "bike_id": "dc9d7e22ba65f582b30ddbdd08ea2e31", "type": "electric_scooter", "name": "dc9d7e22ba65f582b30ddbdd08ea2e31"}, {"is_disabled": 0, "is_reserved": 0, "fusion_lat": 0.0, "lat": 38.92199683333333, "fusion_lon": 0.0, "rental_uris": {"ios": "https://dc.lft.to/lastmile_qr_scan", "android": "https://dc.lft.to/lastmile_qr_scan"}, "lon": -77.035158, "bike_id": "d002360aaf0ea08447895472f823b6b9", "type": "electric_scooter", "name": "d002360aaf0ea08447895472f823b6b9"}, {"is_disabled": 0, "is_reserved": 0, "fusion_lat": 0.0, "lat": 38.8979985, "fusion_lon": 0.0, "rental_uris": {"ios": "https://dc.lft.to/lastmile_qr_scan", "android": "https://dc.lft.to/lastmile_qr_scan"}, "lon": -76.97168283333333, "bike_id": "acf9f46df8273fdd4aec4b230a499990", "type": "electric_scooter", "name": "acf9f46df8273fdd4aec4b230a499990"}, {"is_disabled": 0, "is_reserved": 0, "fusion_lat": 0.0, "lat": 38.901594833333334, "fusion_lon": 0.0, "rental_uris": {"ios": "https://dc.lft.to/lastmile_qr_scan", "android": "https://dc.lft.to/lastmile_qr_scan"}, "lon": -77.048745, "bike_id": "1f592d2ca25496045e32e5fa9ff6cbe1", "type": "electric_scooter", "name": "1f592d2ca25496045e32e5fa9ff6cbe1"}, {"is_disabled": 0, "is_reserved": 0, "fusion_lat": 0.0, "lat": 38.902233333333335, "fusion_lon": 0.0, "rental_uris": {"ios": "https://dc.lft.to/lastmile_qr_scan", "android": "https://dc.lft.to/lastmile_qr_scan"}, "lon": -76.93173216666666, "bike_id": "7ec048163a6aeeb6cc82a67e46932ea6", "type": "electric_bike", "name": "7ec048163a6aeeb6cc82a67e46932ea6"}, {"is_disabled": 0, "is_reserved": 0, "fusion_lat": 0.0, "lat": 38.9345265, "fusion_lon": 0.0, "rental_uris": {"ios": "https://dc.lft.to/lastmile_qr_scan", "android": "https://dc.lft.to/lastmile_qr_scan"}, "lon": -77.0307955, "bike_id": "c9dab1935ea4051431426ba110d90475", "type": "electric_scooter", "name": "c9dab1935ea4051431426ba110d90475"}, {"is_disabled": 0, "is_reserved": 0, "fusion_lat": 0.0, "lat": 38.8838395, "fusion_lon": 0.0, "rental_uris": {"ios": "https://dc.lft.to/lastmile_qr_scan", "android": "https://dc.lft.to/lastmile_qr_scan"}, "lon": -77.030359, "bike_id": "1561f42cc837b98fdda17ff5f3acbd92", "type": "electric_scooter", "name": "1561f42cc837b98fdda17ff5f3acbd92"}, {"is_disabled": 0, "is_reserved": 0, "fusion_lat": 0.0, "lat": 38.838664, "fusion_lon": 0.0, "rental_uris": {"ios": "https://dc.lft.to/lastmile_qr_scan", "android": "https://dc.lft.to/lastmile_qr_scan"}, "lon": -76.99701633333333, "bike_id": "7c5198fd1b7fc9d0817e2a02b69f9cab", "type": "electric_bike", "name": "7c5198fd1b7fc9d0817e2a02b69f9cab"}, {"is_disabled": 0, "is_reserved": 0, "fusion_lat": 0.0, "lat": 38.92461266666667, "fusion_lon": 0.0, "rental_uris": {"ios": "https://dc.lft.to/lastmile_qr_scan", "android": "https://dc.lft.to/lastmile_qr_scan"}, "lon": -77.057589, "bike_id": "69dd968b52eaa49a54f6d039d6e44471", "type": "electric_scooter", "name": "69dd968b52eaa49a54f6d039d6e44471"}, {"is_disabled": 0, "is_reserved": 0, "fusion_lat": 0.0, "lat": 38.89827416666667, "fusion_lon": 0.0, "rental_uris": {"ios": "https://dc.lft.to/lastmile_qr_scan", "android": "https://dc.lft.to/lastmile_qr_scan"}, "lon": -77.04649716666667, "bike_id": "2dcb983dd76d21007ceb4521a840abc2", "type": "electric_scooter", "name": "2dcb983dd76d21007ceb4521a840abc2"}, {"is_disabled": 0, "is_reserved": 0, "fusion_lat": 0.0, "lat": 38.90780983333333, "fusion_lon": 0.0, "rental_uris": {"ios": "https://dc.lft.to/lastmile_qr_scan", "android": "https://dc.lft.to/lastmile_qr_scan"}, "lon": -76.9971985, "bike_id": "c3086ed1f1b40a408e7d24643c23c890", "type": "electric_scooter", "name": "c3086ed1f1b40a408e7d24643c23c890"}, {"is_disabled": 0, "is_reserved": 0, "fusion_lat": 0.0, "lat": 38.942924833333336, "fusion_lon": 0.0, "rental_uris": {"ios": "https://dc.lft.to/lastmile_qr_scan", "android": "https://dc.lft.to/lastmile_qr_scan"}, "lon": -76.99070533333334, "bike_id": "b1c33156dfad99e72ed8f235a7dac403", "type": "electric_bike", "name": "b1c33156dfad99e72ed8f235a7dac403"}, {"is_disabled": 0, "is_reserved": 0, "fusion_lat": 0.0, "lat": 38.91832733333333, "fusion_lon": 0.0, "rental_uris": {"ios": "https://dc.lft.to/lastmile_qr_scan", "android": "https://dc.lft.to/lastmile_qr_scan"}, "lon": -77.041729, "bike_id": "2c203a3f57343dc7eb79acaa68cff191", "type": "electric_scooter", "name": "2c203a3f57343dc7eb79acaa68cff191"}, {"is_disabled": 0, "is_reserved": 0, "fusion_lat": 0.0, "lat": 38.8975365, "fusion_lon": 0.0, "rental_uris": {"ios": "https://dc.lft.to/lastmile_qr_scan", "android": "https://dc.lft.to/lastmile_qr_scan"}, "lon": -77.0548465, "bike_id": "bfbbffb6e6952d31890d57ca76e93f2a", "type": "electric_scooter", "name": "bfbbffb6e6952d31890d57ca76e93f2a"}, {"is_disabled": 0, "is_reserved": 0, "fusion_lat": 0.0, "lat": 38.9178095, "fusion_lon": 0.0, "rental_uris": {"ios": "https://dc.lft.to/lastmile_qr_scan", "android": "https://dc.lft.to/lastmile_qr_scan"}, "lon": -77.04183516666667, "bike_id": "0b1ddd6000bc55ddd91b96feec04bf95", "type": "electric_scooter", "name": "0b1ddd6000bc55ddd91b96feec04bf95"}, {"is_disabled": 0, "is_reserved": 0, "fusion_lat": 0.0, "lat": 38.91932166666667, "fusion_lon": 0.0, "rental_uris": {"ios": "https://dc.lft.to/lastmile_qr_scan", "android": "https://dc.lft.to/lastmile_qr_scan"}, "lon": -77.03183233333333, "bike_id": "fc4eb77c95d1624f57aa7719d75c8cef", "type": "electric_scooter", "name": "fc4eb77c95d1624f57aa7719d75c8cef"}, {"is_disabled": 0, "is_reserved": 0, "fusion_lat": 0.0, "lat": 38.881425, "fusion_lon": 0.0, "rental_uris": {"ios": "https://dc.lft.to/lastmile_qr_scan", "android": "https://dc.lft.to/lastmile_qr_scan"}, "lon": -77.01276616666667, "bike_id": "b0c9bde0e2776a984327b87b187eb9d6", "type": "electric_scooter", "name": "b0c9bde0e2776a984327b87b187eb9d6"}, {"is_disabled": 0, "is_reserved": 0, "fusion_lat": 0.0, "lat": 38.896231, "fusion_lon": 0.0, "rental_uris": {"ios": "https://dc.lft.to/lastmile_qr_scan", "android": "https://dc.lft.to/lastmile_qr_scan"}, "lon": -76.907566, "bike_id": "16a27acd6db34004abc63bfdc1b142df", "type": "electric_bike", "name": "16a27acd6db34004abc63bfdc1b142df"}, {"is_disabled": 0, "is_reserved": 0, "fusion_lat": 0.0, "lat": 38.9236845, "fusion_lon": 0.0, "rental_uris": {"ios": "https://dc.lft.to/lastmile_qr_scan", "android": "https://dc.lft.to/lastmile_qr_scan"}, "lon": -77.03023416666667, "bike_id": "ed426a1936a0ff876edff40ceeb2ab79", "type": "electric_scooter", "name": "ed426a1936a0ff876edff40ceeb2ab79"}, {"is_disabled": 0, "is_reserved": 0, "fusion_lat": 0.0, "lat": 38.92172816666667, "fusion_lon": 0.0, "rental_uris": {"ios": "https://dc.lft.to/lastmile_qr_scan", "android": "https://dc.lft.to/lastmile_qr_scan"}, "lon": -77.04022633333334, "bike_id": "76eb45dcea986cf722ce9cde4c959e35", "type": "electric_scooter", "name": "76eb45dcea986cf722ce9cde4c959e35"}, {"is_disabled": 0, "is_reserved": 0, "fusion_lat": 0.0, "lat": 38.924119833333336, "fusion_lon": 0.0, "rental_uris": {"ios": "https://dc.lft.to/lastmile_qr_scan", "android": "https://dc.lft.to/lastmile_qr_scan"}, "lon": -77.02000933333333, "bike_id": "7b1665cd49a6c10761124ade19096829", "type": "electric_scooter", "name": "7b1665cd49a6c10761124ade19096829"}, {"is_disabled": 0, "is_reserved": 0, "fusion_lat": 0.0, "lat": 38.90521833333333, "fusion_lon": 0.0, "rental_uris": {"ios": "https://dc.lft.to/lastmile_qr_scan", "android": "https://dc.lft.to/lastmile_qr_scan"}, "lon": -77.06615583333334, "bike_id": "36e2c2f22327658b30f9fb8180375630", "type": "electric_scooter", "name": "36e2c2f22327658b30f9fb8180375630"}, {"is_disabled": 0, "is_reserved": 0, "fusion_lat": 0.0, "lat": 38.88542783333333, "fusion_lon": 0.0, "rental_uris": {"ios": "https://dc.lft.to/lastmile_qr_scan", "android": "https://dc.lft.to/lastmile_qr_scan"}, "lon": -76.92363933333333, "bike_id": "a00eaefa3716a08358713e620f321c5b", "type": "electric_scooter", "name": "a00eaefa3716a08358713e620f321c5b"}, {"is_disabled": 0, "is_reserved": 0, "fusion_lat": 0.0, "lat": 38.90243016666667, "fusion_lon": 0.0, "rental_uris": {"ios": "https://dc.lft.to/lastmile_qr_scan", "android": "https://dc.lft.to/lastmile_qr_scan"}, "lon": -77.02694766666667, "bike_id": "5244cd7ea6bceb1a91ff16044ebcad5e", "type": "electric_scooter", "name": "5244cd7ea6bceb1a91ff16044ebcad5e"}, {"is_disabled": 0, "is_reserved": 0, "fusion_lat": 0.0, "lat": 38.87470016666666, "fusion_lon": 0.0, "rental_uris": {"ios": "https://dc.lft.to/lastmile_qr_scan", "android": "https://dc.lft.to/lastmile_qr_scan"}, "lon": -77.00551716666666, "bike_id": "9f4b7fbd46cbe59cd3cb05076f84d41e", "type": "electric_scooter", "name": "9f4b7fbd46cbe59cd3cb05076f84d41e"}, {"is_disabled": 0, "is_reserved": 0, "fusion_lat": 0.0, "lat": 38.90472, "fusion_lon": 0.0, "rental_uris": {"ios": "https://dc.lft.to/lastmile_qr_scan", "android": "https://dc.lft.to/lastmile_qr_scan"}, "lon": -77.06746333333334, "bike_id": "b6189a4f7f2767efef64aaf353ecdb7c", "type": "electric_bike", "name": "b6189a4f7f2767efef64aaf353ecdb7c"},