{"data": {"bikes": [{"is_disabled": 0, "fusion_lon": 0.0, "fusion_lat": 0.0, "lat": 38.85206, "type": "electric_bike", "lon": -77.10128366666666, "bike_id": "fda0630001232dc4cc27c51c5ea766aa", "rental_uris": {"android": "https://dc.lft.to/lastmile_qr_scan", "ios": "https://dc.lft.to/lastmile_qr_scan"}, "name": "fda0630001232dc4cc27c51c5ea766aa", "is_reserved": 0}, {"is_disabled": 0, "fusion_lon": 0.0, "fusion_lat": 0.0, "lat": 38.9141115, "type": "electric_scooter", "lon": -77.04672266666667, "bike_id": "b7cbe168a0639aeef509039277a660d1", "rental_uris": {"android": "https://dc.lft.to/lastmile_qr_scan", "ios": "https://dc.lft.to/lastmile_qr_scan"}, "name": "b7cbe168a0639aeef509039277a660d1", "is_reserved": 0}, {"is_disabled": 0, "fusion_lon": 0.0, "fusion_lat": 0.0, "lat": 38.901261, "type": "electric_scooter", "lon": -77.03943116666666, "bike_id": "05a332206c012e02672ac79fcc8755f4", "rental_uris": {"android": "https://dc.lft.to/lastmile_qr_scan", "ios": "https://dc.lft.to/lastmile_qr_scan"}, "name": "05a332206c012e02672ac79fcc8755f4", "is_reserved": 0}, {"is_disabled": 0, "fusion_lon": 0.0, "fusion_lat": 0.0, "lat": 38.8874435, "type": "electric_scooter", "lon": -77.016013, "bike_id": "da5473b2a9a75614bfa6e38ac9322bcb", "rental_uris": {"android": "https://dc.lft.to/lastmile_qr_scan", "ios": "https://dc.lft.to/lastmile_qr_scan"}, "name": "da5473b2a9a75614bfa6e38ac9322bcb", "is_reserved": 0}, {"is_disabled": 0, "fusion_lon": 0.0, "fusion_lat": 0.0, "lat": 38.86573416666667, "type": "electric_scooter", "lon": -76.9894935, "bike_id": "9d50c6eb1ca468da78dd4b36cf180346", "rental_uris": {"android": "https://dc.lft.to/lastmile_qr_scan", "ios": "https://dc.lft.to/lastmile_qr_scan"}, "name": "9d50c6eb1ca468da78dd4b36cf180346", "is_reserved": 0}, {"is_disabled": 0, "fusion_lon": 0.0, "fusion_lat": 0.0, "lat": 38.908695333333334, "type": "electric_scooter", "lon": -77.0355295, "bike_id": "c93868eea27a33910001914a58bf3293", "rental_uris": {"android": "https://dc.lft.to/lastmile_qr_scan", "ios": "https://dc.lft.to/lastmile_qr_scan"}, "name": "c93868eea27a33910001914a58bf3293", "is_reserved": 0}, {"is_disabled": 0, "fusion_lon": 0.0, "fusion_lat": 0.0, "lat": 38.90281316666667, "type": "electric_scooter", "lon": -77.034294, "bike_id": "465d647cec1d7a45614f2ceae949e798", "rental_uris": {"android": "https://dc.lft.to/lastmile_qr_scan", "ios": "https://dc.lft.to/lastmile_qr_scan"}, "name": "465d647cec1d7a45614f2ceae949e798", "is_reserved": 0}, {"is_disabled": 0, "fusion_lon": 0.0, "fusion_lat": 0.0, "lat": 38.9578765, "type": "electric_scooter", "lon": -77.02470766666667, "bike_id": "ab5360ad909b6473773b33214ee4ac4b", "rental_uris": {"android": "https://dc.lft.to/lastmile_qr_scan", "ios": "https://dc.lft.to/lastmile_qr_scan"}, "name": "ab5360ad909b6473773b33214ee4ac4b", "is_reserved": 0}, {"is_disabled": 0, "fusion_lon": 0.0, "fusion_lat": 0.0, "lat": 38.883819, "type": "electric_scooter", "lon": -77.04605633333334, "bike_id": "3563dc3e13f169dd7df1e79b27c108b1", "rental_uris": {"android": "https://dc.lft.to/lastmile_qr_scan", "ios": "https://dc.lft.to/lastmile_qr_scan"}, "name": "3563dc3e13f169dd7df1e79b27c108b1", "is_reserved": 0}, {"is_disabled": 0, "fusion_lon": 0.0, "fusion_lat": 0.0, "lat": 38.935003, "type": "electric_scooter", "lon": -77.0241965, "bike_id": "24a880ed6d4c89eed64a34f67a3e8c2f", "rental_uris": {"android": "https://dc.lft.to/lastmile_qr_scan", "ios": "https://dc.lft.to/lastmile_qr_scan"}, "name": "24a880ed6d4c89eed64a34f67a3e8c2f", "is_reserved": 0}, {"is_disabled": 0, "fusion_lon": 0.0, "fusion_lat": 0.0, "lat": 38.905400666666665, "type": "electric_scooter", "lon": -77.02215766666667, "bike_id": "f07c9db8dcd8aebc7895158fd08d79d4", "rental_uris": {"android": "https://dc.lft.to/lastmile_qr_scan", "ios": "https://dc.lft.to/lastmile_qr_scan"}, "name": "f07c9db8dcd8aebc7895158fd08d79d4", "is_reserved": 0}, {"is_disabled": 0, "fusion_lon": 0.0, "fusion_lat": 0.0, "lat": 38.902700333333335, "type": "electric_scooter", "lon": -77.03452216666666, "bike_id": "2df5f143bd18087182d4d3715de5bab5", "rental_uris": {"android": "https://dc.lft.to/lastmile_qr_scan", "ios": "https://dc.lft.to/lastmile_qr_scan"}, "name": "2df5f143bd18087182d4d3715de5bab5", "is_reserved": 0}, {"is_disabled": 0, "fusion_lon": 0.0, "fusion_lat": 0.0, "lat": 38.842737166666666, "type": "electric_bike", "lon": -76.98838183333334, "bike_id": "f196adbd920160be38f49dbc25507060", "rental_uris": {"android": "https://dc.lft.to/lastmile_qr_scan", "ios": "https://dc.lft.to/lastmile_qr_scan"}, "name": "f196adbd920160be38f49dbc25507060", "is_reserved": 0}, {"is_disabled": 0, "fusion_lon": 0.0, "fusion_lat": 0.0, "lat": 38.899576333333336, "type": "electric_scooter", "lon": -77.03175216666666, "bike_id": "be613529bd027df8b3fe922dd80ead54", "rental_uris": {"android": "https://dc.lft.to/lastmile_qr_scan", "ios": "https://dc.lft.to/lastmile_qr_scan"}, "name": "be613529bd027df8b3fe922dd80ead54", "is_reserved": 0}, {"is_disabled": 0, "fusion_lon": 0.0, "fusion_lat": 0.0, "lat": 38.91842583333333, "type": "electric_scooter", "lon": -77.0164225, "bike_id": "2f192366dd46652a5501caef6222fd2d", "rental_uris": {"android": "https://dc.lft.to/lastmile_qr_scan", "ios": "https://dc.lft.to/lastmile_qr_scan"}, "name": "2f192366dd46652a5501caef6222fd2d", "is_reserved": 0}, {"is_disabled": 0, "fusion_lon": 0.0, "fusion_lat": 0.0, "lat": 38.935704666666666, "type": "electric_scooter", "lon": -77.05871216666667, "bike_id": "1b76c000f1ab3859f3bc1a598a570f1a", "rental_uris": {"android": "https://dc.lft.to/lastmile_qr_scan", "ios": "https://dc.lft.to/lastmile_qr_scan"}, "name": "1b76c000f1ab3859f3bc1a598a570f1a", "is_reserved": 0}, {"is_disabled": 0, "fusion_lon": 0.0, "fusion_lat": 0.0, "lat": 38.91286316666667, "type": "electric_scooter", "lon": -76.98693766666666, "bike_id": "77d45d6452314b1edc4f94323755aef9", "rental_uris": {"android": "https://dc.lft.to/lastmile_qr_scan", "ios": "https://dc.lft.to/lastmile_qr_scan"}, "name": "77d45d6452314b1edc4f94323755aef9", "is_reserved": 0}, {"is_disabled": 0, "fusion_lon": 0.0, "fusion_lat": 0.0, "lat": 38.899120333333336, "type": "electric_scooter", "lon": -76.93390216666667, "bike_id": "3d91fc6614b8fff82ef8445eadd0462c", "rental_uris": {"android": "https://dc.lft.to/lastmile_qr_scan", "ios": "https://dc.lft.to/lastmile_qr_scan"}, "name": "3d91fc6614b8fff82ef8445eadd0462c", "is_reserved": 0}, {"is_disabled": 0, "fusion_lon": 0.0, "fusion_lat": 0.0, "lat": 38.897434833333335, "type": "electric_scooter", "lon": -77.02444283333334, "bike_id": "b2cde33b3bbf39320d5a1759c99f5d88", "rental_uris": {"android": "https://dc.lft.to/lastmile_qr_scan", "ios": "https://dc.lft.to/lastmile_qr_scan"}, "name": "b2cde33b3bbf39320d5a1759c99f5d88", "is_reserved": 0}, {"is_disabled": 0, "fusion_lon": 0.0, "fusion_lat": 0.0, "lat": 38.90084433333333, "type": "electric_scooter", "lon": -77.0444625, "bike_id": "4edc51ee1f979eb8f480d6e842dc5c23", "rental_uris": {"android": "https://dc.lft.to/lastmile_qr_scan", "ios": "https://dc.lft.to/lastmile_qr_scan"}, "name": "4edc51ee1f979eb8f480d6e842dc5c23", "is_reserved": 0}, {"is_disabled": 0, "fusion_lon": 0.0, "fusion_lat": 0.0, "lat": 38.90561233333333, "type": "electric_scooter", "lon": -77.04083516666667, "bike_id": "936df11503ecc45433744cf13c6546a6", "rental_uris": {"android": "https://dc.lft.to/lastmile_qr_scan", "ios": "https://dc.lft.to/lastmile_qr_scan"}, "name": "936df11503ecc45433744cf13c6546a6", "is_reserved": 0}, {"is_disabled": 0, "fusion_lon": 0.0, "fusion_lat": 0.0, "lat": 38.969235, "type": "electric_bike", "lon": -77.02619133333333, "bike_id": "68a72ae0cabbe3cc3b6d08c1e748cd0c", "rental_uris": {"android": "https://dc.lft.to/lastmile_qr_scan", "ios": "https://dc.lft.to/lastmile_qr_scan"}, "name": "68a72ae0cabbe3cc3b6d08c1e748cd0c", "is_reserved": 0}, {"is_disabled": 0, "fusion_lon": 0.0, "fusion_lat": 0.0, "lat": 38.940879333333335, "type": "electric_scooter", "lon": -77.0381385, "bike_id": "ee274b7ebebb280595de570feb7aa439", "rental_uris": {"android": "https://dc.lft.to/lastmile_qr_scan", "ios": "https://dc.lft.to/lastmile_qr_scan"}, "name": "ee274b7ebebb280595de570feb7aa439", "is_reserved": 0}, {"is_disabled": 0, "fusion_lon": 0.0, "fusion_lat": 0.0, "lat": 38.9170825, "type": "electric_scooter", "lon": -77.03764333333334, "bike_id": "8a77a326a66fa93debd69b4b629aba14", "rental_uris": {"android": "https://dc.lft.to/lastmile_qr_scan", "ios": "https://dc.lft.to/lastmile_qr_scan"}, "name": "8a77a326a66fa93debd69b4b629aba14", "is_reserved": 0}, {"is_disabled": 0, "fusion_lon": 0.0, "fusion_lat": 0.0, "lat": 38.9716685, "type": "electric_bike", "lon": -76.98024016666666, "bike_id": "6c35f64ed4a4a8cb3f2c20b3f00b6f78", "rental_uris": {"android": "https://dc.lft.to/lastmile_qr_scan", "ios": "https://dc.lft.to/lastmile_qr_scan"}, "name": "6c35f64ed4a4a8cb3f2c20b3f00b6f78", "is_reserved": 0}, {"is_disabled": 0, "fusion_lon": 0.0, "fusion_lat": 0.0, "lat": 38.88032716666667, "type": "electric_scooter", "lon": -76.9951375, "bike_id": "d57f5cebd366b0fa853a00d690f33c69", "rental_uris": {"android": "https://dc.lft.to/lastmile_qr_scan", "ios": "https://dc.lft.to/lastmile_qr_scan"}, "name": "d57f5cebd366b0fa853a00d690f33c69", "is_reserved": 0}, {"is_disabled": 0, "fusion_lon": 0.0, "fusion_lat": 0.0, "lat": 38.968062833333335, "type": "electric_scooter", "lon": -77.0212155, "bike_id": "58bebb3fae1d65e018628e717aaf831a", "rental_uris": {"android": "https://dc.lft.to/lastmile_qr_scan", "ios": "https://dc.lft.to/lastmile_qr_scan"}, "name": "58bebb3fae1d65e018628e717aaf831a", "is_reserved": 0}, {"is_disabled": 0, "fusion_lon": 0.0, "fusion_lat": 0.0, "lat": 38.916345, "type": "electric_scooter", "lon": -77.02694566666666, "bike_id": "361b07533d62a4242c905c30e3864d12", "rental_uris": {"android": "https://dc.lft.to/lastmile_qr_scan", "ios": "https://dc.lft.to/lastmile_qr_scan"}, "name": "361b07533d62a4242c905c30e3864d12", "is_reserved": 0}, {"is_disabled": 0, "fusion_lon": 0.0, "fusion_lat": 0.0, "lat": 38.9386025, "type": "electric_scooter", "lon": -77.02488916666667, "bike_id": "d587bf0bb56b78b6a654ee251bc5e9d2", "rental_uris": {"android": "https://dc.lft.to/lastmile_qr_scan", "ios": "https://dc.lft.to/lastmile_qr_scan"}, "name": "d587bf0bb56b78b6a654ee251bc5e9d2", "is_reserved": 0}, {"is_disabled": 0, "fusion_lon": 0.0, "fusion_lat": 0.0, "lat": 38.954196333333336, "type": "electric_scooter", "lon": -77.02172083333333, "bike_id": "379ba273cad92a45ffde850414d80f54", "rental_uris": {"android": "https://dc.lft.to/lastmile_qr_scan", "ios": "https://dc.lft.to/lastmile_qr_scan"}, "name": "379ba273cad92a45ffde850414d80f54", "is_reserved": 0}, {"is_disabled": 0, "fusion_lon": 0.0, "fusion_lat": 0.0, "lat": 38.8802025, "type": "electric_scooter", "lon": -76.98237483333334, "bike_id": "1ea4252037899aae73c9d88ccb06bd25", "rental_uris": {"android": "https://dc.lft.to/lastmile_qr_scan", "ios": "https://dc.lft.to/lastmile_qr_scan"}, "name": "1ea4252037899aae73c9d88ccb06bd25", "is_reserved": 0}, {"is_disabled": 0, "fusion_lon": 0.0, "fusion_lat": 0.0, "lat": 38.912759, "type": "electric_scooter", "lon": -77.04731233333334, "bike_id": "790d251fb4c308a56c9e510cb06f13b8", "rental_uris": {"android": "https://dc.lft.to/lastmile_qr_scan", "ios": "https://dc.lft.to/lastmile_qr_scan"}, "name": "790d251fb4c308a56c9e510cb06f13b8", "is_reserved": 0}, {"is_disabled": 0, "fusion_lon": 0.0, "fusion_lat": 0.0, "lat": 38.874699666666665, "type": "electric_scooter", "lon": -77.00519833333334, "bike_id": "f72305aa338ee0f32e5e0ea701cb0505", "rental_uris": {"android": "https://dc.lft.to/lastmile_qr_scan", "ios": "https://dc.lft.to/lastmile_qr_scan"}, "name": "f72305aa338ee0f32e5e0ea701cb0505", "is_reserved": 0}, {"is_disabled": 0, "fusion_lon": 0.0, "fusion_lat": 0.0, "lat": 38.8963375, "type": "electric_scooter", "lon": -77.02590216666667, "bike_id": "3b0835cb4ffdf81eb751e15001910c70", "rental_uris": {"android": "https://dc.lft.to/lastmile_qr_scan", "ios": "https://dc.lft.to/lastmile_qr_scan"}, "name": "3b0835cb4ffdf81eb751e15001910c70", "is_reserved": 0}, {"is_disabled": 0, "fusion_lon": 0.0, "fusion_lat": 0.0, "lat": 38.970511, "type": "electric_bike", "lon": -77.03082466666666, "bike_id": "032a36c387d76a2de465b312e2e8eb4f", "rental_uris": {"android": "https://dc.lft.to/lastmile_qr_scan", "ios": "https://dc.lft.to/lastmile_qr_scan"}, "name": "032a36c387d76a2de465b312e2e8eb4f", "is_reserved": 0}, {"is_disabled": 0, "fusion_lon": 0.0, "fusion_lat": 0.0, "lat": 38.922701333333336, "type": "electric_scooter", "lon": -77.04207533333333, "bike_id": "2cbfefbc365743fd108af134918eb84c", "rental_uris": {"android": "https://dc.lft.to/lastmile_qr_scan", "ios": "https://dc.lft.to/lastmile_qr_scan"}, "name": "2cbfefbc365743fd108af134918eb84c", "is_reserved": 0}, {"is_disabled": 0, "fusion_lon": 0.0, "fusion_lat": 0.0, "lat": 38.91429616666667, "type": "electric_scooter", "lon": -77.02949933333333, "bike_id": "88b01c19ee8c704517f0fc205832c5a1", "rental_uris": {"android": "https://dc.lft.to/lastmile_qr_scan", "ios": "https://dc.lft.to/lastmile_qr_scan"}, "name": "88b01c19ee8c704517f0fc205832c5a1", "is_reserved": 0}, {"is_disabled": 0, "fusion_lon": 0.0, "fusion_lat": 0.0, "lat": 38.8972495, "type": "electric_scooter", "lon": -77.02421283333334, "bike_id": "263fb4dd4509e74c4625dcc8f6eb877a", "rental_uris": {"android": "https://dc.lft.to/lastmile_qr_scan", "ios": "https://dc.lft.to/lastmile_qr_scan"}, "name": "263fb4dd4509e74c4625dcc8f6eb877a", "is_reserved": 0}, {"is_disabled": 0, "fusion_lon": 0.0, "fusion_lat": 0.0, "lat": 38.911824, "type": "electric_scooter", "lon": -77.03806333333333, "bike_id": "f2589a620186c574484730afdd867185", "rental_uris": {"android": "https://dc.lft.to/lastmile_qr_scan", "ios": "https://dc.lft.to/lastmile_qr_scan"}, "name": "f2589a620186c574484730afdd867185", "is_reserved": 0}, {"is_disabled": 0, "fusion_lon": 0.0, "fusion_lat": 0.0, "lat": 38.89547183333333, "type": "electric_scooter", "lon": -77.040427, "bike_id": "e621fc9b19031af4ad908f3ec4c92817", "rental_uris": {"android": "https://dc.lft.to/lastmile_qr_scan", "ios": "https://dc.lft.to/lastmile_qr_scan"}, "name": "e621fc9b19031af4ad908f3ec4c92817", "is_reserved": 0}, {"is_disabled": 0, "fusion_lon": 0.0, "fusion_lat": 0.0, "lat": 38.87623133333334, "type": "electric_scooter", "lon": -76.96540116666667, "bike_id": "f97f15f708b5bd48e50f0d7b9f3697cb", "rental_uris": {"android": "https://dc.lft.to/lastmile_qr_scan", "ios": "https://dc.lft.to/lastmile_qr_scan"}, "name": "f97f15f708b5bd48e50f0d7b9f3697cb", "is_reserved": 0}, {"is_disabled": 0, "fusion_lon": 0.0, "fusion_lat": 0.0, "lat": 38.9141815, "type": "electric_scooter", "lon": -77.03069716666667, "bike_id": "d34bfce2e14433244be7495816c445ce", "rental_uris": {"android": "https://dc.lft.to/lastmile_qr_scan", "ios": "https://dc.lft.to/lastmile_qr_scan"}, "name": "d34bfce2e14433244be7495816c445ce", "is_reserved": 0}, {"is_disabled": 0, "fusion_lon": 0.0, "fusion_lat": 0.0, "lat": 38.93099933333333, "type": "electric_scooter", "lon": -77.03264783333333, "bike_id": "ed2a7bbdcca5e76a4adeb9bfe53dc791", "rental_uris": {"android": "https://dc.lft.to/lastmile_qr_scan", "ios": "https://dc.lft.to/lastmile_qr_scan"}, "name": "ed2a7bbdcca5e76a4adeb9bfe53dc791", "is_reserved": 0}, {"is_disabled": 0, "fusion_lon": 0.0, "fusion_lat": 0.0, "lat": 38.9282095, "type": "electric_scooter", "lon": -77.021527, "bike_id": "64c9d9e715e4cc95c721e42b0e5ad407", "rental_uris": {"android": "https://dc.lft.to/lastmile_qr_scan", "ios": "https://dc.lft.to/lastmile_qr_scan"}, "name": "64c9d9e715e4cc95c721e42b0e5ad407", "is_reserved": 0}, {"is_disabled": 0, "fusion_lon": 0.0, "fusion_lat": 0.0, "lat": 38.89675716666667, "type": "electric_scooter", "lon": -76.976218, "bike_id": "e610597e41919ef39f9d6606bb7ca8bb", "rental_uris": {"android": "https://dc.lft.to/lastmile_qr_scan", "ios": "https://dc.lft.to/lastmile_qr_scan"}, "name": "e610597e41919ef39f9d6606bb7ca8bb", "is_reserved": 0}, {"is_disabled": 0, "fusion_lon": 0.0, "fusion_lat": 0.0, "lat": 38.90025766666667, "type": "electric_scooter", "lon": -77.05562833333333, "bike_id": "eb3fcc6abcd09a99bc83916c3a783912", "rental_uris": {"android": "https://dc.lft.to/lastmile_qr_scan", "ios": "https://dc.lft.to/lastmile_qr_scan"}, "name": "eb3fcc6abcd09a99bc83916c3a783912", "is_reserved": 0}, {"is_disabled": 0, "fusion_lon": 0.0, "fusion_lat": 0.0, "lat": 38.9602205, "type": "electric_bike", "lon": -77.04245966666667, "bike_id": "86516ebb7f82c04c666fc0aa1d91a1c2", "rental_uris": {"android": "https://dc.lft.to/lastmile_qr_scan", "ios": "https://dc.lft.to/lastmile_qr_scan"}, "name": "86516ebb7f82c04c666fc0aa1d91a1c2", "is_reserved": 0}, {"is_disabled": 0, "fusion_lon": 0.0, "fusion_lat": 0.0, "lat": 38.918146, "type": "electric_scooter", "lon": -77.02716333333333, "bike_id": "1ba15a38fb6331f29ebd68a0daec8aaf", "rental_uris": {"android": "https://dc.lft.to/lastmile_qr_scan", "ios": "https://dc.lft.to/lastmile_qr_scan"}, "name": "1ba15a38fb6331f29ebd68a0daec8aaf", "is_reserved": 0}, {"is_disabled": 0, "fusion_lon": 0.0, "fusion_lat": 0.0, "lat": 38.91842033333333, "type": "electric_scooter", "lon": -77.03442666666666, "bike_id": "db8276b36db6c549bc2b5fb0f8aabfd5", "rental_uris": {"android": "https://dc.lft.to/lastmile_qr_scan", "ios": "https://dc.lft.to/lastmile_qr_scan"}, "name": "db8276b36db6c549bc2b5fb0f8aabfd5", "is_reserved": 0}, {"is_disabled": 0, "fusion_lon": 0.0, "fusion_lat": 0.0, "lat": 38.902468666666664, "type": "electric_bike", "lon": -76.9701285, "bike_id": "a9dc0c47dd36e592b9e7651af65824e0", "rental_uris": {"android": "https://dc.lft.to/lastmile_qr_scan", "ios": "https://dc.lft.to/lastmile_qr_scan"}, "name": "a9dc0c47dd36e592b9e7651af65824e0", "is_reserved": 0}, {"is_disabled": 0, "fusion_lon": 0.0, "fusion_lat": 0.0, "lat": 38.913224, "type": "electric_scooter", "lon": -77.03187833333334, "bike_id": "fb249bf75a3fa1432b8124d960a870ee", "rental_uris": {"android": "https://dc.lft.to/lastmile_qr_scan", "ios": "https://dc.lft.to/lastmile_qr_scan"}, "name": "fb249bf75a3fa1432b8124d960a870ee", "is_reserved": 0}, {"is_disabled": 0, "fusion_lon": 0.0, "fusion_lat": 0.0, "lat": 38.9093415, "type": "electric_scooter", "lon": -77.035148, "bike_id": "60d004ee16556da9ec7352fcc281296d", "rental_uris": {"android": "https://dc.lft.to/lastmile_qr_scan", "ios": "https://dc.lft.to/lastmile_qr_scan"}, "name": "60d004ee16556da9ec7352fcc281296d", "is_reserved": 0}, {"is_disabled": 0, "fusion_lon": 0.0, "fusion_lat": 0.0, "lat": 38.91318116666667, "type": "electric_scooter", "lon": -77.031957, "bike_id": "bc3bd0b19fd08e09ec6eb770e7c580e6", "rental_uris": {"android": "https://dc.lft.to/lastmile_qr_scan", "ios": "https://dc.lft.to/lastmile_qr_scan"}, "name": "bc3bd0b19fd08e09ec6eb770e7c580e6", "is_reserved": 0}, {"is_disabled": 0, "fusion_lon": 0.0, "fusion_lat": 0.0, "lat": 38.86353116666667, "type": "electric_scooter", "lon": -76.99063066666666, "bike_id": "a0e3f402b91b36ebd54fb3ada1abf879", "rental_uris": {"android": "https://dc.lft.to/lastmile_qr_scan", "ios": "https://dc.lft.to/lastmile_qr_scan"}, "name": "a0e3f402b91b36ebd54fb3ada1abf879", "is_reserved": 0}, {"is_disabled": 0, "fusion_lon": 0.0, "fusion_lat": 0.0, "lat": 38.898354166666664, "type": "electric_scooter", "lon": -77.04304216666667, "bike_id": "ebcb7c5118484eff025ef670860e6570", "rental_uris": {"android": "https://dc.lft.to/lastmile_qr_scan", "ios": "https://dc.lft.to/lastmile_qr_scan"}, "name": "ebcb7c5118484eff025ef670860e6570", "is_reserved": 0}, {"is_disabled": 0, "fusion_lon": 0.0, "fusion_lat": 0.0, "lat": 38.99093033333333, "type": "electric_bike", "lon": -76.87495066666666, "bike_id": "7298d9d84c0e2673d21327290642ba29", "rental_uris": {"android": "https://dc.lft.to/lastmile_qr_scan", "ios": "https://dc.lft.to/lastmile_qr_scan"}, "name": "7298d9d84c0e2673d21327290642ba29", "is_reserved": 0}, {"is_disabled": 0, "fusion_lon": 0.0, "fusion_lat": 0.0, "lat": 38.92811233333333, "type": "electric_scooter", "lon": -77.036354, "bike_id": "8eb24a66ffb0a30743bed9a8aef92eb9", "rental_uris": {"android": "https://dc.lft.to/lastmile_qr_scan", "ios": "https://dc.lft.to/lastmile_qr_scan"}, "name": "8eb24a66ffb0a30743bed9a8aef92eb9", "is_reserved": 0}, {"is_disabled": 0, "fusion_lon": 0.0, "fusion_lat": 0.0, "lat": 38.9052055, "type": "electric_scooter", "lon": -77.05116683333334, "bike_id": "da9757e083f3b348d72e3de003952717", "rental_uris": {"android": "https://dc.lft.to/lastmile_qr_scan", "ios": "https://dc.lft.to/lastmile_qr_scan"}, "name": "da9757e083f3b348d72e3de003952717", "is_reserved": 0}, {"is_disabled": 0, "fusion_lon": 0.0, "fusion_lat": 0.0, "lat": 38.907679, "type": "electric_scooter", "lon": -77.03278166666666, "bike_id": "02bc00c8ba82a7d6ded588e94e1a634e", "rental_uris": {"android": "https://dc.lft.to/lastmile_qr_scan", "ios": "https://dc.lft.to/lastmile_qr_scan"}, "name": "02bc00c8ba82a7d6ded588e94e1a634e", "is_reserved": 0}, {"is_disabled": 0, "fusion_lon": 0.0, "fusion_lat": 0.0, "lat": 38.95725733333333, "type": "electric_scooter", "lon": -77.03096483333333, "bike_id": "d8db1032fbfca42a4de22a5de65dd5e6", "rental_uris": {"android": "https://dc.lft.to/lastmile_qr_scan", "ios": "https://dc.lft.to/lastmile_qr_scan"}, "name": "d8db1032fbfca42a4de22a5de65dd5e6", "is_reserved": 0}, {"is_disabled": 0, "fusion_lon": 0.0, "fusion_lat": 0.0, "lat": 38.8992165, "type": "electric_scooter", "lon": -77.01633416666667, "bike_id": "caadd31afd06a705e775b5f2632c707b", "rental_uris": {"android": "https://dc.lft.to/lastmile_qr_scan", "ios": "https://dc.lft.to/lastmile_qr_scan"}, "name": "caadd31afd06a705e775b5f2632c707b", "is_reserved": 0}, {"is_disabled": 0, "fusion_lon": 0.0, "fusion_lat": 0.0, "lat": 38.888203833333336, "type": "electric_bike", "lon": -77.1273805, "bike_id": "286670423aeb63b72a77465ff3148cab", "rental_uris": {"android": "https://dc.lft.to/lastmile_qr_scan", "ios": "https://dc.lft.to/lastmile_qr_scan"}, "name": "286670423aeb63b72a77465ff3148cab", "is_reserved": 0}, {"is_disabled": 0, "fusion_lon": 0.0, "fusion_lat": 0.0, "lat": 38.915392, "type": "electric_scooter", "lon": -77.03203316666666, "bike_id": "f8cc4b71baeac8604d3a6919c4a6be43", "rental_uris": {"android": "https://dc.lft.to/lastmile_qr_scan", "ios": "https://dc.lft.to/lastmile_qr_scan"}, "name": "f8cc4b71baeac8604d3a6919c4a6be43", "is_reserved": 0}, {"is_disabled": 0, "fusion_lon": 0.0, "fusion_lat": 0.0, "lat": 38.975745, "type": "electric_bike", "lon": -76.96404083333333, "bike_id": "284692a09c9699de0ff97419eeedd880", "rental_uris": {"android": "https://dc.lft.to/lastmile_qr_scan", "ios": "https://dc.lft.to/lastmile_qr_scan"}, "name": "284692a09c9699de0ff97419eeedd880", "is_reserved": 0}, {"is_disabled": 0, "fusion_lon": 0.0, "fusion_lat": 0.0, "lat": 38.855443666666666, "type": "electric_bike", "lon": -77.10679466666667, "bike_id": "de1f1b8f61cd862f493aa205562277fb", "rental_uris": {"android": "https://dc.lft.to/lastmile_qr_scan", "ios": "https://dc.lft.to/lastmile_qr_scan"}, "name": "de1f1b8f61cd862f493aa205562277fb", "is_reserved": 0}, {"is_disabled": 0, "fusion_lon": 0.0, "fusion_lat": 0.0, "lat": 38.89482133333333, "type": "electric_scooter", "lon": -77.021184, "bike_id": "93e97cf1b700e1cc750afd31824f8a3f", "rental_uris": {"android": "https://dc.lft.to/lastmile_qr_scan", "ios": "https://dc.lft.to/lastmile_qr_scan"}, "name": "93e97cf1b700e1cc750afd31824f8a3f", "is_reserved": 0}, {"is_disabled": 0, "fusion_lon": 0.0, "fusion_lat": 0.0, "lat": 38.91548566666667, "type": "electric_scooter", "lon": -77.03854433333333, "bike_id": "1375286e0d48b9f0d6eec38aca7b2f7e", "rental_uris": {"android": "https://dc.lft.to/lastmile_qr_scan", "ios": "https://dc.lft.to/lastmile_qr_scan"}, "name": "1375286e0d48b9f0d6eec38aca7b2f7e", "is_reserved": 0}, {"is_disabled": 0, "fusion_lon": 0.0, "fusion_lat": 0.0, "lat": 38.909710833333335, "type": "electric_scooter", "lon": -77.04553966666667, "bike_id": "15c014e0cd8f1408b7d7b9db6dfab63a", "rental_uris": {"android": "https://dc.lft.to/lastmile_qr_scan", "ios": "https://dc.lft.to/lastmile_qr_scan"}, "name": "15c014e0cd8f1408b7d7b9db6dfab63a", "is_reserved": 0}, {"is_disabled": 0, "fusion_lon": 0.0, "fusion_lat": 0.0, "lat": 38.910335, "type": "electric_scooter", "lon": -77.0425365, "bike_id": "6de79d5b70cd0b654131b1e65d02365f", "rental_uris": {"android": "https://dc.lft.to/lastmile_qr_scan", "ios": "https://dc.lft.to/lastmile_qr_scan"}, "name": "6de79d5b70cd0b654131b1e65d02365f", "is_reserved": 0}, {"is_disabled": 0, "fusion_lon": 0.0, "fusion_lat": 0.0, "lat": 39.038825333333335, "type": "electric_bike", "lon": -77.10910566666666, "bike_id": "e8e8fc810423a3cbf81f268e99e9bb3f", "rental_uris": {"android": "https://dc.lft.to/lastmile_qr_scan", "ios": "https://dc.lft.to/lastmile_qr_scan"}, "name": "e8e8fc810423a3cbf81f268e99e9bb3f", "is_reserved": 0}, {"is_disabled": 0, "fusion_lon": 0.0, "fusion_lat": 0.0, "lat": 38.99266933333333, "type": "electric_scooter", "lon": -77.03607016666666, "bike_id": "5e01a271ca080f41a38ab0bc09663e3b", "rental_uris": {"android": "https://dc.lft.to/lastmile_qr_scan", "ios": "https://dc.lft.to/lastmile_qr_scan"}, "name": "5e01a271ca080f41a38ab0bc09663e3b", "is_reserved": 0}, {"is_disabled": 0, "fusion_lon": 0.0, "fusion_lat": 0.0, "lat": 38.90942783333333, "type": "electric_scooter", "lon": -77.04724916666666, "bike_id": "72cc1530154a360e881346576df45ead", "rental_uris": {"android": "https://dc.lft.to/lastmile_qr_scan", "ios": "https://dc.lft.to/lastmile_qr_scan"}, "name": "72cc1530154a360e881346576df45ead", "is_reserved": 0}, {"is_disabled": 0, "fusion_lon": 0.0, "fusion_lat": 0.0, "lat": 38.92164316666667, "type": "electric_scooter", "lon": -77.03846766666666, "bike_id": "c8ff92ddfbcd187c0fd810698113099d", "rental_uris": {"android": "https://dc.lft.to/lastmile_qr_scan", "ios": "https://dc.lft.to/lastmile_qr_scan"}, "name": "c8ff92ddfbcd187c0fd810698113099d", "is_reserved": 0}, {"is_disabled": 0, "fusion_lon": 0.0, "fusion_lat": 0.0, "lat": 38.936713166666664, "type": "electric_bike", "lon": -76.9520475, "bike_id": "6768e9859525e0052768b0b75c035e1d", "rental_uris": {"android": "https://dc.lft.to/lastmile_qr_scan", "ios": "https://dc.lft.to/lastmile_qr_scan"}, "name": "6768e9859525e0052768b0b75c035e1d", "is_reserved": 0}, {"is_disabled": 0, "fusion_lon": 0.0, "fusion_lat": 0.0, "lat": 38.934799166666664, "type": "electric_scooter", "lon": -77.07269183333334, "bike_id": "061fd000e910b9a070615dc2bb15d684", "rental_uris": {"android": "https://dc.lft.to/lastmile_qr_scan", "ios": "https://dc.lft.to/lastmile_qr_scan"}, "name": "061fd000e910b9a070615dc2bb15d684", "is_reserved": 0}, {"is_disabled": 0, "fusion_lon": 0.0, "fusion_lat": 0.0, "lat": 38.917046, "type": "electric_scooter", "lon": -77.05123583333334, "bike_id": "d2683931544906e1dd6b90c3dcbbccaa", "rental_uris": {"android": "https://dc.lft.to/lastmile_qr_scan", "ios": "https://dc.lft.to/lastmile_qr_scan"}, "name": "d2683931544906e1dd6b90c3dcbbccaa", "is_reserved": 0}, {"is_disabled": 0, "fusion_lon": 0.0, "fusion_lat": 0.0, "lat": 38.885783, "type": "electric_scooter", "lon": -76.91910933333334, "bike_id": "beffd2b403c30276224f1bcfe350eefa", "rental_uris": {"android": "https://dc.lft.to/lastmile_qr_scan", "ios": "https://dc.lft.to/lastmile_qr_scan"}, "name": "beffd2b403c30276224f1bcfe350eefa", "is_reserved": 0}, {"is_disabled": 0, "fusion_lon": 0.0, "fusion_lat": 0.0, "lat": 38.86372716666666, "type": "electric_scooter", "lon": -77.01362216666666, "bike_id": "13e1ba5a45eaefb867507feb8bf72d47", "rental_uris": {"android": "https://dc.lft.to/lastmile_qr_scan", "ios": "https://dc.lft.to/lastmile_qr_scan"}, "name": "13e1ba5a45eaefb867507feb8bf72d47", "is_reserved": 0}, {"is_disabled": 0, "fusion_lon": 0.0, "fusion_lat": 0.0, "lat": 38.9445495, "type": "electric_scooter", "lon": -77.06021683333333, "bike_id": "75132a097f76a36c9524238cf09b5b10", "rental_uris": {"android": "https://dc.lft.to/lastmile_qr_scan", "ios": "https://dc.lft.to/lastmile_qr_scan"}, "name": "75132a097f76a36c9524238cf09b5b10", "is_reserved": 0}, {"is_disabled": 0, "fusion_lon": 0.0, "fusion_lat": 0.0, "lat": 38.92651866666667, "type": "electric_scooter", "lon": -77.02406716666667, "bike_id": "205015143adc9e17f49707033d0a0716", "rental_uris": {"android": "https://dc.lft.to/lastmile_qr_scan", "ios": "https://dc.lft.to/lastmile_qr_scan"}, "name": "205015143adc9e17f49707033d0a0716", "is_reserved": 0}, {"is_disabled": 0, "fusion_lon": 0.0, "fusion_lat": 0.0, "lat": 38.87738516666667, "type": "electric_scooter", "lon": -76.996251, "bike_id": "9a631643bfcd1dcd8e82782266623b4a", "rental_uris": {"android": "https://dc.lft.to/lastmile_qr_scan", "ios": "https://dc.lft.to/lastmile_qr_scan"}, "name": "9a631643bfcd1dcd8e82782266623b4a", "is_reserved": 0}, {"is_disabled": 0, "fusion_lon": 0.0, "fusion_lat": 0.0, "lat": 38.926181666666665, "type": "electric_scooter", "lon": -77.04191683333333, "bike_id": "7661c84ca0ed9a01e9520a810619e2a9", "rental_uris": {"android": "https://dc.lft.to/lastmile_qr_scan", "ios": "https://dc.lft.to/lastmile_qr_scan"}, "name": "7661c84ca0ed9a01e9520a810619e2a9", "is_reserved": 0}, {"is_disabled": 0, "fusion_lon": 0.0, "fusion_lat": 0.0, "lat": 38.99671333333333, "type": "electric_bike", "lon": -76.99145966666667, "bike_id": "8ede9e5e7ee720e02998af28d871f0fa", "rental_uris": {"android": "https://dc.lft.to/lastmile_qr_scan", "ios": "https://dc.lft.to/lastmile_qr_scan"}, "name": "8ede9e5e7ee720e02998af28d871f0fa", "is_reserved": 0}, {"is_disabled": 0, "fusion_lon": 0.0, "fusion_lat": 0.0, "lat": 38.89845416666667, "type": "electric_scooter", "lon": -77.043465, "bike_id": "3c8c96a5aea8a00445ea25f25635adfd", "rental_uris": {"android": "https://dc.lft.to/lastmile_qr_scan", "ios": "https://dc.lft.to/lastmile_qr_scan"}, "name": "3c8c96a5aea8a00445ea25f25635adfd", "is_reserved": 0}, {"is_disabled": 0, "fusion_lon": 0.0, "fusion_lat": 0.0, "lat": 38.90947933333333, "type": "electric_scooter", "lon": -77.06438583333333, "bike_id": "6c891dd94144a05950c8c6896041519a", "rental_uris": {"android": "https://dc.lft.to/lastmile_qr_scan", "ios": "https://dc.lft.to/lastmile_qr_scan"}, "name": "6c891dd94144a05950c8c6896041519a", "is_reserved": 0}, {"is_disabled": 0, "fusion_lon": 0.0, "fusion_lat": 0.0, "lat": 38.94894516666667, "type": "electric_bike", "lon": -76.96370616666667, "bike_id": "b74593bb96b2623fde76acf1348ec656", "rental_uris": {"android": "https://dc.lft.to/lastmile_qr_scan", "ios": "https://dc.lft.to/lastmile_qr_scan"}, "name": "b74593bb96b2623fde76acf1348ec656", "is_reserved": 0}, {"is_disabled": 0, "fusion_lon": 0.0, "fusion_lat": 0.0, "lat": 38.936967833333334, "type": "electric_scooter", "lon": -77.055989, "bike_id": "ab62cf6fc7b258119a3f71a96ff3e5c6", "rental_uris": {"android": "https://dc.lft.to/lastmile_qr_scan", "ios": "https://dc.lft.to/lastmile_qr_scan"}, "name": "ab62cf6fc7b258119a3f71a96ff3e5c6", "is_reserved": 0}, {"is_disabled": 0, "fusion_lon": 0.0, "fusion_lat": 0.0, "lat": 38.917842, "type": "electric_scooter", "lon": -77.017771, "bike_id": "834ee435322dfa35700073b05b156a58", "rental_uris": {"android": "https://dc.lft.to/lastmile_qr_scan", "ios": "https://dc.lft.to/lastmile_qr_scan"}, "name": "834ee435322dfa35700073b05b156a58", "is_reserved": 0}, {"is_disabled": 0, "fusion_lon": 0.0, "fusion_lat": 0.0, "lat": 38.912151333333334, "type": "electric_scooter", "lon": -77.03840733333334, "bike_id": "f17c96fb3eec9f0c8360efe688a02119", "rental_uris": {"android": "https://dc.lft.to/lastmile_qr_scan", "ios": "https://dc.lft.to/lastmile_qr_scan"}, "name": "f17c96fb3eec9f0c8360efe688a02119", "is_reserved": 0}, {"is_disabled": 0, "fusion_lon": 0.0, "fusion_lat": 0.0, "lat": 39.05269966666667, "type": "electric_bike", "lon": -77.04384983333334, "bike_id": "8eaffc6fe0889c2560e3fd40b49c71de", "rental_uris": {"android": "https://dc.lft.to/lastmile_qr_scan", "ios": "https://dc.lft.to/lastmile_qr_scan"}, "name": "8eaffc6fe0889c2560e3fd40b49c71de", "is_reserved": 0}, {"is_disabled": 0, "fusion_lon": 0.0, "fusion_lat": 0.0, "lat": 38.884579333333335, "type": "electric_bike", "lon": -76.91637916666667, "bike_id": "33c23a5644886ee10513263dfe4b75f3", "rental_uris": {"android": "https://dc.lft.to/lastmile_qr_scan", "ios": "https://dc.lft.to/lastmile_qr_scan"}, "name": "33c23a5644886ee10513263dfe4b75f3", "is_reserved": 0}, {"is_disabled": 0, "fusion_lon": 0.0, "fusion_lat": 0.0, "lat": 38.917009, "type": "electric_scooter", "lon": -77.03629683333334, "bike_id": "689b79842f7170286269f8a01c4e31c8", "rental_uris": {"android": "https://dc.lft.to/lastmile_qr_scan", "ios": "https://dc.lft.to/lastmile_qr_scan"}, "name": "689b79842f7170286269f8a01c4e31c8", "is_reserved": 0}, {"is_disabled": 0, "fusion_lon": 0.0, "fusion_lat": 0.0, "lat": 38.91194516666667, "type": "electric_scooter", "lon": -77.04159433333334, "bike_id": "7a54de5eab53cebd9b3ac4f9e8e8b96c", "rental_uris": {"android": "https://dc.lft.to/lastmile_qr_scan", "ios": "https://dc.lft.to/lastmile_qr_scan"}, "name": "7a54de5eab53cebd9b3ac4f9e8e8b96c", "is_reserved": 0}, {"is_disabled": 0, "fusion_lon": 0.0, "fusion_lat": 0.0, "lat": 38.90033833333333, "type": "electric_scooter", "lon": -77.01185266666667, "bike_id": "3918639e2954233dbd2929ba76448f95", "rental_uris": {"android": "https://dc.lft.to/lastmile_qr_scan", "ios": "https://dc.lft.to/lastmile_qr_scan"}, "name": "3918639e2954233dbd2929ba76448f95", "is_reserved": 0}, {"is_disabled": 0, "fusion_lon": 0.0, "fusion_lat": 0.0, "lat": 38.91250083333333, "type": "electric_scooter", "lon": -77.04159983333334, "bike_id": "5245e9d948e61e3dd2cb402023a9f42f", "rental_uris": {"android": "https://dc.lft.to/lastmile_qr_scan", "ios": "https://dc.lft.to/lastmile_qr_scan"}, "name": "5245e9d948e61e3dd2cb402023a9f42f", "is_reserved": 0}, {"is_disabled": 0, "fusion_lon": 0.0, "fusion_lat": 0.0, "lat": 38.9100215, "type": "electric_scooter", "lon": -77.03716233333333, "bike_id": "ef7603ad802ab09f22352bd9c5f4a33c", "rental_uris": {"android": "https://dc.lft.to/lastmile_qr_scan", "ios": "https://dc.lft.to/lastmile_qr_scan"}, "name": "ef7603ad802ab09f22352bd9c5f4a33c", "is_reserved": 0}, {"is_disabled": 0, "fusion_lon": 0.0, "fusion_lat": 0.0, "lat": 38.941856333333334, "type": "electric_scooter", "lon": -77.02490183333333, "bike_id": "821232ac616813b9f5c6521bf1e5a593", "rental_uris": {"android": "https://dc.lft.to/lastmile_qr_scan", "ios": "https://dc.lft.to/lastmile_qr_scan"}, "name": "821232ac616813b9f5c6521bf1e5a593", "is_reserved": 0}, {"is_disabled": 0, "fusion_lon": 0.0, "fusion_lat": 0.0, "lat": 38.9431615, "type": "electric_scooter", "lon": -77.08579883333333, "bike_id": "aee1a012ab641ba71b354f85e87390f1", "rental_uris": {"android": "https://dc.lft.to/lastmile_qr_scan", "ios": "https://dc.lft.to/lastmile_qr_scan"}, "name": "aee1a012ab641ba71b354f85e87390f1", "is_reserved": 0}, {"is_disabled": 0, "fusion_lon": 0.0, "fusion_lat": 0.0, "lat": 38.87290983333333, "type": "electric_scooter", "lon": -77.00986516666667, "bike_id": "63ea5215bfea1a60e708a0baface0c51", "rental_uris": {"android": "https://dc.lft.to/lastmile_qr_scan", "ios": "https://dc.lft.to/lastmile_qr_scan"}, "name": "63ea5215bfea1a60e708a0baface0c51", "is_reserved": 0}, {"is_disabled": 0, "fusion_lon": 0.0, "fusion_lat": 0.0, "lat": 38.93100466666667, "type": "electric_scooter", "lon": -77.03264783333333, "bike_id": "a0c87966fd650f9b2781fbad8a7fac4a", "rental_uris": {"android": "https://dc.lft.to/lastmile_qr_scan", "ios": "https://dc.lft.to/lastmile_qr_scan"}, "name": "a0c87966fd650f9b2781fbad8a7fac4a", "is_reserved": 0}, {"is_disabled": 0, "fusion_lon": 0.0, "fusion_lat": 0.0, "lat": 38.8927695, "type": "electric_scooter", "lon": -76.93721566666666, "bike_id": "a384edb9dee83218736b0831985cb0b9", "rental_uris": {"android": "https://dc.lft.to/lastmile_qr_scan", "ios": "https://dc.lft.to/lastmile_qr_scan"}, "name": "a384edb9dee83218736b0831985cb0b9", "is_reserved": 0}, {"is_disabled": 0, "fusion_lon": 0.0, "fusion_lat": 0.0, "lat": 38.91461533333333, "type": "electric_scooter", "lon": -77.03186733333334, "bike_id": "4a643ded500e89b74b7e2f401ef9ee29", "rental_uris": {"android": "https://dc.lft.to/lastmile_qr_scan", "ios": "https://dc.lft.to/lastmile_qr_scan"}, "name": "4a643ded500e89b74b7e2f401ef9ee29", "is_reserved": 0}, {"is_disabled": 0, "fusion_lon": 0.0, "fusion_lat": 0.0, "lat": 38.908524666666665, "type": "electric_scooter", "lon": -77.03256833333333, "bike_id": "42e7c2c1f17925fa7fe483733058736c", "rental_uris": {"android": "https://dc.lft.to/lastmile_qr_scan", "ios": "https://dc.lft.to/lastmile_qr_scan"}, "name": "42e7c2c1f17925fa7fe483733058736c", "is_reserved": 0}, {"is_disabled": 0, "fusion_lon": 0.0, "fusion_lat": 0.0, "lat": 38.9217235, "type": "electric_scooter", "lon": -77.03837316666667, "bike_id": "5aa41a12e82432bfb0ba05dad9c5b12c", "rental_uris": {"android": "https://dc.lft.to/lastmile_qr_scan", "ios": "https://dc.lft.to/lastmile_qr_scan"}, "name": "5aa41a12e82432bfb0ba05dad9c5b12c", "is_reserved": 0}, {"is_disabled": 0, "fusion_lon": 0.0, "fusion_lat": 0.0, "lat": 38.8797375, "type": "electric_scooter", "lon": -76.99370833333333, "bike_id": "23474077798a216514e4a0c0ce69d4d5", "rental_uris": {"android": "https://dc.lft.to/lastmile_qr_scan", "ios": "https://dc.lft.to/lastmile_qr_scan"}, "name": "23474077798a216514e4a0c0ce69d4d5", "is_reserved": 0}, {"is_disabled": 0, "fusion_lon": 0.0, "fusion_lat": 0.0, "lat": 38.98505766666667, "type": "electric_bike", "lon": -76.9820385, "bike_id": "de9efa32eb74eda496bd7ef0422f4056", "rental_uris": {"android": "https://dc.lft.to/lastmile_qr_scan", "ios": "https://dc.lft.to/lastmile_qr_scan"}, "name": "de9efa32eb74eda496bd7ef0422f4056", "is_reserved": 0}, {"is_disabled": 0, "fusion_lon": 0.0, "fusion_lat": 0.0, "lat": 38.925636, "type": "electric_scooter", "lon": -77.03788383333334, "bike_id": "27e9874e721d310352e89e84098040ed", "rental_uris": {"android": "https://dc.lft.to/lastmile_qr_scan", "ios": "https://dc.lft.to/lastmile_qr_scan"}, "name": "27e9874e721d310352e89e84098040ed", "is_reserved": 0}, {"is_disabled": 0, "fusion_lon": 0.0, "fusion_lat": 0.0, "lat": 38.903617833333335, "type": "electric_scooter", "lon": -77.0119255, "bike_id": "16b4c61ee8f34482ab3d34023e424a1c", "rental_uris": {"android": "https://dc.lft.to/lastmile_qr_scan", "ios": "https://dc.lft.to/lastmile_qr_scan"}, "name": "16b4c61ee8f34482ab3d34023e424a1c", "is_reserved": 0}, {"is_disabled": 0, "fusion_lon": 0.0, "fusion_lat": 0.0, "lat": 38.91415383333333, "type": "electric_scooter", "lon": -77.02559316666667, "bike_id": "d12fecf7014ef5f96b1c204cbae43645", "rental_uris": {"android": "https://dc.lft.to/lastmile_qr_scan", "ios": "https://dc.lft.to/lastmile_qr_scan"}, "name": "d12fecf7014ef5f96b1c204cbae43645", "is_reserved": 0}, {"is_disabled": 0, "fusion_lon": 0.0, "fusion_lat": 0.0, "lat": 38.9165965, "type": "electric_scooter", "lon": -77.03854366666667, "bike_id": "d5e80d26e2cf1ccbfa9105dc5ba8d7d2", "rental_uris": {"android": "https://dc.lft.to/lastmile_qr_scan", "ios": "https://dc.lft.to/lastmile_qr_scan"}, "name": "d5e80d26e2cf1ccbfa9105dc5ba8d7d2", "is_reserved": 0}, {"is_disabled": 0, "fusion_lon": 0.0, "fusion_lat": 0.0, "lat": 38.885040333333336, "type": "electric_scooter", "lon": -76.99645683333334, "bike_id": "a862478446633c35122fe48ced6bd7e4", "rental_uris": {"android": "https://dc.lft.to/lastmile_qr_scan", "ios": "https://dc.lft.to/lastmile_qr_scan"}, "name": "a862478446633c35122fe48ced6bd7e4", "is_reserved": 0}, {"is_disabled": 0, "fusion_lon": 0.0, "fusion_lat": 0.0, "lat": 38.868477, "type": "electric_bike", "lon": -77.09727183333334, "bike_id": "4b2015fe3d57f4e2de941780f6d88e6f", "rental_uris": {"android": "https://dc.lft.to/lastmile_qr_scan", "ios": "https://dc.lft.to/lastmile_qr_scan"}, "name": "4b2015fe3d57f4e2de941780f6d88e6f", "is_reserved": 0}, {"is_disabled": 0, "fusion_lon": 0.0, "fusion_lat": 0.0, "lat": 38.91178216666667, "type": "electric_scooter", "lon": -77.00467216666667, "bike_id": "e6a12c8521baa2acf51ea49c389668e3", "rental_uris": {"android": "https://dc.lft.to/lastmile_qr_scan", "ios": "https://dc.lft.to/lastmile_qr_scan"}, "name": "e6a12c8521baa2acf51ea49c389668e3", "is_reserved": 0}, {"is_disabled": 0, "fusion_lon": 0.0, "fusion_lat": 0.0, "lat": 38.917710166666666, "type": "electric_scooter", "lon": -77.01474133333333, "bike_id": "dd82dc22df849cf79416852173975772", "rental_uris": {"android": "https://dc.lft.to/lastmile_qr_scan", "ios": "https://dc.lft.to/lastmile_qr_scan"}, "name": "dd82dc22df849cf79416852173975772", "is_reserved": 0}, {"is_disabled": 0, "fusion_lon": 0.0, "fusion_lat": 0.0, "lat": 38.91548933333333, "type": "electric_scooter", "lon": -77.020436, "bike_id": "d320eec47ec6b696f98f52715d0a8865", "rental_uris": {"android": "https://dc.lft.to/lastmile_qr_scan", "ios": "https://dc.lft.to/lastmile_qr_scan"}, "name": "d320eec47ec6b696f98f52715d0a8865", "is_reserved": 0}, {"is_disabled": 0, "fusion_lon": 0.0, "fusion_lat": 0.0, "lat": 38.89864583333333, "type": "electric_scooter", "lon": -77.02294066666667, "bike_id": "b64443783779e55252fb971ad305396a", "rental_uris": {"android": "https://dc.lft.to/lastmile_qr_scan", "ios": "https://dc.lft.to/lastmile_qr_scan"}, "name": "b64443783779e55252fb971ad305396a", "is_reserved": 0}, {"is_disabled": 0, "fusion_lon": 0.0, "fusion_lat": 0.0, "lat": 38.90368683333333, "type": "electric_scooter", "lon": -77.03761666666666, "bike_id": "f089a35f40ee09977253efa965c88266", "rental_uris": {"android": "https://dc.lft.to/lastmile_qr_scan", "ios": "https://dc.lft.to/lastmile_qr_scan"}, "name": "f089a35f40ee09977253efa965c88266", "is_reserved": 0}, {"is_disabled": 0, "fusion_lon": 0.0, "fusion_lat": 0.0, "lat": 38.91859983333333, "type": "electric_bike", "lon": -76.96086483333333, "bike_id": "9f94044ff0668cecafe2901ffadf36dd", "rental_uris": {"android": "https://dc.lft.to/lastmile_qr_scan", "ios": "https://dc.lft.to/lastmile_qr_scan"}, "name": "9f94044ff0668cecafe2901ffadf36dd", "is_reserved": 0}, {"is_disabled": 0, "fusion_lon": 0.0, "fusion_lat": 0.0, "lat": 38.950767, "type": "electric_scooter", "lon": -77.02873466666667, "bike_id": "cfa99a9c66002ccb9cd3ab3324c9dfe9", "rental_uris": {"android": "https://dc.lft.to/lastmile_qr_scan", "ios": "https://dc.lft.to/lastmile_qr_scan"}, "name": "cfa99a9c66002ccb9cd3ab3324c9dfe9", "is_reserved": 0}, {"is_disabled": 0, "fusion_lon": 0.0, "fusion_lat": 0.0, "lat": 38.890172, "type": "electric_scooter", "lon": -76.93729383333333, "bike_id": "47ff3f4c5523a5aa9199c4fae1cc455b", "rental_uris": {"android": "https://dc.lft.to/lastmile_qr_scan", "ios": "https://dc.lft.to/lastmile_qr_scan"}, "name": "47ff3f4c5523a5aa9199c4fae1cc455b", "is_reserved": 0}, {"is_disabled": 0, "fusion_lon": 0.0, "fusion_lat": 0.0, "lat": 38.956171, "type": "electric_scooter", "lon": -77.03629316666667, "bike_id": "5d9d4be9e39f08861c765759af58ced1", "rental_uris": {"android": "https://dc.lft.to/lastmile_qr_scan", "ios": "https://dc.lft.to/lastmile_qr_scan"}, "name": "5d9d4be9e39f08861c765759af58ced1", "is_reserved": 0}, {"is_disabled": 0, "fusion_lon": 0.0, "fusion_lat": 0.0, "lat": 39.00657133333333, "type": "electric_bike", "lon": -76.90027, "bike_id": "84efa79708b246e196c6f51d557c5c9e", "rental_uris": {"android": "https://dc.lft.to/lastmile_qr_scan", "ios": "https://dc.lft.to/lastmile_qr_scan"}, "name": "84efa79708b246e196c6f51d557c5c9e", "is_reserved": 0}, {"is_disabled": 0, "fusion_lon": 0.0, "fusion_lat": 0.0, "lat": 38.902529333333334, "type": "electric_scooter", "lon": -77.02201416666666, "bike_id": "080e92650e41012e6cee4362e1f2f901", "rental_uris": {"android": "https://dc.lft.to/lastmile_qr_scan", "ios": "https://dc.lft.to/lastmile_qr_scan"}, "name": "080e92650e41012e6cee4362e1f2f901", "is_reserved": 0}, {"is_disabled": 0, "fusion_lon": 0.0, "fusion_lat": 0.0, "lat": 38.91882283333333, "type": "electric_scooter", "lon": -77.01595633333334, "bike_id": "7f616dd2268593566eb114d70ac85ee2", "rental_uris": {"android": "https://dc.lft.to/lastmile_qr_scan", "ios": "https://dc.lft.to/lastmile_qr_scan"}, "name": "7f616dd2268593566eb114d70ac85ee2", "is_reserved": 0}, {"is_disabled": 0, "fusion_lon": 0.0, "fusion_lat": 0.0, "lat": 38.91232133333333, "type": "electric_scooter", "lon": -77.04481883333334, "bike_id": "e11fbf51ac294ea535a602a44d33b9a2", "rental_uris": {"android": "https://dc.lft.to/lastmile_qr_scan", "ios": "https://dc.lft.to/lastmile_qr_scan"}, "name": "e11fbf51ac294ea535a602a44d33b9a2", "is_reserved": 0}, {"is_disabled": 0, "fusion_lon": 0.0, "fusion_lat": 0.0, "lat": 38.931933, "type": "electric_bike", "lon": -77.22937166666667, "bike_id": "2cde11004ac7f0585b4d3148d7f7cfdc", "rental_uris": {"android": "https://dc.lft.to/lastmile_qr_scan", "ios": "https://dc.lft.to/lastmile_qr_scan"}, "name": "2cde11004ac7f0585b4d3148d7f7cfdc", "is_reserved": 0}, {"is_disabled": 0, "fusion_lon": 0.0, "fusion_lat": 0.0, "lat": 38.921558166666664, "type": "electric_scooter", "lon": -77.04240933333334, "bike_id": "44404b4ecf216d82aeb3358861b9f158", "rental_uris": {"android": "https://dc.lft.to/lastmile_qr_scan", "ios": "https://dc.lft.to/lastmile_qr_scan"}, "name": "44404b4ecf216d82aeb3358861b9f158", "is_reserved": 0}, {"is_disabled": 0, "fusion_lon": 0.0, "fusion_lat": 0.0, "lat": 38.92155616666667, "type": "electric_scooter", "lon": -77.04292016666666, "bike_id": "e7f48b4ea2b5b9621b843ea6d5536522", "rental_uris": {"android": "https://dc.lft.to/lastmile_qr_scan", "ios": "https://dc.lft.to/lastmile_qr_scan"}, "name": "e7f48b4ea2b5b9621b843ea6d5536522", "is_reserved": 0}, {"is_disabled": 0, "fusion_lon": 0.0, "fusion_lat": 0.0, "lat": 38.9925585, "type": "electric_bike", "lon": -77.04995683333334, "bike_id": "e56dbd079e88ebf6efaabc0ad95daefc", "rental_uris": {"android": "https://dc.lft.to/lastmile_qr_scan", "ios": "https://dc.lft.to/lastmile_qr_scan"}, "name": "e56dbd079e88ebf6efaabc0ad95daefc", "is_reserved": 0}, {"is_disabled": 0, "fusion_lon": 0.0, "fusion_lat": 0.0, "lat": 38.883735333333334, "type": "electric_scooter", "lon": -76.92644716666666, "bike_id": "b8c8a913ea3f81f8c425bb547a9de68d", "rental_uris": {"android": "https://dc.lft.to/lastmile_qr_scan", "ios": "https://dc.lft.to/lastmile_qr_scan"}, "name": "b8c8a913ea3f81f8c425bb547a9de68d", "is_reserved": 0}, {"is_disabled": 0, "fusion_lon": 0.0, "fusion_lat": 0.0, "lat": 38.912575, "type": "electric_scooter", "lon": -77.04101233333333, "bike_id": "4354e0da84f616cd9c9fe57ddf5f29b5", "rental_uris": {"android": "https://dc.lft.to/lastmile_qr_scan", "ios": "https://dc.lft.to/lastmile_qr_scan"}, "name": "4354e0da84f616cd9c9fe57ddf5f29b5", "is_reserved": 0}, {"is_disabled": 0, "fusion_lon": 0.0, "fusion_lat": 0.0, "lat": 38.915592833333335, "type": "electric_scooter", "lon": -77.03074733333334, "bike_id": "e0da329c369713820469b90d2eefbb62", "rental_uris": {"android": "https://dc.lft.to/lastmile_qr_scan", "ios": "https://dc.lft.to/lastmile_qr_scan"}, "name": "e0da329c369713820469b90d2eefbb62", "is_reserved": 0}, {"is_disabled": 0, "fusion_lon": 0.0, "fusion_lat": 0.0, "lat": 38.890158166666666, "type": "electric_scooter", "lon": -76.93733216666666, "bike_id": "318263678935ab5ece7dc8b35178dcff", "rental_uris": {"android": "https://dc.lft.to/lastmile_qr_scan", "ios": "https://dc.lft.to/lastmile_qr_scan"}, "name": "318263678935ab5ece7dc8b35178dcff", "is_reserved": 0}, {"is_disabled": 0, "fusion_lon": 0.0, "fusion_lat": 0.0, "lat": 38.92860866666667, "type": "electric_scooter", "lon": -77.03291733333333, "bike_id": "d3ef81e4f2dad1ef71691289332ee348", "rental_uris": {"android": "https://dc.lft.to/lastmile_qr_scan", "ios": "https://dc.lft.to/lastmile_qr_scan"}, "name": "d3ef81e4f2dad1ef71691289332ee348", "is_reserved": 0}, {"is_disabled": 0, "fusion_lon": 0.0, "fusion_lat": 0.0, "lat": 38.8443225, "type": "electric_scooter", "lon": -76.9981295, "bike_id": "087ecd9eed89a27888de6f5182e7e174", "rental_uris": {"android": "https://dc.lft.to/lastmile_qr_scan", "ios": "https://dc.lft.to/lastmile_qr_scan"}, "name": "087ecd9eed89a27888de6f5182e7e174", "is_reserved": 0}, {"is_disabled": 0, "fusion_lon": 0.0, "fusion_lat": 0.0, "lat": 38.91145983333333, "type": "electric_scooter", "lon": -77.01089133333333, "bike_id": "198636aa171c5c512b5b073b6a6e9e6f", "rental_uris": {"android": "https://dc.lft.to/lastmile_qr_scan", "ios": "https://dc.lft.to/lastmile_qr_scan"}, "name": "198636aa171c5c512b5b073b6a6e9e6f", "is_reserved": 0}, {"is_disabled": 0, "fusion_lon": 0.0, "fusion_lat": 0.0, "lat": 38.89887483333333, "type": "electric_scooter", "lon": -77.00915033333334, "bike_id": "02564bb6effedb9cac8e0377515c7733", "rental_uris": {"android": "https://dc.lft.to/lastmile_qr_scan", "ios": "https://dc.lft.to/lastmile_qr_scan"}, "name": "02564bb6effedb9cac8e0377515c7733", "is_reserved": 0}, {"is_disabled": 0, "fusion_lon": 0.0, "fusion_lat": 0.0, "lat": 38.9209025, "type": "electric_scooter", "lon": -77.0259235, "bike_id": "f37a2ce026b1e02332adaf08553b107d", "rental_uris": {"android": "https://dc.lft.to/lastmile_qr_scan", "ios": "https://dc.lft.to/lastmile_qr_scan"}, "name": "f37a2ce026b1e02332adaf08553b107d", "is_reserved": 0}, {"is_disabled": 0, "fusion_lon": 0.0, "fusion_lat": 0.0, "lat": 38.9039275, "type": "electric_scooter", "lon": -77.05465666666667, "bike_id": "9d8c3c9abebfad8c9adeb39c27288e33", "rental_uris": {"android": "https://dc.lft.to/lastmile_qr_scan", "ios": "https://dc.lft.to/lastmile_qr_scan"}, "name": "9d8c3c9abebfad8c9adeb39c27288e33", "is_reserved": 0}, {"is_disabled": 0, "fusion_lon": 0.0, "fusion_lat": 0.0, "lat": 38.905697, "type": "electric_scooter", "lon": -77.01888816666667, "bike_id": "7d5cdcad19ac95888ff3bb1e82c32576", "rental_uris": {"android": "https://dc.lft.to/lastmile_qr_scan", "ios": "https://dc.lft.to/lastmile_qr_scan"}, "name": "7d5cdcad19ac95888ff3bb1e82c32576", "is_reserved": 0}, {"is_disabled": 0, "fusion_lon": 0.0, "fusion_lat": 0.0, "lat": 38.921252333333335, "type": "electric_scooter", "lon": -77.04427316666667, "bike_id": "f08face78eb09d7fbb0173be6a61fc10", "rental_uris": {"android": "https://dc.lft.to/lastmile_qr_scan", "ios": "https://dc.lft.to/lastmile_qr_scan"}, "name": "f08face78eb09d7fbb0173be6a61fc10", "is_reserved": 0}, {"is_disabled": 0, "fusion_lon": 0.0, "fusion_lat": 0.0, "lat": 38.905683, "type": "electric_scooter", "lon": -77.00647483333333, "bike_id": "102c6918c9e02848791a3f07cb7d71fe", "rental_uris": {"android": "https://dc.lft.to/lastmile_qr_scan", "ios": "https://dc.lft.to/lastmile_qr_scan"}, "name": "102c6918c9e02848791a3f07cb7d71fe", "is_reserved": 0}, {"is_disabled": 0, "fusion_lon": 0.0, "fusion_lat": 0.0, "lat": 38.903461666666665, "type": "electric_scooter", "lon": -77.02533266666667, "bike_id": "6204eb9fe9d3bcd6330d22613b0f08be", "rental_uris": {"android": "https://dc.lft.to/lastmile_qr_scan", "ios": "https://dc.lft.to/lastmile_qr_scan"}, "name": "6204eb9fe9d3bcd6330d22613b0f08be", "is_reserved": 0}, {"is_disabled": 0, "fusion_lon": 0.0, "fusion_lat": 0.0, "lat": 38.904428333333335, "type": "electric_scooter", "lon": -77.06120183333333, "bike_id": "dd792e1c3b22d1a67c2ba843d629f8c3", "rental_uris": {"android": "https://dc.lft.to/lastmile_qr_scan", "ios": "https://dc.lft.to/lastmile_qr_scan"}, "name": "dd792e1c3b22d1a67c2ba843d629f8c3", "is_reserved": 0}, {"is_disabled": 0, "fusion_lon": 0.0, "fusion_lat": 0.0, "lat": 38.96558383333333, "type": "electric_bike", "lon": -77.02298283333333, "bike_id": "d1e78b33106c54273642e9bec9dce1a4", "rental_uris": {"android": "https://dc.lft.to/lastmile_qr_scan", "ios": "https://dc.lft.to/lastmile_qr_scan"}, "name": "d1e78b33106c54273642e9bec9dce1a4", "is_reserved": 0}, {"is_disabled": 0, "fusion_lon": 0.0, "fusion_lat": 0.0, "lat": 38.92370066666667, "type": "electric_scooter", "lon": -77.0503365, "bike_id": "e4fab4dd2f4f97e4b2e06335f55418c5", "rental_uris": {"android": "https://dc.lft.to/lastmile_qr_scan", "ios": "https://dc.lft.to/lastmile_qr_scan"}, "name": "e4fab4dd2f4f97e4b2e06335f55418c5", "is_reserved": 0}, {"is_disabled": 0, "fusion_lon": 0.0, "fusion_lat": 0.0, "lat": 38.9135955, "type": "electric_scooter", "lon": -77.03963533333334, "bike_id": "77d2834304915ac6f200e1afbb0f6108", "rental_uris": {"android": "https://dc.lft.to/lastmile_qr_scan", "ios": "https://dc.lft.to/lastmile_qr_scan"}, "name": "77d2834304915ac6f200e1afbb0f6108", "is_reserved": 0}, {"is_disabled": 0, "fusion_lon": 0.0, "fusion_lat": 0.0, "lat": 38.903173333333335, "type": "electric_scooter", "lon": -77.0286925, "bike_id": "24e362c4934b8416899d9c9f96fcdd4c", "rental_uris": {"android": "https://dc.lft.to/lastmile_qr_scan", "ios": "https://dc.lft.to/lastmile_qr_scan"}, "name": "24e362c4934b8416899d9c9f96fcdd4c", "is_reserved": 0}, {"is_disabled": 0, "fusion_lon": 0.0, "fusion_lat": 0.0, "lat": 38.89409833333333, "type": "electric_scooter", "lon": -77.02154016666667, "bike_id": "c11802ad2f944de4f5baac29a69b098d", "rental_uris": {"android": "https://dc.lft.to/lastmile_qr_scan", "ios": "https://dc.lft.to/lastmile_qr_scan"}, "name": "c11802ad2f944de4f5baac29a69b098d", "is_reserved": 0}, {"is_disabled": 0, "fusion_lon": 0.0, "fusion_lat": 0.0, "lat": 38.90746733333334, "type": "electric_scooter", "lon": -77.00273066666666, "bike_id": "e959afa5fe9f37881a270c0aeaf0209f", "rental_uris": {"android": "https://dc.lft.to/lastmile_qr_scan", "ios": "https://dc.lft.to/lastmile_qr_scan"}, "name": "e959afa5fe9f37881a270c0aeaf0209f", "is_reserved": 0}, {"is_disabled": 0, "fusion_lon": 0.0, "fusion_lat": 0.0, "lat": 38.90184683333333, "type": "electric_scooter", "lon": -77.05907566666667, "bike_id": "e103ad32f2b9eab8c3e832c26b7b7463", "rental_uris": {"android": "https://dc.lft.to/lastmile_qr_scan", "ios": "https://dc.lft.to/lastmile_qr_scan"}, "name": "e103ad32f2b9eab8c3e832c26b7b7463", "is_reserved": 0}, {"is_disabled": 0, "fusion_lon": 0.0, "fusion_lat": 0.0, "lat": 38.91895866666667, "type": "electric_scooter", "lon": -77.04469783333333, "bike_id": "39032180d526af8ab52bd8bc22b7c452", "rental_uris": {"android": "https://dc.lft.to/lastmile_qr_scan", "ios": "https://dc.lft.to/lastmile_qr_scan"}, "name": "39032180d526af8ab52bd8bc22b7c452", "is_reserved": 0}, {"is_disabled": 0, "fusion_lon": 0.0, "fusion_lat": 0.0, "lat": 38.923037666666666, "type": "electric_scooter", "lon": -77.031038, "bike_id": "b5e2e6b40dd44945648165f7c5c544a5", "rental_uris": {"android": "https://dc.lft.to/lastmile_qr_scan", "ios": "https://dc.lft.to/lastmile_qr_scan"}, "name": "b5e2e6b40dd44945648165f7c5c544a5", "is_reserved": 0}, {"is_disabled": 0, "fusion_lon": 0.0, "fusion_lat": 0.0, "lat": 38.923699, "type": "electric_scooter", "lon": -77.03051666666667, "bike_id": "a778bd7b325d7f09b1526ccd357e1f24", "rental_uris": {"android": "https://dc.lft.to/lastmile_qr_scan", "ios": "https://dc.lft.to/lastmile_qr_scan"}, "name": "a778bd7b325d7f09b1526ccd357e1f24", "is_reserved": 0}, {"is_disabled": 0, "fusion_lon": 0.0, "fusion_lat": 0.0, "lat": 38.929730166666666, "type": "electric_scooter", "lon": -77.04143883333333, "bike_id": "e5af67e6a407b8a5aa1a0dc82988f693", "rental_uris": {"android": "https://dc.lft.to/lastmile_qr_scan", "ios": "https://dc.lft.to/lastmile_qr_scan"}, "name": "e5af67e6a407b8a5aa1a0dc82988f693", "is_reserved": 0}, {"is_disabled": 0, "fusion_lon": 0.0, "fusion_lat": 0.0, "lat": 38.94985783333333, "type": "electric_scooter", "lon": -77.02699483333333, "bike_id": "1328d472704ff66f3aa78a20dc29571c", "rental_uris": {"android": "https://dc.lft.to/lastmile_qr_scan", "ios": "https://dc.lft.to/lastmile_qr_scan"}, "name": "1328d472704ff66f3aa78a20dc29571c", "is_reserved": 0}, {"is_disabled": 0, "fusion_lon": 0.0, "fusion_lat": 0.0, "lat": 38.91644066666667, "type": "electric_scooter", "lon": -77.02278233333334, "bike_id": "2300ca18413e5927da61f9de021b26ac", "rental_uris": {"android": "https://dc.lft.to/lastmile_qr_scan", "ios": "https://dc.lft.to/lastmile_qr_scan"}, "name": "2300ca18413e5927da61f9de021b26ac", "is_reserved": 0}, {"is_disabled": 0, "fusion_lon": 0.0, "fusion_lat": 0.0, "lat": 38.9175135, "type": "electric_scooter", "lon": -77.0415665, "bike_id": "482245d68d858d5ad635de26410a5dae", "rental_uris": {"android": "https://dc.lft.to/lastmile_qr_scan", "ios": "https://dc.lft.to/lastmile_qr_scan"}, "name": "482245d68d858d5ad635de26410a5dae", "is_reserved": 0}, {"is_disabled": 0, "fusion_lon": 0.0, "fusion_lat": 0.0, "lat": 38.9155225, "type": "electric_scooter", "lon": -77.04615133333333, "bike_id": "30a2331a6d10dbfd153628b3b7aba455", "rental_uris": {"android": "https://dc.lft.to/lastmile_qr_scan", "ios": "https://dc.lft.to/lastmile_qr_scan"}, "name": "30a2331a6d10dbfd153628b3b7aba455", "is_reserved": 0}, {"is_disabled": 0, "fusion_lon": 0.0, "fusion_lat": 0.0, "lat": 38.900309166666666, "type": "electric_scooter", "lon": -77.0267645, "bike_id": "f17b8d2bf9d2b8b87a1f49a3ab41feb4", "rental_uris": {"android": "https://dc.lft.to/lastmile_qr_scan", "ios": "https://dc.lft.to/lastmile_qr_scan"}, "name": "f17b8d2bf9d2b8b87a1f49a3ab41feb4", "is_reserved": 0}, {"is_disabled": 0, "fusion_lon": 0.0, "fusion_lat": 0.0, "lat": 38.908493, "type": "electric_scooter", "lon": -77.06081333333333, "bike_id": "5c904ab31b979bcf7ea950d9a054c989", "rental_uris": {"android": "https://dc.lft.to/lastmile_qr_scan", "ios": "https://dc.lft.to/lastmile_qr_scan"}, "name": "5c904ab31b979bcf7ea950d9a054c989", "is_reserved": 0}, {"is_disabled": 0, "fusion_lon": 0.0, "fusion_lat": 0.0, "lat": 38.93642216666667, "type": "electric_scooter", "lon": -77.0269435, "bike_id": "70def0e663b4bc8b904ce5b56041235f", "rental_uris": {"android": "https://dc.lft.to/lastmile_qr_scan", "ios": "https://dc.lft.to/lastmile_qr_scan"}, "name": "70def0e663b4bc8b904ce5b56041235f", "is_reserved": 0}, {"is_disabled": 0, "fusion_lon": 0.0, "fusion_lat": 0.0, "lat": 38.90975983333333, "type": "electric_scooter", "lon": -77.031356, "bike_id": "cb4ad07df086519d08b9a47b809f7b61", "rental_uris": {"android": "https://dc.lft.to/lastmile_qr_scan", "ios": "https://dc.lft.to/lastmile_qr_scan"}, "name": "cb4ad07df086519d08b9a47b809f7b61", "is_reserved": 0}, {"is_disabled": 0, "fusion_lon": 0.0, "fusion_lat": 0.0, "lat": 38.89538316666667, "type": "electric_scooter", "lon": -76.949191, "bike_id": "6d3ddfdb61a56fc345f675b174a2ac89", "rental_uris": {"android": "https://dc.lft.to/lastmile_qr_scan", "ios": "https://dc.lft.to/lastmile_qr_scan"}, "name": "6d3ddfdb61a56fc345f675b174a2ac89", "is_reserved": 0}, {"is_disabled": 0, "fusion_lon": 0.0, "fusion_lat": 0.0, "lat": 38.9018025, "type": "electric_scooter", "lon": -77.05274583333333, "bike_id": "134c32efc57d1118036a661b11f58dd9", "rental_uris": {"android": "https://dc.lft.to/lastmile_qr_scan", "ios": "https://dc.lft.to/lastmile_qr_scan"}, "name": "134c32efc57d1118036a661b11f58dd9", "is_reserved": 0}, {"is_disabled": 0, "fusion_lon": 0.0, "fusion_lat": 0.0, "lat": 38.9245695, "type": "electric_bike", "lon": -76.99948283333333, "bike_id": "a9cd61b729d134950765a93f7331cd5a", "rental_uris": {"android": "https://dc.lft.to/lastmile_qr_scan", "ios": "https://dc.lft.to/lastmile_qr_scan"}, "name": "a9cd61b729d134950765a93f7331cd5a", "is_reserved": 0}, {"is_disabled": 0, "fusion_lon": 0.0, "fusion_lat": 0.0, "lat": 38.89250966666667, "type": "electric_scooter", "lon": -77.04890466666667, "bike_id": "2f195e9d30d2fca383232d2d6f109c07", "rental_uris": {"android": "https://dc.lft.to/lastmile_qr_scan", "ios": "https://dc.lft.to/lastmile_qr_scan"}, "name": "2f195e9d30d2fca383232d2d6f109c07", "is_reserved": 0}, {"is_disabled": 0, "fusion_lon": 0.0, "fusion_lat": 0.0, "lat": 38.910569333333335, "type": "electric_scooter", "lon": -77.04259033333334, "bike_id": "3e4bd38625eef4c76af0542ae55f36ba", "rental_uris": {"android": "https://dc.lft.to/lastmile_qr_scan", "ios": "https://dc.lft.to/lastmile_qr_scan"}, "name": "3e4bd38625eef4c76af0542ae55f36ba", "is_reserved": 0}, {"is_disabled": 0, "fusion_lon": 0.0, "fusion_lat": 0.0, "lat": 38.902357, "type": "electric_scooter", "lon": -77.053439, "bike_id": "de186946d9c887332e1987d2eb476a29", "rental_uris": {"android": "https://dc.lft.to/lastmile_qr_scan", "ios": "https://dc.lft.to/lastmile_qr_scan"}, "name": "de186946d9c887332e1987d2eb476a29", "is_reserved": 0}, {"is_disabled": 0, "fusion_lon": 0.0, "fusion_lat": 0.0, "lat": 38.881934333333334, "type": "electric_scooter", "lon": -76.995006, "bike_id": "ab583fa7e78e160331f914506a0c886c", "rental_uris": {"android": "https://dc.lft.to/lastmile_qr_scan", "ios": "https://dc.lft.to/lastmile_qr_scan"}, "name": "ab583fa7e78e160331f914506a0c886c", "is_reserved": 0}, {"is_disabled": 0, "fusion_lon": 0.0, "fusion_lat": 0.0, "lat": 38.89392683333333, "type": "electric_scooter", "lon": -76.9499695, "bike_id": "ab8d332f106377cf369493eee3aaa03b", "rental_uris": {"android": "https://dc.lft.to/lastmile_qr_scan", "ios": "https://dc.lft.to/lastmile_qr_scan"}, "name": "ab8d332f106377cf369493eee3aaa03b", "is_reserved": 0}, {"is_disabled": 0, "fusion_lon": 0.0, "fusion_lat": 0.0, "lat": 38.94586816666666, "type": "electric_bike", "lon": -77.34406366666667, "bike_id": "cd14686ea6f6f878487cc287f1609dc9", "rental_uris": {"android": "https://dc.lft.to/lastmile_qr_scan", "ios": "https://dc.lft.to/lastmile_qr_scan"}, "name": "cd14686ea6f6f878487cc287f1609dc9", "is_reserved": 0}, {"is_disabled": 0, "fusion_lon": 0.0, "fusion_lat": 0.0, "lat": 38.934594833333335, "type": "electric_scooter", "lon": -77.03056916666667, "bike_id": "b7cd0133afaf3b47de7edb896d826df7", "rental_uris": {"android": "https://dc.lft.to/lastmile_qr_scan", "ios": "https://dc.lft.to/lastmile_qr_scan"}, "name": "b7cd0133afaf3b47de7edb896d826df7", "is_reserved": 0}, {"is_disabled": 0, "fusion_lon": 0.0, "fusion_lat": 0.0, "lat": 38.905141666666665, "type": "electric_scooter", "lon": -77.01709133333334, "bike_id": "e90c0127377b218a28f6e7dab489c289", "rental_uris": {"android": "https://dc.lft.to/lastmile_qr_scan", "ios": "https://dc.lft.to/lastmile_qr_scan"}, "name": "e90c0127377b218a28f6e7dab489c289", "is_reserved": 0}, {"is_disabled": 0, "fusion_lon": 0.0, "fusion_lat": 0.0, "lat": 38.7762155, "type": "electric_bike", "lon": -77.08353766666667, "bike_id": "3c967ad8b82817e84ad64b27dd34d2d0", "rental_uris": {"android": "https://dc.lft.to/lastmile_qr_scan", "ios": "https://dc.lft.to/lastmile_qr_scan"}, "name": "3c967ad8b82817e84ad64b27dd34d2d0", "is_reserved": 0}, {"is_disabled": 0, "fusion_lon": 0.0, "fusion_lat": 0.0, "lat": 38.912332666666664, "type": "electric_scooter", "lon": -77.0487115, "bike_id": "8738daf812a5ec2f16692148206ef7eb", "rental_uris": {"android": "https://dc.lft.to/lastmile_qr_scan", "ios": "https://dc.lft.to/lastmile_qr_scan"}, "name": "8738daf812a5ec2f16692148206ef7eb", "is_reserved": 0}, {"is_disabled": 0, "fusion_lon": 0.0, "fusion_lat": 0.0, "lat": 38.884364, "type": "electric_scooter", "lon": -77.0296095, "bike_id": "48c5da86ca7815dcd763719004c61c3e", "rental_uris": {"android": "https://dc.lft.to/lastmile_qr_scan", "ios": "https://dc.lft.to/lastmile_qr_scan"}, "name": "48c5da86ca7815dcd763719004c61c3e", "is_reserved": 0}, {"is_disabled": 0, "fusion_lon": 0.0, "fusion_lat": 0.0, "lat": 38.89489183333333, "type": "electric_scooter", "lon": -77.00951183333333, "bike_id": "e42c951fb0d233db28a845c056f8251b", "rental_uris": {"android": "https://dc.lft.to/lastmile_qr_scan", "ios": "https://dc.lft.to/lastmile_qr_scan"}, "name": "e42c951fb0d233db28a845c056f8251b", "is_reserved": 0}, {"is_disabled": 0, "fusion_lon": 0.0, "fusion_lat": 0.0, "lat": 39.054580666666666, "type": "electric_bike", "lon": -77.1432435, "bike_id": "6a194b56cdbb64dfb963814ebabfe144", "rental_uris": {"android": "https://dc.lft.to/lastmile_qr_scan", "ios": "https://dc.lft.to/lastmile_qr_scan"}, "name": "6a194b56cdbb64dfb963814ebabfe144", "is_reserved": 0}, {"is_disabled": 0, "fusion_lon": 0.0, "fusion_lat": 0.0, "lat": 38.905532, "type": "electric_scooter", "lon": -76.98139333333333, "bike_id": "386eeb901ca5353cdc9c87af99f63f13", "rental_uris": {"android": "https://dc.lft.to/lastmile_qr_scan", "ios": "https://dc.lft.to/lastmile_qr_scan"}, "name": "386eeb901ca5353cdc9c87af99f63f13", "is_reserved": 0}, {"is_disabled": 0, "fusion_lon": 0.0, "fusion_lat": 0.0, "lat": 38.90826766666667, "type": "electric_scooter", "lon": -77.03341333333333, "bike_id": "1c69d2ed3c7fda908a8ea36780508445", "rental_uris": {"android": "https://dc.lft.to/lastmile_qr_scan", "ios": "https://dc.lft.to/lastmile_qr_scan"}, "name": "1c69d2ed3c7fda908a8ea36780508445", "is_reserved": 0}, {"is_disabled": 0, "fusion_lon": 0.0, "fusion_lat": 0.0, "lat": 38.8925765, "type": "electric_scooter", "lon": -76.9415505, "bike_id": "40b669209914f17647a6b6e93bd12186", "rental_uris": {"android": "https://dc.lft.to/lastmile_qr_scan", "ios": "https://dc.lft.to/lastmile_qr_scan"}, "name": "40b669209914f17647a6b6e93bd12186", "is_reserved": 0}, {"is_disabled": 0, "fusion_lon": 0.0, "fusion_lat": 0.0, "lat": 38.906539333333335, "type": "electric_scooter", "lon": -77.02528983333333, "bike_id": "087268fd78fb0e752fe885ee5bbb794c", "rental_uris": {"android": "https://dc.lft.to/lastmile_qr_scan", "ios": "https://dc.lft.to/lastmile_qr_scan"}, "name": "087268fd78fb0e752fe885ee5bbb794c", "is_reserved": 0}, {"is_disabled": 0, "fusion_lon": 0.0, "fusion_lat": 0.0, "lat": 38.911116666666665, "type": "electric_scooter", "lon": -77.02861333333334, "bike_id": "a595d60896e10055e63b1ba3aa0a6e01", "rental_uris": {"android": "https://dc.lft.to/lastmile_qr_scan", "ios": "https://dc.lft.to/lastmile_qr_scan"}, "name": "a595d60896e10055e63b1ba3aa0a6e01", "is_reserved": 0}, {"is_disabled": 0, "fusion_lon": 0.0, "fusion_lat": 0.0, "lat": 38.9504155, "type": "electric_scooter", "lon": -77.02293616666667, "bike_id": "a7aa6d6d8a675b945ceae17f722abe1c", "rental_uris": {"android": "https://dc.lft.to/lastmile_qr_scan", "ios": "https://dc.lft.to/lastmile_qr_scan"}, "name": "a7aa6d6d8a675b945ceae17f722abe1c", "is_reserved": 0}, {"is_disabled": 0, "fusion_lon": 0.0, "fusion_lat": 0.0, "lat": 38.883493666666666, "type": "electric_scooter", "lon": -76.92786466666666, "bike_id": "896d72060f6514d566e73c39efe47b2e", "rental_uris": {"android": "https://dc.lft.to/lastmile_qr_scan", "ios": "https://dc.lft.to/lastmile_qr_scan"}, "name": "896d72060f6514d566e73c39efe47b2e", "is_reserved": 0}, {"is_disabled": 0, "fusion_lon": 0.0, "fusion_lat": 0.0, "lat": 38.905679666666664, "type": "electric_scooter", "lon": -77.010027, "bike_id": "2b7959dc88d57a2b54478e1ebe7489ae", "rental_uris": {"android": "https://dc.lft.to/lastmile_qr_scan", "ios": "https://dc.lft.to/lastmile_qr_scan"}, "name": "2b7959dc88d57a2b54478e1ebe7489ae", "is_reserved": 0}, {"is_disabled": 0, "fusion_lon": 0.0, "fusion_lat": 0.0, "lat": 38.901428, "type": "electric_scooter", "lon": -77.04075166666667, "bike_id": "f21b185af78ef575880dc8c95499c17d", "rental_uris": {"android": "https://dc.lft.to/lastmile_qr_scan", "ios": "https://dc.lft.to/lastmile_qr_scan"}, "name": "f21b185af78ef575880dc8c95499c17d", "is_reserved": 0}, {"is_disabled": 0, "fusion_lon": 0.0, "fusion_lat": 0.0, "lat": 38.92707383333333, "type": "electric_scooter", "lon": -76.97209416666666, "bike_id": "635e225ed253a4d97151ec58d5e97243", "rental_uris": {"android": "https://dc.lft.to/lastmile_qr_scan", "ios": "https://dc.lft.to/lastmile_qr_scan"}, "name": "635e225ed253a4d97151ec58d5e97243", "is_reserved": 0}, {"is_disabled": 0, "fusion_lon": 0.0, "fusion_lat": 0.0, "lat": 38.9138285, "type": "electric_scooter", "lon": -77.029697, "bike_id": "11661e4f222fc6e38da89c827824f3a3", "rental_uris": {"android": "https://dc.lft.to/lastmile_qr_scan", "ios": "https://dc.lft.to/lastmile_qr_scan"}, "name": "11661e4f222fc6e38da89c827824f3a3", "is_reserved": 0}, {"is_disabled": 0, "fusion_lon": 0.0, "fusion_lat": 0.0, "lat": 38.89836616666667, "type": "electric_scooter", "lon": -77.02823566666666, "bike_id": "65976e967e6f4406942b0a9f15c45723", "rental_uris": {"android": "https://dc.lft.to/lastmile_qr_scan", "ios": "https://dc.lft.to/lastmile_qr_scan"}, "name": "65976e967e6f4406942b0a9f15c45723", "is_reserved": 0}, {"is_disabled": 0, "fusion_lon": 0.0, "fusion_lat": 0.0, "lat": 38.9294445, "type": "electric_scooter", "lon": -77.03294433333333, "bike_id": "3c34c94f9bb2cea6ecde9f0ce625ef26", "rental_uris": {"android": "https://dc.lft.to/lastmile_qr_scan", "ios": "https://dc.lft.to/lastmile_qr_scan"}, "name": "3c34c94f9bb2cea6ecde9f0ce625ef26", "is_reserved": 0}, {"is_disabled": 0, "fusion_lon": 0.0, "fusion_lat": 0.0, "lat": 38.90960966666667, "type": "electric_scooter", "lon": -77.04771966666667, "bike_id": "7040f356aefee171e294626e21da05be", "rental_uris": {"android": "https://dc.lft.to/lastmile_qr_scan", "ios": "https://dc.lft.to/lastmile_qr_scan"}, "name": "7040f356aefee171e294626e21da05be", "is_reserved": 0}, {"is_disabled": 0, "fusion_lon": 0.0, "fusion_lat": 0.0, "lat": 38.91052466666667, "type": "electric_scooter", "lon": -77.04350316666667, "bike_id": "600e95c644888c921062b1cc055d9405", "rental_uris": {"android": "https://dc.lft.to/lastmile_qr_scan", "ios": "https://dc.lft.to/lastmile_qr_scan"}, "name": "600e95c644888c921062b1cc055d9405", "is_reserved": 0}, {"is_disabled": 0, "fusion_lon": 0.0, "fusion_lat": 0.0, "lat": 38.89228933333333, "type": "electric_scooter", "lon": -77.02175066666666, "bike_id": "4c166a06f9c05c2b1961413e0fee5921", "rental_uris": {"android": "https://dc.lft.to/lastmile_qr_scan", "ios": "https://dc.lft.to/lastmile_qr_scan"}, "name": "4c166a06f9c05c2b1961413e0fee5921", "is_reserved": 0}, {"is_disabled": 0, "fusion_lon": 0.0, "fusion_lat": 0.0, "lat": 38.903019, "type": "electric_scooter", "lon": -77.0211285, "bike_id": "c53ebc26c2dc3589021e75b8c6865181", "rental_uris": {"android": "https://dc.lft.to/lastmile_qr_scan", "ios": "https://dc.lft.to/lastmile_qr_scan"}, "name": "c53ebc26c2dc3589021e75b8c6865181", "is_reserved": 0}, {"is_disabled": 0, "fusion_lon": 0.0, "fusion_lat": 0.0, "lat": 38.91113133333333, "type": "electric_scooter", "lon": -77.03210883333334, "bike_id": "d991de19222b6b39fecd99fa3476a25b", "rental_uris": {"android": "https://dc.lft.to/lastmile_qr_scan", "ios": "https://dc.lft.to/lastmile_qr_scan"}, "name": "d991de19222b6b39fecd99fa3476a25b", "is_reserved": 0}, {"is_disabled": 0, "fusion_lon": 0.0, "fusion_lat": 0.0, "lat": 38.87319566666667, "type": "electric_scooter", "lon": -77.00183916666667, "bike_id": "4ef81c710b6ab8344d52520bf6bcd0f4", "rental_uris": {"android": "https://dc.lft.to/lastmile_qr_scan", "ios": "https://dc.lft.to/lastmile_qr_scan"}, "name": "4ef81c710b6ab8344d52520bf6bcd0f4", "is_reserved": 0}, {"is_disabled": 0, "fusion_lon": 0.0, "fusion_lat": 0.0, "lat": 38.895661833333335, "type": "electric_bike", "lon": -77.1273635, "bike_id": "fefa829f31585c9677015207f5e1ea17", "rental_uris": {"android": "https://dc.lft.to/lastmile_qr_scan", "ios": "https://dc.lft.to/lastmile_qr_scan"}, "name": "fefa829f31585c9677015207f5e1ea17", "is_reserved": 0}, {"is_disabled": 0, "fusion_lon": 0.0, "fusion_lat": 0.0, "lat": 38.902689, "type": "electric_scooter", "lon": -77.0406475, "bike_id": "d9c4a8da4b032dcd16af64a66b8dd19f", "rental_uris": {"android": "https://dc.lft.to/lastmile_qr_scan", "ios": "https://dc.lft.to/lastmile_qr_scan"}, "name": "d9c4a8da4b032dcd16af64a66b8dd19f", "is_reserved": 0}, {"is_disabled": 0, "fusion_lon": 0.0, "fusion_lat": 0.0, "lat": 38.93756616666667, "type": "electric_scooter", "lon": -77.02496166666667, "bike_id": "63a4102896bad74efdf598295d7d0729", "rental_uris": {"android": "https://dc.lft.to/lastmile_qr_scan", "ios": "https://dc.lft.to/lastmile_qr_scan"}, "name": "63a4102896bad74efdf598295d7d0729", "is_reserved": 0}, {"is_disabled": 0, "fusion_lon": 0.0, "fusion_lat": 0.0, "lat": 38.916969333333334, "type": "electric_scooter", "lon": -77.03632133333333, "bike_id": "94f2df85116a2a49075646e22d943446", "rental_uris": {"android": "https://dc.lft.to/lastmile_qr_scan", "ios": "https://dc.lft.to/lastmile_qr_scan"}, "name": "94f2df85116a2a49075646e22d943446", "is_reserved": 0}, {"is_disabled": 0, "fusion_lon": 0.0, "fusion_lat": 0.0, "lat": 38.92904883333333, "type": "electric_scooter", "lon": -77.02339483333333, "bike_id": "369ab765a324ee9f042b612d0c02efdf", "rental_uris": {"android": "https://dc.lft.to/lastmile_qr_scan", "ios": "https://dc.lft.to/lastmile_qr_scan"}, "name": "369ab765a324ee9f042b612d0c02efdf", "is_reserved": 0}, {"is_disabled": 0, "fusion_lon": 0.0, "fusion_lat": 0.0, "lat": 38.91549116666667, "type": "electric_scooter", "lon": -77.03857783333333, "bike_id": "62d5a1dd9d471cebd4eae9452ce4cb2c", "rental_uris": {"android": "https://dc.lft.to/lastmile_qr_scan", "ios": "https://dc.lft.to/lastmile_qr_scan"}, "name": "62d5a1dd9d471cebd4eae9452ce4cb2c", "is_reserved": 0}, {"is_disabled": 0, "fusion_lon": 0.0, "fusion_lat": 0.0, "lat": 38.91333933333333, "type": "electric_scooter", "lon": -77.03254583333333, "bike_id": "30f1779fea5c85823fbf53a9c00f2576", "rental_uris": {"android": "https://dc.lft.to/lastmile_qr_scan", "ios": "https://dc.lft.to/lastmile_qr_scan"}, "name": "30f1779fea5c85823fbf53a9c00f2576", "is_reserved": 0}, {"is_disabled": 0, "fusion_lon": 0.0, "fusion_lat": 0.0, "lat": 38.89191783333333, "type": "electric_scooter", "lon": -76.98830516666666, "bike_id": "4a7905e11eb0497b14e16d1b5f8fd6ac", "rental_uris": {"android": "https://dc.lft.to/lastmile_qr_scan", "ios": "https://dc.lft.to/lastmile_qr_scan"}, "name": "4a7905e11eb0497b14e16d1b5f8fd6ac", "is_reserved": 0}, {"is_disabled": 0, "fusion_lon": 0.0, "fusion_lat": 0.0, "lat": 38.927397166666665, "type": "electric_bike", "lon": -76.99359366666667, "bike_id": "84c952abbe1aa5012373bd5e71767b26", "rental_uris": {"android": "https://dc.lft.to/lastmile_qr_scan", "ios": "https://dc.lft.to/lastmile_qr_scan"}, "name": "84c952abbe1aa5012373bd5e71767b26", "is_reserved": 0}, {"is_disabled": 0, "fusion_lon": 0.0, "fusion_lat": 0.0, "lat": 38.90551216666667, "type": "electric_scooter", "lon": -77.04662183333333, "bike_id": "0f54b93f87d257b494dc943d3ce7e9ac", "rental_uris": {"android": "https://dc.lft.to/lastmile_qr_scan", "ios": "https://dc.lft.to/lastmile_qr_scan"}, "name": "0f54b93f87d257b494dc943d3ce7e9ac", "is_reserved": 0}, {"is_disabled": 0, "fusion_lon": 0.0, "fusion_lat": 0.0, "lat": 38.85968833333333, "type": "electric_scooter", "lon": -76.98401983333333, "bike_id": "0c9891fc7c16be434ba0682f5d2fb454", "rental_uris": {"android": "https://dc.lft.to/lastmile_qr_scan", "ios": "https://dc.lft.to/lastmile_qr_scan"}, "name": "0c9891fc7c16be434ba0682f5d2fb454", "is_reserved": 0}, {"is_disabled": 0, "fusion_lon": 0.0, "fusion_lat": 0.0, "lat": 38.920184166666665, "type": "electric_bike", "lon": -76.97299133333334, "bike_id": "38c2854c5c9099c05f9665e567326090", "rental_uris": {"android": "https://dc.lft.to/lastmile_qr_scan", "ios": "https://dc.lft.to/lastmile_qr_scan"}, "name": "38c2854c5c9099c05f9665e567326090", "is_reserved": 0}, {"is_disabled": 0, "fusion_lon": 0.0, "fusion_lat": 0.0, "lat": 38.9026945, "type": "electric_scooter", "lon": -77.03448383333334, "bike_id": "96053a4e26473e90a23deb48674fe6ad", "rental_uris": {"android": "https://dc.lft.to/lastmile_qr_scan", "ios": "https://dc.lft.to/lastmile_qr_scan"}, "name": "96053a4e26473e90a23deb48674fe6ad", "is_reserved": 0}, {"is_disabled": 0, "fusion_lon": 0.0, "fusion_lat": 0.0, "lat": 38.85069933333333, "type": "electric_bike", "lon": -76.9733585, "bike_id": "492823ccf882d42c50e7f882f44b17c3", "rental_uris": {"android": "https://dc.lft.to/lastmile_qr_scan", "ios": "https://dc.lft.to/lastmile_qr_scan"}, "name": "492823ccf882d42c50e7f882f44b17c3", "is_reserved": 0}, {"is_disabled": 0, "fusion_lon": 0.0, "fusion_lat": 0.0, "lat": 38.905083166666664, "type": "electric_scooter", "lon": -77.06021083333333, "bike_id": "b4125ae6d29ed8a6765971a7423976aa", "rental_uris": {"android": "https://dc.lft.to/lastmile_qr_scan", "ios": "https://dc.lft.to/lastmile_qr_scan"}, "name": "b4125ae6d29ed8a6765971a7423976aa", "is_reserved": 0}, {"is_disabled": 0, "fusion_lon": 0.0, "fusion_lat": 0.0, "lat": 38.8996815, "type": "electric_scooter", "lon": -77.05547866666667, "bike_id": "6ac94170e12d3447b869c672ba828900", "rental_uris": {"android": "https://dc.lft.to/lastmile_qr_scan", "ios": "https://dc.lft.to/lastmile_qr_scan"}, "name": "6ac94170e12d3447b869c672ba828900", "is_reserved": 0}, {"is_disabled": 0, "fusion_lon": 0.0, "fusion_lat": 0.0, "lat": 38.92296283333334, "type": "electric_scooter", "lon": -77.04205333333333, "bike_id": "25e5f78e6be2af158a62500037179d49", "rental_uris": {"android": "https://dc.lft.to/lastmile_qr_scan", "ios": "https://dc.lft.to/lastmile_qr_scan"}, "name": "25e5f78e6be2af158a62500037179d49", "is_reserved": 0}, {"is_disabled": 0, "fusion_lon": 0.0, "fusion_lat": 0.0, "lat": 38.90855066666666, "type": "electric_scooter", "lon": -77.04169916666666, "bike_id": "7c1c932d62ecd553a126754970f6b17e", "rental_uris": {"android": "https://dc.lft.to/lastmile_qr_scan", "ios": "https://dc.lft.to/lastmile_qr_scan"}, "name": "7c1c932d62ecd553a126754970f6b17e", "is_reserved": 0}, {"is_disabled": 0, "fusion_lon": 0.0, "fusion_lat": 0.0, "lat": 38.95228483333333, "type": "electric_scooter", "lon": -77.027573, "bike_id": "b0bce02edaffde2b95290aa2caf22df2", "rental_uris": {"android": "https://dc.lft.to/lastmile_qr_scan", "ios": "https://dc.lft.to/lastmile_qr_scan"}, "name": "b0bce02edaffde2b95290aa2caf22df2", "is_reserved": 0}, {"is_disabled": 0, "fusion_lon": 0.0, "fusion_lat": 0.0, "lat": 38.90167616666667, "type": "electric_scooter", "lon": -77.05314383333334, "bike_id": "726295aa5dc79c6ea1b8a765d2d227d8", "rental_uris": {"android": "https://dc.lft.to/lastmile_qr_scan", "ios": "https://dc.lft.to/lastmile_qr_scan"}, "name": "726295aa5dc79c6ea1b8a765d2d227d8", "is_reserved": 0}, {"is_disabled": 0, "fusion_lon": 0.0, "fusion_lat": 0.0, "lat": 38.988304166666666, "type": "electric_bike", "lon": -76.98760033333333, "bike_id": "5811641d565c123dcd3bf4e8dd84e85b", "rental_uris": {"android": "https://dc.lft.to/lastmile_qr_scan", "ios": "https://dc.lft.to/lastmile_qr_scan"}, "name": "5811641d565c123dcd3bf4e8dd84e85b", "is_reserved": 0}, {"is_disabled": 0, "fusion_lon": 0.0, "fusion_lat": 0.0, "lat": 38.94198033333333, "type": "electric_scooter", "lon": -77.02576566666667, "bike_id": "9f34fb2b03c2659cc6595de88d2726d1", "rental_uris": {"android": "https://dc.lft.to/lastmile_qr_scan", "ios": "https://dc.lft.to/lastmile_qr_scan"}, "name": "9f34fb2b03c2659cc6595de88d2726d1", "is_reserved": 0}, {"is_disabled": 0, "fusion_lon": 0.0, "fusion_lat": 0.0, "lat": 38.89747216666667, "type": "electric_scooter", "lon": -77.02681416666667, "bike_id": "e6cf6045dddb16cab10f36d904518669", "rental_uris": {"android": "https://dc.lft.to/lastmile_qr_scan", "ios": "https://dc.lft.to/lastmile_qr_scan"}, "name": "e6cf6045dddb16cab10f36d904518669", "is_reserved": 0}, {"is_disabled": 0, "fusion_lon": 0.0, "fusion_lat": 0.0, "lat": 38.910307833333334, "type": "electric_scooter", "lon": -77.03839833333333, "bike_id": "d1a71d3ac6d6df6f3323fff5d87b98ba", "rental_uris": {"android": "https://dc.lft.to/lastmile_qr_scan", "ios": "https://dc.lft.to/lastmile_qr_scan"}, "name": "d1a71d3ac6d6df6f3323fff5d87b98ba", "is_reserved": 0}, {"is_disabled": 0, "fusion_lon": 0.0, "fusion_lat": 0.0, "lat": 38.908985, "type": "electric_scooter", "lon": -76.998573, "bike_id": "eb12e66c43618e739043b263fc8029d7", "rental_uris": {"android": "https://dc.lft.to/lastmile_qr_scan", "ios": "https://dc.lft.to/lastmile_qr_scan"}, "name": "eb12e66c43618e739043b263fc8029d7", "is_reserved": 0}, {"is_disabled": 0, "fusion_lon": 0.0, "fusion_lat": 0.0, "lat": 38.8827905, "type": "electric_scooter", "lon": -76.98776133333334, "bike_id": "f0a52652a2effb4a0b230f5ffa700763", "rental_uris": {"android": "https://dc.lft.to/lastmile_qr_scan", "ios": "https://dc.lft.to/lastmile_qr_scan"}, "name": "f0a52652a2effb4a0b230f5ffa700763", "is_reserved": 0}, {"is_disabled": 0, "fusion_lon": 0.0, "fusion_lat": 0.0, "lat": 38.92579466666667, "type": "electric_scooter", "lon": -76.99490383333334, "bike_id": "ba1dd8f2286f4029d969a7a2b9d60f9e", "rental_uris": {"android": "https://dc.lft.to/lastmile_qr_scan", "ios": "https://dc.lft.to/lastmile_qr_scan"}, "name": "ba1dd8f2286f4029d969a7a2b9d60f9e", "is_reserved": 0}, {"is_disabled": 0, "fusion_lon": 0.0, "fusion_lat": 0.0, "lat": 38.89224733333333, "type": "electric_scooter", "lon": -77.025831, "bike_id": "f39b643f4d2435c7727e49186452bb00", "rental_uris": {"android": "https://dc.lft.to/lastmile_qr_scan", "ios": "https://dc.lft.to/lastmile_qr_scan"}, "name": "f39b643f4d2435c7727e49186452bb00", "is_reserved": 0}, {"is_disabled": 0, "fusion_lon": 0.0, "fusion_lat": 0.0, "lat": 38.9128015, "type": "electric_scooter", "lon": -77.03841916666667, "bike_id": "3d224348fc94f35ae16a2d4b9d54c6cc", "rental_uris": {"android": "https://dc.lft.to/lastmile_qr_scan", "ios": "https://dc.lft.to/lastmile_qr_scan"}, "name": "3d224348fc94f35ae16a2d4b9d54c6cc", "is_reserved": 0}, {"is_disabled": 0, "fusion_lon": 0.0, "fusion_lat": 0.0, "lat": 38.9275205, "type": "electric_scooter", "lon": -77.0335325, "bike_id": "bbc7ee464de22cec42fd5f55ed72aefa", "rental_uris": {"android": "https://dc.lft.to/lastmile_qr_scan", "ios": "https://dc.lft.to/lastmile_qr_scan"}, "name": "bbc7ee464de22cec42fd5f55ed72aefa", "is_reserved": 0}, {"is_disabled": 0, "fusion_lon": 0.0, "fusion_lat": 0.0, "lat": 38.893508833333335, "type": "electric_scooter", "lon": -76.94943466666666, "bike_id": "ea7c8ebe9e8577393630209f101e5c1d", "rental_uris": {"android": "https://dc.lft.to/lastmile_qr_scan", "ios": "https://dc.lft.to/lastmile_qr_scan"}, "name": "ea7c8ebe9e8577393630209f101e5c1d", "is_reserved": 0}, {"is_disabled": 0, "fusion_lon": 0.0, "fusion_lat": 0.0, "lat": 38.92870833333333, "type": "electric_scooter", "lon": -77.03336266666666, "bike_id": "b149ddba89ad7f1917ccf4d5c293bff2", "rental_uris": {"android": "https://dc.lft.to/lastmile_qr_scan", "ios": "https://dc.lft.to/lastmile_qr_scan"}, "name": "b149ddba89ad7f1917ccf4d5c293bff2", "is_reserved": 0}, {"is_disabled": 0, "fusion_lon": 0.0, "fusion_lat": 0.0, "lat": 38.901618, "type": "electric_scooter", "lon": -77.059174, "bike_id": "57c56a82afdd5877298a141a27db0c79", "rental_uris": {"android": "https://dc.lft.to/lastmile_qr_scan", "ios": "https://dc.lft.to/lastmile_qr_scan"}, "name": "57c56a82afdd5877298a141a27db0c79", "is_reserved": 0}, {"is_disabled": 0, "fusion_lon": 0.0, "fusion_lat": 0.0, "lat": 38.92055116666667, "type": "electric_scooter", "lon": -77.02440816666666, "bike_id": "1a83d33a93b082ab1d4d9f5bc9088a49", "rental_uris": {"android": "https://dc.lft.to/lastmile_qr_scan", "ios": "https://dc.lft.to/lastmile_qr_scan"}, "name": "1a83d33a93b082ab1d4d9f5bc9088a49", "is_reserved": 0}, {"is_disabled": 0, "fusion_lon": 0.0, "fusion_lat": 0.0, "lat": 38.90619433333333, "type": "electric_scooter", "lon": -77.03208183333334, "bike_id": "2af53906a961af973ee38e2e9085d9b9", "rental_uris": {"android": "https://dc.lft.to/lastmile_qr_scan", "ios": "https://dc.lft.to/lastmile_qr_scan"}, "name": "2af53906a961af973ee38e2e9085d9b9", "is_reserved": 0}, {"is_disabled": 0, "fusion_lon": 0.0, "fusion_lat": 0.0, "lat": 38.90088083333333, "type": "electric_scooter", "lon": -77.0444505, "bike_id": "af6a019f9533c6a343738ddbd4fa8658", "rental_uris": {"android": "https://dc.lft.to/lastmile_qr_scan", "ios": "https://dc.lft.to/lastmile_qr_scan"}, "name": "af6a019f9533c6a343738ddbd4fa8658", "is_reserved": 0}, {"is_disabled": 0, "fusion_lon": 0.0, "fusion_lat": 0.0, "lat": 38.9056245, "type": "electric_scooter", "lon": -77.06602966666667, "bike_id": "f7713df28dc8bb7a314f393e427af0e7", "rental_uris": {"android": "https://dc.lft.to/lastmile_qr_scan", "ios": "https://dc.lft.to/lastmile_qr_scan"}, "name": "f7713df28dc8bb7a314f393e427af0e7", "is_reserved": 0}, {"is_disabled": 0, "fusion_lon": 0.0, "fusion_lat": 0.0, "lat": 38.913317666666664, "type": "electric_scooter", "lon": -77.04172083333333, "bike_id": "33d72bd7ebf80f045d8ff061111893a0", "rental_uris": {"android": "https://dc.lft.to/lastmile_qr_scan", "ios": "https://dc.lft.to/lastmile_qr_scan"}, "name": "33d72bd7ebf80f045d8ff061111893a0", "is_reserved": 0}, {"is_disabled": 0, "fusion_lon": 0.0, "fusion_lat": 0.0, "lat": 38.91241216666667, "type": "electric_scooter", "lon": -76.98443866666666, "bike_id": "22ec76b79f967cb86aef611cb8562468", "rental_uris": {"android": "https://dc.lft.to/lastmile_qr_scan", "ios": "https://dc.lft.to/lastmile_qr_scan"}, "name": "22ec76b79f967cb86aef611cb8562468", "is_reserved": 0}, {"is_disabled": 0, "fusion_lon": 0.0, "fusion_lat": 0.0, "lat": 38.870799, "type": "electric_bike", "lon": -77.14340616666667, "bike_id": "c9845089ebaeaec5d9a99d5dbcb251af", "rental_uris": {"android": "https://dc.lft.to/lastmile_qr_scan", "ios": "https://dc.lft.to/lastmile_qr_scan"}, "name": "c9845089ebaeaec5d9a99d5dbcb251af", "is_reserved": 0}, {"is_disabled": 0, "fusion_lon": 0.0, "fusion_lat": 0.0, "lat": 38.879729833333336, "type": "electric_scooter", "lon": -77.02430383333333, "bike_id": "c6ee864d2236e19cbf8e80aa0c234552", "rental_uris": {"android": "https://dc.lft.to/lastmile_qr_scan", "ios": "https://dc.lft.to/lastmile_qr_scan"}, "name": "c6ee864d2236e19cbf8e80aa0c234552", "is_reserved": 0}, {"is_disabled": 0, "fusion_lon": 0.0, "fusion_lat": 0.0, "lat": 38.913219833333336, "type": "electric_scooter", "lon": -77.0319, "bike_id": "97daecae07bc2dbeb22d472ef94d0dac", "rental_uris": {"android": "https://dc.lft.to/lastmile_qr_scan", "ios": "https://dc.lft.to/lastmile_qr_scan"}, "name": "97daecae07bc2dbeb22d472ef94d0dac", "is_reserved": 0}, {"is_disabled": 0, "fusion_lon": 0.0, "fusion_lat": 0.0, "lat": 38.94925583333333, "type": "electric_scooter", "lon": -77.01854283333333, "bike_id": "7915f88b24264078e48a79b575ceed87", "rental_uris": {"android": "https://dc.lft.to/lastmile_qr_scan", "ios": "https://dc.lft.to/lastmile_qr_scan"}, "name": "7915f88b24264078e48a79b575ceed87", "is_reserved": 0}, {"is_disabled": 0, "fusion_lon": 0.0, "fusion_lat": 0.0, "lat": 38.91760133333333, "type": "electric_scooter", "lon": -77.0049935, "bike_id": "6c7020d8734f406de7f096cc76400969", "rental_uris": {"android": "https://dc.lft.to/lastmile_qr_scan", "ios": "https://dc.lft.to/lastmile_qr_scan"}, "name": "6c7020d8734f406de7f096cc76400969", "is_reserved": 0}, {"is_disabled": 0, "fusion_lon": 0.0, "fusion_lat": 0.0, "lat": 38.92172033333333, "type": "electric_scooter", "lon": -77.0552805, "bike_id": "0bfc921494820babcc3b9fd78a2d3959", "rental_uris": {"android": "https://dc.lft.to/lastmile_qr_scan", "ios": "https://dc.lft.to/lastmile_qr_scan"}, "name": "0bfc921494820babcc3b9fd78a2d3959", "is_reserved": 0}, {"is_disabled": 0, "fusion_lon": 0.0, "fusion_lat": 0.0, "lat": 38.89540216666666, "type": "electric_scooter", "lon": -77.0089855, "bike_id": "122f7621883d4391e3d4c215914044fe", "rental_uris": {"android": "https://dc.lft.to/lastmile_qr_scan", "ios": "https://dc.lft.to/lastmile_qr_scan"}, "name": "122f7621883d4391e3d4c215914044fe", "is_reserved": 0}, {"is_disabled": 0, "fusion_lon": 0.0, "fusion_lat": 0.0, "lat": 38.844266833333336, "type": "electric_scooter", "lon": -76.9977895, "bike_id": "851d730175a336f0f925be9d2807cbc8", "rental_uris": {"android": "https://dc.lft.to/lastmile_qr_scan", "ios": "https://dc.lft.to/lastmile_qr_scan"}, "name": "851d730175a336f0f925be9d2807cbc8", "is_reserved": 0}, {"is_disabled": 0, "fusion_lon": 0.0, "fusion_lat": 0.0, "lat": 38.895039833333335, "type": "electric_scooter", "lon": -76.948772, "bike_id": "6cd7905a0b7dd668d9ab98a3a6a2b9e5", "rental_uris": {"android": "https://dc.lft.to/lastmile_qr_scan", "ios": "https://dc.lft.to/lastmile_qr_scan"}, "name": "6cd7905a0b7dd668d9ab98a3a6a2b9e5", "is_reserved": 0}, {"is_disabled": 0, "fusion_lon": 0.0, "fusion_lat": 0.0, "lat": 38.874395166666666, "type": "electric_scooter", "lon": -77.00043716666667, "bike_id": "9684821aa2198e712bf3fbed98e914c6", "rental_uris": {"android": "https://dc.lft.to/lastmile_qr_scan", "ios": "https://dc.lft.to/lastmile_qr_scan"}, "name": "9684821aa2198e712bf3fbed98e914c6", "is_reserved": 0}, {"is_disabled": 0, "fusion_lon": 0.0, "fusion_lat": 0.0, "lat": 38.88494883333333, "type": "electric_scooter", "lon": -77.007264, "bike_id": "859beec0c3150bd209f4f83a6e3246ff", "rental_uris": {"android": "https://dc.lft.to/lastmile_qr_scan", "ios": "https://dc.lft.to/lastmile_qr_scan"}, "name": "859beec0c3150bd209f4f83a6e3246ff", "is_reserved": 0}, {"is_disabled": 0, "fusion_lon": 0.0, "fusion_lat": 0.0, "lat": 38.94198766666667, "type": "electric_scooter", "lon": -77.02578566666666, "bike_id": "042d74d199bdb0f5bb78179b41665f88", "rental_uris": {"android": "https://dc.lft.to/lastmile_qr_scan", "ios": "https://dc.lft.to/lastmile_qr_scan"}, "name": "042d74d199bdb0f5bb78179b41665f88", "is_reserved": 0}, {"is_disabled": 0, "fusion_lon": 0.0, "fusion_lat": 0.0, "lat": 38.858425, "type": "electric_scooter", "lon": -76.990715, "bike_id": "1bc33fbdf40fd44aa911fb53c3cc4637", "rental_uris": {"android": "https://dc.lft.to/lastmile_qr_scan", "ios": "https://dc.lft.to/lastmile_qr_scan"}, "name": "1bc33fbdf40fd44aa911fb53c3cc4637", "is_reserved": 0}, {"is_disabled": 0, "fusion_lon": 0.0, "fusion_lat": 0.0, "lat": 38.8604135, "type": "electric_scooter", "lon": -76.983768, "bike_id": "5ec074c71899e2b19631a9eea7cb6668", "rental_uris": {"android": "https://dc.lft.to/lastmile_qr_scan", "ios": "https://dc.lft.to/lastmile_qr_scan"}, "name": "5ec074c71899e2b19631a9eea7cb6668", "is_reserved": 0}, {"is_disabled": 0, "fusion_lon": 0.0, "fusion_lat": 0.0, "lat": 38.94981816666667, "type": "electric_scooter", "lon": -77.02700716666666, "bike_id": "1eda0881deab0cddf3b03d6d2d1bd7cc", "rental_uris": {"android": "https://dc.lft.to/lastmile_qr_scan", "ios": "https://dc.lft.to/lastmile_qr_scan"}, "name": "1eda0881deab0cddf3b03d6d2d1bd7cc", "is_reserved": 0}, {"is_disabled": 0, "fusion_lon": 0.0, "fusion_lat": 0.0, "lat": 38.86517883333333, "type": "electric_scooter", "lon": -76.97333366666666, "bike_id": "a271e61033d98ee7aa488d8c2ad39141", "rental_uris": {"android": "https://dc.lft.to/lastmile_qr_scan", "ios": "https://dc.lft.to/lastmile_qr_scan"}, "name": "a271e61033d98ee7aa488d8c2ad39141", "is_reserved": 0}, {"is_disabled": 0, "fusion_lon": 0.0, "fusion_lat": 0.0, "lat": 38.96222433333333, "type": "electric_scooter", "lon": -77.02809883333333, "bike_id": "d2f15a7b4966a60eb0ef85a1473fe353", "rental_uris": {"android": "https://dc.lft.to/lastmile_qr_scan", "ios": "https://dc.lft.to/lastmile_qr_scan"}, "name": "d2f15a7b4966a60eb0ef85a1473fe353", "is_reserved": 0}, {"is_disabled": 0, "fusion_lon": 0.0, "fusion_lat": 0.0, "lat": 38.920311, "type": "electric_scooter", "lon": -77.02443066666666, "bike_id": "2c8613cfd6db243d45ccfa21dcdb348c", "rental_uris": {"android": "https://dc.lft.to/lastmile_qr_scan", "ios": "https://dc.lft.to/lastmile_qr_scan"}, "name": "2c8613cfd6db243d45ccfa21dcdb348c", "is_reserved": 0}, {"is_disabled": 0, "fusion_lon": 0.0, "fusion_lat": 0.0, "lat": 38.909047666666666, "type": "electric_scooter", "lon": -77.02594966666666, "bike_id": "e167865e4e6666ee0ff6974654c77347", "rental_uris": {"android": "https://dc.lft.to/lastmile_qr_scan", "ios": "https://dc.lft.to/lastmile_qr_scan"}, "name": "e167865e4e6666ee0ff6974654c77347", "is_reserved": 0}, {"is_disabled": 0, "fusion_lon": 0.0, "fusion_lat": 0.0, "lat": 38.89506383333333, "type": "electric_scooter", "lon": -77.02293, "bike_id": "101b427dbe55a3aa3c36efd4b894f56a", "rental_uris": {"android": "https://dc.lft.to/lastmile_qr_scan", "ios": "https://dc.lft.to/lastmile_qr_scan"}, "name": "101b427dbe55a3aa3c36efd4b894f56a", "is_reserved": 0}, {"is_disabled": 0, "fusion_lon": 0.0, "fusion_lat": 0.0, "lat": 38.96156783333333, "type": "electric_scooter", "lon": -77.02813633333334, "bike_id": "7c773e654049d3e837c33cf2059873b4", "rental_uris": {"android": "https://dc.lft.to/lastmile_qr_scan", "ios": "https://dc.lft.to/lastmile_qr_scan"}, "name": "7c773e654049d3e837c33cf2059873b4", "is_reserved": 0}, {"is_disabled": 0, "fusion_lon": 0.0, "fusion_lat": 0.0, "lat": 38.907323833333336, "type": "electric_scooter", "lon": -77.03173566666666, "bike_id": "3b1e96331bc585d8510fc83a021f26c2", "rental_uris": {"android": "https://dc.lft.to/lastmile_qr_scan", "ios": "https://dc.lft.to/lastmile_qr_scan"}, "name": "3b1e96331bc585d8510fc83a021f26c2", "is_reserved": 0}, {"is_disabled": 0, "fusion_lon": 0.0, "fusion_lat": 0.0, "lat": 38.91274766666667, "type": "electric_scooter", "lon": -77.02241016666666, "bike_id": "8dad0e0c86dc215160c91195c45211b7", "rental_uris": {"android": "https://dc.lft.to/lastmile_qr_scan", "ios": "https://dc.lft.to/lastmile_qr_scan"}, "name": "8dad0e0c86dc215160c91195c45211b7", "is_reserved": 0}, {"is_disabled": 0, "fusion_lon": 0.0, "fusion_lat": 0.0, "lat": 38.942708, "type": "electric_scooter", "lon": -77.0325595, "bike_id": "db50801d49df50d4ea649d4f7ce76356", "rental_uris": {"android": "https://dc.lft.to/lastmile_qr_scan", "ios": "https://dc.lft.to/lastmile_qr_scan"}, "name": "db50801d49df50d4ea649d4f7ce76356", "is_reserved": 0}, {"is_disabled": 0, "fusion_lon": 0.0, "fusion_lat": 0.0, "lat": 38.89913266666667, "type": "electric_scooter", "lon": -76.9339225, "bike_id": "efbe6cbd29674f8adf64c9482ebd72d7", "rental_uris": {"android": "https://dc.lft.to/lastmile_qr_scan", "ios": "https://dc.lft.to/lastmile_qr_scan"}, "name": "efbe6cbd29674f8adf64c9482ebd72d7", "is_reserved": 0}, {"is_disabled": 0, "fusion_lon": 0.0, "fusion_lat": 0.0, "lat": 38.93856866666667, "type": "electric_scooter", "lon": -77.02476333333334, "bike_id": "d60fd924be1c8e1c2ab740b94f8133f2", "rental_uris": {"android": "https://dc.lft.to/lastmile_qr_scan", "ios": "https://dc.lft.to/lastmile_qr_scan"}, "name": "d60fd924be1c8e1c2ab740b94f8133f2", "is_reserved": 0}, {"is_disabled": 0, "fusion_lon": 0.0, "fusion_lat": 0.0, "lat": 38.90019933333333, "type": "electric_scooter", "lon": -77.00471616666667, "bike_id": "1a2ba3fbbf999b097cf0198ab81cc76d", "rental_uris": {"android": "https://dc.lft.to/lastmile_qr_scan", "ios": "https://dc.lft.to/lastmile_qr_scan"}, "name": "1a2ba3fbbf999b097cf0198ab81cc76d", "is_reserved": 0}, {"is_disabled": 0, "fusion_lon": 0.0, "fusion_lat": 0.0, "lat": 38.95206266666667, "type": "electric_scooter", "lon": -77.02730966666667, "bike_id": "b26557408de94282d3c0d9085759adea", "rental_uris": {"android": "https://dc.lft.to/lastmile_qr_scan", "ios": "https://dc.lft.to/lastmile_qr_scan"}, "name": "b26557408de94282d3c0d9085759adea", "is_reserved": 0}, {"is_disabled": 0, "fusion_lon": 0.0, "fusion_lat": 0.0, "lat": 39.0300195, "type": "electric_bike", "lon": -77.1065185, "bike_id": "395082d64a0062111150e8f8ebfb73a7", "rental_uris": {"android": "https://dc.lft.to/lastmile_qr_scan", "ios": "https://dc.lft.to/lastmile_qr_scan"}, "name": "395082d64a0062111150e8f8ebfb73a7", "is_reserved": 0}, {"is_disabled": 0, "fusion_lon": 0.0, "fusion_lat": 0.0, "lat": 38.964460833333334, "type": "electric_bike", "lon": -76.9772065, "bike_id": "caf6c676c0f34218af7edbb89435695d", "rental_uris": {"android": "https://dc.lft.to/lastmile_qr_scan", "ios": "https://dc.lft.to/lastmile_qr_scan"}, "name": "caf6c676c0f34218af7edbb89435695d", "is_reserved": 0}, {"is_disabled": 0, "fusion_lon": 0.0, "fusion_lat": 0.0, "lat": 38.84294716666667, "type": "electric_scooter", "lon": -76.999419, "bike_id": "f5d6637a4e2b2bac3767f9eb43f1b12a", "rental_uris": {"android": "https://dc.lft.to/lastmile_qr_scan", "ios": "https://dc.lft.to/lastmile_qr_scan"}, "name": "f5d6637a4e2b2bac3767f9eb43f1b12a", "is_reserved": 0}, {"is_disabled": 0, "fusion_lon": 0.0, "fusion_lat": 0.0, "lat": 38.850917333333335, "type": "electric_bike", "lon": -76.95696766666667, "bike_id": "afe4537f0cd0c4fa066bb001262e5d73", "rental_uris": {"android": "https://dc.lft.to/lastmile_qr_scan", "ios": "https://dc.lft.to/lastmile_qr_scan"}, "name": "afe4537f0cd0c4fa066bb001262e5d73", "is_reserved": 0}, {"is_disabled": 0, "fusion_lon": 0.0, "fusion_lat": 0.0, "lat": 38.887511, "type": "electric_scooter", "lon": -77.0160455, "bike_id": "cf5ad0034265a6dba112832b9455c50a", "rental_uris": {"android": "https://dc.lft.to/lastmile_qr_scan", "ios": "https://dc.lft.to/lastmile_qr_scan"}, "name": "cf5ad0034265a6dba112832b9455c50a", "is_reserved": 0}, {"is_disabled": 0, "fusion_lon": 0.0, "fusion_lat": 0.0, "lat": 38.90685, "type": "electric_scooter", "lon": -77.03818716666666, "bike_id": "ffc435dadab6a6f80e73fc6b8871b91d", "rental_uris": {"android": "https://dc.lft.to/lastmile_qr_scan", "ios": "https://dc.lft.to/lastmile_qr_scan"}, "name": "ffc435dadab6a6f80e73fc6b8871b91d", "is_reserved": 0}, {"is_disabled": 0, "fusion_lon": 0.0, "fusion_lat": 0.0, "lat": 38.898354166666664, "type": "electric_scooter", "lon": -76.94632633333333, "bike_id": "3356ce45e1d691b4fb91b0dd45a63fad", "rental_uris": {"android": "https://dc.lft.to/lastmile_qr_scan", "ios": "https://dc.lft.to/lastmile_qr_scan"}, "name": "3356ce45e1d691b4fb91b0dd45a63fad", "is_reserved": 0}, {"is_disabled": 0, "fusion_lon": 0.0, "fusion_lat": 0.0, "lat": 38.82784133333333, "type": "electric_bike", "lon": -77.11079666666667, "bike_id": "e0078627b0038f625df539f6aaaf58c3", "rental_uris": {"android": "https://dc.lft.to/lastmile_qr_scan", "ios": "https://dc.lft.to/lastmile_qr_scan"}, "name": "e0078627b0038f625df539f6aaaf58c3", "is_reserved": 0}, {"is_disabled": 0, "fusion_lon": 0.0, "fusion_lat": 0.0, "lat": 38.93022766666667, "type": "electric_scooter", "lon": -77.03451433333333, "bike_id": "231f78368be0fa860951b739c5e1df35", "rental_uris": {"android": "https://dc.lft.to/lastmile_qr_scan", "ios": "https://dc.lft.to/lastmile_qr_scan"}, "name": "231f78368be0fa860951b739c5e1df35", "is_reserved": 0}, {"is_disabled": 0, "fusion_lon": 0.0, "fusion_lat": 0.0, "lat": 38.902844, "type": "electric_scooter", "lon": -77.0242685, "bike_id": "068a73a1cbd844aa9c954a5639ce2958", "rental_uris": {"android": "https://dc.lft.to/lastmile_qr_scan", "ios": "https://dc.lft.to/lastmile_qr_scan"}, "name": "068a73a1cbd844aa9c954a5639ce2958", "is_reserved": 0}, {"is_disabled": 0, "fusion_lon": 0.0, "fusion_lat": 0.0, "lat": 38.93965683333333, "type": "electric_scooter", "lon": -77.032794, "bike_id": "cecd78ee499837f5610b0c321092c2f2", "rental_uris": {"android": "https://dc.lft.to/lastmile_qr_scan", "ios": "https://dc.lft.to/lastmile_qr_scan"}, "name": "cecd78ee499837f5610b0c321092c2f2", "is_reserved": 0}, {"is_disabled": 0, "fusion_lon": 0.0, "fusion_lat": 0.0, "lat": 38.956135333333336, "type": "electric_scooter", "lon": -77.02760716666667, "bike_id": "34e233772172681c4e9fdd4eaf31c7f9", "rental_uris": {"android": "https://dc.lft.to/lastmile_qr_scan", "ios": "https://dc.lft.to/lastmile_qr_scan"}, "name": "34e233772172681c4e9fdd4eaf31c7f9", "is_reserved": 0}, {"is_disabled": 0, "fusion_lon": 0.0, "fusion_lat": 0.0, "lat": 38.82444433333333, "type": "electric_bike", "lon": -77.07046433333333, "bike_id": "12cfb1f2504c90f23eb0848aa0c0dcba", "rental_uris": {"android": "https://dc.lft.to/lastmile_qr_scan", "ios": "https://dc.lft.to/lastmile_qr_scan"}, "name": "12cfb1f2504c90f23eb0848aa0c0dcba", "is_reserved": 0}, {"is_disabled": 0, "fusion_lon": 0.0, "fusion_lat": 0.0, "lat": 38.9189645, "type": "electric_scooter", "lon": -77.07112166666667, "bike_id": "1343ecbef875b5fae27fa31cac194a47", "rental_uris": {"android": "https://dc.lft.to/lastmile_qr_scan", "ios": "https://dc.lft.to/lastmile_qr_scan"}, "name": "1343ecbef875b5fae27fa31cac194a47", "is_reserved": 0}, {"is_disabled": 0, "fusion_lon": 0.0, "fusion_lat": 0.0, "lat": 38.869584333333336, "type": "electric_scooter", "lon": -76.9603135, "bike_id": "f2864c3795baa4c6a079d2d526fff668", "rental_uris": {"android": "https://dc.lft.to/lastmile_qr_scan", "ios": "https://dc.lft.to/lastmile_qr_scan"}, "name": "f2864c3795baa4c6a079d2d526fff668", "is_reserved": 0}, {"is_disabled": 0, "fusion_lon": 0.0, "fusion_lat": 0.0, "lat": 38.89773783333333, "type": "electric_scooter", "lon": -77.02382183333333, "bike_id": "5d41ab391dcd7efa6791ec430fd93803", "rental_uris": {"android": "https://dc.lft.to/lastmile_qr_scan", "ios": "https://dc.lft.to/lastmile_qr_scan"}, "name": "5d41ab391dcd7efa6791ec430fd93803", "is_reserved": 0}, {"is_disabled": 0, "fusion_lon": 0.0, "fusion_lat": 0.0, "lat": 38.93438416666667, "type": "electric_scooter", "lon": -77.07257666666666, "bike_id": "1703439a1b1fad6f365be78d880931a4", "rental_uris": {"android": "https://dc.lft.to/lastmile_qr_scan", "ios": "https://dc.lft.to/lastmile_qr_scan"}, "name": "1703439a1b1fad6f365be78d880931a4", "is_reserved": 0},