{"data": {"bikes": [{"is_reserved": 0, "is_disabled": 0, "fusion_lat": 0.0, "name": "eb0b355f7695b12450836afcf2f13ddc", "lat": 38.91738766666667, "lon": -77.02116416666667, "bike_id": "eb0b355f7695b12450836afcf2f13ddc", "rental_uris": {"ios": "https://dc.lft.to/lastmile_qr_scan", "android": "https://dc.lft.to/lastmile_qr_scan"}, "type": "electric_scooter", "fusion_lon": 0.0}, {"is_reserved": 0, "is_disabled": 0, "fusion_lat": 0.0, "name": "b19cc44dbe110764bf9d5f99ffb8a667", "lat": 38.9234125, "lon": -77.02134983333333, "bike_id": "b19cc44dbe110764bf9d5f99ffb8a667", "rental_uris": {"ios": "https://dc.lft.to/lastmile_qr_scan", "android": "https://dc.lft.to/lastmile_qr_scan"}, "type": "electric_scooter", "fusion_lon": 0.0}, {"is_reserved": 0, "is_disabled": 0, "fusion_lat": 0.0, "name": "af194d3d5fd850773ccf2b619467c0f7", "lat": 38.902371, "lon": -77.00198433333334, "bike_id": "af194d3d5fd850773ccf2b619467c0f7", "rental_uris": {"ios": "https://dc.lft.to/lastmile_qr_scan", "android": "https://dc.lft.to/lastmile_qr_scan"}, "type": "electric_scooter", "fusion_lon": 0.0}, {"is_reserved": 0, "is_disabled": 0, "fusion_lat": 0.0, "name": "eff9abc8bd0eea29bb71f22d5c505628", "lat": 38.913751833333336, "lon": -77.02061583333334, "bike_id": "eff9abc8bd0eea29bb71f22d5c505628", "rental_uris": {"ios": "https://dc.lft.to/lastmile_qr_scan", "android": "https://dc.lft.to/lastmile_qr_scan"}, "type": "electric_scooter", "fusion_lon": 0.0}, {"is_reserved": 0, "is_disabled": 0, "fusion_lat": 0.0, "name": "c70da156df5dbae1f2a0f22224e47947", "lat": 38.92420283333333, "lon": -77.019452, "bike_id": "c70da156df5dbae1f2a0f22224e47947", "rental_uris": {"ios": "https://dc.lft.to/lastmile_qr_scan", "android": "https://dc.lft.to/lastmile_qr_scan"}, "type": "electric_scooter", "fusion_lon": 0.0}, {"is_reserved": 0, "is_disabled": 0, "fusion_lat": 0.0, "name": "763b23f8626be1f96f3174c457328e08", "lat": 38.892557, "lon": -77.045057, "bike_id": "763b23f8626be1f96f3174c457328e08", "rental_uris": {"ios": "https://dc.lft.to/lastmile_qr_scan", "android": "https://dc.lft.to/lastmile_qr_scan"}, "type": "electric_scooter", "fusion_lon": 0.0}, {"is_reserved": 0, "is_disabled": 0, "fusion_lat": 0.0, "name": "27bfc662ef37c70ba6f2757a7ee75a49", "lat": 38.918147833333336, "lon": -77.024761, "bike_id": "27bfc662ef37c70ba6f2757a7ee75a49", "rental_uris": {"ios": "https://dc.lft.to/lastmile_qr_scan", "android": "https://dc.lft.to/lastmile_qr_scan"}, "type": "electric_scooter", "fusion_lon": 0.0}, {"is_reserved": 0, "is_disabled": 0, "fusion_lat": 0.0, "name": "a181e54ac2f643249a6ebe8b60562a0a", "lat": 38.8941695, "lon": -77.01087633333333, "bike_id": "a181e54ac2f643249a6ebe8b60562a0a", "rental_uris": {"ios": "https://dc.lft.to/lastmile_qr_scan", "android": "https://dc.lft.to/lastmile_qr_scan"}, "type": "electric_scooter", "fusion_lon": 0.0}, {"is_reserved": 0, "is_disabled": 0, "fusion_lat": 0.0, "name": "5b361ab40b480f6ecd9899290cf0f059", "lat": 38.918002333333334, "lon": -77.0344255, "bike_id": "5b361ab40b480f6ecd9899290cf0f059", "rental_uris": {"ios": "https://dc.lft.to/lastmile_qr_scan", "android": "https://dc.lft.to/lastmile_qr_scan"}, "type": "electric_scooter", "fusion_lon": 0.0}, {"is_reserved": 0, "is_disabled": 0, "fusion_lat": 0.0, "name": "1816d98cc4120d1e4049967bf3d1c179", "lat": 38.90028366666667, "lon": -76.99806, "bike_id": "1816d98cc4120d1e4049967bf3d1c179", "rental_uris": {"ios": "https://dc.lft.to/lastmile_qr_scan", "android": "https://dc.lft.to/lastmile_qr_scan"}, "type": "electric_scooter", "fusion_lon": 0.0}, {"is_reserved": 0, "is_disabled": 0, "fusion_lat": 0.0, "name": "533948a7a7584132efbe461487dccda4", "lat": 38.9501785, "lon": -77.01433333333334, "bike_id": "533948a7a7584132efbe461487dccda4", "rental_uris": {"ios": "https://dc.lft.to/lastmile_qr_scan", "android": "https://dc.lft.to/lastmile_qr_scan"}, "type": "electric_scooter", "fusion_lon": 0.0}, {"is_reserved": 0, "is_disabled": 0, "fusion_lat": 0.0, "name": "3869775baf307b5a46d0e05c41b2e9d5", "lat": 38.92051416666666, "lon": -77.041822, "bike_id": "3869775baf307b5a46d0e05c41b2e9d5", "rental_uris": {"ios": "https://dc.lft.to/lastmile_qr_scan", "android": "https://dc.lft.to/lastmile_qr_scan"}, "type": "electric_scooter", "fusion_lon": 0.0}, {"is_reserved": 0, "is_disabled": 0, "fusion_lat": 0.0, "name": "d83fa2e6ee33177c44f5bdd555c2c547", "lat": 38.927995, "lon": -77.2293735, "bike_id": "d83fa2e6ee33177c44f5bdd555c2c547", "rental_uris": {"ios": "https://dc.lft.to/lastmile_qr_scan", "android": "https://dc.lft.to/lastmile_qr_scan"}, "type": "electric_bike", "fusion_lon": 0.0}, {"is_reserved": 0, "is_disabled": 0, "fusion_lat": 0.0, "name": "53d52deae7674f4fc95b934276f5da81", "lat": 38.908412, "lon": -76.9970325, "bike_id": "53d52deae7674f4fc95b934276f5da81", "rental_uris": {"ios": "https://dc.lft.to/lastmile_qr_scan", "android": "https://dc.lft.to/lastmile_qr_scan"}, "type": "electric_scooter", "fusion_lon": 0.0}, {"is_reserved": 0, "is_disabled": 0, "fusion_lat": 0.0, "name": "a030c5bd868ab9c881dc27efc2a5e7e0", "lat": 38.857169999999996, "lon": -76.9810305, "bike_id": "a030c5bd868ab9c881dc27efc2a5e7e0", "rental_uris": {"ios": "https://dc.lft.to/lastmile_qr_scan", "android": "https://dc.lft.to/lastmile_qr_scan"}, "type": "electric_scooter", "fusion_lon": 0.0}, {"is_reserved": 0, "is_disabled": 0, "fusion_lat": 0.0, "name": "97bf4e77ea81a2b9ebcab774361efb1a", "lat": 38.91995933333333, "lon": -77.02204066666667, "bike_id": "97bf4e77ea81a2b9ebcab774361efb1a", "rental_uris": {"ios": "https://dc.lft.to/lastmile_qr_scan", "android": "https://dc.lft.to/lastmile_qr_scan"}, "type": "electric_scooter", "fusion_lon": 0.0}, {"is_reserved": 0, "is_disabled": 0, "fusion_lat": 0.0, "name": "9faa74400202d2eb51447048b015433e", "lat": 38.96431616666667, "lon": -77.074347, "bike_id": "9faa74400202d2eb51447048b015433e", "rental_uris": {"ios": "https://dc.lft.to/lastmile_qr_scan", "android": "https://dc.lft.to/lastmile_qr_scan"}, "type": "electric_scooter", "fusion_lon": 0.0}, {"is_reserved": 0, "is_disabled": 0, "fusion_lat": 0.0, "name": "1419c42f70ba89f57fe9f879f68a0829", "lat": 38.92246566666667, "lon": -77.042516, "bike_id": "1419c42f70ba89f57fe9f879f68a0829", "rental_uris": {"ios": "https://dc.lft.to/lastmile_qr_scan", "android": "https://dc.lft.to/lastmile_qr_scan"}, "type": "electric_scooter", "fusion_lon": 0.0}, {"is_reserved": 0, "is_disabled": 0, "fusion_lat": 0.0, "name": "07143c984feef05dbd3e2c9197363b01", "lat": 38.88433233333333, "lon": -76.985607, "bike_id": "07143c984feef05dbd3e2c9197363b01", "rental_uris": {"ios": "https://dc.lft.to/lastmile_qr_scan", "android": "https://dc.lft.to/lastmile_qr_scan"}, "type": "electric_scooter", "fusion_lon": 0.0}, {"is_reserved": 0, "is_disabled": 0, "fusion_lat": 0.0, "name": "20a7fc96a91339cec0d978a970f85b7b", "lat": 38.8849275, "lon": -77.04503316666667, "bike_id": "20a7fc96a91339cec0d978a970f85b7b", "rental_uris": {"ios": "https://dc.lft.to/lastmile_qr_scan", "android": "https://dc.lft.to/lastmile_qr_scan"}, "type": "electric_scooter", "fusion_lon": 0.0}, {"is_reserved": 0, "is_disabled": 0, "fusion_lat": 0.0, "name": "19c806e3f738d8107e2f80212143398b", "lat": 38.898791333333335, "lon": -76.93180633333333, "bike_id": "19c806e3f738d8107e2f80212143398b", "rental_uris": {"ios": "https://dc.lft.to/lastmile_qr_scan", "android": "https://dc.lft.to/lastmile_qr_scan"}, "type": "electric_scooter", "fusion_lon": 0.0}, {"is_reserved": 0, "is_disabled": 0, "fusion_lat": 0.0, "name": "ef52af57cc81d69cb4f2a8e9815f2e8c", "lat": 38.892273833333334, "lon": -77.0436535, "bike_id": "ef52af57cc81d69cb4f2a8e9815f2e8c", "rental_uris": {"ios": "https://dc.lft.to/lastmile_qr_scan", "android": "https://dc.lft.to/lastmile_qr_scan"}, "type": "electric_scooter", "fusion_lon": 0.0}, {"is_reserved": 0, "is_disabled": 0, "fusion_lat": 0.0, "name": "0c028e1c645b6500a96b2a04011a8ff9", "lat": 38.90018333333333, "lon": -77.0433875, "bike_id": "0c028e1c645b6500a96b2a04011a8ff9", "rental_uris": {"ios": "https://dc.lft.to/lastmile_qr_scan", "android": "https://dc.lft.to/lastmile_qr_scan"}, "type": "electric_scooter", "fusion_lon": 0.0}, {"is_reserved": 0, "is_disabled": 0, "fusion_lat": 0.0, "name": "c73e3403cb81a5093822b6521fc0001e", "lat": 38.91697166666667, "lon": -77.05304233333334, "bike_id": "c73e3403cb81a5093822b6521fc0001e", "rental_uris": {"ios": "https://dc.lft.to/lastmile_qr_scan", "android": "https://dc.lft.to/lastmile_qr_scan"}, "type": "electric_scooter", "fusion_lon": 0.0}, {"is_reserved": 0, "is_disabled": 0, "fusion_lat": 0.0, "name": "c3b3f7c573b0b5ba170054c72ea81554", "lat": 38.90998183333333, "lon": -77.038337, "bike_id": "c3b3f7c573b0b5ba170054c72ea81554", "rental_uris": {"ios": "https://dc.lft.to/lastmile_qr_scan", "android": "https://dc.lft.to/lastmile_qr_scan"}, "type": "electric_scooter", "fusion_lon": 0.0}, {"is_reserved": 0, "is_disabled": 0, "fusion_lat": 0.0, "name": "a6d22c74c97e4609d615a913e10b095a", "lat": 38.92866583333333, "lon": -77.01411383333334, "bike_id": "a6d22c74c97e4609d615a913e10b095a", "rental_uris": {"ios": "https://dc.lft.to/lastmile_qr_scan", "android": "https://dc.lft.to/lastmile_qr_scan"}, "type": "electric_scooter", "fusion_lon": 0.0}, {"is_reserved": 0, "is_disabled": 0, "fusion_lat": 0.0, "name": "af787719b27e6657b60f93ddab93cd33", "lat": 38.87291833333333, "lon": -77.00979, "bike_id": "af787719b27e6657b60f93ddab93cd33", "rental_uris": {"ios": "https://dc.lft.to/lastmile_qr_scan", "android": "https://dc.lft.to/lastmile_qr_scan"}, "type": "electric_scooter", "fusion_lon": 0.0}, {"is_reserved": 0, "is_disabled": 0, "fusion_lat": 0.0, "name": "e6d3cec32770fee04a2d8f07c69c46ee", "lat": 38.930098666666666, "lon": -77.02117283333334, "bike_id": "e6d3cec32770fee04a2d8f07c69c46ee", "rental_uris": {"ios": "https://dc.lft.to/lastmile_qr_scan", "android": "https://dc.lft.to/lastmile_qr_scan"}, "type": "electric_scooter", "fusion_lon": 0.0}, {"is_reserved": 0, "is_disabled": 0, "fusion_lat": 0.0, "name": "e5cd170bc1681bbba0acae6dac7467ef", "lat": 38.901823666666665, "lon": -76.976754, "bike_id": "e5cd170bc1681bbba0acae6dac7467ef", "rental_uris": {"ios": "https://dc.lft.to/lastmile_qr_scan", "android": "https://dc.lft.to/lastmile_qr_scan"}, "type": "electric_scooter", "fusion_lon": 0.0}, {"is_reserved": 0, "is_disabled": 0, "fusion_lat": 0.0, "name": "2cea368bcb5a2ea4010e781f92675343", "lat": 38.92065866666667, "lon": -77.0437605, "bike_id": "2cea368bcb5a2ea4010e781f92675343", "rental_uris": {"ios": "https://dc.lft.to/lastmile_qr_scan", "android": "https://dc.lft.to/lastmile_qr_scan"}, "type": "electric_scooter", "fusion_lon": 0.0}, {"is_reserved": 0, "is_disabled": 0, "fusion_lat": 0.0, "name": "21e26fa8a561b06330b7e61ae67adf23", "lat": 38.92754816666667, "lon": -77.02124783333333, "bike_id": "21e26fa8a561b06330b7e61ae67adf23", "rental_uris": {"ios": "https://dc.lft.to/lastmile_qr_scan", "android": "https://dc.lft.to/lastmile_qr_scan"}, "type": "electric_scooter", "fusion_lon": 0.0}, {"is_reserved": 0, "is_disabled": 0, "fusion_lat": 0.0, "name": "fb02f063ba2ec867a23c1564c7ed68b5", "lat": 38.89958033333333, "lon": -76.98567, "bike_id": "fb02f063ba2ec867a23c1564c7ed68b5", "rental_uris": {"ios": "https://dc.lft.to/lastmile_qr_scan", "android": "https://dc.lft.to/lastmile_qr_scan"}, "type": "electric_scooter", "fusion_lon": 0.0}, {"is_reserved": 0, "is_disabled": 0, "fusion_lat": 0.0, "name": "15398cd4a169b3ae0a576ade3b015288", "lat": 38.90301933333333, "lon": -76.99837366666667, "bike_id": "15398cd4a169b3ae0a576ade3b015288", "rental_uris": {"ios": "https://dc.lft.to/lastmile_qr_scan", "android": "https://dc.lft.to/lastmile_qr_scan"}, "type": "electric_scooter", "fusion_lon": 0.0}, {"is_reserved": 0, "is_disabled": 0, "fusion_lat": 0.0, "name": "9c19d9be3207b2ad2e2df707b137030f", "lat": 38.895133, "lon": -76.94883416666667, "bike_id": "9c19d9be3207b2ad2e2df707b137030f", "rental_uris": {"ios": "https://dc.lft.to/lastmile_qr_scan", "android": "https://dc.lft.to/lastmile_qr_scan"}, "type": "electric_scooter", "fusion_lon": 0.0}, {"is_reserved": 0, "is_disabled": 0, "fusion_lat": 0.0, "name": "50a6166cc1d82562854bda2161ccba87", "lat": 38.88007316666667, "lon": -76.99833533333333, "bike_id": "50a6166cc1d82562854bda2161ccba87", "rental_uris": {"ios": "https://dc.lft.to/lastmile_qr_scan", "android": "https://dc.lft.to/lastmile_qr_scan"}, "type": "electric_scooter", "fusion_lon": 0.0}, {"is_reserved": 0, "is_disabled": 0, "fusion_lat": 0.0, "name": "20f9edec16448a23d2d3beffa289bc27", "lat": 38.87390516666667, "lon": -76.99991116666666, "bike_id": "20f9edec16448a23d2d3beffa289bc27", "rental_uris": {"ios": "https://dc.lft.to/lastmile_qr_scan", "android": "https://dc.lft.to/lastmile_qr_scan"}, "type": "electric_scooter", "fusion_lon": 0.0}, {"is_reserved": 0, "is_disabled": 0, "fusion_lat": 0.0, "name": "418c834f5a1f3a69a7a17657be693458", "lat": 38.9406905, "lon": -77.00391583333334, "bike_id": "418c834f5a1f3a69a7a17657be693458", "rental_uris": {"ios": "https://dc.lft.to/lastmile_qr_scan", "android": "https://dc.lft.to/lastmile_qr_scan"}, "type": "electric_scooter", "fusion_lon": 0.0}, {"is_reserved": 0, "is_disabled": 0, "fusion_lat": 0.0, "name": "31e29454cade4e21f5078935af31d7c9", "lat": 38.9024075, "lon": -76.98004016666667, "bike_id": "31e29454cade4e21f5078935af31d7c9", "rental_uris": {"ios": "https://dc.lft.to/lastmile_qr_scan", "android": "https://dc.lft.to/lastmile_qr_scan"}, "type": "electric_scooter", "fusion_lon": 0.0}, {"is_reserved": 0, "is_disabled": 0, "fusion_lat": 0.0, "name": "b87eed1ed2d06cf6320ad6dce85378d8", "lat": 38.907680166666665, "lon": -77.02403383333333, "bike_id": "b87eed1ed2d06cf6320ad6dce85378d8", "rental_uris": {"ios": "https://dc.lft.to/lastmile_qr_scan", "android": "https://dc.lft.to/lastmile_qr_scan"}, "type": "electric_scooter", "fusion_lon": 0.0}, {"is_reserved": 0, "is_disabled": 0, "fusion_lat": 0.0, "name": "db74402e7e8f74455525e46249cfa06e", "lat": 38.87882716666667, "lon": -76.9653945, "bike_id": "db74402e7e8f74455525e46249cfa06e", "rental_uris": {"ios": "https://dc.lft.to/lastmile_qr_scan", "android": "https://dc.lft.to/lastmile_qr_scan"}, "type": "electric_scooter", "fusion_lon": 0.0}, {"is_reserved": 0, "is_disabled": 0, "fusion_lat": 0.0, "name": "ef0ddbcd3f9c35c4b4b10822b6c637a5", "lat": 39.03473783333333, "lon": -77.04096683333333, "bike_id": "ef0ddbcd3f9c35c4b4b10822b6c637a5", "rental_uris": {"ios": "https://dc.lft.to/lastmile_qr_scan", "android": "https://dc.lft.to/lastmile_qr_scan"}, "type": "electric_bike", "fusion_lon": 0.0}, {"is_reserved": 0, "is_disabled": 0, "fusion_lat": 0.0, "name": "bf0b65a2c8c9ccdb50052db6cdd2cad5", "lat": 38.9070525, "lon": -76.98697066666666, "bike_id": "bf0b65a2c8c9ccdb50052db6cdd2cad5", "rental_uris": {"ios": "https://dc.lft.to/lastmile_qr_scan", "android": "https://dc.lft.to/lastmile_qr_scan"}, "type": "electric_scooter", "fusion_lon": 0.0}, {"is_reserved": 0, "is_disabled": 0, "fusion_lat": 0.0, "name": "b0e0eade687f0586778811e397870f0b", "lat": 38.899308833333336, "lon": -76.93765516666667, "bike_id": "b0e0eade687f0586778811e397870f0b", "rental_uris": {"ios": "https://dc.lft.to/lastmile_qr_scan", "android": "https://dc.lft.to/lastmile_qr_scan"}, "type": "electric_scooter", "fusion_lon": 0.0}, {"is_reserved": 0, "is_disabled": 0, "fusion_lat": 0.0, "name": "b1c2f4c64c82bc23ce6e864dd22a833c", "lat": 38.94485433333333, "lon": -77.064105, "bike_id": "b1c2f4c64c82bc23ce6e864dd22a833c", "rental_uris": {"ios": "https://dc.lft.to/lastmile_qr_scan", "android": "https://dc.lft.to/lastmile_qr_scan"}, "type": "electric_scooter", "fusion_lon": 0.0}, {"is_reserved": 0, "is_disabled": 0, "fusion_lat": 0.0, "name": "a6275690363bca9106509549cce5f5e2", "lat": 38.92465283333333, "lon": -77.05238933333334, "bike_id": "a6275690363bca9106509549cce5f5e2", "rental_uris": {"ios": "https://dc.lft.to/lastmile_qr_scan", "android": "https://dc.lft.to/lastmile_qr_scan"}, "type": "electric_scooter", "fusion_lon": 0.0}, {"is_reserved": 0, "is_disabled": 0, "fusion_lat": 0.0, "name": "12d64488a5cc615c534e82395118f8f1", "lat": 38.936294333333336, "lon": -77.0635155, "bike_id": "12d64488a5cc615c534e82395118f8f1", "rental_uris": {"ios": "https://dc.lft.to/lastmile_qr_scan", "android": "https://dc.lft.to/lastmile_qr_scan"}, "type": "electric_bike", "fusion_lon": 0.0}, {"is_reserved": 0, "is_disabled": 0, "fusion_lat": 0.0, "name": "eb0dd823e47aa7b15c624ae3c260377c", "lat": 38.90417733333334, "lon": -77.02419983333333, "bike_id": "eb0dd823e47aa7b15c624ae3c260377c", "rental_uris": {"ios": "https://dc.lft.to/lastmile_qr_scan", "android": "https://dc.lft.to/lastmile_qr_scan"}, "type": "electric_scooter", "fusion_lon": 0.0}, {"is_reserved": 0, "is_disabled": 0, "fusion_lat": 0.0, "name": "9e4d3bd255c8f32a16a046108501060a", "lat": 38.925788, "lon": -76.99512266666666, "bike_id": "9e4d3bd255c8f32a16a046108501060a", "rental_uris": {"ios": "https://dc.lft.to/lastmile_qr_scan", "android": "https://dc.lft.to/lastmile_qr_scan"}, "type": "electric_scooter", "fusion_lon": 0.0}, {"is_reserved": 0, "is_disabled": 0, "fusion_lat": 0.0, "name": "bc33ed980798fadfe5b8cb7597e250bc", "lat": 38.8360925, "lon": -77.00373883333333, "bike_id": "bc33ed980798fadfe5b8cb7597e250bc", "rental_uris": {"ios": "https://dc.lft.to/lastmile_qr_scan", "android": "https://dc.lft.to/lastmile_qr_scan"}, "type": "electric_bike", "fusion_lon": 0.0}, {"is_reserved": 0, "is_disabled": 0, "fusion_lat": 0.0, "name": "1429765aa110105e0e9517f2fd302ae5", "lat": 38.92878566666667, "lon": -77.033312, "bike_id": "1429765aa110105e0e9517f2fd302ae5", "rental_uris": {"ios": "https://dc.lft.to/lastmile_qr_scan", "android": "https://dc.lft.to/lastmile_qr_scan"}, "type": "electric_scooter", "fusion_lon": 0.0}, {"is_reserved": 0, "is_disabled": 0, "fusion_lat": 0.0, "name": "7a8146c01c1cc7f5e8aaa4386b04215d", "lat": 38.937531, "lon": -77.03263133333333, "bike_id": "7a8146c01c1cc7f5e8aaa4386b04215d", "rental_uris": {"ios": "https://dc.lft.to/lastmile_qr_scan", "android": "https://dc.lft.to/lastmile_qr_scan"}, "type": "electric_scooter", "fusion_lon": 0.0}, {"is_reserved": 0, "is_disabled": 0, "fusion_lat": 0.0, "name": "714607c1bc11478fc2b22e407fbd3eb9", "lat": 38.89402583333333, "lon": -76.99963766666667, "bike_id": "714607c1bc11478fc2b22e407fbd3eb9", "rental_uris": {"ios": "https://dc.lft.to/lastmile_qr_scan", "android": "https://dc.lft.to/lastmile_qr_scan"}, "type": "electric_scooter", "fusion_lon": 0.0}, {"is_reserved": 0, "is_disabled": 0, "fusion_lat": 0.0, "name": "ebe8c66db539621753aa72f280c0f3cc", "lat": 38.956423, "lon": -77.02430533333333, "bike_id": "ebe8c66db539621753aa72f280c0f3cc", "rental_uris": {"ios": "https://dc.lft.to/lastmile_qr_scan", "android": "https://dc.lft.to/lastmile_qr_scan"}, "type": "electric_scooter", "fusion_lon": 0.0}, {"is_reserved": 0, "is_disabled": 0, "fusion_lat": 0.0, "name": "6c0e1652257c47ad0fb43d8d4fafb925", "lat": 38.918747833333335, "lon": -77.0448095, "bike_id": "6c0e1652257c47ad0fb43d8d4fafb925", "rental_uris": {"ios": "https://dc.lft.to/lastmile_qr_scan", "android": "https://dc.lft.to/lastmile_qr_scan"}, "type": "electric_scooter", "fusion_lon": 0.0}, {"is_reserved": 0, "is_disabled": 0, "fusion_lat": 0.0, "name": "8741a9eb3a6636373efb91d5833c947c", "lat": 38.962131666666664, "lon": -77.022373, "bike_id": "8741a9eb3a6636373efb91d5833c947c", "rental_uris": {"ios": "https://dc.lft.to/lastmile_qr_scan", "android": "https://dc.lft.to/lastmile_qr_scan"}, "type": "electric_scooter", "fusion_lon": 0.0}, {"is_reserved": 0, "is_disabled": 0, "fusion_lat": 0.0, "name": "a383a3dba9f730d338cc2f78d39cd780", "lat": 38.9187885, "lon": -77.044724, "bike_id": "a383a3dba9f730d338cc2f78d39cd780", "rental_uris": {"ios": "https://dc.lft.to/lastmile_qr_scan", "android": "https://dc.lft.to/lastmile_qr_scan"}, "type": "electric_scooter", "fusion_lon": 0.0}, {"is_reserved": 0, "is_disabled": 0, "fusion_lat": 0.0, "name": "5bf49ef82cf2ec2d665516b44e904a05", "lat": 38.843186333333335, "lon": -76.98843116666667, "bike_id": "5bf49ef82cf2ec2d665516b44e904a05", "rental_uris": {"ios": "https://dc.lft.to/lastmile_qr_scan", "android": "https://dc.lft.to/lastmile_qr_scan"}, "type": "electric_bike", "fusion_lon": 0.0}, {"is_reserved": 0, "is_disabled": 0, "fusion_lat": 0.0, "name": "e464bbc80175936da009b5207ebfcf78", "lat": 38.89478183333333, "lon": -77.0453485, "bike_id": "e464bbc80175936da009b5207ebfcf78", "rental_uris": {"ios": "https://dc.lft.to/lastmile_qr_scan", "android": "https://dc.lft.to/lastmile_qr_scan"}, "type": "electric_scooter", "fusion_lon": 0.0}, {"is_reserved": 0, "is_disabled": 0, "fusion_lat": 0.0, "name": "6007b771ca00a7e3772cbabb5dbb147c", "lat": 38.907297, "lon": -77.03216216666667, "bike_id": "6007b771ca00a7e3772cbabb5dbb147c", "rental_uris": {"ios": "https://dc.lft.to/lastmile_qr_scan", "android": "https://dc.lft.to/lastmile_qr_scan"}, "type": "electric_scooter", "fusion_lon": 0.0}, {"is_reserved": 0, "is_disabled": 0, "fusion_lat": 0.0, "name": "11fed065035a773676344afa2998d68d", "lat": 38.907204666666665, "lon": -77.0147235, "bike_id": "11fed065035a773676344afa2998d68d", "rental_uris": {"ios": "https://dc.lft.to/lastmile_qr_scan", "android": "https://dc.lft.to/lastmile_qr_scan"}, "type": "electric_scooter", "fusion_lon": 0.0}, {"is_reserved": 0, "is_disabled": 0, "fusion_lat": 0.0, "name": "01e3867f7cc8fd8b93d08113420b79de", "lat": 38.83381416666667, "lon": -77.00300166666666, "bike_id": "01e3867f7cc8fd8b93d08113420b79de", "rental_uris": {"ios": "https://dc.lft.to/lastmile_qr_scan", "android": "https://dc.lft.to/lastmile_qr_scan"}, "type": "electric_scooter", "fusion_lon": 0.0}, {"is_reserved": 0, "is_disabled": 0, "fusion_lat": 0.0, "name": "6709d9862ff491b333820bf8b0eff21f", "lat": 38.902361666666664, "lon": -77.00200833333334, "bike_id": "6709d9862ff491b333820bf8b0eff21f", "rental_uris": {"ios": "https://dc.lft.to/lastmile_qr_scan", "android": "https://dc.lft.to/lastmile_qr_scan"}, "type": "electric_scooter", "fusion_lon": 0.0}, {"is_reserved": 0, "is_disabled": 0, "fusion_lat": 0.0, "name": "4221485ee020c56c73f68ec181bb368a", "lat": 38.80484583333333, "lon": -76.991065, "bike_id": "4221485ee020c56c73f68ec181bb368a", "rental_uris": {"ios": "https://dc.lft.to/lastmile_qr_scan", "android": "https://dc.lft.to/lastmile_qr_scan"}, "type": "electric_bike", "fusion_lon": 0.0}, {"is_reserved": 0, "is_disabled": 0, "fusion_lat": 0.0, "name": "8d815b5eaf5c1a12d18df0e613724caf", "lat": 38.86331633333333, "lon": -76.98718833333334, "bike_id": "8d815b5eaf5c1a12d18df0e613724caf", "rental_uris": {"ios": "https://dc.lft.to/lastmile_qr_scan", "android": "https://dc.lft.to/lastmile_qr_scan"}, "type": "electric_bike", "fusion_lon": 0.0}, {"is_reserved": 0, "is_disabled": 0, "fusion_lat": 0.0, "name": "6e7e45f112a872bc8ee717608044553f", "lat": 38.89412316666667, "lon": -77.01075933333334, "bike_id": "6e7e45f112a872bc8ee717608044553f", "rental_uris": {"ios": "https://dc.lft.to/lastmile_qr_scan", "android": "https://dc.lft.to/lastmile_qr_scan"}, "type": "electric_scooter", "fusion_lon": 0.0}, {"is_reserved": 0, "is_disabled": 0, "fusion_lat": 0.0, "name": "7a7d181f04bf6fb5e4ae3e3515ff889f", "lat": 38.9295235, "lon": -76.97564416666667, "bike_id": "7a7d181f04bf6fb5e4ae3e3515ff889f", "rental_uris": {"ios": "https://dc.lft.to/lastmile_qr_scan", "android": "https://dc.lft.to/lastmile_qr_scan"}, "type": "electric_bike", "fusion_lon": 0.0}, {"is_reserved": 0, "is_disabled": 0, "fusion_lat": 0.0, "name": "a96c2447ba2c5c3c09f5e288b7666e06", "lat": 38.9076045, "lon": -77.06894516666667, "bike_id": "a96c2447ba2c5c3c09f5e288b7666e06", "rental_uris": {"ios": "https://dc.lft.to/lastmile_qr_scan", "android": "https://dc.lft.to/lastmile_qr_scan"}, "type": "electric_scooter", "fusion_lon": 0.0}, {"is_reserved": 0, "is_disabled": 0, "fusion_lat": 0.0, "name": "af2e7449e8710a0b77f250c3318e77c2", "lat": 38.924463833333334, "lon": -77.022608, "bike_id": "af2e7449e8710a0b77f250c3318e77c2", "rental_uris": {"ios": "https://dc.lft.to/lastmile_qr_scan", "android": "https://dc.lft.to/lastmile_qr_scan"}, "type": "electric_scooter", "fusion_lon": 0.0}, {"is_reserved": 0, "is_disabled": 0, "fusion_lat": 0.0, "name": "3f3928b6f0a6f41f83087cf26a03e854", "lat": 38.87267216666667, "lon": -76.9756665, "bike_id": "3f3928b6f0a6f41f83087cf26a03e854", "rental_uris": {"ios": "https://dc.lft.to/lastmile_qr_scan", "android": "https://dc.lft.to/lastmile_qr_scan"}, "type": "electric_bike", "fusion_lon": 0.0}, {"is_reserved": 0, "is_disabled": 0, "fusion_lat": 0.0, "name": "00b6a939d6b8b02fe79d1cd4e274d941", "lat": 38.912753333333335, "lon": -77.02212083333333, "bike_id": "00b6a939d6b8b02fe79d1cd4e274d941", "rental_uris": {"ios": "https://dc.lft.to/lastmile_qr_scan", "android": "https://dc.lft.to/lastmile_qr_scan"}, "type": "electric_scooter", "fusion_lon": 0.0}, {"is_reserved": 0, "is_disabled": 0, "fusion_lat": 0.0, "name": "131f3b3d17e0a4b92e72a7f445eb167b", "lat": 38.92669933333333, "lon": -77.02310116666666, "bike_id": "131f3b3d17e0a4b92e72a7f445eb167b", "rental_uris": {"ios": "https://dc.lft.to/lastmile_qr_scan", "android": "https://dc.lft.to/lastmile_qr_scan"}, "type": "electric_scooter", "fusion_lon": 0.0}, {"is_reserved": 0, "is_disabled": 0, "fusion_lat": 0.0, "name": "81a343e9bf84ff4c0c9f437f7e5abe93", "lat": 38.871837666666664, "lon": -77.00619016666667, "bike_id": "81a343e9bf84ff4c0c9f437f7e5abe93", "rental_uris": {"ios": "https://dc.lft.to/lastmile_qr_scan", "android": "https://dc.lft.to/lastmile_qr_scan"}, "type": "electric_bike", "fusion_lon": 0.0}, {"is_reserved": 0, "is_disabled": 0, "fusion_lat": 0.0, "name": "ffcd38dfb70ed26a6e570f4487f48918", "lat": 38.917691166666664, "lon": -77.0360105, "bike_id": "ffcd38dfb70ed26a6e570f4487f48918", "rental_uris": {"ios": "https://dc.lft.to/lastmile_qr_scan", "android": "https://dc.lft.to/lastmile_qr_scan"}, "type": "electric_scooter", "fusion_lon": 0.0}, {"is_reserved": 0, "is_disabled": 0, "fusion_lat": 0.0, "name": "fbac2c746eeeaac3ee51854b25a63af5", "lat": 38.92860833333334, "lon": -77.03610166666667, "bike_id": "fbac2c746eeeaac3ee51854b25a63af5", "rental_uris": {"ios": "https://dc.lft.to/lastmile_qr_scan", "android": "https://dc.lft.to/lastmile_qr_scan"}, "type": "electric_scooter", "fusion_lon": 0.0}, {"is_reserved": 0, "is_disabled": 0, "fusion_lat": 0.0, "name": "5a061b8a66081f76040d4169d59935e3", "lat": 38.92047816666667, "lon": -77.023733, "bike_id": "5a061b8a66081f76040d4169d59935e3", "rental_uris": {"ios": "https://dc.lft.to/lastmile_qr_scan", "android": "https://dc.lft.to/lastmile_qr_scan"}, "type": "electric_scooter", "fusion_lon": 0.0}, {"is_reserved": 0, "is_disabled": 0, "fusion_lat": 0.0, "name": "69b08050a98ed7ef043186664e90368a", "lat": 38.921513, "lon": -77.04357533333334, "bike_id": "69b08050a98ed7ef043186664e90368a", "rental_uris": {"ios": "https://dc.lft.to/lastmile_qr_scan", "android": "https://dc.lft.to/lastmile_qr_scan"}, "type": "electric_scooter", "fusion_lon": 0.0}, {"is_reserved": 0, "is_disabled": 0, "fusion_lat": 0.0, "name": "654858a5136fbff666e61aa551b7f95d", "lat": 38.90034266666667, "lon": -77.04346516666666, "bike_id": "654858a5136fbff666e61aa551b7f95d", "rental_uris": {"ios": "https://dc.lft.to/lastmile_qr_scan", "android": "https://dc.lft.to/lastmile_qr_scan"}, "type": "electric_scooter", "fusion_lon": 0.0}, {"is_reserved": 0, "is_disabled": 0, "fusion_lat": 0.0, "name": "d7ef2abecad05bbcb51bfebf9bd9534e", "lat": 38.85549483333333, "lon": -76.98654933333333, "bike_id": "d7ef2abecad05bbcb51bfebf9bd9534e", "rental_uris": {"ios": "https://dc.lft.to/lastmile_qr_scan", "android": "https://dc.lft.to/lastmile_qr_scan"}, "type": "electric_scooter", "fusion_lon": 0.0}, {"is_reserved": 0, "is_disabled": 0, "fusion_lat": 0.0, "name": "3e66ffc022000e69e845ef56688d56a4", "lat": 38.91695716666667, "lon": -77.03221583333334, "bike_id": "3e66ffc022000e69e845ef56688d56a4", "rental_uris": {"ios": "https://dc.lft.to/lastmile_qr_scan", "android": "https://dc.lft.to/lastmile_qr_scan"}, "type": "electric_scooter", "fusion_lon": 0.0}, {"is_reserved": 0, "is_disabled": 0, "fusion_lat": 0.0, "name": "46235c76d1de4f09969bd6cc7d9b6f10", "lat": 38.974440666666666, "lon": -77.0961075, "bike_id": "46235c76d1de4f09969bd6cc7d9b6f10", "rental_uris": {"ios": "https://dc.lft.to/lastmile_qr_scan", "android": "https://dc.lft.to/lastmile_qr_scan"}, "type": "electric_bike", "fusion_lon": 0.0}, {"is_reserved": 0, "is_disabled": 0, "fusion_lat": 0.0, "name": "4421535c326e04ef88414c0a8a39078b", "lat": 38.90973066666667, "lon": -77.03219983333334, "bike_id": "4421535c326e04ef88414c0a8a39078b", "rental_uris": {"ios": "https://dc.lft.to/lastmile_qr_scan", "android": "https://dc.lft.to/lastmile_qr_scan"}, "type": "electric_scooter", "fusion_lon": 0.0}, {"is_reserved": 0, "is_disabled": 0, "fusion_lat": 0.0, "name": "531538c3fd7c78b1da6a00fda3eccc49", "lat": 38.900937, "lon": -77.02198416666667, "bike_id": "531538c3fd7c78b1da6a00fda3eccc49", "rental_uris": {"ios": "https://dc.lft.to/lastmile_qr_scan", "android": "https://dc.lft.to/lastmile_qr_scan"}, "type": "electric_scooter", "fusion_lon": 0.0}, {"is_reserved": 0, "is_disabled": 0, "fusion_lat": 0.0, "name": "537cfa40dd9a9353510476a7c9572567", "lat": 38.896200666666665, "lon": -76.90740666666667, "bike_id": "537cfa40dd9a9353510476a7c9572567", "rental_uris": {"ios": "https://dc.lft.to/lastmile_qr_scan", "android": "https://dc.lft.to/lastmile_qr_scan"}, "type": "electric_bike", "fusion_lon": 0.0}, {"is_reserved": 0, "is_disabled": 0, "fusion_lat": 0.0, "name": "1138529d4c15ec7bd800566f2d039520", "lat": 38.9179745, "lon": -77.0343975, "bike_id": "1138529d4c15ec7bd800566f2d039520", "rental_uris": {"ios": "https://dc.lft.to/lastmile_qr_scan", "android": "https://dc.lft.to/lastmile_qr_scan"}, "type": "electric_scooter", "fusion_lon": 0.0}, {"is_reserved": 0, "is_disabled": 0, "fusion_lat": 0.0, "name": "8188d73a7f0137c8232d52f6b65a1e77", "lat": 38.8851455, "lon": -76.92441083333334, "bike_id": "8188d73a7f0137c8232d52f6b65a1e77", "rental_uris": {"ios": "https://dc.lft.to/lastmile_qr_scan", "android": "https://dc.lft.to/lastmile_qr_scan"}, "type": "electric_scooter", "fusion_lon": 0.0}, {"is_reserved": 0, "is_disabled": 0, "fusion_lat": 0.0, "name": "bce5922e626b8f94b2a65f817c2b1dbb", "lat": 38.88536366666666, "lon": -76.98057266666666, "bike_id": "bce5922e626b8f94b2a65f817c2b1dbb", "rental_uris": {"ios": "https://dc.lft.to/lastmile_qr_scan", "android": "https://dc.lft.to/lastmile_qr_scan"}, "type": "electric_scooter", "fusion_lon": 0.0}, {"is_reserved": 0, "is_disabled": 0, "fusion_lat": 0.0, "name": "a6c0929eb6f0646f15d91fe05b8bbd10", "lat": 38.90250666666667, "lon": -76.97704433333334, "bike_id": "a6c0929eb6f0646f15d91fe05b8bbd10", "rental_uris": {"ios": "https://dc.lft.to/lastmile_qr_scan", "android": "https://dc.lft.to/lastmile_qr_scan"}, "type": "electric_scooter", "fusion_lon": 0.0}, {"is_reserved": 0, "is_disabled": 0, "fusion_lat": 0.0, "name": "e1cdb5ac81ad5a72010a8309d3000e3d", "lat": 38.93537416666667, "lon": -77.03476716666667, "bike_id": "e1cdb5ac81ad5a72010a8309d3000e3d", "rental_uris": {"ios": "https://dc.lft.to/lastmile_qr_scan", "android": "https://dc.lft.to/lastmile_qr_scan"}, "type": "electric_scooter", "fusion_lon": 0.0}, {"is_reserved": 0, "is_disabled": 0, "fusion_lat": 0.0, "name": "cb944bd9791a027b160ccbdaccd3fb5f", "lat": 38.924190833333334, "lon": -77.02015133333333, "bike_id": "cb944bd9791a027b160ccbdaccd3fb5f", "rental_uris": {"ios": "https://dc.lft.to/lastmile_qr_scan", "android": "https://dc.lft.to/lastmile_qr_scan"}, "type": "electric_scooter", "fusion_lon": 0.0}, {"is_reserved": 0, "is_disabled": 0, "fusion_lat": 0.0, "name": "0a1015e2a534538e64319610afaaf174", "lat": 38.91120383333333, "lon": -77.0336855, "bike_id": "0a1015e2a534538e64319610afaaf174", "rental_uris": {"ios": "https://dc.lft.to/lastmile_qr_scan", "android": "https://dc.lft.to/lastmile_qr_scan"}, "type": "electric_scooter", "fusion_lon": 0.0}, {"is_reserved": 0, "is_disabled": 0, "fusion_lat": 0.0, "name": "cb566a7747ff42b6216ffc78fddb313d", "lat": 38.904659, "lon": -77.05354216666667, "bike_id": "cb566a7747ff42b6216ffc78fddb313d", "rental_uris": {"ios": "https://dc.lft.to/lastmile_qr_scan", "android": "https://dc.lft.to/lastmile_qr_scan"}, "type": "electric_scooter", "fusion_lon": 0.0}, {"is_reserved": 0, "is_disabled": 0, "fusion_lat": 0.0, "name": "1e0bccd1af0eb9288913668339efeb50", "lat": 38.901694666666664, "lon": -77.02230866666666, "bike_id": "1e0bccd1af0eb9288913668339efeb50", "rental_uris": {"ios": "https://dc.lft.to/lastmile_qr_scan", "android": "https://dc.lft.to/lastmile_qr_scan"}, "type": "electric_scooter", "fusion_lon": 0.0}, {"is_reserved": 0, "is_disabled": 0, "fusion_lat": 0.0, "name": "e4101a8876223b0690ba48db1d7b8a2a", "lat": 38.91984683333333, "lon": -77.02170433333333, "bike_id": "e4101a8876223b0690ba48db1d7b8a2a", "rental_uris": {"ios": "https://dc.lft.to/lastmile_qr_scan", "android": "https://dc.lft.to/lastmile_qr_scan"}, "type": "electric_scooter", "fusion_lon": 0.0}, {"is_reserved": 0, "is_disabled": 0, "fusion_lat": 0.0, "name": "1ad9ef12cb1f0e0d64af36effc631af8", "lat": 38.9014105, "lon": -77.0398725, "bike_id": "1ad9ef12cb1f0e0d64af36effc631af8", "rental_uris": {"ios": "https://dc.lft.to/lastmile_qr_scan", "android": "https://dc.lft.to/lastmile_qr_scan"}, "type": "electric_scooter", "fusion_lon": 0.0}, {"is_reserved": 0, "is_disabled": 0, "fusion_lat": 0.0, "name": "78192856f60d05b4a148e8656bef3486", "lat": 38.92699616666667, "lon": -77.0241455, "bike_id": "78192856f60d05b4a148e8656bef3486", "rental_uris": {"ios": "https://dc.lft.to/lastmile_qr_scan", "android": "https://dc.lft.to/lastmile_qr_scan"}, "type": "electric_scooter", "fusion_lon": 0.0}, {"is_reserved": 0, "is_disabled": 0, "fusion_lat": 0.0, "name": "cc690d7d66fa17ce32d4c3c43de7f79c", "lat": 38.9224985, "lon": -77.01843133333334, "bike_id": "cc690d7d66fa17ce32d4c3c43de7f79c", "rental_uris": {"ios": "https://dc.lft.to/lastmile_qr_scan", "android": "https://dc.lft.to/lastmile_qr_scan"}, "type": "electric_scooter", "fusion_lon": 0.0}, {"is_reserved": 0, "is_disabled": 0, "fusion_lat": 0.0, "name": "460c73d775b60ed41f0d5ad276c35de2", "lat": 38.924159333333336, "lon": -77.02012433333333, "bike_id": "460c73d775b60ed41f0d5ad276c35de2", "rental_uris": {"ios": "https://dc.lft.to/lastmile_qr_scan", "android": "https://dc.lft.to/lastmile_qr_scan"}, "type": "electric_scooter", "fusion_lon": 0.0}, {"is_reserved": 0, "is_disabled": 0, "fusion_lat": 0.0, "name": "14ebc2f93e1299b5d40560a052ca95fc", "lat": 38.9240665, "lon": -77.02043083333334, "bike_id": "14ebc2f93e1299b5d40560a052ca95fc", "rental_uris": {"ios": "https://dc.lft.to/lastmile_qr_scan", "android": "https://dc.lft.to/lastmile_qr_scan"}, "type": "electric_scooter", "fusion_lon": 0.0}, {"is_reserved": 0, "is_disabled": 0, "fusion_lat": 0.0, "name": "55d0a5090e5a9e9c5ef2bb364f48e0ee", "lat": 38.913757, "lon": -77.04472433333333, "bike_id": "55d0a5090e5a9e9c5ef2bb364f48e0ee", "rental_uris": {"ios": "https://dc.lft.to/lastmile_qr_scan", "android": "https://dc.lft.to/lastmile_qr_scan"}, "type": "electric_scooter", "fusion_lon": 0.0}, {"is_reserved": 0, "is_disabled": 0, "fusion_lat": 0.0, "name": "adb87ae131524a27e2c4472e2971d762", "lat": 38.89298633333333, "lon": -77.012437, "bike_id": "adb87ae131524a27e2c4472e2971d762", "rental_uris": {"ios": "https://dc.lft.to/lastmile_qr_scan", "android": "https://dc.lft.to/lastmile_qr_scan"}, "type": "electric_scooter", "fusion_lon": 0.0}, {"is_reserved": 0, "is_disabled": 0, "fusion_lat": 0.0, "name": "ddcb12d9d274cba27b892a2fd0e91663", "lat": 38.88712233333333, "lon": -76.98382733333334, "bike_id": "ddcb12d9d274cba27b892a2fd0e91663", "rental_uris": {"ios": "https://dc.lft.to/lastmile_qr_scan", "android": "https://dc.lft.to/lastmile_qr_scan"}, "type": "electric_scooter", "fusion_lon": 0.0}, {"is_reserved": 0, "is_disabled": 0, "fusion_lat": 0.0, "name": "9162a914d8a822db5c786039c93d84e6", "lat": 38.924783, "lon": -77.022139, "bike_id": "9162a914d8a822db5c786039c93d84e6", "rental_uris": {"ios": "https://dc.lft.to/lastmile_qr_scan", "android": "https://dc.lft.to/lastmile_qr_scan"}, "type": "electric_scooter", "fusion_lon": 0.0}, {"is_reserved": 0, "is_disabled": 0, "fusion_lat": 0.0, "name": "a617d2121dc4a768c6206ba99857b658", "lat": 38.896586666666664, "lon": -77.0119025, "bike_id": "a617d2121dc4a768c6206ba99857b658", "rental_uris": {"ios": "https://dc.lft.to/lastmile_qr_scan", "android": "https://dc.lft.to/lastmile_qr_scan"}, "type": "electric_scooter", "fusion_lon": 0.0}, {"is_reserved": 0, "is_disabled": 0, "fusion_lat": 0.0, "name": "5e8eb5def8b518f45f632df85c32bcf5", "lat": 38.914068666666665, "lon": -77.03261933333333, "bike_id": "5e8eb5def8b518f45f632df85c32bcf5", "rental_uris": {"ios": "https://dc.lft.to/lastmile_qr_scan", "android": "https://dc.lft.to/lastmile_qr_scan"}, "type": "electric_scooter", "fusion_lon": 0.0}, {"is_reserved": 0, "is_disabled": 0, "fusion_lat": 0.0, "name": "c6609625b2cf7b3e87a21c1cdf47adfd", "lat": 38.92375466666667, "lon": -77.04298966666667, "bike_id": "c6609625b2cf7b3e87a21c1cdf47adfd", "rental_uris": {"ios": "https://dc.lft.to/lastmile_qr_scan", "android": "https://dc.lft.to/lastmile_qr_scan"}, "type": "electric_scooter", "fusion_lon": 0.0}, {"is_reserved": 0, "is_disabled": 0, "fusion_lat": 0.0, "name": "6054e95fd503f54f8463c66e04438897", "lat": 38.8827215, "lon": -76.995238, "bike_id": "6054e95fd503f54f8463c66e04438897", "rental_uris": {"ios": "https://dc.lft.to/lastmile_qr_scan", "android": "https://dc.lft.to/lastmile_qr_scan"}, "type": "electric_scooter", "fusion_lon": 0.0}, {"is_reserved": 0, "is_disabled": 0, "fusion_lat": 0.0, "name": "e3301b1642ff55161b917ab5dbfadbb4", "lat": 38.91693016666667, "lon": -77.0377585, "bike_id": "e3301b1642ff55161b917ab5dbfadbb4", "rental_uris": {"ios": "https://dc.lft.to/lastmile_qr_scan", "android": "https://dc.lft.to/lastmile_qr_scan"}, "type": "electric_scooter", "fusion_lon": 0.0}, {"is_reserved": 0, "is_disabled": 0, "fusion_lat": 0.0, "name": "6ed60fc47f79e63c9624a5d9de4c8fab", "lat": 38.924261333333334, "lon": -77.0194825, "bike_id": "6ed60fc47f79e63c9624a5d9de4c8fab", "rental_uris": {"ios": "https://dc.lft.to/lastmile_qr_scan", "android": "https://dc.lft.to/lastmile_qr_scan"}, "type": "electric_scooter", "fusion_lon": 0.0}, {"is_reserved": 0, "is_disabled": 0, "fusion_lat": 0.0, "name": "bab8ea1cea843ef18f8e6e73171b08c1", "lat": 38.920568833333334, "lon": -77.02460316666667, "bike_id": "bab8ea1cea843ef18f8e6e73171b08c1", "rental_uris": {"ios": "https://dc.lft.to/lastmile_qr_scan", "android": "https://dc.lft.to/lastmile_qr_scan"}, "type": "electric_scooter", "fusion_lon": 0.0}, {"is_reserved": 0, "is_disabled": 0, "fusion_lat": 0.0, "name": "e5617302a0b799d0b232c7782787c667", "lat": 38.90478866666667, "lon": -77.01694466666666, "bike_id": "e5617302a0b799d0b232c7782787c667", "rental_uris": {"ios": "https://dc.lft.to/lastmile_qr_scan", "android": "https://dc.lft.to/lastmile_qr_scan"}, "type": "electric_scooter", "fusion_lon": 0.0}, {"is_reserved": 0, "is_disabled": 0, "fusion_lat": 0.0, "name": "e298c060eb17b31e7cedbf29fc0fbacd", "lat": 38.90076583333333, "lon": -77.0503925, "bike_id": "e298c060eb17b31e7cedbf29fc0fbacd", "rental_uris": {"ios": "https://dc.lft.to/lastmile_qr_scan", "android": "https://dc.lft.to/lastmile_qr_scan"}, "type": "electric_scooter", "fusion_lon": 0.0}, {"is_reserved": 0, "is_disabled": 0, "fusion_lat": 0.0, "name": "6ecc4af18235f47daea67e1d1f52a819", "lat": 38.91635633333333, "lon": -77.025547, "bike_id": "6ecc4af18235f47daea67e1d1f52a819", "rental_uris": {"ios": "https://dc.lft.to/lastmile_qr_scan", "android": "https://dc.lft.to/lastmile_qr_scan"}, "type": "electric_scooter", "fusion_lon": 0.0}, {"is_reserved": 0, "is_disabled": 0, "fusion_lat": 0.0, "name": "3237f651157f392d73507380ac281096", "lat": 38.9152395, "lon": -77.02185033333333, "bike_id": "3237f651157f392d73507380ac281096", "rental_uris": {"ios": "https://dc.lft.to/lastmile_qr_scan", "android": "https://dc.lft.to/lastmile_qr_scan"}, "type": "electric_scooter", "fusion_lon": 0.0}, {"is_reserved": 0, "is_disabled": 0, "fusion_lat": 0.0, "name": "fbba306e4ffe99b8f7e6207d30ffbde7", "lat": 38.91627883333334, "lon": -77.00499433333333, "bike_id": "fbba306e4ffe99b8f7e6207d30ffbde7", "rental_uris": {"ios": "https://dc.lft.to/lastmile_qr_scan", "android": "https://dc.lft.to/lastmile_qr_scan"}, "type": "electric_scooter", "fusion_lon": 0.0}, {"is_reserved": 0, "is_disabled": 0, "fusion_lat": 0.0, "name": "67e1c95e1156001c7776c1f6223b8b1d", "lat": 38.93029133333334, "lon": -77.03806716666666, "bike_id": "67e1c95e1156001c7776c1f6223b8b1d", "rental_uris": {"ios": "https://dc.lft.to/lastmile_qr_scan", "android": "https://dc.lft.to/lastmile_qr_scan"}, "type": "electric_scooter", "fusion_lon": 0.0}, {"is_reserved": 0, "is_disabled": 0, "fusion_lat": 0.0, "name": "d5baa05d5e826258907db873cff53365", "lat": 38.8971945, "lon": -77.031788, "bike_id": "d5baa05d5e826258907db873cff53365", "rental_uris": {"ios": "https://dc.lft.to/lastmile_qr_scan", "android": "https://dc.lft.to/lastmile_qr_scan"}, "type": "electric_scooter", "fusion_lon": 0.0}, {"is_reserved": 0, "is_disabled": 0, "fusion_lat": 0.0, "name": "8acc6e6d486b7b908e90cce4142a230c", "lat": 38.90533466666667, "lon": -77.0502585, "bike_id": "8acc6e6d486b7b908e90cce4142a230c", "rental_uris": {"ios": "https://dc.lft.to/lastmile_qr_scan", "android": "https://dc.lft.to/lastmile_qr_scan"}, "type": "electric_scooter", "fusion_lon": 0.0}, {"is_reserved": 0, "is_disabled": 0, "fusion_lat": 0.0, "name": "dc213ab217e697152cb5ebeef93a3b6d", "lat": 38.947305166666666, "lon": -77.01939333333333, "bike_id": "dc213ab217e697152cb5ebeef93a3b6d", "rental_uris": {"ios": "https://dc.lft.to/lastmile_qr_scan", "android": "https://dc.lft.to/lastmile_qr_scan"}, "type": "electric_scooter", "fusion_lon": 0.0}, {"is_reserved": 0, "is_disabled": 0, "fusion_lat": 0.0, "name": "223c453393b064edeb9071df182b3735", "lat": 38.90343266666667, "lon": -76.97493366666667, "bike_id": "223c453393b064edeb9071df182b3735", "rental_uris": {"ios": "https://dc.lft.to/lastmile_qr_scan", "android": "https://dc.lft.to/lastmile_qr_scan"}, "type": "electric_scooter", "fusion_lon": 0.0}, {"is_reserved": 0, "is_disabled": 0, "fusion_lat": 0.0, "name": "0f7804177822b37a3c71664afb3f7d09", "lat": 38.9142515, "lon": -76.984479, "bike_id": "0f7804177822b37a3c71664afb3f7d09", "rental_uris": {"ios": "https://dc.lft.to/lastmile_qr_scan", "android": "https://dc.lft.to/lastmile_qr_scan"}, "type": "electric_scooter", "fusion_lon": 0.0}, {"is_reserved": 0, "is_disabled": 0, "fusion_lat": 0.0, "name": "92310cae2f087e0e5f32a67837d3a904", "lat": 38.899149666666666, "lon": -77.0037025, "bike_id": "92310cae2f087e0e5f32a67837d3a904", "rental_uris": {"ios": "https://dc.lft.to/lastmile_qr_scan", "android": "https://dc.lft.to/lastmile_qr_scan"}, "type": "electric_scooter", "fusion_lon": 0.0}, {"is_reserved": 0, "is_disabled": 0, "fusion_lat": 0.0, "name": "3dfa5b3507a8551f1510e36c29f9b928", "lat": 38.92395166666667, "lon": -77.03412916666667, "bike_id": "3dfa5b3507a8551f1510e36c29f9b928", "rental_uris": {"ios": "https://dc.lft.to/lastmile_qr_scan", "android": "https://dc.lft.to/lastmile_qr_scan"}, "type": "electric_scooter", "fusion_lon": 0.0}, {"is_reserved": 0, "is_disabled": 0, "fusion_lat": 0.0, "name": "aa9674c044b09dbe67a5fb33e4673133", "lat": 38.92650283333333, "lon": -77.09019083333334, "bike_id": "aa9674c044b09dbe67a5fb33e4673133", "rental_uris": {"ios": "https://dc.lft.to/lastmile_qr_scan", "android": "https://dc.lft.to/lastmile_qr_scan"}, "type": "electric_bike", "fusion_lon": 0.0}, {"is_reserved": 0, "is_disabled": 0, "fusion_lat": 0.0, "name": "79420e4dc00ef67404c8f8cc80e78b68", "lat": 38.89843716666667, "lon": -77.04668933333333, "bike_id": "79420e4dc00ef67404c8f8cc80e78b68", "rental_uris": {"ios": "https://dc.lft.to/lastmile_qr_scan", "android": "https://dc.lft.to/lastmile_qr_scan"}, "type": "electric_scooter", "fusion_lon": 0.0}, {"is_reserved": 0, "is_disabled": 0, "fusion_lat": 0.0, "name": "c149f1840f642d39744d4b6808d6adac", "lat": 38.91766166666667, "lon": -77.0231415, "bike_id": "c149f1840f642d39744d4b6808d6adac", "rental_uris": {"ios": "https://dc.lft.to/lastmile_qr_scan", "android": "https://dc.lft.to/lastmile_qr_scan"}, "type": "electric_scooter", "fusion_lon": 0.0}, {"is_reserved": 0, "is_disabled": 0, "fusion_lat": 0.0, "name": "dc793d60a609a151d1d823ea3545d58a", "lat": 38.923314500000004, "lon": -77.02809433333333, "bike_id": "dc793d60a609a151d1d823ea3545d58a", "rental_uris": {"ios": "https://dc.lft.to/lastmile_qr_scan", "android": "https://dc.lft.to/lastmile_qr_scan"}, "type": "electric_scooter", "fusion_lon": 0.0}, {"is_reserved": 0, "is_disabled": 0, "fusion_lat": 0.0, "name": "29561f2095226af683430aa947188190", "lat": 38.923638, "lon": -77.02059333333334, "bike_id": "29561f2095226af683430aa947188190", "rental_uris": {"ios": "https://dc.lft.to/lastmile_qr_scan", "android": "https://dc.lft.to/lastmile_qr_scan"}, "type": "electric_scooter", "fusion_lon": 0.0}, {"is_reserved": 0, "is_disabled": 0, "fusion_lat": 0.0, "name": "7b79f58f1c52f001520c9e84d867e96a", "lat": 38.97411983333333, "lon": -76.98414933333333, "bike_id": "7b79f58f1c52f001520c9e84d867e96a", "rental_uris": {"ios": "https://dc.lft.to/lastmile_qr_scan", "android": "https://dc.lft.to/lastmile_qr_scan"}, "type": "electric_bike", "fusion_lon": 0.0}, {"is_reserved": 0, "is_disabled": 0, "fusion_lat": 0.0, "name": "387314e768a646b9c7b5d495414c3ba8", "lat": 38.89561583333333, "lon": -77.0296985, "bike_id": "387314e768a646b9c7b5d495414c3ba8", "rental_uris": {"ios": "https://dc.lft.to/lastmile_qr_scan", "android": "https://dc.lft.to/lastmile_qr_scan"}, "type": "electric_scooter", "fusion_lon": 0.0}, {"is_reserved": 0, "is_disabled": 0, "fusion_lat": 0.0, "name": "1c63ab933e79123cdb4a822083db65c7", "lat": 38.88940016666667, "lon": -77.07867883333333, "bike_id": "1c63ab933e79123cdb4a822083db65c7", "rental_uris": {"ios": "https://dc.lft.to/lastmile_qr_scan", "android": "https://dc.lft.to/lastmile_qr_scan"}, "type": "electric_bike", "fusion_lon": 0.0}, {"is_reserved": 0, "is_disabled": 0, "fusion_lat": 0.0, "name": "aad3a9e4c6387c09593579808916fcf8", "lat": 38.91881266666667, "lon": -76.9643025, "bike_id": "aad3a9e4c6387c09593579808916fcf8", "rental_uris": {"ios": "https://dc.lft.to/lastmile_qr_scan", "android": "https://dc.lft.to/lastmile_qr_scan"}, "type": "electric_bike", "fusion_lon": 0.0}, {"is_reserved": 0, "is_disabled": 0, "fusion_lat": 0.0, "name": "b4fb8b2d8ac19cdc37404d4c230aa109", "lat": 38.910218, "lon": -77.03842466666667, "bike_id": "b4fb8b2d8ac19cdc37404d4c230aa109", "rental_uris": {"ios": "https://dc.lft.to/lastmile_qr_scan", "android": "https://dc.lft.to/lastmile_qr_scan"}, "type": "electric_scooter", "fusion_lon": 0.0}, {"is_reserved": 0, "is_disabled": 0, "fusion_lat": 0.0, "name": "37d3b24b4aa10bee536892d08dda5382", "lat": 38.8877025, "lon": -76.97730633333333, "bike_id": "37d3b24b4aa10bee536892d08dda5382", "rental_uris": {"ios": "https://dc.lft.to/lastmile_qr_scan", "android": "https://dc.lft.to/lastmile_qr_scan"}, "type": "electric_scooter", "fusion_lon": 0.0}, {"is_reserved": 0, "is_disabled": 0, "fusion_lat": 0.0, "name": "478d1f6a71c4a1f387026a2533235913", "lat": 38.92234766666667, "lon": -77.028271, "bike_id": "478d1f6a71c4a1f387026a2533235913", "rental_uris": {"ios": "https://dc.lft.to/lastmile_qr_scan", "android": "https://dc.lft.to/lastmile_qr_scan"}, "type": "electric_scooter", "fusion_lon": 0.0}, {"is_reserved": 0, "is_disabled": 0, "fusion_lat": 0.0, "name": "5611366e6acc38e07ec3cb6e2dbeb143", "lat": 38.835905833333335, "lon": -76.9901145, "bike_id": "5611366e6acc38e07ec3cb6e2dbeb143", "rental_uris": {"ios": "https://dc.lft.to/lastmile_qr_scan", "android": "https://dc.lft.to/lastmile_qr_scan"}, "type": "electric_bike", "fusion_lon": 0.0}, {"is_reserved": 0, "is_disabled": 0, "fusion_lat": 0.0, "name": "e6a40e0a815e342963ec6079fda5ae64", "lat": 38.967382666666666, "lon": -77.08911116666667, "bike_id": "e6a40e0a815e342963ec6079fda5ae64", "rental_uris": {"ios": "https://dc.lft.to/lastmile_qr_scan", "android": "https://dc.lft.to/lastmile_qr_scan"}, "type": "electric_bike", "fusion_lon": 0.0}, {"is_reserved": 0, "is_disabled": 0, "fusion_lat": 0.0, "name": "ec8ba7a8cee1f2a983a948473737a214", "lat": 38.933314833333334, "lon": -77.029213, "bike_id": "ec8ba7a8cee1f2a983a948473737a214", "rental_uris": {"ios": "https://dc.lft.to/lastmile_qr_scan", "android": "https://dc.lft.to/lastmile_qr_scan"}, "type": "electric_scooter", "fusion_lon": 0.0}, {"is_reserved": 0, "is_disabled": 0, "fusion_lat": 0.0, "name": "14199cedf5b3f8ea72bbe912a2e191f3", "lat": 38.9202395, "lon": -77.04193966666666, "bike_id": "14199cedf5b3f8ea72bbe912a2e191f3", "rental_uris": {"ios": "https://dc.lft.to/lastmile_qr_scan", "android": "https://dc.lft.to/lastmile_qr_scan"}, "type": "electric_scooter", "fusion_lon": 0.0}, {"is_reserved": 0, "is_disabled": 0, "fusion_lat": 0.0, "name": "773b662f05fde1c2f51a0e2cd787e8ae", "lat": 38.8876145, "lon": -77.00049983333334, "bike_id": "773b662f05fde1c2f51a0e2cd787e8ae", "rental_uris": {"ios": "https://dc.lft.to/lastmile_qr_scan", "android": "https://dc.lft.to/lastmile_qr_scan"}, "type": "electric_scooter", "fusion_lon": 0.0}, {"is_reserved": 0, "is_disabled": 0, "fusion_lat": 0.0, "name": "71a2b5a55b785cb49f84a8f08d20628c", "lat": 38.92056316666667, "lon": -77.0230085, "bike_id": "71a2b5a55b785cb49f84a8f08d20628c", "rental_uris": {"ios": "https://dc.lft.to/lastmile_qr_scan", "android": "https://dc.lft.to/lastmile_qr_scan"}, "type": "electric_scooter", "fusion_lon": 0.0}, {"is_reserved": 0, "is_disabled": 0, "fusion_lat": 0.0, "name": "88ed64b548949417878ecde5ff8867fd", "lat": 38.863714333333334, "lon": -76.9701595, "bike_id": "88ed64b548949417878ecde5ff8867fd", "rental_uris": {"ios": "https://dc.lft.to/lastmile_qr_scan", "android": "https://dc.lft.to/lastmile_qr_scan"}, "type": "electric_bike", "fusion_lon": 0.0}, {"is_reserved": 0, "is_disabled": 0, "fusion_lat": 0.0, "name": "2bbfd34c00e612efe8c2cd8f4b175a94", "lat": 38.956361666666666, "lon": -76.93865966666667, "bike_id": "2bbfd34c00e612efe8c2cd8f4b175a94", "rental_uris": {"ios": "https://dc.lft.to/lastmile_qr_scan", "android": "https://dc.lft.to/lastmile_qr_scan"}, "type": "electric_bike", "fusion_lon": 0.0}, {"is_reserved": 0, "is_disabled": 0, "fusion_lat": 0.0, "name": "8e89f82f874ccab33ea8e0e79d375f22", "lat": 38.91546183333333, "lon": -77.04454016666666, "bike_id": "8e89f82f874ccab33ea8e0e79d375f22", "rental_uris": {"ios": "https://dc.lft.to/lastmile_qr_scan", "android": "https://dc.lft.to/lastmile_qr_scan"}, "type": "electric_scooter", "fusion_lon": 0.0}, {"is_reserved": 0, "is_disabled": 0, "fusion_lat": 0.0, "name": "b3df2dde923c3358fc1f16d9ced69589", "lat": 38.90661466666667, "lon": -77.00923166666666, "bike_id": "b3df2dde923c3358fc1f16d9ced69589", "rental_uris": {"ios": "https://dc.lft.to/lastmile_qr_scan", "android": "https://dc.lft.to/lastmile_qr_scan"}, "type": "electric_scooter", "fusion_lon": 0.0}, {"is_reserved": 0, "is_disabled": 0, "fusion_lat": 0.0, "name": "d8b5fee9aa9abfb07f15e525ad27a850", "lat": 38.920662166666666, "lon": -77.0320355, "bike_id": "d8b5fee9aa9abfb07f15e525ad27a850", "rental_uris": {"ios": "https://dc.lft.to/lastmile_qr_scan", "android": "https://dc.lft.to/lastmile_qr_scan"}, "type": "electric_scooter", "fusion_lon": 0.0}, {"is_reserved": 0, "is_disabled": 0, "fusion_lat": 0.0, "name": "2ee6e2494ed4b287f23cf5ca6a180cc2", "lat": 38.913178, "lon": -77.02862916666666, "bike_id": "2ee6e2494ed4b287f23cf5ca6a180cc2", "rental_uris": {"ios": "https://dc.lft.to/lastmile_qr_scan", "android": "https://dc.lft.to/lastmile_qr_scan"}, "type": "electric_scooter", "fusion_lon": 0.0}, {"is_reserved": 0, "is_disabled": 0, "fusion_lat": 0.0, "name": "a496b927f3eca9bfe7839b895b45b8a1", "lat": 39.02624633333333, "lon": -77.03883166666667, "bike_id": "a496b927f3eca9bfe7839b895b45b8a1", "rental_uris": {"ios": "https://dc.lft.to/lastmile_qr_scan", "android": "https://dc.lft.to/lastmile_qr_scan"}, "type": "electric_bike", "fusion_lon": 0.0}, {"is_reserved": 0, "is_disabled": 0, "fusion_lat": 0.0, "name": "781e0f899aae622f593402b0d6bbaf2d", "lat": 38.857878166666666, "lon": -76.98754266666667, "bike_id": "781e0f899aae622f593402b0d6bbaf2d", "rental_uris": {"ios": "https://dc.lft.to/lastmile_qr_scan", "android": "https://dc.lft.to/lastmile_qr_scan"}, "type": "electric_bike", "fusion_lon": 0.0}, {"is_reserved": 0, "is_disabled": 0, "fusion_lat": 0.0, "name": "cde96fce6501c0cffe872e33136395a6", "lat": 38.875154333333334, "lon": -77.0048725, "bike_id": "cde96fce6501c0cffe872e33136395a6", "rental_uris": {"ios": "https://dc.lft.to/lastmile_qr_scan", "android": "https://dc.lft.to/lastmile_qr_scan"}, "type": "electric_scooter", "fusion_lon": 0.0}, {"is_reserved": 0, "is_disabled": 0, "fusion_lat": 0.0, "name": "55b6628d58139d2f1bdfd8d1d3b0f9c2", "lat": 38.927149666666665, "lon": -77.059929, "bike_id": "55b6628d58139d2f1bdfd8d1d3b0f9c2", "rental_uris": {"ios": "https://dc.lft.to/lastmile_qr_scan", "android": "https://dc.lft.to/lastmile_qr_scan"}, "type": "electric_scooter", "fusion_lon": 0.0}, {"is_reserved": 0, "is_disabled": 0, "fusion_lat": 0.0, "name": "968ddd0dbe00c5862675512004d76a05", "lat": 38.94324116666667, "lon": -77.07325283333333, "bike_id": "968ddd0dbe00c5862675512004d76a05", "rental_uris": {"ios": "https://dc.lft.to/lastmile_qr_scan", "android": "https://dc.lft.to/lastmile_qr_scan"}, "type": "electric_scooter", "fusion_lon": 0.0}, {"is_reserved": 0, "is_disabled": 0, "fusion_lat": 0.0, "name": "6e0ad76ba932e15e9cc1348aa57fb71a", "lat": 38.90033866666667, "lon": -77.011625, "bike_id": "6e0ad76ba932e15e9cc1348aa57fb71a", "rental_uris": {"ios": "https://dc.lft.to/lastmile_qr_scan", "android": "https://dc.lft.to/lastmile_qr_scan"}, "type": "electric_scooter", "fusion_lon": 0.0}, {"is_reserved": 0, "is_disabled": 0, "fusion_lat": 0.0, "name": "babccdafcb2c4257b0ce2f9550920865", "lat": 38.91628216666667, "lon": -77.04810983333333, "bike_id": "babccdafcb2c4257b0ce2f9550920865", "rental_uris": {"ios": "https://dc.lft.to/lastmile_qr_scan", "android": "https://dc.lft.to/lastmile_qr_scan"}, "type": "electric_scooter", "fusion_lon": 0.0}, {"is_reserved": 0, "is_disabled": 0, "fusion_lat": 0.0, "name": "610055e75711b7e5d232a9aafe086e58", "lat": 38.902206166666666, "lon": -77.02675233333333, "bike_id": "610055e75711b7e5d232a9aafe086e58", "rental_uris": {"ios": "https://dc.lft.to/lastmile_qr_scan", "android": "https://dc.lft.to/lastmile_qr_scan"}, "type": "electric_scooter", "fusion_lon": 0.0}, {"is_reserved": 0, "is_disabled": 0, "fusion_lat": 0.0, "name": "a0bf11e594982ec137c60cac7df9751c", "lat": 38.920516, "lon": -77.0241165, "bike_id": "a0bf11e594982ec137c60cac7df9751c", "rental_uris": {"ios": "https://dc.lft.to/lastmile_qr_scan", "android": "https://dc.lft.to/lastmile_qr_scan"}, "type": "electric_scooter", "fusion_lon": 0.0}, {"is_reserved": 0, "is_disabled": 0, "fusion_lat": 0.0, "name": "7f62f55321a85575b925e7a85b10a651", "lat": 38.915988, "lon": -76.98384383333334, "bike_id": "7f62f55321a85575b925e7a85b10a651", "rental_uris": {"ios": "https://dc.lft.to/lastmile_qr_scan", "android": "https://dc.lft.to/lastmile_qr_scan"}, "type": "electric_scooter", "fusion_lon": 0.0}, {"is_reserved": 0, "is_disabled": 0, "fusion_lat": 0.0, "name": "30e5f599935d1acbcdfa19bb8b295718", "lat": 38.909550833333334, "lon": -76.98539316666667, "bike_id": "30e5f599935d1acbcdfa19bb8b295718", "rental_uris": {"ios": "https://dc.lft.to/lastmile_qr_scan", "android": "https://dc.lft.to/lastmile_qr_scan"}, "type": "electric_scooter", "fusion_lon": 0.0}, {"is_reserved": 0, "is_disabled": 0, "fusion_lat": 0.0, "name": "dfa4b64fdf3134be5ae2ccaf8a7a498a", "lat": 38.918616, "lon": -77.04181283333334, "bike_id": "dfa4b64fdf3134be5ae2ccaf8a7a498a", "rental_uris": {"ios": "https://dc.lft.to/lastmile_qr_scan", "android": "https://dc.lft.to/lastmile_qr_scan"}, "type": "electric_scooter", "fusion_lon": 0.0}, {"is_reserved": 0, "is_disabled": 0, "fusion_lat": 0.0, "name": "dccf204d8635098c21a12070c6419086", "lat": 38.91546183333333, "lon": -77.0240445, "bike_id": "dccf204d8635098c21a12070c6419086", "rental_uris": {"ios": "https://dc.lft.to/lastmile_qr_scan", "android": "https://dc.lft.to/lastmile_qr_scan"}, "type": "electric_scooter", "fusion_lon": 0.0}, {"is_reserved": 0, "is_disabled": 0, "fusion_lat": 0.0, "name": "5201f4eb1f711c262d028e2d21c4c386", "lat": 38.897409, "lon": -77.03205966666667, "bike_id": "5201f4eb1f711c262d028e2d21c4c386", "rental_uris": {"ios": "https://dc.lft.to/lastmile_qr_scan", "android": "https://dc.lft.to/lastmile_qr_scan"}, "type": "electric_scooter", "fusion_lon": 0.0}, {"is_reserved": 0, "is_disabled": 0, "fusion_lat": 0.0, "name": "597b2f841b0b3c40f0e1bf05d632da0a", "lat": 38.91074883333334, "lon": -77.027252, "bike_id": "597b2f841b0b3c40f0e1bf05d632da0a", "rental_uris": {"ios": "https://dc.lft.to/lastmile_qr_scan", "android": "https://dc.lft.to/lastmile_qr_scan"}, "type": "electric_scooter", "fusion_lon": 0.0}, {"is_reserved": 0, "is_disabled": 0, "fusion_lat": 0.0, "name": "da7c762754bf7dd49ba14319dc748d32", "lat": 38.91422083333333, "lon": -77.03190333333333, "bike_id": "da7c762754bf7dd49ba14319dc748d32", "rental_uris": {"ios": "https://dc.lft.to/lastmile_qr_scan", "android": "https://dc.lft.to/lastmile_qr_scan"}, "type": "electric_scooter", "fusion_lon": 0.0}, {"is_reserved": 0, "is_disabled": 0, "fusion_lat": 0.0, "name": "5b3f932a0ce5d912780d38e3265fc1fa", "lat": 38.874310666666666, "lon": -77.00056266666667, "bike_id": "5b3f932a0ce5d912780d38e3265fc1fa", "rental_uris": {"ios": "https://dc.lft.to/lastmile_qr_scan", "android": "https://dc.lft.to/lastmile_qr_scan"}, "type": "electric_scooter", "fusion_lon": 0.0}, {"is_reserved": 0, "is_disabled": 0, "fusion_lat": 0.0, "name": "c3eda0c0c08f46d569871deb0e61ce34", "lat": 38.903078666666666, "lon": -77.04013633333334, "bike_id": "c3eda0c0c08f46d569871deb0e61ce34", "rental_uris": {"ios": "https://dc.lft.to/lastmile_qr_scan", "android": "https://dc.lft.to/lastmile_qr_scan"}, "type": "electric_scooter", "fusion_lon": 0.0}, {"is_reserved": 0, "is_disabled": 0, "fusion_lat": 0.0, "name": "43cd5da65a96ecf045291555c36d64a1", "lat": 38.91281633333333, "lon": -77.06793433333333, "bike_id": "43cd5da65a96ecf045291555c36d64a1", "rental_uris": {"ios": "https://dc.lft.to/lastmile_qr_scan", "android": "https://dc.lft.to/lastmile_qr_scan"}, "type": "electric_scooter", "fusion_lon": 0.0}, {"is_reserved": 0, "is_disabled": 0, "fusion_lat": 0.0, "name": "329fe6267e73459fb654845f922680a9", "lat": 38.91773833333333, "lon": -77.0237285, "bike_id": "329fe6267e73459fb654845f922680a9", "rental_uris": {"ios": "https://dc.lft.to/lastmile_qr_scan", "android": "https://dc.lft.to/lastmile_qr_scan"}, "type": "electric_scooter", "fusion_lon": 0.0}, {"is_reserved": 0, "is_disabled": 0, "fusion_lat": 0.0, "name": "b9afe0584aa79c2aaf8ddbc827e52943", "lat": 38.887761166666664, "lon": -76.977328, "bike_id": "b9afe0584aa79c2aaf8ddbc827e52943", "rental_uris": {"ios": "https://dc.lft.to/lastmile_qr_scan", "android": "https://dc.lft.to/lastmile_qr_scan"}, "type": "electric_scooter", "fusion_lon": 0.0}, {"is_reserved": 0, "is_disabled": 0, "fusion_lat": 0.0, "name": "4d169600c013637238e64e9529bbba66", "lat": 38.9034675, "lon": -77.03999516666667, "bike_id": "4d169600c013637238e64e9529bbba66", "rental_uris": {"ios": "https://dc.lft.to/lastmile_qr_scan", "android": "https://dc.lft.to/lastmile_qr_scan"}, "type": "electric_scooter", "fusion_lon": 0.0}, {"is_reserved": 0, "is_disabled": 0, "fusion_lat": 0.0, "name": "cfdf519cc60d86982822404d548a5f75", "lat": 38.924318166666666, "lon": -77.0195605, "bike_id": "cfdf519cc60d86982822404d548a5f75", "rental_uris": {"ios": "https://dc.lft.to/lastmile_qr_scan", "android": "https://dc.lft.to/lastmile_qr_scan"}, "type": "electric_scooter", "fusion_lon": 0.0}, {"is_reserved": 0, "is_disabled": 0, "fusion_lat": 0.0, "name": "192b16768f7b0deeb43081981111c2b0", "lat": 38.887729666666665, "lon": -76.97732316666666, "bike_id": "192b16768f7b0deeb43081981111c2b0", "rental_uris": {"ios": "https://dc.lft.to/lastmile_qr_scan", "android": "https://dc.lft.to/lastmile_qr_scan"}, "type": "electric_scooter", "fusion_lon": 0.0}, {"is_reserved": 0, "is_disabled": 0, "fusion_lat": 0.0, "name": "158464750adafeffcccf808351af51e2", "lat": 38.905112333333335, "lon": -77.0629785, "bike_id": "158464750adafeffcccf808351af51e2", "rental_uris": {"ios": "https://dc.lft.to/lastmile_qr_scan", "android": "https://dc.lft.to/lastmile_qr_scan"}, "type": "electric_scooter", "fusion_lon": 0.0}, {"is_reserved": 0, "is_disabled": 0, "fusion_lat": 0.0, "name": "1762c8f702e9c4106bc395489fd5a632", "lat": 38.91856416666667, "lon": -77.04035383333333, "bike_id": "1762c8f702e9c4106bc395489fd5a632", "rental_uris": {"ios": "https://dc.lft.to/lastmile_qr_scan", "android": "https://dc.lft.to/lastmile_qr_scan"}, "type": "electric_scooter", "fusion_lon": 0.0}, {"is_reserved": 0, "is_disabled": 0, "fusion_lat": 0.0, "name": "687eefe4af67686e1662be7a4aca43b1", "lat": 38.9362065, "lon": -77.02479416666667, "bike_id": "687eefe4af67686e1662be7a4aca43b1", "rental_uris": {"ios": "https://dc.lft.to/lastmile_qr_scan", "android": "https://dc.lft.to/lastmile_qr_scan"}, "type": "electric_scooter", "fusion_lon": 0.0}, {"is_reserved": 0, "is_disabled": 0, "fusion_lat": 0.0, "name": "13e45d8992aaafa1b2deb75b4ad8609b", "lat": 38.899472, "lon": -76.93777566666667, "bike_id": "13e45d8992aaafa1b2deb75b4ad8609b", "rental_uris": {"ios": "https://dc.lft.to/lastmile_qr_scan", "android": "https://dc.lft.to/lastmile_qr_scan"}, "type": "electric_scooter", "fusion_lon": 0.0}, {"is_reserved": 0, "is_disabled": 0, "fusion_lat": 0.0, "name": "ba40a98dcd5773b533ca92911dc3b122", "lat": 38.91269966666667, "lon": -77.047728, "bike_id": "ba40a98dcd5773b533ca92911dc3b122", "rental_uris": {"ios": "https://dc.lft.to/lastmile_qr_scan", "android": "https://dc.lft.to/lastmile_qr_scan"}, "type": "electric_scooter", "fusion_lon": 0.0}, {"is_reserved": 0, "is_disabled": 0, "fusion_lat": 0.0, "name": "42203d27ff80ef59313a9696c0953a46", "lat": 38.91559816666667, "lon": -77.02982216666666, "bike_id": "42203d27ff80ef59313a9696c0953a46", "rental_uris": {"ios": "https://dc.lft.to/lastmile_qr_scan", "android": "https://dc.lft.to/lastmile_qr_scan"}, "type": "electric_scooter", "fusion_lon": 0.0}, {"is_reserved": 0, "is_disabled": 0, "fusion_lat": 0.0, "name": "cf03d3d2b76bb29d8932751a98b0df30", "lat": 38.87627166666667, "lon": -77.00212883333333, "bike_id": "cf03d3d2b76bb29d8932751a98b0df30", "rental_uris": {"ios": "https://dc.lft.to/lastmile_qr_scan", "android": "https://dc.lft.to/lastmile_qr_scan"}, "type": "electric_scooter", "fusion_lon": 0.0}, {"is_reserved": 0, "is_disabled": 0, "fusion_lat": 0.0, "name": "188a112e4ab988c709365b923de4b888", "lat": 38.942162833333335, "lon": -77.02500066666667, "bike_id": "188a112e4ab988c709365b923de4b888", "rental_uris": {"ios": "https://dc.lft.to/lastmile_qr_scan", "android": "https://dc.lft.to/lastmile_qr_scan"}, "type": "electric_scooter", "fusion_lon": 0.0}, {"is_reserved": 0, "is_disabled": 0, "fusion_lat": 0.0, "name": "3284fc2b4bf4068f1a17a907cddfc4f8", "lat": 38.9195195, "lon": -77.0248615, "bike_id": "3284fc2b4bf4068f1a17a907cddfc4f8", "rental_uris": {"ios": "https://dc.lft.to/lastmile_qr_scan", "android": "https://dc.lft.to/lastmile_qr_scan"}, "type": "electric_scooter", "fusion_lon": 0.0}, {"is_reserved": 0, "is_disabled": 0, "fusion_lat": 0.0, "name": "057ec6ed95181ce3316c577836a3437c", "lat": 39.000043, "lon": -76.91793283333334, "bike_id": "057ec6ed95181ce3316c577836a3437c", "rental_uris": {"ios": "https://dc.lft.to/lastmile_qr_scan", "android": "https://dc.lft.to/lastmile_qr_scan"}, "type": "electric_bike", "fusion_lon": 0.0}, {"is_reserved": 0, "is_disabled": 0, "fusion_lat": 0.0, "name": "e063c620179f316096dae5cf34d0b2f7", "lat": 38.911848666666664, "lon": -77.00552233333333, "bike_id": "e063c620179f316096dae5cf34d0b2f7", "rental_uris": {"ios": "https://dc.lft.to/lastmile_qr_scan", "android": "https://dc.lft.to/lastmile_qr_scan"}, "type": "electric_scooter", "fusion_lon": 0.0}, {"is_reserved": 0, "is_disabled": 0, "fusion_lat": 0.0, "name": "e7526ca234b1f2bda9622ea08c9b2f1b", "lat": 38.951767833333335, "lon": -77.031608, "bike_id": "e7526ca234b1f2bda9622ea08c9b2f1b", "rental_uris": {"ios": "https://dc.lft.to/lastmile_qr_scan", "android": "https://dc.lft.to/lastmile_qr_scan"}, "type": "electric_bike", "fusion_lon": 0.0}, {"is_reserved": 0, "is_disabled": 0, "fusion_lat": 0.0, "name": "adf8d8cc86ca4d3294f352b653e9c6da", "lat": 38.90605383333333, "lon": -77.0583675, "bike_id": "adf8d8cc86ca4d3294f352b653e9c6da", "rental_uris": {"ios": "https://dc.lft.to/lastmile_qr_scan", "android": "https://dc.lft.to/lastmile_qr_scan"}, "type": "electric_scooter", "fusion_lon": 0.0}, {"is_reserved": 0, "is_disabled": 0, "fusion_lat": 0.0, "name": "6b348b03e3d4cf5525cde2a3732a8182", "lat": 38.90941733333333, "lon": -77.05931816666667, "bike_id": "6b348b03e3d4cf5525cde2a3732a8182", "rental_uris": {"ios": "https://dc.lft.to/lastmile_qr_scan", "android": "https://dc.lft.to/lastmile_qr_scan"}, "type": "electric_scooter", "fusion_lon": 0.0}, {"is_reserved": 0, "is_disabled": 0, "fusion_lat": 0.0, "name": "e184302249b90d69a62da6a6f670129f", "lat": 38.928707, "lon": -77.03278466666667, "bike_id": "e184302249b90d69a62da6a6f670129f", "rental_uris": {"ios": "https://dc.lft.to/lastmile_qr_scan", "android": "https://dc.lft.to/lastmile_qr_scan"}, "type": "electric_scooter", "fusion_lon": 0.0}, {"is_reserved": 0, "is_disabled": 0, "fusion_lat": 0.0, "name": "ff425ddeacdb0be26d3ff0a27e2bde1a", "lat": 38.92168866666667, "lon": -77.04348333333333, "bike_id": "ff425ddeacdb0be26d3ff0a27e2bde1a", "rental_uris": {"ios": "https://dc.lft.to/lastmile_qr_scan", "android": "https://dc.lft.to/lastmile_qr_scan"}, "type": "electric_scooter", "fusion_lon": 0.0}, {"is_reserved": 0, "is_disabled": 0, "fusion_lat": 0.0, "name": "e1b019aa50a2c8520344978dc44256ee", "lat": 38.909639, "lon": -77.0385, "bike_id": "e1b019aa50a2c8520344978dc44256ee", "rental_uris": {"ios": "https://dc.lft.to/lastmile_qr_scan", "android": "https://dc.lft.to/lastmile_qr_scan"}, "type": "electric_scooter", "fusion_lon": 0.0}, {"is_reserved": 0, "is_disabled": 0, "fusion_lat": 0.0, "name": "f54ac0de6ef35f300b4f4a5b9cdcf802", "lat": 38.901244, "lon": -77.03218833333334, "bike_id": "f54ac0de6ef35f300b4f4a5b9cdcf802", "rental_uris": {"ios": "https://dc.lft.to/lastmile_qr_scan", "android": "https://dc.lft.to/lastmile_qr_scan"}, "type": "electric_scooter", "fusion_lon": 0.0}, {"is_reserved": 0, "is_disabled": 0, "fusion_lat": 0.0, "name": "fe1ac2897594975a59fab524e583f8b7", "lat": 38.8074285, "lon": -77.09688233333334, "bike_id": "fe1ac2897594975a59fab524e583f8b7", "rental_uris": {"ios": "https://dc.lft.to/lastmile_qr_scan", "android": "https://dc.lft.to/lastmile_qr_scan"}, "type": "electric_bike", "fusion_lon": 0.0}, {"is_reserved": 0, "is_disabled": 0, "fusion_lat": 0.0, "name": "137815ff28ec933eff2043c7cca34667", "lat": 38.89231383333333, "lon": -77.0499795, "bike_id": "137815ff28ec933eff2043c7cca34667", "rental_uris": {"ios": "https://dc.lft.to/lastmile_qr_scan", "android": "https://dc.lft.to/lastmile_qr_scan"}, "type": "electric_scooter", "fusion_lon": 0.0}, {"is_reserved": 0, "is_disabled": 0, "fusion_lat": 0.0, "name": "ac8bc48c699b1dd0386d3b6a3944bf4a", "lat": 38.89829116666667, "lon": -77.04487883333333, "bike_id": "ac8bc48c699b1dd0386d3b6a3944bf4a", "rental_uris": {"ios": "https://dc.lft.to/lastmile_qr_scan", "android": "https://dc.lft.to/lastmile_qr_scan"}, "type": "electric_scooter", "fusion_lon": 0.0}, {"is_reserved": 0, "is_disabled": 0, "fusion_lat": 0.0, "name": "eccd70d92dfc721acf8357428579cddc", "lat": 38.895497166666665, "lon": -76.9833915, "bike_id": "eccd70d92dfc721acf8357428579cddc", "rental_uris": {"ios": "https://dc.lft.to/lastmile_qr_scan", "android": "https://dc.lft.to/lastmile_qr_scan"}, "type": "electric_scooter", "fusion_lon": 0.0}, {"is_reserved": 0, "is_disabled": 0, "fusion_lat": 0.0, "name": "33c1aefe1a14aeb3e6f9b1bdf496c3db", "lat": 38.8739685, "lon": -77.00030066666666, "bike_id": "33c1aefe1a14aeb3e6f9b1bdf496c3db", "rental_uris": {"ios": "https://dc.lft.to/lastmile_qr_scan", "android": "https://dc.lft.to/lastmile_qr_scan"}, "type": "electric_scooter", "fusion_lon": 0.0}, {"is_reserved": 0, "is_disabled": 0, "fusion_lat": 0.0, "name": "fe6b5afb488f23a62530dcfa67d2ed47", "lat": 38.871807, "lon": -77.2338735, "bike_id": "fe6b5afb488f23a62530dcfa67d2ed47", "rental_uris": {"ios": "https://dc.lft.to/lastmile_qr_scan", "android": "https://dc.lft.to/lastmile_qr_scan"}, "type": "electric_bike", "fusion_lon": 0.0}, {"is_reserved": 0, "is_disabled": 0, "fusion_lat": 0.0, "name": "9cc5c64beb6afd994c7dca9220a4c138", "lat": 38.928770666666665, "lon": -77.02826933333333, "bike_id": "9cc5c64beb6afd994c7dca9220a4c138", "rental_uris": {"ios": "https://dc.lft.to/lastmile_qr_scan", "android": "https://dc.lft.to/lastmile_qr_scan"}, "type": "electric_scooter", "fusion_lon": 0.0}, {"is_reserved": 0, "is_disabled": 0, "fusion_lat": 0.0, "name": "0eac298ebbb2a50803a379ee24b5a5b1", "lat": 38.91691633333333, "lon": -77.03776383333333, "bike_id": "0eac298ebbb2a50803a379ee24b5a5b1", "rental_uris": {"ios": "https://dc.lft.to/lastmile_qr_scan", "android": "https://dc.lft.to/lastmile_qr_scan"}, "type": "electric_scooter", "fusion_lon": 0.0}, {"is_reserved": 0, "is_disabled": 0, "fusion_lat": 0.0, "name": "c33af43f7d6fcc831f6c775882b95f86", "lat": 38.94925883333333, "lon": -77.01857416666667, "bike_id": "c33af43f7d6fcc831f6c775882b95f86", "rental_uris": {"ios": "https://dc.lft.to/lastmile_qr_scan", "android": "https://dc.lft.to/lastmile_qr_scan"}, "type": "electric_scooter", "fusion_lon": 0.0}, {"is_reserved": 0, "is_disabled": 0, "fusion_lat": 0.0, "name": "ee2ed5eeb098caab70be051f707d8b06", "lat": 38.89744566666667, "lon": -77.00077216666666, "bike_id": "ee2ed5eeb098caab70be051f707d8b06", "rental_uris": {"ios": "https://dc.lft.to/lastmile_qr_scan", "android": "https://dc.lft.to/lastmile_qr_scan"}, "type": "electric_scooter", "fusion_lon": 0.0}, {"is_reserved": 0, "is_disabled": 0, "fusion_lat": 0.0, "name": "ebbd03f7bcee5c7c33f3ff628270e927", "lat": 38.910889833333336, "lon": -77.03858966666667, "bike_id": "ebbd03f7bcee5c7c33f3ff628270e927", "rental_uris": {"ios": "https://dc.lft.to/lastmile_qr_scan", "android": "https://dc.lft.to/lastmile_qr_scan"}, "type": "electric_scooter", "fusion_lon": 0.0}, {"is_reserved": 0, "is_disabled": 0, "fusion_lat": 0.0, "name": "d34f504cfde58b0cdccbec945b445ebd", "lat": 38.910609666666666, "lon": -77.0529305, "bike_id": "d34f504cfde58b0cdccbec945b445ebd", "rental_uris": {"ios": "https://dc.lft.to/lastmile_qr_scan", "android": "https://dc.lft.to/lastmile_qr_scan"}, "type": "electric_scooter", "fusion_lon": 0.0}, {"is_reserved": 0, "is_disabled": 0, "fusion_lat": 0.0, "name": "a682881a132d424ddb3f628363ac4a7d", "lat": 38.922614333333335, "lon": -77.04298783333333, "bike_id": "a682881a132d424ddb3f628363ac4a7d", "rental_uris": {"ios": "https://dc.lft.to/lastmile_qr_scan", "android": "https://dc.lft.to/lastmile_qr_scan"}, "type": "electric_scooter", "fusion_lon": 0.0}, {"is_reserved": 0, "is_disabled": 0, "fusion_lat": 0.0, "name": "32ba516d99889f1ae72afc78f7f7978f", "lat": 38.90304183333333, "lon": -76.99840783333333, "bike_id": "32ba516d99889f1ae72afc78f7f7978f", "rental_uris": {"ios": "https://dc.lft.to/lastmile_qr_scan", "android": "https://dc.lft.to/lastmile_qr_scan"}, "type": "electric_scooter", "fusion_lon": 0.0}, {"is_reserved": 0, "is_disabled": 0, "fusion_lat": 0.0, "name": "c84758d6a174270bb76fa34219977137", "lat": 38.8861475, "lon": -77.02201916666667, "bike_id": "c84758d6a174270bb76fa34219977137", "rental_uris": {"ios": "https://dc.lft.to/lastmile_qr_scan", "android": "https://dc.lft.to/lastmile_qr_scan"}, "type": "electric_scooter", "fusion_lon": 0.0}, {"is_reserved": 0, "is_disabled": 0, "fusion_lat": 0.0, "name": "c73172554084ad3dc0d1cc25ba50d491", "lat": 38.8967515, "lon": -76.949129, "bike_id": "c73172554084ad3dc0d1cc25ba50d491", "rental_uris": {"ios": "https://dc.lft.to/lastmile_qr_scan", "android": "https://dc.lft.to/lastmile_qr_scan"}, "type": "electric_scooter", "fusion_lon": 0.0}, {"is_reserved": 0, "is_disabled": 0, "fusion_lat": 0.0, "name": "40676c1187532424cbb084f5d09048c6", "lat": 38.90795116666666, "lon": -77.03198916666666, "bike_id": "40676c1187532424cbb084f5d09048c6", "rental_uris": {"ios": "https://dc.lft.to/lastmile_qr_scan", "android": "https://dc.lft.to/lastmile_qr_scan"}, "type": "electric_scooter", "fusion_lon": 0.0}, {"is_reserved": 0, "is_disabled": 0, "fusion_lat": 0.0, "name": "f652c5c97e35cdfaf19f5738a2ab99e3", "lat": 38.919101, "lon": -77.04651116666666, "bike_id": "f652c5c97e35cdfaf19f5738a2ab99e3", "rental_uris": {"ios": "https://dc.lft.to/lastmile_qr_scan", "android": "https://dc.lft.to/lastmile_qr_scan"}, "type": "electric_scooter", "fusion_lon": 0.0}, {"is_reserved": 0, "is_disabled": 0, "fusion_lat": 0.0, "name": "4ab6f4a4f8247bbac501a9a2f19ee949", "lat": 38.9074795, "lon": -76.99924333333334, "bike_id": "4ab6f4a4f8247bbac501a9a2f19ee949", "rental_uris": {"ios": "https://dc.lft.to/lastmile_qr_scan", "android": "https://dc.lft.to/lastmile_qr_scan"}, "type": "electric_scooter", "fusion_lon": 0.0}, {"is_reserved": 0, "is_disabled": 0, "fusion_lat": 0.0, "name": "c477d0d7e916acb75537d5032bcc7dff", "lat": 38.935454666666665, "lon": -77.05422083333333, "bike_id": "c477d0d7e916acb75537d5032bcc7dff", "rental_uris": {"ios": "https://dc.lft.to/lastmile_qr_scan", "android": "https://dc.lft.to/lastmile_qr_scan"}, "type": "electric_scooter", "fusion_lon": 0.0}, {"is_reserved": 0, "is_disabled": 0, "fusion_lat": 0.0, "name": "45f8db958576c044dac34801afdc4b62", "lat": 38.8764385, "lon": -77.00522616666667, "bike_id": "45f8db958576c044dac34801afdc4b62", "rental_uris": {"ios": "https://dc.lft.to/lastmile_qr_scan", "android": "https://dc.lft.to/lastmile_qr_scan"}, "type": "electric_scooter", "fusion_lon": 0.0}, {"is_reserved": 0, "is_disabled": 0, "fusion_lat": 0.0, "name": "7f0256e9e216c5848889da1fb6ea1314", "lat": 38.899424333333336, "lon": -77.04846466666666, "bike_id": "7f0256e9e216c5848889da1fb6ea1314", "rental_uris": {"ios": "https://dc.lft.to/lastmile_qr_scan", "android": "https://dc.lft.to/lastmile_qr_scan"}, "type": "electric_scooter", "fusion_lon": 0.0}, {"is_reserved": 0, "is_disabled": 0, "fusion_lat": 0.0, "name": "8c295bdc4de18243265c52a591991bf3", "lat": 38.893257, "lon": -77.01973816666667, "bike_id": "8c295bdc4de18243265c52a591991bf3", "rental_uris": {"ios": "https://dc.lft.to/lastmile_qr_scan", "android": "https://dc.lft.to/lastmile_qr_scan"}, "type": "electric_scooter", "fusion_lon": 0.0}, {"is_reserved": 0, "is_disabled": 0, "fusion_lat": 0.0, "name": "3e095baf14dd88d2e7042c84d3a12942", "lat": 38.922442333333336, "lon": -77.02813833333333, "bike_id": "3e095baf14dd88d2e7042c84d3a12942", "rental_uris": {"ios": "https://dc.lft.to/lastmile_qr_scan", "android": "https://dc.lft.to/lastmile_qr_scan"}, "type": "electric_scooter", "fusion_lon": 0.0}, {"is_reserved": 0, "is_disabled": 0, "fusion_lat": 0.0, "name": "4467ff5fad9224a3d6ef8a8005b71bbf", "lat": 38.89880483333334, "lon": -77.021832, "bike_id": "4467ff5fad9224a3d6ef8a8005b71bbf", "rental_uris": {"ios": "https://dc.lft.to/lastmile_qr_scan", "android": "https://dc.lft.to/lastmile_qr_scan"}, "type": "electric_scooter", "fusion_lon": 0.0}, {"is_reserved": 0, "is_disabled": 0, "fusion_lat": 0.0, "name": "26be927bc23ea7471edb864fa72e712e", "lat": 38.94304733333333, "lon": -77.0253725, "bike_id": "26be927bc23ea7471edb864fa72e712e", "rental_uris": {"ios": "https://dc.lft.to/lastmile_qr_scan", "android": "https://dc.lft.to/lastmile_qr_scan"}, "type": "electric_scooter", "fusion_lon": 0.0}, {"is_reserved": 0, "is_disabled": 0, "fusion_lat": 0.0, "name": "b4b253c4aea01c4ca4acbdc6f5a79641", "lat": 38.920584833333336, "lon": -77.0420045, "bike_id": "b4b253c4aea01c4ca4acbdc6f5a79641", "rental_uris": {"ios": "https://dc.lft.to/lastmile_qr_scan", "android": "https://dc.lft.to/lastmile_qr_scan"}, "type": "electric_scooter", "fusion_lon": 0.0}, {"is_reserved": 0, "is_disabled": 0, "fusion_lat": 0.0, "name": "10a94f9eeb6b70c292f3c737621736c0", "lat": 38.8867375, "lon": -77.1281115, "bike_id": "10a94f9eeb6b70c292f3c737621736c0", "rental_uris": {"ios": "https://dc.lft.to/lastmile_qr_scan", "android": "https://dc.lft.to/lastmile_qr_scan"}, "type": "electric_bike", "fusion_lon": 0.0}, {"is_reserved": 0, "is_disabled": 0, "fusion_lat": 0.0, "name": "c8a87c129efb59173fac58d5a74de671", "lat": 38.92358133333333, "lon": -77.05228166666667, "bike_id": "c8a87c129efb59173fac58d5a74de671", "rental_uris": {"ios": "https://dc.lft.to/lastmile_qr_scan", "android": "https://dc.lft.to/lastmile_qr_scan"}, "type": "electric_scooter", "fusion_lon": 0.0}, {"is_reserved": 0, "is_disabled": 0, "fusion_lat": 0.0, "name": "f370710b649ca97a30dae320e420b81d", "lat": 38.8973165, "lon": -77.00928733333333, "bike_id": "f370710b649ca97a30dae320e420b81d", "rental_uris": {"ios": "https://dc.lft.to/lastmile_qr_scan", "android": "https://dc.lft.to/lastmile_qr_scan"}, "type": "electric_scooter", "fusion_lon": 0.0}, {"is_reserved": 0, "is_disabled": 0, "fusion_lat": 0.0, "name": "12f8fb7d77eb46d1bb88e2ac60cb3a9e", "lat": 38.89672816666667, "lon": -76.932128, "bike_id": "12f8fb7d77eb46d1bb88e2ac60cb3a9e", "rental_uris": {"ios": "https://dc.lft.to/lastmile_qr_scan", "android": "https://dc.lft.to/lastmile_qr_scan"}, "type": "electric_scooter", "fusion_lon": 0.0}, {"is_reserved": 0, "is_disabled": 0, "fusion_lat": 0.0, "name": "a028c1e69f1df51842c74e6ef95016ca", "lat": 38.899595, "lon": -77.04533266666667, "bike_id": "a028c1e69f1df51842c74e6ef95016ca", "rental_uris": {"ios": "https://dc.lft.to/lastmile_qr_scan", "android": "https://dc.lft.to/lastmile_qr_scan"}, "type": "electric_scooter", "fusion_lon": 0.0}, {"is_reserved": 0, "is_disabled": 0, "fusion_lat": 0.0, "name": "a8da8f64dcb197abd58d47362a434a6e", "lat": 38.905657833333336, "lon": -77.00788, "bike_id": "a8da8f64dcb197abd58d47362a434a6e", "rental_uris": {"ios": "https://dc.lft.to/lastmile_qr_scan", "android": "https://dc.lft.to/lastmile_qr_scan"}, "type": "electric_scooter", "fusion_lon": 0.0}, {"is_reserved": 0, "is_disabled": 0, "fusion_lat": 0.0, "name": "1ef468d60f2b03f2e8a6eaf5ed7e445e", "lat": 38.955041, "lon": -77.07003916666666, "bike_id": "1ef468d60f2b03f2e8a6eaf5ed7e445e", "rental_uris": {"ios": "https://dc.lft.to/lastmile_qr_scan", "android": "https://dc.lft.to/lastmile_qr_scan"}, "type": "electric_scooter", "fusion_lon": 0.0}, {"is_reserved": 0, "is_disabled": 0, "fusion_lat": 0.0, "name": "2a3165639cee1e777fa88b3e16429b32", "lat": 38.916770666666665, "lon": -77.02715083333334, "bike_id": "2a3165639cee1e777fa88b3e16429b32", "rental_uris": {"ios": "https://dc.lft.to/lastmile_qr_scan", "android": "https://dc.lft.to/lastmile_qr_scan"}, "type": "electric_bike", "fusion_lon": 0.0}, {"is_reserved": 0, "is_disabled": 0, "fusion_lat": 0.0, "name": "274916c26dac649ccc4a2e23f2469c8e", "lat": 38.919568166666664, "lon": -77.041582, "bike_id": "274916c26dac649ccc4a2e23f2469c8e", "rental_uris": {"ios": "https://dc.lft.to/lastmile_qr_scan", "android": "https://dc.lft.to/lastmile_qr_scan"}, "type": "electric_scooter", "fusion_lon": 0.0}, {"is_reserved": 0, "is_disabled": 0, "fusion_lat": 0.0, "name": "8d1cb72813a55fe0baefcdbda83a47db", "lat": 38.91165766666667, "lon": -77.04479733333334, "bike_id": "8d1cb72813a55fe0baefcdbda83a47db", "rental_uris": {"ios": "https://dc.lft.to/lastmile_qr_scan", "android": "https://dc.lft.to/lastmile_qr_scan"}, "type": "electric_scooter", "fusion_lon": 0.0}, {"is_reserved": 0, "is_disabled": 0, "fusion_lat": 0.0, "name": "9db8e9528eb57009fa74aaa1cf16cfb8", "lat": 38.91603083333333, "lon": -77.01214566666667, "bike_id": "9db8e9528eb57009fa74aaa1cf16cfb8", "rental_uris": {"ios": "https://dc.lft.to/lastmile_qr_scan", "android": "https://dc.lft.to/lastmile_qr_scan"}, "type": "electric_scooter", "fusion_lon": 0.0}, {"is_reserved": 0, "is_disabled": 0, "fusion_lat": 0.0, "name": "4e86957d2ad8e534ea22f25d50a53e3b", "lat": 38.90730633333333, "lon": -77.04857883333334, "bike_id": "4e86957d2ad8e534ea22f25d50a53e3b", "rental_uris": {"ios": "https://dc.lft.to/lastmile_qr_scan", "android": "https://dc.lft.to/lastmile_qr_scan"}, "type": "electric_scooter", "fusion_lon": 0.0}, {"is_reserved": 0, "is_disabled": 0, "fusion_lat": 0.0, "name": "fc4804287acea6983a534c6c88fa9f11", "lat": 38.90866116666667, "lon": -77.04050866666667, "bike_id": "fc4804287acea6983a534c6c88fa9f11", "rental_uris": {"ios": "https://dc.lft.to/lastmile_qr_scan", "android": "https://dc.lft.to/lastmile_qr_scan"}, "type": "electric_scooter", "fusion_lon": 0.0}, {"is_reserved": 0, "is_disabled": 0, "fusion_lat": 0.0, "name": "9919ae23d7caf8511697c041577cce14", "lat": 38.9021185, "lon": -77.0231955, "bike_id": "9919ae23d7caf8511697c041577cce14", "rental_uris": {"ios": "https://dc.lft.to/lastmile_qr_scan", "android": "https://dc.lft.to/lastmile_qr_scan"}, "type": "electric_scooter", "fusion_lon": 0.0}, {"is_reserved": 0, "is_disabled": 0, "fusion_lat": 0.0, "name": "ee17e9299e176c40fd9636c21aa54434", "lat": 38.868237666666666, "lon": -76.98034966666667, "bike_id": "ee17e9299e176c40fd9636c21aa54434", "rental_uris": {"ios": "https://dc.lft.to/lastmile_qr_scan", "android": "https://dc.lft.to/lastmile_qr_scan"}, "type": "electric_bike", "fusion_lon": 0.0}, {"is_reserved": 0, "is_disabled": 0, "fusion_lat": 0.0, "name": "e7eaaafe29a78748f0d6ccef169e6ff9", "lat": 38.912983, "lon": -76.98695116666667, "bike_id": "e7eaaafe29a78748f0d6ccef169e6ff9", "rental_uris": {"ios": "https://dc.lft.to/lastmile_qr_scan", "android": "https://dc.lft.to/lastmile_qr_scan"}, "type": "electric_scooter", "fusion_lon": 0.0}, {"is_reserved": 0, "is_disabled": 0, "fusion_lat": 0.0, "name": "77748b4fe5d6087a1b65cacb3c3001d0", "lat": 38.9069495, "lon": -77.0720195, "bike_id": "77748b4fe5d6087a1b65cacb3c3001d0", "rental_uris": {"ios": "https://dc.lft.to/lastmile_qr_scan", "android": "https://dc.lft.to/lastmile_qr_scan"}, "type": "electric_scooter", "fusion_lon": 0.0}, {"is_reserved": 0, "is_disabled": 0, "fusion_lat": 0.0, "name": "3df44ffc2d743cd0c0a207fd979dfc3c", "lat": 38.925192333333335, "lon": -76.99841383333333, "bike_id": "3df44ffc2d743cd0c0a207fd979dfc3c", "rental_uris": {"ios": "https://dc.lft.to/lastmile_qr_scan", "android": "https://dc.lft.to/lastmile_qr_scan"}, "type": "electric_scooter", "fusion_lon": 0.0}, {"is_reserved": 0, "is_disabled": 0, "fusion_lat": 0.0, "name": "20c91ea20f350e434ee0c228dcdb6ce6", "lat": 38.91015266666667, "lon": -77.028482, "bike_id": "20c91ea20f350e434ee0c228dcdb6ce6", "rental_uris": {"ios": "https://dc.lft.to/lastmile_qr_scan", "android": "https://dc.lft.to/lastmile_qr_scan"}, "type": "electric_scooter", "fusion_lon": 0.0}, {"is_reserved": 0, "is_disabled": 0, "fusion_lat": 0.0, "name": "365a1cd05d10d500125e2c485add1981", "lat": 38.84691766666667, "lon": -76.9806705, "bike_id": "365a1cd05d10d500125e2c485add1981", "rental_uris": {"ios": "https://dc.lft.to/lastmile_qr_scan", "android": "https://dc.lft.to/lastmile_qr_scan"}, "type": "electric_bike", "fusion_lon": 0.0}, {"is_reserved": 0, "is_disabled": 0, "fusion_lat": 0.0, "name": "20d201f5366821a5a85da6c86f460d17", "lat": 38.9013115, "lon": -77.03839383333333, "bike_id": "20d201f5366821a5a85da6c86f460d17", "rental_uris": {"ios": "https://dc.lft.to/lastmile_qr_scan", "android": "https://dc.lft.to/lastmile_qr_scan"}, "type": "electric_scooter", "fusion_lon": 0.0}, {"is_reserved": 0, "is_disabled": 0, "fusion_lat": 0.0, "name": "45f3f6d1a1fdd4deca412c48f3aafb43", "lat": 38.917993, "lon": -77.04434983333333, "bike_id": "45f3f6d1a1fdd4deca412c48f3aafb43", "rental_uris": {"ios": "https://dc.lft.to/lastmile_qr_scan", "android": "https://dc.lft.to/lastmile_qr_scan"}, "type": "electric_scooter", "fusion_lon": 0.0}, {"is_reserved": 0, "is_disabled": 0, "fusion_lat": 0.0, "name": "3804a920b893cd5920924fae39097625", "lat": 38.904613499999996, "lon": -77.02854583333334, "bike_id": "3804a920b893cd5920924fae39097625", "rental_uris": {"ios": "https://dc.lft.to/lastmile_qr_scan", "android": "https://dc.lft.to/lastmile_qr_scan"}, "type": "electric_scooter", "fusion_lon": 0.0}, {"is_reserved": 0, "is_disabled": 0, "fusion_lat": 0.0, "name": "2d05651a104da83a27f59b3c89d220ef", "lat": 38.90728816666667, "lon": -77.03205866666667, "bike_id": "2d05651a104da83a27f59b3c89d220ef", "rental_uris": {"ios": "https://dc.lft.to/lastmile_qr_scan", "android": "https://dc.lft.to/lastmile_qr_scan"}, "type": "electric_scooter", "fusion_lon": 0.0}, {"is_reserved": 0, "is_disabled": 0, "fusion_lat": 0.0, "name": "7b8a9d66e74f6ca46710df2722fab864", "lat": 38.88765583333333, "lon": -77.15652866666667, "bike_id": "7b8a9d66e74f6ca46710df2722fab864", "rental_uris": {"ios": "https://dc.lft.to/lastmile_qr_scan", "android": "https://dc.lft.to/lastmile_qr_scan"}, "type": "electric_bike", "fusion_lon": 0.0}, {"is_reserved": 0, "is_disabled": 0, "fusion_lat": 0.0, "name": "eb0215f94bdbc193e27d66c63d7483b4", "lat": 38.93240816666667, "lon": -77.02661766666667, "bike_id": "eb0215f94bdbc193e27d66c63d7483b4", "rental_uris": {"ios": "https://dc.lft.to/lastmile_qr_scan", "android": "https://dc.lft.to/lastmile_qr_scan"}, "type": "electric_scooter", "fusion_lon": 0.0}, {"is_reserved": 0, "is_disabled": 0, "fusion_lat": 0.0, "name": "36cb58926d3f2c755f2e6c417ff07fed", "lat": 38.90700233333333, "lon": -76.99948533333334, "bike_id": "36cb58926d3f2c755f2e6c417ff07fed", "rental_uris": {"ios": "https://dc.lft.to/lastmile_qr_scan", "android": "https://dc.lft.to/lastmile_qr_scan"}, "type": "electric_scooter", "fusion_lon": 0.0}, {"is_reserved": 0, "is_disabled": 0, "fusion_lat": 0.0, "name": "a750a2b68c0b3e58cbda5d7899d3e9a1", "lat": 38.896982666666666, "lon": -77.0267865, "bike_id": "a750a2b68c0b3e58cbda5d7899d3e9a1", "rental_uris": {"ios": "https://dc.lft.to/lastmile_qr_scan", "android": "https://dc.lft.to/lastmile_qr_scan"}, "type": "electric_scooter", "fusion_lon": 0.0}, {"is_reserved": 0, "is_disabled": 0, "fusion_lat": 0.0, "name": "1d5e09af034a71960c0837f95a3dc072", "lat": 38.9194955, "lon": -77.0139525, "bike_id": "1d5e09af034a71960c0837f95a3dc072", "rental_uris": {"ios": "https://dc.lft.to/lastmile_qr_scan", "android": "https://dc.lft.to/lastmile_qr_scan"}, "type": "electric_scooter", "fusion_lon": 0.0}, {"is_reserved": 0, "is_disabled": 0, "fusion_lat": 0.0, "name": "4a0725581b7272e06a9b4b135135b344", "lat": 38.893298333333334, "lon": -77.019943, "bike_id": "4a0725581b7272e06a9b4b135135b344", "rental_uris": {"ios": "https://dc.lft.to/lastmile_qr_scan", "android": "https://dc.lft.to/lastmile_qr_scan"}, "type": "electric_scooter", "fusion_lon": 0.0}, {"is_reserved": 0, "is_disabled": 0, "fusion_lat": 0.0, "name": "f7d47f1e0840d634cb047613742b77ed", "lat": 38.903827166666666, "lon": -77.02060066666667, "bike_id": "f7d47f1e0840d634cb047613742b77ed", "rental_uris": {"ios": "https://dc.lft.to/lastmile_qr_scan", "android": "https://dc.lft.to/lastmile_qr_scan"}, "type": "electric_scooter", "fusion_lon": 0.0}, {"is_reserved": 0, "is_disabled": 0, "fusion_lat": 0.0, "name": "285f9173182932970e570a9188ae9f01", "lat": 38.88240866666666, "lon": -76.93330033333334, "bike_id": "285f9173182932970e570a9188ae9f01", "rental_uris": {"ios": "https://dc.lft.to/lastmile_qr_scan", "android": "https://dc.lft.to/lastmile_qr_scan"}, "type": "electric_scooter", "fusion_lon": 0.0}, {"is_reserved": 0, "is_disabled": 0, "fusion_lat": 0.0, "name": "e021ddf7473dfc5909be0687c0c550cb", "lat": 38.903511, "lon": -77.02594333333333, "bike_id": "e021ddf7473dfc5909be0687c0c550cb", "rental_uris": {"ios": "https://dc.lft.to/lastmile_qr_scan", "android": "https://dc.lft.to/lastmile_qr_scan"}, "type": "electric_scooter", "fusion_lon": 0.0}, {"is_reserved": 0, "is_disabled": 0, "fusion_lat": 0.0, "name": "5be057fe92150cc2ed70207be0563a8b", "lat": 38.89852, "lon": -76.9321205, "bike_id": "5be057fe92150cc2ed70207be0563a8b", "rental_uris": {"ios": "https://dc.lft.to/lastmile_qr_scan", "android": "https://dc.lft.to/lastmile_qr_scan"}, "type": "electric_scooter", "fusion_lon": 0.0}, {"is_reserved": 0, "is_disabled": 0, "fusion_lat": 0.0, "name": "e81c74ef8273a70009e01beb16bc1f8a", "lat": 38.92729416666667, "lon": -77.03425266666666, "bike_id": "e81c74ef8273a70009e01beb16bc1f8a", "rental_uris": {"ios": "https://dc.lft.to/lastmile_qr_scan", "android": "https://dc.lft.to/lastmile_qr_scan"}, "type": "electric_scooter", "fusion_lon": 0.0}, {"is_reserved": 0, "is_disabled": 0, "fusion_lat": 0.0, "name": "687def7df08c6978be584a6b35659484", "lat": 38.855631, "lon": -76.99083483333334, "bike_id": "687def7df08c6978be584a6b35659484", "rental_uris": {"ios": "https://dc.lft.to/lastmile_qr_scan", "android": "https://dc.lft.to/lastmile_qr_scan"}, "type": "electric_scooter", "fusion_lon": 0.0}, {"is_reserved": 0, "is_disabled": 0, "fusion_lat": 0.0, "name": "d3798d827deebdb386b6daf7b96f10b3", "lat": 38.917222333333335, "lon": -77.0220325, "bike_id": "d3798d827deebdb386b6daf7b96f10b3", "rental_uris": {"ios": "https://dc.lft.to/lastmile_qr_scan", "android": "https://dc.lft.to/lastmile_qr_scan"}, "type": "electric_scooter", "fusion_lon": 0.0}, {"is_reserved": 0, "is_disabled": 0, "fusion_lat": 0.0, "name": "45228210d0aceccf1593026fc6b73012", "lat": 38.893509333333334, "lon": -77.020901, "bike_id": "45228210d0aceccf1593026fc6b73012", "rental_uris": {"ios": "https://dc.lft.to/lastmile_qr_scan", "android": "https://dc.lft.to/lastmile_qr_scan"}, "type": "electric_scooter", "fusion_lon": 0.0}, {"is_reserved": 0, "is_disabled": 0, "fusion_lat": 0.0, "name": "6e9467274be5d5d2cb05ad2c00ab954a", "lat": 38.91827116666666, "lon": -77.031928, "bike_id": "6e9467274be5d5d2cb05ad2c00ab954a", "rental_uris": {"ios": "https://dc.lft.to/lastmile_qr_scan", "android": "https://dc.lft.to/lastmile_qr_scan"}, "type": "electric_scooter", "fusion_lon": 0.0}, {"is_reserved": 0, "is_disabled": 0, "fusion_lat": 0.0, "name": "3766f68c956e2a622d4be86a9ded5bdd", "lat": 38.93113483333333, "lon": -77.02093433333333, "bike_id": "3766f68c956e2a622d4be86a9ded5bdd", "rental_uris": {"ios": "https://dc.lft.to/lastmile_qr_scan", "android": "https://dc.lft.to/lastmile_qr_scan"}, "type": "electric_scooter", "fusion_lon": 0.0}, {"is_reserved": 0, "is_disabled": 0, "fusion_lat": 0.0, "name": "67652e9e3b30761df13f5f5ca4a1ac27", "lat": 38.926914, "lon": -77.01530116666666, "bike_id": "67652e9e3b30761df13f5f5ca4a1ac27", "rental_uris": {"ios": "https://dc.lft.to/lastmile_qr_scan", "android": "https://dc.lft.to/lastmile_qr_scan"}, "type": "electric_scooter", "fusion_lon": 0.0}, {"is_reserved": 0, "is_disabled": 0, "fusion_lat": 0.0, "name": "0f328b2002697449dcf9bdac5d2b0228", "lat": 38.89548333333333, "lon": -76.98337066666667, "bike_id": "0f328b2002697449dcf9bdac5d2b0228", "rental_uris": {"ios": "https://dc.lft.to/lastmile_qr_scan", "android": "https://dc.lft.to/lastmile_qr_scan"}, "type": "electric_scooter", "fusion_lon": 0.0}, {"is_reserved": 0, "is_disabled": 0, "fusion_lat": 0.0, "name": "cc5d526ac62dddd2f30b17416836493b", "lat": 38.9009655, "lon": -77.0232265, "bike_id": "cc5d526ac62dddd2f30b17416836493b", "rental_uris": {"ios": "https://dc.lft.to/lastmile_qr_scan", "android": "https://dc.lft.to/lastmile_qr_scan"}, "type": "electric_scooter", "fusion_lon": 0.0}, {"is_reserved": 0, "is_disabled": 0, "fusion_lat": 0.0, "name": "619ddf9a3c5c5c42faeb5cbca07241f7", "lat": 38.897435333333334, "lon": -77.03134633333333, "bike_id": "619ddf9a3c5c5c42faeb5cbca07241f7", "rental_uris": {"ios": "https://dc.lft.to/lastmile_qr_scan", "android": "https://dc.lft.to/lastmile_qr_scan"}, "type": "electric_scooter", "fusion_lon": 0.0}, {"is_reserved": 0, "is_disabled": 0, "fusion_lat": 0.0, "name": "c07ce8f3bdcc86c0c4bc4a61837269b7", "lat": 38.918587333333335, "lon": -77.045336, "bike_id": "c07ce8f3bdcc86c0c4bc4a61837269b7", "rental_uris": {"ios": "https://dc.lft.to/lastmile_qr_scan", "android": "https://dc.lft.to/lastmile_qr_scan"}, "type": "electric_scooter", "fusion_lon": 0.0}, {"is_reserved": 0, "is_disabled": 0, "fusion_lat": 0.0, "name": "326aee7a0ea2807cfa9dbc61d6a33467", "lat": 38.918297, "lon": -77.02702116666667, "bike_id": "326aee7a0ea2807cfa9dbc61d6a33467", "rental_uris": {"ios": "https://dc.lft.to/lastmile_qr_scan", "android": "https://dc.lft.to/lastmile_qr_scan"}, "type": "electric_scooter", "fusion_lon": 0.0}, {"is_reserved": 0, "is_disabled": 0, "fusion_lat": 0.0, "name": "7d3ea2653ffad6db41ecd190d2174acb", "lat": 38.902439666666666, "lon": -77.03210833333333, "bike_id": "7d3ea2653ffad6db41ecd190d2174acb", "rental_uris": {"ios": "https://dc.lft.to/lastmile_qr_scan", "android": "https://dc.lft.to/lastmile_qr_scan"}, "type": "electric_scooter", "fusion_lon": 0.0}, {"is_reserved": 0, "is_disabled": 0, "fusion_lat": 0.0, "name": "9c09e5d4b4f19d202393b4513d34c33c", "lat": 38.917006, "lon": -77.031705, "bike_id": "9c09e5d4b4f19d202393b4513d34c33c", "rental_uris": {"ios": "https://dc.lft.to/lastmile_qr_scan", "android": "https://dc.lft.to/lastmile_qr_scan"}, "type": "electric_scooter", "fusion_lon": 0.0}, {"is_reserved": 0, "is_disabled": 0, "fusion_lat": 0.0, "name": "c10da5ecfb98f6aed0729093ee93eec6", "lat": 38.899541166666666, "lon": -77.04182233333333, "bike_id": "c10da5ecfb98f6aed0729093ee93eec6", "rental_uris": {"ios": "https://dc.lft.to/lastmile_qr_scan", "android": "https://dc.lft.to/lastmile_qr_scan"}, "type": "electric_scooter", "fusion_lon": 0.0}, {"is_reserved": 0, "is_disabled": 0, "fusion_lat": 0.0, "name": "dffdcd24785cbc95a710ee67ff55d76a", "lat": 38.903587333333334, "lon": -77.02723866666666, "bike_id": "dffdcd24785cbc95a710ee67ff55d76a", "rental_uris": {"ios": "https://dc.lft.to/lastmile_qr_scan", "android": "https://dc.lft.to/lastmile_qr_scan"}, "type": "electric_scooter", "fusion_lon": 0.0}, {"is_reserved": 0, "is_disabled": 0, "fusion_lat": 0.0, "name": "c0d94f130e662566edeae1fd11c7ccf7", "lat": 38.92040266666667, "lon": -77.01678033333333, "bike_id": "c0d94f130e662566edeae1fd11c7ccf7", "rental_uris": {"ios": "https://dc.lft.to/lastmile_qr_scan", "android": "https://dc.lft.to/lastmile_qr_scan"}, "type": "electric_scooter", "fusion_lon": 0.0}, {"is_reserved": 0, "is_disabled": 0, "fusion_lat": 0.0, "name": "3ff694fdee9c6342c404454b0b502c13", "lat": 38.90966616666667, "lon": -77.02470883333334, "bike_id": "3ff694fdee9c6342c404454b0b502c13", "rental_uris": {"ios": "https://dc.lft.to/lastmile_qr_scan", "android": "https://dc.lft.to/lastmile_qr_scan"}, "type": "electric_scooter", "fusion_lon": 0.0}, {"is_reserved": 0, "is_disabled": 0, "fusion_lat": 0.0, "name": "07956a6889a5f0e1e16541fb6706cad8", "lat": 38.922982, "lon": -76.997784, "bike_id": "07956a6889a5f0e1e16541fb6706cad8", "rental_uris": {"ios": "https://dc.lft.to/lastmile_qr_scan", "android": "https://dc.lft.to/lastmile_qr_scan"}, "type": "electric_bike", "fusion_lon": 0.0}, {"is_reserved": 0, "is_disabled": 0, "fusion_lat": 0.0, "name": "3d7c898eda8bb1af54ec896c06280b26", "lat": 38.887269833333335, "lon": -76.99612316666666, "bike_id": "3d7c898eda8bb1af54ec896c06280b26", "rental_uris": {"ios": "https://dc.lft.to/lastmile_qr_scan", "android": "https://dc.lft.to/lastmile_qr_scan"}, "type": "electric_scooter", "fusion_lon": 0.0}, {"is_reserved": 0, "is_disabled": 0, "fusion_lat": 0.0, "name": "3f72aa91a0f2731123273c9f79e16b4c", "lat": 38.90087716666667, "lon": -77.05058916666667, "bike_id": "3f72aa91a0f2731123273c9f79e16b4c", "rental_uris": {"ios": "https://dc.lft.to/lastmile_qr_scan", "android": "https://dc.lft.to/lastmile_qr_scan"}, "type": "electric_scooter", "fusion_lon": 0.0}, {"is_reserved": 0, "is_disabled": 0, "fusion_lat": 0.0, "name": "367271aef7780c573e8b65e22b047964", "lat": 38.928048833333335, "lon": -77.03695266666666, "bike_id": "367271aef7780c573e8b65e22b047964", "rental_uris": {"ios": "https://dc.lft.to/lastmile_qr_scan", "android": "https://dc.lft.to/lastmile_qr_scan"}, "type": "electric_scooter", "fusion_lon": 0.0}, {"is_reserved": 0, "is_disabled": 0, "fusion_lat": 0.0, "name": "85543f2436a1f53aca110faff479b010", "lat": 38.8763465, "lon": -77.005805, "bike_id": "85543f2436a1f53aca110faff479b010", "rental_uris": {"ios": "https://dc.lft.to/lastmile_qr_scan", "android": "https://dc.lft.to/lastmile_qr_scan"}, "type": "electric_scooter", "fusion_lon": 0.0}, {"is_reserved": 0, "is_disabled": 0, "fusion_lat": 0.0, "name": "f42e645a5d3bf2df473df4a16ca7d584", "lat": 38.87662383333333, "lon": -77.00757366666667, "bike_id": "f42e645a5d3bf2df473df4a16ca7d584", "rental_uris": {"ios": "https://dc.lft.to/lastmile_qr_scan", "android": "https://dc.lft.to/lastmile_qr_scan"}, "type": "electric_scooter", "fusion_lon": 0.0}, {"is_reserved": 0, "is_disabled": 0, "fusion_lat": 0.0, "name": "b318e6452dcbfb71a50010b9d2d4210c", "lat": 38.918827, "lon": -77.03586233333333, "bike_id": "b318e6452dcbfb71a50010b9d2d4210c", "rental_uris": {"ios": "https://dc.lft.to/lastmile_qr_scan", "android": "https://dc.lft.to/lastmile_qr_scan"}, "type": "electric_scooter", "fusion_lon": 0.0}, {"is_reserved": 0, "is_disabled": 0, "fusion_lat": 0.0, "name": "cca8ff1d556e8e970ce8120e470c1c10", "lat": 38.902341166666666, "lon": -77.0019965, "bike_id": "cca8ff1d556e8e970ce8120e470c1c10", "rental_uris": {"ios": "https://dc.lft.to/lastmile_qr_scan", "android": "https://dc.lft.to/lastmile_qr_scan"}, "type": "electric_scooter", "fusion_lon": 0.0}, {"is_reserved": 0, "is_disabled": 0, "fusion_lat": 0.0, "name": "e4c3b309550f238d2602c749cd76ab41", "lat": 38.935917333333336, "lon": -77.07428716666666, "bike_id": "e4c3b309550f238d2602c749cd76ab41", "rental_uris": {"ios": "https://dc.lft.to/lastmile_qr_scan", "android": "https://dc.lft.to/lastmile_qr_scan"}, "type": "electric_scooter", "fusion_lon": 0.0}, {"is_reserved": 0, "is_disabled": 0, "fusion_lat": 0.0, "name": "9a0c43b161aea68655e5191987af3b1c", "lat": 38.905448, "lon": -77.00546433333334, "bike_id": "9a0c43b161aea68655e5191987af3b1c", "rental_uris": {"ios": "https://dc.lft.to/lastmile_qr_scan", "android": "https://dc.lft.to/lastmile_qr_scan"}, "type": "electric_scooter", "fusion_lon": 0.0}, {"is_reserved": 0, "is_disabled": 0, "fusion_lat": 0.0, "name": "2e2ac5d73593ba20718613ee19547c89", "lat": 38.92352733333333, "lon": -77.07312483333334, "bike_id": "2e2ac5d73593ba20718613ee19547c89", "rental_uris": {"ios": "https://dc.lft.to/lastmile_qr_scan", "android": "https://dc.lft.to/lastmile_qr_scan"}, "type": "electric_scooter", "fusion_lon": 0.0}, {"is_reserved": 0, "is_disabled": 0, "fusion_lat": 0.0, "name": "f89e6d90e69306ae0be909604a4bfb8d", "lat": 38.91822366666667, "lon": -77.03195683333334, "bike_id": "f89e6d90e69306ae0be909604a4bfb8d", "rental_uris": {"ios": "https://dc.lft.to/lastmile_qr_scan", "android": "https://dc.lft.to/lastmile_qr_scan"}, "type": "electric_scooter", "fusion_lon": 0.0}, {"is_reserved": 0, "is_disabled": 0, "fusion_lat": 0.0, "name": "daa94adbb91718d7ca6cbbac2c653728", "lat": 38.917934833333334, "lon": -77.03174916666667, "bike_id": "daa94adbb91718d7ca6cbbac2c653728", "rental_uris": {"ios": "https://dc.lft.to/lastmile_qr_scan", "android": "https://dc.lft.to/lastmile_qr_scan"}, "type": "electric_scooter", "fusion_lon": 0.0}, {"is_reserved": 0, "is_disabled": 0, "fusion_lat": 0.0, "name": "180e05d81045afa2a9044d77e1ed185c", "lat": 38.90550966666667, "lon": -77.0313995, "bike_id": "180e05d81045afa2a9044d77e1ed185c", "rental_uris": {"ios": "https://dc.lft.to/lastmile_qr_scan", "android": "https://dc.lft.to/lastmile_qr_scan"}, "type": "electric_scooter", "fusion_lon": 0.0}, {"is_reserved": 0, "is_disabled": 0, "fusion_lat": 0.0, "name": "38a5be249e46d7eb95372e57351535d1", "lat": 38.985074166666664, "lon": -76.98219416666667, "bike_id": "38a5be249e46d7eb95372e57351535d1", "rental_uris": {"ios": "https://dc.lft.to/lastmile_qr_scan", "android": "https://dc.lft.to/lastmile_qr_scan"}, "type": "electric_bike", "fusion_lon": 0.0},