{"data": {"bikes": [{"rental_uris": {"ios": "https://dc.lft.to/lastmile_qr_scan", "android": "https://dc.lft.to/lastmile_qr_scan"}, "fusion_lat": 0.0, "name": "dcbaf5c7d0ac197d03ed5888ac4ed40f", "bike_id": "dcbaf5c7d0ac197d03ed5888ac4ed40f", "is_disabled": 0, "type": "electric_scooter", "lat": 38.887507666666664, "lon": -77.03140266666666, "is_reserved": 0, "fusion_lon": 0.0}, {"rental_uris": {"ios": "https://dc.lft.to/lastmile_qr_scan", "android": "https://dc.lft.to/lastmile_qr_scan"}, "fusion_lat": 0.0, "name": "3e945f26b75e3543d99e06e98b0a4453", "bike_id": "3e945f26b75e3543d99e06e98b0a4453", "is_disabled": 0, "type": "electric_scooter", "lat": 38.924240166666664, "lon": -77.03536333333334, "is_reserved": 0, "fusion_lon": 0.0}, {"rental_uris": {"ios": "https://dc.lft.to/lastmile_qr_scan", "android": "https://dc.lft.to/lastmile_qr_scan"}, "fusion_lat": 0.0, "name": "cbb47d40d0b3a446116eb03fc5bf84b1", "bike_id": "cbb47d40d0b3a446116eb03fc5bf84b1", "is_disabled": 0, "type": "electric_scooter", "lat": 38.91820033333333, "lon": -77.04176333333334, "is_reserved": 0, "fusion_lon": 0.0}, {"rental_uris": {"ios": "https://dc.lft.to/lastmile_qr_scan", "android": "https://dc.lft.to/lastmile_qr_scan"}, "fusion_lat": 0.0, "name": "8b78fa005a2281f468ce194b2c131198", "bike_id": "8b78fa005a2281f468ce194b2c131198", "is_disabled": 0, "type": "electric_scooter", "lat": 38.866672666666666, "lon": -76.98517466666667, "is_reserved": 0, "fusion_lon": 0.0}, {"rental_uris": {"ios": "https://dc.lft.to/lastmile_qr_scan", "android": "https://dc.lft.to/lastmile_qr_scan"}, "fusion_lat": 0.0, "name": "fd491da458f38ba5788d00d29de21cfb", "bike_id": "fd491da458f38ba5788d00d29de21cfb", "is_disabled": 0, "type": "electric_bike", "lat": 38.95558966666667, "lon": -76.93550583333334, "is_reserved": 0, "fusion_lon": 0.0}, {"rental_uris": {"ios": "https://dc.lft.to/lastmile_qr_scan", "android": "https://dc.lft.to/lastmile_qr_scan"}, "fusion_lat": 0.0, "name": "4ec49a4b22ffcd7ca567521b32a6de49", "bike_id": "4ec49a4b22ffcd7ca567521b32a6de49", "is_disabled": 0, "type": "electric_bike", "lat": 38.944207, "lon": -77.03190983333333, "is_reserved": 0, "fusion_lon": 0.0}, {"rental_uris": {"ios": "https://dc.lft.to/lastmile_qr_scan", "android": "https://dc.lft.to/lastmile_qr_scan"}, "fusion_lat": 0.0, "name": "71480a3a3eb9fa97fa5b79143c88d219", "bike_id": "71480a3a3eb9fa97fa5b79143c88d219", "is_disabled": 0, "type": "electric_scooter", "lat": 38.88715783333333, "lon": -77.017771, "is_reserved": 0, "fusion_lon": 0.0}, {"rental_uris": {"ios": "https://dc.lft.to/lastmile_qr_scan", "android": "https://dc.lft.to/lastmile_qr_scan"}, "fusion_lat": 0.0, "name": "581a18ccf0f3facf7e0970cd09dfabee", "bike_id": "581a18ccf0f3facf7e0970cd09dfabee", "is_disabled": 0, "type": "electric_scooter", "lat": 38.898878833333335, "lon": -77.03298233333334, "is_reserved": 0, "fusion_lon": 0.0}, {"rental_uris": {"ios": "https://dc.lft.to/lastmile_qr_scan", "android": "https://dc.lft.to/lastmile_qr_scan"}, "fusion_lat": 0.0, "name": "499e9b61a2404db8ff64681bdb1c46a0", "bike_id": "499e9b61a2404db8ff64681bdb1c46a0", "is_disabled": 0, "type": "electric_scooter", "lat": 38.92177783333333, "lon": -77.0383035, "is_reserved": 0, "fusion_lon": 0.0}, {"rental_uris": {"ios": "https://dc.lft.to/lastmile_qr_scan", "android": "https://dc.lft.to/lastmile_qr_scan"}, "fusion_lat": 0.0, "name": "91a6ae51dacc8f26c13f58d3bf0d40be", "bike_id": "91a6ae51dacc8f26c13f58d3bf0d40be", "is_disabled": 0, "type": "electric_scooter", "lat": 38.87087133333333, "lon": -77.01380316666666, "is_reserved": 0, "fusion_lon": 0.0}, {"rental_uris": {"ios": "https://dc.lft.to/lastmile_qr_scan", "android": "https://dc.lft.to/lastmile_qr_scan"}, "fusion_lat": 0.0, "name": "1419aacc58e76eed2a57d11ab207a4d4", "bike_id": "1419aacc58e76eed2a57d11ab207a4d4", "is_disabled": 0, "type": "electric_scooter", "lat": 38.881219, "lon": -77.01671, "is_reserved": 0, "fusion_lon": 0.0}, {"rental_uris": {"ios": "https://dc.lft.to/lastmile_qr_scan", "android": "https://dc.lft.to/lastmile_qr_scan"}, "fusion_lat": 0.0, "name": "1fed2a3c13dc7cbfaf741abbd2a75199", "bike_id": "1fed2a3c13dc7cbfaf741abbd2a75199", "is_disabled": 0, "type": "electric_scooter", "lat": 38.925457, "lon": -77.0526915, "is_reserved": 0, "fusion_lon": 0.0}, {"rental_uris": {"ios": "https://dc.lft.to/lastmile_qr_scan", "android": "https://dc.lft.to/lastmile_qr_scan"}, "fusion_lat": 0.0, "name": "667534bacaf93827ef57b0102ac90bea", "bike_id": "667534bacaf93827ef57b0102ac90bea", "is_disabled": 0, "type": "electric_scooter", "lat": 38.90381, "lon": -77.03216666666667, "is_reserved": 0, "fusion_lon": 0.0}, {"rental_uris": {"ios": "https://dc.lft.to/lastmile_qr_scan", "android": "https://dc.lft.to/lastmile_qr_scan"}, "fusion_lat": 0.0, "name": "541898f85b44117f4706e21eb33e7857", "bike_id": "541898f85b44117f4706e21eb33e7857", "is_disabled": 0, "type": "electric_scooter", "lat": 38.91123866666667, "lon": -77.02695833333334, "is_reserved": 0, "fusion_lon": 0.0}, {"rental_uris": {"ios": "https://dc.lft.to/lastmile_qr_scan", "android": "https://dc.lft.to/lastmile_qr_scan"}, "fusion_lat": 0.0, "name": "e36951d76ce436e6c566e22919b4a855", "bike_id": "e36951d76ce436e6c566e22919b4a855", "is_disabled": 0, "type": "electric_scooter", "lat": 38.956433, "lon": -77.03294933333333, "is_reserved": 0, "fusion_lon": 0.0}, {"rental_uris": {"ios": "https://dc.lft.to/lastmile_qr_scan", "android": "https://dc.lft.to/lastmile_qr_scan"}, "fusion_lat": 0.0, "name": "cbe2e5735cdd168487bd5f48f28ccd67", "bike_id": "cbe2e5735cdd168487bd5f48f28ccd67", "is_disabled": 0, "type": "electric_scooter", "lat": 38.893006666666665, "lon": -77.041831, "is_reserved": 0, "fusion_lon": 0.0}, {"rental_uris": {"ios": "https://dc.lft.to/lastmile_qr_scan", "android": "https://dc.lft.to/lastmile_qr_scan"}, "fusion_lat": 0.0, "name": "295296979ab395bb5b99ee09b56a3ad6", "bike_id": "295296979ab395bb5b99ee09b56a3ad6", "is_disabled": 0, "type": "electric_scooter", "lat": 38.9148855, "lon": -77.021775, "is_reserved": 0, "fusion_lon": 0.0}, {"rental_uris": {"ios": "https://dc.lft.to/lastmile_qr_scan", "android": "https://dc.lft.to/lastmile_qr_scan"}, "fusion_lat": 0.0, "name": "6689ae4a924a8c8e306d6ef157f7f250", "bike_id": "6689ae4a924a8c8e306d6ef157f7f250", "is_disabled": 0, "type": "electric_bike", "lat": 38.88665116666667, "lon": -77.16234983333334, "is_reserved": 0, "fusion_lon": 0.0}, {"rental_uris": {"ios": "https://dc.lft.to/lastmile_qr_scan", "android": "https://dc.lft.to/lastmile_qr_scan"}, "fusion_lat": 0.0, "name": "83527848e5231cff460d1e5e28ca58ff", "bike_id": "83527848e5231cff460d1e5e28ca58ff", "is_disabled": 0, "type": "electric_scooter", "lat": 38.93252566666666, "lon": -76.99530416666667, "is_reserved": 0, "fusion_lon": 0.0}, {"rental_uris": {"ios": "https://dc.lft.to/lastmile_qr_scan", "android": "https://dc.lft.to/lastmile_qr_scan"}, "fusion_lat": 0.0, "name": "b2e5ef1228c1bf4a93c29cf005cfb099", "bike_id": "b2e5ef1228c1bf4a93c29cf005cfb099", "is_disabled": 0, "type": "electric_scooter", "lat": 38.86657783333333, "lon": -76.98885816666666, "is_reserved": 0, "fusion_lon": 0.0}, {"rental_uris": {"ios": "https://dc.lft.to/lastmile_qr_scan", "android": "https://dc.lft.to/lastmile_qr_scan"}, "fusion_lat": 0.0, "name": "fa853627018b0ce8aa576453d1acb0d2", "bike_id": "fa853627018b0ce8aa576453d1acb0d2", "is_disabled": 0, "type": "electric_scooter", "lat": 38.9198635, "lon": -77.0237205, "is_reserved": 0, "fusion_lon": 0.0}, {"rental_uris": {"ios": "https://dc.lft.to/lastmile_qr_scan", "android": "https://dc.lft.to/lastmile_qr_scan"}, "fusion_lat": 0.0, "name": "071520b633b51150d826a2be3310b826", "bike_id": "071520b633b51150d826a2be3310b826", "is_disabled": 0, "type": "electric_scooter", "lat": 38.902424333333336, "lon": -77.05983133333334, "is_reserved": 0, "fusion_lon": 0.0}, {"rental_uris": {"ios": "https://dc.lft.to/lastmile_qr_scan", "android": "https://dc.lft.to/lastmile_qr_scan"}, "fusion_lat": 0.0, "name": "d87c0d0b8562e16490dc972a182c0212", "bike_id": "d87c0d0b8562e16490dc972a182c0212", "is_disabled": 0, "type": "electric_scooter", "lat": 38.91037566666667, "lon": -77.04268916666666, "is_reserved": 0, "fusion_lon": 0.0}, {"rental_uris": {"ios": "https://dc.lft.to/lastmile_qr_scan", "android": "https://dc.lft.to/lastmile_qr_scan"}, "fusion_lat": 0.0, "name": "132caafd3b65d10a462d0a4be4836f26", "bike_id": "132caafd3b65d10a462d0a4be4836f26", "is_disabled": 0, "type": "electric_scooter", "lat": 38.892212, "lon": -77.03165183333333, "is_reserved": 0, "fusion_lon": 0.0}, {"rental_uris": {"ios": "https://dc.lft.to/lastmile_qr_scan", "android": "https://dc.lft.to/lastmile_qr_scan"}, "fusion_lat": 0.0, "name": "17292989717b444bfef5aa273f9bf360", "bike_id": "17292989717b444bfef5aa273f9bf360", "is_disabled": 0, "type": "electric_scooter", "lat": 38.90473816666667, "lon": -77.007804, "is_reserved": 0, "fusion_lon": 0.0}, {"rental_uris": {"ios": "https://dc.lft.to/lastmile_qr_scan", "android": "https://dc.lft.to/lastmile_qr_scan"}, "fusion_lat": 0.0, "name": "801ca5eeafea235f6dce3c16aa6326c4", "bike_id": "801ca5eeafea235f6dce3c16aa6326c4", "is_disabled": 0, "type": "electric_scooter", "lat": 38.94455133333334, "lon": -77.0634825, "is_reserved": 0, "fusion_lon": 0.0}, {"rental_uris": {"ios": "https://dc.lft.to/lastmile_qr_scan", "android": "https://dc.lft.to/lastmile_qr_scan"}, "fusion_lat": 0.0, "name": "a1f5ea621553c629a739e2eb2331bcea", "bike_id": "a1f5ea621553c629a739e2eb2331bcea", "is_disabled": 0, "type": "electric_scooter", "lat": 38.930236666666666, "lon": -77.04441616666666, "is_reserved": 0, "fusion_lon": 0.0}, {"rental_uris": {"ios": "https://dc.lft.to/lastmile_qr_scan", "android": "https://dc.lft.to/lastmile_qr_scan"}, "fusion_lat": 0.0, "name": "6accf525b1d9f9dbdc8325ba708f2cb4", "bike_id": "6accf525b1d9f9dbdc8325ba708f2cb4", "is_disabled": 0, "type": "electric_scooter", "lat": 38.895152, "lon": -76.97727616666667, "is_reserved": 0, "fusion_lon": 0.0}, {"rental_uris": {"ios": "https://dc.lft.to/lastmile_qr_scan", "android": "https://dc.lft.to/lastmile_qr_scan"}, "fusion_lat": 0.0, "name": "a31c43826a351cb0a0d0a0023fe09961", "bike_id": "a31c43826a351cb0a0d0a0023fe09961", "is_disabled": 0, "type": "electric_scooter", "lat": 38.892237333333334, "lon": -77.03161916666667, "is_reserved": 0, "fusion_lon": 0.0}, {"rental_uris": {"ios": "https://dc.lft.to/lastmile_qr_scan", "android": "https://dc.lft.to/lastmile_qr_scan"}, "fusion_lat": 0.0, "name": "24219220e7b1b1aa42e5498993676ce8", "bike_id": "24219220e7b1b1aa42e5498993676ce8", "is_disabled": 0, "type": "electric_scooter", "lat": 38.95428533333333, "lon": -77.02763183333333, "is_reserved": 0, "fusion_lon": 0.0}, {"rental_uris": {"ios": "https://dc.lft.to/lastmile_qr_scan", "android": "https://dc.lft.to/lastmile_qr_scan"}, "fusion_lat": 0.0, "name": "6a146f700e638895731da9c5602bce04", "bike_id": "6a146f700e638895731da9c5602bce04", "is_disabled": 0, "type": "electric_scooter", "lat": 38.899797166666666, "lon": -76.93988016666667, "is_reserved": 0, "fusion_lon": 0.0}, {"rental_uris": {"ios": "https://dc.lft.to/lastmile_qr_scan", "android": "https://dc.lft.to/lastmile_qr_scan"}, "fusion_lat": 0.0, "name": "ee4fc81b7cec28f04bc78349231e88ce", "bike_id": "ee4fc81b7cec28f04bc78349231e88ce", "is_disabled": 0, "type": "electric_scooter", "lat": 38.91275433333333, "lon": -77.02219866666667, "is_reserved": 0, "fusion_lon": 0.0}, {"rental_uris": {"ios": "https://dc.lft.to/lastmile_qr_scan", "android": "https://dc.lft.to/lastmile_qr_scan"}, "fusion_lat": 0.0, "name": "8da8eb678a8782a1b79528a29a994726", "bike_id": "8da8eb678a8782a1b79528a29a994726", "is_disabled": 0, "type": "electric_scooter", "lat": 38.919057, "lon": -77.02475483333333, "is_reserved": 0, "fusion_lon": 0.0}, {"rental_uris": {"ios": "https://dc.lft.to/lastmile_qr_scan", "android": "https://dc.lft.to/lastmile_qr_scan"}, "fusion_lat": 0.0, "name": "23d276685880bc9a6386f2fa306c4471", "bike_id": "23d276685880bc9a6386f2fa306c4471", "is_disabled": 0, "type": "electric_scooter", "lat": 38.8922535, "lon": -77.04326866666666, "is_reserved": 0, "fusion_lon": 0.0}, {"rental_uris": {"ios": "https://dc.lft.to/lastmile_qr_scan", "android": "https://dc.lft.to/lastmile_qr_scan"}, "fusion_lat": 0.0, "name": "ff08bbcc183ff6759d34772904906ed1", "bike_id": "ff08bbcc183ff6759d34772904906ed1", "is_disabled": 0, "type": "electric_scooter", "lat": 38.892266666666664, "lon": -77.03336616666667, "is_reserved": 0, "fusion_lon": 0.0}, {"rental_uris": {"ios": "https://dc.lft.to/lastmile_qr_scan", "android": "https://dc.lft.to/lastmile_qr_scan"}, "fusion_lat": 0.0, "name": "172f16ee2e3173e761be380174f2b053", "bike_id": "172f16ee2e3173e761be380174f2b053", "is_disabled": 0, "type": "electric_scooter", "lat": 38.90740866666667, "lon": -77.027139, "is_reserved": 0, "fusion_lon": 0.0}, {"rental_uris": {"ios": "https://dc.lft.to/lastmile_qr_scan", "android": "https://dc.lft.to/lastmile_qr_scan"}, "fusion_lat": 0.0, "name": "1b353df41f07a38467f27501b9da1f54", "bike_id": "1b353df41f07a38467f27501b9da1f54", "is_disabled": 0, "type": "electric_scooter", "lat": 38.949604666666666, "lon": -77.02719133333333, "is_reserved": 0, "fusion_lon": 0.0}, {"rental_uris": {"ios": "https://dc.lft.to/lastmile_qr_scan", "android": "https://dc.lft.to/lastmile_qr_scan"}, "fusion_lat": 0.0, "name": "0dcbf6ac7be8402baf3b195ae010df1e", "bike_id": "0dcbf6ac7be8402baf3b195ae010df1e", "is_disabled": 0, "type": "electric_scooter", "lat": 38.95168683333333, "lon": -77.0275055, "is_reserved": 0, "fusion_lon": 0.0}, {"rental_uris": {"ios": "https://dc.lft.to/lastmile_qr_scan", "android": "https://dc.lft.to/lastmile_qr_scan"}, "fusion_lat": 0.0, "name": "e7e7d2ef3e2353fed53c0b27ae47b72b", "bike_id": "e7e7d2ef3e2353fed53c0b27ae47b72b", "is_disabled": 0, "type": "electric_scooter", "lat": 38.917077166666665, "lon": -77.03730483333334, "is_reserved": 0, "fusion_lon": 0.0}, {"rental_uris": {"ios": "https://dc.lft.to/lastmile_qr_scan", "android": "https://dc.lft.to/lastmile_qr_scan"}, "fusion_lat": 0.0, "name": "6340604c2956684f35a80a3f9914c0ee", "bike_id": "6340604c2956684f35a80a3f9914c0ee", "is_disabled": 0, "type": "electric_scooter", "lat": 38.8922035, "lon": -77.0136905, "is_reserved": 0, "fusion_lon": 0.0}, {"rental_uris": {"ios": "https://dc.lft.to/lastmile_qr_scan", "android": "https://dc.lft.to/lastmile_qr_scan"}, "fusion_lat": 0.0, "name": "536a8dbf2f6986a03ed854ccaee9c97e", "bike_id": "536a8dbf2f6986a03ed854ccaee9c97e", "is_disabled": 0, "type": "electric_scooter", "lat": 38.915590333333334, "lon": -77.0386145, "is_reserved": 0, "fusion_lon": 0.0}, {"rental_uris": {"ios": "https://dc.lft.to/lastmile_qr_scan", "android": "https://dc.lft.to/lastmile_qr_scan"}, "fusion_lat": 0.0, "name": "8270e20678b9ba9dac29bb8c766b1328", "bike_id": "8270e20678b9ba9dac29bb8c766b1328", "is_disabled": 0, "type": "electric_scooter", "lat": 38.91226433333333, "lon": -77.041177, "is_reserved": 0, "fusion_lon": 0.0}, {"rental_uris": {"ios": "https://dc.lft.to/lastmile_qr_scan", "android": "https://dc.lft.to/lastmile_qr_scan"}, "fusion_lat": 0.0, "name": "3e9b6dd814037b77fd4c1ff986891f46", "bike_id": "3e9b6dd814037b77fd4c1ff986891f46", "is_disabled": 0, "type": "electric_scooter", "lat": 38.90124, "lon": -77.03370033333333, "is_reserved": 0, "fusion_lon": 0.0}, {"rental_uris": {"ios": "https://dc.lft.to/lastmile_qr_scan", "android": "https://dc.lft.to/lastmile_qr_scan"}, "fusion_lat": 0.0, "name": "b50455115ecae164f450d65eadbbdad2", "bike_id": "b50455115ecae164f450d65eadbbdad2", "is_disabled": 0, "type": "electric_scooter", "lat": 38.9156835, "lon": -77.02004533333333, "is_reserved": 0, "fusion_lon": 0.0}, {"rental_uris": {"ios": "https://dc.lft.to/lastmile_qr_scan", "android": "https://dc.lft.to/lastmile_qr_scan"}, "fusion_lat": 0.0, "name": "afe5a136b42c6a891a801e8ad2c83853", "bike_id": "afe5a136b42c6a891a801e8ad2c83853", "is_disabled": 0, "type": "electric_scooter", "lat": 38.86692566666667, "lon": -76.98548083333333, "is_reserved": 0, "fusion_lon": 0.0}, {"rental_uris": {"ios": "https://dc.lft.to/lastmile_qr_scan", "android": "https://dc.lft.to/lastmile_qr_scan"}, "fusion_lat": 0.0, "name": "da104630e6eb3a7b3369df154c7e0773", "bike_id": "da104630e6eb3a7b3369df154c7e0773", "is_disabled": 0, "type": "electric_scooter", "lat": 38.892349833333334, "lon": -77.02802616666666, "is_reserved": 0, "fusion_lon": 0.0}, {"rental_uris": {"ios": "https://dc.lft.to/lastmile_qr_scan", "android": "https://dc.lft.to/lastmile_qr_scan"}, "fusion_lat": 0.0, "name": "d3cfab8355fdfde56b5ec21906299247", "bike_id": "d3cfab8355fdfde56b5ec21906299247", "is_disabled": 0, "type": "electric_scooter", "lat": 38.84081233333333, "lon": -76.98925133333333, "is_reserved": 0, "fusion_lon": 0.0}, {"rental_uris": {"ios": "https://dc.lft.to/lastmile_qr_scan", "android": "https://dc.lft.to/lastmile_qr_scan"}, "fusion_lat": 0.0, "name": "3c869eb1e47ed4c386a2bfd0d59d4be4", "bike_id": "3c869eb1e47ed4c386a2bfd0d59d4be4", "is_disabled": 0, "type": "electric_scooter", "lat": 38.917106833333335, "lon": -77.03883083333334, "is_reserved": 0, "fusion_lon": 0.0}, {"rental_uris": {"ios": "https://dc.lft.to/lastmile_qr_scan", "android": "https://dc.lft.to/lastmile_qr_scan"}, "fusion_lat": 0.0, "name": "d824d939ce97e035fe8c4876db96edba", "bike_id": "d824d939ce97e035fe8c4876db96edba", "is_disabled": 0, "type": "electric_scooter", "lat": 38.87629283333333, "lon": -76.96517083333333, "is_reserved": 0, "fusion_lon": 0.0}, {"rental_uris": {"ios": "https://dc.lft.to/lastmile_qr_scan", "android": "https://dc.lft.to/lastmile_qr_scan"}, "fusion_lat": 0.0, "name": "5a66d1004e6c1c4e9c940c3a740a7c15", "bike_id": "5a66d1004e6c1c4e9c940c3a740a7c15", "is_disabled": 0, "type": "electric_scooter", "lat": 38.9117785, "lon": -77.03189616666667, "is_reserved": 0, "fusion_lon": 0.0}, {"rental_uris": {"ios": "https://dc.lft.to/lastmile_qr_scan", "android": "https://dc.lft.to/lastmile_qr_scan"}, "fusion_lat": 0.0, "name": "2307bc77340fa8ca8907d77c79a3f475", "bike_id": "2307bc77340fa8ca8907d77c79a3f475", "is_disabled": 0, "type": "electric_scooter", "lat": 38.926789666666664, "lon": -77.015586, "is_reserved": 0, "fusion_lon": 0.0}, {"rental_uris": {"ios": "https://dc.lft.to/lastmile_qr_scan", "android": "https://dc.lft.to/lastmile_qr_scan"}, "fusion_lat": 0.0, "name": "502469ecd39bcdeb95dd55f9d3837ddc", "bike_id": "502469ecd39bcdeb95dd55f9d3837ddc", "is_disabled": 0, "type": "electric_scooter", "lat": 38.9186015, "lon": -77.03892616666667, "is_reserved": 0, "fusion_lon": 0.0}, {"rental_uris": {"ios": "https://dc.lft.to/lastmile_qr_scan", "android": "https://dc.lft.to/lastmile_qr_scan"}, "fusion_lat": 0.0, "name": "3b4468c4115190ccb9b9f3c8bf7a9243", "bike_id": "3b4468c4115190ccb9b9f3c8bf7a9243", "is_disabled": 0, "type": "electric_scooter", "lat": 38.91124466666667, "lon": -77.04475583333334, "is_reserved": 0, "fusion_lon": 0.0}, {"rental_uris": {"ios": "https://dc.lft.to/lastmile_qr_scan", "android": "https://dc.lft.to/lastmile_qr_scan"}, "fusion_lat": 0.0, "name": "b6d3fc6a22330bfa03b8a6efb981ddeb", "bike_id": "b6d3fc6a22330bfa03b8a6efb981ddeb", "is_disabled": 0, "type": "electric_bike", "lat": 38.8737665, "lon": -77.11799216666667, "is_reserved": 0, "fusion_lon": 0.0}, {"rental_uris": {"ios": "https://dc.lft.to/lastmile_qr_scan", "android": "https://dc.lft.to/lastmile_qr_scan"}, "fusion_lat": 0.0, "name": "67fc0e9151330a6f46d4cafdb99f55be", "bike_id": "67fc0e9151330a6f46d4cafdb99f55be", "is_disabled": 0, "type": "electric_scooter", "lat": 38.890177666666666, "lon": -76.9373375, "is_reserved": 0, "fusion_lon": 0.0}, {"rental_uris": {"ios": "https://dc.lft.to/lastmile_qr_scan", "android": "https://dc.lft.to/lastmile_qr_scan"}, "fusion_lat": 0.0, "name": "24290cdaccf3baf8bbe4e277937a3c5f", "bike_id": "24290cdaccf3baf8bbe4e277937a3c5f", "is_disabled": 0, "type": "electric_bike", "lat": 38.969309833333334, "lon": -77.02617633333334, "is_reserved": 0, "fusion_lon": 0.0}, {"rental_uris": {"ios": "https://dc.lft.to/lastmile_qr_scan", "android": "https://dc.lft.to/lastmile_qr_scan"}, "fusion_lat": 0.0, "name": "56c04b123d8e2f4104ca064180aa44ec", "bike_id": "56c04b123d8e2f4104ca064180aa44ec", "is_disabled": 0, "type": "electric_scooter", "lat": 38.89233383333333, "lon": -77.03371683333333, "is_reserved": 0, "fusion_lon": 0.0}, {"rental_uris": {"ios": "https://dc.lft.to/lastmile_qr_scan", "android": "https://dc.lft.to/lastmile_qr_scan"}, "fusion_lat": 0.0, "name": "37a0621742b8c0eb4e66816e90f1f7ac", "bike_id": "37a0621742b8c0eb4e66816e90f1f7ac", "is_disabled": 0, "type": "electric_scooter", "lat": 38.90707333333334, "lon": -77.05013416666667, "is_reserved": 0, "fusion_lon": 0.0}, {"rental_uris": {"ios": "https://dc.lft.to/lastmile_qr_scan", "android": "https://dc.lft.to/lastmile_qr_scan"}, "fusion_lat": 0.0, "name": "8111ddb1fd8a1245b1260f6c1de22cb5", "bike_id": "8111ddb1fd8a1245b1260f6c1de22cb5", "is_disabled": 0, "type": "electric_scooter", "lat": 38.91693166666667, "lon": -77.03528133333333, "is_reserved": 0, "fusion_lon": 0.0}, {"rental_uris": {"ios": "https://dc.lft.to/lastmile_qr_scan", "android": "https://dc.lft.to/lastmile_qr_scan"}, "fusion_lat": 0.0, "name": "95d50142a8b1b2302dddd17c34a89d91", "bike_id": "95d50142a8b1b2302dddd17c34a89d91", "is_disabled": 0, "type": "electric_scooter", "lat": 38.906515, "lon": -77.03895566666667, "is_reserved": 0, "fusion_lon": 0.0}, {"rental_uris": {"ios": "https://dc.lft.to/lastmile_qr_scan", "android": "https://dc.lft.to/lastmile_qr_scan"}, "fusion_lat": 0.0, "name": "0b46d9a6dd20b126b0ffd9d4f5cc3dc7", "bike_id": "0b46d9a6dd20b126b0ffd9d4f5cc3dc7", "is_disabled": 0, "type": "electric_scooter", "lat": 38.9238055, "lon": -77.018951, "is_reserved": 0, "fusion_lon": 0.0}, {"rental_uris": {"ios": "https://dc.lft.to/lastmile_qr_scan", "android": "https://dc.lft.to/lastmile_qr_scan"}, "fusion_lat": 0.0, "name": "9d6a3b7114d925c7a7710e25ccaa57af", "bike_id": "9d6a3b7114d925c7a7710e25ccaa57af", "is_disabled": 0, "type": "electric_scooter", "lat": 38.92249266666666, "lon": -77.03007633333333, "is_reserved": 0, "fusion_lon": 0.0}, {"rental_uris": {"ios": "https://dc.lft.to/lastmile_qr_scan", "android": "https://dc.lft.to/lastmile_qr_scan"}, "fusion_lat": 0.0, "name": "675f6543ad675ff942651e81cc26c351", "bike_id": "675f6543ad675ff942651e81cc26c351", "is_disabled": 0, "type": "electric_scooter", "lat": 38.88918316666667, "lon": -76.92953366666667, "is_reserved": 0, "fusion_lon": 0.0}, {"rental_uris": {"ios": "https://dc.lft.to/lastmile_qr_scan", "android": "https://dc.lft.to/lastmile_qr_scan"}, "fusion_lat": 0.0, "name": "87c629f8fd2f2dd80232187dda18fd89", "bike_id": "87c629f8fd2f2dd80232187dda18fd89", "is_disabled": 0, "type": "electric_scooter", "lat": 38.844282666666665, "lon": -76.9977605, "is_reserved": 0, "fusion_lon": 0.0}, {"rental_uris": {"ios": "https://dc.lft.to/lastmile_qr_scan", "android": "https://dc.lft.to/lastmile_qr_scan"}, "fusion_lat": 0.0, "name": "d6a260c70be71bfeb888a3e6a92ce9fa", "bike_id": "d6a260c70be71bfeb888a3e6a92ce9fa", "is_disabled": 0, "type": "electric_scooter", "lat": 38.9086365, "lon": -77.04434266666667, "is_reserved": 0, "fusion_lon": 0.0}, {"rental_uris": {"ios": "https://dc.lft.to/lastmile_qr_scan", "android": "https://dc.lft.to/lastmile_qr_scan"}, "fusion_lat": 0.0, "name": "71bf8f46e85ce2f130990a3d4181ff5c", "bike_id": "71bf8f46e85ce2f130990a3d4181ff5c", "is_disabled": 0, "type": "electric_bike", "lat": 38.871465, "lon": -76.93698616666667, "is_reserved": 0, "fusion_lon": 0.0}, {"rental_uris": {"ios": "https://dc.lft.to/lastmile_qr_scan", "android": "https://dc.lft.to/lastmile_qr_scan"}, "fusion_lat": 0.0, "name": "764e68d8da0d9997cccedc7f2fb4878e", "bike_id": "764e68d8da0d9997cccedc7f2fb4878e", "is_disabled": 0, "type": "electric_scooter", "lat": 38.92272466666667, "lon": -77.022467, "is_reserved": 0, "fusion_lon": 0.0}, {"rental_uris": {"ios": "https://dc.lft.to/lastmile_qr_scan", "android": "https://dc.lft.to/lastmile_qr_scan"}, "fusion_lat": 0.0, "name": "0c3881f57fdec363d56425134cf57b16", "bike_id": "0c3881f57fdec363d56425134cf57b16", "is_disabled": 0, "type": "electric_scooter", "lat": 38.9022975, "lon": -77.05124266666667, "is_reserved": 0, "fusion_lon": 0.0}, {"rental_uris": {"ios": "https://dc.lft.to/lastmile_qr_scan", "android": "https://dc.lft.to/lastmile_qr_scan"}, "fusion_lat": 0.0, "name": "99e7c7a34b4986efbe97d03df3091876", "bike_id": "99e7c7a34b4986efbe97d03df3091876", "is_disabled": 0, "type": "electric_scooter", "lat": 38.96135566666667, "lon": -77.02232883333333, "is_reserved": 0, "fusion_lon": 0.0}, {"rental_uris": {"ios": "https://dc.lft.to/lastmile_qr_scan", "android": "https://dc.lft.to/lastmile_qr_scan"}, "fusion_lat": 0.0, "name": "92da8784e629ca93026c627b65eb4fd0", "bike_id": "92da8784e629ca93026c627b65eb4fd0", "is_disabled": 0, "type": "electric_scooter", "lat": 38.88432666666667, "lon": -76.95753183333333, "is_reserved": 0, "fusion_lon": 0.0}, {"rental_uris": {"ios": "https://dc.lft.to/lastmile_qr_scan", "android": "https://dc.lft.to/lastmile_qr_scan"}, "fusion_lat": 0.0, "name": "73209040ab83ab1edcf963d2c9f3b50f", "bike_id": "73209040ab83ab1edcf963d2c9f3b50f", "is_disabled": 0, "type": "electric_bike", "lat": 38.857245166666665, "lon": -76.97092766666667, "is_reserved": 0, "fusion_lon": 0.0}, {"rental_uris": {"ios": "https://dc.lft.to/lastmile_qr_scan", "android": "https://dc.lft.to/lastmile_qr_scan"}, "fusion_lat": 0.0, "name": "be99eefb9f7f564ea76862b68ad35dd1", "bike_id": "be99eefb9f7f564ea76862b68ad35dd1", "is_disabled": 0, "type": "electric_scooter", "lat": 38.89845833333333, "lon": -76.9463415, "is_reserved": 0, "fusion_lon": 0.0}, {"rental_uris": {"ios": "https://dc.lft.to/lastmile_qr_scan", "android": "https://dc.lft.to/lastmile_qr_scan"}, "fusion_lat": 0.0, "name": "bf9164f7ed16ac1c2db0f0289c66b31a", "bike_id": "bf9164f7ed16ac1c2db0f0289c66b31a", "is_disabled": 0, "type": "electric_scooter", "lat": 38.844319666666664, "lon": -76.99776916666667, "is_reserved": 0, "fusion_lon": 0.0}, {"rental_uris": {"ios": "https://dc.lft.to/lastmile_qr_scan", "android": "https://dc.lft.to/lastmile_qr_scan"}, "fusion_lat": 0.0, "name": "d578eee9f5f30421510a0bc749981104", "bike_id": "d578eee9f5f30421510a0bc749981104", "is_disabled": 0, "type": "electric_scooter", "lat": 38.892344333333334, "lon": -77.0337315, "is_reserved": 0, "fusion_lon": 0.0}, {"rental_uris": {"ios": "https://dc.lft.to/lastmile_qr_scan", "android": "https://dc.lft.to/lastmile_qr_scan"}, "fusion_lat": 0.0, "name": "46ee4a718cca5d8edca373e24cf1b314", "bike_id": "46ee4a718cca5d8edca373e24cf1b314", "is_disabled": 0, "type": "electric_scooter", "lat": 38.8922695, "lon": -77.04367933333333, "is_reserved": 0, "fusion_lon": 0.0}, {"rental_uris": {"ios": "https://dc.lft.to/lastmile_qr_scan", "android": "https://dc.lft.to/lastmile_qr_scan"}, "fusion_lat": 0.0, "name": "52109e3ac26c7300a66a2744a0831c96", "bike_id": "52109e3ac26c7300a66a2744a0831c96", "is_disabled": 0, "type": "electric_scooter", "lat": 38.917533166666665, "lon": -77.0240235, "is_reserved": 0, "fusion_lon": 0.0}, {"rental_uris": {"ios": "https://dc.lft.to/lastmile_qr_scan", "android": "https://dc.lft.to/lastmile_qr_scan"}, "fusion_lat": 0.0, "name": "0fd81365abdee8602f56bb453b231adf", "bike_id": "0fd81365abdee8602f56bb453b231adf", "is_disabled": 0, "type": "electric_scooter", "lat": 38.91033566666667, "lon": -77.04105016666666, "is_reserved": 0, "fusion_lon": 0.0}, {"rental_uris": {"ios": "https://dc.lft.to/lastmile_qr_scan", "android": "https://dc.lft.to/lastmile_qr_scan"}, "fusion_lat": 0.0, "name": "240f756d25039f8c7bcdc5355eee1e8a", "bike_id": "240f756d25039f8c7bcdc5355eee1e8a", "is_disabled": 0, "type": "electric_scooter", "lat": 38.91185866666667, "lon": -77.04844983333334, "is_reserved": 0, "fusion_lon": 0.0}, {"rental_uris": {"ios": "https://dc.lft.to/lastmile_qr_scan", "android": "https://dc.lft.to/lastmile_qr_scan"}, "fusion_lat": 0.0, "name": "36083b460fb1606acf19cc7965ee0cf1", "bike_id": "36083b460fb1606acf19cc7965ee0cf1", "is_disabled": 0, "type": "electric_scooter", "lat": 38.917704, "lon": -77.03185016666667, "is_reserved": 0, "fusion_lon": 0.0}, {"rental_uris": {"ios": "https://dc.lft.to/lastmile_qr_scan", "android": "https://dc.lft.to/lastmile_qr_scan"}, "fusion_lat": 0.0, "name": "e19a2d8bf330202e411fa55ddd034fa9", "bike_id": "e19a2d8bf330202e411fa55ddd034fa9", "is_disabled": 0, "type": "electric_scooter", "lat": 38.9286965, "lon": -77.03294983333333, "is_reserved": 0, "fusion_lon": 0.0}, {"rental_uris": {"ios": "https://dc.lft.to/lastmile_qr_scan", "android": "https://dc.lft.to/lastmile_qr_scan"}, "fusion_lat": 0.0, "name": "27973cf87e6772c0c13a0a95588a8c7c", "bike_id": "27973cf87e6772c0c13a0a95588a8c7c", "is_disabled": 0, "type": "electric_bike", "lat": 38.8193775, "lon": -77.00204166666667, "is_reserved": 0, "fusion_lon": 0.0}, {"rental_uris": {"ios": "https://dc.lft.to/lastmile_qr_scan", "android": "https://dc.lft.to/lastmile_qr_scan"}, "fusion_lat": 0.0, "name": "f6a39908e6071149a96a94223c24b406", "bike_id": "f6a39908e6071149a96a94223c24b406", "is_disabled": 0, "type": "electric_scooter", "lat": 38.906062, "lon": -77.026959, "is_reserved": 0, "fusion_lon": 0.0}, {"rental_uris": {"ios": "https://dc.lft.to/lastmile_qr_scan", "android": "https://dc.lft.to/lastmile_qr_scan"}, "fusion_lat": 0.0, "name": "6b94ce3da3467464388ae1f9fd939a3f", "bike_id": "6b94ce3da3467464388ae1f9fd939a3f", "is_disabled": 0, "type": "electric_scooter", "lat": 38.90582533333333, "lon": -77.0451465, "is_reserved": 0, "fusion_lon": 0.0}, {"rental_uris": {"ios": "https://dc.lft.to/lastmile_qr_scan", "android": "https://dc.lft.to/lastmile_qr_scan"}, "fusion_lat": 0.0, "name": "5077aef0e6199c17fe0ab147ccef77e8", "bike_id": "5077aef0e6199c17fe0ab147ccef77e8", "is_disabled": 0, "type": "electric_scooter", "lat": 38.89503583333333, "lon": -76.948753, "is_reserved": 0, "fusion_lon": 0.0}, {"rental_uris": {"ios": "https://dc.lft.to/lastmile_qr_scan", "android": "https://dc.lft.to/lastmile_qr_scan"}, "fusion_lat": 0.0, "name": "66cb6bafeb14195edc23fa8c4a8c37d8", "bike_id": "66cb6bafeb14195edc23fa8c4a8c37d8", "is_disabled": 0, "type": "electric_scooter", "lat": 38.90619133333333, "lon": -77.02610483333333, "is_reserved": 0, "fusion_lon": 0.0}, {"rental_uris": {"ios": "https://dc.lft.to/lastmile_qr_scan", "android": "https://dc.lft.to/lastmile_qr_scan"}, "fusion_lat": 0.0, "name": "c269837a3255bc92a527df05f8948a33", "bike_id": "c269837a3255bc92a527df05f8948a33", "is_disabled": 0, "type": "electric_bike", "lat": 38.805086333333335, "lon": -77.04133416666667, "is_reserved": 0, "fusion_lon": 0.0}, {"rental_uris": {"ios": "https://dc.lft.to/lastmile_qr_scan", "android": "https://dc.lft.to/lastmile_qr_scan"}, "fusion_lat": 0.0, "name": "a739cfd4b49dbf3d7da6aa584fbf5d04", "bike_id": "a739cfd4b49dbf3d7da6aa584fbf5d04", "is_disabled": 0, "type": "electric_scooter", "lat": 38.909717, "lon": -77.0343545, "is_reserved": 0, "fusion_lon": 0.0}, {"rental_uris": {"ios": "https://dc.lft.to/lastmile_qr_scan", "android": "https://dc.lft.to/lastmile_qr_scan"}, "fusion_lat": 0.0, "name": "3528a62c19d6274cfa852b309e73a543", "bike_id": "3528a62c19d6274cfa852b309e73a543", "is_disabled": 0, "type": "electric_scooter", "lat": 38.906409, "lon": -76.99509116666667, "is_reserved": 0, "fusion_lon": 0.0}, {"rental_uris": {"ios": "https://dc.lft.to/lastmile_qr_scan", "android": "https://dc.lft.to/lastmile_qr_scan"}, "fusion_lat": 0.0, "name": "023b018dbb2f8c6c8409d4c616875904", "bike_id": "023b018dbb2f8c6c8409d4c616875904", "is_disabled": 0, "type": "electric_scooter", "lat": 38.8952995, "lon": -77.00210483333333, "is_reserved": 0, "fusion_lon": 0.0}, {"rental_uris": {"ios": "https://dc.lft.to/lastmile_qr_scan", "android": "https://dc.lft.to/lastmile_qr_scan"}, "fusion_lat": 0.0, "name": "f7ab236878038255c9af0f442ff87ed2", "bike_id": "f7ab236878038255c9af0f442ff87ed2", "is_disabled": 0, "type": "electric_scooter", "lat": 38.92644883333333, "lon": -77.0251075, "is_reserved": 0, "fusion_lon": 0.0}, {"rental_uris": {"ios": "https://dc.lft.to/lastmile_qr_scan", "android": "https://dc.lft.to/lastmile_qr_scan"}, "fusion_lat": 0.0, "name": "d31100e933f8ebf98b5a44ce4fa1e093", "bike_id": "d31100e933f8ebf98b5a44ce4fa1e093", "is_disabled": 0, "type": "electric_scooter", "lat": 38.909779, "lon": -77.0343645, "is_reserved": 0, "fusion_lon": 0.0}, {"rental_uris": {"ios": "https://dc.lft.to/lastmile_qr_scan", "android": "https://dc.lft.to/lastmile_qr_scan"}, "fusion_lat": 0.0, "name": "5dd3a88abf84883d6a9f06b70c53b562", "bike_id": "5dd3a88abf84883d6a9f06b70c53b562", "is_disabled": 0, "type": "electric_scooter", "lat": 38.8867665, "lon": -77.01369216666667, "is_reserved": 0, "fusion_lon": 0.0}, {"rental_uris": {"ios": "https://dc.lft.to/lastmile_qr_scan", "android": "https://dc.lft.to/lastmile_qr_scan"}, "fusion_lat": 0.0, "name": "f864489388ac073d52f2b17934e8e4c6", "bike_id": "f864489388ac073d52f2b17934e8e4c6", "is_disabled": 0, "type": "electric_scooter", "lat": 38.906035333333335, "lon": -77.0411855, "is_reserved": 0, "fusion_lon": 0.0}, {"rental_uris": {"ios": "https://dc.lft.to/lastmile_qr_scan", "android": "https://dc.lft.to/lastmile_qr_scan"}, "fusion_lat": 0.0, "name": "8fffc741d141131f2369443923adaa53", "bike_id": "8fffc741d141131f2369443923adaa53", "is_disabled": 0, "type": "electric_scooter", "lat": 38.91106666666667, "lon": -77.00215583333333, "is_reserved": 0, "fusion_lon": 0.0}, {"rental_uris": {"ios": "https://dc.lft.to/lastmile_qr_scan", "android": "https://dc.lft.to/lastmile_qr_scan"}, "fusion_lat": 0.0, "name": "42ec90f479158a10bff2277a2ab3a208", "bike_id": "42ec90f479158a10bff2277a2ab3a208", "is_disabled": 0, "type": "electric_scooter", "lat": 38.9492595, "lon": -77.01947416666667, "is_reserved": 0, "fusion_lon": 0.0}, {"rental_uris": {"ios": "https://dc.lft.to/lastmile_qr_scan", "android": "https://dc.lft.to/lastmile_qr_scan"}, "fusion_lat": 0.0, "name": "5b7000eb48dc68804bfdb81d9b287419", "bike_id": "5b7000eb48dc68804bfdb81d9b287419", "is_disabled": 0, "type": "electric_scooter", "lat": 38.909605166666665, "lon": -77.04061233333333, "is_reserved": 0, "fusion_lon": 0.0}, {"rental_uris": {"ios": "https://dc.lft.to/lastmile_qr_scan", "android": "https://dc.lft.to/lastmile_qr_scan"}, "fusion_lat": 0.0, "name": "4b40812b00b3c944327197d46754e5f7", "bike_id": "4b40812b00b3c944327197d46754e5f7", "is_disabled": 0, "type": "electric_scooter", "lat": 38.92674216666666, "lon": -77.014698, "is_reserved": 0, "fusion_lon": 0.0}, {"rental_uris": {"ios": "https://dc.lft.to/lastmile_qr_scan", "android": "https://dc.lft.to/lastmile_qr_scan"}, "fusion_lat": 0.0, "name": "d309eb51713e654408d9405d8a4b8b81", "bike_id": "d309eb51713e654408d9405d8a4b8b81", "is_disabled": 0, "type": "electric_scooter", "lat": 38.9079535, "lon": -77.03182783333334, "is_reserved": 0, "fusion_lon": 0.0}, {"rental_uris": {"ios": "https://dc.lft.to/lastmile_qr_scan", "android": "https://dc.lft.to/lastmile_qr_scan"}, "fusion_lat": 0.0, "name": "d16b5defbbeef27b6368c9bd8ba10982", "bike_id": "d16b5defbbeef27b6368c9bd8ba10982", "is_disabled": 0, "type": "electric_scooter", "lat": 38.916978666666665, "lon": -77.02598816666666, "is_reserved": 0, "fusion_lon": 0.0}, {"rental_uris": {"ios": "https://dc.lft.to/lastmile_qr_scan", "android": "https://dc.lft.to/lastmile_qr_scan"}, "fusion_lat": 0.0, "name": "0d8cfcd2353bbbd5b79de268b656a95a", "bike_id": "0d8cfcd2353bbbd5b79de268b656a95a", "is_disabled": 0, "type": "electric_bike", "lat": 38.855213, "lon": -77.12039916666667, "is_reserved": 0, "fusion_lon": 0.0}, {"rental_uris": {"ios": "https://dc.lft.to/lastmile_qr_scan", "android": "https://dc.lft.to/lastmile_qr_scan"}, "fusion_lat": 0.0, "name": "b1b1ad0d9da90dcfc1e97cb7fca46574", "bike_id": "b1b1ad0d9da90dcfc1e97cb7fca46574", "is_disabled": 0, "type": "electric_scooter", "lat": 38.90961333333333, "lon": -77.02580233333333, "is_reserved": 0, "fusion_lon": 0.0}, {"rental_uris": {"ios": "https://dc.lft.to/lastmile_qr_scan", "android": "https://dc.lft.to/lastmile_qr_scan"}, "fusion_lat": 0.0, "name": "7915dbfde660252100c83afac6b17a6f", "bike_id": "7915dbfde660252100c83afac6b17a6f", "is_disabled": 0, "type": "electric_scooter", "lat": 38.92369466666667, "lon": -77.01915816666667, "is_reserved": 0, "fusion_lon": 0.0}, {"rental_uris": {"ios": "https://dc.lft.to/lastmile_qr_scan", "android": "https://dc.lft.to/lastmile_qr_scan"}, "fusion_lat": 0.0, "name": "15b3cb8be20cc383436e297de76accdc", "bike_id": "15b3cb8be20cc383436e297de76accdc", "is_disabled": 0, "type": "electric_scooter", "lat": 38.8976265, "lon": -76.94186983333333, "is_reserved": 0, "fusion_lon": 0.0}, {"rental_uris": {"ios": "https://dc.lft.to/lastmile_qr_scan", "android": "https://dc.lft.to/lastmile_qr_scan"}, "fusion_lat": 0.0, "name": "9fa9f4df9a0ede8fa3663ca919aec0ee", "bike_id": "9fa9f4df9a0ede8fa3663ca919aec0ee", "is_disabled": 0, "type": "electric_scooter", "lat": 38.91786966666667, "lon": -77.02351016666667, "is_reserved": 0, "fusion_lon": 0.0}, {"rental_uris": {"ios": "https://dc.lft.to/lastmile_qr_scan", "android": "https://dc.lft.to/lastmile_qr_scan"}, "fusion_lat": 0.0, "name": "ca544f6b99bc785144ead90c7e3654ec", "bike_id": "ca544f6b99bc785144ead90c7e3654ec", "is_disabled": 0, "type": "electric_scooter", "lat": 38.918093666666664, "lon": -77.04029566666667, "is_reserved": 0, "fusion_lon": 0.0}, {"rental_uris": {"ios": "https://dc.lft.to/lastmile_qr_scan", "android": "https://dc.lft.to/lastmile_qr_scan"}, "fusion_lat": 0.0, "name": "fd69609b131110c9809a5b7d50471462", "bike_id": "fd69609b131110c9809a5b7d50471462", "is_disabled": 0, "type": "electric_scooter", "lat": 38.92243333333333, "lon": -77.0341895, "is_reserved": 0, "fusion_lon": 0.0}, {"rental_uris": {"ios": "https://dc.lft.to/lastmile_qr_scan", "android": "https://dc.lft.to/lastmile_qr_scan"}, "fusion_lat": 0.0, "name": "d1c13c9e3319c6b93923fa9bb4a65b15", "bike_id": "d1c13c9e3319c6b93923fa9bb4a65b15", "is_disabled": 0, "type": "electric_scooter", "lat": 38.92138466666667, "lon": -77.00844533333333, "is_reserved": 0, "fusion_lon": 0.0}, {"rental_uris": {"ios": "https://dc.lft.to/lastmile_qr_scan", "android": "https://dc.lft.to/lastmile_qr_scan"}, "fusion_lat": 0.0, "name": "14d33e5abfb7146e94fa301c632988fa", "bike_id": "14d33e5abfb7146e94fa301c632988fa", "is_disabled": 0, "type": "electric_scooter", "lat": 38.921369, "lon": -77.01914, "is_reserved": 0, "fusion_lon": 0.0}, {"rental_uris": {"ios": "https://dc.lft.to/lastmile_qr_scan", "android": "https://dc.lft.to/lastmile_qr_scan"}, "fusion_lat": 0.0, "name": "3a32110a128cfed96c006fff492f1498", "bike_id": "3a32110a128cfed96c006fff492f1498", "is_disabled": 0, "type": "electric_scooter", "lat": 38.89626233333333, "lon": -77.05020616666667, "is_reserved": 0, "fusion_lon": 0.0}, {"rental_uris": {"ios": "https://dc.lft.to/lastmile_qr_scan", "android": "https://dc.lft.to/lastmile_qr_scan"}, "fusion_lat": 0.0, "name": "297ac8f7a04ae5d839e967b3e72073bf", "bike_id": "297ac8f7a04ae5d839e967b3e72073bf", "is_disabled": 0, "type": "electric_scooter", "lat": 38.895012, "lon": -76.948744, "is_reserved": 0, "fusion_lon": 0.0}, {"rental_uris": {"ios": "https://dc.lft.to/lastmile_qr_scan", "android": "https://dc.lft.to/lastmile_qr_scan"}, "fusion_lat": 0.0, "name": "92d966f13b651b3e2607affd09cf82a6", "bike_id": "92d966f13b651b3e2607affd09cf82a6", "is_disabled": 0, "type": "electric_scooter", "lat": 38.93453933333333, "lon": -77.07270283333334, "is_reserved": 0, "fusion_lon": 0.0}, {"rental_uris": {"ios": "https://dc.lft.to/lastmile_qr_scan", "android": "https://dc.lft.to/lastmile_qr_scan"}, "fusion_lat": 0.0, "name": "0f12ee931b985f07b045b5d620843a6e", "bike_id": "0f12ee931b985f07b045b5d620843a6e", "is_disabled": 0, "type": "electric_bike", "lat": 38.8386695, "lon": -76.996931, "is_reserved": 0, "fusion_lon": 0.0}, {"rental_uris": {"ios": "https://dc.lft.to/lastmile_qr_scan", "android": "https://dc.lft.to/lastmile_qr_scan"}, "fusion_lat": 0.0, "name": "31eaa749d9a690f9651e3dbb36bb5a04", "bike_id": "31eaa749d9a690f9651e3dbb36bb5a04", "is_disabled": 0, "type": "electric_scooter", "lat": 38.85678683333333, "lon": -76.98171433333333, "is_reserved": 0, "fusion_lon": 0.0}, {"rental_uris": {"ios": "https://dc.lft.to/lastmile_qr_scan", "android": "https://dc.lft.to/lastmile_qr_scan"}, "fusion_lat": 0.0, "name": "ca3ea75df725b8d7210288a3cd47dead", "bike_id": "ca3ea75df725b8d7210288a3cd47dead", "is_disabled": 0, "type": "electric_scooter", "lat": 38.929338666666666, "lon": -77.03755933333333, "is_reserved": 0, "fusion_lon": 0.0}, {"rental_uris": {"ios": "https://dc.lft.to/lastmile_qr_scan", "android": "https://dc.lft.to/lastmile_qr_scan"}, "fusion_lat": 0.0, "name": "c69d1614add10cc426b7a64af59b7a06", "bike_id": "c69d1614add10cc426b7a64af59b7a06", "is_disabled": 0, "type": "electric_scooter", "lat": 38.92045816666667, "lon": -77.04202866666667, "is_reserved": 0, "fusion_lon": 0.0}, {"rental_uris": {"ios": "https://dc.lft.to/lastmile_qr_scan", "android": "https://dc.lft.to/lastmile_qr_scan"}, "fusion_lat": 0.0, "name": "825bd2a3c067d7f610cfd61ef53a22c9", "bike_id": "825bd2a3c067d7f610cfd61ef53a22c9", "is_disabled": 0, "type": "electric_scooter", "lat": 38.89220016666667, "lon": -77.0222285, "is_reserved": 0, "fusion_lon": 0.0}, {"rental_uris": {"ios": "https://dc.lft.to/lastmile_qr_scan", "android": "https://dc.lft.to/lastmile_qr_scan"}, "fusion_lat": 0.0, "name": "2037af99b37759729d9d5bc0a3b2da35", "bike_id": "2037af99b37759729d9d5bc0a3b2da35", "is_disabled": 0, "type": "electric_scooter", "lat": 38.9181715, "lon": -77.02716166666667, "is_reserved": 0, "fusion_lon": 0.0}, {"rental_uris": {"ios": "https://dc.lft.to/lastmile_qr_scan", "android": "https://dc.lft.to/lastmile_qr_scan"}, "fusion_lat": 0.0, "name": "2271433de60e220257bd266eb07ceb44", "bike_id": "2271433de60e220257bd266eb07ceb44", "is_disabled": 0, "type": "electric_scooter", "lat": 38.915721, "lon": -77.01195333333334, "is_reserved": 0, "fusion_lon": 0.0}, {"rental_uris": {"ios": "https://dc.lft.to/lastmile_qr_scan", "android": "https://dc.lft.to/lastmile_qr_scan"}, "fusion_lat": 0.0, "name": "3c278f384e3e7db21be69109461376a8", "bike_id": "3c278f384e3e7db21be69109461376a8", "is_disabled": 0, "type": "electric_scooter", "lat": 38.90689166666667, "lon": -77.027193, "is_reserved": 0, "fusion_lon": 0.0}, {"rental_uris": {"ios": "https://dc.lft.to/lastmile_qr_scan", "android": "https://dc.lft.to/lastmile_qr_scan"}, "fusion_lat": 0.0, "name": "d54a36b24b04bb9cf0efefe563110dcc", "bike_id": "d54a36b24b04bb9cf0efefe563110dcc", "is_disabled": 0, "type": "electric_scooter", "lat": 38.917487333333334, "lon": -77.02402833333333, "is_reserved": 0, "fusion_lon": 0.0}, {"rental_uris": {"ios": "https://dc.lft.to/lastmile_qr_scan", "android": "https://dc.lft.to/lastmile_qr_scan"}, "fusion_lat": 0.0, "name": "b08772266f56bff943fea272f874fab6", "bike_id": "b08772266f56bff943fea272f874fab6", "is_disabled": 0, "type": "electric_scooter", "lat": 38.901117, "lon": -77.0430975, "is_reserved": 0, "fusion_lon": 0.0}, {"rental_uris": {"ios": "https://dc.lft.to/lastmile_qr_scan", "android": "https://dc.lft.to/lastmile_qr_scan"}, "fusion_lat": 0.0, "name": "b0f8a2b54179d61dbfbafba23e682ab0", "bike_id": "b0f8a2b54179d61dbfbafba23e682ab0", "is_disabled": 0, "type": "electric_scooter", "lat": 38.919943333333336, "lon": -77.03290183333333, "is_reserved": 0, "fusion_lon": 0.0}, {"rental_uris": {"ios": "https://dc.lft.to/lastmile_qr_scan", "android": "https://dc.lft.to/lastmile_qr_scan"}, "fusion_lat": 0.0, "name": "3ac482ad43a783a48040d3534e1384aa", "bike_id": "3ac482ad43a783a48040d3534e1384aa", "is_disabled": 0, "type": "electric_scooter", "lat": 38.89224883333333, "lon": -77.02653783333334, "is_reserved": 0, "fusion_lon": 0.0}, {"rental_uris": {"ios": "https://dc.lft.to/lastmile_qr_scan", "android": "https://dc.lft.to/lastmile_qr_scan"}, "fusion_lat": 0.0, "name": "5a83c87fbe195b2446de9d8a42500869", "bike_id": "5a83c87fbe195b2446de9d8a42500869", "is_disabled": 0, "type": "electric_scooter", "lat": 38.90767233333333, "lon": -77.03281966666667, "is_reserved": 0, "fusion_lon": 0.0}, {"rental_uris": {"ios": "https://dc.lft.to/lastmile_qr_scan", "android": "https://dc.lft.to/lastmile_qr_scan"}, "fusion_lat": 0.0, "name": "2337977db679b626f6600aa92b7e3d3c", "bike_id": "2337977db679b626f6600aa92b7e3d3c", "is_disabled": 0, "type": "electric_scooter", "lat": 38.876589333333335, "lon": -77.00746833333334, "is_reserved": 0, "fusion_lon": 0.0}, {"rental_uris": {"ios": "https://dc.lft.to/lastmile_qr_scan", "android": "https://dc.lft.to/lastmile_qr_scan"}, "fusion_lat": 0.0, "name": "9690bf2ec26c2c5220166b821550a843", "bike_id": "9690bf2ec26c2c5220166b821550a843", "is_disabled": 0, "type": "electric_scooter", "lat": 38.9003195, "lon": -77.01158066666666, "is_reserved": 0, "fusion_lon": 0.0}, {"rental_uris": {"ios": "https://dc.lft.to/lastmile_qr_scan", "android": "https://dc.lft.to/lastmile_qr_scan"}, "fusion_lat": 0.0, "name": "d1eda22df7a2cea40cd1d5ba2be0d4f1", "bike_id": "d1eda22df7a2cea40cd1d5ba2be0d4f1", "is_disabled": 0, "type": "electric_scooter", "lat": 38.924484666666665, "lon": -76.989999, "is_reserved": 0, "fusion_lon": 0.0}, {"rental_uris": {"ios": "https://dc.lft.to/lastmile_qr_scan", "android": "https://dc.lft.to/lastmile_qr_scan"}, "fusion_lat": 0.0, "name": "6e3c9dc0d010b92f1582bf376701dfd8", "bike_id": "6e3c9dc0d010b92f1582bf376701dfd8", "is_disabled": 0, "type": "electric_scooter", "lat": 38.89677916666667, "lon": -76.94765166666667, "is_reserved": 0, "fusion_lon": 0.0}, {"rental_uris": {"ios": "https://dc.lft.to/lastmile_qr_scan", "android": "https://dc.lft.to/lastmile_qr_scan"}, "fusion_lat": 0.0, "name": "25e43ee25f489c66ca91519330df10d5", "bike_id": "25e43ee25f489c66ca91519330df10d5", "is_disabled": 0, "type": "electric_bike", "lat": 38.88582, "lon": -77.0607585, "is_reserved": 0, "fusion_lon": 0.0}, {"rental_uris": {"ios": "https://dc.lft.to/lastmile_qr_scan", "android": "https://dc.lft.to/lastmile_qr_scan"}, "fusion_lat": 0.0, "name": "76c973c171bebcda5f44aa6f788c2446", "bike_id": "76c973c171bebcda5f44aa6f788c2446", "is_disabled": 0, "type": "electric_scooter", "lat": 38.9661545, "lon": -77.03357016666666, "is_reserved": 0, "fusion_lon": 0.0}, {"rental_uris": {"ios": "https://dc.lft.to/lastmile_qr_scan", "android": "https://dc.lft.to/lastmile_qr_scan"}, "fusion_lat": 0.0, "name": "a7dfe16bc8030f06e009db6a5a3a4507", "bike_id": "a7dfe16bc8030f06e009db6a5a3a4507", "is_disabled": 0, "type": "electric_bike", "lat": 39.03042466666667, "lon": -77.09472166666667, "is_reserved": 0, "fusion_lon": 0.0}, {"rental_uris": {"ios": "https://dc.lft.to/lastmile_qr_scan", "android": "https://dc.lft.to/lastmile_qr_scan"}, "fusion_lat": 0.0, "name": "acb09581a03daff6a7fa46d51a47b029", "bike_id": "acb09581a03daff6a7fa46d51a47b029", "is_disabled": 0, "type": "electric_bike", "lat": 39.024297833333335, "lon": -77.13103083333333, "is_reserved": 0, "fusion_lon": 0.0}, {"rental_uris": {"ios": "https://dc.lft.to/lastmile_qr_scan", "android": "https://dc.lft.to/lastmile_qr_scan"}, "fusion_lat": 0.0, "name": "126593bc589cdc168fcfbb433eacf786", "bike_id": "126593bc589cdc168fcfbb433eacf786", "is_disabled": 0, "type": "electric_scooter", "lat": 38.932237666666666, "lon": -77.033649, "is_reserved": 0, "fusion_lon": 0.0}, {"rental_uris": {"ios": "https://dc.lft.to/lastmile_qr_scan", "android": "https://dc.lft.to/lastmile_qr_scan"}, "fusion_lat": 0.0, "name": "ce8a8d859930503d65c15e1a23f0d9f1", "bike_id": "ce8a8d859930503d65c15e1a23f0d9f1", "is_disabled": 0, "type": "electric_scooter", "lat": 38.9067105, "lon": -77.0270895, "is_reserved": 0, "fusion_lon": 0.0}, {"rental_uris": {"ios": "https://dc.lft.to/lastmile_qr_scan", "android": "https://dc.lft.to/lastmile_qr_scan"}, "fusion_lat": 0.0, "name": "00b4182ed96a29999577bd0adefd3a57", "bike_id": "00b4182ed96a29999577bd0adefd3a57", "is_disabled": 0, "type": "electric_scooter", "lat": 38.93863733333333, "lon": -77.03091266666667, "is_reserved": 0, "fusion_lon": 0.0}, {"rental_uris": {"ios": "https://dc.lft.to/lastmile_qr_scan", "android": "https://dc.lft.to/lastmile_qr_scan"}, "fusion_lat": 0.0, "name": "017224675b97be110ee58108177dc4e1", "bike_id": "017224675b97be110ee58108177dc4e1", "is_disabled": 0, "type": "electric_scooter", "lat": 38.935233, "lon": -77.033461, "is_reserved": 0, "fusion_lon": 0.0}, {"rental_uris": {"ios": "https://dc.lft.to/lastmile_qr_scan", "android": "https://dc.lft.to/lastmile_qr_scan"}, "fusion_lat": 0.0, "name": "4d333805e7cecf9f6636d328507c4542", "bike_id": "4d333805e7cecf9f6636d328507c4542", "is_disabled": 0, "type": "electric_scooter", "lat": 38.915985666666664, "lon": -77.02970533333334, "is_reserved": 0, "fusion_lon": 0.0}, {"rental_uris": {"ios": "https://dc.lft.to/lastmile_qr_scan", "android": "https://dc.lft.to/lastmile_qr_scan"}, "fusion_lat": 0.0, "name": "18d0f1e123e1a34e78d0edfe564d1a9c", "bike_id": "18d0f1e123e1a34e78d0edfe564d1a9c", "is_disabled": 0, "type": "electric_scooter", "lat": 38.956552, "lon": -77.03286966666667, "is_reserved": 0, "fusion_lon": 0.0}, {"rental_uris": {"ios": "https://dc.lft.to/lastmile_qr_scan", "android": "https://dc.lft.to/lastmile_qr_scan"}, "fusion_lat": 0.0, "name": "b9a8ea55af5cc96fc13a995fea3947b6", "bike_id": "b9a8ea55af5cc96fc13a995fea3947b6", "is_disabled": 0, "type": "electric_scooter", "lat": 38.93164983333333, "lon": -77.05638866666666, "is_reserved": 0, "fusion_lon": 0.0}, {"rental_uris": {"ios": "https://dc.lft.to/lastmile_qr_scan", "android": "https://dc.lft.to/lastmile_qr_scan"}, "fusion_lat": 0.0, "name": "9ccc67f6c02b4a62699dc88b406b258c", "bike_id": "9ccc67f6c02b4a62699dc88b406b258c", "is_disabled": 0, "type": "electric_scooter", "lat": 38.919260333333334, "lon": -77.0705565, "is_reserved": 0, "fusion_lon": 0.0}, {"rental_uris": {"ios": "https://dc.lft.to/lastmile_qr_scan", "android": "https://dc.lft.to/lastmile_qr_scan"}, "fusion_lat": 0.0, "name": "9f4ff242d35dfb8cbbf576828c05e468", "bike_id": "9f4ff242d35dfb8cbbf576828c05e468", "is_disabled": 0, "type": "electric_scooter", "lat": 38.91265683333334, "lon": -77.04469283333333, "is_reserved": 0, "fusion_lon": 0.0}, {"rental_uris": {"ios": "https://dc.lft.to/lastmile_qr_scan", "android": "https://dc.lft.to/lastmile_qr_scan"}, "fusion_lat": 0.0, "name": "044901ab721cad5b61edca98a5f06c0a", "bike_id": "044901ab721cad5b61edca98a5f06c0a", "is_disabled": 0, "type": "electric_scooter", "lat": 38.9143215, "lon": -77.04494233333334, "is_reserved": 0, "fusion_lon": 0.0}, {"rental_uris": {"ios": "https://dc.lft.to/lastmile_qr_scan", "android": "https://dc.lft.to/lastmile_qr_scan"}, "fusion_lat": 0.0, "name": "6cf8a0a2f7f0316c443bf8f75d4751e0", "bike_id": "6cf8a0a2f7f0316c443bf8f75d4751e0", "is_disabled": 0, "type": "electric_bike", "lat": 38.85790816666667, "lon": -77.09961433333334, "is_reserved": 0, "fusion_lon": 0.0}, {"rental_uris": {"ios": "https://dc.lft.to/lastmile_qr_scan", "android": "https://dc.lft.to/lastmile_qr_scan"}, "fusion_lat": 0.0, "name": "12a9072065b3285e6029248e44986a14", "bike_id": "12a9072065b3285e6029248e44986a14", "is_disabled": 0, "type": "electric_scooter", "lat": 38.922609333333334, "lon": -77.03470266666666, "is_reserved": 0, "fusion_lon": 0.0}, {"rental_uris": {"ios": "https://dc.lft.to/lastmile_qr_scan", "android": "https://dc.lft.to/lastmile_qr_scan"}, "fusion_lat": 0.0, "name": "2df0d065080b2fad1e03c1d4e9bd2e5b", "bike_id": "2df0d065080b2fad1e03c1d4e9bd2e5b", "is_disabled": 0, "type": "electric_scooter", "lat": 38.8655045, "lon": -76.9513235, "is_reserved": 0, "fusion_lon": 0.0}, {"rental_uris": {"ios": "https://dc.lft.to/lastmile_qr_scan", "android": "https://dc.lft.to/lastmile_qr_scan"}, "fusion_lat": 0.0, "name": "96d806236aef3892a041c51e8676e5e4", "bike_id": "96d806236aef3892a041c51e8676e5e4", "is_disabled": 0, "type": "electric_scooter", "lat": 38.89746866666667, "lon": -77.004484, "is_reserved": 0, "fusion_lon": 0.0}, {"rental_uris": {"ios": "https://dc.lft.to/lastmile_qr_scan", "android": "https://dc.lft.to/lastmile_qr_scan"}, "fusion_lat": 0.0, "name": "ea7fa7400c5d1ec96f06ce8b76a2e366", "bike_id": "ea7fa7400c5d1ec96f06ce8b76a2e366", "is_disabled": 0, "type": "electric_scooter", "lat": 38.91593116666667, "lon": -77.0364, "is_reserved": 0, "fusion_lon": 0.0}, {"rental_uris": {"ios": "https://dc.lft.to/lastmile_qr_scan", "android": "https://dc.lft.to/lastmile_qr_scan"}, "fusion_lat": 0.0, "name": "d9d76b554edc0a2dea4d787bfd33ebc0", "bike_id": "d9d76b554edc0a2dea4d787bfd33ebc0", "is_disabled": 0, "type": "electric_scooter", "lat": 38.892265, "lon": -77.04335416666666, "is_reserved": 0, "fusion_lon": 0.0}, {"rental_uris": {"ios": "https://dc.lft.to/lastmile_qr_scan", "android": "https://dc.lft.to/lastmile_qr_scan"}, "fusion_lat": 0.0, "name": "d233c2284b10723244a9d156c48a8619", "bike_id": "d233c2284b10723244a9d156c48a8619", "is_disabled": 0, "type": "electric_bike", "lat": 38.99947683333333, "lon": -77.03165183333333, "is_reserved": 0, "fusion_lon": 0.0}, {"rental_uris": {"ios": "https://dc.lft.to/lastmile_qr_scan", "android": "https://dc.lft.to/lastmile_qr_scan"}, "fusion_lat": 0.0, "name": "df9b33b75140eae976e808e3241ce820", "bike_id": "df9b33b75140eae976e808e3241ce820", "is_disabled": 0, "type": "electric_scooter", "lat": 38.901442833333334, "lon": -77.001602, "is_reserved": 0, "fusion_lon": 0.0}, {"rental_uris": {"ios": "https://dc.lft.to/lastmile_qr_scan", "android": "https://dc.lft.to/lastmile_qr_scan"}, "fusion_lat": 0.0, "name": "bfdf0eaac6bb7bd6b90161a74cb4b74e", "bike_id": "bfdf0eaac6bb7bd6b90161a74cb4b74e", "is_disabled": 0, "type": "electric_scooter", "lat": 38.9274935, "lon": -77.03306216666667, "is_reserved": 0, "fusion_lon": 0.0}, {"rental_uris": {"ios": "https://dc.lft.to/lastmile_qr_scan", "android": "https://dc.lft.to/lastmile_qr_scan"}, "fusion_lat": 0.0, "name": "15d49b80700306610ff3421eff262213", "bike_id": "15d49b80700306610ff3421eff262213", "is_disabled": 0, "type": "electric_scooter", "lat": 38.898290833333334, "lon": -76.94651666666667, "is_reserved": 0, "fusion_lon": 0.0}, {"rental_uris": {"ios": "https://dc.lft.to/lastmile_qr_scan", "android": "https://dc.lft.to/lastmile_qr_scan"}, "fusion_lat": 0.0, "name": "710e48dacad633844e33563d8995cf9e", "bike_id": "710e48dacad633844e33563d8995cf9e", "is_disabled": 0, "type": "electric_scooter", "lat": 38.9079465, "lon": -76.99726633333333, "is_reserved": 0, "fusion_lon": 0.0}, {"rental_uris": {"ios": "https://dc.lft.to/lastmile_qr_scan", "android": "https://dc.lft.to/lastmile_qr_scan"}, "fusion_lat": 0.0, "name": "9616638d73291bb4120d02149093eb9f", "bike_id": "9616638d73291bb4120d02149093eb9f", "is_disabled": 0, "type": "electric_scooter", "lat": 38.90257066666667, "lon": -77.043828, "is_reserved": 0, "fusion_lon": 0.0}, {"rental_uris": {"ios": "https://dc.lft.to/lastmile_qr_scan", "android": "https://dc.lft.to/lastmile_qr_scan"}, "fusion_lat": 0.0, "name": "676057c770df278ee8a315d8a66aab75", "bike_id": "676057c770df278ee8a315d8a66aab75", "is_disabled": 0, "type": "electric_scooter", "lat": 38.90527983333333, "lon": -77.02717116666666, "is_reserved": 0, "fusion_lon": 0.0}, {"rental_uris": {"ios": "https://dc.lft.to/lastmile_qr_scan", "android": "https://dc.lft.to/lastmile_qr_scan"}, "fusion_lat": 0.0, "name": "e005ba501df8b33a053a539d869a7651", "bike_id": "e005ba501df8b33a053a539d869a7651", "is_disabled": 0, "type": "electric_scooter", "lat": 38.898441, "lon": -76.94637483333334, "is_reserved": 0, "fusion_lon": 0.0}, {"rental_uris": {"ios": "https://dc.lft.to/lastmile_qr_scan", "android": "https://dc.lft.to/lastmile_qr_scan"}, "fusion_lat": 0.0, "name": "3de9a1dea8873924915ba639ae2e7e72", "bike_id": "3de9a1dea8873924915ba639ae2e7e72", "is_disabled": 0, "type": "electric_scooter", "lat": 38.919326833333336, "lon": -77.04559233333333, "is_reserved": 0, "fusion_lon": 0.0}, {"rental_uris": {"ios": "https://dc.lft.to/lastmile_qr_scan", "android": "https://dc.lft.to/lastmile_qr_scan"}, "fusion_lat": 0.0, "name": "2772dac7510f35e5f52c9ad875552ab0", "bike_id": "2772dac7510f35e5f52c9ad875552ab0", "is_disabled": 0, "type": "electric_scooter", "lat": 38.892244833333336, "lon": -77.02224716666667, "is_reserved": 0, "fusion_lon": 0.0}, {"rental_uris": {"ios": "https://dc.lft.to/lastmile_qr_scan", "android": "https://dc.lft.to/lastmile_qr_scan"}, "fusion_lat": 0.0, "name": "b01a3c7ee1ccbde26a8cef7350a69dc7", "bike_id": "b01a3c7ee1ccbde26a8cef7350a69dc7", "is_disabled": 0, "type": "electric_scooter", "lat": 38.899096166666666, "lon": -77.04022566666667, "is_reserved": 0, "fusion_lon": 0.0}, {"rental_uris": {"ios": "https://dc.lft.to/lastmile_qr_scan", "android": "https://dc.lft.to/lastmile_qr_scan"}, "fusion_lat": 0.0, "name": "3eddfe9dafce1262bcff687e25e17cf2", "bike_id": "3eddfe9dafce1262bcff687e25e17cf2", "is_disabled": 0, "type": "electric_scooter", "lat": 38.89612616666667, "lon": -77.02322083333334, "is_reserved": 0, "fusion_lon": 0.0}, {"rental_uris": {"ios": "https://dc.lft.to/lastmile_qr_scan", "android": "https://dc.lft.to/lastmile_qr_scan"}, "fusion_lat": 0.0, "name": "00fe7336bf102c50cbdc314013000dff", "bike_id": "00fe7336bf102c50cbdc314013000dff", "is_disabled": 0, "type": "electric_bike", "lat": 39.05633133333333, "lon": -77.12525816666667, "is_reserved": 0, "fusion_lon": 0.0}, {"rental_uris": {"ios": "https://dc.lft.to/lastmile_qr_scan", "android": "https://dc.lft.to/lastmile_qr_scan"}, "fusion_lat": 0.0, "name": "b06d3da10144158ae7926aab74033cd7", "bike_id": "b06d3da10144158ae7926aab74033cd7", "is_disabled": 0, "type": "electric_scooter", "lat": 38.90267333333333, "lon": -77.026091, "is_reserved": 0, "fusion_lon": 0.0}, {"rental_uris": {"ios": "https://dc.lft.to/lastmile_qr_scan", "android": "https://dc.lft.to/lastmile_qr_scan"}, "fusion_lat": 0.0, "name": "ef3d37cc2a5fc56f33145d264d34727e", "bike_id": "ef3d37cc2a5fc56f33145d264d34727e", "is_disabled": 0, "type": "electric_scooter", "lat": 38.9177135, "lon": -77.03641166666667, "is_reserved": 0, "fusion_lon": 0.0}, {"rental_uris": {"ios": "https://dc.lft.to/lastmile_qr_scan", "android": "https://dc.lft.to/lastmile_qr_scan"}, "fusion_lat": 0.0, "name": "693ec07db8870c1e2df30886d8e73cae", "bike_id": "693ec07db8870c1e2df30886d8e73cae", "is_disabled": 0, "type": "electric_scooter", "lat": 38.896951333333334, "lon": -77.00492533333333, "is_reserved": 0, "fusion_lon": 0.0}, {"rental_uris": {"ios": "https://dc.lft.to/lastmile_qr_scan", "android": "https://dc.lft.to/lastmile_qr_scan"}, "fusion_lat": 0.0, "name": "6ee41baded8fe4bed60307fbe90b8fec", "bike_id": "6ee41baded8fe4bed60307fbe90b8fec", "is_disabled": 0, "type": "electric_scooter", "lat": 38.901734833333336, "lon": -77.0260435, "is_reserved": 0, "fusion_lon": 0.0}, {"rental_uris": {"ios": "https://dc.lft.to/lastmile_qr_scan", "android": "https://dc.lft.to/lastmile_qr_scan"}, "fusion_lat": 0.0, "name": "4a162e333d48572df56ca3e9bf3a73f2", "bike_id": "4a162e333d48572df56ca3e9bf3a73f2", "is_disabled": 0, "type": "electric_scooter", "lat": 38.86685033333333, "lon": -76.98496183333333, "is_reserved": 0, "fusion_lon": 0.0}, {"rental_uris": {"ios": "https://dc.lft.to/lastmile_qr_scan", "android": "https://dc.lft.to/lastmile_qr_scan"}, "fusion_lat": 0.0, "name": "32f24d33310e4b35d0dda840b9efa517", "bike_id": "32f24d33310e4b35d0dda840b9efa517", "is_disabled": 0, "type": "electric_scooter", "lat": 38.887400166666666, "lon": -77.0153485, "is_reserved": 0, "fusion_lon": 0.0}, {"rental_uris": {"ios": "https://dc.lft.to/lastmile_qr_scan", "android": "https://dc.lft.to/lastmile_qr_scan"}, "fusion_lat": 0.0, "name": "c6a78434c8bd15a40d462c326779a5f6", "bike_id": "c6a78434c8bd15a40d462c326779a5f6", "is_disabled": 0, "type": "electric_scooter", "lat": 38.91718933333333, "lon": -77.03183733333333, "is_reserved": 0, "fusion_lon": 0.0}, {"rental_uris": {"ios": "https://dc.lft.to/lastmile_qr_scan", "android": "https://dc.lft.to/lastmile_qr_scan"}, "fusion_lat": 0.0, "name": "9b91b8bb36b765228e50ef591e1b9d93", "bike_id": "9b91b8bb36b765228e50ef591e1b9d93", "is_disabled": 0, "type": "electric_bike", "lat": 38.827876333333336, "lon": -77.00917, "is_reserved": 0, "fusion_lon": 0.0}, {"rental_uris": {"ios": "https://dc.lft.to/lastmile_qr_scan", "android": "https://dc.lft.to/lastmile_qr_scan"}, "fusion_lat": 0.0, "name": "7d1708f078e68be4af99516adb65f831", "bike_id": "7d1708f078e68be4af99516adb65f831", "is_disabled": 0, "type": "electric_scooter", "lat": 38.92043233333333, "lon": -77.02990016666666, "is_reserved": 0, "fusion_lon": 0.0}, {"rental_uris": {"ios": "https://dc.lft.to/lastmile_qr_scan", "android": "https://dc.lft.to/lastmile_qr_scan"}, "fusion_lat": 0.0, "name": "4264d7c592a049a69846f465e058ae86", "bike_id": "4264d7c592a049a69846f465e058ae86", "is_disabled": 0, "type": "electric_scooter", "lat": 38.9039505, "lon": -76.98102233333333, "is_reserved": 0, "fusion_lon": 0.0}, {"rental_uris": {"ios": "https://dc.lft.to/lastmile_qr_scan", "android": "https://dc.lft.to/lastmile_qr_scan"}, "fusion_lat": 0.0, "name": "83433a2212473a71c3cbd145c8794c36", "bike_id": "83433a2212473a71c3cbd145c8794c36", "is_disabled": 0, "type": "electric_scooter", "lat": 38.906794833333336, "lon": -77.03806383333334, "is_reserved": 0, "fusion_lon": 0.0}, {"rental_uris": {"ios": "https://dc.lft.to/lastmile_qr_scan", "android": "https://dc.lft.to/lastmile_qr_scan"}, "fusion_lat": 0.0, "name": "6e9a7f36bc230aaf14f2cb921cc36041", "bike_id": "6e9a7f36bc230aaf14f2cb921cc36041", "is_disabled": 0, "type": "electric_scooter", "lat": 38.91378, "lon": -77.020012, "is_reserved": 0, "fusion_lon": 0.0}, {"rental_uris": {"ios": "https://dc.lft.to/lastmile_qr_scan", "android": "https://dc.lft.to/lastmile_qr_scan"}, "fusion_lat": 0.0, "name": "0afed81d5f52962d273237017c489cb1", "bike_id": "0afed81d5f52962d273237017c489cb1", "is_disabled": 0, "type": "electric_scooter", "lat": 38.895252, "lon": -76.99210183333334, "is_reserved": 0, "fusion_lon": 0.0}, {"rental_uris": {"ios": "https://dc.lft.to/lastmile_qr_scan", "android": "https://dc.lft.to/lastmile_qr_scan"}, "fusion_lat": 0.0, "name": "63ed530586c2e080dc5bd5937f0e621f", "bike_id": "63ed530586c2e080dc5bd5937f0e621f", "is_disabled": 0, "type": "electric_scooter", "lat": 38.956169333333335, "lon": -77.027619, "is_reserved": 0, "fusion_lon": 0.0}, {"rental_uris": {"ios": "https://dc.lft.to/lastmile_qr_scan", "android": "https://dc.lft.to/lastmile_qr_scan"}, "fusion_lat": 0.0, "name": "dcb587eb18d38b9ee9e0f90dcbab3b3d", "bike_id": "dcb587eb18d38b9ee9e0f90dcbab3b3d", "is_disabled": 0, "type": "electric_scooter", "lat": 38.923646833333336, "lon": -77.05127983333334, "is_reserved": 0, "fusion_lon": 0.0}, {"rental_uris": {"ios": "https://dc.lft.to/lastmile_qr_scan", "android": "https://dc.lft.to/lastmile_qr_scan"}, "fusion_lat": 0.0, "name": "9850852d30f5e7e3d22542a4468c0b07", "bike_id": "9850852d30f5e7e3d22542a4468c0b07", "is_disabled": 0, "type": "electric_scooter", "lat": 38.866702333333336, "lon": -76.98526283333334, "is_reserved": 0, "fusion_lon": 0.0}, {"rental_uris": {"ios": "https://dc.lft.to/lastmile_qr_scan", "android": "https://dc.lft.to/lastmile_qr_scan"}, "fusion_lat": 0.0, "name": "9aa7899fd94580bd0b2fe0cc2216faa7", "bike_id": "9aa7899fd94580bd0b2fe0cc2216faa7", "is_disabled": 0, "type": "electric_scooter", "lat": 38.924752, "lon": -77.03155283333334, "is_reserved": 0, "fusion_lon": 0.0}, {"rental_uris": {"ios": "https://dc.lft.to/lastmile_qr_scan", "android": "https://dc.lft.to/lastmile_qr_scan"}, "fusion_lat": 0.0, "name": "f2b835ad45dd1fb8da927c0475bc8740", "bike_id": "f2b835ad45dd1fb8da927c0475bc8740", "is_disabled": 0, "type": "electric_scooter", "lat": 38.887325, "lon": -77.02828133333334, "is_reserved": 0, "fusion_lon": 0.0}, {"rental_uris": {"ios": "https://dc.lft.to/lastmile_qr_scan", "android": "https://dc.lft.to/lastmile_qr_scan"}, "fusion_lat": 0.0, "name": "12f24982727cd4582ee3417968e9a493", "bike_id": "12f24982727cd4582ee3417968e9a493", "is_disabled": 0, "type": "electric_scooter", "lat": 38.868913166666665, "lon": -76.98314266666667, "is_reserved": 0, "fusion_lon": 0.0}, {"rental_uris": {"ios": "https://dc.lft.to/lastmile_qr_scan", "android": "https://dc.lft.to/lastmile_qr_scan"}, "fusion_lat": 0.0, "name": "82596fd73e4a4bb6bb80cc398a5217b1", "bike_id": "82596fd73e4a4bb6bb80cc398a5217b1", "is_disabled": 0, "type": "electric_scooter", "lat": 38.898866166666664, "lon": -76.93172966666667, "is_reserved": 0, "fusion_lon": 0.0}, {"rental_uris": {"ios": "https://dc.lft.to/lastmile_qr_scan", "android": "https://dc.lft.to/lastmile_qr_scan"}, "fusion_lat": 0.0, "name": "52f2215c5b7d676e90fb97a0c48562fd", "bike_id": "52f2215c5b7d676e90fb97a0c48562fd", "is_disabled": 0, "type": "electric_scooter", "lat": 38.89349083333333, "lon": -77.01101416666667, "is_reserved": 0, "fusion_lon": 0.0}, {"rental_uris": {"ios": "https://dc.lft.to/lastmile_qr_scan", "android": "https://dc.lft.to/lastmile_qr_scan"}, "fusion_lat": 0.0, "name": "620e2580f9c1ad4ba870ca74a45b03a0", "bike_id": "620e2580f9c1ad4ba870ca74a45b03a0", "is_disabled": 0, "type": "electric_scooter", "lat": 38.84433166666667, "lon": -76.99778283333333, "is_reserved": 0, "fusion_lon": 0.0}, {"rental_uris": {"ios": "https://dc.lft.to/lastmile_qr_scan", "android": "https://dc.lft.to/lastmile_qr_scan"}, "fusion_lat": 0.0, "name": "b37cbbb78d650c02308bb53f8c09f9d9", "bike_id": "b37cbbb78d650c02308bb53f8c09f9d9", "is_disabled": 0, "type": "electric_bike", "lat": 38.83812533333333, "lon": -77.09522883333334, "is_reserved": 0, "fusion_lon": 0.0}, {"rental_uris": {"ios": "https://dc.lft.to/lastmile_qr_scan", "android": "https://dc.lft.to/lastmile_qr_scan"}, "fusion_lat": 0.0, "name": "0648945e3f9487ca7ae65ed9ffd45f28", "bike_id": "0648945e3f9487ca7ae65ed9ffd45f28", "is_disabled": 0, "type": "electric_scooter", "lat": 38.912805166666665, "lon": -77.03199966666666, "is_reserved": 0, "fusion_lon": 0.0}, {"rental_uris": {"ios": "https://dc.lft.to/lastmile_qr_scan", "android": "https://dc.lft.to/lastmile_qr_scan"}, "fusion_lat": 0.0, "name": "f9d4967bd3eec51604295791b8566b45", "bike_id": "f9d4967bd3eec51604295791b8566b45", "is_disabled": 0, "type": "electric_scooter", "lat": 38.905637666666664, "lon": -77.04697733333333, "is_reserved": 0, "fusion_lon": 0.0}, {"rental_uris": {"ios": "https://dc.lft.to/lastmile_qr_scan", "android": "https://dc.lft.to/lastmile_qr_scan"}, "fusion_lat": 0.0, "name": "3b2e0bd217367e061078ea0b4d99724b", "bike_id": "3b2e0bd217367e061078ea0b4d99724b", "is_disabled": 0, "type": "electric_scooter", "lat": 38.89224933333333, "lon": -77.03217116666667, "is_reserved": 0, "fusion_lon": 0.0}, {"rental_uris": {"ios": "https://dc.lft.to/lastmile_qr_scan", "android": "https://dc.lft.to/lastmile_qr_scan"}, "fusion_lat": 0.0, "name": "701e4d8396f5a97fd940ca55bd072c15", "bike_id": "701e4d8396f5a97fd940ca55bd072c15", "is_disabled": 0, "type": "electric_scooter", "lat": 38.9155205, "lon": -77.02209583333334, "is_reserved": 0, "fusion_lon": 0.0}, {"rental_uris": {"ios": "https://dc.lft.to/lastmile_qr_scan", "android": "https://dc.lft.to/lastmile_qr_scan"}, "fusion_lat": 0.0, "name": "2e7d20f87e97a437c9291ae8ee9987c8", "bike_id": "2e7d20f87e97a437c9291ae8ee9987c8", "is_disabled": 0, "type": "electric_scooter", "lat": 38.91117366666667, "lon": -77.04322833333333, "is_reserved": 0, "fusion_lon": 0.0}, {"rental_uris": {"ios": "https://dc.lft.to/lastmile_qr_scan", "android": "https://dc.lft.to/lastmile_qr_scan"}, "fusion_lat": 0.0, "name": "089c7d1085bfbc1848a7307e80140ba2", "bike_id": "089c7d1085bfbc1848a7307e80140ba2", "is_disabled": 0, "type": "electric_scooter", "lat": 38.9156425, "lon": -77.03864616666667, "is_reserved": 0, "fusion_lon": 0.0}, {"rental_uris": {"ios": "https://dc.lft.to/lastmile_qr_scan", "android": "https://dc.lft.to/lastmile_qr_scan"}, "fusion_lat": 0.0, "name": "b3eea21635972c757c3763999b2e7a6e", "bike_id": "b3eea21635972c757c3763999b2e7a6e", "is_disabled": 0, "type": "electric_scooter", "lat": 38.92230266666667, "lon": -77.022363, "is_reserved": 0, "fusion_lon": 0.0}, {"rental_uris": {"ios": "https://dc.lft.to/lastmile_qr_scan", "android": "https://dc.lft.to/lastmile_qr_scan"}, "fusion_lat": 0.0, "name": "9a858b2810d501b4423ba3bef552f267", "bike_id": "9a858b2810d501b4423ba3bef552f267", "is_disabled": 0, "type": "electric_bike", "lat": 38.917964166666664, "lon": -77.22335183333334, "is_reserved": 0, "fusion_lon": 0.0}, {"rental_uris": {"ios": "https://dc.lft.to/lastmile_qr_scan", "android": "https://dc.lft.to/lastmile_qr_scan"}, "fusion_lat": 0.0, "name": "852c12d870be969a5b5ecae6972bf710", "bike_id": "852c12d870be969a5b5ecae6972bf710", "is_disabled": 0, "type": "electric_scooter", "lat": 38.88672566666666, "lon": -76.93612366666666, "is_reserved": 0, "fusion_lon": 0.0}, {"rental_uris": {"ios": "https://dc.lft.to/lastmile_qr_scan", "android": "https://dc.lft.to/lastmile_qr_scan"}, "fusion_lat": 0.0, "name": "f0206350f89d0e489a0d9c27c160d300", "bike_id": "f0206350f89d0e489a0d9c27c160d300", "is_disabled": 0, "type": "electric_scooter", "lat": 38.90810233333333, "lon": -77.03837283333333, "is_reserved": 0, "fusion_lon": 0.0}, {"rental_uris": {"ios": "https://dc.lft.to/lastmile_qr_scan", "android": "https://dc.lft.to/lastmile_qr_scan"}, "fusion_lat": 0.0, "name": "47c8153b0ed867de9d44fa8a0c1c1590", "bike_id": "47c8153b0ed867de9d44fa8a0c1c1590", "is_disabled": 0, "type": "electric_scooter", "lat": 38.917987, "lon": -77.03658183333333, "is_reserved": 0, "fusion_lon": 0.0}, {"rental_uris": {"ios": "https://dc.lft.to/lastmile_qr_scan", "android": "https://dc.lft.to/lastmile_qr_scan"}, "fusion_lat": 0.0, "name": "f6bbc13fbec7a8eee4218d9a340a1c47", "bike_id": "f6bbc13fbec7a8eee4218d9a340a1c47", "is_disabled": 0, "type": "electric_scooter", "lat": 38.928067, "lon": -77.032393, "is_reserved": 0, "fusion_lon": 0.0}, {"rental_uris": {"ios": "https://dc.lft.to/lastmile_qr_scan", "android": "https://dc.lft.to/lastmile_qr_scan"}, "fusion_lat": 0.0, "name": "e530ca98e039f72502abef3097b63293", "bike_id": "e530ca98e039f72502abef3097b63293", "is_disabled": 0, "type": "electric_bike", "lat": 38.8773975, "lon": -76.994842, "is_reserved": 0, "fusion_lon": 0.0}, {"rental_uris": {"ios": "https://dc.lft.to/lastmile_qr_scan", "android": "https://dc.lft.to/lastmile_qr_scan"}, "fusion_lat": 0.0, "name": "31884b9135ba801cfa61f71f49f526d7", "bike_id": "31884b9135ba801cfa61f71f49f526d7", "is_disabled": 0, "type": "electric_scooter", "lat": 38.900628, "lon": -77.05152066666666, "is_reserved": 0, "fusion_lon": 0.0}, {"rental_uris": {"ios": "https://dc.lft.to/lastmile_qr_scan", "android": "https://dc.lft.to/lastmile_qr_scan"}, "fusion_lat": 0.0, "name": "979c67ff9db59a3838d0f8c4a8008c64", "bike_id": "979c67ff9db59a3838d0f8c4a8008c64", "is_disabled": 0, "type": "electric_scooter", "lat": 38.944110333333334, "lon": -77.02619616666667, "is_reserved": 0, "fusion_lon": 0.0}, {"rental_uris": {"ios": "https://dc.lft.to/lastmile_qr_scan", "android": "https://dc.lft.to/lastmile_qr_scan"}, "fusion_lat": 0.0, "name": "4f193bca7d5ee75135ceccdf4365dd2e", "bike_id": "4f193bca7d5ee75135ceccdf4365dd2e", "is_disabled": 0, "type": "electric_scooter", "lat": 38.8796935, "lon": -76.98746666666666, "is_reserved": 0, "fusion_lon": 0.0}, {"rental_uris": {"ios": "https://dc.lft.to/lastmile_qr_scan", "android": "https://dc.lft.to/lastmile_qr_scan"}, "fusion_lat": 0.0, "name": "d5bde27dab52755310dfc2676e30a306", "bike_id": "d5bde27dab52755310dfc2676e30a306", "is_disabled": 0, "type": "electric_scooter", "lat": 38.911941166666665, "lon": -77.03829666666667, "is_reserved": 0, "fusion_lon": 0.0}, {"rental_uris": {"ios": "https://dc.lft.to/lastmile_qr_scan", "android": "https://dc.lft.to/lastmile_qr_scan"}, "fusion_lat": 0.0, "name": "deb22a9769ed2a92431343364bde046d", "bike_id": "deb22a9769ed2a92431343364bde046d", "is_disabled": 0, "type": "electric_scooter", "lat": 38.90481116666667, "lon": -77.04862133333333, "is_reserved": 0, "fusion_lon": 0.0}, {"rental_uris": {"ios": "https://dc.lft.to/lastmile_qr_scan", "android": "https://dc.lft.to/lastmile_qr_scan"}, "fusion_lat": 0.0, "name": "329addca5901fe997ca36e6d028944ea", "bike_id": "329addca5901fe997ca36e6d028944ea", "is_disabled": 0, "type": "electric_scooter", "lat": 38.916972333333334, "lon": -77.031402, "is_reserved": 0, "fusion_lon": 0.0}, {"rental_uris": {"ios": "https://dc.lft.to/lastmile_qr_scan", "android": "https://dc.lft.to/lastmile_qr_scan"}, "fusion_lat": 0.0, "name": "15bd573883f7fe0cb0ca789a4eb0995f", "bike_id": "15bd573883f7fe0cb0ca789a4eb0995f", "is_disabled": 0, "type": "electric_scooter", "lat": 38.903639, "lon": -77.034308, "is_reserved": 0, "fusion_lon": 0.0}, {"rental_uris": {"ios": "https://dc.lft.to/lastmile_qr_scan", "android": "https://dc.lft.to/lastmile_qr_scan"}, "fusion_lat": 0.0, "name": "f873fed88adaa271688283c15fb65315", "bike_id": "f873fed88adaa271688283c15fb65315", "is_disabled": 0, "type": "electric_scooter", "lat": 38.92058016666667, "lon": -77.04190966666667, "is_reserved": 0, "fusion_lon": 0.0}, {"rental_uris": {"ios": "https://dc.lft.to/lastmile_qr_scan", "android": "https://dc.lft.to/lastmile_qr_scan"}, "fusion_lat": 0.0, "name": "efe8bf1d35742f09ae668f20fcb524df", "bike_id": "efe8bf1d35742f09ae668f20fcb524df", "is_disabled": 0, "type": "electric_scooter", "lat": 38.887171, "lon": -76.99610116666666, "is_reserved": 0, "fusion_lon": 0.0}, {"rental_uris": {"ios": "https://dc.lft.to/lastmile_qr_scan", "android": "https://dc.lft.to/lastmile_qr_scan"}, "fusion_lat": 0.0, "name": "0d817f61741164074a3c9b201cad8428", "bike_id": "0d817f61741164074a3c9b201cad8428", "is_disabled": 0, "type": "electric_scooter", "lat": 38.915678, "lon": -77.01173083333333, "is_reserved": 0, "fusion_lon": 0.0}, {"rental_uris": {"ios": "https://dc.lft.to/lastmile_qr_scan", "android": "https://dc.lft.to/lastmile_qr_scan"}, "fusion_lat": 0.0, "name": "218ec3a8ab75f3e510b9789345e2ab26", "bike_id": "218ec3a8ab75f3e510b9789345e2ab26", "is_disabled": 0, "type": "electric_scooter", "lat": 38.918196333333334, "lon": -77.03250166666666, "is_reserved": 0, "fusion_lon": 0.0}, {"rental_uris": {"ios": "https://dc.lft.to/lastmile_qr_scan", "android": "https://dc.lft.to/lastmile_qr_scan"}, "fusion_lat": 0.0, "name": "d48231b5cc66205ed191df33c6c76fb7", "bike_id": "d48231b5cc66205ed191df33c6c76fb7", "is_disabled": 0, "type": "electric_scooter", "lat": 38.92955533333333, "lon": -76.9908805, "is_reserved": 0, "fusion_lon": 0.0}, {"rental_uris": {"ios": "https://dc.lft.to/lastmile_qr_scan", "android": "https://dc.lft.to/lastmile_qr_scan"}, "fusion_lat": 0.0, "name": "7b657aba0907aae4d0f59f5b799087a7", "bike_id": "7b657aba0907aae4d0f59f5b799087a7", "is_disabled": 0, "type": "electric_scooter", "lat": 38.9096635, "lon": -76.99605233333334, "is_reserved": 0, "fusion_lon": 0.0}, {"rental_uris": {"ios": "https://dc.lft.to/lastmile_qr_scan", "android": "https://dc.lft.to/lastmile_qr_scan"}, "fusion_lat": 0.0, "name": "7f8ddc7763acf4ed5d3a0c108ec60ca9", "bike_id": "7f8ddc7763acf4ed5d3a0c108ec60ca9", "is_disabled": 0, "type": "electric_scooter", "lat": 38.91635683333333, "lon": -77.03193433333334, "is_reserved": 0, "fusion_lon": 0.0}, {"rental_uris": {"ios": "https://dc.lft.to/lastmile_qr_scan", "android": "https://dc.lft.to/lastmile_qr_scan"}, "fusion_lat": 0.0, "name": "3504689d7eb44cc63ce0ca2e6edb72fd", "bike_id": "3504689d7eb44cc63ce0ca2e6edb72fd", "is_disabled": 0, "type": "electric_scooter", "lat": 38.892214, "lon": -77.02223816666667, "is_reserved": 0, "fusion_lon": 0.0}, {"rental_uris": {"ios": "https://dc.lft.to/lastmile_qr_scan", "android": "https://dc.lft.to/lastmile_qr_scan"}, "fusion_lat": 0.0, "name": "9e21f926d549518194abc2e9cb9de66b", "bike_id": "9e21f926d549518194abc2e9cb9de66b", "is_disabled": 0, "type": "electric_scooter", "lat": 38.915641, "lon": -77.02214416666666, "is_reserved": 0, "fusion_lon": 0.0}, {"rental_uris": {"ios": "https://dc.lft.to/lastmile_qr_scan", "android": "https://dc.lft.to/lastmile_qr_scan"}, "fusion_lat": 0.0, "name": "5f8c3023be8072b5aef16f62332ccc89", "bike_id": "5f8c3023be8072b5aef16f62332ccc89", "is_disabled": 0, "type": "electric_scooter", "lat": 38.88522433333333, "lon": -76.92877466666667, "is_reserved": 0, "fusion_lon": 0.0}, {"rental_uris": {"ios": "https://dc.lft.to/lastmile_qr_scan", "android": "https://dc.lft.to/lastmile_qr_scan"}, "fusion_lat": 0.0, "name": "b80c2ab721ee63c05657cc329df695a3", "bike_id": "b80c2ab721ee63c05657cc329df695a3", "is_disabled": 0, "type": "electric_scooter", "lat": 38.9097345, "lon": -77.02475116666666, "is_reserved": 0, "fusion_lon": 0.0}, {"rental_uris": {"ios": "https://dc.lft.to/lastmile_qr_scan", "android": "https://dc.lft.to/lastmile_qr_scan"}, "fusion_lat": 0.0, "name": "5db5d8a3a0abd9511fbbebce4eeea051", "bike_id": "5db5d8a3a0abd9511fbbebce4eeea051", "is_disabled": 0, "type": "electric_scooter", "lat": 38.907219166666664, "lon": -77.03946183333333, "is_reserved": 0, "fusion_lon": 0.0}, {"rental_uris": {"ios": "https://dc.lft.to/lastmile_qr_scan", "android": "https://dc.lft.to/lastmile_qr_scan"}, "fusion_lat": 0.0, "name": "1d6a9e8aa6961ccf496d6eb5fd8c51e9", "bike_id": "1d6a9e8aa6961ccf496d6eb5fd8c51e9", "is_disabled": 0, "type": "electric_scooter", "lat": 38.901612, "lon": -77.04181566666666, "is_reserved": 0, "fusion_lon": 0.0}, {"rental_uris": {"ios": "https://dc.lft.to/lastmile_qr_scan", "android": "https://dc.lft.to/lastmile_qr_scan"}, "fusion_lat": 0.0, "name": "4147bb13a7598ce799558c90b1502c6e", "bike_id": "4147bb13a7598ce799558c90b1502c6e", "is_disabled": 0, "type": "electric_bike", "lat": 38.9644465, "lon": -77.02065616666667, "is_reserved": 0, "fusion_lon": 0.0}, {"rental_uris": {"ios": "https://dc.lft.to/lastmile_qr_scan", "android": "https://dc.lft.to/lastmile_qr_scan"}, "fusion_lat": 0.0, "name": "71d9e782a31eade6da0313ee3216b9fa", "bike_id": "71d9e782a31eade6da0313ee3216b9fa", "is_disabled": 0, "type": "electric_scooter", "lat": 38.926359833333336, "lon": -77.03785916666666, "is_reserved": 0, "fusion_lon": 0.0}, {"rental_uris": {"ios": "https://dc.lft.to/lastmile_qr_scan", "android": "https://dc.lft.to/lastmile_qr_scan"}, "fusion_lat": 0.0, "name": "c0b6c75cb9ff8581b553cd8cc7c20729", "bike_id": "c0b6c75cb9ff8581b553cd8cc7c20729", "is_disabled": 0, "type": "electric_scooter", "lat": 38.930513166666664, "lon": -77.01994166666667, "is_reserved": 0, "fusion_lon": 0.0}, {"rental_uris": {"ios": "https://dc.lft.to/lastmile_qr_scan", "android": "https://dc.lft.to/lastmile_qr_scan"}, "fusion_lat": 0.0, "name": "e909215ca35138c4976a1532c92e9a75", "bike_id": "e909215ca35138c4976a1532c92e9a75", "is_disabled": 0, "type": "electric_scooter", "lat": 38.88023883333334, "lon": -77.00243683333333, "is_reserved": 0, "fusion_lon": 0.0}, {"rental_uris": {"ios": "https://dc.lft.to/lastmile_qr_scan", "android": "https://dc.lft.to/lastmile_qr_scan"}, "fusion_lat": 0.0, "name": "93689ed783fead7c37dbe8d6b549ad75", "bike_id": "93689ed783fead7c37dbe8d6b549ad75", "is_disabled": 0, "type": "electric_bike", "lat": 38.85025133333333, "lon": -77.098011, "is_reserved": 0, "fusion_lon": 0.0}, {"rental_uris": {"ios": "https://dc.lft.to/lastmile_qr_scan", "android": "https://dc.lft.to/lastmile_qr_scan"}, "fusion_lat": 0.0, "name": "320bc70cc90bb10fdc1b032c5f191f0d", "bike_id": "320bc70cc90bb10fdc1b032c5f191f0d", "is_disabled": 0, "type": "electric_bike", "lat": 38.85789283333333, "lon": -77.09961333333334, "is_reserved": 0, "fusion_lon": 0.0}, {"rental_uris": {"ios": "https://dc.lft.to/lastmile_qr_scan", "android": "https://dc.lft.to/lastmile_qr_scan"}, "fusion_lat": 0.0, "name": "7399211194865f648a432abe8dff4126", "bike_id": "7399211194865f648a432abe8dff4126", "is_disabled": 0, "type": "electric_scooter", "lat": 38.915693833333336, "lon": -77.0400625, "is_reserved": 0, "fusion_lon": 0.0}, {"rental_uris": {"ios": "https://dc.lft.to/lastmile_qr_scan", "android": "https://dc.lft.to/lastmile_qr_scan"}, "fusion_lat": 0.0, "name": "f491ec5d5bc2579f24ec050454dfb672", "bike_id": "f491ec5d5bc2579f24ec050454dfb672", "is_disabled": 0, "type": "electric_scooter", "lat": 38.94529566666667, "lon": -76.97945816666666, "is_reserved": 0, "fusion_lon": 0.0}, {"rental_uris": {"ios": "https://dc.lft.to/lastmile_qr_scan", "android": "https://dc.lft.to/lastmile_qr_scan"}, "fusion_lat": 0.0, "name": "fbf36f68c1b5fce45f264cfac262188c", "bike_id": "fbf36f68c1b5fce45f264cfac262188c", "is_disabled": 0, "type": "electric_scooter", "lat": 38.918628, "lon": -77.0403755, "is_reserved": 0, "fusion_lon": 0.0}, {"rental_uris": {"ios": "https://dc.lft.to/lastmile_qr_scan", "android": "https://dc.lft.to/lastmile_qr_scan"}, "fusion_lat": 0.0, "name": "496b15d72868d395aacaaf3ebf4c8d6e", "bike_id": "496b15d72868d395aacaaf3ebf4c8d6e", "is_disabled": 0, "type": "electric_scooter", "lat": 38.915561333333336, "lon": -76.98518333333334, "is_reserved": 0, "fusion_lon": 0.0}, {"rental_uris": {"ios": "https://dc.lft.to/lastmile_qr_scan", "android": "https://dc.lft.to/lastmile_qr_scan"}, "fusion_lat": 0.0, "name": "a92a1663a96cce6b38b0ef8d47f6aa00", "bike_id": "a92a1663a96cce6b38b0ef8d47f6aa00", "is_disabled": 0, "type": "electric_scooter", "lat": 38.92475916666667, "lon": -77.03918383333334, "is_reserved": 0, "fusion_lon": 0.0}, {"rental_uris": {"ios": "https://dc.lft.to/lastmile_qr_scan", "android": "https://dc.lft.to/lastmile_qr_scan"}, "fusion_lat": 0.0, "name": "c40c30fb0976a3c53cf12950402c56b0", "bike_id": "c40c30fb0976a3c53cf12950402c56b0", "is_disabled": 0, "type": "electric_scooter", "lat": 38.8624295, "lon": -76.99493316666667, "is_reserved": 0, "fusion_lon": 0.0}, {"rental_uris": {"ios": "https://dc.lft.to/lastmile_qr_scan", "android": "https://dc.lft.to/lastmile_qr_scan"}, "fusion_lat": 0.0, "name": "ce7988cb56ca92d2cc16faddb3c436c9", "bike_id": "ce7988cb56ca92d2cc16faddb3c436c9", "is_disabled": 0, "type": "electric_scooter", "lat": 38.88732816666667, "lon": -77.02825516666667, "is_reserved": 0, "fusion_lon": 0.0}, {"rental_uris": {"ios": "https://dc.lft.to/lastmile_qr_scan", "android": "https://dc.lft.to/lastmile_qr_scan"}, "fusion_lat": 0.0, "name": "5061abc80e657db091b812fb660696c3", "bike_id": "5061abc80e657db091b812fb660696c3", "is_disabled": 0, "type": "electric_scooter", "lat": 38.92423183333333, "lon": -77.02563783333333, "is_reserved": 0, "fusion_lon": 0.0}, {"rental_uris": {"ios": "https://dc.lft.to/lastmile_qr_scan", "android": "https://dc.lft.to/lastmile_qr_scan"}, "fusion_lat": 0.0, "name": "cf72f0b874c3e0273e42002dedb4d124", "bike_id": "cf72f0b874c3e0273e42002dedb4d124", "is_disabled": 0, "type": "electric_scooter", "lat": 38.924663833333334, "lon": -77.057596, "is_reserved": 0, "fusion_lon": 0.0}, {"rental_uris": {"ios": "https://dc.lft.to/lastmile_qr_scan", "android": "https://dc.lft.to/lastmile_qr_scan"}, "fusion_lat": 0.0, "name": "6d8641b6507def15c352f109cc6fd9b1", "bike_id": "6d8641b6507def15c352f109cc6fd9b1", "is_disabled": 0, "type": "electric_scooter", "lat": 38.892302, "lon": -77.04641883333333, "is_reserved": 0, "fusion_lon": 0.0}, {"rental_uris": {"ios": "https://dc.lft.to/lastmile_qr_scan", "android": "https://dc.lft.to/lastmile_qr_scan"}, "fusion_lat": 0.0, "name": "9ca12185dd967338511fc96398712054", "bike_id": "9ca12185dd967338511fc96398712054", "is_disabled": 0, "type": "electric_scooter", "lat": 38.92406166666667, "lon": -77.02286933333333, "is_reserved": 0, "fusion_lon": 0.0}, {"rental_uris": {"ios": "https://dc.lft.to/lastmile_qr_scan", "android": "https://dc.lft.to/lastmile_qr_scan"}, "fusion_lat": 0.0, "name": "af85768f4b6d336ab3b470961c411038", "bike_id": "af85768f4b6d336ab3b470961c411038", "is_disabled": 0, "type": "electric_scooter", "lat": 38.90381166666667, "lon": -77.04189683333334, "is_reserved": 0, "fusion_lon": 0.0}, {"rental_uris": {"ios": "https://dc.lft.to/lastmile_qr_scan", "android": "https://dc.lft.to/lastmile_qr_scan"}, "fusion_lat": 0.0, "name": "754ae938af2d267f5d22f8f67fa56171", "bike_id": "754ae938af2d267f5d22f8f67fa56171", "is_disabled": 0, "type": "electric_scooter", "lat": 38.90057383333333, "lon": -77.007569, "is_reserved": 0, "fusion_lon": 0.0}, {"rental_uris": {"ios": "https://dc.lft.to/lastmile_qr_scan", "android": "https://dc.lft.to/lastmile_qr_scan"}, "fusion_lat": 0.0, "name": "d59760ade5dcd2560a0cc877a63f37f7", "bike_id": "d59760ade5dcd2560a0cc877a63f37f7", "is_disabled": 0, "type": "electric_scooter", "lat": 38.851738833333336, "lon": -76.99578183333334, "is_reserved": 0, "fusion_lon": 0.0}, {"rental_uris": {"ios": "https://dc.lft.to/lastmile_qr_scan", "android": "https://dc.lft.to/lastmile_qr_scan"}, "fusion_lat": 0.0, "name": "74056f9169fa9810980d052f7e2230a4", "bike_id": "74056f9169fa9810980d052f7e2230a4", "is_disabled": 0, "type": "electric_scooter", "lat": 38.9067845, "lon": -77.0500605, "is_reserved": 0, "fusion_lon": 0.0}, {"rental_uris": {"ios": "https://dc.lft.to/lastmile_qr_scan", "android": "https://dc.lft.to/lastmile_qr_scan"}, "fusion_lat": 0.0, "name": "f7d449dcb0cb4051192d71baa0ef1209", "bike_id": "f7d449dcb0cb4051192d71baa0ef1209", "is_disabled": 0, "type": "electric_scooter", "lat": 38.9128325, "lon": -77.0122, "is_reserved": 0, "fusion_lon": 0.0}, {"rental_uris": {"ios": "https://dc.lft.to/lastmile_qr_scan", "android": "https://dc.lft.to/lastmile_qr_scan"}, "fusion_lat": 0.0, "name": "eeb1b19e8f0754de9665c2803554a17e", "bike_id": "eeb1b19e8f0754de9665c2803554a17e", "is_disabled": 0, "type": "electric_scooter", "lat": 38.8922455, "lon": -77.04803816666667, "is_reserved": 0, "fusion_lon": 0.0}, {"rental_uris": {"ios": "https://dc.lft.to/lastmile_qr_scan", "android": "https://dc.lft.to/lastmile_qr_scan"}, "fusion_lat": 0.0, "name": "62addcef4e1656166e06e6860302961e", "bike_id": "62addcef4e1656166e06e6860302961e", "is_disabled": 0, "type": "electric_scooter", "lat": 38.88143083333333, "lon": -77.01764966666667, "is_reserved": 0, "fusion_lon": 0.0}, {"rental_uris": {"ios": "https://dc.lft.to/lastmile_qr_scan", "android": "https://dc.lft.to/lastmile_qr_scan"}, "fusion_lat": 0.0, "name": "f55326ace03a9dc1a0f26faaa141a3d2", "bike_id": "f55326ace03a9dc1a0f26faaa141a3d2", "is_disabled": 0, "type": "electric_scooter", "lat": 38.912745, "lon": -77.044872, "is_reserved": 0, "fusion_lon": 0.0}, {"rental_uris": {"ios": "https://dc.lft.to/lastmile_qr_scan", "android": "https://dc.lft.to/lastmile_qr_scan"}, "fusion_lat": 0.0, "name": "3ba936123b505b1f50abcb62258fc8e3", "bike_id": "3ba936123b505b1f50abcb62258fc8e3", "is_disabled": 0, "type": "electric_scooter", "lat": 38.933671333333336, "lon": -77.05718583333334, "is_reserved": 0, "fusion_lon": 0.0}, {"rental_uris": {"ios": "https://dc.lft.to/lastmile_qr_scan", "android": "https://dc.lft.to/lastmile_qr_scan"}, "fusion_lat": 0.0, "name": "71c22b6e792b3ce64c91981a68066deb", "bike_id": "71c22b6e792b3ce64c91981a68066deb", "is_disabled": 0, "type": "electric_scooter", "lat": 38.929779333333336, "lon": -77.037712, "is_reserved": 0, "fusion_lon": 0.0}, {"rental_uris": {"ios": "https://dc.lft.to/lastmile_qr_scan", "android": "https://dc.lft.to/lastmile_qr_scan"}, "fusion_lat": 0.0, "name": "7d7306a31482747b02fc2eace4a3d491", "bike_id": "7d7306a31482747b02fc2eace4a3d491", "is_disabled": 0, "type": "electric_scooter", "lat": 38.927515166666666, "lon": -77.03279, "is_reserved": 0, "fusion_lon": 0.0}, {"rental_uris": {"ios": "https://dc.lft.to/lastmile_qr_scan", "android": "https://dc.lft.to/lastmile_qr_scan"}, "fusion_lat": 0.0, "name": "d9c9d610181309db5438039a2b3cc681", "bike_id": "d9c9d610181309db5438039a2b3cc681", "is_disabled": 0, "type": "electric_scooter", "lat": 38.8983635, "lon": -77.03328266666666, "is_reserved": 0, "fusion_lon": 0.0}, {"rental_uris": {"ios": "https://dc.lft.to/lastmile_qr_scan", "android": "https://dc.lft.to/lastmile_qr_scan"}, "fusion_lat": 0.0, "name": "9340e5a4664f9e8c8af1cc33f8310016", "bike_id": "9340e5a4664f9e8c8af1cc33f8310016", "is_disabled": 0, "type": "electric_bike", "lat": 38.962280166666666, "lon": -77.026205, "is_reserved": 0, "fusion_lon": 0.0}, {"rental_uris": {"ios": "https://dc.lft.to/lastmile_qr_scan", "android": "https://dc.lft.to/lastmile_qr_scan"}, "fusion_lat": 0.0, "name": "7d02149974f118498061ed6556681949", "bike_id": "7d02149974f118498061ed6556681949", "is_disabled": 0, "type": "electric_scooter", "lat": 38.890407833333335, "lon": -76.951388, "is_reserved": 0, "fusion_lon": 0.0}, {"rental_uris": {"ios": "https://dc.lft.to/lastmile_qr_scan", "android": "https://dc.lft.to/lastmile_qr_scan"}, "fusion_lat": 0.0, "name": "e10e12a78d7e077f5c6b2fb2c65b4903", "bike_id": "e10e12a78d7e077f5c6b2fb2c65b4903", "is_disabled": 0, "type": "electric_scooter", "lat": 38.897753333333334, "lon": -77.031862, "is_reserved": 0, "fusion_lon": 0.0}, {"rental_uris": {"ios": "https://dc.lft.to/lastmile_qr_scan", "android": "https://dc.lft.to/lastmile_qr_scan"}, "fusion_lat": 0.0, "name": "2864fbf6a62adc13f0a4412286e97523", "bike_id": "2864fbf6a62adc13f0a4412286e97523", "is_disabled": 0, "type": "electric_scooter", "lat": 38.89568966666667, "lon": -77.029783, "is_reserved": 0, "fusion_lon": 0.0}, {"rental_uris": {"ios": "https://dc.lft.to/lastmile_qr_scan", "android": "https://dc.lft.to/lastmile_qr_scan"}, "fusion_lat": 0.0, "name": "bb6c7e90befef2dd424fc86b132df509", "bike_id": "bb6c7e90befef2dd424fc86b132df509", "is_disabled": 0, "type": "electric_scooter", "lat": 38.921029, "lon": -77.03155716666667, "is_reserved": 0, "fusion_lon": 0.0}, {"rental_uris": {"ios": "https://dc.lft.to/lastmile_qr_scan", "android": "https://dc.lft.to/lastmile_qr_scan"}, "fusion_lat": 0.0, "name": "7e0ac946e7d7e9aedb02192529195cc0", "bike_id": "7e0ac946e7d7e9aedb02192529195cc0", "is_disabled": 0, "type": "electric_scooter", "lat": 38.9211275, "lon": -77.0317605, "is_reserved": 0, "fusion_lon": 0.0}, {"rental_uris": {"ios": "https://dc.lft.to/lastmile_qr_scan", "android": "https://dc.lft.to/lastmile_qr_scan"}, "fusion_lat": 0.0, "name": "7c08f6510ca803af4a45b3be15d3cfe5", "bike_id": "7c08f6510ca803af4a45b3be15d3cfe5", "is_disabled": 0, "type": "electric_scooter", "lat": 38.938899166666666, "lon": -77.02488933333333, "is_reserved": 0, "fusion_lon": 0.0}, {"rental_uris": {"ios": "https://dc.lft.to/lastmile_qr_scan", "android": "https://dc.lft.to/lastmile_qr_scan"}, "fusion_lat": 0.0, "name": "472359af7ede8174b9684fd5748c159e", "bike_id": "472359af7ede8174b9684fd5748c159e", "is_disabled": 0, "type": "electric_scooter", "lat": 38.92584566666667, "lon": -77.03779016666667, "is_reserved": 0, "fusion_lon": 0.0}, {"rental_uris": {"ios": "https://dc.lft.to/lastmile_qr_scan", "android": "https://dc.lft.to/lastmile_qr_scan"}, "fusion_lat": 0.0, "name": "6de06e0cdd0f3bb1e19cfa82c2f77c99", "bike_id": "6de06e0cdd0f3bb1e19cfa82c2f77c99", "is_disabled": 0, "type": "electric_scooter", "lat": 38.892229666666665, "lon": -77.04646216666667, "is_reserved": 0, "fusion_lon": 0.0}, {"rental_uris": {"ios": "https://dc.lft.to/lastmile_qr_scan", "android": "https://dc.lft.to/lastmile_qr_scan"}, "fusion_lat": 0.0, "name": "f132335a61bb6062226b6e5c0a84c7d9", "bike_id": "f132335a61bb6062226b6e5c0a84c7d9", "is_disabled": 0, "type": "electric_bike", "lat": 38.998227, "lon": -76.88368733333333, "is_reserved": 0, "fusion_lon": 0.0}, {"rental_uris": {"ios": "https://dc.lft.to/lastmile_qr_scan", "android": "https://dc.lft.to/lastmile_qr_scan"}, "fusion_lat": 0.0, "name": "d2ca215ae688ced4ccef48260f8d65b4", "bike_id": "d2ca215ae688ced4ccef48260f8d65b4", "is_disabled": 0, "type": "electric_bike", "lat": 38.953350666666665, "lon": -76.94577033333333, "is_reserved": 0, "fusion_lon": 0.0}, {"rental_uris": {"ios": "https://dc.lft.to/lastmile_qr_scan", "android": "https://dc.lft.to/lastmile_qr_scan"}, "fusion_lat": 0.0, "name": "811c222f3fa22433a8fbd202c81be1ac", "bike_id": "811c222f3fa22433a8fbd202c81be1ac", "is_disabled": 0, "type": "electric_scooter", "lat": 38.916945, "lon": -77.0295885, "is_reserved": 0, "fusion_lon": 0.0}, {"rental_uris": {"ios": "https://dc.lft.to/lastmile_qr_scan", "android": "https://dc.lft.to/lastmile_qr_scan"}, "fusion_lat": 0.0, "name": "f303a220b7e3cb6d2713bb3fe7c05cf9", "bike_id": "f303a220b7e3cb6d2713bb3fe7c05cf9", "is_disabled": 0, "type": "electric_scooter", "lat": 38.89885683333333, "lon": -76.93174633333334, "is_reserved": 0, "fusion_lon": 0.0}, {"rental_uris": {"ios": "https://dc.lft.to/lastmile_qr_scan", "android": "https://dc.lft.to/lastmile_qr_scan"}, "fusion_lat": 0.0, "name": "b5b3ec03238c4dfc71b22f0cd403e0f3", "bike_id": "b5b3ec03238c4dfc71b22f0cd403e0f3", "is_disabled": 0, "type": "electric_scooter", "lat": 38.919902666666665, "lon": -77.03287883333333, "is_reserved": 0, "fusion_lon": 0.0}, {"rental_uris": {"ios": "https://dc.lft.to/lastmile_qr_scan", "android": "https://dc.lft.to/lastmile_qr_scan"}, "fusion_lat": 0.0, "name": "d236850ea41babddd066de124d19c57e", "bike_id": "d236850ea41babddd066de124d19c57e", "is_disabled": 0, "type": "electric_scooter", "lat": 38.901461833333336, "lon": -77.04486733333333, "is_reserved": 0, "fusion_lon": 0.0}, {"rental_uris": {"ios": "https://dc.lft.to/lastmile_qr_scan", "android": "https://dc.lft.to/lastmile_qr_scan"}, "fusion_lat": 0.0, "name": "7cb50dc2c976a92a8396381595481f4b", "bike_id": "7cb50dc2c976a92a8396381595481f4b", "is_disabled": 0, "type": "electric_bike", "lat": 38.911961166666664, "lon": -77.076216, "is_reserved": 0, "fusion_lon": 0.0}, {"rental_uris": {"ios": "https://dc.lft.to/lastmile_qr_scan", "android": "https://dc.lft.to/lastmile_qr_scan"}, "fusion_lat": 0.0, "name": "79cf27e752d602e82b8fcdddb0c98acb", "bike_id": "79cf27e752d602e82b8fcdddb0c98acb", "is_disabled": 0, "type": "electric_scooter", "lat": 38.894757, "lon": -77.03109766666667, "is_reserved": 0, "fusion_lon": 0.0}, {"rental_uris": {"ios": "https://dc.lft.to/lastmile_qr_scan", "android": "https://dc.lft.to/lastmile_qr_scan"}, "fusion_lat": 0.0, "name": "32b507dfa4286e5a7dee384cbfefc844", "bike_id": "32b507dfa4286e5a7dee384cbfefc844", "is_disabled": 0, "type": "electric_bike", "lat": 38.91794433333333, "lon": -76.9717715, "is_reserved": 0, "fusion_lon": 0.0}, {"rental_uris": {"ios": "https://dc.lft.to/lastmile_qr_scan", "android": "https://dc.lft.to/lastmile_qr_scan"}, "fusion_lat": 0.0, "name": "40f1378c12f08ac243830695f72362ba", "bike_id": "40f1378c12f08ac243830695f72362ba", "is_disabled": 0, "type": "electric_scooter", "lat": 38.8654115, "lon": -76.987072, "is_reserved": 0, "fusion_lon": 0.0}, {"rental_uris": {"ios": "https://dc.lft.to/lastmile_qr_scan", "android": "https://dc.lft.to/lastmile_qr_scan"}, "fusion_lat": 0.0, "name": "c97f65e6f4aafa9c458fcaff1b729c88", "bike_id": "c97f65e6f4aafa9c458fcaff1b729c88", "is_disabled": 0, "type": "electric_scooter", "lat": 38.905266166666664, "lon": -77.05029766666667, "is_reserved": 0, "fusion_lon": 0.0}, {"rental_uris": {"ios": "https://dc.lft.to/lastmile_qr_scan", "android": "https://dc.lft.to/lastmile_qr_scan"}, "fusion_lat": 0.0, "name": "fd1442786976136048fbace7ec4b3feb", "bike_id": "fd1442786976136048fbace7ec4b3feb", "is_disabled": 0, "type": "electric_scooter", "lat": 38.92380583333333, "lon": -77.02681433333333, "is_reserved": 0, "fusion_lon": 0.0}, {"rental_uris": {"ios": "https://dc.lft.to/lastmile_qr_scan", "android": "https://dc.lft.to/lastmile_qr_scan"}, "fusion_lat": 0.0, "name": "4dde2b3c1fb30cd54e44607c30739bbe", "bike_id": "4dde2b3c1fb30cd54e44607c30739bbe", "is_disabled": 0, "type": "electric_scooter", "lat": 38.91706816666667, "lon": -77.03472233333333, "is_reserved": 0, "fusion_lon": 0.0}, {"rental_uris": {"ios": "https://dc.lft.to/lastmile_qr_scan", "android": "https://dc.lft.to/lastmile_qr_scan"}, "fusion_lat": 0.0, "name": "50a14f8e64a0accc54e0aacc984c8e74", "bike_id": "50a14f8e64a0accc54e0aacc984c8e74", "is_disabled": 0, "type": "electric_bike", "lat": 38.861715833333335, "lon": -77.1314485, "is_reserved": 0, "fusion_lon": 0.0}, {"rental_uris": {"ios": "https://dc.lft.to/lastmile_qr_scan", "android": "https://dc.lft.to/lastmile_qr_scan"}, "fusion_lat": 0.0, "name": "b2ad69ed8f9779bb978be753e7459069", "bike_id": "b2ad69ed8f9779bb978be753e7459069", "is_disabled": 0, "type": "electric_scooter", "lat": 38.885277, "lon": -77.0113305, "is_reserved": 0, "fusion_lon": 0.0}, {"rental_uris": {"ios": "https://dc.lft.to/lastmile_qr_scan", "android": "https://dc.lft.to/lastmile_qr_scan"}, "fusion_lat": 0.0, "name": "53732033c27779d49141452f1c1af0bb", "bike_id": "53732033c27779d49141452f1c1af0bb", "is_disabled": 0, "type": "electric_scooter", "lat": 38.941846166666664, "lon": -77.02493516666667, "is_reserved": 0, "fusion_lon": 0.0}, {"rental_uris": {"ios": "https://dc.lft.to/lastmile_qr_scan", "android": "https://dc.lft.to/lastmile_qr_scan"}, "fusion_lat": 0.0, "name": "ce01e860ab8efe50494b34daef281b1a", "bike_id": "ce01e860ab8efe50494b34daef281b1a", "is_disabled": 0, "type": "electric_scooter", "lat": 38.93661183333333, "lon": -77.05501533333333, "is_reserved": 0, "fusion_lon": 0.0}, {"rental_uris": {"ios": "https://dc.lft.to/lastmile_qr_scan", "android": "https://dc.lft.to/lastmile_qr_scan"}, "fusion_lat": 0.0, "name": "5e3612e175c01419b4629839d6db6091", "bike_id": "5e3612e175c01419b4629839d6db6091", "is_disabled": 0, "type": "electric_scooter", "lat": 38.916173, "lon": -77.0415495, "is_reserved": 0, "fusion_lon": 0.0}, {"rental_uris": {"ios": "https://dc.lft.to/lastmile_qr_scan", "android": "https://dc.lft.to/lastmile_qr_scan"}, "fusion_lat": 0.0, "name": "bce9a2c0c243b5bd501fad7f26fb5dab", "bike_id": "bce9a2c0c243b5bd501fad7f26fb5dab", "is_disabled": 0, "type": "electric_scooter", "lat": 38.880159666666664, "lon": -77.02480133333333, "is_reserved": 0, "fusion_lon": 0.0}, {"rental_uris": {"ios": "https://dc.lft.to/lastmile_qr_scan", "android": "https://dc.lft.to/lastmile_qr_scan"}, "fusion_lat": 0.0, "name": "5b924a7b018edeaf2f555751cd190586", "bike_id": "5b924a7b018edeaf2f555751cd190586", "is_disabled": 0, "type": "electric_scooter", "lat": 38.917387, "lon": -77.0211785, "is_reserved": 0, "fusion_lon": 0.0}, {"rental_uris": {"ios": "https://dc.lft.to/lastmile_qr_scan", "android": "https://dc.lft.to/lastmile_qr_scan"}, "fusion_lat": 0.0, "name": "e7e60011f4bc80b52d28971000ee06c5", "bike_id": "e7e60011f4bc80b52d28971000ee06c5", "is_disabled": 0, "type": "electric_scooter", "lat": 38.8920265, "lon": -77.02410633333334, "is_reserved": 0, "fusion_lon": 0.0}, {"rental_uris": {"ios": "https://dc.lft.to/lastmile_qr_scan", "android": "https://dc.lft.to/lastmile_qr_scan"}, "fusion_lat": 0.0, "name": "b59325b9fead30d7f925c34a2cf119ba", "bike_id": "b59325b9fead30d7f925c34a2cf119ba", "is_disabled": 0, "type": "electric_scooter", "lat": 38.908334833333335, "lon": -77.0346945, "is_reserved": 0, "fusion_lon": 0.0}, {"rental_uris": {"ios": "https://dc.lft.to/lastmile_qr_scan", "android": "https://dc.lft.to/lastmile_qr_scan"}, "fusion_lat": 0.0, "name": "94a410767bf1c156e0692ee8f6f437a4", "bike_id": "94a410767bf1c156e0692ee8f6f437a4", "is_disabled": 0, "type": "electric_scooter", "lat": 38.90633483333333, "lon": -77.023886, "is_reserved": 0, "fusion_lon": 0.0}, {"rental_uris": {"ios": "https://dc.lft.to/lastmile_qr_scan", "android": "https://dc.lft.to/lastmile_qr_scan"}, "fusion_lat": 0.0, "name": "4f962d7c6ad8a48a6b132b013d8b6f6a", "bike_id": "4f962d7c6ad8a48a6b132b013d8b6f6a", "is_disabled": 0, "type": "electric_scooter", "lat": 38.90447016666667, "lon": -77.061239, "is_reserved": 0, "fusion_lon": 0.0}, {"rental_uris": {"ios": "https://dc.lft.to/lastmile_qr_scan", "android": "https://dc.lft.to/lastmile_qr_scan"}, "fusion_lat": 0.0, "name": "abfb429ed18f1e97c4dedbd727fe5de2", "bike_id": "abfb429ed18f1e97c4dedbd727fe5de2", "is_disabled": 0, "type": "electric_scooter", "lat": 38.939699833333336, "lon": -77.03254, "is_reserved": 0, "fusion_lon": 0.0}, {"rental_uris": {"ios": "https://dc.lft.to/lastmile_qr_scan", "android": "https://dc.lft.to/lastmile_qr_scan"}, "fusion_lat": 0.0, "name": "2462df357852b17396b4e864b71a2ecd", "bike_id": "2462df357852b17396b4e864b71a2ecd", "is_disabled": 0, "type": "electric_scooter", "lat": 38.915549, "lon": -77.0220995, "is_reserved": 0, "fusion_lon": 0.0}, {"rental_uris": {"ios": "https://dc.lft.to/lastmile_qr_scan", "android": "https://dc.lft.to/lastmile_qr_scan"}, "fusion_lat": 0.0, "name": "85ceeeb17c869b3755c045ba54950293", "bike_id": "85ceeeb17c869b3755c045ba54950293", "is_disabled": 0, "type": "electric_scooter", "lat": 38.918621333333334, "lon": -77.04039233333333, "is_reserved": 0, "fusion_lon": 0.0}, {"rental_uris": {"ios": "https://dc.lft.to/lastmile_qr_scan", "android": "https://dc.lft.to/lastmile_qr_scan"},