{"data": {"bikes": [{"bike_id": "f532edeb8702767a7f68b28bd9761c6e", "type": "electric_scooter", "is_disabled": 0, "lat": 38.9006045, "rental_uris": {"ios": "https://dc.lft.to/lastmile_qr_scan", "android": "https://dc.lft.to/lastmile_qr_scan"}, "is_reserved": 0, "fusion_lon": 0.0, "fusion_lat": 0.0, "lon": -77.01340966666666, "name": "f532edeb8702767a7f68b28bd9761c6e"}, {"bike_id": "5f014819784faf27531fbdf5d8400e0b", "type": "electric_scooter", "is_disabled": 0, "lat": 38.91371183333333, "rental_uris": {"ios": "https://dc.lft.to/lastmile_qr_scan", "android": "https://dc.lft.to/lastmile_qr_scan"}, "is_reserved": 0, "fusion_lon": 0.0, "fusion_lat": 0.0, "lon": -77.04563916666666, "name": "5f014819784faf27531fbdf5d8400e0b"}, {"bike_id": "5766ddb1a25514a27d4b2cc1da8be942", "type": "electric_scooter", "is_disabled": 0, "lat": 38.9111215, "rental_uris": {"ios": "https://dc.lft.to/lastmile_qr_scan", "android": "https://dc.lft.to/lastmile_qr_scan"}, "is_reserved": 0, "fusion_lon": 0.0, "fusion_lat": 0.0, "lon": -77.03830716666667, "name": "5766ddb1a25514a27d4b2cc1da8be942"}, {"bike_id": "397b0551c716aa1471e3a5042bb2e950", "type": "electric_scooter", "is_disabled": 0, "lat": 38.9259605, "rental_uris": {"ios": "https://dc.lft.to/lastmile_qr_scan", "android": "https://dc.lft.to/lastmile_qr_scan"}, "is_reserved": 0, "fusion_lon": 0.0, "fusion_lat": 0.0, "lon": -77.02154833333333, "name": "397b0551c716aa1471e3a5042bb2e950"}, {"bike_id": "56b5defb6fa79d3a2be6501fe3b73bdc", "type": "electric_scooter", "is_disabled": 0, "lat": 38.9097325, "rental_uris": {"ios": "https://dc.lft.to/lastmile_qr_scan", "android": "https://dc.lft.to/lastmile_qr_scan"}, "is_reserved": 0, "fusion_lon": 0.0, "fusion_lat": 0.0, "lon": -77.03191216666667, "name": "56b5defb6fa79d3a2be6501fe3b73bdc"}, {"bike_id": "1fef6c978b5067bf327e51d7dc5ef435", "type": "electric_scooter", "is_disabled": 0, "lat": 38.90191766666667, "rental_uris": {"ios": "https://dc.lft.to/lastmile_qr_scan", "android": "https://dc.lft.to/lastmile_qr_scan"}, "is_reserved": 0, "fusion_lon": 0.0, "fusion_lat": 0.0, "lon": -76.98842016666667, "name": "1fef6c978b5067bf327e51d7dc5ef435"}, {"bike_id": "b11ca8c839dca74a72134ab364767716", "type": "electric_scooter", "is_disabled": 0, "lat": 38.940707333333336, "rental_uris": {"ios": "https://dc.lft.to/lastmile_qr_scan", "android": "https://dc.lft.to/lastmile_qr_scan"}, "is_reserved": 0, "fusion_lon": 0.0, "fusion_lat": 0.0, "lon": -77.05254466666666, "name": "b11ca8c839dca74a72134ab364767716"}, {"bike_id": "4622850b77cd8a967df59a1622d979f9", "type": "electric_scooter", "is_disabled": 0, "lat": 38.89238833333334, "rental_uris": {"ios": "https://dc.lft.to/lastmile_qr_scan", "android": "https://dc.lft.to/lastmile_qr_scan"}, "is_reserved": 0, "fusion_lon": 0.0, "fusion_lat": 0.0, "lon": -77.02381166666666, "name": "4622850b77cd8a967df59a1622d979f9"}, {"bike_id": "f5ddec55402efad30a07cfb89b83587d", "type": "electric_scooter", "is_disabled": 0, "lat": 38.90424866666667, "rental_uris": {"ios": "https://dc.lft.to/lastmile_qr_scan", "android": "https://dc.lft.to/lastmile_qr_scan"}, "is_reserved": 0, "fusion_lon": 0.0, "fusion_lat": 0.0, "lon": -77.02884966666667, "name": "f5ddec55402efad30a07cfb89b83587d"}, {"bike_id": "c9fa9c14117774552ed4723f13f22299", "type": "electric_scooter", "is_disabled": 0, "lat": 38.89845583333334, "rental_uris": {"ios": "https://dc.lft.to/lastmile_qr_scan", "android": "https://dc.lft.to/lastmile_qr_scan"}, "is_reserved": 0, "fusion_lon": 0.0, "fusion_lat": 0.0, "lon": -76.94634666666667, "name": "c9fa9c14117774552ed4723f13f22299"}, {"bike_id": "f6b6b35df9e1d49cd7b76c906746f9f9", "type": "electric_scooter", "is_disabled": 0, "lat": 38.91135366666666, "rental_uris": {"ios": "https://dc.lft.to/lastmile_qr_scan", "android": "https://dc.lft.to/lastmile_qr_scan"}, "is_reserved": 0, "fusion_lon": 0.0, "fusion_lat": 0.0, "lon": -77.065346, "name": "f6b6b35df9e1d49cd7b76c906746f9f9"}, {"bike_id": "d99cf4314295455757e327cf060a4fc6", "type": "electric_scooter", "is_disabled": 0, "lat": 38.88407133333333, "rental_uris": {"ios": "https://dc.lft.to/lastmile_qr_scan", "android": "https://dc.lft.to/lastmile_qr_scan"}, "is_reserved": 0, "fusion_lon": 0.0, "fusion_lat": 0.0, "lon": -77.03186283333334, "name": "d99cf4314295455757e327cf060a4fc6"}, {"bike_id": "f94452306558ab248572c79a33ec21d8", "type": "electric_scooter", "is_disabled": 0, "lat": 38.93290483333333, "rental_uris": {"ios": "https://dc.lft.to/lastmile_qr_scan", "android": "https://dc.lft.to/lastmile_qr_scan"}, "is_reserved": 0, "fusion_lon": 0.0, "fusion_lat": 0.0, "lon": -77.04121466666666, "name": "f94452306558ab248572c79a33ec21d8"}, {"bike_id": "31a0e08c7bd1bbc7f6d7840dca1b5c84", "type": "electric_scooter", "is_disabled": 0, "lat": 38.9019755, "rental_uris": {"ios": "https://dc.lft.to/lastmile_qr_scan", "android": "https://dc.lft.to/lastmile_qr_scan"}, "is_reserved": 0, "fusion_lon": 0.0, "fusion_lat": 0.0, "lon": -77.02374366666666, "name": "31a0e08c7bd1bbc7f6d7840dca1b5c84"}, {"bike_id": "558c66204eff1e155cab7744dc2c96bc", "type": "electric_scooter", "is_disabled": 0, "lat": 38.89545416666667, "rental_uris": {"ios": "https://dc.lft.to/lastmile_qr_scan", "android": "https://dc.lft.to/lastmile_qr_scan"}, "is_reserved": 0, "fusion_lon": 0.0, "fusion_lat": 0.0, "lon": -76.92952866666667, "name": "558c66204eff1e155cab7744dc2c96bc"}, {"bike_id": "996c3350a949406c70dcce1b38c667b5", "type": "electric_scooter", "is_disabled": 0, "lat": 38.90563316666667, "rental_uris": {"ios": "https://dc.lft.to/lastmile_qr_scan", "android": "https://dc.lft.to/lastmile_qr_scan"}, "is_reserved": 0, "fusion_lon": 0.0, "fusion_lat": 0.0, "lon": -76.98143366666666, "name": "996c3350a949406c70dcce1b38c667b5"}, {"bike_id": "88362f0c59ef901e43e0c7cd9e1bd7ff", "type": "electric_bike", "is_disabled": 0, "lat": 38.857850666666664, "rental_uris": {"ios": "https://dc.lft.to/lastmile_qr_scan", "android": "https://dc.lft.to/lastmile_qr_scan"}, "is_reserved": 0, "fusion_lon": 0.0, "fusion_lat": 0.0, "lon": -77.12020533333333, "name": "88362f0c59ef901e43e0c7cd9e1bd7ff"}, {"bike_id": "9e12a299272cb9dcb910e36f2d03bafe", "type": "electric_scooter", "is_disabled": 0, "lat": 38.92673633333333, "rental_uris": {"ios": "https://dc.lft.to/lastmile_qr_scan", "android": "https://dc.lft.to/lastmile_qr_scan"}, "is_reserved": 0, "fusion_lon": 0.0, "fusion_lat": 0.0, "lon": -77.04355483333333, "name": "9e12a299272cb9dcb910e36f2d03bafe"}, {"bike_id": "d846113f6cb477c1e2bcf2aad8a817d6", "type": "electric_scooter", "is_disabled": 0, "lat": 38.918783833333336, "rental_uris": {"ios": "https://dc.lft.to/lastmile_qr_scan", "android": "https://dc.lft.to/lastmile_qr_scan"}, "is_reserved": 0, "fusion_lon": 0.0, "fusion_lat": 0.0, "lon": -77.034812, "name": "d846113f6cb477c1e2bcf2aad8a817d6"}, {"bike_id": "efe69a512df05e24f544d8029859e3c5", "type": "electric_scooter", "is_disabled": 0, "lat": 38.90980416666667, "rental_uris": {"ios": "https://dc.lft.to/lastmile_qr_scan", "android": "https://dc.lft.to/lastmile_qr_scan"}, "is_reserved": 0, "fusion_lon": 0.0, "fusion_lat": 0.0, "lon": -77.034367, "name": "efe69a512df05e24f544d8029859e3c5"}, {"bike_id": "e33b16ad01412caabfd5afba74a283a5", "type": "electric_scooter", "is_disabled": 0, "lat": 38.92971716666667, "rental_uris": {"ios": "https://dc.lft.to/lastmile_qr_scan", "android": "https://dc.lft.to/lastmile_qr_scan"}, "is_reserved": 0, "fusion_lon": 0.0, "fusion_lat": 0.0, "lon": -77.0313975, "name": "e33b16ad01412caabfd5afba74a283a5"}, {"bike_id": "04d914790e548a42cef0bbc6d1c71760", "type": "electric_bike", "is_disabled": 0, "lat": 38.80758433333333, "rental_uris": {"ios": "https://dc.lft.to/lastmile_qr_scan", "android": "https://dc.lft.to/lastmile_qr_scan"}, "is_reserved": 0, "fusion_lon": 0.0, "fusion_lat": 0.0, "lon": -77.09462966666666, "name": "04d914790e548a42cef0bbc6d1c71760"}, {"bike_id": "aacea58a35309a756077d38297ecbee7", "type": "electric_scooter", "is_disabled": 0, "lat": 38.8650295, "rental_uris": {"ios": "https://dc.lft.to/lastmile_qr_scan", "android": "https://dc.lft.to/lastmile_qr_scan"}, "is_reserved": 0, "fusion_lon": 0.0, "fusion_lat": 0.0, "lon": -76.9900345, "name": "aacea58a35309a756077d38297ecbee7"}, {"bike_id": "5ccf4849142441d6e712cf03c702058c", "type": "electric_scooter", "is_disabled": 0, "lat": 38.91397283333333, "rental_uris": {"ios": "https://dc.lft.to/lastmile_qr_scan", "android": "https://dc.lft.to/lastmile_qr_scan"}, "is_reserved": 0, "fusion_lon": 0.0, "fusion_lat": 0.0, "lon": -77.03450833333333, "name": "5ccf4849142441d6e712cf03c702058c"}, {"bike_id": "3f85970fe4c1a675916e1e859f8901ff", "type": "electric_scooter", "is_disabled": 0, "lat": 38.92316533333333, "rental_uris": {"ios": "https://dc.lft.to/lastmile_qr_scan", "android": "https://dc.lft.to/lastmile_qr_scan"}, "is_reserved": 0, "fusion_lon": 0.0, "fusion_lat": 0.0, "lon": -77.0403445, "name": "3f85970fe4c1a675916e1e859f8901ff"}, {"bike_id": "511bb31f0a00bacb45771c29136faf10", "type": "electric_scooter", "is_disabled": 0, "lat": 38.935778, "rental_uris": {"ios": "https://dc.lft.to/lastmile_qr_scan", "android": "https://dc.lft.to/lastmile_qr_scan"}, "is_reserved": 0, "fusion_lon": 0.0, "fusion_lat": 0.0, "lon": -77.03360216666667, "name": "511bb31f0a00bacb45771c29136faf10"}, {"bike_id": "cc94fc2d5b0320e9cd830815dde61321", "type": "electric_bike", "is_disabled": 0, "lat": 38.993483833333336, "rental_uris": {"ios": "https://dc.lft.to/lastmile_qr_scan", "android": "https://dc.lft.to/lastmile_qr_scan"}, "is_reserved": 0, "fusion_lon": 0.0, "fusion_lat": 0.0, "lon": -77.11575583333334, "name": "cc94fc2d5b0320e9cd830815dde61321"}, {"bike_id": "f8552cb747450450ca1fa4c0aabe9fe6", "type": "electric_scooter", "is_disabled": 0, "lat": 38.8779685, "rental_uris": {"ios": "https://dc.lft.to/lastmile_qr_scan", "android": "https://dc.lft.to/lastmile_qr_scan"}, "is_reserved": 0, "fusion_lon": 0.0, "fusion_lat": 0.0, "lon": -77.01745883333334, "name": "f8552cb747450450ca1fa4c0aabe9fe6"}, {"bike_id": "60207d18647cafcd8db07e04817a6e70", "type": "electric_scooter", "is_disabled": 0, "lat": 38.916199, "rental_uris": {"ios": "https://dc.lft.to/lastmile_qr_scan", "android": "https://dc.lft.to/lastmile_qr_scan"}, "is_reserved": 0, "fusion_lon": 0.0, "fusion_lat": 0.0, "lon": -77.033765, "name": "60207d18647cafcd8db07e04817a6e70"}, {"bike_id": "13d4913eecd51e5a50af0fef2623a849", "type": "electric_bike", "is_disabled": 0, "lat": 38.799853, "rental_uris": {"ios": "https://dc.lft.to/lastmile_qr_scan", "android": "https://dc.lft.to/lastmile_qr_scan"}, "is_reserved": 0, "fusion_lon": 0.0, "fusion_lat": 0.0, "lon": -77.129734, "name": "13d4913eecd51e5a50af0fef2623a849"}, {"bike_id": "7ff2f63299fe1b59904c0251fc5b76a5", "type": "electric_scooter", "is_disabled": 0, "lat": 38.90747066666667, "rental_uris": {"ios": "https://dc.lft.to/lastmile_qr_scan", "android": "https://dc.lft.to/lastmile_qr_scan"}, "is_reserved": 0, "fusion_lon": 0.0, "fusion_lat": 0.0, "lon": -77.03195633333333, "name": "7ff2f63299fe1b59904c0251fc5b76a5"}, {"bike_id": "7a027c45e595051a7894571ba6322400", "type": "electric_scooter", "is_disabled": 0, "lat": 38.86234816666666, "rental_uris": {"ios": "https://dc.lft.to/lastmile_qr_scan", "android": "https://dc.lft.to/lastmile_qr_scan"}, "is_reserved": 0, "fusion_lon": 0.0, "fusion_lat": 0.0, "lon": -76.99520616666666, "name": "7a027c45e595051a7894571ba6322400"}, {"bike_id": "1bb3c9e9a32cb5979cd4a63fd1a8f24c", "type": "electric_scooter", "is_disabled": 0, "lat": 38.9148655, "rental_uris": {"ios": "https://dc.lft.to/lastmile_qr_scan", "android": "https://dc.lft.to/lastmile_qr_scan"}, "is_reserved": 0, "fusion_lon": 0.0, "fusion_lat": 0.0, "lon": -77.04161466666666, "name": "1bb3c9e9a32cb5979cd4a63fd1a8f24c"}, {"bike_id": "311b633d14ef8bf3edf8d6ea665d64df", "type": "electric_scooter", "is_disabled": 0, "lat": 38.90104933333333, "rental_uris": {"ios": "https://dc.lft.to/lastmile_qr_scan", "android": "https://dc.lft.to/lastmile_qr_scan"}, "is_reserved": 0, "fusion_lon": 0.0, "fusion_lat": 0.0, "lon": -77.05162966666667, "name": "311b633d14ef8bf3edf8d6ea665d64df"}, {"bike_id": "4b0ae6aa5a955582eebdf1220e8e8d0a", "type": "electric_scooter", "is_disabled": 0, "lat": 38.893196, "rental_uris": {"ios": "https://dc.lft.to/lastmile_qr_scan", "android": "https://dc.lft.to/lastmile_qr_scan"}, "is_reserved": 0, "fusion_lon": 0.0, "fusion_lat": 0.0, "lon": -77.04878166666667, "name": "4b0ae6aa5a955582eebdf1220e8e8d0a"}, {"bike_id": "b3a5b58dcb7a924d291a4f423e8dd6d6", "type": "electric_scooter", "is_disabled": 0, "lat": 38.92700833333333, "rental_uris": {"ios": "https://dc.lft.to/lastmile_qr_scan", "android": "https://dc.lft.to/lastmile_qr_scan"}, "is_reserved": 0, "fusion_lon": 0.0, "fusion_lat": 0.0, "lon": -77.037398, "name": "b3a5b58dcb7a924d291a4f423e8dd6d6"}, {"bike_id": "0fe17eaebf3db4d63804f0d535d6880e", "type": "electric_scooter", "is_disabled": 0, "lat": 38.927964, "rental_uris": {"ios": "https://dc.lft.to/lastmile_qr_scan", "android": "https://dc.lft.to/lastmile_qr_scan"}, "is_reserved": 0, "fusion_lon": 0.0, "fusion_lat": 0.0, "lon": -77.04353216666667, "name": "0fe17eaebf3db4d63804f0d535d6880e"}, {"bike_id": "3e036bb84abf920e7512853e7393ecde", "type": "electric_scooter", "is_disabled": 0, "lat": 38.87681116666667, "rental_uris": {"ios": "https://dc.lft.to/lastmile_qr_scan", "android": "https://dc.lft.to/lastmile_qr_scan"}, "is_reserved": 0, "fusion_lon": 0.0, "fusion_lat": 0.0, "lon": -77.0179035, "name": "3e036bb84abf920e7512853e7393ecde"}, {"bike_id": "cf53cbdda81da8b4a803a22b884e1fac", "type": "electric_scooter", "is_disabled": 0, "lat": 38.915681166666666, "rental_uris": {"ios": "https://dc.lft.to/lastmile_qr_scan", "android": "https://dc.lft.to/lastmile_qr_scan"}, "is_reserved": 0, "fusion_lon": 0.0, "fusion_lat": 0.0, "lon": -77.03463416666666, "name": "cf53cbdda81da8b4a803a22b884e1fac"}, {"bike_id": "12b20b3bc219d9ad4e91971ed4c3e172", "type": "electric_scooter", "is_disabled": 0, "lat": 38.911513, "rental_uris": {"ios": "https://dc.lft.to/lastmile_qr_scan", "android": "https://dc.lft.to/lastmile_qr_scan"}, "is_reserved": 0, "fusion_lon": 0.0, "fusion_lat": 0.0, "lon": -77.044305, "name": "12b20b3bc219d9ad4e91971ed4c3e172"}, {"bike_id": "037f1a92eca71191967b47b4eb553a32", "type": "electric_bike", "is_disabled": 0, "lat": 38.845269, "rental_uris": {"ios": "https://dc.lft.to/lastmile_qr_scan", "android": "https://dc.lft.to/lastmile_qr_scan"}, "is_reserved": 0, "fusion_lon": 0.0, "fusion_lat": 0.0, "lon": -76.97400583333334, "name": "037f1a92eca71191967b47b4eb553a32"}, {"bike_id": "04771a700372fe5953c1008c8a0103c1", "type": "electric_scooter", "is_disabled": 0, "lat": 38.95017583333333, "rental_uris": {"ios": "https://dc.lft.to/lastmile_qr_scan", "android": "https://dc.lft.to/lastmile_qr_scan"}, "is_reserved": 0, "fusion_lon": 0.0, "fusion_lat": 0.0, "lon": -77.00880483333333, "name": "04771a700372fe5953c1008c8a0103c1"}, {"bike_id": "11a3f8d184808069da411c21e050f0cd", "type": "electric_scooter", "is_disabled": 0, "lat": 38.92319116666667, "rental_uris": {"ios": "https://dc.lft.to/lastmile_qr_scan", "android": "https://dc.lft.to/lastmile_qr_scan"}, "is_reserved": 0, "fusion_lon": 0.0, "fusion_lat": 0.0, "lon": -77.02137516666667, "name": "11a3f8d184808069da411c21e050f0cd"}, {"bike_id": "cfad9b43b6deff0050af654f26134957", "type": "electric_scooter", "is_disabled": 0, "lat": 38.932122166666666, "rental_uris": {"ios": "https://dc.lft.to/lastmile_qr_scan", "android": "https://dc.lft.to/lastmile_qr_scan"}, "is_reserved": 0, "fusion_lon": 0.0, "fusion_lat": 0.0, "lon": -77.03510833333333, "name": "cfad9b43b6deff0050af654f26134957"}, {"bike_id": "fd13008f2e4efc3bc91ed4fa73eda00f", "type": "electric_scooter", "is_disabled": 0, "lat": 38.902081333333335, "rental_uris": {"ios": "https://dc.lft.to/lastmile_qr_scan", "android": "https://dc.lft.to/lastmile_qr_scan"}, "is_reserved": 0, "fusion_lon": 0.0, "fusion_lat": 0.0, "lon": -77.0476005, "name": "fd13008f2e4efc3bc91ed4fa73eda00f"}, {"bike_id": "ef0fe6a219001010ae0c1859a518832f", "type": "electric_scooter", "is_disabled": 0, "lat": 38.900743166666665, "rental_uris": {"ios": "https://dc.lft.to/lastmile_qr_scan", "android": "https://dc.lft.to/lastmile_qr_scan"}, "is_reserved": 0, "fusion_lon": 0.0, "fusion_lat": 0.0, "lon": -77.04688283333333, "name": "ef0fe6a219001010ae0c1859a518832f"}, {"bike_id": "e24eba4f4caba555ecaa53469b2b2b9b", "type": "electric_scooter", "is_disabled": 0, "lat": 38.905791666666666, "rental_uris": {"ios": "https://dc.lft.to/lastmile_qr_scan", "android": "https://dc.lft.to/lastmile_qr_scan"}, "is_reserved": 0, "fusion_lon": 0.0, "fusion_lat": 0.0, "lon": -77.004752, "name": "e24eba4f4caba555ecaa53469b2b2b9b"}, {"bike_id": "a147aa13ae71307ffc19c97159caa421", "type": "electric_scooter", "is_disabled": 0, "lat": 38.92359066666667, "rental_uris": {"ios": "https://dc.lft.to/lastmile_qr_scan", "android": "https://dc.lft.to/lastmile_qr_scan"}, "is_reserved": 0, "fusion_lon": 0.0, "fusion_lat": 0.0, "lon": -77.05130633333333, "name": "a147aa13ae71307ffc19c97159caa421"}, {"bike_id": "c7d9661b056c8d891f8a2cf4195f749e", "type": "electric_scooter", "is_disabled": 0, "lat": 38.93246083333333, "rental_uris": {"ios": "https://dc.lft.to/lastmile_qr_scan", "android": "https://dc.lft.to/lastmile_qr_scan"}, "is_reserved": 0, "fusion_lon": 0.0, "fusion_lat": 0.0, "lon": -77.03643066666666, "name": "c7d9661b056c8d891f8a2cf4195f749e"}, {"bike_id": "b7763625afcd522399d0ea88c7cbfcae", "type": "electric_scooter", "is_disabled": 0, "lat": 38.88767283333333, "rental_uris": {"ios": "https://dc.lft.to/lastmile_qr_scan", "android": "https://dc.lft.to/lastmile_qr_scan"}, "is_reserved": 0, "fusion_lon": 0.0, "fusion_lat": 0.0, "lon": -76.95595216666666, "name": "b7763625afcd522399d0ea88c7cbfcae"}, {"bike_id": "f1b9053b33d0a2a99ca763ed0f23b4d4", "type": "electric_scooter", "is_disabled": 0, "lat": 38.885355, "rental_uris": {"ios": "https://dc.lft.to/lastmile_qr_scan", "android": "https://dc.lft.to/lastmile_qr_scan"}, "is_reserved": 0, "fusion_lon": 0.0, "fusion_lat": 0.0, "lon": -76.9982585, "name": "f1b9053b33d0a2a99ca763ed0f23b4d4"}, {"bike_id": "de666b48e3faf8e9b95b03deacbeaaba", "type": "electric_scooter", "is_disabled": 0, "lat": 38.923180333333335, "rental_uris": {"ios": "https://dc.lft.to/lastmile_qr_scan", "android": "https://dc.lft.to/lastmile_qr_scan"}, "is_reserved": 0, "fusion_lon": 0.0, "fusion_lat": 0.0, "lon": -77.0391515, "name": "de666b48e3faf8e9b95b03deacbeaaba"}, {"bike_id": "4613c2b8a0a8e1d39a495ca1e8cfde5a", "type": "electric_scooter", "is_disabled": 0, "lat": 38.88619583333333, "rental_uris": {"ios": "https://dc.lft.to/lastmile_qr_scan", "android": "https://dc.lft.to/lastmile_qr_scan"}, "is_reserved": 0, "fusion_lon": 0.0, "fusion_lat": 0.0, "lon": -76.99610333333334, "name": "4613c2b8a0a8e1d39a495ca1e8cfde5a"}, {"bike_id": "1d886a9fbfee496ad953a91e6043edbb", "type": "electric_scooter", "is_disabled": 0, "lat": 38.90441083333333, "rental_uris": {"ios": "https://dc.lft.to/lastmile_qr_scan", "android": "https://dc.lft.to/lastmile_qr_scan"}, "is_reserved": 0, "fusion_lon": 0.0, "fusion_lat": 0.0, "lon": -77.034716, "name": "1d886a9fbfee496ad953a91e6043edbb"}, {"bike_id": "53e1ac3968c604486a6aa1d11ea18790", "type": "electric_scooter", "is_disabled": 0, "lat": 38.8677795, "rental_uris": {"ios": "https://dc.lft.to/lastmile_qr_scan", "android": "https://dc.lft.to/lastmile_qr_scan"}, "is_reserved": 0, "fusion_lon": 0.0, "fusion_lat": 0.0, "lon": -76.98834083333334, "name": "53e1ac3968c604486a6aa1d11ea18790"}, {"bike_id": "ede801aaa1e28a57dd0eec03cc2281ed", "type": "electric_scooter", "is_disabled": 0, "lat": 38.902161666666665, "rental_uris": {"ios": "https://dc.lft.to/lastmile_qr_scan", "android": "https://dc.lft.to/lastmile_qr_scan"}, "is_reserved": 0, "fusion_lon": 0.0, "fusion_lat": 0.0, "lon": -77.04118966666667, "name": "ede801aaa1e28a57dd0eec03cc2281ed"}, {"bike_id": "8ef9d64084e44a5f7d03c9c8161ba077", "type": "electric_scooter", "is_disabled": 0, "lat": 38.900330833333335, "rental_uris": {"ios": "https://dc.lft.to/lastmile_qr_scan", "android": "https://dc.lft.to/lastmile_qr_scan"}, "is_reserved": 0, "fusion_lon": 0.0, "fusion_lat": 0.0, "lon": -76.99800666666667, "name": "8ef9d64084e44a5f7d03c9c8161ba077"}, {"bike_id": "c0f1f12575aa375930f332e4d8902e03", "type": "electric_scooter", "is_disabled": 0, "lat": 38.95003783333333, "rental_uris": {"ios": "https://dc.lft.to/lastmile_qr_scan", "android": "https://dc.lft.to/lastmile_qr_scan"}, "is_reserved": 0, "fusion_lon": 0.0, "fusion_lat": 0.0, "lon": -77.015607, "name": "c0f1f12575aa375930f332e4d8902e03"}, {"bike_id": "15d0924b53ecf271909027dd8b6b65de", "type": "electric_scooter", "is_disabled": 0, "lat": 38.862411333333334, "rental_uris": {"ios": "https://dc.lft.to/lastmile_qr_scan", "android": "https://dc.lft.to/lastmile_qr_scan"}, "is_reserved": 0, "fusion_lon": 0.0, "fusion_lat": 0.0, "lon": -76.9949625, "name": "15d0924b53ecf271909027dd8b6b65de"}, {"bike_id": "f260aefbbfd8f700dbe6e6e404468aa8", "type": "electric_scooter", "is_disabled": 0, "lat": 38.95660983333333, "rental_uris": {"ios": "https://dc.lft.to/lastmile_qr_scan", "android": "https://dc.lft.to/lastmile_qr_scan"}, "is_reserved": 0, "fusion_lon": 0.0, "fusion_lat": 0.0, "lon": -77.02400366666667, "name": "f260aefbbfd8f700dbe6e6e404468aa8"}, {"bike_id": "1c13c211ab49bee57e8bd27985fee867", "type": "electric_scooter", "is_disabled": 0, "lat": 38.890082166666666, "rental_uris": {"ios": "https://dc.lft.to/lastmile_qr_scan", "android": "https://dc.lft.to/lastmile_qr_scan"}, "is_reserved": 0, "fusion_lon": 0.0, "fusion_lat": 0.0, "lon": -76.9374945, "name": "1c13c211ab49bee57e8bd27985fee867"}, {"bike_id": "32502e3e11f65b15ced5f92258c725ad", "type": "electric_scooter", "is_disabled": 0, "lat": 38.904575666666666, "rental_uris": {"ios": "https://dc.lft.to/lastmile_qr_scan", "android": "https://dc.lft.to/lastmile_qr_scan"}, "is_reserved": 0, "fusion_lon": 0.0, "fusion_lat": 0.0, "lon": -77.066167, "name": "32502e3e11f65b15ced5f92258c725ad"}, {"bike_id": "e9f4d764724c1af66b4802e46b945932", "type": "electric_scooter", "is_disabled": 0, "lat": 38.923702166666665, "rental_uris": {"ios": "https://dc.lft.to/lastmile_qr_scan", "android": "https://dc.lft.to/lastmile_qr_scan"}, "is_reserved": 0, "fusion_lon": 0.0, "fusion_lat": 0.0, "lon": -77.03133416666667, "name": "e9f4d764724c1af66b4802e46b945932"}, {"bike_id": "5e8f6fb99be3ce1a1f9327a58d228b6b", "type": "electric_scooter", "is_disabled": 0, "lat": 38.9012895, "rental_uris": {"ios": "https://dc.lft.to/lastmile_qr_scan", "android": "https://dc.lft.to/lastmile_qr_scan"}, "is_reserved": 0, "fusion_lon": 0.0, "fusion_lat": 0.0, "lon": -77.01834783333334, "name": "5e8f6fb99be3ce1a1f9327a58d228b6b"}, {"bike_id": "1f12eff272914e0cb0e809ccfb97cc56", "type": "electric_scooter", "is_disabled": 0, "lat": 38.926741666666665, "rental_uris": {"ios": "https://dc.lft.to/lastmile_qr_scan", "android": "https://dc.lft.to/lastmile_qr_scan"}, "is_reserved": 0, "fusion_lon": 0.0, "fusion_lat": 0.0, "lon": -77.014727, "name": "1f12eff272914e0cb0e809ccfb97cc56"}, {"bike_id": "ac74c9305a9b759bfe77f934adb164c4", "type": "electric_scooter", "is_disabled": 0, "lat": 38.906795333333335, "rental_uris": {"ios": "https://dc.lft.to/lastmile_qr_scan", "android": "https://dc.lft.to/lastmile_qr_scan"}, "is_reserved": 0, "fusion_lon": 0.0, "fusion_lat": 0.0, "lon": -77.02692216666667, "name": "ac74c9305a9b759bfe77f934adb164c4"}, {"bike_id": "3eb835bcdc07ec2f9d71126b9c1349db", "type": "electric_scooter", "is_disabled": 0, "lat": 38.9365985, "rental_uris": {"ios": "https://dc.lft.to/lastmile_qr_scan", "android": "https://dc.lft.to/lastmile_qr_scan"}, "is_reserved": 0, "fusion_lon": 0.0, "fusion_lat": 0.0, "lon": -77.05497966666667, "name": "3eb835bcdc07ec2f9d71126b9c1349db"}, {"bike_id": "5aac84e2532bc3394bff4d4009a1ec97", "type": "electric_scooter", "is_disabled": 0, "lat": 38.907706833333336, "rental_uris": {"ios": "https://dc.lft.to/lastmile_qr_scan", "android": "https://dc.lft.to/lastmile_qr_scan"}, "is_reserved": 0, "fusion_lon": 0.0, "fusion_lat": 0.0, "lon": -77.0386185, "name": "5aac84e2532bc3394bff4d4009a1ec97"}, {"bike_id": "1432ff84a91d6afd311bd4fc7b001ec8", "type": "electric_scooter", "is_disabled": 0, "lat": 38.91490316666667, "rental_uris": {"ios": "https://dc.lft.to/lastmile_qr_scan", "android": "https://dc.lft.to/lastmile_qr_scan"}, "is_reserved": 0, "fusion_lon": 0.0, "fusion_lat": 0.0, "lon": -77.021769, "name": "1432ff84a91d6afd311bd4fc7b001ec8"}, {"bike_id": "9fae440e711db0b13d6b32232138ecc9", "type": "electric_scooter", "is_disabled": 0, "lat": 38.9223925, "rental_uris": {"ios": "https://dc.lft.to/lastmile_qr_scan", "android": "https://dc.lft.to/lastmile_qr_scan"}, "is_reserved": 0, "fusion_lon": 0.0, "fusion_lat": 0.0, "lon": -77.0388945, "name": "9fae440e711db0b13d6b32232138ecc9"}, {"bike_id": "b368595494f50b465af468dd158c54c2", "type": "electric_scooter", "is_disabled": 0, "lat": 38.9287555, "rental_uris": {"ios": "https://dc.lft.to/lastmile_qr_scan", "android": "https://dc.lft.to/lastmile_qr_scan"}, "is_reserved": 0, "fusion_lon": 0.0, "fusion_lat": 0.0, "lon": -77.03210716666666, "name": "b368595494f50b465af468dd158c54c2"}, {"bike_id": "d4a59976679a94001f76cd5f16b67577", "type": "electric_scooter", "is_disabled": 0, "lat": 38.92823633333333, "rental_uris": {"ios": "https://dc.lft.to/lastmile_qr_scan", "android": "https://dc.lft.to/lastmile_qr_scan"}, "is_reserved": 0, "fusion_lon": 0.0, "fusion_lat": 0.0, "lon": -77.022538, "name": "d4a59976679a94001f76cd5f16b67577"}, {"bike_id": "57d098422dec8fe7feb3acedee125182", "type": "electric_scooter", "is_disabled": 0, "lat": 38.92993666666667, "rental_uris": {"ios": "https://dc.lft.to/lastmile_qr_scan", "android": "https://dc.lft.to/lastmile_qr_scan"}, "is_reserved": 0, "fusion_lon": 0.0, "fusion_lat": 0.0, "lon": -77.023477, "name": "57d098422dec8fe7feb3acedee125182"}, {"bike_id": "c120284b902b6372f06fed9fa3c72395", "type": "electric_scooter", "is_disabled": 0, "lat": 38.906848, "rental_uris": {"ios": "https://dc.lft.to/lastmile_qr_scan", "android": "https://dc.lft.to/lastmile_qr_scan"}, "is_reserved": 0, "fusion_lon": 0.0, "fusion_lat": 0.0, "lon": -77.065398, "name": "c120284b902b6372f06fed9fa3c72395"}, {"bike_id": "120b881095708b60ce8ebf3c488d4ac1", "type": "electric_scooter", "is_disabled": 0, "lat": 38.915509, "rental_uris": {"ios": "https://dc.lft.to/lastmile_qr_scan", "android": "https://dc.lft.to/lastmile_qr_scan"}, "is_reserved": 0, "fusion_lon": 0.0, "fusion_lat": 0.0, "lon": -77.03506333333333, "name": "120b881095708b60ce8ebf3c488d4ac1"}, {"bike_id": "3ef2cedb436fc8ac8cafd85e13c782f3", "type": "electric_scooter", "is_disabled": 0, "lat": 38.9010755, "rental_uris": {"ios": "https://dc.lft.to/lastmile_qr_scan", "android": "https://dc.lft.to/lastmile_qr_scan"}, "is_reserved": 0, "fusion_lon": 0.0, "fusion_lat": 0.0, "lon": -77.05161516666666, "name": "3ef2cedb436fc8ac8cafd85e13c782f3"}, {"bike_id": "c1dfe167d934711b272eb68888a9a53e", "type": "electric_bike", "is_disabled": 0, "lat": 38.85756466666667, "rental_uris": {"ios": "https://dc.lft.to/lastmile_qr_scan", "android": "https://dc.lft.to/lastmile_qr_scan"}, "is_reserved": 0, "fusion_lon": 0.0, "fusion_lat": 0.0, "lon": -76.987567, "name": "c1dfe167d934711b272eb68888a9a53e"}, {"bike_id": "8408d82778fe93115576dcdf82235d26", "type": "electric_scooter", "is_disabled": 0, "lat": 38.911122, "rental_uris": {"ios": "https://dc.lft.to/lastmile_qr_scan", "android": "https://dc.lft.to/lastmile_qr_scan"}, "is_reserved": 0, "fusion_lon": 0.0, "fusion_lat": 0.0, "lon": -77.03919733333333, "name": "8408d82778fe93115576dcdf82235d26"}, {"bike_id": "253eeadf8e1b2b2b2649c22d44d868a6", "type": "electric_bike", "is_disabled": 0, "lat": 38.955898166666664, "rental_uris": {"ios": "https://dc.lft.to/lastmile_qr_scan", "android": "https://dc.lft.to/lastmile_qr_scan"}, "is_reserved": 0, "fusion_lon": 0.0, "fusion_lat": 0.0, "lon": -77.08798133333333, "name": "253eeadf8e1b2b2b2649c22d44d868a6"}, {"bike_id": "37f0884dfa508a70c62009d04304d173", "type": "electric_scooter", "is_disabled": 0, "lat": 38.935268666666666, "rental_uris": {"ios": "https://dc.lft.to/lastmile_qr_scan", "android": "https://dc.lft.to/lastmile_qr_scan"}, "is_reserved": 0, "fusion_lon": 0.0, "fusion_lat": 0.0, "lon": -77.02964566666667, "name": "37f0884dfa508a70c62009d04304d173"}, {"bike_id": "f03de1643896fcecf8c52008da783f6b", "type": "electric_bike", "is_disabled": 0, "lat": 38.95245516666667, "rental_uris": {"ios": "https://dc.lft.to/lastmile_qr_scan", "android": "https://dc.lft.to/lastmile_qr_scan"}, "is_reserved": 0, "fusion_lon": 0.0, "fusion_lat": 0.0, "lon": -76.9767405, "name": "f03de1643896fcecf8c52008da783f6b"}, {"bike_id": "5e9a4558574ddd34857b4fde547f682d", "type": "electric_scooter", "is_disabled": 0, "lat": 38.91707666666667, "rental_uris": {"ios": "https://dc.lft.to/lastmile_qr_scan", "android": "https://dc.lft.to/lastmile_qr_scan"}, "is_reserved": 0, "fusion_lon": 0.0, "fusion_lat": 0.0, "lon": -77.034566, "name": "5e9a4558574ddd34857b4fde547f682d"}, {"bike_id": "a86179a30aa239ef71f894139e86af8f", "type": "electric_scooter", "is_disabled": 0, "lat": 38.906264666666665, "rental_uris": {"ios": "https://dc.lft.to/lastmile_qr_scan", "android": "https://dc.lft.to/lastmile_qr_scan"}, "is_reserved": 0, "fusion_lon": 0.0, "fusion_lat": 0.0, "lon": -77.00994716666666, "name": "a86179a30aa239ef71f894139e86af8f"}, {"bike_id": "da7102309ebbd8cb3177da44526936b8", "type": "electric_scooter", "is_disabled": 0, "lat": 38.926321333333334, "rental_uris": {"ios": "https://dc.lft.to/lastmile_qr_scan", "android": "https://dc.lft.to/lastmile_qr_scan"}, "is_reserved": 0, "fusion_lon": 0.0, "fusion_lat": 0.0, "lon": -77.03252633333334, "name": "da7102309ebbd8cb3177da44526936b8"}, {"bike_id": "2adffb567533d151abf747ccd5864ccd", "type": "electric_scooter", "is_disabled": 0, "lat": 38.905454166666665, "rental_uris": {"ios": "https://dc.lft.to/lastmile_qr_scan", "android": "https://dc.lft.to/lastmile_qr_scan"}, "is_reserved": 0, "fusion_lon": 0.0, "fusion_lat": 0.0, "lon": -77.0500845, "name": "2adffb567533d151abf747ccd5864ccd"}, {"bike_id": "5cd4fc8376c07738482ad0338ea0952b", "type": "electric_scooter", "is_disabled": 0, "lat": 38.893398166666664, "rental_uris": {"ios": "https://dc.lft.to/lastmile_qr_scan", "android": "https://dc.lft.to/lastmile_qr_scan"}, "is_reserved": 0, "fusion_lon": 0.0, "fusion_lat": 0.0, "lon": -77.02434716666667, "name": "5cd4fc8376c07738482ad0338ea0952b"}, {"bike_id": "ad6f0f1b242db002f6e62341796edc41", "type": "electric_scooter", "is_disabled": 0, "lat": 38.93539233333333, "rental_uris": {"ios": "https://dc.lft.to/lastmile_qr_scan", "android": "https://dc.lft.to/lastmile_qr_scan"}, "is_reserved": 0, "fusion_lon": 0.0, "fusion_lat": 0.0, "lon": -77.05830383333333, "name": "ad6f0f1b242db002f6e62341796edc41"}, {"bike_id": "c5502acda6c5f2071e1077fb1a8ff644", "type": "electric_bike", "is_disabled": 0, "lat": 38.89217716666667, "rental_uris": {"ios": "https://dc.lft.to/lastmile_qr_scan", "android": "https://dc.lft.to/lastmile_qr_scan"}, "is_reserved": 0, "fusion_lon": 0.0, "fusion_lat": 0.0, "lon": -76.97083383333333, "name": "c5502acda6c5f2071e1077fb1a8ff644"}, {"bike_id": "3c3e94fa1fb9e81beb04271c0a551eae", "type": "electric_scooter", "is_disabled": 0, "lat": 38.923747666666664, "rental_uris": {"ios": "https://dc.lft.to/lastmile_qr_scan", "android": "https://dc.lft.to/lastmile_qr_scan"}, "is_reserved": 0, "fusion_lon": 0.0, "fusion_lat": 0.0, "lon": -77.05258116666667, "name": "3c3e94fa1fb9e81beb04271c0a551eae"}, {"bike_id": "7a20d280358e558665ee98706af51267", "type": "electric_scooter", "is_disabled": 0, "lat": 38.97202816666667, "rental_uris": {"ios": "https://dc.lft.to/lastmile_qr_scan", "android": "https://dc.lft.to/lastmile_qr_scan"}, "is_reserved": 0, "fusion_lon": 0.0, "fusion_lat": 0.0, "lon": -77.02710016666667, "name": "7a20d280358e558665ee98706af51267"}, {"bike_id": "a06de7a2d53e9036e1d3d34d32afe919", "type": "electric_scooter", "is_disabled": 0, "lat": 38.870960833333335, "rental_uris": {"ios": "https://dc.lft.to/lastmile_qr_scan", "android": "https://dc.lft.to/lastmile_qr_scan"}, "is_reserved": 0, "fusion_lon": 0.0, "fusion_lat": 0.0, "lon": -77.0120765, "name": "a06de7a2d53e9036e1d3d34d32afe919"}, {"bike_id": "5bd36c01be3c6cf95e85d17a1263527e", "type": "electric_scooter", "is_disabled": 0, "lat": 38.884033, "rental_uris": {"ios": "https://dc.lft.to/lastmile_qr_scan", "android": "https://dc.lft.to/lastmile_qr_scan"}, "is_reserved": 0, "fusion_lon": 0.0, "fusion_lat": 0.0, "lon": -76.95394516666667, "name": "5bd36c01be3c6cf95e85d17a1263527e"}, {"bike_id": "cd87f6a253d2096e8fd004cdc2050503", "type": "electric_scooter", "is_disabled": 0, "lat": 38.905686, "rental_uris": {"ios": "https://dc.lft.to/lastmile_qr_scan", "android": "https://dc.lft.to/lastmile_qr_scan"}, "is_reserved": 0, "fusion_lon": 0.0, "fusion_lat": 0.0, "lon": -76.97625216666667, "name": "cd87f6a253d2096e8fd004cdc2050503"}, {"bike_id": "5822019b8ca6dd5902628843b53835a6", "type": "electric_scooter", "is_disabled": 0, "lat": 38.9170105, "rental_uris": {"ios": "https://dc.lft.to/lastmile_qr_scan", "android": "https://dc.lft.to/lastmile_qr_scan"}, "is_reserved": 0, "fusion_lon": 0.0, "fusion_lat": 0.0, "lon": -77.03171783333333, "name": "5822019b8ca6dd5902628843b53835a6"}, {"bike_id": "64aac89a963d2192edbbfb55744fb36d", "type": "electric_scooter", "is_disabled": 0, "lat": 38.92859766666667, "rental_uris": {"ios": "https://dc.lft.to/lastmile_qr_scan", "android": "https://dc.lft.to/lastmile_qr_scan"}, "is_reserved": 0, "fusion_lon": 0.0, "fusion_lat": 0.0, "lon": -77.05436266666666, "name": "64aac89a963d2192edbbfb55744fb36d"}, {"bike_id": "81c888164b5853b9ce5f647f66e86289", "type": "electric_scooter", "is_disabled": 0, "lat": 38.922706, "rental_uris": {"ios": "https://dc.lft.to/lastmile_qr_scan", "android": "https://dc.lft.to/lastmile_qr_scan"}, "is_reserved": 0, "fusion_lon": 0.0, "fusion_lat": 0.0, "lon": -77.03277833333334, "name": "81c888164b5853b9ce5f647f66e86289"}, {"bike_id": "07b3ce7a9dacf153754da09769918b94", "type": "electric_scooter", "is_disabled": 0, "lat": 38.907371166666664, "rental_uris": {"ios": "https://dc.lft.to/lastmile_qr_scan", "android": "https://dc.lft.to/lastmile_qr_scan"}, "is_reserved": 0, "fusion_lon": 0.0, "fusion_lat": 0.0, "lon": -77.029536, "name": "07b3ce7a9dacf153754da09769918b94"}, {"bike_id": "accd6e16dc43738f2c447752bce9c44f", "type": "electric_bike", "is_disabled": 0, "lat": 38.9083625, "rental_uris": {"ios": "https://dc.lft.to/lastmile_qr_scan", "android": "https://dc.lft.to/lastmile_qr_scan"}, "is_reserved": 0, "fusion_lon": 0.0, "fusion_lat": 0.0, "lon": -76.93312666666667, "name": "accd6e16dc43738f2c447752bce9c44f"}, {"bike_id": "2d3c13829e7f3715512453ee064f21be", "type": "electric_scooter", "is_disabled": 0, "lat": 38.909876833333335, "rental_uris": {"ios": "https://dc.lft.to/lastmile_qr_scan", "android": "https://dc.lft.to/lastmile_qr_scan"}, "is_reserved": 0, "fusion_lon": 0.0, "fusion_lat": 0.0, "lon": -77.03200383333333, "name": "2d3c13829e7f3715512453ee064f21be"}, {"bike_id": "1a401f284bf39bbc209b9481af0aaa66", "type": "electric_scooter", "is_disabled": 0, "lat": 38.90806366666666, "rental_uris": {"ios": "https://dc.lft.to/lastmile_qr_scan", "android": "https://dc.lft.to/lastmile_qr_scan"}, "is_reserved": 0, "fusion_lon": 0.0, "fusion_lat": 0.0, "lon": -77.0433845, "name": "1a401f284bf39bbc209b9481af0aaa66"}, {"bike_id": "85bed4c3a66b463674e65c036c5e20da", "type": "electric_scooter", "is_disabled": 0, "lat": 38.90900533333333, "rental_uris": {"ios": "https://dc.lft.to/lastmile_qr_scan", "android": "https://dc.lft.to/lastmile_qr_scan"}, "is_reserved": 0, "fusion_lon": 0.0, "fusion_lat": 0.0, "lon": -77.0450025, "name": "85bed4c3a66b463674e65c036c5e20da"}, {"bike_id": "a719632f00fc5fb27d19fb832a8d49ea", "type": "electric_bike", "is_disabled": 0, "lat": 38.951749666666664, "rental_uris": {"ios": "https://dc.lft.to/lastmile_qr_scan", "android": "https://dc.lft.to/lastmile_qr_scan"}, "is_reserved": 0, "fusion_lon": 0.0, "fusion_lat": 0.0, "lon": -76.977327, "name": "a719632f00fc5fb27d19fb832a8d49ea"}, {"bike_id": "6238166ee8d6644d32d35c21799eed40", "type": "electric_scooter", "is_disabled": 0, "lat": 38.908073, "rental_uris": {"ios": "https://dc.lft.to/lastmile_qr_scan", "android": "https://dc.lft.to/lastmile_qr_scan"}, "is_reserved": 0, "fusion_lon": 0.0, "fusion_lat": 0.0, "lon": -77.0434435, "name": "6238166ee8d6644d32d35c21799eed40"}, {"bike_id": "6931ce4bb1bfad3078272aa4421bfaf3", "type": "electric_scooter", "is_disabled": 0, "lat": 38.9248695, "rental_uris": {"ios": "https://dc.lft.to/lastmile_qr_scan", "android": "https://dc.lft.to/lastmile_qr_scan"}, "is_reserved": 0, "fusion_lon": 0.0, "fusion_lat": 0.0, "lon": -77.03176916666666, "name": "6931ce4bb1bfad3078272aa4421bfaf3"}, {"bike_id": "c58e1d2ab66ce53bd1fbf8a893532382", "type": "electric_scooter", "is_disabled": 0, "lat": 38.92881966666667, "rental_uris": {"ios": "https://dc.lft.to/lastmile_qr_scan", "android": "https://dc.lft.to/lastmile_qr_scan"}, "is_reserved": 0, "fusion_lon": 0.0, "fusion_lat": 0.0, "lon": -77.0137945, "name": "c58e1d2ab66ce53bd1fbf8a893532382"}, {"bike_id": "b113a8fc1f5bfd418d1cd7193c771f41", "type": "electric_scooter", "is_disabled": 0, "lat": 38.9285035, "rental_uris": {"ios": "https://dc.lft.to/lastmile_qr_scan", "android": "https://dc.lft.to/lastmile_qr_scan"}, "is_reserved": 0, "fusion_lon": 0.0, "fusion_lat": 0.0, "lon": -77.01953266666666, "name": "b113a8fc1f5bfd418d1cd7193c771f41"}, {"bike_id": "37485da8d9af7f7c944a67059a8a7e57", "type": "electric_scooter", "is_disabled": 0, "lat": 38.905068, "rental_uris": {"ios": "https://dc.lft.to/lastmile_qr_scan", "android": "https://dc.lft.to/lastmile_qr_scan"}, "is_reserved": 0, "fusion_lon": 0.0, "fusion_lat": 0.0, "lon": -77.04068833333334, "name": "37485da8d9af7f7c944a67059a8a7e57"}, {"bike_id": "40638ee9a6b71e460bd1d9c725de4f31", "type": "electric_scooter", "is_disabled": 0, "lat": 38.90266033333333, "rental_uris": {"ios": "https://dc.lft.to/lastmile_qr_scan", "android": "https://dc.lft.to/lastmile_qr_scan"}, "is_reserved": 0, "fusion_lon": 0.0, "fusion_lat": 0.0, "lon": -77.043811, "name": "40638ee9a6b71e460bd1d9c725de4f31"}, {"bike_id": "065fd00b3f226ba5e574fbc019868559", "type": "electric_scooter", "is_disabled": 0, "lat": 38.9359665, "rental_uris": {"ios": "https://dc.lft.to/lastmile_qr_scan", "android": "https://dc.lft.to/lastmile_qr_scan"}, "is_reserved": 0, "fusion_lon": 0.0, "fusion_lat": 0.0, "lon": -77.038092, "name": "065fd00b3f226ba5e574fbc019868559"}, {"bike_id": "70192e5226be26a601cb56af0dfedc81", "type": "electric_scooter", "is_disabled": 0, "lat": 38.9411255, "rental_uris": {"ios": "https://dc.lft.to/lastmile_qr_scan", "android": "https://dc.lft.to/lastmile_qr_scan"}, "is_reserved": 0, "fusion_lon": 0.0, "fusion_lat": 0.0, "lon": -77.02541516666666, "name": "70192e5226be26a601cb56af0dfedc81"}, {"bike_id": "132fa2e8de8202309881dcf6fe54f23e", "type": "electric_scooter", "is_disabled": 0, "lat": 38.86218866666667, "rental_uris": {"ios": "https://dc.lft.to/lastmile_qr_scan", "android": "https://dc.lft.to/lastmile_qr_scan"}, "is_reserved": 0, "fusion_lon": 0.0, "fusion_lat": 0.0, "lon": -76.99490983333334, "name": "132fa2e8de8202309881dcf6fe54f23e"}, {"bike_id": "325601ba070b95fe231190ef3e5ffe32", "type": "electric_scooter", "is_disabled": 0, "lat": 38.904912833333334, "rental_uris": {"ios": "https://dc.lft.to/lastmile_qr_scan", "android": "https://dc.lft.to/lastmile_qr_scan"}, "is_reserved": 0, "fusion_lon": 0.0, "fusion_lat": 0.0, "lon": -76.9496215, "name": "325601ba070b95fe231190ef3e5ffe32"}, {"bike_id": "9a7b4e23837a94fe6775ce781da01c5e", "type": "electric_scooter", "is_disabled": 0, "lat": 38.90684433333333, "rental_uris": {"ios": "https://dc.lft.to/lastmile_qr_scan", "android": "https://dc.lft.to/lastmile_qr_scan"}, "is_reserved": 0, "fusion_lon": 0.0, "fusion_lat": 0.0, "lon": -77.026951, "name": "9a7b4e23837a94fe6775ce781da01c5e"}, {"bike_id": "1b2734b31204b36896995fa95c015be1", "type": "electric_scooter", "is_disabled": 0, "lat": 38.914883, "rental_uris": {"ios": "https://dc.lft.to/lastmile_qr_scan", "android": "https://dc.lft.to/lastmile_qr_scan"}, "is_reserved": 0, "fusion_lon": 0.0, "fusion_lat": 0.0, "lon": -77.04153883333333, "name": "1b2734b31204b36896995fa95c015be1"}, {"bike_id": "b53c939bf39020ea58e53a4183943fb3", "type": "electric_scooter", "is_disabled": 0, "lat": 38.8922265, "rental_uris": {"ios": "https://dc.lft.to/lastmile_qr_scan", "android": "https://dc.lft.to/lastmile_qr_scan"}, "is_reserved": 0, "fusion_lon": 0.0, "fusion_lat": 0.0, "lon": -77.01740633333333, "name": "b53c939bf39020ea58e53a4183943fb3"}, {"bike_id": "c90c2736aa0a35ac6de1e08bc4b11f70", "type": "electric_bike", "is_disabled": 0, "lat": 38.8551835, "rental_uris": {"ios": "https://dc.lft.to/lastmile_qr_scan", "android": "https://dc.lft.to/lastmile_qr_scan"}, "is_reserved": 0, "fusion_lon": 0.0, "fusion_lat": 0.0, "lon": -77.11991683333333, "name": "c90c2736aa0a35ac6de1e08bc4b11f70"}, {"bike_id": "ba79b392b22317208b3d77a8a4b8b3de", "type": "electric_scooter", "is_disabled": 0, "lat": 38.91400383333333, "rental_uris": {"ios": "https://dc.lft.to/lastmile_qr_scan", "android": "https://dc.lft.to/lastmile_qr_scan"}, "is_reserved": 0, "fusion_lon": 0.0, "fusion_lat": 0.0, "lon": -76.98190916666667, "name": "ba79b392b22317208b3d77a8a4b8b3de"}, {"bike_id": "3c7ac016f1875c14b7c8284b424488bf", "type": "electric_scooter", "is_disabled": 0, "lat": 38.923704666666666, "rental_uris": {"ios": "https://dc.lft.to/lastmile_qr_scan", "android": "https://dc.lft.to/lastmile_qr_scan"}, "is_reserved": 0, "fusion_lon": 0.0, "fusion_lat": 0.0, "lon": -77.04138383333333, "name": "3c7ac016f1875c14b7c8284b424488bf"}, {"bike_id": "87d42d131f9ff78b0dc0da31ce1c2036", "type": "electric_scooter", "is_disabled": 0, "lat": 38.92470133333333, "rental_uris": {"ios": "https://dc.lft.to/lastmile_qr_scan", "android": "https://dc.lft.to/lastmile_qr_scan"}, "is_reserved": 0, "fusion_lon": 0.0, "fusion_lat": 0.0, "lon": -77.05211533333333, "name": "87d42d131f9ff78b0dc0da31ce1c2036"}, {"bike_id": "dc48574892490aa3a66580f426f5f940", "type": "electric_scooter", "is_disabled": 0, "lat": 38.920081, "rental_uris": {"ios": "https://dc.lft.to/lastmile_qr_scan", "android": "https://dc.lft.to/lastmile_qr_scan"}, "is_reserved": 0, "fusion_lon": 0.0, "fusion_lat": 0.0, "lon": -77.0237805, "name": "dc48574892490aa3a66580f426f5f940"}, {"bike_id": "a945685ee59c047ec7821fdf3c997bb1", "type": "electric_scooter", "is_disabled": 0, "lat": 38.911622666666666, "rental_uris": {"ios": "https://dc.lft.to/lastmile_qr_scan", "android": "https://dc.lft.to/lastmile_qr_scan"}, "is_reserved": 0, "fusion_lon": 0.0, "fusion_lat": 0.0, "lon": -77.06868483333334, "name": "a945685ee59c047ec7821fdf3c997bb1"}, {"bike_id": "7c640570b6e0b8118a3a60ad3d0657fa", "type": "electric_scooter", "is_disabled": 0, "lat": 38.900317333333334, "rental_uris": {"ios": "https://dc.lft.to/lastmile_qr_scan", "android": "https://dc.lft.to/lastmile_qr_scan"}, "is_reserved": 0, "fusion_lon": 0.0, "fusion_lat": 0.0, "lon": -77.0341325, "name": "7c640570b6e0b8118a3a60ad3d0657fa"}, {"bike_id": "918f895020eb85cdbf578acd3a2e3153", "type": "electric_scooter", "is_disabled": 0, "lat": 38.895349, "rental_uris": {"ios": "https://dc.lft.to/lastmile_qr_scan", "android": "https://dc.lft.to/lastmile_qr_scan"}, "is_reserved": 0, "fusion_lon": 0.0, "fusion_lat": 0.0, "lon": -76.9948695, "name": "918f895020eb85cdbf578acd3a2e3153"}, {"bike_id": "7519c64bddd00aeb7a0fd3ce70cdaf85", "type": "electric_scooter", "is_disabled": 0, "lat": 38.8935855, "rental_uris": {"ios": "https://dc.lft.to/lastmile_qr_scan", "android": "https://dc.lft.to/lastmile_qr_scan"}, "is_reserved": 0, "fusion_lon": 0.0, "fusion_lat": 0.0, "lon": -76.9493485, "name": "7519c64bddd00aeb7a0fd3ce70cdaf85"}, {"bike_id": "625d45c1ae317a5ed659ddbd418125b4", "type": "electric_scooter", "is_disabled": 0, "lat": 38.8960625, "rental_uris": {"ios": "https://dc.lft.to/lastmile_qr_scan", "android": "https://dc.lft.to/lastmile_qr_scan"}, "is_reserved": 0, "fusion_lon": 0.0, "fusion_lat": 0.0, "lon": -77.05440866666666, "name": "625d45c1ae317a5ed659ddbd418125b4"}, {"bike_id": "3eb796f0b2ec4662ecb4515d87dc98e0", "type": "electric_scooter", "is_disabled": 0, "lat": 38.844353166666664, "rental_uris": {"ios": "https://dc.lft.to/lastmile_qr_scan", "android": "https://dc.lft.to/lastmile_qr_scan"}, "is_reserved": 0, "fusion_lon": 0.0, "fusion_lat": 0.0, "lon": -76.99781, "name": "3eb796f0b2ec4662ecb4515d87dc98e0"}, {"bike_id": "9ea2ec82a06b7e6e0daf856ed7d8e38b", "type": "electric_bike", "is_disabled": 0, "lat": 38.92273816666667, "rental_uris": {"ios": "https://dc.lft.to/lastmile_qr_scan", "android": "https://dc.lft.to/lastmile_qr_scan"}, "is_reserved": 0, "fusion_lon": 0.0, "fusion_lat": 0.0, "lon": -77.02246066666666, "name": "9ea2ec82a06b7e6e0daf856ed7d8e38b"}, {"bike_id": "59393df52d3651d204377d6d34959e2f", "type": "electric_scooter", "is_disabled": 0, "lat": 38.92803933333333, "rental_uris": {"ios": "https://dc.lft.to/lastmile_qr_scan", "android": "https://dc.lft.to/lastmile_qr_scan"}, "is_reserved": 0, "fusion_lon": 0.0, "fusion_lat": 0.0, "lon": -77.0320655, "name": "59393df52d3651d204377d6d34959e2f"}, {"bike_id": "7df292bd25d5c9649b67f4c7cf4de36d", "type": "electric_scooter", "is_disabled": 0, "lat": 38.915688, "rental_uris": {"ios": "https://dc.lft.to/lastmile_qr_scan", "android": "https://dc.lft.to/lastmile_qr_scan"}, "is_reserved": 0, "fusion_lon": 0.0, "fusion_lat": 0.0, "lon": -77.050053, "name": "7df292bd25d5c9649b67f4c7cf4de36d"}, {"bike_id": "72c4bc37a1f61e5db90d990d96f683d2", "type": "electric_scooter", "is_disabled": 0, "lat": 38.915384833333334, "rental_uris": {"ios": "https://dc.lft.to/lastmile_qr_scan", "android": "https://dc.lft.to/lastmile_qr_scan"}, "is_reserved": 0, "fusion_lon": 0.0, "fusion_lat": 0.0, "lon": -76.97006433333334, "name": "72c4bc37a1f61e5db90d990d96f683d2"}, {"bike_id": "7d8146730d357d41426af14417a214d5", "type": "electric_bike", "is_disabled": 0, "lat": 39.043132, "rental_uris": {"ios": "https://dc.lft.to/lastmile_qr_scan", "android": "https://dc.lft.to/lastmile_qr_scan"}, "is_reserved": 0, "fusion_lon": 0.0, "fusion_lat": 0.0, "lon": -77.05164916666666, "name": "7d8146730d357d41426af14417a214d5"}, {"bike_id": "8b83adc47d599872e1d023ccee5be00a", "type": "electric_scooter", "is_disabled": 0, "lat": 38.91112316666667, "rental_uris": {"ios": "https://dc.lft.to/lastmile_qr_scan", "android": "https://dc.lft.to/lastmile_qr_scan"}, "is_reserved": 0, "fusion_lon": 0.0, "fusion_lat": 0.0, "lon": -77.038336, "name": "8b83adc47d599872e1d023ccee5be00a"}, {"bike_id": "0bf1e14072fb87ef54e8b60472bd14d3", "type": "electric_scooter", "is_disabled": 0, "lat": 38.900589833333335, "rental_uris": {"ios": "https://dc.lft.to/lastmile_qr_scan", "android": "https://dc.lft.to/lastmile_qr_scan"}, "is_reserved": 0, "fusion_lon": 0.0, "fusion_lat": 0.0, "lon": -77.04533416666666, "name": "0bf1e14072fb87ef54e8b60472bd14d3"}, {"bike_id": "652108013fdab6e02b325050814e83a2", "type": "electric_scooter", "is_disabled": 0, "lat": 38.92469416666667, "rental_uris": {"ios": "https://dc.lft.to/lastmile_qr_scan", "android": "https://dc.lft.to/lastmile_qr_scan"}, "is_reserved": 0, "fusion_lon": 0.0, "fusion_lat": 0.0, "lon": -77.05205766666667, "name": "652108013fdab6e02b325050814e83a2"}, {"bike_id": "9a96c8784fffc3cf14108ccc17e643cf", "type": "electric_bike", "is_disabled": 0, "lat": 38.823781, "rental_uris": {"ios": "https://dc.lft.to/lastmile_qr_scan", "android": "https://dc.lft.to/lastmile_qr_scan"}, "is_reserved": 0, "fusion_lon": 0.0, "fusion_lat": 0.0, "lon": -77.00227866666667, "name": "9a96c8784fffc3cf14108ccc17e643cf"}, {"bike_id": "d0b5229e64df850a1d6686106910a5ed", "type": "electric_scooter", "is_disabled": 0, "lat": 38.9203225, "rental_uris": {"ios": "https://dc.lft.to/lastmile_qr_scan", "android": "https://dc.lft.to/lastmile_qr_scan"}, "is_reserved": 0, "fusion_lon": 0.0, "fusion_lat": 0.0, "lon": -76.97803966666666, "name": "d0b5229e64df850a1d6686106910a5ed"}, {"bike_id": "6a7e54e1cf44949d864e25501faacd3c", "type": "electric_scooter", "is_disabled": 0, "lat": 38.923586, "rental_uris": {"ios": "https://dc.lft.to/lastmile_qr_scan", "android": "https://dc.lft.to/lastmile_qr_scan"}, "is_reserved": 0, "fusion_lon": 0.0, "fusion_lat": 0.0, "lon": -77.05274883333334, "name": "6a7e54e1cf44949d864e25501faacd3c"}, {"bike_id": "a293fe5092c5b2ad578616d3b9e9b0b3", "type": "electric_scooter", "is_disabled": 0, "lat": 38.904826166666666, "rental_uris": {"ios": "https://dc.lft.to/lastmile_qr_scan", "android": "https://dc.lft.to/lastmile_qr_scan"}, "is_reserved": 0, "fusion_lon": 0.0, "fusion_lat": 0.0, "lon": -77.032471, "name": "a293fe5092c5b2ad578616d3b9e9b0b3"}, {"bike_id": "fa396accc7a5298628077ce34717fb7e", "type": "electric_scooter", "is_disabled": 0, "lat": 38.932907666666665, "rental_uris": {"ios": "https://dc.lft.to/lastmile_qr_scan", "android": "https://dc.lft.to/lastmile_qr_scan"}, "is_reserved": 0, "fusion_lon": 0.0, "fusion_lat": 0.0, "lon": -77.03547633333334, "name": "fa396accc7a5298628077ce34717fb7e"}, {"bike_id": "03559288dab95ccc4fe42cd53cf7bb99", "type": "electric_scooter", "is_disabled": 0, "lat": 38.917971333333334, "rental_uris": {"ios": "https://dc.lft.to/lastmile_qr_scan", "android": "https://dc.lft.to/lastmile_qr_scan"}, "is_reserved": 0, "fusion_lon": 0.0, "fusion_lat": 0.0, "lon": -77.03443183333333, "name": "03559288dab95ccc4fe42cd53cf7bb99"}, {"bike_id": "a64dacc7fe6d75df11de1d66a146327e", "type": "electric_scooter", "is_disabled": 0, "lat": 38.899577666666666, "rental_uris": {"ios": "https://dc.lft.to/lastmile_qr_scan", "android": "https://dc.lft.to/lastmile_qr_scan"}, "is_reserved": 0, "fusion_lon": 0.0, "fusion_lat": 0.0, "lon": -77.04787133333333, "name": "a64dacc7fe6d75df11de1d66a146327e"}, {"bike_id": "2aeb6a3f2843856320098dbbdfe9c0ca", "type": "electric_bike", "is_disabled": 0, "lat": 38.88241566666667, "rental_uris": {"ios": "https://dc.lft.to/lastmile_qr_scan", "android": "https://dc.lft.to/lastmile_qr_scan"}, "is_reserved": 0, "fusion_lon": 0.0, "fusion_lat": 0.0, "lon": -76.96253816666666, "name": "2aeb6a3f2843856320098dbbdfe9c0ca"}, {"bike_id": "c916c7404ef24f7297d828281deb1122", "type": "electric_scooter", "is_disabled": 0, "lat": 38.8794315, "rental_uris": {"ios": "https://dc.lft.to/lastmile_qr_scan", "android": "https://dc.lft.to/lastmile_qr_scan"}, "is_reserved": 0, "fusion_lon": 0.0, "fusion_lat": 0.0, "lon": -77.0235615, "name": "c916c7404ef24f7297d828281deb1122"}, {"bike_id": "f4f880ce9e383cd67368e22e32357835", "type": "electric_scooter", "is_disabled": 0, "lat": 38.888537166666666, "rental_uris": {"ios": "https://dc.lft.to/lastmile_qr_scan", "android": "https://dc.lft.to/lastmile_qr_scan"}, "is_reserved": 0, "fusion_lon": 0.0, "fusion_lat": 0.0, "lon": -77.00058, "name": "f4f880ce9e383cd67368e22e32357835"}, {"bike_id": "307c96be3713379eed69db868694e94a", "type": "electric_scooter", "is_disabled": 0, "lat": 38.9285805, "rental_uris": {"ios": "https://dc.lft.to/lastmile_qr_scan", "android": "https://dc.lft.to/lastmile_qr_scan"}, "is_reserved": 0, "fusion_lon": 0.0, "fusion_lat": 0.0, "lon": -77.0325485, "name": "307c96be3713379eed69db868694e94a"}, {"bike_id": "1a45f5e71fa20c60d5dde11383c15576", "type": "electric_scooter", "is_disabled": 0, "lat": 38.90267866666667, "rental_uris": {"ios": "https://dc.lft.to/lastmile_qr_scan", "android": "https://dc.lft.to/lastmile_qr_scan"}, "is_reserved": 0, "fusion_lon": 0.0, "fusion_lat": 0.0, "lon": -77.03838783333333, "name": "1a45f5e71fa20c60d5dde11383c15576"}, {"bike_id": "5531ab96fb56b3bd34dad04f1846c981", "type": "electric_scooter", "is_disabled": 0, "lat": 38.9057075, "rental_uris": {"ios": "https://dc.lft.to/lastmile_qr_scan", "android": "https://dc.lft.to/lastmile_qr_scan"}, "is_reserved": 0, "fusion_lon": 0.0, "fusion_lat": 0.0, "lon": -77.03034283333334, "name": "5531ab96fb56b3bd34dad04f1846c981"}, {"bike_id": "fb1760872d0feeefd488594cc506050e", "type": "electric_scooter", "is_disabled": 0, "lat": 38.892514166666665, "rental_uris": {"ios": "https://dc.lft.to/lastmile_qr_scan", "android": "https://dc.lft.to/lastmile_qr_scan"}, "is_reserved": 0, "fusion_lon": 0.0, "fusion_lat": 0.0, "lon": -77.04677033333333, "name": "fb1760872d0feeefd488594cc506050e"}, {"bike_id": "37f6ebadb33e1cdf6ec74221a110cb52", "type": "electric_scooter", "is_disabled": 0, "lat": 38.922609, "rental_uris": {"ios": "https://dc.lft.to/lastmile_qr_scan", "android": "https://dc.lft.to/lastmile_qr_scan"}, "is_reserved": 0, "fusion_lon": 0.0, "fusion_lat": 0.0, "lon": -77.0339495, "name": "37f6ebadb33e1cdf6ec74221a110cb52"}, {"bike_id": "beb16d61be9afa155e1df2ebb3e2ad61", "type": "electric_scooter", "is_disabled": 0, "lat": 38.90030433333333, "rental_uris": {"ios": "https://dc.lft.to/lastmile_qr_scan", "android": "https://dc.lft.to/lastmile_qr_scan"}, "is_reserved": 0, "fusion_lon": 0.0, "fusion_lat": 0.0, "lon": -77.03502116666667, "name": "beb16d61be9afa155e1df2ebb3e2ad61"}, {"bike_id": "2db5da357017a329ecf22fb0d0998294", "type": "electric_scooter", "is_disabled": 0, "lat": 38.907009, "rental_uris": {"ios": "https://dc.lft.to/lastmile_qr_scan", "android": "https://dc.lft.to/lastmile_qr_scan"}, "is_reserved": 0, "fusion_lon": 0.0, "fusion_lat": 0.0, "lon": -77.041684, "name": "2db5da357017a329ecf22fb0d0998294"}, {"bike_id": "5ef767f6dc039d31247b1a5fb98812ec", "type": "electric_scooter", "is_disabled": 0, "lat": 38.89588216666667, "rental_uris": {"ios": "https://dc.lft.to/lastmile_qr_scan", "android": "https://dc.lft.to/lastmile_qr_scan"}, "is_reserved": 0, "fusion_lon": 0.0, "fusion_lat": 0.0, "lon": -77.00501483333333, "name": "5ef767f6dc039d31247b1a5fb98812ec"}, {"bike_id": "b2fd242806cfdd7cea8f9e1eba1c6fda", "type": "electric_scooter", "is_disabled": 0, "lat": 38.917651, "rental_uris": {"ios": "https://dc.lft.to/lastmile_qr_scan", "android": "https://dc.lft.to/lastmile_qr_scan"}, "is_reserved": 0, "fusion_lon": 0.0, "fusion_lat": 0.0, "lon": -77.04556733333334, "name": "b2fd242806cfdd7cea8f9e1eba1c6fda"}, {"bike_id": "4e7483e21981b91df67bd831ba3aac2c", "type": "electric_scooter", "is_disabled": 0, "lat": 38.93783283333333, "rental_uris": {"ios": "https://dc.lft.to/lastmile_qr_scan", "android": "https://dc.lft.to/lastmile_qr_scan"}, "is_reserved": 0, "fusion_lon": 0.0, "fusion_lat": 0.0, "lon": -77.03294083333333, "name": "4e7483e21981b91df67bd831ba3aac2c"}, {"bike_id": "85e04673fdb855af4a2ef3ea6eff4b2b", "type": "electric_scooter", "is_disabled": 0, "lat": 38.900096833333336, "rental_uris": {"ios": "https://dc.lft.to/lastmile_qr_scan", "android": "https://dc.lft.to/lastmile_qr_scan"}, "is_reserved": 0, "fusion_lon": 0.0, "fusion_lat": 0.0, "lon": -77.04491433333334, "name": "85e04673fdb855af4a2ef3ea6eff4b2b"}, {"bike_id": "595777967a28128883110eb19c02dc92", "type": "electric_scooter", "is_disabled": 0, "lat": 38.92349166666666, "rental_uris": {"ios": "https://dc.lft.to/lastmile_qr_scan", "android": "https://dc.lft.to/lastmile_qr_scan"}, "is_reserved": 0, "fusion_lon": 0.0, "fusion_lat": 0.0, "lon": -77.0415145, "name": "595777967a28128883110eb19c02dc92"}, {"bike_id": "a13e70c5008819bcfd4c4efc8fd392dd", "type": "electric_scooter", "is_disabled": 0, "lat": 38.905135666666666, "rental_uris": {"ios": "https://dc.lft.to/lastmile_qr_scan", "android": "https://dc.lft.to/lastmile_qr_scan"}, "is_reserved": 0, "fusion_lon": 0.0, "fusion_lat": 0.0, "lon": -77.06200733333333, "name": "a13e70c5008819bcfd4c4efc8fd392dd"}, {"bike_id": "06454ceec773a2bbd1443f6ffda10edf", "type": "electric_scooter", "is_disabled": 0, "lat": 38.930956, "rental_uris": {"ios": "https://dc.lft.to/lastmile_qr_scan", "android": "https://dc.lft.to/lastmile_qr_scan"}, "is_reserved": 0, "fusion_lon": 0.0, "fusion_lat": 0.0, "lon": -77.02658716666667, "name": "06454ceec773a2bbd1443f6ffda10edf"}, {"bike_id": "6c652cf984ef1075d210c7cccdb3571f", "type": "electric_scooter", "is_disabled": 0, "lat": 38.89873866666667, "rental_uris": {"ios": "https://dc.lft.to/lastmile_qr_scan", "android": "https://dc.lft.to/lastmile_qr_scan"}, "is_reserved": 0, "fusion_lon": 0.0, "fusion_lat": 0.0, "lon": -76.9318695, "name": "6c652cf984ef1075d210c7cccdb3571f"}, {"bike_id": "95b1e9153492b671c56cfe3ba04705ad", "type": "electric_scooter", "is_disabled": 0, "lat": 38.90948516666667, "rental_uris": {"ios": "https://dc.lft.to/lastmile_qr_scan", "android": "https://dc.lft.to/lastmile_qr_scan"}, "is_reserved": 0, "fusion_lon": 0.0, "fusion_lat": 0.0, "lon": -77.034477, "name": "95b1e9153492b671c56cfe3ba04705ad"}, {"bike_id": "4fdb0165cc72d74477e3e2765fdfd4a4", "type": "electric_scooter", "is_disabled": 0, "lat": 38.91797666666667, "rental_uris": {"ios": "https://dc.lft.to/lastmile_qr_scan", "android": "https://dc.lft.to/lastmile_qr_scan"}, "is_reserved": 0, "fusion_lon": 0.0, "fusion_lat": 0.0, "lon": -77.03437883333334, "name": "4fdb0165cc72d74477e3e2765fdfd4a4"}, {"bike_id": "229cc812186ec2284dea0087c692cdaa", "type": "electric_scooter", "is_disabled": 0, "lat": 38.93726566666667, "rental_uris": {"ios": "https://dc.lft.to/lastmile_qr_scan", "android": "https://dc.lft.to/lastmile_qr_scan"}, "is_reserved": 0, "fusion_lon": 0.0, "fusion_lat": 0.0, "lon": -77.03292983333333, "name": "229cc812186ec2284dea0087c692cdaa"}, {"bike_id": "49e5d1dfaf50fd21dc448660311da882", "type": "electric_scooter", "is_disabled": 0, "lat": 38.901326166666664, "rental_uris": {"ios": "https://dc.lft.to/lastmile_qr_scan", "android": "https://dc.lft.to/lastmile_qr_scan"}, "is_reserved": 0, "fusion_lon": 0.0, "fusion_lat": 0.0, "lon": -77.00855633333333, "name": "49e5d1dfaf50fd21dc448660311da882"}, {"bike_id": "9977eba8a49939114374546a84480fe8", "type": "electric_bike", "is_disabled": 0, "lat": 38.861934833333336, "rental_uris": {"ios": "https://dc.lft.to/lastmile_qr_scan", "android": "https://dc.lft.to/lastmile_qr_scan"}, "is_reserved": 0, "fusion_lon": 0.0, "fusion_lat": 0.0, "lon": -76.9480525, "name": "9977eba8a49939114374546a84480fe8"}, {"bike_id": "db966fb65ecbcc1fb100acf2eae602a1", "type": "electric_bike", "is_disabled": 0, "lat": 38.883032166666666, "rental_uris": {"ios": "https://dc.lft.to/lastmile_qr_scan", "android": "https://dc.lft.to/lastmile_qr_scan"}, "is_reserved": 0, "fusion_lon": 0.0, "fusion_lat": 0.0, "lon": -76.9962405, "name": "db966fb65ecbcc1fb100acf2eae602a1"}, {"bike_id": "4335c26e7872ae6ffd8f050c7c776c97", "type": "electric_scooter", "is_disabled": 0, "lat": 38.92265166666667, "rental_uris": {"ios": "https://dc.lft.to/lastmile_qr_scan", "android": "https://dc.lft.to/lastmile_qr_scan"}, "is_reserved": 0, "fusion_lon": 0.0, "fusion_lat": 0.0, "lon": -77.00044516666667, "name": "4335c26e7872ae6ffd8f050c7c776c97"}, {"bike_id": "911690b97ae2ffe076005badc0a5ce6a", "type": "electric_scooter", "is_disabled": 0, "lat": 38.905172, "rental_uris": {"ios": "https://dc.lft.to/lastmile_qr_scan", "android": "https://dc.lft.to/lastmile_qr_scan"}, "is_reserved": 0, "fusion_lon": 0.0, "fusion_lat": 0.0, "lon": -77.04190316666667, "name": "911690b97ae2ffe076005badc0a5ce6a"}, {"bike_id": "3be5f70811a525daa37462e0f4b500ab", "type": "electric_scooter", "is_disabled": 0, "lat": 38.8989105, "rental_uris": {"ios": "https://dc.lft.to/lastmile_qr_scan", "android": "https://dc.lft.to/lastmile_qr_scan"}, "is_reserved": 0, "fusion_lon": 0.0, "fusion_lat": 0.0, "lon": -76.97694466666667, "name": "3be5f70811a525daa37462e0f4b500ab"}, {"bike_id": "d1ea1f305658e7f08752098017695708", "type": "electric_scooter", "is_disabled": 0, "lat": 38.91568266666667, "rental_uris": {"ios": "https://dc.lft.to/lastmile_qr_scan", "android": "https://dc.lft.to/lastmile_qr_scan"}, "is_reserved": 0, "fusion_lon": 0.0, "fusion_lat": 0.0, "lon": -77.02290083333334, "name": "d1ea1f305658e7f08752098017695708"}, {"bike_id": "b3f796d82d3affe5eb82564fda9faed5", "type": "electric_scooter", "is_disabled": 0, "lat": 38.906024333333335, "rental_uris": {"ios": "https://dc.lft.to/lastmile_qr_scan", "android": "https://dc.lft.to/lastmile_qr_scan"}, "is_reserved": 0, "fusion_lon": 0.0, "fusion_lat": 0.0, "lon": -77.02112983333333, "name": "b3f796d82d3affe5eb82564fda9faed5"}, {"bike_id": "9518dbafbaa7f00e273b27519a96bd2f", "type": "electric_scooter", "is_disabled": 0, "lat": 38.91339516666667, "rental_uris": {"ios": "https://dc.lft.to/lastmile_qr_scan", "android": "https://dc.lft.to/lastmile_qr_scan"}, "is_reserved": 0, "fusion_lon": 0.0, "fusion_lat": 0.0, "lon": -77.03172133333334, "name": "9518dbafbaa7f00e273b27519a96bd2f"}, {"bike_id": "9634908738584ca2107bfca8fad29616", "type": "electric_bike", "is_disabled": 0, "lat": 38.951010833333335, "rental_uris": {"ios": "https://dc.lft.to/lastmile_qr_scan", "android": "https://dc.lft.to/lastmile_qr_scan"}, "is_reserved": 0, "fusion_lon": 0.0, "fusion_lat": 0.0, "lon": -77.05516866666666, "name": "9634908738584ca2107bfca8fad29616"}, {"bike_id": "d331f5d308ae1d098da528c019a9bbb7", "type": "electric_scooter", "is_disabled": 0, "lat": 38.932531833333336, "rental_uris": {"ios": "https://dc.lft.to/lastmile_qr_scan", "android": "https://dc.lft.to/lastmile_qr_scan"}, "is_reserved": 0, "fusion_lon": 0.0, "fusion_lat": 0.0, "lon": -77.03852133333334, "name": "d331f5d308ae1d098da528c019a9bbb7"}, {"bike_id": "4d4c270610bfe3c2c2dd45b1df969320", "type": "electric_scooter", "is_disabled": 0, "lat": 38.905738666666664, "rental_uris": {"ios": "https://dc.lft.to/lastmile_qr_scan", "android": "https://dc.lft.to/lastmile_qr_scan"}, "is_reserved": 0, "fusion_lon": 0.0, "fusion_lat": 0.0, "lon": -77.02597066666667, "name": "4d4c270610bfe3c2c2dd45b1df969320"}, {"bike_id": "67ef6b6357831e5bababe3a6f85ab2cb", "type": "electric_scooter", "is_disabled": 0, "lat": 38.90594216666667, "rental_uris": {"ios": "https://dc.lft.to/lastmile_qr_scan", "android": "https://dc.lft.to/lastmile_qr_scan"}, "is_reserved": 0, "fusion_lon": 0.0, "fusion_lat": 0.0, "lon": -77.04112716666667, "name": "67ef6b6357831e5bababe3a6f85ab2cb"}, {"bike_id": "5cb20e21a855131e0311a46e6dde177c", "type": "electric_scooter", "is_disabled": 0, "lat": 38.90721666666666, "rental_uris": {"ios": "https://dc.lft.to/lastmile_qr_scan", "android": "https://dc.lft.to/lastmile_qr_scan"}, "is_reserved": 0, "fusion_lon": 0.0, "fusion_lat": 0.0, "lon": -77.02486433333333, "name": "5cb20e21a855131e0311a46e6dde177c"}, {"bike_id": "6e9162149a9affa6844327ecf53fc251", "type": "electric_scooter", "is_disabled": 0, "lat": 38.9287455, "rental_uris": {"ios": "https://dc.lft.to/lastmile_qr_scan", "android": "https://dc.lft.to/lastmile_qr_scan"}, "is_reserved": 0, "fusion_lon": 0.0, "fusion_lat": 0.0, "lon": -77.03212483333333, "name": "6e9162149a9affa6844327ecf53fc251"}, {"bike_id": "a0dde8ce7647d9d8d6af01821106cb27", "type": "electric_scooter", "is_disabled": 0, "lat": 38.925417333333336, "rental_uris": {"ios": "https://dc.lft.to/lastmile_qr_scan", "android": "https://dc.lft.to/lastmile_qr_scan"}, "is_reserved": 0, "fusion_lon": 0.0, "fusion_lat": 0.0, "lon": -77.02963533333333, "name": "a0dde8ce7647d9d8d6af01821106cb27"}, {"bike_id": "d33c31f20261681e3fac4f7091a507be", "type": "electric_scooter", "is_disabled": 0, "lat": 38.9056965, "rental_uris": {"ios": "https://dc.lft.to/lastmile_qr_scan", "android": "https://dc.lft.to/lastmile_qr_scan"}, "is_reserved": 0, "fusion_lon": 0.0, "fusion_lat": 0.0, "lon": -77.04332166666667, "name": "d33c31f20261681e3fac4f7091a507be"}, {"bike_id": "0732e79f471ffe5e180fb9648765c8d1", "type": "electric_scooter", "is_disabled": 0, "lat": 38.92348, "rental_uris": {"ios": "https://dc.lft.to/lastmile_qr_scan", "android": "https://dc.lft.to/lastmile_qr_scan"}, "is_reserved": 0, "fusion_lon": 0.0, "fusion_lat": 0.0, "lon": -77.02434133333334, "name": "0732e79f471ffe5e180fb9648765c8d1"}, {"bike_id": "f1977a48438d470b5225c8f5666920e9", "type": "electric_bike", "is_disabled": 0, "lat": 38.83823016666667, "rental_uris": {"ios": "https://dc.lft.to/lastmile_qr_scan", "android": "https://dc.lft.to/lastmile_qr_scan"}, "is_reserved": 0, "fusion_lon": 0.0, "fusion_lat": 0.0, "lon": -77.00278133333333, "name": "f1977a48438d470b5225c8f5666920e9"}, {"bike_id": "76ef6f854c7b8d0b0e1e1e501f27abdd", "type": "electric_scooter", "is_disabled": 0, "lat": 38.889205, "rental_uris": {"ios": "https://dc.lft.to/lastmile_qr_scan", "android": "https://dc.lft.to/lastmile_qr_scan"}, "is_reserved": 0, "fusion_lon": 0.0, "fusion_lat": 0.0, "lon": -76.99129116666667, "name": "76ef6f854c7b8d0b0e1e1e501f27abdd"}, {"bike_id": "f4315e591b461528946324ab633caf65", "type": "electric_scooter", "is_disabled": 0, "lat": 38.925352833333335, "rental_uris": {"ios": "https://dc.lft.to/lastmile_qr_scan", "android": "https://dc.lft.to/lastmile_qr_scan"}, "is_reserved": 0, "fusion_lon": 0.0, "fusion_lat": 0.0, "lon": -77.04128733333333, "name": "f4315e591b461528946324ab633caf65"}, {"bike_id": "e6143890d553c4f5e5dd9d52abb15593", "type": "electric_scooter", "is_disabled": 0, "lat": 38.877239333333335, "rental_uris": {"ios": "https://dc.lft.to/lastmile_qr_scan", "android": "https://dc.lft.to/lastmile_qr_scan"}, "is_reserved": 0, "fusion_lon": 0.0, "fusion_lat": 0.0, "lon": -77.01781483333333, "name": "e6143890d553c4f5e5dd9d52abb15593"}, {"bike_id": "14be4498be2a3ba627e247d6dc088c0c", "type": "electric_scooter", "is_disabled": 0, "lat": 38.933214666666665, "rental_uris": {"ios": "https://dc.lft.to/lastmile_qr_scan", "android": "https://dc.lft.to/lastmile_qr_scan"}, "is_reserved": 0, "fusion_lon": 0.0, "fusion_lat": 0.0, "lon": -77.0326015, "name": "14be4498be2a3ba627e247d6dc088c0c"}, {"bike_id": "4b94f0d906cc38897d0b3f2fbecadf2e", "type": "electric_scooter", "is_disabled": 0, "lat": 38.92367266666667, "rental_uris": {"ios": "https://dc.lft.to/lastmile_qr_scan", "android": "https://dc.lft.to/lastmile_qr_scan"}, "is_reserved": 0, "fusion_lon": 0.0, "fusion_lat": 0.0, "lon": -77.0512275, "name": "4b94f0d906cc38897d0b3f2fbecadf2e"}, {"bike_id": "1db0bea0dd5ab7bc443ccad85bd2eb4a", "type": "electric_scooter", "is_disabled": 0, "lat": 38.91695683333333, "rental_uris": {"ios": "https://dc.lft.to/lastmile_qr_scan", "android": "https://dc.lft.to/lastmile_qr_scan"}, "is_reserved": 0, "fusion_lon": 0.0, "fusion_lat": 0.0, "lon": -77.03598183333334, "name": "1db0bea0dd5ab7bc443ccad85bd2eb4a"}, {"bike_id": "d8876eea27d5fe76c6b477f4925b3931", "type": "electric_scooter", "is_disabled": 0, "lat": 38.89779933333333, "rental_uris": {"ios": "https://dc.lft.to/lastmile_qr_scan", "android": "https://dc.lft.to/lastmile_qr_scan"}, "is_reserved": 0, "fusion_lon": 0.0, "fusion_lat": 0.0, "lon": -76.9257625, "name": "d8876eea27d5fe76c6b477f4925b3931"}, {"bike_id": "04560a9c908e9d5b869ceeea31217412", "type": "electric_scooter", "is_disabled": 0, "lat": 38.90913033333333, "rental_uris": {"ios": "https://dc.lft.to/lastmile_qr_scan", "android": "https://dc.lft.to/lastmile_qr_scan"}, "is_reserved": 0, "fusion_lon": 0.0, "fusion_lat": 0.0, "lon": -76.984227, "name": "04560a9c908e9d5b869ceeea31217412"}, {"bike_id": "98fb5831c55055cc1d9b71c55d4d5b93", "type": "electric_scooter", "is_disabled": 0, "lat": 38.924800166666664, "rental_uris": {"ios": "https://dc.lft.to/lastmile_qr_scan", "android": "https://dc.lft.to/lastmile_qr_scan"}, "is_reserved": 0, "fusion_lon": 0.0, "fusion_lat": 0.0, "lon": -77.05757533333333, "name": "98fb5831c55055cc1d9b71c55d4d5b93"}, {"bike_id": "08f30aad54f6158a73a0dc80cd00ea0f", "type": "electric_scooter", "is_disabled": 0, "lat": 38.91472816666667, "rental_uris": {"ios": "https://dc.lft.to/lastmile_qr_scan", "android": "https://dc.lft.to/lastmile_qr_scan"}, "is_reserved": 0, "fusion_lon": 0.0, "fusion_lat": 0.0, "lon": -77.0321495, "name": "08f30aad54f6158a73a0dc80cd00ea0f"}, {"bike_id": "83f54d0f83e51ea64d5eccab7082d979", "type": "electric_scooter", "is_disabled": 0, "lat": 38.915896333333336, "rental_uris": {"ios": "https://dc.lft.to/lastmile_qr_scan", "android": "https://dc.lft.to/lastmile_qr_scan"}, "is_reserved": 0, "fusion_lon": 0.0, "fusion_lat": 0.0, "lon": -77.04524433333333, "name": "83f54d0f83e51ea64d5eccab7082d979"}, {"bike_id": "8f4a30ea7e2835728da8a28d7fbdb42e", "type": "electric_scooter", "is_disabled": 0, "lat": 38.911191333333335, "rental_uris": {"ios": "https://dc.lft.to/lastmile_qr_scan", "android": "https://dc.lft.to/lastmile_qr_scan"}, "is_reserved": 0, "fusion_lon": 0.0, "fusion_lat": 0.0, "lon": -77.04478266666666, "name": "8f4a30ea7e2835728da8a28d7fbdb42e"}, {"bike_id": "0c7d39b2d2d47e9e03729b26947e38dc", "type": "electric_scooter", "is_disabled": 0, "lat": 38.93672133333333, "rental_uris": {"ios": "https://dc.lft.to/lastmile_qr_scan", "android": "https://dc.lft.to/lastmile_qr_scan"}, "is_reserved": 0, "fusion_lon": 0.0, "fusion_lat": 0.0, "lon": -77.03564283333333, "name": "0c7d39b2d2d47e9e03729b26947e38dc"}, {"bike_id": "e12d4e48a4cf2fd77180afb9a6dd5ea9", "type": "electric_scooter", "is_disabled": 0, "lat": 38.8624745, "rental_uris": {"ios": "https://dc.lft.to/lastmile_qr_scan", "android": "https://dc.lft.to/lastmile_qr_scan"}, "is_reserved": 0, "fusion_lon": 0.0, "fusion_lat": 0.0, "lon": -76.995032, "name": "e12d4e48a4cf2fd77180afb9a6dd5ea9"}, {"bike_id": "99f3aa9a9654e8c62ba34e131e54a244", "type": "electric_scooter", "is_disabled": 0, "lat": 38.864691, "rental_uris": {"ios": "https://dc.lft.to/lastmile_qr_scan", "android": "https://dc.lft.to/lastmile_qr_scan"}, "is_reserved": 0, "fusion_lon": 0.0, "fusion_lat": 0.0, "lon": -76.9823495, "name": "99f3aa9a9654e8c62ba34e131e54a244"}, {"bike_id": "465eb6a8e26d1ea575d62145b909d01a", "type": "electric_scooter", "is_disabled": 0, "lat": 38.962058999999996, "rental_uris": {"ios": "https://dc.lft.to/lastmile_qr_scan", "android": "https://dc.lft.to/lastmile_qr_scan"}, "is_reserved": 0, "fusion_lon": 0.0, "fusion_lat": 0.0, "lon": -77.02235616666667, "name": "465eb6a8e26d1ea575d62145b909d01a"}, {"bike_id": "bb9503d0e2a9a2f5bb5a9742733463d2", "type": "electric_scooter", "is_disabled": 0, "lat": 38.89294233333333, "rental_uris": {"ios": "https://dc.lft.to/lastmile_qr_scan", "android": "https://dc.lft.to/lastmile_qr_scan"}, "is_reserved": 0, "fusion_lon": 0.0, "fusion_lat": 0.0, "lon": -77.01223683333333, "name": "bb9503d0e2a9a2f5bb5a9742733463d2"}, {"bike_id": "6bcbe93085991afd025f537d23ecdfa4", "type": "electric_scooter", "is_disabled": 0, "lat": 38.904087, "rental_uris": {"ios": "https://dc.lft.to/lastmile_qr_scan", "android": "https://dc.lft.to/lastmile_qr_scan"}, "is_reserved": 0, "fusion_lon": 0.0, "fusion_lat": 0.0, "lon": -77.05485416666667, "name": "6bcbe93085991afd025f537d23ecdfa4"}, {"bike_id": "e32f93114273b72328d90c37b84fb98c", "type": "electric_scooter", "is_disabled": 0, "lat": 38.9274865, "rental_uris": {"ios": "https://dc.lft.to/lastmile_qr_scan", "android": "https://dc.lft.to/lastmile_qr_scan"}, "is_reserved": 0, "fusion_lon": 0.0, "fusion_lat": 0.0, "lon": -77.025378, "name": "e32f93114273b72328d90c37b84fb98c"}, {"bike_id": "00a04ef65829b088bf5f90a78939edec", "type": "electric_bike", "is_disabled": 0, "lat": 38.89612733333333, "rental_uris": {"ios": "https://dc.lft.to/lastmile_qr_scan", "android": "https://dc.lft.to/lastmile_qr_scan"}, "is_reserved": 0, "fusion_lon": 0.0, "fusion_lat": 0.0, "lon": -77.02238316666667, "name": "00a04ef65829b088bf5f90a78939edec"}, {"bike_id": "039c49749aae1a5685cfb81a1f76cfdb", "type": "electric_bike", "is_disabled": 0, "lat": 38.98376733333333, "rental_uris": {"ios": "https://dc.lft.to/lastmile_qr_scan", "android": "https://dc.lft.to/lastmile_qr_scan"}, "is_reserved": 0, "fusion_lon": 0.0, "fusion_lat": 0.0, "lon": -76.9722545, "name": "039c49749aae1a5685cfb81a1f76cfdb"}, {"bike_id": "2141ffcd7b8404ccb5952a895cad8aff", "type": "electric_bike", "is_disabled": 0, "lat": 38.925712, "rental_uris": {"ios": "https://dc.lft.to/lastmile_qr_scan", "android": "https://dc.lft.to/lastmile_qr_scan"}, "is_reserved": 0, "fusion_lon": 0.0, "fusion_lat": 0.0, "lon": -77.07922666666667, "name": "2141ffcd7b8404ccb5952a895cad8aff"}, {"bike_id": "e4c8b0162994ef3c665d5e5d601204a7", "type": "electric_scooter", "is_disabled": 0, "lat": 38.905063166666665, "rental_uris": {"ios": "https://dc.lft.to/lastmile_qr_scan", "android": "https://dc.lft.to/lastmile_qr_scan"}, "is_reserved": 0, "fusion_lon": 0.0, "fusion_lat": 0.0, "lon": -77.02965366666666, "name": "e4c8b0162994ef3c665d5e5d601204a7"}, {"bike_id": "03a2d1941752915c22af247010386e72", "type": "electric_scooter", "is_disabled": 0, "lat": 38.944502166666666, "rental_uris": {"ios": "https://dc.lft.to/lastmile_qr_scan", "android": "https://dc.lft.to/lastmile_qr_scan"}, "is_reserved": 0, "fusion_lon": 0.0, "fusion_lat": 0.0, "lon": -77.028019, "name": "03a2d1941752915c22af247010386e72"}, {"bike_id": "3370569ed52f1a4a08f2122fd8b1f111", "type": "electric_scooter", "is_disabled": 0, "lat": 38.91371916666667, "rental_uris": {"ios": "https://dc.lft.to/lastmile_qr_scan", "android": "https://dc.lft.to/lastmile_qr_scan"}, "is_reserved": 0, "fusion_lon": 0.0, "fusion_lat": 0.0, "lon": -77.07268816666667, "name": "3370569ed52f1a4a08f2122fd8b1f111"}, {"bike_id": "e87a509cc56691cbc5f8e064f4e49c59", "type": "electric_scooter", "is_disabled": 0, "lat": 38.91918283333333, "rental_uris": {"ios": "https://dc.lft.to/lastmile_qr_scan", "android": "https://dc.lft.to/lastmile_qr_scan"}, "is_reserved": 0, "fusion_lon": 0.0, "fusion_lat": 0.0, "lon": -77.0140825, "name": "e87a509cc56691cbc5f8e064f4e49c59"}, {"bike_id": "bd2176b304a156cb4f7ec06442995a47", "type": "electric_bike", "is_disabled": 0, "lat": 38.91016716666667, "rental_uris": {"ios": "https://dc.lft.to/lastmile_qr_scan", "android": "https://dc.lft.to/lastmile_qr_scan"}, "is_reserved": 0, "fusion_lon": 0.0, "fusion_lat": 0.0, "lon": -77.228052, "name": "bd2176b304a156cb4f7ec06442995a47"}, {"bike_id": "fde2981a3a4d5f3d01cd069efb839081", "type": "electric_scooter", "is_disabled": 0, "lat": 38.92152016666667, "rental_uris": {"ios": "https://dc.lft.to/lastmile_qr_scan", "android": "https://dc.lft.to/lastmile_qr_scan"}, "is_reserved": 0, "fusion_lon": 0.0, "fusion_lat": 0.0, "lon": -77.03534566666667, "name": "fde2981a3a4d5f3d01cd069efb839081"}, {"bike_id": "4b27f7daea2ec2efa371c902cb407943", "type": "electric_scooter", "is_disabled": 0, "lat": 38.914082666666665, "rental_uris": {"ios": "https://dc.lft.to/lastmile_qr_scan", "android": "https://dc.lft.to/lastmile_qr_scan"}, "is_reserved": 0, "fusion_lon": 0.0, "fusion_lat": 0.0, "lon": -77.01561466666666, "name": "4b27f7daea2ec2efa371c902cb407943"}, {"bike_id": "39e578f5a5b8327129285cea7806d258", "type": "electric_scooter", "is_disabled": 0, "lat": 38.90693516666666, "rental_uris": {"ios": "https://dc.lft.to/lastmile_qr_scan", "android": "https://dc.lft.to/lastmile_qr_scan"}, "is_reserved": 0, "fusion_lon": 0.0, "fusion_lat": 0.0, "lon": -77.03592216666667, "name": "39e578f5a5b8327129285cea7806d258"}, {"bike_id": "e2318fe607153f1aa375be5939a1f819", "type": "electric_scooter", "is_disabled": 0, "lat": 38.899142166666664, "rental_uris": {"ios": "https://dc.lft.to/lastmile_qr_scan", "android": "https://dc.lft.to/lastmile_qr_scan"}, "is_reserved": 0, "fusion_lon": 0.0, "fusion_lat": 0.0, "lon": -76.933724, "name": "e2318fe607153f1aa375be5939a1f819"}, {"bike_id": "c5a58c59b9863fe962b485b2f0367c9e", "type": "electric_scooter", "is_disabled": 0, "lat": 38.93674866666667, "rental_uris": {"ios": "https://dc.lft.to/lastmile_qr_scan", "android": "https://dc.lft.to/lastmile_qr_scan"}, "is_reserved": 0, "fusion_lon": 0.0, "fusion_lat": 0.0, "lon": -77.03625883333333, "name": "c5a58c59b9863fe962b485b2f0367c9e"}, {"bike_id": "8fb06157cbc04c9d9bd6566043cad4f3", "type": "electric_scooter", "is_disabled": 0, "lat": 38.9166, "rental_uris": {"ios": "https://dc.lft.to/lastmile_qr_scan", "android": "https://dc.lft.to/lastmile_qr_scan"}, "is_reserved": 0, "fusion_lon": 0.0, "fusion_lat": 0.0, "lon": -77.03202583333334, "name": "8fb06157cbc04c9d9bd6566043cad4f3"}, {"bike_id": "7253b0ce35060f852698e5f6ea9fa3ce", "type": "electric_scooter", "is_disabled": 0, "lat": 38.916112166666665, "rental_uris": {"ios": "https://dc.lft.to/lastmile_qr_scan", "android": "https://dc.lft.to/lastmile_qr_scan"}, "is_reserved": 0, "fusion_lon": 0.0, "fusion_lat": 0.0, "lon": -77.04860816666667, "name": "7253b0ce35060f852698e5f6ea9fa3ce"}, {"bike_id": "bbd4e95c1a2bf17dc77e586a44f99f45", "type": "electric_scooter", "is_disabled": 0, "lat": 38.86976466666667, "rental_uris": {"ios": "https://dc.lft.to/lastmile_qr_scan", "android": "https://dc.lft.to/lastmile_qr_scan"}, "is_reserved": 0, "fusion_lon": 0.0, "fusion_lat": 0.0, "lon": -76.98173666666666, "name": "bbd4e95c1a2bf17dc77e586a44f99f45"}, {"bike_id": "cf80598a9bea838d9f3eb3b09b750830", "type": "electric_bike", "is_disabled": 0, "lat": 38.872755833333336, "rental_uris": {"ios": "https://dc.lft.to/lastmile_qr_scan", "android": "https://dc.lft.to/lastmile_qr_scan"}, "is_reserved": 0, "fusion_lon": 0.0, "fusion_lat": 0.0, "lon": -77.23320683333333, "name": "cf80598a9bea838d9f3eb3b09b750830"}, {"bike_id": "81da1fb1e9572bdd755a9544047b99b2", "type": "electric_scooter", "is_disabled": 0, "lat": 38.92851366666667, "rental_uris": {"ios": "https://dc.lft.to/lastmile_qr_scan", "android": "https://dc.lft.to/lastmile_qr_scan"}, "is_reserved": 0, "fusion_lon": 0.0, "fusion_lat": 0.0, "lon": -77.01948633333333, "name": "81da1fb1e9572bdd755a9544047b99b2"}, {"bike_id": "81548489d38736f72c4246adde5179ca", "type": "electric_scooter", "is_disabled": 0, "lat": 38.94789316666667, "rental_uris": {"ios": "https://dc.lft.to/lastmile_qr_scan", "android": "https://dc.lft.to/lastmile_qr_scan"}, "is_reserved": 0, "fusion_lon": 0.0, "fusion_lat": 0.0, "lon": -77.02136516666667, "name": "81548489d38736f72c4246adde5179ca"}, {"bike_id": "daa5ec2f5b9ad8c6ef674f546970ddc1", "type": "electric_scooter", "is_disabled": 0, "lat": 38.925987, "rental_uris": {"ios": "https://dc.lft.to/lastmile_qr_scan", "android": "https://dc.lft.to/lastmile_qr_scan"}, "is_reserved": 0, "fusion_lon": 0.0, "fusion_lat": 0.0, "lon": -77.024959, "name": "daa5ec2f5b9ad8c6ef674f546970ddc1"}, {"bike_id": "4858441cc3be91def7352e7741024d0a", "type": "electric_bike", "is_disabled": 0, "lat": 38.87938233333333, "rental_uris": {"ios": "https://dc.lft.to/lastmile_qr_scan", "android": "https://dc.lft.to/lastmile_qr_scan"}, "is_reserved": 0, "fusion_lon": 0.0, "fusion_lat": 0.0, "lon": -76.98084233333333, "name": "4858441cc3be91def7352e7741024d0a"}, {"bike_id": "1c276a7cbb29f644ed3ca1cfe91c5ff0", "type": "electric_scooter", "is_disabled": 0, "lat": 38.902375166666666, "rental_uris": {"ios": "https://dc.lft.to/lastmile_qr_scan", "android": "https://dc.lft.to/lastmile_qr_scan"}, "is_reserved": 0, "fusion_lon": 0.0, "fusion_lat": 0.0, "lon": -77.04345083333334, "name": "1c276a7cbb29f644ed3ca1cfe91c5ff0"}, {"bike_id": "4dc53ddc3da0ab5eee6a85803b76cc84", "type": "electric_scooter", "is_disabled": 0, "lat": 38.924563, "rental_uris": {"ios": "https://dc.lft.to/lastmile_qr_scan", "android": "https://dc.lft.to/lastmile_qr_scan"}, "is_reserved": 0, "fusion_lon": 0.0, "fusion_lat": 0.0, "lon": -77.03351766666667, "name": "4dc53ddc3da0ab5eee6a85803b76cc84"}, {"bike_id": "e0e63c003045087fb9770190ea10b4f4", "type": "electric_scooter", "is_disabled": 0, "lat": 38.90558216666667, "rental_uris": {"ios": "https://dc.lft.to/lastmile_qr_scan", "android": "https://dc.lft.to/lastmile_qr_scan"}, "is_reserved": 0, "fusion_lon": 0.0, "fusion_lat": 0.0, "lon": -77.03821133333334, "name": "e0e63c003045087fb9770190ea10b4f4"}, {"bike_id": "c17bbfcac0fd5bcbfb5dae4d2cb83359", "type": "electric_bike", "is_disabled": 0, "lat": 38.88059583333333, "rental_uris": {"ios": "https://dc.lft.to/lastmile_qr_scan", "android": "https://dc.lft.to/lastmile_qr_scan"}, "is_reserved": 0, "fusion_lon": 0.0, "fusion_lat": 0.0, "lon": -76.96244833333333, "name": "c17bbfcac0fd5bcbfb5dae4d2cb83359"}, {"bike_id": "f8fbdd880570cc4daff7508171ad22e4", "type": "electric_scooter", "is_disabled": 0, "lat": 38.90814566666667, "rental_uris": {"ios": "https://dc.lft.to/lastmile_qr_scan", "android": "https://dc.lft.to/lastmile_qr_scan"}, "is_reserved": 0, "fusion_lon": 0.0, "fusion_lat": 0.0, "lon": -77.06376816666666, "name": "f8fbdd880570cc4daff7508171ad22e4"}, {"bike_id": "53678ce4b0b5b9e2a7850f2395678094", "type": "electric_scooter", "is_disabled": 0, "lat": 38.9084965, "rental_uris": {"ios": "https://dc.lft.to/lastmile_qr_scan", "android": "https://dc.lft.to/lastmile_qr_scan"}, "is_reserved": 0, "fusion_lon": 0.0, "fusion_lat": 0.0, "lon": -76.99796333333333, "name": "53678ce4b0b5b9e2a7850f2395678094"}, {"bike_id": "922bba66b0f624331fc491646b3ce820", "type": "electric_scooter", "is_disabled": 0, "lat": 38.92371766666667, "rental_uris": {"ios": "https://dc.lft.to/lastmile_qr_scan", "android": "https://dc.lft.to/lastmile_qr_scan"}, "is_reserved": 0, "fusion_lon": 0.0, "fusion_lat": 0.0, "lon": -77.0412315, "name": "922bba66b0f624331fc491646b3ce820"}, {"bike_id": "9686f6dda05afd914187e4c605c2134c", "type": "electric_scooter", "is_disabled": 0, "lat": 38.917374, "rental_uris": {"ios": "https://dc.lft.to/lastmile_qr_scan", "android": "https://dc.lft.to/lastmile_qr_scan"}, "is_reserved": 0, "fusion_lon": 0.0, "fusion_lat": 0.0, "lon": -77.02284633333333, "name": "9686f6dda05afd914187e4c605c2134c"}, {"bike_id": "fe3164fe4adf0911dad4255554243fb6", "type": "electric_scooter", "is_disabled": 0, "lat": 38.918493833333336, "rental_uris": {"ios": "https://dc.lft.to/lastmile_qr_scan", "android": "https://dc.lft.to/lastmile_qr_scan"}, "is_reserved": 0, "fusion_lon": 0.0, "fusion_lat": 0.0, "lon": -77.0388415, "name": "fe3164fe4adf0911dad4255554243fb6"}, {"bike_id": "4225eab76abf1607ee65f519a00e5126", "type": "electric_scooter", "is_disabled": 0, "lat": 38.91332833333333, "rental_uris": {"ios": "https://dc.lft.to/lastmile_qr_scan", "android": "https://dc.lft.to/lastmile_qr_scan"}, "is_reserved": 0, "fusion_lon": 0.0, "fusion_lat": 0.0, "lon": -77.04574133333334, "name": "4225eab76abf1607ee65f519a00e5126"}, {"bike_id": "2e7dfa4d6ba0cf5e846e83d269e10ddb", "type": "electric_scooter", "is_disabled": 0, "lat": 38.90037483333333, "rental_uris": {"ios": "https://dc.lft.to/lastmile_qr_scan", "android": "https://dc.lft.to/lastmile_qr_scan"}, "is_reserved": 0, "fusion_lon": 0.0, "fusion_lat": 0.0, "lon": -77.01313583333334, "name": "2e7dfa4d6ba0cf5e846e83d269e10ddb"}, {"bike_id": "0b525d3abbffa3ad439db4156aacaed5", "type": "electric_scooter", "is_disabled": 0, "lat": 38.903829333333334, "rental_uris": {"ios": "https://dc.lft.to/lastmile_qr_scan", "android": "https://dc.lft.to/lastmile_qr_scan"}, "is_reserved": 0, "fusion_lon": 0.0, "fusion_lat": 0.0, "lon": -77.04201516666667, "name": "0b525d3abbffa3ad439db4156aacaed5"}, {"bike_id": "16e60298afd40156af3742f8669c2c95", "type": "electric_scooter", "is_disabled": 0, "lat": 38.9062195, "rental_uris": {"ios": "https://dc.lft.to/lastmile_qr_scan", "android": "https://dc.lft.to/lastmile_qr_scan"}, "is_reserved": 0, "fusion_lon": 0.0, "fusion_lat": 0.0, "lon": -77.0555735, "name": "16e60298afd40156af3742f8669c2c95"}, {"bike_id": "83c68f8a369466a3ceaca567de71e9f4", "type": "electric_scooter", "is_disabled": 0, "lat": 38.903947, "rental_uris": {"ios": "https://dc.lft.to/lastmile_qr_scan", "android": "https://dc.lft.to/lastmile_qr_scan"}, "is_reserved": 0, "fusion_lon": 0.0, "fusion_lat": 0.0, "lon": -77.06516433333333, "name": "83c68f8a369466a3ceaca567de71e9f4"}, {"bike_id": "cc5b9dbbf46d3ef66231541436dac7de", "type": "electric_scooter", "is_disabled": 0, "lat": 38.90835216666667, "rental_uris": {"ios": "https://dc.lft.to/lastmile_qr_scan", "android": "https://dc.lft.to/lastmile_qr_scan"}, "is_reserved": 0, "fusion_lon": 0.0, "fusion_lat": 0.0, "lon": -77.00070166666667, "name": "cc5b9dbbf46d3ef66231541436dac7de"}, {"bike_id": "97b17407c9d2d0811482fba61d6fccea", "type": "electric_scooter", "is_disabled": 0, "lat": 38.942957166666666, "rental_uris": {"ios": "https://dc.lft.to/lastmile_qr_scan", "android": "https://dc.lft.to/lastmile_qr_scan"}, "is_reserved": 0, "fusion_lon": 0.0, "fusion_lat": 0.0, "lon": -77.00488116666666, "name": "97b17407c9d2d0811482fba61d6fccea"}, {"bike_id": "afb687c9c18895047804b9f732ff0c91", "type": "electric_bike", "is_disabled": 0, "lat": 38.8132745, "rental_uris": {"ios": "https://dc.lft.to/lastmile_qr_scan", "android": "https://dc.lft.to/lastmile_qr_scan"}, "is_reserved": 0, "fusion_lon": 0.0, "fusion_lat": 0.0, "lon": -77.050899, "name": "afb687c9c18895047804b9f732ff0c91"}, {"bike_id": "be02e8afaaa53e93f99c199aab46a592", "type": "electric_scooter", "is_disabled": 0, "lat": 38.91008816666667, "rental_uris": {"ios": "https://dc.lft.to/lastmile_qr_scan", "android": "https://dc.lft.to/lastmile_qr_scan"}, "is_reserved": 0, "fusion_lon": 0.0, "fusion_lat": 0.0, "lon": -77.05283383333334, "name": "be02e8afaaa53e93f99c199aab46a592"}, {"bike_id": "7eee8fb4ad5bc8100fc32765d2c6a1eb", "type": "electric_scooter", "is_disabled": 0, "lat": 38.916030666666664, "rental_uris": {"ios": "https://dc.lft.to/lastmile_qr_scan", "android": "https://dc.lft.to/lastmile_qr_scan"}, "is_reserved": 0, "fusion_lon": 0.0, "fusion_lat": 0.0, "lon": -77.01540316666667, "name": "7eee8fb4ad5bc8100fc32765d2c6a1eb"}, {"bike_id": "f575209b96f55c8617a7a0d9023f0d35", "type": "electric_scooter", "is_disabled": 0, "lat": 38.87344816666667, "rental_uris": {"ios": "https://dc.lft.to/lastmile_qr_scan", "android": "https://dc.lft.to/lastmile_qr_scan"}, "is_reserved": 0, "fusion_lon": 0.0, "fusion_lat": 0.0, "lon": -77.00058816666666, "name": "f575209b96f55c8617a7a0d9023f0d35"}, {"bike_id": "1c6688dbdf6a44008e304c2062b53fa8", "type": "electric_scooter", "is_disabled": 0, "lat": 38.893215833333336, "rental_uris": {"ios": "https://dc.lft.to/lastmile_qr_scan", "android": "https://dc.lft.to/lastmile_qr_scan"}, "is_reserved": 0, "fusion_lon": 0.0, "fusion_lat": 0.0, "lon": -77.04877233333333, "name": "1c6688dbdf6a44008e304c2062b53fa8"}, {"bike_id": "05df0780405631aefa6a353c6ccc30fb", "type": "electric_scooter", "is_disabled": 0, "lat": 38.9319395, "rental_uris": {"ios": "https://dc.lft.to/lastmile_qr_scan", "android": "https://dc.lft.to/lastmile_qr_scan"}, "is_reserved": 0, "fusion_lon": 0.0, "fusion_lat": 0.0, "lon": -77.02016283333333, "name": "05df0780405631aefa6a353c6ccc30fb"}, {"bike_id": "f6795d33d0e696ffaa87a926408cde2a", "type": "electric_scooter", "is_disabled": 0, "lat": 38.893448166666666, "rental_uris": {"ios": "https://dc.lft.to/lastmile_qr_scan", "android": "https://dc.lft.to/lastmile_qr_scan"}, "is_reserved": 0, "fusion_lon": 0.0, "fusion_lat": 0.0, "lon": -76.98084583333333, "name": "f6795d33d0e696ffaa87a926408cde2a"}, {"bike_id": "616f393b81691f394c1220a5e153e4e5", "type": "electric_scooter", "is_disabled": 0, "lat": 38.868894166666664, "rental_uris": {"ios": "https://dc.lft.to/lastmile_qr_scan", "android": "https://dc.lft.to/lastmile_qr_scan"}, "is_reserved": 0, "fusion_lon": 0.0, "fusion_lat": 0.0, "lon": -76.98445216666667, "name": "616f393b81691f394c1220a5e153e4e5"}, {"bike_id": "efe4e2d0a1a003eaba0fb8984be3d3fc", "type": "electric_scooter", "is_disabled": 0, "lat": 38.96552033333333, "rental_uris": {"ios": "https://dc.lft.to/lastmile_qr_scan", "android": "https://dc.lft.to/lastmile_qr_scan"}, "is_reserved": 0, "fusion_lon": 0.0, "fusion_lat": 0.0, "lon": -77.03631533333333, "name": "efe4e2d0a1a003eaba0fb8984be3d3fc"}, {"bike_id": "307626f1e4083c552533e76b8c0c533b", "type": "electric_scooter", "is_disabled": 0, "lat": 38.906915166666664, "rental_uris": {"ios": "https://dc.lft.to/lastmile_qr_scan", "android": "https://dc.lft.to/lastmile_qr_scan"}, "is_reserved": 0, "fusion_lon": 0.0, "fusion_lat": 0.0, "lon": -77.06513866666667, "name": "307626f1e4083c552533e76b8c0c533b"}, {"bike_id": "5195c65928163d73934e3394c9e87c8a", "type": "electric_bike", "is_disabled": 0, "lat": 38.83809183333334, "rental_uris": {"ios": "https://dc.lft.to/lastmile_qr_scan", "android": "https://dc.lft.to/lastmile_qr_scan"}, "is_reserved": 0, "fusion_lon": 0.0, "fusion_lat": 0.0, "lon": -77.09522333333334, "name": "5195c65928163d73934e3394c9e87c8a"}, {"bike_id": "48e468e427f046bf22d7f1d93df479e1", "type": "electric_scooter", "is_disabled": 0, "lat": 38.908671, "rental_uris": {"ios": "https://dc.lft.to/lastmile_qr_scan", "android": "https://dc.lft.to/lastmile_qr_scan"}, "is_reserved": 0, "fusion_lon": 0.0, "fusion_lat": 0.0, "lon": -77.03493566666667, "name": "48e468e427f046bf22d7f1d93df479e1"}, {"bike_id": "70e76bfe65a562db2fb37dd7d2807031", "type": "electric_scooter", "is_disabled": 0, "lat": 38.95529483333333, "rental_uris": {"ios": "https://dc.lft.to/lastmile_qr_scan", "android": "https://dc.lft.to/lastmile_qr_scan"}, "is_reserved": 0, "fusion_lon": 0.0, "fusion_lat": 0.0, "lon": -77.02778933333333, "name": "70e76bfe65a562db2fb37dd7d2807031"}, {"bike_id": "4a6bccae122af74180f3f4c084a2a259", "type": "electric_scooter", "is_disabled": 0, "lat": 38.922431, "rental_uris": {"ios": "https://dc.lft.to/lastmile_qr_scan", "android": "https://dc.lft.to/lastmile_qr_scan"}, "is_reserved": 0, "fusion_lon": 0.0, "fusion_lat": 0.0, "lon": -77.03897116666667, "name": "4a6bccae122af74180f3f4c084a2a259"}, {"bike_id": "926b6171f975d68a2343b571ef456c93", "type": "electric_scooter", "is_disabled": 0, "lat": 38.8668075, "rental_uris": {"ios": "https://dc.lft.to/lastmile_qr_scan", "android": "https://dc.lft.to/lastmile_qr_scan"}, "is_reserved": 0, "fusion_lon": 0.0, "fusion_lat": 0.0, "lon": -76.9858125, "name": "926b6171f975d68a2343b571ef456c93"}, {"bike_id": "5616453542a8d0ac22924f8acf14ca65", "type": "electric_scooter", "is_disabled": 0, "lat": 38.90563866666667, "rental_uris": {"ios": "https://dc.lft.to/lastmile_qr_scan", "android": "https://dc.lft.to/lastmile_qr_scan"}, "is_reserved": 0, "fusion_lon": 0.0, "fusion_lat": 0.0, "lon": -77.02827816666667, "name": "5616453542a8d0ac22924f8acf14ca65"}, {"bike_id": "d484d44bec277eaf7ebe4815b6b75f76", "type": "electric_scooter", "is_disabled": 0, "lat": 38.903020166666664, "rental_uris": {"ios": "https://dc.lft.to/lastmile_qr_scan", "android": "https://dc.lft.to/lastmile_qr_scan"}, "is_reserved": 0, "fusion_lon": 0.0, "fusion_lat": 0.0, "lon": -77.02414466666667, "name": "d484d44bec277eaf7ebe4815b6b75f76"}, {"bike_id": "aef4926d72b201ee4207c432c3143e06", "type": "electric_scooter", "is_disabled": 0, "lat": 38.9093805, "rental_uris": {"ios": "https://dc.lft.to/lastmile_qr_scan", "android": "https://dc.lft.to/lastmile_qr_scan"}, "is_reserved": 0, "fusion_lon": 0.0, "fusion_lat": 0.0, "lon": -77.0089875, "name": "aef4926d72b201ee4207c432c3143e06"}, {"bike_id": "3b89f5207427ff7924a8a337b6a1847a", "type": "electric_scooter", "is_disabled": 0, "lat": 38.916850833333335, "rental_uris": {"ios": "https://dc.lft.to/lastmile_qr_scan", "android": "https://dc.lft.to/lastmile_qr_scan"}, "is_reserved": 0, "fusion_lon": 0.0, "fusion_lat": 0.0, "lon": -77.0227865, "name": "3b89f5207427ff7924a8a337b6a1847a"}, {"bike_id": "16905f0aacf26c6d01fc6fe72fe3ddd3", "type": "electric_scooter", "is_disabled": 0, "lat": 38.873831, "rental_uris": {"ios": "https://dc.lft.to/lastmile_qr_scan", "android": "https://dc.lft.to/lastmile_qr_scan"}, "is_reserved": 0, "fusion_lon": 0.0, "fusion_lat": 0.0, "lon": -77.04335466666667, "name": "16905f0aacf26c6d01fc6fe72fe3ddd3"}, {"bike_id": "cb369a26f6e32ccdf4494218384f675a", "type": "electric_scooter", "is_disabled": 0, "lat": 38.924692666666665, "rental_uris": {"ios": "https://dc.lft.to/lastmile_qr_scan", "android": "https://dc.lft.to/lastmile_qr_scan"}, "is_reserved": 0, "fusion_lon": 0.0, "fusion_lat": 0.0, "lon": -77.05202183333333, "name": "cb369a26f6e32ccdf4494218384f675a"}, {"bike_id": "453f6feccc9788800b700b79993ec730", "type": "electric_scooter", "is_disabled": 0, "lat": 38.910720166666664, "rental_uris": {"ios": "https://dc.lft.to/lastmile_qr_scan", "android": "https://dc.lft.to/lastmile_qr_scan"}, "is_reserved": 0, "fusion_lon": 0.0, "fusion_lat": 0.0, "lon": -77.03848766666667, "name": "453f6feccc9788800b700b79993ec730"}, {"bike_id": "4e9ecf7bf6660ec01275f47869cc30d0", "type": "electric_scooter", "is_disabled": 0, "lat": 38.86205316666667, "rental_uris": {"ios": "https://dc.lft.to/lastmile_qr_scan", "android": "https://dc.lft.to/lastmile_qr_scan"}, "is_reserved": 0, "fusion_lon": 0.0, "fusion_lat": 0.0, "lon": -76.9946565, "name": "4e9ecf7bf6660ec01275f47869cc30d0"}, {"bike_id": "444dfe74d0151e852ab01bdfaf45111d", "type": "electric_scooter", "is_disabled": 0, "lat": 38.926411333333334, "rental_uris": {"ios": "https://dc.lft.to/lastmile_qr_scan", "android": "https://dc.lft.to/lastmile_qr_scan"}, "is_reserved": 0, "fusion_lon": 0.0, "fusion_lat": 0.0, "lon": -77.02163666666667, "name": "444dfe74d0151e852ab01bdfaf45111d"}, {"bike_id": "75caad099e99f1c2cd415d35cb6af405", "type": "electric_scooter", "is_disabled": 0, "lat": 38.91833916666667, "rental_uris": {"ios": "https://dc.lft.to/lastmile_qr_scan", "android": "https://dc.lft.to/lastmile_qr_scan"}, "is_reserved": 0, "fusion_lon": 0.0, "fusion_lat": 0.0, "lon": -77.04557333333334, "name": "75caad099e99f1c2cd415d35cb6af405"}, {"bike_id": "bf99507e4e4fb615a77961137595c5a9", "type": "electric_scooter", "is_disabled": 0, "lat": 38.943533, "rental_uris": {"ios": "https://dc.lft.to/lastmile_qr_scan", "android": "https://dc.lft.to/lastmile_qr_scan"}, "is_reserved": 0, "fusion_lon": 0.0, "fusion_lat": 0.0, "lon": -77.06132733333334, "name": "bf99507e4e4fb615a77961137595c5a9"}, {"bike_id": "be9f2642b0efffd350cd6de683b47040", "type": "electric_scooter", "is_disabled": 0, "lat": 38.927917666666666, "rental_uris": {"ios": "https://dc.lft.to/lastmile_qr_scan", "android": "https://dc.lft.to/lastmile_qr_scan"}, "is_reserved": 0, "fusion_lon": 0.0, "fusion_lat": 0.0, "lon": -77.05257283333333, "name": "be9f2642b0efffd350cd6de683b47040"}, {"bike_id": "46fe94c240abdcd89a9e468692aaef1c", "type": "electric_scooter", "is_disabled": 0, "lat": 38.9110735, "rental_uris": {"ios": "https://dc.lft.to/lastmile_qr_scan", "android": "https://dc.lft.to/lastmile_qr_scan"}, "is_reserved": 0, "fusion_lon": 0.0, "fusion_lat": 0.0, "lon": -77.02446616666667, "name": "46fe94c240abdcd89a9e468692aaef1c"}, {"bike_id": "fac3e648e2be4f36d2a11a63e61cfe96", "type": "electric_scooter", "is_disabled": 0, "lat": 38.866943666666664, "rental_uris": {"ios": "https://dc.lft.to/lastmile_qr_scan", "android": "https://dc.lft.to/lastmile_qr_scan"}, "is_reserved": 0, "fusion_lon": 0.0, "fusion_lat": 0.0, "lon": -76.987123, "name": "fac3e648e2be4f36d2a11a63e61cfe96"}, {"bike_id": "716295a57a765ba4ec5ba2d46f8aa446", "type": "electric_scooter", "is_disabled": 0, "lat": 38.913306, "rental_uris": {"ios": "https://dc.lft.to/lastmile_qr_scan", "android": "https://dc.lft.to/lastmile_qr_scan"}, "is_reserved": 0, "fusion_lon": 0.0, "fusion_lat": 0.0, "lon": -77.03167016666667, "name": "716295a57a765ba4ec5ba2d46f8aa446"}, {"bike_id": "dd48fd783afc886b9929c3042b5003bf", "type": "electric_scooter", "is_disabled": 0, "lat": 38.927733833333335, "rental_uris": {"ios": "https://dc.lft.to/lastmile_qr_scan", "android": "https://dc.lft.to/lastmile_qr_scan"}, "is_reserved": 0, "fusion_lon": 0.0, "fusion_lat": 0.0, "lon": -77.05412083333333, "name": "dd48fd783afc886b9929c3042b5003bf"}, {"bike_id": "1e72da74cd2a795b58c68e6668dba93c", "type": "electric_scooter", "is_disabled": 0, "lat": 38.907319666666666, "rental_uris": {"ios": "https://dc.lft.to/lastmile_qr_scan", "android": "https://dc.lft.to/lastmile_qr_scan"}, "is_reserved": 0, "fusion_lon": 0.0, "fusion_lat": 0.0, "lon": -77.0433185, "name": "1e72da74cd2a795b58c68e6668dba93c"}, {"bike_id": "45947bc5eb26bd1c9c66873560b79b45", "type": "electric_scooter", "is_disabled": 0, "lat": 38.947094166666666, "rental_uris": {"ios": "https://dc.lft.to/lastmile_qr_scan", "android": "https://dc.lft.to/lastmile_qr_scan"}, "is_reserved": 0, "fusion_lon": 0.0, "fusion_lat": 0.0, "lon": -77.0278255, "name": "45947bc5eb26bd1c9c66873560b79b45"}, {"bike_id": "48f825b605514256b6bd4d64d97dcebd", "type": "electric_scooter", "is_disabled": 0, "lat": 38.923610333333336, "rental_uris": {"ios": "https://dc.lft.to/lastmile_qr_scan", "android": "https://dc.lft.to/lastmile_qr_scan"}, "is_reserved": 0, "fusion_lon": 0.0, "fusion_lat": 0.0, "lon": -77.05132, "name": "48f825b605514256b6bd4d64d97dcebd"}, {"bike_id": "b0210fb91bd3b1f271cef992e4ec93fd", "type": "electric_scooter", "is_disabled": 0, "lat": 38.86675666666667, "rental_uris": {"ios": "https://dc.lft.to/lastmile_qr_scan", "android": "https://dc.lft.to/lastmile_qr_scan"}, "is_reserved": 0, "fusion_lon": 0.0, "fusion_lat": 0.0, "lon": -76.985364, "name": "b0210fb91bd3b1f271cef992e4ec93fd"}, {"bike_id": "aa2973591dacaa275bb69f0f9ad4fa82", "type": "electric_scooter", "is_disabled": 0, "lat": 38.93923866666667, "rental_uris": {"ios": "https://dc.lft.to/lastmile_qr_scan", "android": "https://dc.lft.to/lastmile_qr_scan"}, "is_reserved": 0, "fusion_lon": 0.0, "fusion_lat": 0.0, "lon": -77.03679016666666, "name": "aa2973591dacaa275bb69f0f9ad4fa82"}, {"bike_id": "3a616d971c68cd2af2f4f9cdf5b833d3", "type": "electric_scooter", "is_disabled": 0, "lat": 38.907287833333335, "rental_uris": {"ios": "https://dc.lft.to/lastmile_qr_scan", "android": "https://dc.lft.to/lastmile_qr_scan"}, "is_reserved": 0, "fusion_lon": 0.0, "fusion_lat": 0.0, "lon": -77.0097435, "name": "3a616d971c68cd2af2f4f9cdf5b833d3"}, {"bike_id": "97d8c0f4f4bd3596c5cf6f5d0c667646", "type": "electric_scooter", "is_disabled": 0, "lat": 38.9203735, "rental_uris": {"ios": "https://dc.lft.to/lastmile_qr_scan", "android": "https://dc.lft.to/lastmile_qr_scan"}, "is_reserved": 0, "fusion_lon": 0.0, "fusion_lat": 0.0, "lon": -77.03130266666666, "name": "97d8c0f4f4bd3596c5cf6f5d0c667646"}, {"bike_id": "37378d0d2a075adf9e08b30b68da39ec", "type": "electric_scooter", "is_disabled": 0, "lat": 38.89717, "rental_uris": {"ios": "https://dc.lft.to/lastmile_qr_scan", "android": "https://dc.lft.to/lastmile_qr_scan"}, "is_reserved": 0, "fusion_lon": 0.0, "fusion_lat": 0.0, "lon": -77.008985, "name": "37378d0d2a075adf9e08b30b68da39ec"}, {"bike_id": "eeda28fc489bc3a6b3cb2e622a94a2fb", "type": "electric_scooter", "is_disabled": 0, "lat": 38.8826195, "rental_uris": {"ios": "https://dc.lft.to/lastmile_qr_scan", "android": "https://dc.lft.to/lastmile_qr_scan"}, "is_reserved": 0, "fusion_lon": 0.0, "fusion_lat": 0.0, "lon": -76.99506566666666, "name": "eeda28fc489bc3a6b3cb2e622a94a2fb"}, {"bike_id": "06c87448e549cc0189a007f9841f6faa", "type": "electric_scooter", "is_disabled": 0, "lat": 38.907304, "rental_uris": {"ios": "https://dc.lft.to/lastmile_qr_scan", "android": "https://dc.lft.to/lastmile_qr_scan"}, "is_reserved": 0, "fusion_lon": 0.0, "fusion_lat": 0.0, "lon": -77.014859, "name": "06c87448e549cc0189a007f9841f6faa"}, {"bike_id": "dbe8dedd00c85f4b49ebd3bb611057e4", "type": "electric_scooter", "is_disabled": 0, "lat": 38.93185883333334, "rental_uris": {"ios": "https://dc.lft.to/lastmile_qr_scan", "android": "https://dc.lft.to/lastmile_qr_scan"}, "is_reserved": 0, "fusion_lon": 0.0, "fusion_lat": 0.0, "lon": -77.03657383333334, "name": "dbe8dedd00c85f4b49ebd3bb611057e4"}, {"bike_id": "f9178b27952d66325c490118c121ae49", "type": "electric_bike", "is_disabled": 0, "lat": 39.056331, "rental_uris": {"ios": "https://dc.lft.to/lastmile_qr_scan", "android": "https://dc.lft.to/lastmile_qr_scan"}, "is_reserved": 0, "fusion_lon": 0.0, "fusion_lat": 0.0, "lon": -77.1252555, "name": "f9178b27952d66325c490118c121ae49"}, {"bike_id": "7c0d83bdd2981e2d628331608cbe026f", "type": "electric_scooter", "is_disabled": 0, "lat": 38.906659166666664, "rental_uris": {"ios": "https://dc.lft.to/lastmile_qr_scan", "android": "https://dc.lft.to/lastmile_qr_scan"}, "is_reserved": 0, "fusion_lon": 0.0, "fusion_lat": 0.0, "lon": -77.07193616666666, "name": "7c0d83bdd2981e2d628331608cbe026f"}, {"bike_id": "08ce374b161bb3e69033a355f2f88135", "type": "electric_scooter", "is_disabled": 0, "lat": 38.905535, "rental_uris": {"ios": "https://dc.lft.to/lastmile_qr_scan", "android": "https://dc.lft.to/lastmile_qr_scan"}, "is_reserved": 0, "fusion_lon": 0.0, "fusion_lat": 0.0, "lon": -77.005905, "name": "08ce374b161bb3e69033a355f2f88135"},