{"data": {"bikes": [{"type": "electric_scooter", "rental_uris": {"ios": "https://dc.lft.to/lastmile_qr_scan", "android": "https://dc.lft.to/lastmile_qr_scan"}, "lon": -77.00473083333333, "fusion_lon": 0.0, "is_disabled": 0, "lat": 38.91145916666667, "bike_id": "10ed3ebb1cf783a62db6f82153e22da7", "name": "10ed3ebb1cf783a62db6f82153e22da7", "is_reserved": 0, "fusion_lat": 0.0}, {"type": "electric_scooter", "rental_uris": {"ios": "https://dc.lft.to/lastmile_qr_scan", "android": "https://dc.lft.to/lastmile_qr_scan"}, "lon": -77.03179966666667, "fusion_lon": 0.0, "is_disabled": 0, "lat": 38.924865833333335, "bike_id": "1d5bc7d00e79cdc4dc530bf5706d2bda", "name": "1d5bc7d00e79cdc4dc530bf5706d2bda", "is_reserved": 0, "fusion_lat": 0.0}, {"type": "electric_scooter", "rental_uris": {"ios": "https://dc.lft.to/lastmile_qr_scan", "android": "https://dc.lft.to/lastmile_qr_scan"}, "lon": -77.033189, "fusion_lon": 0.0, "is_disabled": 0, "lat": 38.890157333333335, "bike_id": "0ee875bf2074dd1aa7c6a6dcde5e7fb9", "name": "0ee875bf2074dd1aa7c6a6dcde5e7fb9", "is_reserved": 0, "fusion_lat": 0.0}, {"type": "electric_scooter", "rental_uris": {"ios": "https://dc.lft.to/lastmile_qr_scan", "android": "https://dc.lft.to/lastmile_qr_scan"}, "lon": -77.05749116666667, "fusion_lon": 0.0, "is_disabled": 0, "lat": 38.923890666666665, "bike_id": "e68e150d72e379bd56fe287fdf7dbcb2", "name": "e68e150d72e379bd56fe287fdf7dbcb2", "is_reserved": 0, "fusion_lat": 0.0}, {"type": "electric_scooter", "rental_uris": {"ios": "https://dc.lft.to/lastmile_qr_scan", "android": "https://dc.lft.to/lastmile_qr_scan"}, "lon": -77.00610233333333, "fusion_lon": 0.0, "is_disabled": 0, "lat": 38.87178733333333, "bike_id": "0eb777e6f8f59b1bff585ebc9951f856", "name": "0eb777e6f8f59b1bff585ebc9951f856", "is_reserved": 0, "fusion_lat": 0.0}, {"type": "electric_bike", "rental_uris": {"ios": "https://dc.lft.to/lastmile_qr_scan", "android": "https://dc.lft.to/lastmile_qr_scan"}, "lon": -77.0334325, "fusion_lon": 0.0, "is_disabled": 0, "lat": 38.96940166666667, "bike_id": "ebe1be04aa1c7086670c842d72df6cc1", "name": "ebe1be04aa1c7086670c842d72df6cc1", "is_reserved": 0, "fusion_lat": 0.0}, {"type": "electric_scooter", "rental_uris": {"ios": "https://dc.lft.to/lastmile_qr_scan", "android": "https://dc.lft.to/lastmile_qr_scan"}, "lon": -77.00013, "fusion_lon": 0.0, "is_disabled": 0, "lat": 38.900305, "bike_id": "15122e1698e649f63368ac839357ef60", "name": "15122e1698e649f63368ac839357ef60", "is_reserved": 0, "fusion_lat": 0.0}, {"type": "electric_scooter", "rental_uris": {"ios": "https://dc.lft.to/lastmile_qr_scan", "android": "https://dc.lft.to/lastmile_qr_scan"}, "lon": -77.0134535, "fusion_lon": 0.0, "is_disabled": 0, "lat": 38.88663016666667, "bike_id": "eb30c2fdae5f218045c781b71b5085bb", "name": "eb30c2fdae5f218045c781b71b5085bb", "is_reserved": 0, "fusion_lat": 0.0}, {"type": "electric_scooter", "rental_uris": {"ios": "https://dc.lft.to/lastmile_qr_scan", "android": "https://dc.lft.to/lastmile_qr_scan"}, "lon": -77.021722, "fusion_lon": 0.0, "is_disabled": 0, "lat": 38.9429245, "bike_id": "21f4fe875b6da05ee6c83958c57021e5", "name": "21f4fe875b6da05ee6c83958c57021e5", "is_reserved": 0, "fusion_lat": 0.0}, {"type": "electric_scooter", "rental_uris": {"ios": "https://dc.lft.to/lastmile_qr_scan", "android": "https://dc.lft.to/lastmile_qr_scan"}, "lon": -77.043773, "fusion_lon": 0.0, "is_disabled": 0, "lat": 38.902490666666665, "bike_id": "30c368d08f1d8ce66a15cc99caa5c42a", "name": "30c368d08f1d8ce66a15cc99caa5c42a", "is_reserved": 0, "fusion_lat": 0.0}, {"type": "electric_scooter", "rental_uris": {"ios": "https://dc.lft.to/lastmile_qr_scan", "android": "https://dc.lft.to/lastmile_qr_scan"}, "lon": -77.02006466666667, "fusion_lon": 0.0, "is_disabled": 0, "lat": 38.92411366666666, "bike_id": "408746f114eb284c8b6c6b2c523ddf4e", "name": "408746f114eb284c8b6c6b2c523ddf4e", "is_reserved": 0, "fusion_lat": 0.0}, {"type": "electric_scooter", "rental_uris": {"ios": "https://dc.lft.to/lastmile_qr_scan", "android": "https://dc.lft.to/lastmile_qr_scan"}, "lon": -76.9652495, "fusion_lon": 0.0, "is_disabled": 0, "lat": 38.876278, "bike_id": "774de9b2c842fef53eee6c65cd5d2111", "name": "774de9b2c842fef53eee6c65cd5d2111", "is_reserved": 0, "fusion_lat": 0.0}, {"type": "electric_scooter", "rental_uris": {"ios": "https://dc.lft.to/lastmile_qr_scan", "android": "https://dc.lft.to/lastmile_qr_scan"}, "lon": -77.03567433333333, "fusion_lon": 0.0, "is_disabled": 0, "lat": 38.9169515, "bike_id": "2accea0318dc65551a2d4452a1ccac0d", "name": "2accea0318dc65551a2d4452a1ccac0d", "is_reserved": 0, "fusion_lat": 0.0}, {"type": "electric_bike", "rental_uris": {"ios": "https://dc.lft.to/lastmile_qr_scan", "android": "https://dc.lft.to/lastmile_qr_scan"}, "lon": -77.10778616666667, "fusion_lon": 0.0, "is_disabled": 0, "lat": 38.892241, "bike_id": "2f5fa7498ea29cfaea91136dfb0fc5ff", "name": "2f5fa7498ea29cfaea91136dfb0fc5ff", "is_reserved": 0, "fusion_lat": 0.0}, {"type": "electric_bike", "rental_uris": {"ios": "https://dc.lft.to/lastmile_qr_scan", "android": "https://dc.lft.to/lastmile_qr_scan"}, "lon": -77.02620566666667, "fusion_lon": 0.0, "is_disabled": 0, "lat": 38.962308, "bike_id": "d259ce27a1ad4698590b29146c8530ed", "name": "d259ce27a1ad4698590b29146c8530ed", "is_reserved": 0, "fusion_lat": 0.0}, {"type": "electric_scooter", "rental_uris": {"ios": "https://dc.lft.to/lastmile_qr_scan", "android": "https://dc.lft.to/lastmile_qr_scan"}, "lon": -77.03262033333333, "fusion_lon": 0.0, "is_disabled": 0, "lat": 38.93523483333333, "bike_id": "1869d500185bbdc383f94fd6bf335f8e", "name": "1869d500185bbdc383f94fd6bf335f8e", "is_reserved": 0, "fusion_lat": 0.0}, {"type": "electric_scooter", "rental_uris": {"ios": "https://dc.lft.to/lastmile_qr_scan", "android": "https://dc.lft.to/lastmile_qr_scan"}, "lon": -77.0059445, "fusion_lon": 0.0, "is_disabled": 0, "lat": 38.9065275, "bike_id": "133ed68b3a22bbec6ded41d074f99712", "name": "133ed68b3a22bbec6ded41d074f99712", "is_reserved": 0, "fusion_lat": 0.0}, {"type": "electric_scooter", "rental_uris": {"ios": "https://dc.lft.to/lastmile_qr_scan", "android": "https://dc.lft.to/lastmile_qr_scan"}, "lon": -76.93140533333333, "fusion_lon": 0.0, "is_disabled": 0, "lat": 38.8933995, "bike_id": "76c5f2acecd3640e7dbce421410fe3a7", "name": "76c5f2acecd3640e7dbce421410fe3a7", "is_reserved": 0, "fusion_lat": 0.0}, {"type": "electric_scooter", "rental_uris": {"ios": "https://dc.lft.to/lastmile_qr_scan", "android": "https://dc.lft.to/lastmile_qr_scan"}, "lon": -77.0212835, "fusion_lon": 0.0, "is_disabled": 0, "lat": 38.93581283333333, "bike_id": "6d05f0a392ede9e407c281a910f998cd", "name": "6d05f0a392ede9e407c281a910f998cd", "is_reserved": 0, "fusion_lat": 0.0}, {"type": "electric_scooter", "rental_uris": {"ios": "https://dc.lft.to/lastmile_qr_scan", "android": "https://dc.lft.to/lastmile_qr_scan"}, "lon": -77.052406, "fusion_lon": 0.0, "is_disabled": 0, "lat": 38.92467383333333, "bike_id": "dfdceef7d37795b74cbd65fb4be9459f", "name": "dfdceef7d37795b74cbd65fb4be9459f", "is_reserved": 0, "fusion_lat": 0.0}, {"type": "electric_scooter", "rental_uris": {"ios": "https://dc.lft.to/lastmile_qr_scan", "android": "https://dc.lft.to/lastmile_qr_scan"}, "lon": -77.04497516666666, "fusion_lon": 0.0, "is_disabled": 0, "lat": 38.91927833333333, "bike_id": "a37b3ac7a7845bc74b29e20c3e47f7ae", "name": "a37b3ac7a7845bc74b29e20c3e47f7ae", "is_reserved": 0, "fusion_lat": 0.0}, {"type": "electric_scooter", "rental_uris": {"ios": "https://dc.lft.to/lastmile_qr_scan", "android": "https://dc.lft.to/lastmile_qr_scan"}, "lon": -77.02353, "fusion_lon": 0.0, "is_disabled": 0, "lat": 38.93078766666667, "bike_id": "121f9923bed99b78822425223c1d516f", "name": "121f9923bed99b78822425223c1d516f", "is_reserved": 0, "fusion_lat": 0.0}, {"type": "electric_scooter", "rental_uris": {"ios": "https://dc.lft.to/lastmile_qr_scan", "android": "https://dc.lft.to/lastmile_qr_scan"}, "lon": -77.00921583333333, "fusion_lon": 0.0, "is_disabled": 0, "lat": 38.876363833333336, "bike_id": "596e67e977c01665e0ae723766d7b9fc", "name": "596e67e977c01665e0ae723766d7b9fc", "is_reserved": 0, "fusion_lat": 0.0}, {"type": "electric_scooter", "rental_uris": {"ios": "https://dc.lft.to/lastmile_qr_scan", "android": "https://dc.lft.to/lastmile_qr_scan"}, "lon": -76.9995855, "fusion_lon": 0.0, "is_disabled": 0, "lat": 38.90113983333333, "bike_id": "85ad5e6001cf63a939322f6832668d07", "name": "85ad5e6001cf63a939322f6832668d07", "is_reserved": 0, "fusion_lat": 0.0}, {"type": "electric_scooter", "rental_uris": {"ios": "https://dc.lft.to/lastmile_qr_scan", "android": "https://dc.lft.to/lastmile_qr_scan"}, "lon": -76.99858533333334, "fusion_lon": 0.0, "is_disabled": 0, "lat": 38.89999183333333, "bike_id": "2d028183704854c086674f8433d5b8f3", "name": "2d028183704854c086674f8433d5b8f3", "is_reserved": 0, "fusion_lat": 0.0}, {"type": "electric_bike", "rental_uris": {"ios": "https://dc.lft.to/lastmile_qr_scan", "android": "https://dc.lft.to/lastmile_qr_scan"}, "lon": -76.90972316666667, "fusion_lon": 0.0, "is_disabled": 0, "lat": 38.85420333333333, "bike_id": "d1e3ed6cd3c4bdaf7a05db40b6d76158", "name": "d1e3ed6cd3c4bdaf7a05db40b6d76158", "is_reserved": 0, "fusion_lat": 0.0}, {"type": "electric_scooter", "rental_uris": {"ios": "https://dc.lft.to/lastmile_qr_scan", "android": "https://dc.lft.to/lastmile_qr_scan"}, "lon": -77.0512935, "fusion_lon": 0.0, "is_disabled": 0, "lat": 38.923625666666666, "bike_id": "bc97e36e40b4ce1b42319e9d43dbae18", "name": "bc97e36e40b4ce1b42319e9d43dbae18", "is_reserved": 0, "fusion_lat": 0.0}, {"type": "electric_scooter", "rental_uris": {"ios": "https://dc.lft.to/lastmile_qr_scan", "android": "https://dc.lft.to/lastmile_qr_scan"}, "lon": -77.03235333333333, "fusion_lon": 0.0, "is_disabled": 0, "lat": 38.928735833333334, "bike_id": "79f4457cf3505a71d5c3252869fa865e", "name": "79f4457cf3505a71d5c3252869fa865e", "is_reserved": 0, "fusion_lat": 0.0}, {"type": "electric_scooter", "rental_uris": {"ios": "https://dc.lft.to/lastmile_qr_scan", "android": "https://dc.lft.to/lastmile_qr_scan"}, "lon": -76.96529166666667, "fusion_lon": 0.0, "is_disabled": 0, "lat": 38.876287, "bike_id": "ec230bcde270e0f62cb109417d6be4f3", "name": "ec230bcde270e0f62cb109417d6be4f3", "is_reserved": 0, "fusion_lat": 0.0}, {"type": "electric_scooter", "rental_uris": {"ios": "https://dc.lft.to/lastmile_qr_scan", "android": "https://dc.lft.to/lastmile_qr_scan"}, "lon": -77.01116316666666, "fusion_lon": 0.0, "is_disabled": 0, "lat": 38.920280166666664, "bike_id": "df17a8cfe8b36bc4de414aa0fabdc2f2", "name": "df17a8cfe8b36bc4de414aa0fabdc2f2", "is_reserved": 0, "fusion_lat": 0.0}, {"type": "electric_scooter", "rental_uris": {"ios": "https://dc.lft.to/lastmile_qr_scan", "android": "https://dc.lft.to/lastmile_qr_scan"}, "lon": -76.9421145, "fusion_lon": 0.0, "is_disabled": 0, "lat": 38.88418466666667, "bike_id": "eadbcf849a2a3a5186795a7c3eec4f13", "name": "eadbcf849a2a3a5186795a7c3eec4f13", "is_reserved": 0, "fusion_lat": 0.0}, {"type": "electric_scooter", "rental_uris": {"ios": "https://dc.lft.to/lastmile_qr_scan", "android": "https://dc.lft.to/lastmile_qr_scan"}, "lon": -77.03212866666667, "fusion_lon": 0.0, "is_disabled": 0, "lat": 38.909062166666665, "bike_id": "7e0c46a964106d5d361d08694beef8d5", "name": "7e0c46a964106d5d361d08694beef8d5", "is_reserved": 0, "fusion_lat": 0.0}, {"type": "electric_scooter", "rental_uris": {"ios": "https://dc.lft.to/lastmile_qr_scan", "android": "https://dc.lft.to/lastmile_qr_scan"}, "lon": -77.00575933333333, "fusion_lon": 0.0, "is_disabled": 0, "lat": 38.902256, "bike_id": "65242006b31a42eb227d0a77c606bdd3", "name": "65242006b31a42eb227d0a77c606bdd3", "is_reserved": 0, "fusion_lat": 0.0}, {"type": "electric_bike", "rental_uris": {"ios": "https://dc.lft.to/lastmile_qr_scan", "android": "https://dc.lft.to/lastmile_qr_scan"}, "lon": -77.223378, "fusion_lon": 0.0, "is_disabled": 0, "lat": 38.91809116666667, "bike_id": "d2bcf2177f19c8b5ce9cc095dbe9a689", "name": "d2bcf2177f19c8b5ce9cc095dbe9a689", "is_reserved": 0, "fusion_lat": 0.0}, {"type": "electric_scooter", "rental_uris": {"ios": "https://dc.lft.to/lastmile_qr_scan", "android": "https://dc.lft.to/lastmile_qr_scan"}, "lon": -77.03204416666667, "fusion_lon": 0.0, "is_disabled": 0, "lat": 38.91825566666667, "bike_id": "cff0b25a9936757691860603e6bf93ea", "name": "cff0b25a9936757691860603e6bf93ea", "is_reserved": 0, "fusion_lat": 0.0}, {"type": "electric_scooter", "rental_uris": {"ios": "https://dc.lft.to/lastmile_qr_scan", "android": "https://dc.lft.to/lastmile_qr_scan"}, "lon": -77.060104, "fusion_lon": 0.0, "is_disabled": 0, "lat": 38.902288666666664, "bike_id": "9f8cf87fc859a350c53d8ca005824ef6", "name": "9f8cf87fc859a350c53d8ca005824ef6", "is_reserved": 0, "fusion_lat": 0.0}, {"type": "electric_scooter", "rental_uris": {"ios": "https://dc.lft.to/lastmile_qr_scan", "android": "https://dc.lft.to/lastmile_qr_scan"}, "lon": -77.0344835, "fusion_lon": 0.0, "is_disabled": 0, "lat": 38.91875066666667, "bike_id": "aeeb44c8450fdc82862ea48a3dcef24f", "name": "aeeb44c8450fdc82862ea48a3dcef24f", "is_reserved": 0, "fusion_lat": 0.0}, {"type": "electric_scooter", "rental_uris": {"ios": "https://dc.lft.to/lastmile_qr_scan", "android": "https://dc.lft.to/lastmile_qr_scan"}, "lon": -77.00429316666667, "fusion_lon": 0.0, "is_disabled": 0, "lat": 38.87661716666667, "bike_id": "56957c949a9c64b17c934f281797b7f3", "name": "56957c949a9c64b17c934f281797b7f3", "is_reserved": 0, "fusion_lat": 0.0}, {"type": "electric_scooter", "rental_uris": {"ios": "https://dc.lft.to/lastmile_qr_scan", "android": "https://dc.lft.to/lastmile_qr_scan"}, "lon": -77.02182033333334, "fusion_lon": 0.0, "is_disabled": 0, "lat": 38.9139285, "bike_id": "1d917e23c530da824a7d02be1dea6913", "name": "1d917e23c530da824a7d02be1dea6913", "is_reserved": 0, "fusion_lat": 0.0}, {"type": "electric_scooter", "rental_uris": {"ios": "https://dc.lft.to/lastmile_qr_scan", "android": "https://dc.lft.to/lastmile_qr_scan"}, "lon": -77.02026116666667, "fusion_lon": 0.0, "is_disabled": 0, "lat": 38.89769016666666, "bike_id": "617ab8bc6ae98d9048fc0961a7266f2e", "name": "617ab8bc6ae98d9048fc0961a7266f2e", "is_reserved": 0, "fusion_lat": 0.0}, {"type": "electric_scooter", "rental_uris": {"ios": "https://dc.lft.to/lastmile_qr_scan", "android": "https://dc.lft.to/lastmile_qr_scan"}, "lon": -77.02836616666667, "fusion_lon": 0.0, "is_disabled": 0, "lat": 38.93191066666667, "bike_id": "61b6a636194e9b12984968641b7e94f5", "name": "61b6a636194e9b12984968641b7e94f5", "is_reserved": 0, "fusion_lat": 0.0}, {"type": "electric_scooter", "rental_uris": {"ios": "https://dc.lft.to/lastmile_qr_scan", "android": "https://dc.lft.to/lastmile_qr_scan"}, "lon": -77.03075683333333, "fusion_lon": 0.0, "is_disabled": 0, "lat": 38.92248583333333, "bike_id": "24fd48d0d1195251627c8628b64e394d", "name": "24fd48d0d1195251627c8628b64e394d", "is_reserved": 0, "fusion_lat": 0.0}, {"type": "electric_scooter", "rental_uris": {"ios": "https://dc.lft.to/lastmile_qr_scan", "android": "https://dc.lft.to/lastmile_qr_scan"}, "lon": -77.032384, "fusion_lon": 0.0, "is_disabled": 0, "lat": 38.928018, "bike_id": "5f8fe1746b0421a48375a7ef25d4a777", "name": "5f8fe1746b0421a48375a7ef25d4a777", "is_reserved": 0, "fusion_lat": 0.0}, {"type": "electric_scooter", "rental_uris": {"ios": "https://dc.lft.to/lastmile_qr_scan", "android": "https://dc.lft.to/lastmile_qr_scan"}, "lon": -77.03124333333334, "fusion_lon": 0.0, "is_disabled": 0, "lat": 38.9192325, "bike_id": "395f503adb8b6db55a2ca8075f0447fa", "name": "395f503adb8b6db55a2ca8075f0447fa", "is_reserved": 0, "fusion_lat": 0.0}, {"type": "electric_scooter", "rental_uris": {"ios": "https://dc.lft.to/lastmile_qr_scan", "android": "https://dc.lft.to/lastmile_qr_scan"}, "lon": -77.02659666666666, "fusion_lon": 0.0, "is_disabled": 0, "lat": 38.91703233333333, "bike_id": "27a66f19aa33c72abf800882b240acb5", "name": "27a66f19aa33c72abf800882b240acb5", "is_reserved": 0, "fusion_lat": 0.0}, {"type": "electric_scooter", "rental_uris": {"ios": "https://dc.lft.to/lastmile_qr_scan", "android": "https://dc.lft.to/lastmile_qr_scan"}, "lon": -77.08023666666666, "fusion_lon": 0.0, "is_disabled": 0, "lat": 38.90921316666667, "bike_id": "6a1e977196e30a80acfd22d62bdf8621", "name": "6a1e977196e30a80acfd22d62bdf8621", "is_reserved": 0, "fusion_lat": 0.0}, {"type": "electric_bike", "rental_uris": {"ios": "https://dc.lft.to/lastmile_qr_scan", "android": "https://dc.lft.to/lastmile_qr_scan"}, "lon": -77.05040883333334, "fusion_lon": 0.0, "is_disabled": 0, "lat": 38.92410316666667, "bike_id": "26239e53ef99afcd4cc82e438470c8a4", "name": "26239e53ef99afcd4cc82e438470c8a4", "is_reserved": 0, "fusion_lat": 0.0}, {"type": "electric_scooter", "rental_uris": {"ios": "https://dc.lft.to/lastmile_qr_scan", "android": "https://dc.lft.to/lastmile_qr_scan"}, "lon": -77.03772266666667, "fusion_lon": 0.0, "is_disabled": 0, "lat": 38.917039, "bike_id": "14192df0a340bef7b415718bc5720640", "name": "14192df0a340bef7b415718bc5720640", "is_reserved": 0, "fusion_lat": 0.0}, {"type": "electric_scooter", "rental_uris": {"ios": "https://dc.lft.to/lastmile_qr_scan", "android": "https://dc.lft.to/lastmile_qr_scan"}, "lon": -77.04468266666667, "fusion_lon": 0.0, "is_disabled": 0, "lat": 38.919204666666666, "bike_id": "ad36e21d452ab5feae16be39bac4e9ca", "name": "ad36e21d452ab5feae16be39bac4e9ca", "is_reserved": 0, "fusion_lat": 0.0}, {"type": "electric_scooter", "rental_uris": {"ios": "https://dc.lft.to/lastmile_qr_scan", "android": "https://dc.lft.to/lastmile_qr_scan"}, "lon": -76.97662516666666, "fusion_lon": 0.0, "is_disabled": 0, "lat": 38.867473333333336, "bike_id": "3871d45f2451f4c1737f5830fc1f939d", "name": "3871d45f2451f4c1737f5830fc1f939d", "is_reserved": 0, "fusion_lat": 0.0}, {"type": "electric_bike", "rental_uris": {"ios": "https://dc.lft.to/lastmile_qr_scan", "android": "https://dc.lft.to/lastmile_qr_scan"}, "lon": -77.118554, "fusion_lon": 0.0, "is_disabled": 0, "lat": 38.877319666666665, "bike_id": "9798df3b8e4276e48e6e12894fd88e6f", "name": "9798df3b8e4276e48e6e12894fd88e6f", "is_reserved": 0, "fusion_lat": 0.0}, {"type": "electric_scooter", "rental_uris": {"ios": "https://dc.lft.to/lastmile_qr_scan", "android": "https://dc.lft.to/lastmile_qr_scan"}, "lon": -77.01845533333334, "fusion_lon": 0.0, "is_disabled": 0, "lat": 38.94632133333333, "bike_id": "d378161649ac244a6e6ae850ed83e57f", "name": "d378161649ac244a6e6ae850ed83e57f", "is_reserved": 0, "fusion_lat": 0.0}, {"type": "electric_scooter", "rental_uris": {"ios": "https://dc.lft.to/lastmile_qr_scan", "android": "https://dc.lft.to/lastmile_qr_scan"}, "lon": -77.02762183333333, "fusion_lon": 0.0, "is_disabled": 0, "lat": 38.90727316666667, "bike_id": "05b6bb7e20fe34691e5d4dc5df574775", "name": "05b6bb7e20fe34691e5d4dc5df574775", "is_reserved": 0, "fusion_lat": 0.0}, {"type": "electric_scooter", "rental_uris": {"ios": "https://dc.lft.to/lastmile_qr_scan", "android": "https://dc.lft.to/lastmile_qr_scan"}, "lon": -77.03134683333333, "fusion_lon": 0.0, "is_disabled": 0, "lat": 38.892207666666664, "bike_id": "1926d985f50ce55615e20ed7d40164eb", "name": "1926d985f50ce55615e20ed7d40164eb", "is_reserved": 0, "fusion_lat": 0.0}, {"type": "electric_scooter", "rental_uris": {"ios": "https://dc.lft.to/lastmile_qr_scan", "android": "https://dc.lft.to/lastmile_qr_scan"}, "lon": -77.02763566666667, "fusion_lon": 0.0, "is_disabled": 0, "lat": 38.907337166666665, "bike_id": "27e663cea5a20cfa279d31d2d25e35db", "name": "27e663cea5a20cfa279d31d2d25e35db", "is_reserved": 0, "fusion_lat": 0.0}, {"type": "electric_bike", "rental_uris": {"ios": "https://dc.lft.to/lastmile_qr_scan", "android": "https://dc.lft.to/lastmile_qr_scan"}, "lon": -76.93545466666667, "fusion_lon": 0.0, "is_disabled": 0, "lat": 38.951858666666666, "bike_id": "e809f996848190e1ac477cdf536c28a1", "name": "e809f996848190e1ac477cdf536c28a1", "is_reserved": 0, "fusion_lat": 0.0}, {"type": "electric_scooter", "rental_uris": {"ios": "https://dc.lft.to/lastmile_qr_scan", "android": "https://dc.lft.to/lastmile_qr_scan"}, "lon": -77.03884916666667, "fusion_lon": 0.0, "is_disabled": 0, "lat": 38.90652516666667, "bike_id": "b09db0ce35ef8a4ff7a859e81a967d5b", "name": "b09db0ce35ef8a4ff7a859e81a967d5b", "is_reserved": 0, "fusion_lat": 0.0}, {"type": "electric_bike", "rental_uris": {"ios": "https://dc.lft.to/lastmile_qr_scan", "android": "https://dc.lft.to/lastmile_qr_scan"}, "lon": -77.0262215, "fusion_lon": 0.0, "is_disabled": 0, "lat": 38.96931216666667, "bike_id": "c1ed34bfb24919726d351e28092d26d6", "name": "c1ed34bfb24919726d351e28092d26d6", "is_reserved": 0, "fusion_lat": 0.0}, {"type": "electric_scooter", "rental_uris": {"ios": "https://dc.lft.to/lastmile_qr_scan", "android": "https://dc.lft.to/lastmile_qr_scan"}, "lon": -77.03526116666667, "fusion_lon": 0.0, "is_disabled": 0, "lat": 38.91826016666667, "bike_id": "7dd9c48257a78c5e3269985b64b66c13", "name": "7dd9c48257a78c5e3269985b64b66c13", "is_reserved": 0, "fusion_lat": 0.0}, {"type": "electric_scooter", "rental_uris": {"ios": "https://dc.lft.to/lastmile_qr_scan", "android": "https://dc.lft.to/lastmile_qr_scan"}, "lon": -77.04481833333334, "fusion_lon": 0.0, "is_disabled": 0, "lat": 38.915968, "bike_id": "27b5f06b200ce33dc6da2443bcc3729b", "name": "27b5f06b200ce33dc6da2443bcc3729b", "is_reserved": 0, "fusion_lat": 0.0}, {"type": "electric_scooter", "rental_uris": {"ios": "https://dc.lft.to/lastmile_qr_scan", "android": "https://dc.lft.to/lastmile_qr_scan"}, "lon": -76.96530483333333, "fusion_lon": 0.0, "is_disabled": 0, "lat": 38.876299333333336, "bike_id": "474500b9f43cb0706fa58b0725eed98a", "name": "474500b9f43cb0706fa58b0725eed98a", "is_reserved": 0, "fusion_lat": 0.0}, {"type": "electric_scooter", "rental_uris": {"ios": "https://dc.lft.to/lastmile_qr_scan", "android": "https://dc.lft.to/lastmile_qr_scan"}, "lon": -77.02293716666667, "fusion_lon": 0.0, "is_disabled": 0, "lat": 38.91442716666667, "bike_id": "ed20cf7a1b4f3efc5b5614f938009a73", "name": "ed20cf7a1b4f3efc5b5614f938009a73", "is_reserved": 0, "fusion_lat": 0.0}, {"type": "electric_scooter", "rental_uris": {"ios": "https://dc.lft.to/lastmile_qr_scan", "android": "https://dc.lft.to/lastmile_qr_scan"}, "lon": -77.05493016666667, "fusion_lon": 0.0, "is_disabled": 0, "lat": 38.90943883333333, "bike_id": "651c325a402dfb4859f212cabaeff7a7", "name": "651c325a402dfb4859f212cabaeff7a7", "is_reserved": 0, "fusion_lat": 0.0}, {"type": "electric_bike", "rental_uris": {"ios": "https://dc.lft.to/lastmile_qr_scan", "android": "https://dc.lft.to/lastmile_qr_scan"}, "lon": -77.11800333333333, "fusion_lon": 0.0, "is_disabled": 0, "lat": 38.87375983333333, "bike_id": "5abd9eb11f99437f6d932b7be246b1ac", "name": "5abd9eb11f99437f6d932b7be246b1ac", "is_reserved": 0, "fusion_lat": 0.0}, {"type": "electric_scooter", "rental_uris": {"ios": "https://dc.lft.to/lastmile_qr_scan", "android": "https://dc.lft.to/lastmile_qr_scan"}, "lon": -76.965268, "fusion_lon": 0.0, "is_disabled": 0, "lat": 38.876312166666665, "bike_id": "1e5e52121504381ee5bc7a48c785cba6", "name": "1e5e52121504381ee5bc7a48c785cba6", "is_reserved": 0, "fusion_lat": 0.0}, {"type": "electric_bike", "rental_uris": {"ios": "https://dc.lft.to/lastmile_qr_scan", "android": "https://dc.lft.to/lastmile_qr_scan"}, "lon": -77.032747, "fusion_lon": 0.0, "is_disabled": 0, "lat": 38.9301365, "bike_id": "fe851775f7534dc93d69e2971edaca7c", "name": "fe851775f7534dc93d69e2971edaca7c", "is_reserved": 0, "fusion_lat": 0.0}, {"type": "electric_bike", "rental_uris": {"ios": "https://dc.lft.to/lastmile_qr_scan", "android": "https://dc.lft.to/lastmile_qr_scan"}, "lon": -77.04931, "fusion_lon": 0.0, "is_disabled": 0, "lat": 38.81352233333333, "bike_id": "e41cf6f940a6363906c85d3e6a554ec1", "name": "e41cf6f940a6363906c85d3e6a554ec1", "is_reserved": 0, "fusion_lat": 0.0}, {"type": "electric_bike", "rental_uris": {"ios": "https://dc.lft.to/lastmile_qr_scan", "android": "https://dc.lft.to/lastmile_qr_scan"}, "lon": -76.98442433333334, "fusion_lon": 0.0, "is_disabled": 0, "lat": 38.855219166666664, "bike_id": "064b79bbceb244486649a74182ccf8a9", "name": "064b79bbceb244486649a74182ccf8a9", "is_reserved": 0, "fusion_lat": 0.0}, {"type": "electric_scooter", "rental_uris": {"ios": "https://dc.lft.to/lastmile_qr_scan", "android": "https://dc.lft.to/lastmile_qr_scan"}, "lon": -77.02246866666667, "fusion_lon": 0.0, "is_disabled": 0, "lat": 38.920708833333336, "bike_id": "996a709e2490af5401169125b6a82b09", "name": "996a709e2490af5401169125b6a82b09", "is_reserved": 0, "fusion_lat": 0.0}, {"type": "electric_scooter", "rental_uris": {"ios": "https://dc.lft.to/lastmile_qr_scan", "android": "https://dc.lft.to/lastmile_qr_scan"}, "lon": -77.04178766666666, "fusion_lon": 0.0, "is_disabled": 0, "lat": 38.91131433333334, "bike_id": "891439309cea152e6dc10cea2d35db07", "name": "891439309cea152e6dc10cea2d35db07", "is_reserved": 0, "fusion_lat": 0.0}, {"type": "electric_scooter", "rental_uris": {"ios": "https://dc.lft.to/lastmile_qr_scan", "android": "https://dc.lft.to/lastmile_qr_scan"}, "lon": -77.0315735, "fusion_lon": 0.0, "is_disabled": 0, "lat": 38.91552816666667, "bike_id": "bc096aed961803cd2ae3f2b3a92037fe", "name": "bc096aed961803cd2ae3f2b3a92037fe", "is_reserved": 0, "fusion_lat": 0.0}, {"type": "electric_scooter", "rental_uris": {"ios": "https://dc.lft.to/lastmile_qr_scan", "android": "https://dc.lft.to/lastmile_qr_scan"}, "lon": -77.036788, "fusion_lon": 0.0, "is_disabled": 0, "lat": 38.9180515, "bike_id": "cfba4e7d9fbf2c802186608916add22b", "name": "cfba4e7d9fbf2c802186608916add22b", "is_reserved": 0, "fusion_lat": 0.0}, {"type": "electric_scooter", "rental_uris": {"ios": "https://dc.lft.to/lastmile_qr_scan", "android": "https://dc.lft.to/lastmile_qr_scan"}, "lon": -77.03781416666666, "fusion_lon": 0.0, "is_disabled": 0, "lat": 38.93027933333333, "bike_id": "7bbb8d89bcca0cc8b0c66aed0c56de37", "name": "7bbb8d89bcca0cc8b0c66aed0c56de37", "is_reserved": 0, "fusion_lat": 0.0}, {"type": "electric_scooter", "rental_uris": {"ios": "https://dc.lft.to/lastmile_qr_scan", "android": "https://dc.lft.to/lastmile_qr_scan"}, "lon": -77.02762566666667, "fusion_lon": 0.0, "is_disabled": 0, "lat": 38.90729366666667, "bike_id": "0de8898b9d98807160f0a0cc4d886e90", "name": "0de8898b9d98807160f0a0cc4d886e90", "is_reserved": 0, "fusion_lat": 0.0}, {"type": "electric_scooter", "rental_uris": {"ios": "https://dc.lft.to/lastmile_qr_scan", "android": "https://dc.lft.to/lastmile_qr_scan"}, "lon": -76.99745283333333, "fusion_lon": 0.0, "is_disabled": 0, "lat": 38.921863, "bike_id": "acbe6b5e5d77f517d81685136d890364", "name": "acbe6b5e5d77f517d81685136d890364", "is_reserved": 0, "fusion_lat": 0.0}, {"type": "electric_scooter", "rental_uris": {"ios": "https://dc.lft.to/lastmile_qr_scan", "android": "https://dc.lft.to/lastmile_qr_scan"}, "lon": -77.05235316666666, "fusion_lon": 0.0, "is_disabled": 0, "lat": 38.924724499999996, "bike_id": "9b93643b1e92f28b7b8f41c9e1b7a80a", "name": "9b93643b1e92f28b7b8f41c9e1b7a80a", "is_reserved": 0, "fusion_lat": 0.0}, {"type": "electric_scooter", "rental_uris": {"ios": "https://dc.lft.to/lastmile_qr_scan", "android": "https://dc.lft.to/lastmile_qr_scan"}, "lon": -77.06293483333333, "fusion_lon": 0.0, "is_disabled": 0, "lat": 38.90336216666667, "bike_id": "0c86183beec17617a19b3bab0253941b", "name": "0c86183beec17617a19b3bab0253941b", "is_reserved": 0, "fusion_lat": 0.0}, {"type": "electric_scooter", "rental_uris": {"ios": "https://dc.lft.to/lastmile_qr_scan", "android": "https://dc.lft.to/lastmile_qr_scan"}, "lon": -77.057307, "fusion_lon": 0.0, "is_disabled": 0, "lat": 38.93360766666667, "bike_id": "0939c3bc73a2a7adbb4e42ef5f38204f", "name": "0939c3bc73a2a7adbb4e42ef5f38204f", "is_reserved": 0, "fusion_lat": 0.0}, {"type": "electric_scooter", "rental_uris": {"ios": "https://dc.lft.to/lastmile_qr_scan", "android": "https://dc.lft.to/lastmile_qr_scan"}, "lon": -77.05554066666667, "fusion_lon": 0.0, "is_disabled": 0, "lat": 38.934219666666664, "bike_id": "e92cc3442e83f5d6960c9d439697bc97", "name": "e92cc3442e83f5d6960c9d439697bc97", "is_reserved": 0, "fusion_lat": 0.0}, {"type": "electric_scooter", "rental_uris": {"ios": "https://dc.lft.to/lastmile_qr_scan", "android": "https://dc.lft.to/lastmile_qr_scan"}, "lon": -77.04812283333334, "fusion_lon": 0.0, "is_disabled": 0, "lat": 38.91116016666667, "bike_id": "c25fdef1f2da21e61853292b28da8aa6", "name": "c25fdef1f2da21e61853292b28da8aa6", "is_reserved": 0, "fusion_lat": 0.0}, {"type": "electric_scooter", "rental_uris": {"ios": "https://dc.lft.to/lastmile_qr_scan", "android": "https://dc.lft.to/lastmile_qr_scan"}, "lon": -77.00454116666667, "fusion_lon": 0.0, "is_disabled": 0, "lat": 38.91149516666667, "bike_id": "2d89eb37b329365e1fc5986e040a2f59", "name": "2d89eb37b329365e1fc5986e040a2f59", "is_reserved": 0, "fusion_lat": 0.0}, {"type": "electric_scooter", "rental_uris": {"ios": "https://dc.lft.to/lastmile_qr_scan", "android": "https://dc.lft.to/lastmile_qr_scan"}, "lon": -77.0220045, "fusion_lon": 0.0, "is_disabled": 0, "lat": 38.932968833333334, "bike_id": "b3eb78a10731005b4411d15734bfb8d6", "name": "b3eb78a10731005b4411d15734bfb8d6", "is_reserved": 0, "fusion_lat": 0.0}, {"type": "electric_scooter", "rental_uris": {"ios": "https://dc.lft.to/lastmile_qr_scan", "android": "https://dc.lft.to/lastmile_qr_scan"}, "lon": -77.07239083333333, "fusion_lon": 0.0, "is_disabled": 0, "lat": 38.89906383333334, "bike_id": "6be0c5d85062398f959cf9d3c80711c6", "name": "6be0c5d85062398f959cf9d3c80711c6", "is_reserved": 0, "fusion_lat": 0.0}, {"type": "electric_scooter", "rental_uris": {"ios": "https://dc.lft.to/lastmile_qr_scan", "android": "https://dc.lft.to/lastmile_qr_scan"}, "lon": -77.04550733333333, "fusion_lon": 0.0, "is_disabled": 0, "lat": 38.91265666666666, "bike_id": "e52bdb7ffed3ea2ae1937ad02600d013", "name": "e52bdb7ffed3ea2ae1937ad02600d013", "is_reserved": 0, "fusion_lat": 0.0}, {"type": "electric_scooter", "rental_uris": {"ios": "https://dc.lft.to/lastmile_qr_scan", "android": "https://dc.lft.to/lastmile_qr_scan"}, "lon": -77.02537033333333, "fusion_lon": 0.0, "is_disabled": 0, "lat": 38.9237375, "bike_id": "7f0dfe54c509c227fc55327cb4b5cddf", "name": "7f0dfe54c509c227fc55327cb4b5cddf", "is_reserved": 0, "fusion_lat": 0.0}, {"type": "electric_scooter", "rental_uris": {"ios": "https://dc.lft.to/lastmile_qr_scan", "android": "https://dc.lft.to/lastmile_qr_scan"}, "lon": -77.023297, "fusion_lon": 0.0, "is_disabled": 0, "lat": 38.92301616666666, "bike_id": "ea409f7acc84c567ae4d808ad4ae7fb5", "name": "ea409f7acc84c567ae4d808ad4ae7fb5", "is_reserved": 0, "fusion_lat": 0.0}, {"type": "electric_scooter", "rental_uris": {"ios": "https://dc.lft.to/lastmile_qr_scan", "android": "https://dc.lft.to/lastmile_qr_scan"}, "lon": -77.02195683333333, "fusion_lon": 0.0, "is_disabled": 0, "lat": 38.91489833333333, "bike_id": "135afaa11d765cf64ce3995c69cc55b7", "name": "135afaa11d765cf64ce3995c69cc55b7", "is_reserved": 0, "fusion_lat": 0.0}, {"type": "electric_scooter", "rental_uris": {"ios": "https://dc.lft.to/lastmile_qr_scan", "android": "https://dc.lft.to/lastmile_qr_scan"}, "lon": -77.01545283333333, "fusion_lon": 0.0, "is_disabled": 0, "lat": 38.89169316666667, "bike_id": "6fcd62b2ebfeeac5deae24e681ed8e30", "name": "6fcd62b2ebfeeac5deae24e681ed8e30", "is_reserved": 0, "fusion_lat": 0.0}, {"type": "electric_scooter", "rental_uris": {"ios": "https://dc.lft.to/lastmile_qr_scan", "android": "https://dc.lft.to/lastmile_qr_scan"}, "lon": -77.02617283333333, "fusion_lon": 0.0, "is_disabled": 0, "lat": 38.906213666666666, "bike_id": "771727222c74eaceaaf77327356f1f57", "name": "771727222c74eaceaaf77327356f1f57", "is_reserved": 0, "fusion_lat": 0.0}, {"type": "electric_scooter", "rental_uris": {"ios": "https://dc.lft.to/lastmile_qr_scan", "android": "https://dc.lft.to/lastmile_qr_scan"}, "lon": -77.04848166666666, "fusion_lon": 0.0, "is_disabled": 0, "lat": 38.91184966666667, "bike_id": "f6e151e72677bbf4cc8e83115656ca0d", "name": "f6e151e72677bbf4cc8e83115656ca0d", "is_reserved": 0, "fusion_lat": 0.0}, {"type": "electric_scooter", "rental_uris": {"ios": "https://dc.lft.to/lastmile_qr_scan", "android": "https://dc.lft.to/lastmile_qr_scan"}, "lon": -77.03448816666666, "fusion_lon": 0.0, "is_disabled": 0, "lat": 38.92542183333333, "bike_id": "47ade20206628d0daf5c880bd966d479", "name": "47ade20206628d0daf5c880bd966d479", "is_reserved": 0, "fusion_lat": 0.0}, {"type": "electric_scooter", "rental_uris": {"ios": "https://dc.lft.to/lastmile_qr_scan", "android": "https://dc.lft.to/lastmile_qr_scan"}, "lon": -77.04416116666667, "fusion_lon": 0.0, "is_disabled": 0, "lat": 38.913617, "bike_id": "e4e6540ecf45e1e1a818d1e5dabba459", "name": "e4e6540ecf45e1e1a818d1e5dabba459", "is_reserved": 0, "fusion_lat": 0.0}, {"type": "electric_bike", "rental_uris": {"ios": "https://dc.lft.to/lastmile_qr_scan", "android": "https://dc.lft.to/lastmile_qr_scan"}, "lon": -76.9473085, "fusion_lon": 0.0, "is_disabled": 0, "lat": 38.861551666666664, "bike_id": "fa6b59d8846f78e48f2ab33dba7c6eff", "name": "fa6b59d8846f78e48f2ab33dba7c6eff", "is_reserved": 0, "fusion_lat": 0.0}, {"type": "electric_scooter", "rental_uris": {"ios": "https://dc.lft.to/lastmile_qr_scan", "android": "https://dc.lft.to/lastmile_qr_scan"}, "lon": -77.04005483333333, "fusion_lon": 0.0, "is_disabled": 0, "lat": 38.9243445, "bike_id": "54b1e2947c7f60736719556071f5b92c", "name": "54b1e2947c7f60736719556071f5b92c", "is_reserved": 0, "fusion_lat": 0.0}, {"type": "electric_scooter", "rental_uris": {"ios": "https://dc.lft.to/lastmile_qr_scan", "android": "https://dc.lft.to/lastmile_qr_scan"}, "lon": -76.9994295, "fusion_lon": 0.0, "is_disabled": 0, "lat": 38.90865616666667, "bike_id": "d7fa070ab85404738812b1a1a22c2b9b", "name": "d7fa070ab85404738812b1a1a22c2b9b", "is_reserved": 0, "fusion_lat": 0.0}, {"type": "electric_scooter", "rental_uris": {"ios": "https://dc.lft.to/lastmile_qr_scan", "android": "https://dc.lft.to/lastmile_qr_scan"}, "lon": -77.04239083333333, "fusion_lon": 0.0, "is_disabled": 0, "lat": 38.92211483333333, "bike_id": "635cfbd020a1b7e2c8a4ac46506ce2d7", "name": "635cfbd020a1b7e2c8a4ac46506ce2d7", "is_reserved": 0, "fusion_lat": 0.0}, {"type": "electric_scooter", "rental_uris": {"ios": "https://dc.lft.to/lastmile_qr_scan", "android": "https://dc.lft.to/lastmile_qr_scan"}, "lon": -77.0238875, "fusion_lon": 0.0, "is_disabled": 0, "lat": 38.9174315, "bike_id": "e7feaa5363ed3994622cd9ebf47f8f8b", "name": "e7feaa5363ed3994622cd9ebf47f8f8b", "is_reserved": 0, "fusion_lat": 0.0}, {"type": "electric_scooter", "rental_uris": {"ios": "https://dc.lft.to/lastmile_qr_scan", "android": "https://dc.lft.to/lastmile_qr_scan"}, "lon": -77.041553, "fusion_lon": 0.0, "is_disabled": 0, "lat": 38.91855316666667, "bike_id": "0897e2ab0fd273c7cd6539ea4500203d", "name": "0897e2ab0fd273c7cd6539ea4500203d", "is_reserved": 0, "fusion_lat": 0.0}, {"type": "electric_scooter", "rental_uris": {"ios": "https://dc.lft.to/lastmile_qr_scan", "android": "https://dc.lft.to/lastmile_qr_scan"}, "lon": -77.04345966666666, "fusion_lon": 0.0, "is_disabled": 0, "lat": 38.90523566666667, "bike_id": "1c308995318b563a19a8f094b3173ba3", "name": "1c308995318b563a19a8f094b3173ba3", "is_reserved": 0, "fusion_lat": 0.0}, {"type": "electric_scooter", "rental_uris": {"ios": "https://dc.lft.to/lastmile_qr_scan", "android": "https://dc.lft.to/lastmile_qr_scan"}, "lon": -76.98501333333333, "fusion_lon": 0.0, "is_disabled": 0, "lat": 38.8947315, "bike_id": "19b66cfc0459a7e260e00cd56f879a77", "name": "19b66cfc0459a7e260e00cd56f879a77", "is_reserved": 0, "fusion_lat": 0.0}, {"type": "electric_bike", "rental_uris": {"ios": "https://dc.lft.to/lastmile_qr_scan", "android": "https://dc.lft.to/lastmile_qr_scan"}, "lon": -77.04134433333333, "fusion_lon": 0.0, "is_disabled": 0, "lat": 38.805015833333336, "bike_id": "2e7e89e2b52f65c48f61df7de77e63c9", "name": "2e7e89e2b52f65c48f61df7de77e63c9", "is_reserved": 0, "fusion_lat": 0.0}, {"type": "electric_scooter", "rental_uris": {"ios": "https://dc.lft.to/lastmile_qr_scan", "android": "https://dc.lft.to/lastmile_qr_scan"}, "lon": -77.03187266666667, "fusion_lon": 0.0, "is_disabled": 0, "lat": 38.9176275, "bike_id": "7470d6ddbe57da8f877435548e738066", "name": "7470d6ddbe57da8f877435548e738066", "is_reserved": 0, "fusion_lat": 0.0}, {"type": "electric_bike", "rental_uris": {"ios": "https://dc.lft.to/lastmile_qr_scan", "android": "https://dc.lft.to/lastmile_qr_scan"}, "lon": -77.002093, "fusion_lon": 0.0, "is_disabled": 0, "lat": 38.81933766666667, "bike_id": "f4d7e6cdcaaf4c74f249c1533e7435a3", "name": "f4d7e6cdcaaf4c74f249c1533e7435a3", "is_reserved": 0, "fusion_lat": 0.0}, {"type": "electric_scooter", "rental_uris": {"ios": "https://dc.lft.to/lastmile_qr_scan", "android": "https://dc.lft.to/lastmile_qr_scan"}, "lon": -77.04295533333334, "fusion_lon": 0.0, "is_disabled": 0, "lat": 38.92263483333333, "bike_id": "7288dc193343f07df1164b26ba9535e2", "name": "7288dc193343f07df1164b26ba9535e2", "is_reserved": 0, "fusion_lat": 0.0}, {"type": "electric_scooter", "rental_uris": {"ios": "https://dc.lft.to/lastmile_qr_scan", "android": "https://dc.lft.to/lastmile_qr_scan"}, "lon": -77.02705233333333, "fusion_lon": 0.0, "is_disabled": 0, "lat": 38.90601483333333, "bike_id": "27a9c2bac57d1a8bd6aba75aad0e58c7", "name": "27a9c2bac57d1a8bd6aba75aad0e58c7", "is_reserved": 0, "fusion_lat": 0.0}, {"type": "electric_scooter", "rental_uris": {"ios": "https://dc.lft.to/lastmile_qr_scan", "android": "https://dc.lft.to/lastmile_qr_scan"}, "lon": -76.97239316666666, "fusion_lon": 0.0, "is_disabled": 0, "lat": 38.854631, "bike_id": "f80bc0e93a27dc0d963fb090fc5518e6", "name": "f80bc0e93a27dc0d963fb090fc5518e6", "is_reserved": 0, "fusion_lat": 0.0}, {"type": "electric_scooter", "rental_uris": {"ios": "https://dc.lft.to/lastmile_qr_scan", "android": "https://dc.lft.to/lastmile_qr_scan"}, "lon": -76.99248816666666, "fusion_lon": 0.0, "is_disabled": 0, "lat": 38.863819666666664, "bike_id": "b99734d1b5063b78937a73ef89e06d8f", "name": "b99734d1b5063b78937a73ef89e06d8f", "is_reserved": 0, "fusion_lat": 0.0}, {"type": "electric_scooter", "rental_uris": {"ios": "https://dc.lft.to/lastmile_qr_scan", "android": "https://dc.lft.to/lastmile_qr_scan"}, "lon": -77.02384416666666, "fusion_lon": 0.0, "is_disabled": 0, "lat": 38.9062315, "bike_id": "7dcb31d41d685463992f54964b7a07af", "name": "7dcb31d41d685463992f54964b7a07af", "is_reserved": 0, "fusion_lat": 0.0}, {"type": "electric_scooter", "rental_uris": {"ios": "https://dc.lft.to/lastmile_qr_scan", "android": "https://dc.lft.to/lastmile_qr_scan"}, "lon": -77.038179, "fusion_lon": 0.0, "is_disabled": 0, "lat": 38.90960366666667, "bike_id": "6f34f24f66007073ce6230ee3ebd489d", "name": "6f34f24f66007073ce6230ee3ebd489d", "is_reserved": 0, "fusion_lat": 0.0}, {"type": "electric_scooter", "rental_uris": {"ios": "https://dc.lft.to/lastmile_qr_scan", "android": "https://dc.lft.to/lastmile_qr_scan"}, "lon": -77.026926, "fusion_lon": 0.0, "is_disabled": 0, "lat": 38.91124416666667, "bike_id": "a709f41bc75b13bbe00a74a64c8e5120", "name": "a709f41bc75b13bbe00a74a64c8e5120", "is_reserved": 0, "fusion_lat": 0.0}, {"type": "electric_scooter", "rental_uris": {"ios": "https://dc.lft.to/lastmile_qr_scan", "android": "https://dc.lft.to/lastmile_qr_scan"}, "lon": -76.98372333333333, "fusion_lon": 0.0, "is_disabled": 0, "lat": 38.861166833333336, "bike_id": "e8b3c845e9fe637ca861ba68816cf39c", "name": "e8b3c845e9fe637ca861ba68816cf39c", "is_reserved": 0, "fusion_lat": 0.0}, {"type": "electric_scooter", "rental_uris": {"ios": "https://dc.lft.to/lastmile_qr_scan", "android": "https://dc.lft.to/lastmile_qr_scan"}, "lon": -77.04033083333333, "fusion_lon": 0.0, "is_disabled": 0, "lat": 38.9185915, "bike_id": "628a60d29905dfc7423c30b98c5824ac", "name": "628a60d29905dfc7423c30b98c5824ac", "is_reserved": 0, "fusion_lat": 0.0}, {"type": "electric_scooter", "rental_uris": {"ios": "https://dc.lft.to/lastmile_qr_scan", "android": "https://dc.lft.to/lastmile_qr_scan"}, "lon": -77.03176466666666, "fusion_lon": 0.0, "is_disabled": 0, "lat": 38.914213833333335, "bike_id": "2530ca5f54e3ce993e8314a80304765e", "name": "2530ca5f54e3ce993e8314a80304765e", "is_reserved": 0, "fusion_lat": 0.0}, {"type": "electric_scooter", "rental_uris": {"ios": "https://dc.lft.to/lastmile_qr_scan", "android": "https://dc.lft.to/lastmile_qr_scan"}, "lon": -77.02202133333333, "fusion_lon": 0.0, "is_disabled": 0, "lat": 38.91662766666666, "bike_id": "0e2b402f17011d1cc35e4257982b93ba", "name": "0e2b402f17011d1cc35e4257982b93ba", "is_reserved": 0, "fusion_lat": 0.0}, {"type": "electric_scooter", "rental_uris": {"ios": "https://dc.lft.to/lastmile_qr_scan", "android": "https://dc.lft.to/lastmile_qr_scan"}, "lon": -77.03253766666667, "fusion_lon": 0.0, "is_disabled": 0, "lat": 38.93974383333333, "bike_id": "cfa9bf79763a86bb756a933409efdb43", "name": "cfa9bf79763a86bb756a933409efdb43", "is_reserved": 0, "fusion_lat": 0.0}, {"type": "electric_scooter", "rental_uris": {"ios": "https://dc.lft.to/lastmile_qr_scan", "android": "https://dc.lft.to/lastmile_qr_scan"}, "lon": -77.04407683333334, "fusion_lon": 0.0, "is_disabled": 0, "lat": 38.92451283333333, "bike_id": "9a8980f784badbd0455f7813411fae18", "name": "9a8980f784badbd0455f7813411fae18", "is_reserved": 0, "fusion_lat": 0.0}, {"type": "electric_scooter", "rental_uris": {"ios": "https://dc.lft.to/lastmile_qr_scan", "android": "https://dc.lft.to/lastmile_qr_scan"}, "lon": -77.03296066666667, "fusion_lon": 0.0, "is_disabled": 0, "lat": 38.947169833333334, "bike_id": "371d66e9cc42a60eff4a51a6ff4f301d", "name": "371d66e9cc42a60eff4a51a6ff4f301d", "is_reserved": 0, "fusion_lat": 0.0}, {"type": "electric_scooter", "rental_uris": {"ios": "https://dc.lft.to/lastmile_qr_scan", "android": "https://dc.lft.to/lastmile_qr_scan"}, "lon": -77.00670033333333, "fusion_lon": 0.0, "is_disabled": 0, "lat": 38.9004705, "bike_id": "65873d469ba3fc9ec1162dd9ffcbfe86", "name": "65873d469ba3fc9ec1162dd9ffcbfe86", "is_reserved": 0, "fusion_lat": 0.0}, {"type": "electric_scooter", "rental_uris": {"ios": "https://dc.lft.to/lastmile_qr_scan", "android": "https://dc.lft.to/lastmile_qr_scan"}, "lon": -77.02290716666667, "fusion_lon": 0.0, "is_disabled": 0, "lat": 38.91571166666667, "bike_id": "379160b2c305d7717492c52f533fa620", "name": "379160b2c305d7717492c52f533fa620", "is_reserved": 0, "fusion_lat": 0.0}, {"type": "electric_scooter", "rental_uris": {"ios": "https://dc.lft.to/lastmile_qr_scan", "android": "https://dc.lft.to/lastmile_qr_scan"}, "lon": -77.02642183333333, "fusion_lon": 0.0, "is_disabled": 0, "lat": 38.89961383333333, "bike_id": "eec01fe006d912b757a6b8c6da58a3fe", "name": "eec01fe006d912b757a6b8c6da58a3fe", "is_reserved": 0, "fusion_lat": 0.0}, {"type": "electric_scooter", "rental_uris": {"ios": "https://dc.lft.to/lastmile_qr_scan", "android": "https://dc.lft.to/lastmile_qr_scan"}, "lon": -77.04866833333334, "fusion_lon": 0.0, "is_disabled": 0, "lat": 38.89224883333333, "bike_id": "ebfbe03aa3605e558cd0fa56f68c520e", "name": "ebfbe03aa3605e558cd0fa56f68c520e", "is_reserved": 0, "fusion_lat": 0.0}, {"type": "electric_scooter", "rental_uris": {"ios": "https://dc.lft.to/lastmile_qr_scan", "android": "https://dc.lft.to/lastmile_qr_scan"}, "lon": -77.05599883333333, "fusion_lon": 0.0, "is_disabled": 0, "lat": 38.900910833333334, "bike_id": "372087eb9b9c8502b90f322e111ce9f7", "name": "372087eb9b9c8502b90f322e111ce9f7", "is_reserved": 0, "fusion_lat": 0.0}, {"type": "electric_scooter", "rental_uris": {"ios": "https://dc.lft.to/lastmile_qr_scan", "android": "https://dc.lft.to/lastmile_qr_scan"}, "lon": -77.05916066666667, "fusion_lon": 0.0, "is_disabled": 0, "lat": 38.90220816666667, "bike_id": "25888ad8d568012e2b492899a8983bf7", "name": "25888ad8d568012e2b492899a8983bf7", "is_reserved": 0, "fusion_lat": 0.0}, {"type": "electric_scooter", "rental_uris": {"ios": "https://dc.lft.to/lastmile_qr_scan", "android": "https://dc.lft.to/lastmile_qr_scan"}, "lon": -76.93299933333333, "fusion_lon": 0.0, "is_disabled": 0, "lat": 38.89223916666667, "bike_id": "f71713de11e288af255dba5f3c304ef3", "name": "f71713de11e288af255dba5f3c304ef3", "is_reserved": 0, "fusion_lat": 0.0}, {"type": "electric_scooter", "rental_uris": {"ios": "https://dc.lft.to/lastmile_qr_scan", "android": "https://dc.lft.to/lastmile_qr_scan"}, "lon": -77.034181, "fusion_lon": 0.0, "is_disabled": 0, "lat": 38.91924066666667, "bike_id": "890a034299bafc738c3fd68e8c13bc24", "name": "890a034299bafc738c3fd68e8c13bc24", "is_reserved": 0, "fusion_lat": 0.0}, {"type": "electric_scooter", "rental_uris": {"ios": "https://dc.lft.to/lastmile_qr_scan", "android": "https://dc.lft.to/lastmile_qr_scan"}, "lon": -77.009996, "fusion_lon": 0.0, "is_disabled": 0, "lat": 38.90261116666667, "bike_id": "bfbf62673c9d71c6f090c978a57f3212", "name": "bfbf62673c9d71c6f090c978a57f3212", "is_reserved": 0, "fusion_lat": 0.0}, {"type": "electric_scooter", "rental_uris": {"ios": "https://dc.lft.to/lastmile_qr_scan", "android": "https://dc.lft.to/lastmile_qr_scan"}, "lon": -77.024903, "fusion_lon": 0.0, "is_disabled": 0, "lat": 38.941849, "bike_id": "293e90f83578e946eb177092bd50c6f2", "name": "293e90f83578e946eb177092bd50c6f2", "is_reserved": 0, "fusion_lat": 0.0}, {"type": "electric_scooter", "rental_uris": {"ios": "https://dc.lft.to/lastmile_qr_scan", "android": "https://dc.lft.to/lastmile_qr_scan"}, "lon": -77.02295216666667, "fusion_lon": 0.0, "is_disabled": 0, "lat": 38.92608583333333, "bike_id": "28e3956059b0c5bd1bacbd681ac11fca", "name": "28e3956059b0c5bd1bacbd681ac11fca", "is_reserved": 0, "fusion_lat": 0.0}, {"type": "electric_scooter", "rental_uris": {"ios": "https://dc.lft.to/lastmile_qr_scan", "android": "https://dc.lft.to/lastmile_qr_scan"}, "lon": -77.03357166666666, "fusion_lon": 0.0, "is_disabled": 0, "lat": 38.9136285, "bike_id": "7258baba39d159a4710eb90d000d3a71", "name": "7258baba39d159a4710eb90d000d3a71", "is_reserved": 0, "fusion_lat": 0.0}, {"type": "electric_scooter", "rental_uris": {"ios": "https://dc.lft.to/lastmile_qr_scan", "android": "https://dc.lft.to/lastmile_qr_scan"}, "lon": -77.02813533333334, "fusion_lon": 0.0, "is_disabled": 0, "lat": 38.89806083333333, "bike_id": "36de5f4be4f3534a542bfffbb4efdf54", "name": "36de5f4be4f3534a542bfffbb4efdf54", "is_reserved": 0, "fusion_lat": 0.0}, {"type": "electric_scooter", "rental_uris": {"ios": "https://dc.lft.to/lastmile_qr_scan", "android": "https://dc.lft.to/lastmile_qr_scan"}, "lon": -77.0428205, "fusion_lon": 0.0, "is_disabled": 0, "lat": 38.920618833333336, "bike_id": "b830c13634d2d63f01fa76e27a0102aa", "name": "b830c13634d2d63f01fa76e27a0102aa", "is_reserved": 0, "fusion_lat": 0.0}, {"type": "electric_scooter", "rental_uris": {"ios": "https://dc.lft.to/lastmile_qr_scan", "android": "https://dc.lft.to/lastmile_qr_scan"}, "lon": -76.948932, "fusion_lon": 0.0, "is_disabled": 0, "lat": 38.89528283333333, "bike_id": "8d29e1e4034136207df720c86cd16726", "name": "8d29e1e4034136207df720c86cd16726", "is_reserved": 0, "fusion_lat": 0.0}, {"type": "electric_bike", "rental_uris": {"ios": "https://dc.lft.to/lastmile_qr_scan", "android": "https://dc.lft.to/lastmile_qr_scan"}, "lon": -77.13096416666667, "fusion_lon": 0.0, "is_disabled": 0, "lat": 39.024304666666666, "bike_id": "e80762d4f23aeee3328a384b47526eac", "name": "e80762d4f23aeee3328a384b47526eac", "is_reserved": 0, "fusion_lat": 0.0}, {"type": "electric_scooter", "rental_uris": {"ios": "https://dc.lft.to/lastmile_qr_scan", "android": "https://dc.lft.to/lastmile_qr_scan"}, "lon": -77.03287433333334, "fusion_lon": 0.0, "is_disabled": 0, "lat": 38.956437333333334, "bike_id": "b7ab0c2aaac4925eb8f41e76eacd4b93", "name": "b7ab0c2aaac4925eb8f41e76eacd4b93", "is_reserved": 0, "fusion_lat": 0.0}, {"type": "electric_scooter", "rental_uris": {"ios": "https://dc.lft.to/lastmile_qr_scan", "android": "https://dc.lft.to/lastmile_qr_scan"}, "lon": -76.98482383333334, "fusion_lon": 0.0, "is_disabled": 0, "lat": 38.913132166666664, "bike_id": "91e1af8b8d6731dca24b93c80e615652", "name": "91e1af8b8d6731dca24b93c80e615652", "is_reserved": 0, "fusion_lat": 0.0}, {"type": "electric_scooter", "rental_uris": {"ios": "https://dc.lft.to/lastmile_qr_scan", "android": "https://dc.lft.to/lastmile_qr_scan"}, "lon": -77.03096183333334, "fusion_lon": 0.0, "is_disabled": 0, "lat": 38.93861033333334, "bike_id": "db6cd3cea47525a3274e5bcef0905fe8", "name": "db6cd3cea47525a3274e5bcef0905fe8", "is_reserved": 0, "fusion_lat": 0.0}, {"type": "electric_scooter", "rental_uris": {"ios": "https://dc.lft.to/lastmile_qr_scan", "android": "https://dc.lft.to/lastmile_qr_scan"}, "lon": -77.01168966666667, "fusion_lon": 0.0, "is_disabled": 0, "lat": 38.900224, "bike_id": "57f22ea098f44c8b0985a308dccf38e2", "name": "57f22ea098f44c8b0985a308dccf38e2", "is_reserved": 0, "fusion_lat": 0.0}, {"type": "electric_scooter", "rental_uris": {"ios": "https://dc.lft.to/lastmile_qr_scan", "android": "https://dc.lft.to/lastmile_qr_scan"}, "lon": -77.004357, "fusion_lon": 0.0, "is_disabled": 0, "lat": 38.876639, "bike_id": "9370339cc46f349e7db0ca2cfd2da028", "name": "9370339cc46f349e7db0ca2cfd2da028", "is_reserved": 0, "fusion_lat": 0.0}, {"type": "electric_scooter", "rental_uris": {"ios": "https://dc.lft.to/lastmile_qr_scan", "android": "https://dc.lft.to/lastmile_qr_scan"}, "lon": -77.03472066666667, "fusion_lon": 0.0, "is_disabled": 0, "lat": 38.90861733333333, "bike_id": "be91fb5c8279b3f337515ef1e437bf59", "name": "be91fb5c8279b3f337515ef1e437bf59", "is_reserved": 0, "fusion_lat": 0.0}, {"type": "electric_bike", "rental_uris": {"ios": "https://dc.lft.to/lastmile_qr_scan", "android": "https://dc.lft.to/lastmile_qr_scan"}, "lon": -77.09481833333334, "fusion_lon": 0.0, "is_disabled": 0, "lat": 39.0304865, "bike_id": "0f9102f80dcb12649ec220ef2e06cc4c", "name": "0f9102f80dcb12649ec220ef2e06cc4c", "is_reserved": 0, "fusion_lat": 0.0}, {"type": "electric_scooter", "rental_uris": {"ios": "https://dc.lft.to/lastmile_qr_scan", "android": "https://dc.lft.to/lastmile_qr_scan"}, "lon": -77.02198766666666, "fusion_lon": 0.0, "is_disabled": 0, "lat": 38.91131166666667, "bike_id": "b62f65e2c456bb03692255ba4b5b5cb2", "name": "b62f65e2c456bb03692255ba4b5b5cb2", "is_reserved": 0, "fusion_lat": 0.0}, {"type": "electric_scooter", "rental_uris": {"ios": "https://dc.lft.to/lastmile_qr_scan", "android": "https://dc.lft.to/lastmile_qr_scan"}, "lon": -77.0384185, "fusion_lon": 0.0, "is_disabled": 0, "lat": 38.91758883333333, "bike_id": "0f047e529a8ff6e056d9f4b0f8552131", "name": "0f047e529a8ff6e056d9f4b0f8552131", "is_reserved": 0, "fusion_lat": 0.0}, {"type": "electric_scooter", "rental_uris": {"ios": "https://dc.lft.to/lastmile_qr_scan", "android": "https://dc.lft.to/lastmile_qr_scan"}, "lon": -77.04030383333334, "fusion_lon": 0.0, "is_disabled": 0, "lat": 38.918057166666664, "bike_id": "52f94cd17988ad2e939d51c509923781", "name": "52f94cd17988ad2e939d51c509923781", "is_reserved": 0, "fusion_lat": 0.0}, {"type": "electric_scooter", "rental_uris": {"ios": "https://dc.lft.to/lastmile_qr_scan", "android": "https://dc.lft.to/lastmile_qr_scan"}, "lon": -77.0478825, "fusion_lon": 0.0, "is_disabled": 0, "lat": 38.899657166666664, "bike_id": "3d6260fd148f0326a20209d49f9f7b15", "name": "3d6260fd148f0326a20209d49f9f7b15", "is_reserved": 0, "fusion_lat": 0.0}, {"type": "electric_scooter", "rental_uris": {"ios": "https://dc.lft.to/lastmile_qr_scan", "android": "https://dc.lft.to/lastmile_qr_scan"}, "lon": -77.03145533333333, "fusion_lon": 0.0, "is_disabled": 0, "lat": 38.91109216666667, "bike_id": "f4c1d8338d7ae0ea747577e6e1c74bc9", "name": "f4c1d8338d7ae0ea747577e6e1c74bc9", "is_reserved": 0, "fusion_lat": 0.0}, {"type": "electric_scooter", "rental_uris": {"ios": "https://dc.lft.to/lastmile_qr_scan", "android": "https://dc.lft.to/lastmile_qr_scan"}, "lon": -77.051301, "fusion_lon": 0.0, "is_disabled": 0, "lat": 38.923611, "bike_id": "bdd7c6601b1e80ee7341e593af825dae", "name": "bdd7c6601b1e80ee7341e593af825dae", "is_reserved": 0, "fusion_lat": 0.0}, {"type": "electric_scooter", "rental_uris": {"ios": "https://dc.lft.to/lastmile_qr_scan", "android": "https://dc.lft.to/lastmile_qr_scan"}, "lon": -77.02188216666667, "fusion_lon": 0.0, "is_disabled": 0, "lat": 38.90627416666667, "bike_id": "77342ef3a9a9bf52ef0f966605b3e0d6", "name": "77342ef3a9a9bf52ef0f966605b3e0d6", "is_reserved": 0, "fusion_lat": 0.0}, {"type": "electric_scooter", "rental_uris": {"ios": "https://dc.lft.to/lastmile_qr_scan", "android": "https://dc.lft.to/lastmile_qr_scan"}, "lon": -77.00143633333333, "fusion_lon": 0.0, "is_disabled": 0, "lat": 38.90737016666667, "bike_id": "5e840eacc5fc988443d8be2300d18dce", "name": "5e840eacc5fc988443d8be2300d18dce", "is_reserved": 0, "fusion_lat": 0.0}, {"type": "electric_scooter", "rental_uris": {"ios": "https://dc.lft.to/lastmile_qr_scan", "android": "https://dc.lft.to/lastmile_qr_scan"}, "lon": -77.04255166666667, "fusion_lon": 0.0, "is_disabled": 0, "lat": 38.9220175, "bike_id": "037463b6d6c5f359c238f205350be2c6", "name": "037463b6d6c5f359c238f205350be2c6", "is_reserved": 0, "fusion_lat": 0.0}, {"type": "electric_scooter", "rental_uris": {"ios": "https://dc.lft.to/lastmile_qr_scan", "android": "https://dc.lft.to/lastmile_qr_scan"}, "lon": -77.05516716666666, "fusion_lon": 0.0, "is_disabled": 0, "lat": 38.944182166666664, "bike_id": "83dd21cc639b66ee5138a927799e296d", "name": "83dd21cc639b66ee5138a927799e296d", "is_reserved": 0, "fusion_lat": 0.0}, {"type": "electric_scooter", "rental_uris": {"ios": "https://dc.lft.to/lastmile_qr_scan", "android": "https://dc.lft.to/lastmile_qr_scan"}, "lon": -77.02006383333334, "fusion_lon": 0.0, "is_disabled": 0, "lat": 38.91566666666667, "bike_id": "4da284a4310dfb0d9daf1f84d8d8c065", "name": "4da284a4310dfb0d9daf1f84d8d8c065", "is_reserved": 0, "fusion_lat": 0.0}, {"type": "electric_scooter", "rental_uris": {"ios": "https://dc.lft.to/lastmile_qr_scan", "android": "https://dc.lft.to/lastmile_qr_scan"}, "lon": -77.026248, "fusion_lon": 0.0, "is_disabled": 0, "lat": 38.89222733333333, "bike_id": "bede93295669c4a244092109c1ea2b18", "name": "bede93295669c4a244092109c1ea2b18", "is_reserved": 0, "fusion_lat": 0.0}, {"type": "electric_scooter", "rental_uris": {"ios": "https://dc.lft.to/lastmile_qr_scan", "android": "https://dc.lft.to/lastmile_qr_scan"}, "lon": -76.949974, "fusion_lon": 0.0, "is_disabled": 0, "lat": 38.89391066666666, "bike_id": "32053d8caf3a9b0521b65b94a813ae22", "name": "32053d8caf3a9b0521b65b94a813ae22", "is_reserved": 0, "fusion_lat": 0.0}, {"type": "electric_scooter", "rental_uris": {"ios": "https://dc.lft.to/lastmile_qr_scan", "android": "https://dc.lft.to/lastmile_qr_scan"}, "lon": -77.054862, "fusion_lon": 0.0, "is_disabled": 0, "lat": 38.90820933333333, "bike_id": "2cf8dc305a14920babdfe150d8c5c9b9", "name": "2cf8dc305a14920babdfe150d8c5c9b9", "is_reserved": 0, "fusion_lat": 0.0}, {"type": "electric_scooter", "rental_uris": {"ios": "https://dc.lft.to/lastmile_qr_scan", "android": "https://dc.lft.to/lastmile_qr_scan"}, "lon": -77.0214055, "fusion_lon": 0.0, "is_disabled": 0, "lat": 38.925958666666666, "bike_id": "e323f1a548e8e55aff50395a208cbe0f", "name": "e323f1a548e8e55aff50395a208cbe0f", "is_reserved": 0, "fusion_lat": 0.0}, {"type": "electric_bike", "rental_uris": {"ios": "https://dc.lft.to/lastmile_qr_scan", "android": "https://dc.lft.to/lastmile_qr_scan"}, "lon": -77.03212033333334, "fusion_lon": 0.0, "is_disabled": 0, "lat": 38.915535166666665, "bike_id": "24b57e98a806001383a88ca047f90369", "name": "24b57e98a806001383a88ca047f90369", "is_reserved": 0, "fusion_lat": 0.0}, {"type": "electric_scooter", "rental_uris": {"ios": "https://dc.lft.to/lastmile_qr_scan", "android": "https://dc.lft.to/lastmile_qr_scan"}, "lon": -77.03257083333334, "fusion_lon": 0.0, "is_disabled": 0, "lat": 38.9279205, "bike_id": "37c590c5be31cdef8d7c04f00bc80762", "name": "37c590c5be31cdef8d7c04f00bc80762", "is_reserved": 0, "fusion_lat": 0.0}, {"type": "electric_scooter", "rental_uris": {"ios": "https://dc.lft.to/lastmile_qr_scan", "android": "https://dc.lft.to/lastmile_qr_scan"}, "lon": -77.04125416666666, "fusion_lon": 0.0, "is_disabled": 0, "lat": 38.934008, "bike_id": "6a9db0531d9861d4c8ea90d00493a87e", "name": "6a9db0531d9861d4c8ea90d00493a87e", "is_reserved": 0, "fusion_lat": 0.0}, {"type": "electric_scooter", "rental_uris": {"ios": "https://dc.lft.to/lastmile_qr_scan", "android": "https://dc.lft.to/lastmile_qr_scan"}, "lon": -77.0727525, "fusion_lon": 0.0, "is_disabled": 0, "lat": 38.9349185, "bike_id": "8b9b0bb4aec07aab69061de5d0261235", "name": "8b9b0bb4aec07aab69061de5d0261235", "is_reserved": 0, "fusion_lat": 0.0}, {"type": "electric_scooter", "rental_uris": {"ios": "https://dc.lft.to/lastmile_qr_scan", "android": "https://dc.lft.to/lastmile_qr_scan"}, "lon": -77.0396545, "fusion_lon": 0.0, "is_disabled": 0, "lat": 38.8987575, "bike_id": "8500c6ae04b2aed41fc5286b4f98908c", "name": "8500c6ae04b2aed41fc5286b4f98908c", "is_reserved": 0, "fusion_lat": 0.0}, {"type": "electric_bike", "rental_uris": {"ios": "https://dc.lft.to/lastmile_qr_scan", "android": "https://dc.lft.to/lastmile_qr_scan"}, "lon": -77.04530266666667, "fusion_lon": 0.0, "is_disabled": 0, "lat": 38.84296583333333, "bike_id": "08c286367aed7a1fd9443503508028da", "name": "08c286367aed7a1fd9443503508028da", "is_reserved": 0, "fusion_lat": 0.0}, {"type": "electric_scooter", "rental_uris": {"ios": "https://dc.lft.to/lastmile_qr_scan", "android": "https://dc.lft.to/lastmile_qr_scan"}, "lon": -77.08287733333333, "fusion_lon": 0.0, "is_disabled": 0, "lat": 38.960950833333335, "bike_id": "d6a5c4057cbbab8b620672684ba672b8", "name": "d6a5c4057cbbab8b620672684ba672b8", "is_reserved": 0, "fusion_lat": 0.0}, {"type": "electric_scooter", "rental_uris": {"ios": "https://dc.lft.to/lastmile_qr_scan", "android": "https://dc.lft.to/lastmile_qr_scan"}, "lon": -77.03294516666666, "fusion_lon": 0.0, "is_disabled": 0, "lat": 38.9471445, "bike_id": "06ff4059bbdb5e89757262bd7bb0bfce", "name": "06ff4059bbdb5e89757262bd7bb0bfce", "is_reserved": 0, "fusion_lat": 0.0}, {"type": "electric_scooter", "rental_uris": {"ios": "https://dc.lft.to/lastmile_qr_scan", "android": "https://dc.lft.to/lastmile_qr_scan"}, "lon": -77.04437016666667, "fusion_lon": 0.0, "is_disabled": 0, "lat": 38.912660833333334, "bike_id": "1a8982412c293c398b0b45aef49c4869", "name": "1a8982412c293c398b0b45aef49c4869", "is_reserved": 0, "fusion_lat": 0.0}, {"type": "electric_scooter", "rental_uris": {"ios": "https://dc.lft.to/lastmile_qr_scan", "android": "https://dc.lft.to/lastmile_qr_scan"}, "lon": -77.033377, "fusion_lon": 0.0, "is_disabled": 0, "lat": 38.903427, "bike_id": "4b92683d67dc2eee29ea77b9fa48cfed", "name": "4b92683d67dc2eee29ea77b9fa48cfed", "is_reserved": 0, "fusion_lat": 0.0}, {"type": "electric_scooter", "rental_uris": {"ios": "https://dc.lft.to/lastmile_qr_scan", "android": "https://dc.lft.to/lastmile_qr_scan"}, "lon": -76.9984655, "fusion_lon": 0.0, "is_disabled": 0, "lat": 38.9000125, "bike_id": "e617c60918f735638164afe8bfde426e", "name": "e617c60918f735638164afe8bfde426e", "is_reserved": 0, "fusion_lat": 0.0}, {"type": "electric_scooter", "rental_uris": {"ios": "https://dc.lft.to/lastmile_qr_scan", "android": "https://dc.lft.to/lastmile_qr_scan"}, "lon": -77.02787233333333, "fusion_lon": 0.0, "is_disabled": 0, "lat": 38.96134766666667, "bike_id": "733967ea6fe29c145bf18304350b72cf", "name": "733967ea6fe29c145bf18304350b72cf", "is_reserved": 0, "fusion_lat": 0.0}, {"type": "electric_scooter", "rental_uris": {"ios": "https://dc.lft.to/lastmile_qr_scan", "android": "https://dc.lft.to/lastmile_qr_scan"}, "lon": -77.0373205, "fusion_lon": 0.0, "is_disabled": 0, "lat": 38.928504333333336, "bike_id": "f31232760a36be539987c30e206c5765", "name": "f31232760a36be539987c30e206c5765", "is_reserved": 0, "fusion_lat": 0.0}, {"type": "electric_scooter", "rental_uris": {"ios": "https://dc.lft.to/lastmile_qr_scan", "android": "https://dc.lft.to/lastmile_qr_scan"}, "lon": -77.0061025, "fusion_lon": 0.0, "is_disabled": 0, "lat": 38.90632733333333, "bike_id": "9a5cace6f12e8466bb1458919a9953c9", "name": "9a5cace6f12e8466bb1458919a9953c9", "is_reserved": 0, "fusion_lat": 0.0}, {"type": "electric_scooter", "rental_uris": {"ios": "https://dc.lft.to/lastmile_qr_scan", "android": "https://dc.lft.to/lastmile_qr_scan"}, "lon": -77.03270983333333, "fusion_lon": 0.0, "is_disabled": 0, "lat": 38.9293995, "bike_id": "0436fd4a9301df72ab73ce1b49d56051", "name": "0436fd4a9301df72ab73ce1b49d56051", "is_reserved": 0, "fusion_lat": 0.0}, {"type": "electric_scooter", "rental_uris": {"ios": "https://dc.lft.to/lastmile_qr_scan", "android": "https://dc.lft.to/lastmile_qr_scan"}, "lon": -77.01161933333333, "fusion_lon": 0.0, "is_disabled": 0, "lat": 38.903129, "bike_id": "f83cc8b05deb7240b57471e3659f2932", "name": "f83cc8b05deb7240b57471e3659f2932", "is_reserved": 0, "fusion_lat": 0.0}, {"type": "electric_scooter", "rental_uris": {"ios": "https://dc.lft.to/lastmile_qr_scan", "android": "https://dc.lft.to/lastmile_qr_scan"}, "lon": -77.03148683333333, "fusion_lon": 0.0, "is_disabled": 0, "lat": 38.915649333333334, "bike_id": "b40de9fe91a206338673065812cd4f37", "name": "b40de9fe91a206338673065812cd4f37", "is_reserved": 0, "fusion_lat": 0.0}, {"type": "electric_scooter", "rental_uris": {"ios": "https://dc.lft.to/lastmile_qr_scan", "android": "https://dc.lft.to/lastmile_qr_scan"}, "lon": -77.036035, "fusion_lon": 0.0, "is_disabled": 0, "lat": 38.928506, "bike_id": "c0db8d52dd4bd0ebf58d6e454d685456", "name": "c0db8d52dd4bd0ebf58d6e454d685456", "is_reserved": 0, "fusion_lat": 0.0}, {"type": "electric_scooter", "rental_uris": {"ios": "https://dc.lft.to/lastmile_qr_scan", "android": "https://dc.lft.to/lastmile_qr_scan"}, "lon": -77.0137085, "fusion_lon": 0.0, "is_disabled": 0, "lat": 38.892274, "bike_id": "183b4dd28f422185bb622405b3664501", "name": "183b4dd28f422185bb622405b3664501", "is_reserved": 0, "fusion_lat": 0.0}, {"type": "electric_scooter", "rental_uris": {"ios": "https://dc.lft.to/lastmile_qr_scan", "android": "https://dc.lft.to/lastmile_qr_scan"}, "lon": -77.0180875, "fusion_lon": 0.0, "is_disabled": 0, "lat": 38.921510833333336, "bike_id": "34c89857daba8d8a74756a53df2079d8", "name": "34c89857daba8d8a74756a53df2079d8", "is_reserved": 0, "fusion_lat": 0.0}, {"type": "electric_scooter", "rental_uris": {"ios": "https://dc.lft.to/lastmile_qr_scan", "android": "https://dc.lft.to/lastmile_qr_scan"}, "lon": -76.98885283333334, "fusion_lon": 0.0, "is_disabled": 0, "lat": 38.861057333333335, "bike_id": "b8c1a1e54d7a4f59a188959be80f704f", "name": "b8c1a1e54d7a4f59a188959be80f704f", "is_reserved": 0, "fusion_lat": 0.0}, {"type": "electric_scooter", "rental_uris": {"ios": "https://dc.lft.to/lastmile_qr_scan", "android": "https://dc.lft.to/lastmile_qr_scan"}, "lon": -77.04256633333334, "fusion_lon": 0.0, "is_disabled": 0, "lat": 38.92200316666667, "bike_id": "44ecff30f5a86ceed93ddb679d472dcb", "name": "44ecff30f5a86ceed93ddb679d472dcb", "is_reserved": 0, "fusion_lat": 0.0}, {"type": "electric_bike", "rental_uris": {"ios": "https://dc.lft.to/lastmile_qr_scan", "android": "https://dc.lft.to/lastmile_qr_scan"}, "lon": -77.04979316666666, "fusion_lon": 0.0, "is_disabled": 0, "lat": 39.06297983333333, "bike_id": "02a0d376971806bda31c0de77c483f9a", "name": "02a0d376971806bda31c0de77c483f9a", "is_reserved": 0, "fusion_lat": 0.0}, {"type": "electric_scooter", "rental_uris": {"ios": "https://dc.lft.to/lastmile_qr_scan", "android": "https://dc.lft.to/lastmile_qr_scan"}, "lon": -77.03164233333334, "fusion_lon": 0.0, "is_disabled": 0, "lat": 38.89608416666667, "bike_id": "cef209b9f3a9f54b272a003eb72e02b6", "name": "cef209b9f3a9f54b272a003eb72e02b6", "is_reserved": 0, "fusion_lat": 0.0}, {"type": "electric_scooter", "rental_uris": {"ios": "https://dc.lft.to/lastmile_qr_scan", "android": "https://dc.lft.to/lastmile_qr_scan"}, "lon": -77.02651166666666, "fusion_lon": 0.0, "is_disabled": 0, "lat": 38.92477316666667, "bike_id": "d57ffc2b07e711b9662ebbbe41c47cc6", "name": "d57ffc2b07e711b9662ebbbe41c47cc6", "is_reserved": 0, "fusion_lat": 0.0}, {"type": "electric_scooter", "rental_uris": {"ios": "https://dc.lft.to/lastmile_qr_scan", "android": "https://dc.lft.to/lastmile_qr_scan"}, "lon": -77.03168766666667, "fusion_lon": 0.0, "is_disabled": 0, "lat": 38.89790216666667, "bike_id": "4c6d2f63ebbea673466a9832284509c7", "name": "4c6d2f63ebbea673466a9832284509c7", "is_reserved": 0, "fusion_lat": 0.0}, {"type": "electric_scooter", "rental_uris": {"ios": "https://dc.lft.to/lastmile_qr_scan", "android": "https://dc.lft.to/lastmile_qr_scan"}, "lon": -77.0393995, "fusion_lon": 0.0, "is_disabled": 0, "lat": 38.915718166666665, "bike_id": "2255b62e99ff04d8077286f4774866bb", "name": "2255b62e99ff04d8077286f4774866bb", "is_reserved": 0, "fusion_lat": 0.0}, {"type": "electric_scooter", "rental_uris": {"ios": "https://dc.lft.to/lastmile_qr_scan", "android": "https://dc.lft.to/lastmile_qr_scan"}, "lon": -77.04001083333333, "fusion_lon": 0.0, "is_disabled": 0, "lat": 38.914181166666665, "bike_id": "b098071273df57b5b2acecacd20f6421", "name": "b098071273df57b5b2acecacd20f6421", "is_reserved": 0, "fusion_lat": 0.0}, {"type": "electric_scooter", "rental_uris": {"ios": "https://dc.lft.to/lastmile_qr_scan", "android": "https://dc.lft.to/lastmile_qr_scan"}, "lon": -77.0395785, "fusion_lon": 0.0, "is_disabled": 0, "lat": 38.892438166666665, "bike_id": "d92d91ead3f88f167e9cf6823e210687", "name": "d92d91ead3f88f167e9cf6823e210687", "is_reserved": 0, "fusion_lat": 0.0}, {"type": "electric_scooter", "rental_uris": {"ios": "https://dc.lft.to/lastmile_qr_scan", "android": "https://dc.lft.to/lastmile_qr_scan"}, "lon": -76.97743566666666, "fusion_lon": 0.0, "is_disabled": 0, "lat": 38.86831, "bike_id": "31a921ea7a27f7287ea639f8d3adce8f", "name": "31a921ea7a27f7287ea639f8d3adce8f", "is_reserved": 0, "fusion_lat": 0.0}, {"type": "electric_bike", "rental_uris": {"ios": "https://dc.lft.to/lastmile_qr_scan", "android": "https://dc.lft.to/lastmile_qr_scan"}, "lon": -76.94530083333333, "fusion_lon": 0.0, "is_disabled": 0, "lat": 38.8646455, "bike_id": "f3f78740aad4a6d2ea6a3f560085f442", "name": "f3f78740aad4a6d2ea6a3f560085f442", "is_reserved": 0, "fusion_lat": 0.0}, {"type": "electric_scooter", "rental_uris": {"ios": "https://dc.lft.to/lastmile_qr_scan", "android": "https://dc.lft.to/lastmile_qr_scan"}, "lon": -77.0316515, "fusion_lon": 0.0, "is_disabled": 0, "lat": 38.892234, "bike_id": "9a513a7480d040c8cd77b767225f0dd7", "name": "9a513a7480d040c8cd77b767225f0dd7", "is_reserved": 0, "fusion_lat": 0.0}, {"type": "electric_bike", "rental_uris": {"ios": "https://dc.lft.to/lastmile_qr_scan", "android": "https://dc.lft.to/lastmile_qr_scan"}, "lon": -77.00293783333333, "fusion_lon": 0.0, "is_disabled": 0, "lat": 38.9161365, "bike_id": "0f05821571b2df51400e53ef7e474014", "name": "0f05821571b2df51400e53ef7e474014", "is_reserved": 0, "fusion_lat": 0.0}, {"type": "electric_scooter", "rental_uris": {"ios": "https://dc.lft.to/lastmile_qr_scan", "android": "https://dc.lft.to/lastmile_qr_scan"}, "lon": -77.06130916666666, "fusion_lon": 0.0, "is_disabled": 0, "lat": 38.904838166666664, "bike_id": "e242ef302894f7718c107b52a3182332", "name": "e242ef302894f7718c107b52a3182332", "is_reserved": 0, "fusion_lat": 0.0}, {"type": "electric_scooter", "rental_uris": {"ios": "https://dc.lft.to/lastmile_qr_scan", "android": "https://dc.lft.to/lastmile_qr_scan"}, "lon": -77.03636616666667, "fusion_lon": 0.0, "is_disabled": 0, "lat": 38.93741466666667, "bike_id": "0aeb9300e2f42adba132adf96e135523", "name": "0aeb9300e2f42adba132adf96e135523", "is_reserved": 0, "fusion_lat": 0.0}, {"type": "electric_scooter", "rental_uris": {"ios": "https://dc.lft.to/lastmile_qr_scan", "android": "https://dc.lft.to/lastmile_qr_scan"}, "lon": -77.04342366666667, "fusion_lon": 0.0, "is_disabled": 0, "lat": 38.911088166666666, "bike_id": "06076b7ecc84c32b6f2c63ad8a8a6b2a", "name": "06076b7ecc84c32b6f2c63ad8a8a6b2a", "is_reserved": 0, "fusion_lat": 0.0}, {"type": "electric_scooter", "rental_uris": {"ios": "https://dc.lft.to/lastmile_qr_scan", "android": "https://dc.lft.to/lastmile_qr_scan"}, "lon": -77.050409, "fusion_lon": 0.0, "is_disabled": 0, "lat": 38.90422083333333, "bike_id": "022dbd55e262c963c3f57f990ab55b60", "name": "022dbd55e262c963c3f57f990ab55b60", "is_reserved": 0, "fusion_lat": 0.0}, {"type": "electric_scooter", "rental_uris": {"ios": "https://dc.lft.to/lastmile_qr_scan", "android": "https://dc.lft.to/lastmile_qr_scan"}, "lon": -76.99031583333333, "fusion_lon": 0.0, "is_disabled": 0, "lat": 38.9004035, "bike_id": "0355706a9e97174c1f66a90c0c5e8cc4", "name": "0355706a9e97174c1f66a90c0c5e8cc4", "is_reserved": 0, "fusion_lat": 0.0}, {"type": "electric_scooter", "rental_uris": {"ios": "https://dc.lft.to/lastmile_qr_scan", "android": "https://dc.lft.to/lastmile_qr_scan"}, "lon": -77.03182083333333, "fusion_lon": 0.0, "is_disabled": 0, "lat": 38.911253333333335, "bike_id": "70d03a9dacd204ffdc9442ca0584f527", "name": "70d03a9dacd204ffdc9442ca0584f527", "is_reserved": 0, "fusion_lat": 0.0}, {"type": "electric_bike", "rental_uris": {"ios": "https://dc.lft.to/lastmile_qr_scan", "android": "https://dc.lft.to/lastmile_qr_scan"}, "lon": -77.16238666666666, "fusion_lon": 0.0, "is_disabled": 0, "lat": 38.88678816666667, "bike_id": "56a2adc3eb5d35b526cd43cfe985b16b", "name": "56a2adc3eb5d35b526cd43cfe985b16b", "is_reserved": 0, "fusion_lat": 0.0}, {"type": "electric_scooter", "rental_uris": {"ios": "https://dc.lft.to/lastmile_qr_scan", "android": "https://dc.lft.to/lastmile_qr_scan"}, "lon": -77.01894383333334, "fusion_lon": 0.0, "is_disabled": 0, "lat": 38.88611683333333, "bike_id": "3d331b55697134ec0671ff2f16463c5d", "name": "3d331b55697134ec0671ff2f16463c5d", "is_reserved": 0, "fusion_lat": 0.0}, {"type": "electric_scooter", "rental_uris": {"ios": "https://dc.lft.to/lastmile_qr_scan", "android": "https://dc.lft.to/lastmile_qr_scan"}, "lon": -77.0161275, "fusion_lon": 0.0, "is_disabled": 0, "lat": 38.916030166666665, "bike_id": "0f09651e1255e06bb55a713193b5ece2", "name": "0f09651e1255e06bb55a713193b5ece2", "is_reserved": 0, "fusion_lat": 0.0}, {"type": "electric_bike", "rental_uris": {"ios": "https://dc.lft.to/lastmile_qr_scan", "android": "https://dc.lft.to/lastmile_qr_scan"}, "lon": -77.01285516666667, "fusion_lon": 0.0, "is_disabled": 0, "lat": 38.95667433333333, "bike_id": "5c7a6a7d362493e6f19e879031a7d989", "name": "5c7a6a7d362493e6f19e879031a7d989", "is_reserved": 0, "fusion_lat": 0.0}, {"type": "electric_bike", "rental_uris": {"ios": "https://dc.lft.to/lastmile_qr_scan", "android": "https://dc.lft.to/lastmile_qr_scan"}, "lon": -77.11789616666667, "fusion_lon": 0.0, "is_disabled": 0, "lat": 38.8854935, "bike_id": "0323fd3784f0cba0867b386f334d9a35", "name": "0323fd3784f0cba0867b386f334d9a35", "is_reserved": 0, "fusion_lat": 0.0}, {"type": "electric_scooter", "rental_uris": {"ios": "https://dc.lft.to/lastmile_qr_scan", "android": "https://dc.lft.to/lastmile_qr_scan"}, "lon": -76.97950466666667, "fusion_lon": 0.0, "is_disabled": 0, "lat": 38.91695433333334, "bike_id": "5661ca73f966aa14caa85e61b20fcd7c", "name": "5661ca73f966aa14caa85e61b20fcd7c", "is_reserved": 0, "fusion_lat": 0.0}, {"type": "electric_scooter", "rental_uris": {"ios": "https://dc.lft.to/lastmile_qr_scan", "android": "https://dc.lft.to/lastmile_qr_scan"}, "lon": -77.0200775, "fusion_lon": 0.0, "is_disabled": 0, "lat": 38.9082665, "bike_id": "f846b6cb71176ff440b609541872a8ca", "name": "f846b6cb71176ff440b609541872a8ca", "is_reserved": 0, "fusion_lat": 0.0}, {"type": "electric_scooter", "rental_uris": {"ios": "https://dc.lft.to/lastmile_qr_scan", "android": "https://dc.lft.to/lastmile_qr_scan"}, "lon": -76.99828383333333, "fusion_lon": 0.0, "is_disabled": 0, "lat": 38.88537016666667, "bike_id": "81e1b167a50cda3e9c2a3fc740217ecc", "name": "81e1b167a50cda3e9c2a3fc740217ecc", "is_reserved": 0, "fusion_lat": 0.0}, {"type": "electric_scooter", "rental_uris": {"ios": "https://dc.lft.to/lastmile_qr_scan", "android": "https://dc.lft.to/lastmile_qr_scan"}, "lon": -77.0271965, "fusion_lon": 0.0, "is_disabled": 0, "lat": 38.906861666666664, "bike_id": "3294a99f68a304b330bc50b32bae5673", "name": "3294a99f68a304b330bc50b32bae5673", "is_reserved": 0, "fusion_lat": 0.0}, {"type": "electric_scooter", "rental_uris": {"ios": "https://dc.lft.to/lastmile_qr_scan", "android": "https://dc.lft.to/lastmile_qr_scan"}, "lon": -77.0219615, "fusion_lon": 0.0, "is_disabled": 0, "lat": 38.91052333333333, "bike_id": "e62ea8d0e83d7656ee90d1d94b5bb7fd", "name": "e62ea8d0e83d7656ee90d1d94b5bb7fd", "is_reserved": 0, "fusion_lat": 0.0}, {"type": "electric_scooter", "rental_uris": {"ios": "https://dc.lft.to/lastmile_qr_scan", "android": "https://dc.lft.to/lastmile_qr_scan"}, "lon": -77.02594616666667, "fusion_lon": 0.0, "is_disabled": 0, "lat": 38.914109333333336, "bike_id": "c3ad577c68f19453cd41b0b247540d94", "name": "c3ad577c68f19453cd41b0b247540d94", "is_reserved": 0, "fusion_lat": 0.0}, {"type": "electric_bike", "rental_uris": {"ios": "https://dc.lft.to/lastmile_qr_scan", "android": "https://dc.lft.to/lastmile_qr_scan"}, "lon": -77.02270166666666, "fusion_lon": 0.0, "is_disabled": 0, "lat": 38.944753666666664, "bike_id": "ffba6ce3a956883017f762565067c8cb", "name": "ffba6ce3a956883017f762565067c8cb", "is_reserved": 0, "fusion_lat": 0.0}, {"type": "electric_bike", "rental_uris": {"ios": "https://dc.lft.to/lastmile_qr_scan", "android": "https://dc.lft.to/lastmile_qr_scan"}, "lon": -76.99353116666667, "fusion_lon": 0.0, "is_disabled": 0, "lat": 38.84505466666667, "bike_id": "5ff4dfcfd95381fa82cb844d76cd7655", "name": "5ff4dfcfd95381fa82cb844d76cd7655", "is_reserved": 0, "fusion_lat": 0.0}, {"type": "electric_scooter", "rental_uris": {"ios": "https://dc.lft.to/lastmile_qr_scan", "android": "https://dc.lft.to/lastmile_qr_scan"}, "lon": -77.02350933333334, "fusion_lon": 0.0, "is_disabled": 0, "lat": 38.9318695, "bike_id": "2f0485468336ac2f3861c6d85046a537", "name": "2f0485468336ac2f3861c6d85046a537", "is_reserved": 0, "fusion_lat": 0.0}, {"type": "electric_scooter", "rental_uris": {"ios": "https://dc.lft.to/lastmile_qr_scan", "android": "https://dc.lft.to/lastmile_qr_scan"}, "lon": -77.02696116666667, "fusion_lon": 0.0, "is_disabled": 0, "lat": 38.9067665, "bike_id": "994ac08032b382cc906c41d1dde764d5", "name": "994ac08032b382cc906c41d1dde764d5", "is_reserved": 0, "fusion_lat": 0.0}, {"type": "electric_scooter", "rental_uris": {"ios": "https://dc.lft.to/lastmile_qr_scan", "android": "https://dc.lft.to/lastmile_qr_scan"}, "lon": -76.98728066666666, "fusion_lon": 0.0, "is_disabled": 0, "lat": 38.86716416666667, "bike_id": "7dc5291a9ec8aec553a7348f1590178b", "name": "7dc5291a9ec8aec553a7348f1590178b", "is_reserved": 0, "fusion_lat": 0.0}, {"type": "electric_scooter", "rental_uris": {"ios": "https://dc.lft.to/lastmile_qr_scan", "android": "https://dc.lft.to/lastmile_qr_scan"}, "lon": -77.03121033333333, "fusion_lon": 0.0, "is_disabled": 0, "lat": 38.93767116666667, "bike_id": "a131271860f7401a9eb830fcbe9de48d", "name": "a131271860f7401a9eb830fcbe9de48d", "is_reserved": 0, "fusion_lat": 0.0}, {"type": "electric_scooter", "rental_uris": {"ios": "https://dc.lft.to/lastmile_qr_scan", "android": "https://dc.lft.to/lastmile_qr_scan"}, "lon": -77.05270766666666, "fusion_lon": 0.0, "is_disabled": 0, "lat": 38.925455, "bike_id": "1c6b240a88712c7c78c51ef06ca43edb", "name": "1c6b240a88712c7c78c51ef06ca43edb", "is_reserved": 0, "fusion_lat": 0.0}, {"type": "electric_scooter", "rental_uris": {"ios": "https://dc.lft.to/lastmile_qr_scan", "android": "https://dc.lft.to/lastmile_qr_scan"}, "lon": -77.02320233333333, "fusion_lon": 0.0, "is_disabled": 0, "lat": 38.892233833333336, "bike_id": "72ab1379f3ad9c73e1a3ce191f4fe3b5", "name": "72ab1379f3ad9c73e1a3ce191f4fe3b5", "is_reserved": 0, "fusion_lat": 0.0}, {"type": "electric_scooter", "rental_uris": {"ios": "https://dc.lft.to/lastmile_qr_scan", "android": "https://dc.lft.to/lastmile_qr_scan"}, "lon": -77.0212795, "fusion_lon": 0.0, "is_disabled": 0, "lat": 38.88746616666667, "bike_id": "20ea4ac9a4c8ad7f3e79eeb44d00036f", "name": "20ea4ac9a4c8ad7f3e79eeb44d00036f", "is_reserved": 0, "fusion_lat": 0.0}, {"type": "electric_scooter", "rental_uris": {"ios": "https://dc.lft.to/lastmile_qr_scan", "android": "https://dc.lft.to/lastmile_qr_scan"}, "lon": -77.03445816666667, "fusion_lon": 0.0, "is_disabled": 0, "lat": 38.90994633333333, "bike_id": "b55ca67b609a72109fef1d972aaeeb27", "name": "b55ca67b609a72109fef1d972aaeeb27", "is_reserved": 0, "fusion_lat": 0.0}, {"type": "electric_scooter", "rental_uris": {"ios": "https://dc.lft.to/lastmile_qr_scan", "android": "https://dc.lft.to/lastmile_qr_scan"}, "lon": -77.0398875, "fusion_lon": 0.0, "is_disabled": 0, "lat": 38.89225783333333, "bike_id": "a6c5d98a3dc24ebb623fd18e1b3b517c", "name": "a6c5d98a3dc24ebb623fd18e1b3b517c", "is_reserved": 0, "fusion_lat": 0.0}, {"type": "electric_bike", "rental_uris": {"ios": "https://dc.lft.to/lastmile_qr_scan", "android": "https://dc.lft.to/lastmile_qr_scan"}, "lon": -77.05833916666667, "fusion_lon": 0.0, "is_disabled": 0, "lat": 38.84252866666667, "bike_id": "2ce6fd094039514c5425bdbe175ad820", "name": "2ce6fd094039514c5425bdbe175ad820", "is_reserved": 0, "fusion_lat": 0.0}, {"type": "electric_scooter", "rental_uris": {"ios": "https://dc.lft.to/lastmile_qr_scan", "android": "https://dc.lft.to/lastmile_qr_scan"}, "lon": -77.03245183333334, "fusion_lon": 0.0, "is_disabled": 0, "lat": 38.917135, "bike_id": "a81800c16830c95a6506fa6213dc49f9", "name": "a81800c16830c95a6506fa6213dc49f9", "is_reserved": 0, "fusion_lat": 0.0}, {"type": "electric_scooter", "rental_uris": {"ios": "https://dc.lft.to/lastmile_qr_scan", "android": "https://dc.lft.to/lastmile_qr_scan"}, "lon": -77.03235966666666, "fusion_lon": 0.0, "is_disabled": 0, "lat": 38.9217465, "bike_id": "7c1de0a42eb4e2365f7d573e63d5dfe0", "name": "7c1de0a42eb4e2365f7d573e63d5dfe0", "is_reserved": 0, "fusion_lat": 0.0}, {"type": "electric_bike", "rental_uris": {"ios": "https://dc.lft.to/lastmile_qr_scan", "android": "https://dc.lft.to/lastmile_qr_scan"}, "lon": -77.1264995, "fusion_lon": 0.0, "is_disabled": 0, "lat": 38.8151635, "bike_id": "eab68eecdf5018b034d8421cd2eb5a74", "name": "eab68eecdf5018b034d8421cd2eb5a74", "is_reserved": 0, "fusion_lat": 0.0}, {"type": "electric_scooter", "rental_uris": {"ios": "https://dc.lft.to/lastmile_qr_scan", "android": "https://dc.lft.to/lastmile_qr_scan"}, "lon": -77.02207816666666, "fusion_lon": 0.0, "is_disabled": 0, "lat": 38.9108875, "bike_id": "15b29849dabee51d692bac1505424b53", "name": "15b29849dabee51d692bac1505424b53", "is_reserved": 0, "fusion_lat": 0.0}, {"type": "electric_bike", "rental_uris": {"ios": "https://dc.lft.to/lastmile_qr_scan", "android": "https://dc.lft.to/lastmile_qr_scan"}, "lon": -77.11301483333334, "fusion_lon": 0.0, "is_disabled": 0, "lat": 38.831703833333336, "bike_id": "1348be5064b1b11b1b61c952b66ada13", "name": "1348be5064b1b11b1b61c952b66ada13", "is_reserved": 0, "fusion_lat": 0.0}, {"type": "electric_scooter", "rental_uris": {"ios": "https://dc.lft.to/lastmile_qr_scan", "android": "https://dc.lft.to/lastmile_qr_scan"}, "lon": -77.00892483333334, "fusion_lon": 0.0, "is_disabled": 0, "lat": 38.91273483333333, "bike_id": "10edd80cf1ed8dcc513125230464e270", "name": "10edd80cf1ed8dcc513125230464e270", "is_reserved": 0, "fusion_lat": 0.0}, {"type": "electric_scooter", "rental_uris": {"ios": "https://dc.lft.to/lastmile_qr_scan", "android": "https://dc.lft.to/lastmile_qr_scan"}, "lon": -77.03892316666666, "fusion_lon": 0.0, "is_disabled": 0, "lat": 38.91706766666667, "bike_id": "4df6ebf8804fbcb7adfbd9f01ff89871", "name": "4df6ebf8804fbcb7adfbd9f01ff89871", "is_reserved": 0, "fusion_lat": 0.0}, {"type": "electric_scooter", "rental_uris": {"ios": "https://dc.lft.to/lastmile_qr_scan", "android": "https://dc.lft.to/lastmile_qr_scan"}, "lon": -76.99699616666666, "fusion_lon": 0.0, "is_disabled": 0, "lat": 38.90828283333333, "bike_id": "1934b19795e0d8ff9ac9a8f532ce8a62", "name": "1934b19795e0d8ff9ac9a8f532ce8a62", "is_reserved": 0, "fusion_lat": 0.0}, {"type": "electric_scooter", "rental_uris": {"ios": "https://dc.lft.to/lastmile_qr_scan", "android": "https://dc.lft.to/lastmile_qr_scan"}, "lon": -77.0238445, "fusion_lon": 0.0, "is_disabled": 0, "lat": 38.91291283333333, "bike_id": "b8718e16d94add5f078c5e60d0c13f17", "name": "b8718e16d94add5f078c5e60d0c13f17", "is_reserved": 0, "fusion_lat": 0.0}, {"type": "electric_scooter", "rental_uris": {"ios": "https://dc.lft.to/lastmile_qr_scan", "android": "https://dc.lft.to/lastmile_qr_scan"}, "lon": -77.0341475, "fusion_lon": 0.0, "is_disabled": 0, "lat": 38.90799066666666, "bike_id": "985ab60561eb23ac2d4d801da726ece2", "name": "985ab60561eb23ac2d4d801da726ece2", "is_reserved": 0, "fusion_lat": 0.0}, {"type": "electric_bike", "rental_uris": {"ios": "https://dc.lft.to/lastmile_qr_scan", "android": "https://dc.lft.to/lastmile_qr_scan"}, "lon": -77.20840933333334, "fusion_lon": 0.0, "is_disabled": 0, "lat": 38.92467583333333, "bike_id": "f6f01b0c474b3e687a77f3773910d191", "name": "f6f01b0c474b3e687a77f3773910d191", "is_reserved": 0, "fusion_lat": 0.0}, {"type": "electric_scooter", "rental_uris": {"ios": "https://dc.lft.to/lastmile_qr_scan", "android": "https://dc.lft.to/lastmile_qr_scan"}, "lon": -77.03964366666666, "fusion_lon": 0.0, "is_disabled": 0, "lat": 38.919908666666664, "bike_id": "e69dc1ee920927c19a03865a6488a243", "name": "e69dc1ee920927c19a03865a6488a243", "is_reserved": 0, "fusion_lat": 0.0}, {"type": "electric_scooter", "rental_uris": {"ios": "https://dc.lft.to/lastmile_qr_scan", "android": "https://dc.lft.to/lastmile_qr_scan"}, "lon": -77.03398516666667, "fusion_lon": 0.0, "is_disabled": 0, "lat": 38.93135016666667, "bike_id": "94137e65e9c8baef1faba32e91d82dac", "name": "94137e65e9c8baef1faba32e91d82dac", "is_reserved": 0, "fusion_lat": 0.0}, {"type": "electric_scooter", "rental_uris": {"ios": "https://dc.lft.to/lastmile_qr_scan", "android": "https://dc.lft.to/lastmile_qr_scan"}, "lon": -77.0341125, "fusion_lon": 0.0, "is_disabled": 0, "lat": 38.91929, "bike_id": "2540ce62013bf10bf30b537d1ddd2e88", "name": "2540ce62013bf10bf30b537d1ddd2e88", "is_reserved": 0, "fusion_lat": 0.0}, {"type": "electric_scooter", "rental_uris": {"ios": "https://dc.lft.to/lastmile_qr_scan", "android": "https://dc.lft.to/lastmile_qr_scan"}, "lon": -77.04006366666667, "fusion_lon": 0.0, "is_disabled": 0, "lat": 38.90785733333333, "bike_id": "643d8d193ec0f600415a630c8860b500", "name": "643d8d193ec0f600415a630c8860b500", "is_reserved": 0, "fusion_lat": 0.0}, {"type": "electric_bike", "rental_uris": {"ios": "https://dc.lft.to/lastmile_qr_scan", "android": "https://dc.lft.to/lastmile_qr_scan"}, "lon": -76.92487066666666, "fusion_lon": 0.0, "is_disabled": 0, "lat": 38.958964333333334, "bike_id": "2147af82ff68ea2011d774d4011f9a0f", "name": "2147af82ff68ea2011d774d4011f9a0f", "is_reserved": 0, "fusion_lat": 0.0}, {"type": "electric_bike", "rental_uris": {"ios": "https://dc.lft.to/lastmile_qr_scan", "android": "https://dc.lft.to/lastmile_qr_scan"}, "lon": -77.134698, "fusion_lon": 0.0, "is_disabled": 0, "lat": 38.853544666666664, "bike_id": "2f13ae1413c1c9f82e04837fdc52260f", "name": "2f13ae1413c1c9f82e04837fdc52260f", "is_reserved": 0, "fusion_lat": 0.0}, {"type": "electric_scooter", "rental_uris": {"ios": "https://dc.lft.to/lastmile_qr_scan", "android": "https://dc.lft.to/lastmile_qr_scan"}, "lon": -77.033691, "fusion_lon": 0.0, "is_disabled": 0, "lat": 38.88759, "bike_id": "ec9156fde35e37bca17ba0b93d5995be", "name": "ec9156fde35e37bca17ba0b93d5995be", "is_reserved": 0, "fusion_lat": 0.0}, {"type": "electric_scooter", "rental_uris": {"ios": "https://dc.lft.to/lastmile_qr_scan", "android": "https://dc.lft.to/lastmile_qr_scan"}, "lon": -76.93351116666666, "fusion_lon": 0.0, "is_disabled": 0, "lat": 38.899081333333335, "bike_id": "752b3d61382683a96050837ef00c6148", "name": "752b3d61382683a96050837ef00c6148", "is_reserved": 0, "fusion_lat": 0.0}, {"type": "electric_bike", "rental_uris": {"ios": "https://dc.lft.to/lastmile_qr_scan", "android": "https://dc.lft.to/lastmile_qr_scan"}, "lon": -77.08519133333333, "fusion_lon": 0.0, "is_disabled": 0, "lat": 38.88570416666666, "bike_id": "b05bbe1f29906a0a7a951d3f793ed197", "name": "b05bbe1f29906a0a7a951d3f793ed197", "is_reserved": 0, "fusion_lat": 0.0}, {"type": "electric_scooter", "rental_uris": {"ios": "https://dc.lft.to/lastmile_qr_scan", "android": "https://dc.lft.to/lastmile_qr_scan"}, "lon": -77.02413616666666, "fusion_lon": 0.0, "is_disabled": 0, "lat": 38.9073, "bike_id": "3c8fd2f5ef1e23d7668cafeb61b9cb40", "name": "3c8fd2f5ef1e23d7668cafeb61b9cb40", "is_reserved": 0, "fusion_lat": 0.0}, {"type": "electric_bike", "rental_uris": {"ios": "https://dc.lft.to/lastmile_qr_scan", "android": "https://dc.lft.to/lastmile_qr_scan"}, "lon": -76.98053366666667, "fusion_lon": 0.0, "is_disabled": 0, "lat": 38.957400666666665, "bike_id": "e4a8720f9402fc24169af0fb83a0ffd1", "name": "e4a8720f9402fc24169af0fb83a0ffd1", "is_reserved": 0, "fusion_lat": 0.0}, {"type": "electric_scooter", "rental_uris": {"ios": "https://dc.lft.to/lastmile_qr_scan", "android": "https://dc.lft.to/lastmile_qr_scan"}, "lon": -77.04001483333333, "fusion_lon": 0.0, "is_disabled": 0, "lat": 38.91003633333333, "bike_id": "f1e13c287705481c3e0f2db0b89b9c15", "name": "f1e13c287705481c3e0f2db0b89b9c15", "is_reserved": 0, "fusion_lat": 0.0}, {"type": "electric_scooter", "rental_uris": {"ios": "https://dc.lft.to/lastmile_qr_scan", "android": "https://dc.lft.to/lastmile_qr_scan"}, "lon": -77.025007, "fusion_lon": 0.0, "is_disabled": 0, "lat": 38.91808783333333, "bike_id": "4fffa0095dfb690f7cad6e40b6a7746e", "name": "4fffa0095dfb690f7cad6e40b6a7746e", "is_reserved": 0, "fusion_lat": 0.0}, {"type": "electric_scooter", "rental_uris": {"ios": "https://dc.lft.to/lastmile_qr_scan", "android": "https://dc.lft.to/lastmile_qr_scan"}, "lon": -77.0453305, "fusion_lon": 0.0, "is_disabled": 0, "lat": 38.91328433333334, "bike_id": "3be6f844518a0fa39980fb406e708735", "name": "3be6f844518a0fa39980fb406e708735", "is_reserved": 0, "fusion_lat": 0.0}, {"type": "electric_scooter", "rental_uris": {"ios": "https://dc.lft.to/lastmile_qr_scan", "android": "https://dc.lft.to/lastmile_qr_scan"}, "lon": -77.01976916666666, "fusion_lon": 0.0, "is_disabled": 0, "lat": 38.8985745, "bike_id": "1a7a0e07f223d09d2308d96fa27a57c6", "name": "1a7a0e07f223d09d2308d96fa27a57c6", "is_reserved": 0, "fusion_lat": 0.0}, {"type": "electric_scooter", "rental_uris": {"ios": "https://dc.lft.to/lastmile_qr_scan", "android": "https://dc.lft.to/lastmile_qr_scan"}, "lon": -77.03210116666666, "fusion_lon": 0.0, "is_disabled": 0, "lat": 38.908985, "bike_id": "50673728b257254e54859fe85a24e9fa", "name": "50673728b257254e54859fe85a24e9fa", "is_reserved": 0, "fusion_lat": 0.0}, {"type": "electric_scooter", "rental_uris": {"ios": "https://dc.lft.to/lastmile_qr_scan", "android": "https://dc.lft.to/lastmile_qr_scan"}, "lon": -77.00924, "fusion_lon": 0.0, "is_disabled": 0, "lat": 38.89776666666667, "bike_id": "90015a3c87e2a569169f8f6bd75f5545", "name": "90015a3c87e2a569169f8f6bd75f5545", "is_reserved": 0, "fusion_lat": 0.0}, {"type": "electric_scooter", "rental_uris": {"ios": "https://dc.lft.to/lastmile_qr_scan", "android": "https://dc.lft.to/lastmile_qr_scan"}, "lon": -77.01654816666667, "fusion_lon": 0.0, "is_disabled": 0, "lat": 38.91057133333333, "bike_id": "093bdc8a4bf2ae442b7542a1356b6958", "name": "093bdc8a4bf2ae442b7542a1356b6958", "is_reserved": 0, "fusion_lat": 0.0}, {"type": "electric_scooter", "rental_uris": {"ios": "https://dc.lft.to/lastmile_qr_scan", "android": "https://dc.lft.to/lastmile_qr_scan"}, "lon": -77.04341566666666, "fusion_lon": 0.0, "is_disabled": 0, "lat": 38.908085166666666, "bike_id": "bc2fbd258565cc3d27691d92cc6a4ff0", "name": "bc2fbd258565cc3d27691d92cc6a4ff0", "is_reserved": 0, "fusion_lat": 0.0}, {"type": "electric_scooter", "rental_uris": {"ios": "https://dc.lft.to/lastmile_qr_scan", "android": "https://dc.lft.to/lastmile_qr_scan"}, "lon": -77.02272383333333, "fusion_lon": 0.0, "is_disabled": 0, "lat": 38.9166565, "bike_id": "3a8c5a1a5ba537fed2c7a92901ae3b5f", "name": "3a8c5a1a5ba537fed2c7a92901ae3b5f", "is_reserved": 0, "fusion_lat": 0.0}, {"type": "electric_scooter", "rental_uris": {"ios": "https://dc.lft.to/lastmile_qr_scan", "android": "https://dc.lft.to/lastmile_qr_scan"}, "lon": -77.00664483333334, "fusion_lon": 0.0, "is_disabled": 0, "lat": 38.9002365, "bike_id": "5424ce42624e0acc55bf7649b6b508e6", "name": "5424ce42624e0acc55bf7649b6b508e6", "is_reserved": 0, "fusion_lat": 0.0}, {"type": "electric_scooter", "rental_uris": {"ios": "https://dc.lft.to/lastmile_qr_scan", "android": "https://dc.lft.to/lastmile_qr_scan"}, "lon": -77.05270466666667, "fusion_lon": 0.0, "is_disabled": 0, "lat": 38.92546266666667, "bike_id": "bca8d278d15ba29142d6df98ad2612e2", "name": "bca8d278d15ba29142d6df98ad2612e2", "is_reserved": 0, "fusion_lat": 0.0}, {"type": "electric_scooter", "rental_uris": {"ios": "https://dc.lft.to/lastmile_qr_scan", "android": "https://dc.lft.to/lastmile_qr_scan"}, "lon": -77.0423265, "fusion_lon": 0.0, "is_disabled": 0, "lat": 38.922009, "bike_id": "be359cd8ee251a3c0f3366bb6092916a", "name": "be359cd8ee251a3c0f3366bb6092916a", "is_reserved": 0, "fusion_lat": 0.0}, {"type": "electric_scooter", "rental_uris": {"ios": "https://dc.lft.to/lastmile_qr_scan", "android": "https://dc.lft.to/lastmile_qr_scan"}, "lon": -77.05234766666666, "fusion_lon": 0.0, "is_disabled": 0, "lat": 38.92342083333333, "bike_id": "3fd8098a6402f3479dc51eedadc30ae7", "name": "3fd8098a6402f3479dc51eedadc30ae7", "is_reserved": 0, "fusion_lat": 0.0}, {"type": "electric_scooter", "rental_uris": {"ios": "https://dc.lft.to/lastmile_qr_scan", "android": "https://dc.lft.to/lastmile_qr_scan"}, "lon": -77.03294166666667, "fusion_lon": 0.0, "is_disabled": 0, "lat": 38.9563975, "bike_id": "5c36364cbaa8ed4b86b708a6a56d3029", "name": "5c36364cbaa8ed4b86b708a6a56d3029", "is_reserved": 0, "fusion_lat": 0.0}, {"type": "electric_bike", "rental_uris": {"ios": "https://dc.lft.to/lastmile_qr_scan", "android": "https://dc.lft.to/lastmile_qr_scan"}, "lon": -77.133103, "fusion_lon": 0.0, "is_disabled": 0, "lat": 38.88721, "bike_id": "88e178a69ec730393dd159e84f49f93f", "name": "88e178a69ec730393dd159e84f49f93f", "is_reserved": 0, "fusion_lat": 0.0}, {"type": "electric_scooter", "rental_uris": {"ios": "https://dc.lft.to/lastmile_qr_scan", "android": "https://dc.lft.to/lastmile_qr_scan"}, "lon": -76.96015633333333, "fusion_lon": 0.0, "is_disabled": 0, "lat": 38.8801885, "bike_id": "c9bdbe290e42714ddcfc2accdbd2ecda", "name": "c9bdbe290e42714ddcfc2accdbd2ecda", "is_reserved": 0, "fusion_lat": 0.0}, {"type": "electric_scooter", "rental_uris": {"ios": "https://dc.lft.to/lastmile_qr_scan", "android": "https://dc.lft.to/lastmile_qr_scan"}, "lon": -76.98887366666666, "fusion_lon": 0.0, "is_disabled": 0, "lat": 38.86658766666667, "bike_id": "a9c2f2925cf58223a9952c706c973243", "name": "a9c2f2925cf58223a9952c706c973243", "is_reserved": 0, "fusion_lat": 0.0}, {"type": "electric_scooter", "rental_uris": {"ios": "https://dc.lft.to/lastmile_qr_scan", "android": "https://dc.lft.to/lastmile_qr_scan"}, "lon": -76.99509133333333, "fusion_lon": 0.0, "is_disabled": 0, "lat": 38.881919833333335, "bike_id": "fd191571042bcaa9ac03a99ef1cdc183", "name": "fd191571042bcaa9ac03a99ef1cdc183", "is_reserved": 0, "fusion_lat": 0.0}, {"type": "electric_scooter", "rental_uris": {"ios": "https://dc.lft.to/lastmile_qr_scan", "android": "https://dc.lft.to/lastmile_qr_scan"}, "lon": -77.0241485, "fusion_lon": 0.0, "is_disabled": 0, "lat": 38.90613666666667, "bike_id": "df0239529a18ec18a1f841f59e3fe168", "name": "df0239529a18ec18a1f841f59e3fe168", "is_reserved": 0, "fusion_lat": 0.0}, {"type": "electric_scooter", "rental_uris": {"ios": "https://dc.lft.to/lastmile_qr_scan", "android": "https://dc.lft.to/lastmile_qr_scan"}, "lon": -77.02488166666667, "fusion_lon": 0.0, "is_disabled": 0, "lat": 38.94186533333333, "bike_id": "fc0f73fdc32cb76784e36518f2a45f8c", "name": "fc0f73fdc32cb76784e36518f2a45f8c", "is_reserved": 0, "fusion_lat": 0.0}, {"type": "electric_scooter", "rental_uris": {"ios": "https://dc.lft.to/lastmile_qr_scan", "android": "https://dc.lft.to/lastmile_qr_scan"}, "lon": -77.05858683333334, "fusion_lon": 0.0, "is_disabled": 0, "lat": 38.93551516666667, "bike_id": "77aba5f066ddfc3b68abe44b50f0ab42", "name": "77aba5f066ddfc3b68abe44b50f0ab42", "is_reserved": 0, "fusion_lat": 0.0}, {"type": "electric_scooter", "rental_uris": {"ios": "https://dc.lft.to/lastmile_qr_scan", "android": "https://dc.lft.to/lastmile_qr_scan"}, "lon": -77.0458365, "fusion_lon": 0.0, "is_disabled": 0, "lat": 38.91404966666666, "bike_id": "a506618de092cf3498e9b9cc1e6f71a8", "name": "a506618de092cf3498e9b9cc1e6f71a8", "is_reserved": 0, "fusion_lat": 0.0}, {"type": "electric_scooter", "rental_uris": {"ios": "https://dc.lft.to/lastmile_qr_scan", "android": "https://dc.lft.to/lastmile_qr_scan"}, "lon": -77.03155216666667, "fusion_lon": 0.0, "is_disabled": 0, "lat": 38.91561866666667, "bike_id": "eded973c4cdc65c0445d9d4503acb2f3", "name": "eded973c4cdc65c0445d9d4503acb2f3", "is_reserved": 0, "fusion_lat": 0.0}, {"type": "electric_scooter", "rental_uris": {"ios": "https://dc.lft.to/lastmile_qr_scan", "android": "https://dc.lft.to/lastmile_qr_scan"}, "lon": -77.0221285, "fusion_lon": 0.0, "is_disabled": 0, "lat": 38.90574566666667, "bike_id": "2cf6df85658eeb007a5c112e4e44c1b1", "name": "2cf6df85658eeb007a5c112e4e44c1b1", "is_reserved": 0, "fusion_lat": 0.0}, {"type": "electric_scooter", "rental_uris": {"ios": "https://dc.lft.to/lastmile_qr_scan", "android": "https://dc.lft.to/lastmile_qr_scan"}, "lon": -77.03260916666666, "fusion_lon": 0.0, "is_disabled": 0, "lat": 38.934099833333335, "bike_id": "7cea2025c9b123d32566daffda5518bc", "name": "7cea2025c9b123d32566daffda5518bc", "is_reserved": 0, "fusion_lat": 0.0}, {"type": "electric_scooter", "rental_uris": {"ios": "https://dc.lft.to/lastmile_qr_scan", "android": "https://dc.lft.to/lastmile_qr_scan"}, "lon": -77.03453283333333, "fusion_lon": 0.0, "is_disabled": 0, "lat": 38.937520666666664, "bike_id": "ecc33ba8bd46e88c898888fc280d0e44", "name": "ecc33ba8bd46e88c898888fc280d0e44", "is_reserved": 0, "fusion_lat": 0.0}, {"type": "electric_bike", "rental_uris": {"ios": "https://dc.lft.to/lastmile_qr_scan", "android": "https://dc.lft.to/lastmile_qr_scan"}, "lon": -77.00217816666667, "fusion_lon": 0.0, "is_disabled": 0, "lat": 38.92848866666667, "bike_id": "93b3006be354bba38c756f61b61fb29f", "name": "93b3006be354bba38c756f61b61fb29f", "is_reserved": 0, "fusion_lat": 0.0}, {"type": "electric_scooter", "rental_uris": {"ios": "https://dc.lft.to/lastmile_qr_scan", "android": "https://dc.lft.to/lastmile_qr_scan"}, "lon": -77.03137933333333, "fusion_lon": 0.0, "is_disabled": 0, "lat": 38.887485, "bike_id": "d9329a355f53b1866a2d8bc202b77466", "name": "d9329a355f53b1866a2d8bc202b77466", "is_reserved": 0, "fusion_lat": 0.0}, {"type": "electric_scooter", "rental_uris": {"ios": "https://dc.lft.to/lastmile_qr_scan", "android": "https://dc.lft.to/lastmile_qr_scan"}, "lon": -77.02411283333333, "fusion_lon": 0.0, "is_disabled": 0, "lat": 38.89750566666667, "bike_id": "6cdd16f32460b665266f81b68096c12c", "name": "6cdd16f32460b665266f81b68096c12c", "is_reserved": 0, "fusion_lat": 0.0}, {"type": "electric_scooter", "rental_uris": {"ios": "https://dc.lft.to/lastmile_qr_scan", "android": "https://dc.lft.to/lastmile_qr_scan"}, "lon": -77.02495683333333, "fusion_lon": 0.0, "is_disabled": 0, "lat": 38.93099816666667, "bike_id": "e02abef6f13143faddbb62d9e7d14029", "name": "e02abef6f13143faddbb62d9e7d14029", "is_reserved": 0, "fusion_lat": 0.0}, {"type": "electric_scooter", "rental_uris": {"ios": "https://dc.lft.to/lastmile_qr_scan", "android": "https://dc.lft.to/lastmile_qr_scan"}, "lon": -77.00118516666667, "fusion_lon": 0.0, "is_disabled": 0, "lat": 38.9124135, "bike_id": "2be3f448bab96ed18810048f7954e064", "name": "2be3f448bab96ed18810048f7954e064", "is_reserved": 0, "fusion_lat": 0.0}, {"type": "electric_scooter", "rental_uris": {"ios": "https://dc.lft.to/lastmile_qr_scan", "android": "https://dc.lft.to/lastmile_qr_scan"}, "lon": -77.06281466666667, "fusion_lon": 0.0, "is_disabled": 0, "lat": 38.94424733333334, "bike_id": "0313912e63edce525c261cc6f7505d13", "name": "0313912e63edce525c261cc6f7505d13", "is_reserved": 0, "fusion_lat": 0.0}, {"type": "electric_scooter", "rental_uris": {"ios": "https://dc.lft.to/lastmile_qr_scan", "android": "https://dc.lft.to/lastmile_qr_scan"}, "lon": -77.0306955, "fusion_lon": 0.0, "is_disabled": 0, "lat": 38.905621, "bike_id": "ea0aa2bb9d19cfeca7e460794c86ba26", "name": "ea0aa2bb9d19cfeca7e460794c86ba26", "is_reserved": 0, "fusion_lat": 0.0}, {"type": "electric_scooter", "rental_uris": {"ios": "https://dc.lft.to/lastmile_qr_scan", "android": "https://dc.lft.to/lastmile_qr_scan"}, "lon": -77.01207633333334, "fusion_lon": 0.0, "is_disabled": 0, "lat": 38.91987066666667, "bike_id": "2438ddb80a600c83bd12fd186afb5fbb", "name": "2438ddb80a600c83bd12fd186afb5fbb", "is_reserved": 0, "fusion_lat": 0.0}, {"type": "electric_scooter", "rental_uris": {"ios": "https://dc.lft.to/lastmile_qr_scan", "android": "https://dc.lft.to/lastmile_qr_scan"}, "lon": -77.02693833333333, "fusion_lon": 0.0, "is_disabled": 0, "lat": 38.906832666666666, "bike_id": "f5deb8ceae4c8c5de31b511bbec1ca2c", "name": "f5deb8ceae4c8c5de31b511bbec1ca2c", "is_reserved": 0, "fusion_lat": 0.0}, {"type": "electric_scooter", "rental_uris": {"ios": "https://dc.lft.to/lastmile_qr_scan", "android": "https://dc.lft.to/lastmile_qr_scan"}, "lon": -77.03349816666666, "fusion_lon": 0.0, "is_disabled": 0, "lat": 38.91722333333333, "bike_id": "dda34e91d3be9a37e853d5e6fbd104c4", "name": "dda34e91d3be9a37e853d5e6fbd104c4", "is_reserved": 0, "fusion_lat": 0.0}, {"type": "electric_scooter", "rental_uris": {"ios": "https://dc.lft.to/lastmile_qr_scan", "android": "https://dc.lft.to/lastmile_qr_scan"}, "lon": -77.040083, "fusion_lon": 0.0, "is_disabled": 0, "lat": 38.93252716666667, "bike_id": "9983b3295d49e47a95db93671b21b7e6", "name": "9983b3295d49e47a95db93671b21b7e6", "is_reserved": 0, "fusion_lat": 0.0}, {"type": "electric_scooter", "rental_uris": {"ios": "https://dc.lft.to/lastmile_qr_scan", "android": "https://dc.lft.to/lastmile_qr_scan"}, "lon": -77.02969616666667, "fusion_lon": 0.0, "is_disabled": 0, "lat": 38.9168515, "bike_id": "36b4ba1044013f2910c8cf3bd45557d1", "name": "36b4ba1044013f2910c8cf3bd45557d1", "is_reserved": 0, "fusion_lat": 0.0}, {"type": "electric_scooter", "rental_uris": {"ios": "https://dc.lft.to/lastmile_qr_scan", "android": "https://dc.lft.to/lastmile_qr_scan"}, "lon": -77.0448035, "fusion_lon": 0.0, "is_disabled": 0, "lat": 38.909530833333335, "bike_id": "b19e7eac83c0e45332a6c09254ae0960", "name": "b19e7eac83c0e45332a6c09254ae0960", "is_reserved": 0, "fusion_lat": 0.0}, {"type": "electric_scooter", "rental_uris": {"ios": "https://dc.lft.to/lastmile_qr_scan", "android": "https://dc.lft.to/lastmile_qr_scan"}, "lon": -77.02201116666667, "fusion_lon": 0.0, "is_disabled": 0, "lat": 38.919194166666664, "bike_id": "ab481bc7671d3aa206a38c20ccd1eb65", "name": "ab481bc7671d3aa206a38c20ccd1eb65", "is_reserved": 0, "fusion_lat": 0.0}, {"type": "electric_scooter", "rental_uris": {"ios": "https://dc.lft.to/lastmile_qr_scan", "android": "https://dc.lft.to/lastmile_qr_scan"}, "lon": -77.0058815, "fusion_lon": 0.0, "is_disabled": 0, "lat": 38.880863833333336, "bike_id": "8c80be7affc13a6c3a817751c671a1f1", "name": "8c80be7affc13a6c3a817751c671a1f1", "is_reserved": 0, "fusion_lat": 0.0}, {"type": "electric_scooter", "rental_uris": {"ios": "https://dc.lft.to/lastmile_qr_scan", "android": "https://dc.lft.to/lastmile_qr_scan"}, "lon": -77.0319165, "fusion_lon": 0.0, "is_disabled": 0, "lat": 38.916838, "bike_id": "7034adcca227d461b947f5f2da3a0f97", "name": "7034adcca227d461b947f5f2da3a0f97", "is_reserved": 0, "fusion_lat": 0.0}, {"type": "electric_scooter", "rental_uris": {"ios": "https://dc.lft.to/lastmile_qr_scan", "android": "https://dc.lft.to/lastmile_qr_scan"}, "lon": -77.05235633333334, "fusion_lon": 0.0, "is_disabled": 0, "lat": 38.92468866666667, "bike_id": "1d7d90a161d950bed91b31491d60ebdb", "name": "1d7d90a161d950bed91b31491d60ebdb", "is_reserved": 0, "fusion_lat": 0.0},