{"data": {"bikes": [{"rental_uris": {"android": "https://dc.lft.to/lastmile_qr_scan", "ios": "https://dc.lft.to/lastmile_qr_scan"}, "is_reserved": 0, "is_disabled": 0, "name": "59b3d59484dd8285b972f6192b48b3ef", "bike_id": "59b3d59484dd8285b972f6192b48b3ef", "fusion_lat": 0.0, "lon": -77.026036, "type": "electric_scooter", "fusion_lon": 0.0, "lat": 38.92389133333333}, {"rental_uris": {"android": "https://dc.lft.to/lastmile_qr_scan", "ios": "https://dc.lft.to/lastmile_qr_scan"}, "is_reserved": 0, "is_disabled": 0, "name": "e38298ee1430d6bb9637d1efcdee3b8d", "bike_id": "e38298ee1430d6bb9637d1efcdee3b8d", "fusion_lat": 0.0, "lon": -77.05411383333333, "type": "electric_scooter", "fusion_lon": 0.0, "lat": 38.90165266666666}, {"rental_uris": {"android": "https://dc.lft.to/lastmile_qr_scan", "ios": "https://dc.lft.to/lastmile_qr_scan"}, "is_reserved": 0, "is_disabled": 0, "name": "1263749c43e9b22b4c6264a3f757c9b1", "bike_id": "1263749c43e9b22b4c6264a3f757c9b1", "fusion_lat": 0.0, "lon": -77.04510616666667, "type": "electric_scooter", "fusion_lon": 0.0, "lat": 38.912819999999996}, {"rental_uris": {"android": "https://dc.lft.to/lastmile_qr_scan", "ios": "https://dc.lft.to/lastmile_qr_scan"}, "is_reserved": 0, "is_disabled": 0, "name": "502be3923623b45b819c84d142c47ce8", "bike_id": "502be3923623b45b819c84d142c47ce8", "fusion_lat": 0.0, "lon": -77.03390616666667, "type": "electric_scooter", "fusion_lon": 0.0, "lat": 38.938528833333336}, {"rental_uris": {"android": "https://dc.lft.to/lastmile_qr_scan", "ios": "https://dc.lft.to/lastmile_qr_scan"}, "is_reserved": 0, "is_disabled": 0, "name": "8a0ecaed4aa177966b4b6a7a0c1de330", "bike_id": "8a0ecaed4aa177966b4b6a7a0c1de330", "fusion_lat": 0.0, "lon": -77.01062183333333, "type": "electric_scooter", "fusion_lon": 0.0, "lat": 38.921234166666665}, {"rental_uris": {"android": "https://dc.lft.to/lastmile_qr_scan", "ios": "https://dc.lft.to/lastmile_qr_scan"}, "is_reserved": 0, "is_disabled": 0, "name": "126b85dfc5e24b27af35712c0a8cd4a6", "bike_id": "126b85dfc5e24b27af35712c0a8cd4a6", "fusion_lat": 0.0, "lon": -76.90748733333334, "type": "electric_bike", "fusion_lon": 0.0, "lat": 38.89626966666667}, {"rental_uris": {"android": "https://dc.lft.to/lastmile_qr_scan", "ios": "https://dc.lft.to/lastmile_qr_scan"}, "is_reserved": 0, "is_disabled": 0, "name": "144cea698ab40cab333745c04cbe881d", "bike_id": "144cea698ab40cab333745c04cbe881d", "fusion_lat": 0.0, "lon": -77.00530916666666, "type": "electric_scooter", "fusion_lon": 0.0, "lat": 38.874684333333335}, {"rental_uris": {"android": "https://dc.lft.to/lastmile_qr_scan", "ios": "https://dc.lft.to/lastmile_qr_scan"}, "is_reserved": 0, "is_disabled": 0, "name": "054b469840f87098ce7323a1c6408f2f", "bike_id": "054b469840f87098ce7323a1c6408f2f", "fusion_lat": 0.0, "lon": -77.02767633333333, "type": "electric_scooter", "fusion_lon": 0.0, "lat": 38.9542135}, {"rental_uris": {"android": "https://dc.lft.to/lastmile_qr_scan", "ios": "https://dc.lft.to/lastmile_qr_scan"}, "is_reserved": 0, "is_disabled": 0, "name": "fcf6abc55324dda326a06f39779ce9c3", "bike_id": "fcf6abc55324dda326a06f39779ce9c3", "fusion_lat": 0.0, "lon": -77.04871783333333, "type": "electric_scooter", "fusion_lon": 0.0, "lat": 38.89327733333333}, {"rental_uris": {"android": "https://dc.lft.to/lastmile_qr_scan", "ios": "https://dc.lft.to/lastmile_qr_scan"}, "is_reserved": 0, "is_disabled": 0, "name": "ce8c9fb83e5413e5475fb7f146ecf4a4", "bike_id": "ce8c9fb83e5413e5475fb7f146ecf4a4", "fusion_lat": 0.0, "lon": -77.02815016666666, "type": "electric_scooter", "fusion_lon": 0.0, "lat": 38.914297}, {"rental_uris": {"android": "https://dc.lft.to/lastmile_qr_scan", "ios": "https://dc.lft.to/lastmile_qr_scan"}, "is_reserved": 0, "is_disabled": 0, "name": "3fcacb2419f780ffbc2790f5b9d6204b", "bike_id": "3fcacb2419f780ffbc2790f5b9d6204b", "fusion_lat": 0.0, "lon": -77.02296183333333, "type": "electric_scooter", "fusion_lon": 0.0, "lat": 38.91793083333334}, {"rental_uris": {"android": "https://dc.lft.to/lastmile_qr_scan", "ios": "https://dc.lft.to/lastmile_qr_scan"}, "is_reserved": 0, "is_disabled": 0, "name": "ca7e7f0cd658f8e9618b6c16b767d203", "bike_id": "ca7e7f0cd658f8e9618b6c16b767d203", "fusion_lat": 0.0, "lon": -77.02805933333333, "type": "electric_scooter", "fusion_lon": 0.0, "lat": 38.930808}, {"rental_uris": {"android": "https://dc.lft.to/lastmile_qr_scan", "ios": "https://dc.lft.to/lastmile_qr_scan"}, "is_reserved": 0, "is_disabled": 0, "name": "a6ce8eb8f85ec400815c97fe874265d9", "bike_id": "a6ce8eb8f85ec400815c97fe874265d9", "fusion_lat": 0.0, "lon": -77.04643233333333, "type": "electric_scooter", "fusion_lon": 0.0, "lat": 38.892219}, {"rental_uris": {"android": "https://dc.lft.to/lastmile_qr_scan", "ios": "https://dc.lft.to/lastmile_qr_scan"}, "is_reserved": 0, "is_disabled": 0, "name": "1584b32bdd503875151e64603bb5c68c", "bike_id": "1584b32bdd503875151e64603bb5c68c", "fusion_lat": 0.0, "lon": -77.02331366666667, "type": "electric_scooter", "fusion_lon": 0.0, "lat": 38.930512}, {"rental_uris": {"android": "https://dc.lft.to/lastmile_qr_scan", "ios": "https://dc.lft.to/lastmile_qr_scan"}, "is_reserved": 0, "is_disabled": 0, "name": "1cd1475febf40b6deec7498b6e9d63ed", "bike_id": "1cd1475febf40b6deec7498b6e9d63ed", "fusion_lat": 0.0, "lon": -77.18307333333334, "type": "electric_bike", "fusion_lon": 0.0, "lat": 38.890880833333334}, {"rental_uris": {"android": "https://dc.lft.to/lastmile_qr_scan", "ios": "https://dc.lft.to/lastmile_qr_scan"}, "is_reserved": 0, "is_disabled": 0, "name": "b770c344fcedb2ec6e3e9de80a761576", "bike_id": "b770c344fcedb2ec6e3e9de80a761576", "fusion_lat": 0.0, "lon": -77.03457566666667, "type": "electric_scooter", "fusion_lon": 0.0, "lat": 38.904466}, {"rental_uris": {"android": "https://dc.lft.to/lastmile_qr_scan", "ios": "https://dc.lft.to/lastmile_qr_scan"}, "is_reserved": 0, "is_disabled": 0, "name": "7b5983f73b05a23ddfb96bdfa68ef898", "bike_id": "7b5983f73b05a23ddfb96bdfa68ef898", "fusion_lat": 0.0, "lon": -77.02867183333333, "type": "electric_scooter", "fusion_lon": 0.0, "lat": 38.912577166666665}, {"rental_uris": {"android": "https://dc.lft.to/lastmile_qr_scan", "ios": "https://dc.lft.to/lastmile_qr_scan"}, "is_reserved": 0, "is_disabled": 0, "name": "555781e589e122e9481485473b54301c", "bike_id": "555781e589e122e9481485473b54301c", "fusion_lat": 0.0, "lon": -77.029524, "type": "electric_scooter", "fusion_lon": 0.0, "lat": 38.9049865}, {"rental_uris": {"android": "https://dc.lft.to/lastmile_qr_scan", "ios": "https://dc.lft.to/lastmile_qr_scan"}, "is_reserved": 0, "is_disabled": 0, "name": "25fd1d01f1909a154ce6e7d436a7b551", "bike_id": "25fd1d01f1909a154ce6e7d436a7b551", "fusion_lat": 0.0, "lon": -76.97349766666666, "type": "electric_bike", "fusion_lon": 0.0, "lat": 38.86568416666667}, {"rental_uris": {"android": "https://dc.lft.to/lastmile_qr_scan", "ios": "https://dc.lft.to/lastmile_qr_scan"}, "is_reserved": 0, "is_disabled": 0, "name": "57e184f4f207137b0965b790077465ae", "bike_id": "57e184f4f207137b0965b790077465ae", "fusion_lat": 0.0, "lon": -77.00065116666667, "type": "electric_scooter", "fusion_lon": 0.0, "lat": 38.881111}, {"rental_uris": {"android": "https://dc.lft.to/lastmile_qr_scan", "ios": "https://dc.lft.to/lastmile_qr_scan"}, "is_reserved": 0, "is_disabled": 0, "name": "5a814d8a659989ef37af090467fa3505", "bike_id": "5a814d8a659989ef37af090467fa3505", "fusion_lat": 0.0, "lon": -77.02801466666666, "type": "electric_scooter", "fusion_lon": 0.0, "lat": 38.89229983333333}, {"rental_uris": {"android": "https://dc.lft.to/lastmile_qr_scan", "ios": "https://dc.lft.to/lastmile_qr_scan"}, "is_reserved": 0, "is_disabled": 0, "name": "b754d464be018da7ba54f2fe4bdf2fe5", "bike_id": "b754d464be018da7ba54f2fe4bdf2fe5", "fusion_lat": 0.0, "lon": -77.04131516666666, "type": "electric_scooter", "fusion_lon": 0.0, "lat": 38.930634833333336}, {"rental_uris": {"android": "https://dc.lft.to/lastmile_qr_scan", "ios": "https://dc.lft.to/lastmile_qr_scan"}, "is_reserved": 0, "is_disabled": 0, "name": "da6743ba218484f4010093cce10449f4", "bike_id": "da6743ba218484f4010093cce10449f4", "fusion_lat": 0.0, "lon": -77.03493033333334, "type": "electric_scooter", "fusion_lon": 0.0, "lat": 38.901226666666666}, {"rental_uris": {"android": "https://dc.lft.to/lastmile_qr_scan", "ios": "https://dc.lft.to/lastmile_qr_scan"}, "is_reserved": 0, "is_disabled": 0, "name": "3688fca83c776bc971489707a88466f1", "bike_id": "3688fca83c776bc971489707a88466f1", "fusion_lat": 0.0, "lon": -77.04329583333333, "type": "electric_scooter", "fusion_lon": 0.0, "lat": 38.90438866666667}, {"rental_uris": {"android": "https://dc.lft.to/lastmile_qr_scan", "ios": "https://dc.lft.to/lastmile_qr_scan"}, "is_reserved": 0, "is_disabled": 0, "name": "e30fe1de4320bc88d14d76aaa1472676", "bike_id": "e30fe1de4320bc88d14d76aaa1472676", "fusion_lat": 0.0, "lon": -77.020135, "type": "electric_scooter", "fusion_lon": 0.0, "lat": 38.9244275}, {"rental_uris": {"android": "https://dc.lft.to/lastmile_qr_scan", "ios": "https://dc.lft.to/lastmile_qr_scan"}, "is_reserved": 0, "is_disabled": 0, "name": "6e899786139a147ab5fc9b77d33ff27d", "bike_id": "6e899786139a147ab5fc9b77d33ff27d", "fusion_lat": 0.0, "lon": -77.03500516666666, "type": "electric_scooter", "fusion_lon": 0.0, "lat": 38.918740666666665}, {"rental_uris": {"android": "https://dc.lft.to/lastmile_qr_scan", "ios": "https://dc.lft.to/lastmile_qr_scan"}, "is_reserved": 0, "is_disabled": 0, "name": "3381425fe6281743779a7bde1a8947bf", "bike_id": "3381425fe6281743779a7bde1a8947bf", "fusion_lat": 0.0, "lon": -77.02447416666666, "type": "electric_scooter", "fusion_lon": 0.0, "lat": 38.92065133333333}, {"rental_uris": {"android": "https://dc.lft.to/lastmile_qr_scan", "ios": "https://dc.lft.to/lastmile_qr_scan"}, "is_reserved": 0, "is_disabled": 0, "name": "6b24a850ba67f7fcfa7623a3377e8174", "bike_id": "6b24a850ba67f7fcfa7623a3377e8174", "fusion_lat": 0.0, "lon": -77.0058435, "type": "electric_scooter", "fusion_lon": 0.0, "lat": 38.8754245}, {"rental_uris": {"android": "https://dc.lft.to/lastmile_qr_scan", "ios": "https://dc.lft.to/lastmile_qr_scan"}, "is_reserved": 0, "is_disabled": 0, "name": "365a90765f7825210dd1595ac5cf6b7c", "bike_id": "365a90765f7825210dd1595ac5cf6b7c", "fusion_lat": 0.0, "lon": -77.0356785, "type": "electric_scooter", "fusion_lon": 0.0, "lat": 38.924828833333336}, {"rental_uris": {"android": "https://dc.lft.to/lastmile_qr_scan", "ios": "https://dc.lft.to/lastmile_qr_scan"}, "is_reserved": 0, "is_disabled": 0, "name": "20bdc428d59bab8e2d14f87f875fa927", "bike_id": "20bdc428d59bab8e2d14f87f875fa927", "fusion_lat": 0.0, "lon": -77.05493066666666, "type": "electric_scooter", "fusion_lon": 0.0, "lat": 38.90842883333333}, {"rental_uris": {"android": "https://dc.lft.to/lastmile_qr_scan", "ios": "https://dc.lft.to/lastmile_qr_scan"}, "is_reserved": 0, "is_disabled": 0, "name": "4a9694fcc33eb2c330234e56dfe34106", "bike_id": "4a9694fcc33eb2c330234e56dfe34106", "fusion_lat": 0.0, "lon": -77.03347483333333, "type": "electric_scooter", "fusion_lon": 0.0, "lat": 38.900236}, {"rental_uris": {"android": "https://dc.lft.to/lastmile_qr_scan", "ios": "https://dc.lft.to/lastmile_qr_scan"}, "is_reserved": 0, "is_disabled": 0, "name": "3dd7638054334b8039e46d4daebe27e6", "bike_id": "3dd7638054334b8039e46d4daebe27e6", "fusion_lat": 0.0, "lon": -76.98217283333334, "type": "electric_bike", "fusion_lon": 0.0, "lat": 38.98509383333333}, {"rental_uris": {"android": "https://dc.lft.to/lastmile_qr_scan", "ios": "https://dc.lft.to/lastmile_qr_scan"}, "is_reserved": 0, "is_disabled": 0, "name": "c8052dbb1cebc7fe4795c8f68e9db3aa", "bike_id": "c8052dbb1cebc7fe4795c8f68e9db3aa", "fusion_lat": 0.0, "lon": -77.017526, "type": "electric_scooter", "fusion_lon": 0.0, "lat": 38.90279433333333}, {"rental_uris": {"android": "https://dc.lft.to/lastmile_qr_scan", "ios": "https://dc.lft.to/lastmile_qr_scan"}, "is_reserved": 0, "is_disabled": 0, "name": "ae67d876308ec7b042af99b50e7f6536", "bike_id": "ae67d876308ec7b042af99b50e7f6536", "fusion_lat": 0.0, "lon": -77.087225, "type": "electric_bike", "fusion_lon": 0.0, "lat": 38.862426}, {"rental_uris": {"android": "https://dc.lft.to/lastmile_qr_scan", "ios": "https://dc.lft.to/lastmile_qr_scan"}, "is_reserved": 0, "is_disabled": 0, "name": "8d9559e10d8bfea32a3280a6fc0ec326", "bike_id": "8d9559e10d8bfea32a3280a6fc0ec326", "fusion_lat": 0.0, "lon": -77.01549616666667, "type": "electric_scooter", "fusion_lon": 0.0, "lat": 38.92788083333333}, {"rental_uris": {"android": "https://dc.lft.to/lastmile_qr_scan", "ios": "https://dc.lft.to/lastmile_qr_scan"}, "is_reserved": 0, "is_disabled": 0, "name": "9c62424c246d921c427287adf981b63b", "bike_id": "9c62424c246d921c427287adf981b63b", "fusion_lat": 0.0, "lon": -77.04870333333334, "type": "electric_scooter", "fusion_lon": 0.0, "lat": 38.910347333333334}, {"rental_uris": {"android": "https://dc.lft.to/lastmile_qr_scan", "ios": "https://dc.lft.to/lastmile_qr_scan"}, "is_reserved": 0, "is_disabled": 0, "name": "e69e82ec9252da1e83b4c59b8217cbe0", "bike_id": "e69e82ec9252da1e83b4c59b8217cbe0", "fusion_lat": 0.0, "lon": -76.98993883333333, "type": "electric_scooter", "fusion_lon": 0.0, "lat": 38.864395}, {"rental_uris": {"android": "https://dc.lft.to/lastmile_qr_scan", "ios": "https://dc.lft.to/lastmile_qr_scan"}, "is_reserved": 0, "is_disabled": 0, "name": "b06f1223fd7ffcc537e033ba6ba709e3", "bike_id": "b06f1223fd7ffcc537e033ba6ba709e3", "fusion_lat": 0.0, "lon": -77.02805616666667, "type": "electric_scooter", "fusion_lon": 0.0, "lat": 38.90559916666667}, {"rental_uris": {"android": "https://dc.lft.to/lastmile_qr_scan", "ios": "https://dc.lft.to/lastmile_qr_scan"}, "is_reserved": 0, "is_disabled": 0, "name": "aba84b4ee74b8150357d8bfb9cc67a2b", "bike_id": "aba84b4ee74b8150357d8bfb9cc67a2b", "fusion_lat": 0.0, "lon": -77.01420283333333, "type": "electric_scooter", "fusion_lon": 0.0, "lat": 38.9057025}, {"rental_uris": {"android": "https://dc.lft.to/lastmile_qr_scan", "ios": "https://dc.lft.to/lastmile_qr_scan"}, "is_reserved": 0, "is_disabled": 0, "name": "ad66e460a08bfe7c9c6f6f740e6059bf", "bike_id": "ad66e460a08bfe7c9c6f6f740e6059bf", "fusion_lat": 0.0, "lon": -77.12929933333334, "type": "electric_bike", "fusion_lon": 0.0, "lat": 38.86576633333333}, {"rental_uris": {"android": "https://dc.lft.to/lastmile_qr_scan", "ios": "https://dc.lft.to/lastmile_qr_scan"}, "is_reserved": 0, "is_disabled": 0, "name": "0493d51f0676d3943adf7b8139ffa1f8", "bike_id": "0493d51f0676d3943adf7b8139ffa1f8", "fusion_lat": 0.0, "lon": -76.92965916666667, "type": "electric_scooter", "fusion_lon": 0.0, "lat": 38.896326333333334}, {"rental_uris": {"android": "https://dc.lft.to/lastmile_qr_scan", "ios": "https://dc.lft.to/lastmile_qr_scan"}, "is_reserved": 0, "is_disabled": 0, "name": "e3c20f77df08b6c03ffbe18681188349", "bike_id": "e3c20f77df08b6c03ffbe18681188349", "fusion_lat": 0.0, "lon": -77.0420235, "type": "electric_scooter", "fusion_lon": 0.0, "lat": 38.920453}, {"rental_uris": {"android": "https://dc.lft.to/lastmile_qr_scan", "ios": "https://dc.lft.to/lastmile_qr_scan"}, "is_reserved": 0, "is_disabled": 0, "name": "845a88b820eb0cbb592cddf26a0824c6", "bike_id": "845a88b820eb0cbb592cddf26a0824c6", "fusion_lat": 0.0, "lon": -77.02494816666666, "type": "electric_scooter", "fusion_lon": 0.0, "lat": 38.920671666666664}, {"rental_uris": {"android": "https://dc.lft.to/lastmile_qr_scan", "ios": "https://dc.lft.to/lastmile_qr_scan"}, "is_reserved": 0, "is_disabled": 0, "name": "07ba45e4790a3e0b44cb83690aec0033", "bike_id": "07ba45e4790a3e0b44cb83690aec0033", "fusion_lat": 0.0, "lon": -77.00333116666667, "type": "electric_scooter", "fusion_lon": 0.0, "lat": 38.88630216666667}, {"rental_uris": {"android": "https://dc.lft.to/lastmile_qr_scan", "ios": "https://dc.lft.to/lastmile_qr_scan"}, "is_reserved": 0, "is_disabled": 0, "name": "5f41b772c65d4335f1125f7a2f5beba6", "bike_id": "5f41b772c65d4335f1125f7a2f5beba6", "fusion_lat": 0.0, "lon": -76.99421033333333, "type": "electric_scooter", "fusion_lon": 0.0, "lat": 38.933434166666665}, {"rental_uris": {"android": "https://dc.lft.to/lastmile_qr_scan", "ios": "https://dc.lft.to/lastmile_qr_scan"}, "is_reserved": 0, "is_disabled": 0, "name": "dba5ba14c703ca038ed636f7d81d6cae", "bike_id": "dba5ba14c703ca038ed636f7d81d6cae", "fusion_lat": 0.0, "lon": -77.07328566666666, "type": "electric_scooter", "fusion_lon": 0.0, "lat": 38.922572833333334}, {"rental_uris": {"android": "https://dc.lft.to/lastmile_qr_scan", "ios": "https://dc.lft.to/lastmile_qr_scan"}, "is_reserved": 0, "is_disabled": 0, "name": "0e57cdaa84e23e9468eb987eaf4b863f", "bike_id": "0e57cdaa84e23e9468eb987eaf4b863f", "fusion_lat": 0.0, "lon": -77.0388355, "type": "electric_scooter", "fusion_lon": 0.0, "lat": 38.9014355}, {"rental_uris": {"android": "https://dc.lft.to/lastmile_qr_scan", "ios": "https://dc.lft.to/lastmile_qr_scan"}, "is_reserved": 0, "is_disabled": 0, "name": "022aa2e20b6f3b10d91b8ba4010cd29f", "bike_id": "022aa2e20b6f3b10d91b8ba4010cd29f", "fusion_lat": 0.0, "lon": -77.0062385, "type": "electric_scooter", "fusion_lon": 0.0, "lat": 38.8717265}, {"rental_uris": {"android": "https://dc.lft.to/lastmile_qr_scan", "ios": "https://dc.lft.to/lastmile_qr_scan"}, "is_reserved": 0, "is_disabled": 0, "name": "6534b9828c5d3c266a96f13e65640ec3", "bike_id": "6534b9828c5d3c266a96f13e65640ec3", "fusion_lat": 0.0, "lon": -77.04480683333334, "type": "electric_scooter", "fusion_lon": 0.0, "lat": 38.902707166666666}, {"rental_uris": {"android": "https://dc.lft.to/lastmile_qr_scan", "ios": "https://dc.lft.to/lastmile_qr_scan"}, "is_reserved": 0, "is_disabled": 0, "name": "e57b1a3d921b7faa77946dd00eedb19b", "bike_id": "e57b1a3d921b7faa77946dd00eedb19b", "fusion_lat": 0.0, "lon": -77.034389, "type": "electric_scooter", "fusion_lon": 0.0, "lat": 38.91803}, {"rental_uris": {"android": "https://dc.lft.to/lastmile_qr_scan", "ios": "https://dc.lft.to/lastmile_qr_scan"}, "is_reserved": 0, "is_disabled": 0, "name": "2b0db6f4b20a400fb1d23cf02480eb24", "bike_id": "2b0db6f4b20a400fb1d23cf02480eb24", "fusion_lat": 0.0, "lon": -76.96093366666666, "type": "electric_scooter", "fusion_lon": 0.0, "lat": 38.91863416666666}, {"rental_uris": {"android": "https://dc.lft.to/lastmile_qr_scan", "ios": "https://dc.lft.to/lastmile_qr_scan"}, "is_reserved": 0, "is_disabled": 0, "name": "80420e6e7f744041f6daf6b4fac08193", "bike_id": "80420e6e7f744041f6daf6b4fac08193", "fusion_lat": 0.0, "lon": -77.02276516666667, "type": "electric_scooter", "fusion_lon": 0.0, "lat": 38.917737}, {"rental_uris": {"android": "https://dc.lft.to/lastmile_qr_scan", "ios": "https://dc.lft.to/lastmile_qr_scan"}, "is_reserved": 0, "is_disabled": 0, "name": "a7b925a77b188dbab54074fe43124aaf", "bike_id": "a7b925a77b188dbab54074fe43124aaf", "fusion_lat": 0.0, "lon": -77.04409883333334, "type": "electric_scooter", "fusion_lon": 0.0, "lat": 38.895929333333335}, {"rental_uris": {"android": "https://dc.lft.to/lastmile_qr_scan", "ios": "https://dc.lft.to/lastmile_qr_scan"}, "is_reserved": 0, "is_disabled": 0, "name": "cd1ba6cb5fae6c1e52b7645329543b99", "bike_id": "cd1ba6cb5fae6c1e52b7645329543b99", "fusion_lat": 0.0, "lon": -77.04864383333333, "type": "electric_scooter", "fusion_lon": 0.0, "lat": 38.919736}, {"rental_uris": {"android": "https://dc.lft.to/lastmile_qr_scan", "ios": "https://dc.lft.to/lastmile_qr_scan"}, "is_reserved": 0, "is_disabled": 0, "name": "cf0dd61578849a3dac97c9d7c633bbac", "bike_id": "cf0dd61578849a3dac97c9d7c633bbac", "fusion_lat": 0.0, "lon": -77.09457766666667, "type": "electric_bike", "fusion_lon": 0.0, "lat": 38.8075725}, {"rental_uris": {"android": "https://dc.lft.to/lastmile_qr_scan", "ios": "https://dc.lft.to/lastmile_qr_scan"}, "is_reserved": 0, "is_disabled": 0, "name": "01cdecd3aa3c7ee8ac30227fd5fc0533", "bike_id": "01cdecd3aa3c7ee8ac30227fd5fc0533", "fusion_lat": 0.0, "lon": -77.0214875, "type": "electric_scooter", "fusion_lon": 0.0, "lat": 38.92744283333333}, {"rental_uris": {"android": "https://dc.lft.to/lastmile_qr_scan", "ios": "https://dc.lft.to/lastmile_qr_scan"}, "is_reserved": 0, "is_disabled": 0, "name": "f7c02934b2ee5009a6281fc731cfb4cc", "bike_id": "f7c02934b2ee5009a6281fc731cfb4cc", "fusion_lat": 0.0, "lon": -77.07630083333333, "type": "electric_scooter", "fusion_lon": 0.0, "lat": 38.925261166666665}, {"rental_uris": {"android": "https://dc.lft.to/lastmile_qr_scan", "ios": "https://dc.lft.to/lastmile_qr_scan"}, "is_reserved": 0, "is_disabled": 0, "name": "d8f70be144661d1d5130dab2dbcecb41", "bike_id": "d8f70be144661d1d5130dab2dbcecb41", "fusion_lat": 0.0, "lon": -76.92923566666667, "type": "electric_scooter", "fusion_lon": 0.0, "lat": 38.89206933333333}, {"rental_uris": {"android": "https://dc.lft.to/lastmile_qr_scan", "ios": "https://dc.lft.to/lastmile_qr_scan"}, "is_reserved": 0, "is_disabled": 0, "name": "8164a1d8cf2ba687c473cd9918923ea3", "bike_id": "8164a1d8cf2ba687c473cd9918923ea3", "fusion_lat": 0.0, "lon": -77.0514515, "type": "electric_scooter", "fusion_lon": 0.0, "lat": 38.906327166666664}, {"rental_uris": {"android": "https://dc.lft.to/lastmile_qr_scan", "ios": "https://dc.lft.to/lastmile_qr_scan"}, "is_reserved": 0, "is_disabled": 0, "name": "7b93088b02366a5344bf31ed15d33ef8", "bike_id": "7b93088b02366a5344bf31ed15d33ef8", "fusion_lat": 0.0, "lon": -77.00894566666666, "type": "electric_scooter", "fusion_lon": 0.0, "lat": 38.909745}, {"rental_uris": {"android": "https://dc.lft.to/lastmile_qr_scan", "ios": "https://dc.lft.to/lastmile_qr_scan"}, "is_reserved": 0, "is_disabled": 0, "name": "1334b58d085de299edbf5413c29840be", "bike_id": "1334b58d085de299edbf5413c29840be", "fusion_lat": 0.0, "lon": -77.02268666666667, "type": "electric_scooter", "fusion_lon": 0.0, "lat": 38.899768}, {"rental_uris": {"android": "https://dc.lft.to/lastmile_qr_scan", "ios": "https://dc.lft.to/lastmile_qr_scan"}, "is_reserved": 0, "is_disabled": 0, "name": "3769d68e6feb9ce0290dd2ce1b626c24", "bike_id": "3769d68e6feb9ce0290dd2ce1b626c24", "fusion_lat": 0.0, "lon": -77.021991, "type": "electric_scooter", "fusion_lon": 0.0, "lat": 38.911255}, {"rental_uris": {"android": "https://dc.lft.to/lastmile_qr_scan", "ios": "https://dc.lft.to/lastmile_qr_scan"}, "is_reserved": 0, "is_disabled": 0, "name": "f281310b7eca3810367379ded0fe2be1", "bike_id": "f281310b7eca3810367379ded0fe2be1", "fusion_lat": 0.0, "lon": -77.03696816666667, "type": "electric_scooter", "fusion_lon": 0.0, "lat": 38.93664883333334}, {"rental_uris": {"android": "https://dc.lft.to/lastmile_qr_scan", "ios": "https://dc.lft.to/lastmile_qr_scan"}, "is_reserved": 0, "is_disabled": 0, "name": "1e24682bd7d446b220d5719b9ebca717", "bike_id": "1e24682bd7d446b220d5719b9ebca717", "fusion_lat": 0.0, "lon": -77.0507835, "type": "electric_scooter", "fusion_lon": 0.0, "lat": 38.903540166666666}, {"rental_uris": {"android": "https://dc.lft.to/lastmile_qr_scan", "ios": "https://dc.lft.to/lastmile_qr_scan"}, "is_reserved": 0, "is_disabled": 0, "name": "738bceef2695a0cbefa1e07ad106dad5", "bike_id": "738bceef2695a0cbefa1e07ad106dad5", "fusion_lat": 0.0, "lon": -77.05995633333333, "type": "electric_scooter", "fusion_lon": 0.0, "lat": 38.902371}, {"rental_uris": {"android": "https://dc.lft.to/lastmile_qr_scan", "ios": "https://dc.lft.to/lastmile_qr_scan"}, "is_reserved": 0, "is_disabled": 0, "name": "16381aa440e02f6e23e3895d4d30f666", "bike_id": "16381aa440e02f6e23e3895d4d30f666", "fusion_lat": 0.0, "lon": -77.02573366666667, "type": "electric_scooter", "fusion_lon": 0.0, "lat": 38.92110816666667}, {"rental_uris": {"android": "https://dc.lft.to/lastmile_qr_scan", "ios": "https://dc.lft.to/lastmile_qr_scan"}, "is_reserved": 0, "is_disabled": 0, "name": "252100ed2b7ccd42362f21318a052969", "bike_id": "252100ed2b7ccd42362f21318a052969", "fusion_lat": 0.0, "lon": -77.0199665, "type": "electric_scooter", "fusion_lon": 0.0, "lat": 38.9136495}, {"rental_uris": {"android": "https://dc.lft.to/lastmile_qr_scan", "ios": "https://dc.lft.to/lastmile_qr_scan"}, "is_reserved": 0, "is_disabled": 0, "name": "39b9df110fe6f28622177cbb6d347f7e", "bike_id": "39b9df110fe6f28622177cbb6d347f7e", "fusion_lat": 0.0, "lon": -77.03830933333333, "type": "electric_scooter", "fusion_lon": 0.0, "lat": 38.90988466666667}, {"rental_uris": {"android": "https://dc.lft.to/lastmile_qr_scan", "ios": "https://dc.lft.to/lastmile_qr_scan"}, "is_reserved": 0, "is_disabled": 0, "name": "c5fe97f05fbe6618a772a1c8b3bca9c7", "bike_id": "c5fe97f05fbe6618a772a1c8b3bca9c7", "fusion_lat": 0.0, "lon": -77.068516, "type": "electric_scooter", "fusion_lon": 0.0, "lat": 38.904044999999996}, {"rental_uris": {"android": "https://dc.lft.to/lastmile_qr_scan", "ios": "https://dc.lft.to/lastmile_qr_scan"}, "is_reserved": 0, "is_disabled": 0, "name": "f78aa9e536a4e001ba4c2f77110a9fa0", "bike_id": "f78aa9e536a4e001ba4c2f77110a9fa0", "fusion_lat": 0.0, "lon": -77.02898233333333, "type": "electric_scooter", "fusion_lon": 0.0, "lat": 38.9164365}, {"rental_uris": {"android": "https://dc.lft.to/lastmile_qr_scan", "ios": "https://dc.lft.to/lastmile_qr_scan"}, "is_reserved": 0, "is_disabled": 0, "name": "eb9542ca96724287f6c5d37d2fe857ac", "bike_id": "eb9542ca96724287f6c5d37d2fe857ac", "fusion_lat": 0.0, "lon": -76.988588, "type": "electric_scooter", "fusion_lon": 0.0, "lat": 38.844181166666665}, {"rental_uris": {"android": "https://dc.lft.to/lastmile_qr_scan", "ios": "https://dc.lft.to/lastmile_qr_scan"}, "is_reserved": 0, "is_disabled": 0, "name": "a1e62f7bfc2e1d93660c5b1d742f9317", "bike_id": "a1e62f7bfc2e1d93660c5b1d742f9317", "fusion_lat": 0.0, "lon": -77.03318666666667, "type": "electric_scooter", "fusion_lon": 0.0, "lat": 38.924517}, {"rental_uris": {"android": "https://dc.lft.to/lastmile_qr_scan", "ios": "https://dc.lft.to/lastmile_qr_scan"}, "is_reserved": 0, "is_disabled": 0, "name": "11f00ca13440a03f42ffdc58700ec88d", "bike_id": "11f00ca13440a03f42ffdc58700ec88d", "fusion_lat": 0.0, "lon": -77.05886766666667, "type": "electric_scooter", "fusion_lon": 0.0, "lat": 38.936128833333335}, {"rental_uris": {"android": "https://dc.lft.to/lastmile_qr_scan", "ios": "https://dc.lft.to/lastmile_qr_scan"}, "is_reserved": 0, "is_disabled": 0, "name": "f231cf45374b4fb2a12a57ca7ffe611a", "bike_id": "f231cf45374b4fb2a12a57ca7ffe611a", "fusion_lat": 0.0, "lon": -77.02590766666667, "type": "electric_scooter", "fusion_lon": 0.0, "lat": 38.9070575}, {"rental_uris": {"android": "https://dc.lft.to/lastmile_qr_scan", "ios": "https://dc.lft.to/lastmile_qr_scan"}, "is_reserved": 0, "is_disabled": 0, "name": "da92a0c057820d96d8012f9279899ff7", "bike_id": "da92a0c057820d96d8012f9279899ff7", "fusion_lat": 0.0, "lon": -76.98822, "type": "electric_bike", "fusion_lon": 0.0, "lat": 38.84281283333333}, {"rental_uris": {"android": "https://dc.lft.to/lastmile_qr_scan", "ios": "https://dc.lft.to/lastmile_qr_scan"}, "is_reserved": 0, "is_disabled": 0, "name": "e6049b895b805e547873a672f0614647", "bike_id": "e6049b895b805e547873a672f0614647", "fusion_lat": 0.0, "lon": -77.03331366666667, "type": "electric_scooter", "fusion_lon": 0.0, "lat": 38.935126}, {"rental_uris": {"android": "https://dc.lft.to/lastmile_qr_scan", "ios": "https://dc.lft.to/lastmile_qr_scan"}, "is_reserved": 0, "is_disabled": 0, "name": "dda8f46e1b27ff7118d54a543ae73032", "bike_id": "dda8f46e1b27ff7118d54a543ae73032", "fusion_lat": 0.0, "lon": -77.005918, "type": "electric_scooter", "fusion_lon": 0.0, "lat": 38.879233166666666}, {"rental_uris": {"android": "https://dc.lft.to/lastmile_qr_scan", "ios": "https://dc.lft.to/lastmile_qr_scan"}, "is_reserved": 0, "is_disabled": 0, "name": "92c8dafc1a552529b574fd1b6d3587df", "bike_id": "92c8dafc1a552529b574fd1b6d3587df", "fusion_lat": 0.0, "lon": -77.0268555, "type": "electric_scooter", "fusion_lon": 0.0, "lat": 38.895612}, {"rental_uris": {"android": "https://dc.lft.to/lastmile_qr_scan", "ios": "https://dc.lft.to/lastmile_qr_scan"}, "is_reserved": 0, "is_disabled": 0, "name": "6e81cf4cdec9f918880f143a8bf95604", "bike_id": "6e81cf4cdec9f918880f143a8bf95604", "fusion_lat": 0.0, "lon": -76.99844733333333, "type": "electric_scooter", "fusion_lon": 0.0, "lat": 38.891887}, {"rental_uris": {"android": "https://dc.lft.to/lastmile_qr_scan", "ios": "https://dc.lft.to/lastmile_qr_scan"}, "is_reserved": 0, "is_disabled": 0, "name": "cb7777e7faa30573f17ecd2dab474d8f", "bike_id": "cb7777e7faa30573f17ecd2dab474d8f", "fusion_lat": 0.0, "lon": -77.02478283333333, "type": "electric_scooter", "fusion_lon": 0.0, "lat": 38.93868633333334}, {"rental_uris": {"android": "https://dc.lft.to/lastmile_qr_scan", "ios": "https://dc.lft.to/lastmile_qr_scan"}, "is_reserved": 0, "is_disabled": 0, "name": "8891a565df558b5ffc93e9c0edf8f5ae", "bike_id": "8891a565df558b5ffc93e9c0edf8f5ae", "fusion_lat": 0.0, "lon": -77.02470433333333, "type": "electric_scooter", "fusion_lon": 0.0, "lat": 38.938569333333334}, {"rental_uris": {"android": "https://dc.lft.to/lastmile_qr_scan", "ios": "https://dc.lft.to/lastmile_qr_scan"}, "is_reserved": 0, "is_disabled": 0, "name": "afb859a58006603fdc65ab29b348c4c0", "bike_id": "afb859a58006603fdc65ab29b348c4c0", "fusion_lat": 0.0, "lon": -77.02976266666667, "type": "electric_scooter", "fusion_lon": 0.0, "lat": 38.932551833333335}, {"rental_uris": {"android": "https://dc.lft.to/lastmile_qr_scan", "ios": "https://dc.lft.to/lastmile_qr_scan"}, "is_reserved": 0, "is_disabled": 0, "name": "c95f3a068bc35fc97ddf07133a3fd374", "bike_id": "c95f3a068bc35fc97ddf07133a3fd374", "fusion_lat": 0.0, "lon": -77.052681, "type": "electric_bike", "fusion_lon": 0.0, "lat": 38.94089133333333}, {"rental_uris": {"android": "https://dc.lft.to/lastmile_qr_scan", "ios": "https://dc.lft.to/lastmile_qr_scan"}, "is_reserved": 0, "is_disabled": 0, "name": "949a2c894902460ce960dbce431efb05", "bike_id": "949a2c894902460ce960dbce431efb05", "fusion_lat": 0.0, "lon": -77.032613, "type": "electric_scooter", "fusion_lon": 0.0, "lat": 38.9352935}, {"rental_uris": {"android": "https://dc.lft.to/lastmile_qr_scan", "ios": "https://dc.lft.to/lastmile_qr_scan"}, "is_reserved": 0, "is_disabled": 0, "name": "216a20319dc2e5add8831b1ca600cfd2", "bike_id": "216a20319dc2e5add8831b1ca600cfd2", "fusion_lat": 0.0, "lon": -77.011635, "type": "electric_scooter", "fusion_lon": 0.0, "lat": 38.917045}, {"rental_uris": {"android": "https://dc.lft.to/lastmile_qr_scan", "ios": "https://dc.lft.to/lastmile_qr_scan"}, "is_reserved": 0, "is_disabled": 0, "name": "bb40024c3431ba0a8836b188a64132fc", "bike_id": "bb40024c3431ba0a8836b188a64132fc", "fusion_lat": 0.0, "lon": -77.03787483333333, "type": "electric_bike", "fusion_lon": 0.0, "lat": 38.996901333333334}, {"rental_uris": {"android": "https://dc.lft.to/lastmile_qr_scan", "ios": "https://dc.lft.to/lastmile_qr_scan"}, "is_reserved": 0, "is_disabled": 0, "name": "2fdab882f9caf7258eb781a4ba3172fe", "bike_id": "2fdab882f9caf7258eb781a4ba3172fe", "fusion_lat": 0.0, "lon": -77.00715566666666, "type": "electric_bike", "fusion_lon": 0.0, "lat": 38.995076833333336}, {"rental_uris": {"android": "https://dc.lft.to/lastmile_qr_scan", "ios": "https://dc.lft.to/lastmile_qr_scan"}, "is_reserved": 0, "is_disabled": 0, "name": "f01031fe1f93f9772d75ef29cf37f6e2", "bike_id": "f01031fe1f93f9772d75ef29cf37f6e2", "fusion_lat": 0.0, "lon": -77.02795733333333, "type": "electric_scooter", "fusion_lon": 0.0, "lat": 38.91675816666667}, {"rental_uris": {"android": "https://dc.lft.to/lastmile_qr_scan", "ios": "https://dc.lft.to/lastmile_qr_scan"}, "is_reserved": 0, "is_disabled": 0, "name": "552dc9be6b5ce5307d9b804ce39ba2fc", "bike_id": "552dc9be6b5ce5307d9b804ce39ba2fc", "fusion_lat": 0.0, "lon": -77.0520715, "type": "electric_scooter", "fusion_lon": 0.0, "lat": 38.924897333333334}, {"rental_uris": {"android": "https://dc.lft.to/lastmile_qr_scan", "ios": "https://dc.lft.to/lastmile_qr_scan"}, "is_reserved": 0, "is_disabled": 0, "name": "a30f9b43763b9ea9e59b0bdd5163ebf3", "bike_id": "a30f9b43763b9ea9e59b0bdd5163ebf3", "fusion_lat": 0.0, "lon": -77.02612066666667, "type": "electric_scooter", "fusion_lon": 0.0, "lat": 38.920357833333334}, {"rental_uris": {"android": "https://dc.lft.to/lastmile_qr_scan", "ios": "https://dc.lft.to/lastmile_qr_scan"}, "is_reserved": 0, "is_disabled": 0, "name": "0b2bd60fb89ee6ecdfb5ac4c67b1c11f", "bike_id": "0b2bd60fb89ee6ecdfb5ac4c67b1c11f", "fusion_lat": 0.0, "lon": -77.02857866666666, "type": "electric_scooter", "fusion_lon": 0.0, "lat": 38.93530483333333}, {"rental_uris": {"android": "https://dc.lft.to/lastmile_qr_scan", "ios": "https://dc.lft.to/lastmile_qr_scan"}, "is_reserved": 0, "is_disabled": 0, "name": "c29918f156926ade0d8c484445f2f9de", "bike_id": "c29918f156926ade0d8c484445f2f9de", "fusion_lat": 0.0, "lon": -77.05130966666667, "type": "electric_scooter", "fusion_lon": 0.0, "lat": 38.9064395}, {"rental_uris": {"android": "https://dc.lft.to/lastmile_qr_scan", "ios": "https://dc.lft.to/lastmile_qr_scan"}, "is_reserved": 0, "is_disabled": 0, "name": "029a12e2b7b9e937343c2d8896804534", "bike_id": "029a12e2b7b9e937343c2d8896804534", "fusion_lat": 0.0, "lon": -77.00573016666667, "type": "electric_scooter", "fusion_lon": 0.0, "lat": 38.87535333333334}, {"rental_uris": {"android": "https://dc.lft.to/lastmile_qr_scan", "ios": "https://dc.lft.to/lastmile_qr_scan"}, "is_reserved": 0, "is_disabled": 0, "name": "9cda9364dcdb1328f540e96340135b49", "bike_id": "9cda9364dcdb1328f540e96340135b49", "fusion_lat": 0.0, "lon": -77.03240366666667, "type": "electric_scooter", "fusion_lon": 0.0, "lat": 38.916144333333335}, {"rental_uris": {"android": "https://dc.lft.to/lastmile_qr_scan", "ios": "https://dc.lft.to/lastmile_qr_scan"}, "is_reserved": 0, "is_disabled": 0, "name": "e4576c13883a875b5a561b84f73eba78", "bike_id": "e4576c13883a875b5a561b84f73eba78", "fusion_lat": 0.0, "lon": -77.023269, "type": "electric_scooter", "fusion_lon": 0.0, "lat": 38.916836333333336}, {"rental_uris": {"android": "https://dc.lft.to/lastmile_qr_scan", "ios": "https://dc.lft.to/lastmile_qr_scan"}, "is_reserved": 0, "is_disabled": 0, "name": "5614515ae818e8adad627a49f3a199c0", "bike_id": "5614515ae818e8adad627a49f3a199c0", "fusion_lat": 0.0, "lon": -77.0332955, "type": "electric_scooter", "fusion_lon": 0.0, "lat": 38.90017983333333}, {"rental_uris": {"android": "https://dc.lft.to/lastmile_qr_scan", "ios": "https://dc.lft.to/lastmile_qr_scan"}, "is_reserved": 0, "is_disabled": 0, "name": "f04ed5aeb8a6a24633223a57595227a4", "bike_id": "f04ed5aeb8a6a24633223a57595227a4", "fusion_lat": 0.0, "lon": -77.0214265, "type": "electric_scooter", "fusion_lon": 0.0, "lat": 38.90487366666667}, {"rental_uris": {"android": "https://dc.lft.to/lastmile_qr_scan", "ios": "https://dc.lft.to/lastmile_qr_scan"}, "is_reserved": 0, "is_disabled": 0, "name": "9c2980e7588eca5e7a65d5a32f5a6149", "bike_id": "9c2980e7588eca5e7a65d5a32f5a6149", "fusion_lat": 0.0, "lon": -77.04336066666667, "type": "electric_scooter", "fusion_lon": 0.0, "lat": 38.912989833333334}, {"rental_uris": {"android": "https://dc.lft.to/lastmile_qr_scan", "ios": "https://dc.lft.to/lastmile_qr_scan"}, "is_reserved": 0, "is_disabled": 0, "name": "535881622287639e6b6272106a6366ca", "bike_id": "535881622287639e6b6272106a6366ca", "fusion_lat": 0.0, "lon": -77.02661966666666, "type": "electric_scooter", "fusion_lon": 0.0, "lat": 38.92174383333333}, {"rental_uris": {"android": "https://dc.lft.to/lastmile_qr_scan", "ios": "https://dc.lft.to/lastmile_qr_scan"}, "is_reserved": 0, "is_disabled": 0, "name": "7dcc1372732e3281fbdb951db89c60ff", "bike_id": "7dcc1372732e3281fbdb951db89c60ff", "fusion_lat": 0.0, "lon": -77.020983, "type": "electric_scooter", "fusion_lon": 0.0, "lat": 38.92719266666667}, {"rental_uris": {"android": "https://dc.lft.to/lastmile_qr_scan", "ios": "https://dc.lft.to/lastmile_qr_scan"}, "is_reserved": 0, "is_disabled": 0, "name": "f55f00fed45231e0c77b0cc21fa48418", "bike_id": "f55f00fed45231e0c77b0cc21fa48418", "fusion_lat": 0.0, "lon": -77.02697016666667, "type": "electric_scooter", "fusion_lon": 0.0, "lat": 38.949825833333335}, {"rental_uris": {"android": "https://dc.lft.to/lastmile_qr_scan", "ios": "https://dc.lft.to/lastmile_qr_scan"}, "is_reserved": 0, "is_disabled": 0, "name": "dce8ab82deb55474242044bbec7fbf61", "bike_id": "dce8ab82deb55474242044bbec7fbf61", "fusion_lat": 0.0, "lon": -76.984967, "type": "electric_scooter", "fusion_lon": 0.0, "lat": 38.86062183333333}, {"rental_uris": {"android": "https://dc.lft.to/lastmile_qr_scan", "ios": "https://dc.lft.to/lastmile_qr_scan"}, "is_reserved": 0, "is_disabled": 0, "name": "d513b3cb38541b4f8354e165948ef7a6", "bike_id": "d513b3cb38541b4f8354e165948ef7a6", "fusion_lat": 0.0, "lon": -77.032614, "type": "electric_scooter", "fusion_lon": 0.0, "lat": 38.9341515}, {"rental_uris": {"android": "https://dc.lft.to/lastmile_qr_scan", "ios": "https://dc.lft.to/lastmile_qr_scan"}, "is_reserved": 0, "is_disabled": 0, "name": "1e33ecefea2453775b81428d016adeb3", "bike_id": "1e33ecefea2453775b81428d016adeb3", "fusion_lat": 0.0, "lon": -77.03353733333333, "type": "electric_scooter", "fusion_lon": 0.0, "lat": 38.90282833333333}, {"rental_uris": {"android": "https://dc.lft.to/lastmile_qr_scan", "ios": "https://dc.lft.to/lastmile_qr_scan"}, "is_reserved": 0, "is_disabled": 0, "name": "096467da396ee65f045bb5c4be9de0dd", "bike_id": "096467da396ee65f045bb5c4be9de0dd", "fusion_lat": 0.0, "lon": -77.03208, "type": "electric_scooter", "fusion_lon": 0.0, "lat": 38.91933316666667}, {"rental_uris": {"android": "https://dc.lft.to/lastmile_qr_scan", "ios": "https://dc.lft.to/lastmile_qr_scan"}, "is_reserved": 0, "is_disabled": 0, "name": "007afe56d2493dc846ea6f34c1c8af99", "bike_id": "007afe56d2493dc846ea6f34c1c8af99", "fusion_lat": 0.0, "lon": -77.045593, "type": "electric_scooter", "fusion_lon": 0.0, "lat": 38.903834833333335}, {"rental_uris": {"android": "https://dc.lft.to/lastmile_qr_scan", "ios": "https://dc.lft.to/lastmile_qr_scan"}, "is_reserved": 0, "is_disabled": 0, "name": "55a7e5d5942988e37bb5822ee0029807", "bike_id": "55a7e5d5942988e37bb5822ee0029807", "fusion_lat": 0.0, "lon": -77.03851116666667, "type": "electric_scooter", "fusion_lon": 0.0, "lat": 38.916601}, {"rental_uris": {"android": "https://dc.lft.to/lastmile_qr_scan", "ios": "https://dc.lft.to/lastmile_qr_scan"}, "is_reserved": 0, "is_disabled": 0, "name": "03df39b4f6a03de872e7e54dabf726ff", "bike_id": "03df39b4f6a03de872e7e54dabf726ff", "fusion_lat": 0.0, "lon": -77.04363766666667, "type": "electric_scooter", "fusion_lon": 0.0, "lat": 38.908665166666665}, {"rental_uris": {"android": "https://dc.lft.to/lastmile_qr_scan", "ios": "https://dc.lft.to/lastmile_qr_scan"}, "is_reserved": 0, "is_disabled": 0, "name": "daa4a38e0a33e102ad36015313ee4b02", "bike_id": "daa4a38e0a33e102ad36015313ee4b02", "fusion_lat": 0.0, "lon": -77.02549783333333, "type": "electric_scooter", "fusion_lon": 0.0, "lat": 38.97004883333334}, {"rental_uris": {"android": "https://dc.lft.to/lastmile_qr_scan", "ios": "https://dc.lft.to/lastmile_qr_scan"}, "is_reserved": 0, "is_disabled": 0, "name": "b4e4043acaebf0414915bf915b67ffe3", "bike_id": "b4e4043acaebf0414915bf915b67ffe3", "fusion_lat": 0.0, "lon": -77.02224233333334, "type": "electric_scooter", "fusion_lon": 0.0, "lat": 38.90071616666667}, {"rental_uris": {"android": "https://dc.lft.to/lastmile_qr_scan", "ios": "https://dc.lft.to/lastmile_qr_scan"}, "is_reserved": 0, "is_disabled": 0, "name": "5ef9c28846589e19920959ac8ba5c507", "bike_id": "5ef9c28846589e19920959ac8ba5c507", "fusion_lat": 0.0, "lon": -77.034695, "type": "electric_scooter", "fusion_lon": 0.0, "lat": 38.92868166666667}, {"rental_uris": {"android": "https://dc.lft.to/lastmile_qr_scan", "ios": "https://dc.lft.to/lastmile_qr_scan"}, "is_reserved": 0, "is_disabled": 0, "name": "ff8e24edc7d155bd75a658a37130756e", "bike_id": "ff8e24edc7d155bd75a658a37130756e", "fusion_lat": 0.0, "lon": -77.0145645, "type": "electric_scooter", "fusion_lon": 0.0, "lat": 38.90725333333334}, {"rental_uris": {"android": "https://dc.lft.to/lastmile_qr_scan", "ios": "https://dc.lft.to/lastmile_qr_scan"}, "is_reserved": 0, "is_disabled": 0, "name": "d51fc88d3f2c766135f90294a452e752", "bike_id": "d51fc88d3f2c766135f90294a452e752", "fusion_lat": 0.0, "lon": -76.99871183333333, "type": "electric_scooter", "fusion_lon": 0.0, "lat": 38.9001955}, {"rental_uris": {"android": "https://dc.lft.to/lastmile_qr_scan", "ios": "https://dc.lft.to/lastmile_qr_scan"}, "is_reserved": 0, "is_disabled": 0, "name": "141d37305d6d508addf34081e10352ba", "bike_id": "141d37305d6d508addf34081e10352ba", "fusion_lat": 0.0, "lon": -77.07279933333334, "type": "electric_scooter", "fusion_lon": 0.0, "lat": 38.934801666666665}, {"rental_uris": {"android": "https://dc.lft.to/lastmile_qr_scan", "ios": "https://dc.lft.to/lastmile_qr_scan"}, "is_reserved": 0, "is_disabled": 0, "name": "1d5948693e0358edcf520bdff83810de", "bike_id": "1d5948693e0358edcf520bdff83810de", "fusion_lat": 0.0, "lon": -77.02711116666667, "type": "electric_scooter", "fusion_lon": 0.0, "lat": 38.92463866666667}, {"rental_uris": {"android": "https://dc.lft.to/lastmile_qr_scan", "ios": "https://dc.lft.to/lastmile_qr_scan"}, "is_reserved": 0, "is_disabled": 0, "name": "f133138f7461e4bce85d24e014d1c2d2", "bike_id": "f133138f7461e4bce85d24e014d1c2d2", "fusion_lat": 0.0, "lon": -77.02398116666667, "type": "electric_scooter", "fusion_lon": 0.0, "lat": 38.90969366666667}, {"rental_uris": {"android": "https://dc.lft.to/lastmile_qr_scan", "ios": "https://dc.lft.to/lastmile_qr_scan"}, "is_reserved": 0, "is_disabled": 0, "name": "bde0dfa986f94db515853bcc9e4737d9", "bike_id": "bde0dfa986f94db515853bcc9e4737d9", "fusion_lat": 0.0, "lon": -77.03854, "type": "electric_scooter", "fusion_lon": 0.0, "lat": 38.917169333333334}, {"rental_uris": {"android": "https://dc.lft.to/lastmile_qr_scan", "ios": "https://dc.lft.to/lastmile_qr_scan"}, "is_reserved": 0, "is_disabled": 0, "name": "2b5fa59d51eb002ea84d2f2c311cc9db", "bike_id": "2b5fa59d51eb002ea84d2f2c311cc9db", "fusion_lat": 0.0, "lon": -77.00184266666666, "type": "electric_scooter", "fusion_lon": 0.0, "lat": 38.90864716666667}, {"rental_uris": {"android": "https://dc.lft.to/lastmile_qr_scan", "ios": "https://dc.lft.to/lastmile_qr_scan"}, "is_reserved": 0, "is_disabled": 0, "name": "ba2161d0ec23bc2903b50fd311173aa0", "bike_id": "ba2161d0ec23bc2903b50fd311173aa0", "fusion_lat": 0.0, "lon": -77.02228566666666, "type": "electric_scooter", "fusion_lon": 0.0, "lat": 38.912485}, {"rental_uris": {"android": "https://dc.lft.to/lastmile_qr_scan", "ios": "https://dc.lft.to/lastmile_qr_scan"}, "is_reserved": 0, "is_disabled": 0, "name": "3035d84ba9da1ec60767174af755bc04", "bike_id": "3035d84ba9da1ec60767174af755bc04", "fusion_lat": 0.0, "lon": -77.04475083333334, "type": "electric_scooter", "fusion_lon": 0.0, "lat": 38.902746666666665}, {"rental_uris": {"android": "https://dc.lft.to/lastmile_qr_scan", "ios": "https://dc.lft.to/lastmile_qr_scan"}, "is_reserved": 0, "is_disabled": 0, "name": "0adeb90970db143dff6ed6222cce04b8", "bike_id": "0adeb90970db143dff6ed6222cce04b8", "fusion_lat": 0.0, "lon": -77.03185283333333, "type": "electric_scooter", "fusion_lon": 0.0, "lat": 38.90752066666667}, {"rental_uris": {"android": "https://dc.lft.to/lastmile_qr_scan", "ios": "https://dc.lft.to/lastmile_qr_scan"}, "is_reserved": 0, "is_disabled": 0, "name": "986474d8c03e1a27d97f9cff95c46d84", "bike_id": "986474d8c03e1a27d97f9cff95c46d84", "fusion_lat": 0.0, "lon": -77.03211516666667, "type": "electric_scooter", "fusion_lon": 0.0, "lat": 38.91930116666666}, {"rental_uris": {"android": "https://dc.lft.to/lastmile_qr_scan", "ios": "https://dc.lft.to/lastmile_qr_scan"}, "is_reserved": 0, "is_disabled": 0, "name": "80b2ec4db298b7e1cf06871d25a4a9fe", "bike_id": "80b2ec4db298b7e1cf06871d25a4a9fe", "fusion_lat": 0.0, "lon": -77.02648383333333, "type": "electric_scooter", "fusion_lon": 0.0, "lat": 38.902485}, {"rental_uris": {"android": "https://dc.lft.to/lastmile_qr_scan", "ios": "https://dc.lft.to/lastmile_qr_scan"}, "is_reserved": 0, "is_disabled": 0, "name": "d9e047760a70651b78aac275c26aadd2", "bike_id": "d9e047760a70651b78aac275c26aadd2", "fusion_lat": 0.0, "lon": -77.04645966666666, "type": "electric_bike", "fusion_lon": 0.0, "lat": 38.815465833333334}, {"rental_uris": {"android": "https://dc.lft.to/lastmile_qr_scan", "ios": "https://dc.lft.to/lastmile_qr_scan"}, "is_reserved": 0, "is_disabled": 0, "name": "cfca6b903a48908e9daef347f23b4349", "bike_id": "cfca6b903a48908e9daef347f23b4349", "fusion_lat": 0.0, "lon": -77.040452, "type": "electric_scooter", "fusion_lon": 0.0, "lat": 38.9056225}, {"rental_uris": {"android": "https://dc.lft.to/lastmile_qr_scan", "ios": "https://dc.lft.to/lastmile_qr_scan"}, "is_reserved": 0, "is_disabled": 0, "name": "db69c57a96b096c07053e5d38537688e", "bike_id": "db69c57a96b096c07053e5d38537688e", "fusion_lat": 0.0, "lon": -77.02722766666666, "type": "electric_scooter", "fusion_lon": 0.0, "lat": 38.91807983333333}, {"rental_uris": {"android": "https://dc.lft.to/lastmile_qr_scan", "ios": "https://dc.lft.to/lastmile_qr_scan"}, "is_reserved": 0, "is_disabled": 0, "name": "0e523e642d85d541cd925234dda4d32f", "bike_id": "0e523e642d85d541cd925234dda4d32f", "fusion_lat": 0.0, "lon": -76.98334816666667, "type": "electric_scooter", "fusion_lon": 0.0, "lat": 38.89543616666667}, {"rental_uris": {"android": "https://dc.lft.to/lastmile_qr_scan", "ios": "https://dc.lft.to/lastmile_qr_scan"}, "is_reserved": 0, "is_disabled": 0, "name": "6f585e973a758d381d7e7299647c7b87", "bike_id": "6f585e973a758d381d7e7299647c7b87", "fusion_lat": 0.0, "lon": -76.95247666666667, "type": "electric_bike", "fusion_lon": 0.0, "lat": 38.9069835}, {"rental_uris": {"android": "https://dc.lft.to/lastmile_qr_scan", "ios": "https://dc.lft.to/lastmile_qr_scan"}, "is_reserved": 0, "is_disabled": 0, "name": "6f8d84a4fd399689e6df3bb3ed2aedbb", "bike_id": "6f8d84a4fd399689e6df3bb3ed2aedbb", "fusion_lat": 0.0, "lon": -76.98805266666666, "type": "electric_scooter", "fusion_lon": 0.0, "lat": 38.893591}, {"rental_uris": {"android": "https://dc.lft.to/lastmile_qr_scan", "ios": "https://dc.lft.to/lastmile_qr_scan"}, "is_reserved": 0, "is_disabled": 0, "name": "644cea606266a7e49c5a5402b75b17f0", "bike_id": "644cea606266a7e49c5a5402b75b17f0", "fusion_lat": 0.0, "lon": -77.02776666666666, "type": "electric_scooter", "fusion_lon": 0.0, "lat": 38.926677}, {"rental_uris": {"android": "https://dc.lft.to/lastmile_qr_scan", "ios": "https://dc.lft.to/lastmile_qr_scan"}, "is_reserved": 0, "is_disabled": 0, "name": "ed9c3ee87756c96eb477e82aedf3e015", "bike_id": "ed9c3ee87756c96eb477e82aedf3e015", "fusion_lat": 0.0, "lon": -77.02329616666667, "type": "electric_scooter", "fusion_lon": 0.0, "lat": 38.930496833333336}, {"rental_uris": {"android": "https://dc.lft.to/lastmile_qr_scan", "ios": "https://dc.lft.to/lastmile_qr_scan"}, "is_reserved": 0, "is_disabled": 0, "name": "4850a6723dbbf8cc235aa1a2cc4bf3b2", "bike_id": "4850a6723dbbf8cc235aa1a2cc4bf3b2", "fusion_lat": 0.0, "lon": -77.04469566666667, "type": "electric_scooter", "fusion_lon": 0.0, "lat": 38.9187925}, {"rental_uris": {"android": "https://dc.lft.to/lastmile_qr_scan", "ios": "https://dc.lft.to/lastmile_qr_scan"}, "is_reserved": 0, "is_disabled": 0, "name": "17a2f1766a6f0cf4ebd53bb322a11a78", "bike_id": "17a2f1766a6f0cf4ebd53bb322a11a78", "fusion_lat": 0.0, "lon": -76.9796325, "type": "electric_scooter", "fusion_lon": 0.0, "lat": 38.897913333333335}, {"rental_uris": {"android": "https://dc.lft.to/lastmile_qr_scan", "ios": "https://dc.lft.to/lastmile_qr_scan"}, "is_reserved": 0, "is_disabled": 0, "name": "cadc81e788e105fcb3bc53ddc9921498", "bike_id": "cadc81e788e105fcb3bc53ddc9921498", "fusion_lat": 0.0, "lon": -77.00017133333333, "type": "electric_scooter", "fusion_lon": 0.0, "lat": 38.87399116666667}, {"rental_uris": {"android": "https://dc.lft.to/lastmile_qr_scan", "ios": "https://dc.lft.to/lastmile_qr_scan"}, "is_reserved": 0, "is_disabled": 0, "name": "7c7990fca8b57ff0d0984201dae58441", "bike_id": "7c7990fca8b57ff0d0984201dae58441", "fusion_lat": 0.0, "lon": -77.027369, "type": "electric_scooter", "fusion_lon": 0.0, "lat": 38.95203716666666}, {"rental_uris": {"android": "https://dc.lft.to/lastmile_qr_scan", "ios": "https://dc.lft.to/lastmile_qr_scan"}, "is_reserved": 0, "is_disabled": 0, "name": "3403fbd8e9e6c5e631cb08d0515e6d2f", "bike_id": "3403fbd8e9e6c5e631cb08d0515e6d2f", "fusion_lat": 0.0, "lon": -77.02325933333333, "type": "electric_scooter", "fusion_lon": 0.0, "lat": 38.907083666666665}, {"rental_uris": {"android": "https://dc.lft.to/lastmile_qr_scan", "ios": "https://dc.lft.to/lastmile_qr_scan"}, "is_reserved": 0, "is_disabled": 0, "name": "871f8206e00b8fee2732d114260828c9", "bike_id": "871f8206e00b8fee2732d114260828c9", "fusion_lat": 0.0, "lon": -77.0102185, "type": "electric_scooter", "fusion_lon": 0.0, "lat": 38.91403866666667}, {"rental_uris": {"android": "https://dc.lft.to/lastmile_qr_scan", "ios": "https://dc.lft.to/lastmile_qr_scan"}, "is_reserved": 0, "is_disabled": 0, "name": "fc87c25b434f0cb1c82c738d59283944", "bike_id": "fc87c25b434f0cb1c82c738d59283944", "fusion_lat": 0.0, "lon": -76.98021116666666, "type": "electric_bike", "fusion_lon": 0.0, "lat": 38.957542333333336}, {"rental_uris": {"android": "https://dc.lft.to/lastmile_qr_scan", "ios": "https://dc.lft.to/lastmile_qr_scan"}, "is_reserved": 0, "is_disabled": 0, "name": "ea0830926271c6a6747f6ebea378b763", "bike_id": "ea0830926271c6a6747f6ebea378b763", "fusion_lat": 0.0, "lon": -77.0231145, "type": "electric_scooter", "fusion_lon": 0.0, "lat": 38.91756933333333}, {"rental_uris": {"android": "https://dc.lft.to/lastmile_qr_scan", "ios": "https://dc.lft.to/lastmile_qr_scan"}, "is_reserved": 0, "is_disabled": 0, "name": "b65e4ade19b7ff5992a04aa0278eb737", "bike_id": "b65e4ade19b7ff5992a04aa0278eb737", "fusion_lat": 0.0, "lon": -77.04082283333334, "type": "electric_scooter", "fusion_lon": 0.0, "lat": 38.907335333333336}, {"rental_uris": {"android": "https://dc.lft.to/lastmile_qr_scan", "ios": "https://dc.lft.to/lastmile_qr_scan"}, "is_reserved": 0, "is_disabled": 0, "name": "a6bb25c42e78050d6add389d9b0e3e6e", "bike_id": "a6bb25c42e78050d6add389d9b0e3e6e", "fusion_lat": 0.0, "lon": -77.05342416666667, "type": "electric_scooter", "fusion_lon": 0.0, "lat": 38.906423333333336}, {"rental_uris": {"android": "https://dc.lft.to/lastmile_qr_scan", "ios": "https://dc.lft.to/lastmile_qr_scan"}, "is_reserved": 0, "is_disabled": 0, "name": "df142058afd42d6b6ca45dd37bcc1bcb", "bike_id": "df142058afd42d6b6ca45dd37bcc1bcb", "fusion_lat": 0.0, "lon": -77.03003633333333, "type": "electric_scooter", "fusion_lon": 0.0, "lat": 38.90134583333333}, {"rental_uris": {"android": "https://dc.lft.to/lastmile_qr_scan", "ios": "https://dc.lft.to/lastmile_qr_scan"}, "is_reserved": 0, "is_disabled": 0, "name": "dedd21abfde51db5ee73427cc5eddbea", "bike_id": "dedd21abfde51db5ee73427cc5eddbea", "fusion_lat": 0.0, "lon": -76.98560483333333, "type": "electric_scooter", "fusion_lon": 0.0, "lat": 38.896151}, {"rental_uris": {"android": "https://dc.lft.to/lastmile_qr_scan", "ios": "https://dc.lft.to/lastmile_qr_scan"}, "is_reserved": 0, "is_disabled": 0, "name": "2c7cbae3d40c38c90c695c184500fa9f", "bike_id": "2c7cbae3d40c38c90c695c184500fa9f", "fusion_lat": 0.0, "lon": -77.01746133333333, "type": "electric_scooter", "fusion_lon": 0.0, "lat": 38.93993116666667}, {"rental_uris": {"android": "https://dc.lft.to/lastmile_qr_scan", "ios": "https://dc.lft.to/lastmile_qr_scan"}, "is_reserved": 0, "is_disabled": 0, "name": "bcb175936aca8bf7a65d8ecea52c1e11", "bike_id": "bcb175936aca8bf7a65d8ecea52c1e11", "fusion_lat": 0.0, "lon": -77.05685183333334, "type": "electric_scooter", "fusion_lon": 0.0, "lat": 38.92340316666667}, {"rental_uris": {"android": "https://dc.lft.to/lastmile_qr_scan", "ios": "https://dc.lft.to/lastmile_qr_scan"}, "is_reserved": 0, "is_disabled": 0, "name": "28d950f832b3ed0d1d0f737591e4b3e6", "bike_id": "28d950f832b3ed0d1d0f737591e4b3e6", "fusion_lat": 0.0, "lon": -77.02763766666666, "type": "electric_scooter", "fusion_lon": 0.0, "lat": 38.95420283333333}, {"rental_uris": {"android": "https://dc.lft.to/lastmile_qr_scan", "ios": "https://dc.lft.to/lastmile_qr_scan"}, "is_reserved": 0, "is_disabled": 0, "name": "f0631e1c899d2157383973f281c94a62", "bike_id": "f0631e1c899d2157383973f281c94a62", "fusion_lat": 0.0, "lon": -77.02550733333334, "type": "electric_scooter", "fusion_lon": 0.0, "lat": 38.9141345}, {"rental_uris": {"android": "https://dc.lft.to/lastmile_qr_scan", "ios": "https://dc.lft.to/lastmile_qr_scan"}, "is_reserved": 0, "is_disabled": 0, "name": "74d5d29bedebb1b489add1f77ac3fb5e", "bike_id": "74d5d29bedebb1b489add1f77ac3fb5e", "fusion_lat": 0.0, "lon": -76.99489866666667, "type": "electric_scooter", "fusion_lon": 0.0, "lat": 38.89403433333333}, {"rental_uris": {"android": "https://dc.lft.to/lastmile_qr_scan", "ios": "https://dc.lft.to/lastmile_qr_scan"}, "is_reserved": 0, "is_disabled": 0, "name": "6d5015b0b75594667ad16a573badd62c", "bike_id": "6d5015b0b75594667ad16a573badd62c", "fusion_lat": 0.0, "lon": -77.051367, "type": "electric_scooter", "fusion_lon": 0.0, "lat": 38.8976105}, {"rental_uris": {"android": "https://dc.lft.to/lastmile_qr_scan", "ios": "https://dc.lft.to/lastmile_qr_scan"}, "is_reserved": 0, "is_disabled": 0, "name": "d893bade85cb154258405a37a4003a00", "bike_id": "d893bade85cb154258405a37a4003a00", "fusion_lat": 0.0, "lon": -77.02226833333333, "type": "electric_bike", "fusion_lon": 0.0, "lat": 38.95682466666667}, {"rental_uris": {"android": "https://dc.lft.to/lastmile_qr_scan", "ios": "https://dc.lft.to/lastmile_qr_scan"}, "is_reserved": 0, "is_disabled": 0, "name": "1c7354ab76f0f2da94ade0a24ca63d74", "bike_id": "1c7354ab76f0f2da94ade0a24ca63d74", "fusion_lat": 0.0, "lon": -77.12840016666667, "type": "electric_bike", "fusion_lon": 0.0, "lat": 38.800533333333334}, {"rental_uris": {"android": "https://dc.lft.to/lastmile_qr_scan", "ios": "https://dc.lft.to/lastmile_qr_scan"}, "is_reserved": 0, "is_disabled": 0, "name": "310b95908aebd487d2c6a18fb9383329", "bike_id": "310b95908aebd487d2c6a18fb9383329", "fusion_lat": 0.0, "lon": -77.02671216666667, "type": "electric_scooter", "fusion_lon": 0.0, "lat": 38.922337666666664}, {"rental_uris": {"android": "https://dc.lft.to/lastmile_qr_scan", "ios": "https://dc.lft.to/lastmile_qr_scan"}, "is_reserved": 0, "is_disabled": 0, "name": "10a07dcc8f93580d27a843c1192c10b0", "bike_id": "10a07dcc8f93580d27a843c1192c10b0", "fusion_lat": 0.0, "lon": -77.000634, "type": "electric_scooter", "fusion_lon": 0.0, "lat": 38.87465383333333}, {"rental_uris": {"android": "https://dc.lft.to/lastmile_qr_scan", "ios": "https://dc.lft.to/lastmile_qr_scan"}, "is_reserved": 0, "is_disabled": 0, "name": "6c51959a22a8ff94d3c3c0857788abf7", "bike_id": "6c51959a22a8ff94d3c3c0857788abf7", "fusion_lat": 0.0, "lon": -77.01978383333334, "type": "electric_scooter", "fusion_lon": 0.0, "lat": 38.87621033333333}, {"rental_uris": {"android": "https://dc.lft.to/lastmile_qr_scan", "ios": "https://dc.lft.to/lastmile_qr_scan"}, "is_reserved": 0, "is_disabled": 0, "name": "9da6602b06e7dbd1b9aa6c564c257d48", "bike_id": "9da6602b06e7dbd1b9aa6c564c257d48", "fusion_lat": 0.0, "lon": -77.00165366666667, "type": "electric_scooter", "fusion_lon": 0.0, "lat": 38.91910883333333}, {"rental_uris": {"android": "https://dc.lft.to/lastmile_qr_scan", "ios": "https://dc.lft.to/lastmile_qr_scan"}, "is_reserved": 0, "is_disabled": 0, "name": "4cecf8e6d8bd49a78fb5ea78dcf9f459", "bike_id": "4cecf8e6d8bd49a78fb5ea78dcf9f459", "fusion_lat": 0.0, "lon": -77.0444145, "type": "electric_scooter", "fusion_lon": 0.0, "lat": 38.922321833333335}, {"rental_uris": {"android": "https://dc.lft.to/lastmile_qr_scan", "ios": "https://dc.lft.to/lastmile_qr_scan"}, "is_reserved": 0, "is_disabled": 0, "name": "70840188ecde1cc6333c4fed331d171f", "bike_id": "70840188ecde1cc6333c4fed331d171f", "fusion_lat": 0.0, "lon": -77.03779666666667, "type": "electric_scooter", "fusion_lon": 0.0, "lat": 38.92544816666667}, {"rental_uris": {"android": "https://dc.lft.to/lastmile_qr_scan", "ios": "https://dc.lft.to/lastmile_qr_scan"}, "is_reserved": 0, "is_disabled": 0, "name": "390debf26d705a3b48e7f519e5c23881", "bike_id": "390debf26d705a3b48e7f519e5c23881", "fusion_lat": 0.0, "lon": -76.98533883333333, "type": "electric_bike", "fusion_lon": 0.0, "lat": 38.880803}, {"rental_uris": {"android": "https://dc.lft.to/lastmile_qr_scan", "ios": "https://dc.lft.to/lastmile_qr_scan"}, "is_reserved": 0, "is_disabled": 0, "name": "7ac10876c0fc00848c0af549752a17dd", "bike_id": "7ac10876c0fc00848c0af549752a17dd", "fusion_lat": 0.0, "lon": -77.030381, "type": "electric_scooter", "fusion_lon": 0.0, "lat": 38.907328666666665}, {"rental_uris": {"android": "https://dc.lft.to/lastmile_qr_scan", "ios": "https://dc.lft.to/lastmile_qr_scan"}, "is_reserved": 0, "is_disabled": 0, "name": "8e07377987b9f27938aff5cd4a451e9f", "bike_id": "8e07377987b9f27938aff5cd4a451e9f", "fusion_lat": 0.0, "lon": -77.027114, "type": "electric_scooter", "fusion_lon": 0.0, "lat": 38.922291333333334}, {"rental_uris": {"android": "https://dc.lft.to/lastmile_qr_scan", "ios": "https://dc.lft.to/lastmile_qr_scan"}, "is_reserved": 0, "is_disabled": 0, "name": "933c9de6f65c010e5edfd9d11886d743", "bike_id": "933c9de6f65c010e5edfd9d11886d743", "fusion_lat": 0.0, "lon": -77.0528295, "type": "electric_scooter", "fusion_lon": 0.0, "lat": 38.92564183333333}, {"rental_uris": {"android": "https://dc.lft.to/lastmile_qr_scan", "ios": "https://dc.lft.to/lastmile_qr_scan"}, "is_reserved": 0, "is_disabled": 0, "name": "20045b78798c0818e15ae184d4d5daea", "bike_id": "20045b78798c0818e15ae184d4d5daea", "fusion_lat": 0.0, "lon": -76.91717883333334, "type": "electric_bike", "fusion_lon": 0.0, "lat": 38.880292833333336}, {"rental_uris": {"android": "https://dc.lft.to/lastmile_qr_scan", "ios": "https://dc.lft.to/lastmile_qr_scan"}, "is_reserved": 0, "is_disabled": 0, "name": "aaf8a44b0d17629fa81fefb876ab5387", "bike_id": "aaf8a44b0d17629fa81fefb876ab5387", "fusion_lat": 0.0, "lon": -77.0462355, "type": "electric_scooter", "fusion_lon": 0.0, "lat": 38.9164305}, {"rental_uris": {"android": "https://dc.lft.to/lastmile_qr_scan", "ios": "https://dc.lft.to/lastmile_qr_scan"}, "is_reserved": 0, "is_disabled": 0, "name": "22dc27d469970ae57018c4de95775cea", "bike_id": "22dc27d469970ae57018c4de95775cea", "fusion_lat": 0.0, "lon": -77.049759, "type": "electric_scooter", "fusion_lon": 0.0, "lat": 38.901167}, {"rental_uris": {"android": "https://dc.lft.to/lastmile_qr_scan", "ios": "https://dc.lft.to/lastmile_qr_scan"}, "is_reserved": 0, "is_disabled": 0, "name": "78f72f84a34b2c467d9a2affa0ac6084", "bike_id": "78f72f84a34b2c467d9a2affa0ac6084", "fusion_lat": 0.0, "lon": -77.03292633333334, "type": "electric_scooter", "fusion_lon": 0.0, "lat": 38.95617766666667}, {"rental_uris": {"android": "https://dc.lft.to/lastmile_qr_scan", "ios": "https://dc.lft.to/lastmile_qr_scan"}, "is_reserved": 0, "is_disabled": 0, "name": "33a4c1ed6d6664eb5003152cad732b5c", "bike_id": "33a4c1ed6d6664eb5003152cad732b5c", "fusion_lat": 0.0, "lon": -77.02337666666666, "type": "electric_scooter", "fusion_lon": 0.0, "lat": 38.9223165}, {"rental_uris": {"android": "https://dc.lft.to/lastmile_qr_scan", "ios": "https://dc.lft.to/lastmile_qr_scan"}, "is_reserved": 0, "is_disabled": 0, "name": "e33d00adbf3d3671a261f55d3cddc04b", "bike_id": "e33d00adbf3d3671a261f55d3cddc04b", "fusion_lat": 0.0, "lon": -76.98536183333333, "type": "electric_bike", "fusion_lon": 0.0, "lat": 38.912876}, {"rental_uris": {"android": "https://dc.lft.to/lastmile_qr_scan", "ios": "https://dc.lft.to/lastmile_qr_scan"}, "is_reserved": 0, "is_disabled": 0, "name": "9e7f537e5951d85f822d8e8182e77c87", "bike_id": "9e7f537e5951d85f822d8e8182e77c87", "fusion_lat": 0.0, "lon": -77.038531, "type": "electric_scooter", "fusion_lon": 0.0, "lat": 38.9117795}, {"rental_uris": {"android": "https://dc.lft.to/lastmile_qr_scan", "ios": "https://dc.lft.to/lastmile_qr_scan"}, "is_reserved": 0, "is_disabled": 0, "name": "df0e209e9a8d233d334beab9b97b12a7", "bike_id": "df0e209e9a8d233d334beab9b97b12a7", "fusion_lat": 0.0, "lon": -77.04123916666667, "type": "electric_scooter", "fusion_lon": 0.0, "lat": 38.921606833333335}, {"rental_uris": {"android": "https://dc.lft.to/lastmile_qr_scan", "ios": "https://dc.lft.to/lastmile_qr_scan"}, "is_reserved": 0, "is_disabled": 0, "name": "24ff164d162a30393003cdaa1cf0a9ce", "bike_id": "24ff164d162a30393003cdaa1cf0a9ce", "fusion_lat": 0.0, "lon": -77.00291216666666, "type": "electric_scooter", "fusion_lon": 0.0, "lat": 38.891980833333335}, {"rental_uris": {"android": "https://dc.lft.to/lastmile_qr_scan", "ios": "https://dc.lft.to/lastmile_qr_scan"}, "is_reserved": 0, "is_disabled": 0, "name": "87bbfb328652d3e7534d55ac27ddc497", "bike_id": "87bbfb328652d3e7534d55ac27ddc497", "fusion_lat": 0.0, "lon": -77.02273233333334, "type": "electric_scooter", "fusion_lon": 0.0, "lat": 38.899993333333335}, {"rental_uris": {"android": "https://dc.lft.to/lastmile_qr_scan", "ios": "https://dc.lft.to/lastmile_qr_scan"}, "is_reserved": 0, "is_disabled": 0, "name": "048135bad2a16fa39ef8b339ff0af540", "bike_id": "048135bad2a16fa39ef8b339ff0af540", "fusion_lat": 0.0, "lon": -77.08518633333334, "type": "electric_bike", "fusion_lon": 0.0, "lat": 38.858645}, {"rental_uris": {"android": "https://dc.lft.to/lastmile_qr_scan", "ios": "https://dc.lft.to/lastmile_qr_scan"}, "is_reserved": 0, "is_disabled": 0, "name": "ce9a5c9c92d215c542641ee27547328c", "bike_id": "ce9a5c9c92d215c542641ee27547328c", "fusion_lat": 0.0, "lon": -77.02997566666667, "type": "electric_scooter", "fusion_lon": 0.0, "lat": 38.907374833333336}, {"rental_uris": {"android": "https://dc.lft.to/lastmile_qr_scan", "ios": "https://dc.lft.to/lastmile_qr_scan"}, "is_reserved": 0, "is_disabled": 0, "name": "e3ba837c83fe781b2e2157ce2e396889", "bike_id": "e3ba837c83fe781b2e2157ce2e396889", "fusion_lat": 0.0, "lon": -76.954524, "type": "electric_bike", "fusion_lon": 0.0, "lat": 38.93637866666667}, {"rental_uris": {"android": "https://dc.lft.to/lastmile_qr_scan", "ios": "https://dc.lft.to/lastmile_qr_scan"}, "is_reserved": 0, "is_disabled": 0, "name": "c2c1f1ac38644217e37e422fc691c0be", "bike_id": "c2c1f1ac38644217e37e422fc691c0be", "fusion_lat": 0.0, "lon": -77.02406483333333, "type": "electric_scooter", "fusion_lon": 0.0, "lat": 38.9097475}, {"rental_uris": {"android": "https://dc.lft.to/lastmile_qr_scan", "ios": "https://dc.lft.to/lastmile_qr_scan"}, "is_reserved": 0, "is_disabled": 0, "name": "1dabf27ae1a566e6ab7c07d69f710e43", "bike_id": "1dabf27ae1a566e6ab7c07d69f710e43", "fusion_lat": 0.0, "lon": -77.02107516666666, "type": "electric_scooter", "fusion_lon": 0.0, "lat": 38.92194516666667}, {"rental_uris": {"android": "https://dc.lft.to/lastmile_qr_scan", "ios": "https://dc.lft.to/lastmile_qr_scan"}, "is_reserved": 0, "is_disabled": 0, "name": "607ab0117e5aa77feb3d19b008e43ce5", "bike_id": "607ab0117e5aa77feb3d19b008e43ce5", "fusion_lat": 0.0, "lon": -77.041474, "type": "electric_scooter", "fusion_lon": 0.0, "lat": 38.90117933333333}, {"rental_uris": {"android": "https://dc.lft.to/lastmile_qr_scan", "ios": "https://dc.lft.to/lastmile_qr_scan"}, "is_reserved": 0, "is_disabled": 0, "name": "df404e567635303cbb6766bca542385b", "bike_id": "df404e567635303cbb6766bca542385b", "fusion_lat": 0.0, "lon": -77.011076, "type": "electric_scooter", "fusion_lon": 0.0, "lat": 38.9096755}, {"rental_uris": {"android": "https://dc.lft.to/lastmile_qr_scan", "ios": "https://dc.lft.to/lastmile_qr_scan"}, "is_reserved": 0, "is_disabled": 0, "name": "14087869c5f2e7940af6d43dfd93236f", "bike_id": "14087869c5f2e7940af6d43dfd93236f", "fusion_lat": 0.0, "lon": -77.043214, "type": "electric_scooter", "fusion_lon": 0.0, "lat": 38.90522516666667}, {"rental_uris": {"android": "https://dc.lft.to/lastmile_qr_scan", "ios": "https://dc.lft.to/lastmile_qr_scan"}, "is_reserved": 0, "is_disabled": 0, "name": "b48b76ce69e4c82ac5884aad6d308a4e", "bike_id": "b48b76ce69e4c82ac5884aad6d308a4e", "fusion_lat": 0.0, "lon": -77.034832, "type": "electric_scooter", "fusion_lon": 0.0, "lat": 38.905779}, {"rental_uris": {"android": "https://dc.lft.to/lastmile_qr_scan", "ios": "https://dc.lft.to/lastmile_qr_scan"}, "is_reserved": 0, "is_disabled": 0, "name": "66b2fe86780704ebc24604cf02dd6125", "bike_id": "66b2fe86780704ebc24604cf02dd6125", "fusion_lat": 0.0, "lon": -77.0384015, "type": "electric_scooter", "fusion_lon": 0.0, "lat": 38.92175433333333}, {"rental_uris": {"android": "https://dc.lft.to/lastmile_qr_scan", "ios": "https://dc.lft.to/lastmile_qr_scan"}, "is_reserved": 0, "is_disabled": 0, "name": "a79d265277221cdbdcef8a50ee181dfe", "bike_id": "a79d265277221cdbdcef8a50ee181dfe", "fusion_lat": 0.0, "lon": -77.02603633333334, "type": "electric_scooter", "fusion_lon": 0.0, "lat": 38.9204005}, {"rental_uris": {"android": "https://dc.lft.to/lastmile_qr_scan", "ios": "https://dc.lft.to/lastmile_qr_scan"}, "is_reserved": 0, "is_disabled": 0, "name": "3ff5154263ffc48df8c4eeda8ebfc188", "bike_id": "3ff5154263ffc48df8c4eeda8ebfc188", "fusion_lat": 0.0, "lon": -77.051357, "type": "electric_bike", "fusion_lon": 0.0, "lat": 38.92169483333333}, {"rental_uris": {"android": "https://dc.lft.to/lastmile_qr_scan", "ios": "https://dc.lft.to/lastmile_qr_scan"}, "is_reserved": 0, "is_disabled": 0, "name": "069b87c2772079714eff3c94652f11b7", "bike_id": "069b87c2772079714eff3c94652f11b7", "fusion_lat": 0.0, "lon": -76.99165633333334, "type": "electric_scooter", "fusion_lon": 0.0, "lat": 38.90851516666667}, {"rental_uris": {"android": "https://dc.lft.to/lastmile_qr_scan", "ios": "https://dc.lft.to/lastmile_qr_scan"}, "is_reserved": 0, "is_disabled": 0, "name": "c4cc5f8afc6ce1195bf9ab8a2807efd6", "bike_id": "c4cc5f8afc6ce1195bf9ab8a2807efd6", "fusion_lat": 0.0, "lon": -77.0414035, "type": "electric_scooter", "fusion_lon": 0.0, "lat": 38.91684333333333}, {"rental_uris": {"android": "https://dc.lft.to/lastmile_qr_scan", "ios": "https://dc.lft.to/lastmile_qr_scan"}, "is_reserved": 0, "is_disabled": 0, "name": "247b605f43c479301c93d7bd1054de02", "bike_id": "247b605f43c479301c93d7bd1054de02", "fusion_lat": 0.0, "lon": -77.032724, "type": "electric_scooter", "fusion_lon": 0.0, "lat": 38.919943833333335}, {"rental_uris": {"android": "https://dc.lft.to/lastmile_qr_scan", "ios": "https://dc.lft.to/lastmile_qr_scan"}, "is_reserved": 0, "is_disabled": 0, "name": "eebc5135eefd45172a8426d77d095079", "bike_id": "eebc5135eefd45172a8426d77d095079", "fusion_lat": 0.0, "lon": -77.02309883333334, "type": "electric_scooter", "fusion_lon": 0.0, "lat": 38.92094016666667}, {"rental_uris": {"android": "https://dc.lft.to/lastmile_qr_scan", "ios": "https://dc.lft.to/lastmile_qr_scan"}, "is_reserved": 0, "is_disabled": 0, "name": "23a9b42ca01002caa57101a01730cafd", "bike_id": "23a9b42ca01002caa57101a01730cafd", "fusion_lat": 0.0, "lon": -77.02401716666667, "type": "electric_scooter", "fusion_lon": 0.0, "lat": 38.93110466666667}, {"rental_uris": {"android": "https://dc.lft.to/lastmile_qr_scan", "ios": "https://dc.lft.to/lastmile_qr_scan"}, "is_reserved": 0, "is_disabled": 0, "name": "31340b86f7da8175a2ef578567ef49f4", "bike_id": "31340b86f7da8175a2ef578567ef49f4", "fusion_lat": 0.0, "lon": -77.00120366666667, "type": "electric_scooter", "fusion_lon": 0.0, "lat": 38.8763725}, {"rental_uris": {"android": "https://dc.lft.to/lastmile_qr_scan", "ios": "https://dc.lft.to/lastmile_qr_scan"}, "is_reserved": 0, "is_disabled": 0, "name": "0efd3d99e8e754a1008f367c6497ed31", "bike_id": "0efd3d99e8e754a1008f367c6497ed31", "fusion_lat": 0.0, "lon": -77.01361516666667, "type": "electric_scooter", "fusion_lon": 0.0, "lat": 38.898066}, {"rental_uris": {"android": "https://dc.lft.to/lastmile_qr_scan", "ios": "https://dc.lft.to/lastmile_qr_scan"}, "is_reserved": 0, "is_disabled": 0, "name": "9d348715ee929dfd34af34273befc095", "bike_id": "9d348715ee929dfd34af34273befc095", "fusion_lat": 0.0, "lon": -77.0446725, "type": "electric_scooter", "fusion_lon": 0.0, "lat": 38.918978333333335}, {"rental_uris": {"android": "https://dc.lft.to/lastmile_qr_scan", "ios": "https://dc.lft.to/lastmile_qr_scan"}, "is_reserved": 0, "is_disabled": 0, "name": "af6e474310bb78a4e4846f9f7c19169a", "bike_id": "af6e474310bb78a4e4846f9f7c19169a", "fusion_lat": 0.0, "lon": -77.02391383333334, "type": "electric_scooter", "fusion_lon": 0.0, "lat": 38.898220333333335}, {"rental_uris": {"android": "https://dc.lft.to/lastmile_qr_scan", "ios": "https://dc.lft.to/lastmile_qr_scan"}, "is_reserved": 0, "is_disabled": 0, "name": "aabb815e448ffed37a93dca8fb3b483c", "bike_id": "aabb815e448ffed37a93dca8fb3b483c", "fusion_lat": 0.0, "lon": -77.02284183333333, "type": "electric_scooter", "fusion_lon": 0.0, "lat": 38.927250666666666}, {"rental_uris": {"android": "https://dc.lft.to/lastmile_qr_scan", "ios": "https://dc.lft.to/lastmile_qr_scan"}, "is_reserved": 0, "is_disabled": 0, "name": "a9701802317ad8837237b7b1fc7f4c6d", "bike_id": "a9701802317ad8837237b7b1fc7f4c6d", "fusion_lat": 0.0, "lon": -77.04471766666667, "type": "electric_scooter", "fusion_lon": 0.0, "lat": 38.90278883333333}, {"rental_uris": {"android": "https://dc.lft.to/lastmile_qr_scan", "ios": "https://dc.lft.to/lastmile_qr_scan"}, "is_reserved": 0, "is_disabled": 0, "name": "23901f831b3d93f8bae4146d4a6b8bec", "bike_id": "23901f831b3d93f8bae4146d4a6b8bec", "fusion_lat": 0.0, "lon": -77.024451, "type": "electric_scooter", "fusion_lon": 0.0, "lat": 38.9206275}, {"rental_uris": {"android": "https://dc.lft.to/lastmile_qr_scan", "ios": "https://dc.lft.to/lastmile_qr_scan"}, "is_reserved": 0, "is_disabled": 0, "name": "be21062def6aa586decd3fda0ff94e59", "bike_id": "be21062def6aa586decd3fda0ff94e59", "fusion_lat": 0.0, "lon": -77.0449495, "type": "electric_bike", "fusion_lon": 0.0, "lat": 39.021187833333336}, {"rental_uris": {"android": "https://dc.lft.to/lastmile_qr_scan", "ios": "https://dc.lft.to/lastmile_qr_scan"}, "is_reserved": 0, "is_disabled": 0, "name": "e920b0b8a7f4b43ae73926a61238615d", "bike_id": "e920b0b8a7f4b43ae73926a61238615d", "fusion_lat": 0.0, "lon": -77.03629016666666, "type": "electric_scooter", "fusion_lon": 0.0, "lat": 38.90285866666667}, {"rental_uris": {"android": "https://dc.lft.to/lastmile_qr_scan", "ios": "https://dc.lft.to/lastmile_qr_scan"}, "is_reserved": 0, "is_disabled": 0, "name": "37c536c9f7a29986075a68616839c056", "bike_id": "37c536c9f7a29986075a68616839c056", "fusion_lat": 0.0, "lon": -77.02455283333333, "type": "electric_scooter", "fusion_lon": 0.0, "lat": 38.915180666666664}, {"rental_uris": {"android": "https://dc.lft.to/lastmile_qr_scan", "ios": "https://dc.lft.to/lastmile_qr_scan"}, "is_reserved": 0, "is_disabled": 0, "name": "897fdcced1816292eb4ef6efa904bd0c", "bike_id": "897fdcced1816292eb4ef6efa904bd0c", "fusion_lat": 0.0, "lon": -77.0436525, "type": "electric_scooter", "fusion_lon": 0.0, "lat": 38.9086345}, {"rental_uris": {"android": "https://dc.lft.to/lastmile_qr_scan", "ios": "https://dc.lft.to/lastmile_qr_scan"}, "is_reserved": 0, "is_disabled": 0, "name": "2f7f7cedf4b5b0c0da85b05d59f80d14", "bike_id": "2f7f7cedf4b5b0c0da85b05d59f80d14", "fusion_lat": 0.0, "lon": -77.01351766666667, "type": "electric_scooter", "fusion_lon": 0.0, "lat": 38.91938616666667}, {"rental_uris": {"android": "https://dc.lft.to/lastmile_qr_scan", "ios": "https://dc.lft.to/lastmile_qr_scan"}, "is_reserved": 0, "is_disabled": 0, "name": "207edc7e164e4f1503c4860def52f4dc", "bike_id": "207edc7e164e4f1503c4860def52f4dc", "fusion_lat": 0.0, "lon": -77.02445216666666, "type": "electric_scooter", "fusion_lon": 0.0, "lat": 38.9497715}, {"rental_uris": {"android": "https://dc.lft.to/lastmile_qr_scan", "ios": "https://dc.lft.to/lastmile_qr_scan"}, "is_reserved": 0, "is_disabled": 0, "name": "6ddb5dee431ca76987eb85fe3087a9f1", "bike_id": "6ddb5dee431ca76987eb85fe3087a9f1", "fusion_lat": 0.0, "lon": -76.99771766666667, "type": "electric_scooter", "fusion_lon": 0.0, "lat": 38.90134483333333}, {"rental_uris": {"android": "https://dc.lft.to/lastmile_qr_scan", "ios": "https://dc.lft.to/lastmile_qr_scan"}, "is_reserved": 0, "is_disabled": 0, "name": "74a1508598ec59f869b110c1776a2a39", "bike_id": "74a1508598ec59f869b110c1776a2a39", "fusion_lat": 0.0, "lon": -77.04561116666666, "type": "electric_scooter", "fusion_lon": 0.0, "lat": 38.9038395}, {"rental_uris": {"android": "https://dc.lft.to/lastmile_qr_scan", "ios": "https://dc.lft.to/lastmile_qr_scan"}, "is_reserved": 0, "is_disabled": 0, "name": "6946f5ed12426916c988b9c6e6477303", "bike_id": "6946f5ed12426916c988b9c6e6477303", "fusion_lat": 0.0, "lon": -77.05339066666667, "type": "electric_scooter", "fusion_lon": 0.0, "lat": 38.90410833333333}, {"rental_uris": {"android": "https://dc.lft.to/lastmile_qr_scan", "ios": "https://dc.lft.to/lastmile_qr_scan"}, "is_reserved": 0, "is_disabled": 0, "name": "e709593d08581c8b7c7cc75aa2531774", "bike_id": "e709593d08581c8b7c7cc75aa2531774", "fusion_lat": 0.0, "lon": -77.03647733333334, "type": "electric_scooter", "fusion_lon": 0.0, "lat": 38.91797283333333}, {"rental_uris": {"android": "https://dc.lft.to/lastmile_qr_scan", "ios": "https://dc.lft.to/lastmile_qr_scan"}, "is_reserved": 0, "is_disabled": 0, "name": "b7dc123f8de366661b14d9cea8726c92", "bike_id": "b7dc123f8de366661b14d9cea8726c92", "fusion_lat": 0.0, "lon": -77.02488233333334, "type": "electric_scooter", "fusion_lon": 0.0, "lat": 38.92062933333333}, {"rental_uris": {"android": "https://dc.lft.to/lastmile_qr_scan", "ios": "https://dc.lft.to/lastmile_qr_scan"}, "is_reserved": 0, "is_disabled": 0, "name": "7a429e5909ae42316c99bcbf698da9ae", "bike_id": "7a429e5909ae42316c99bcbf698da9ae", "fusion_lat": 0.0, "lon": -77.03269633333333, "type": "electric_scooter", "fusion_lon": 0.0, "lat": 38.919935333333335}, {"rental_uris": {"android": "https://dc.lft.to/lastmile_qr_scan", "ios": "https://dc.lft.to/lastmile_qr_scan"}, "is_reserved": 0, "is_disabled": 0, "name": "91b36f69829cbfdd9ce323f942b0d54b", "bike_id": "91b36f69829cbfdd9ce323f942b0d54b", "fusion_lat": 0.0, "lon": -77.00347833333333, "type": "electric_scooter", "fusion_lon": 0.0, "lat": 38.87685666666667}, {"rental_uris": {"android": "https://dc.lft.to/lastmile_qr_scan", "ios": "https://dc.lft.to/lastmile_qr_scan"}, "is_reserved": 0, "is_disabled": 0, "name": "c7dc1ab37d2159740fd9ab98637c69db", "bike_id": "c7dc1ab37d2159740fd9ab98637c69db", "fusion_lat": 0.0, "lon": -77.019512, "type": "electric_scooter", "fusion_lon": 0.0, "lat": 38.923288}, {"rental_uris": {"android": "https://dc.lft.to/lastmile_qr_scan", "ios": "https://dc.lft.to/lastmile_qr_scan"}, "is_reserved": 0, "is_disabled": 0, "name": "6142a3e38252df17c0b2c4ca5052fdba", "bike_id": "6142a3e38252df17c0b2c4ca5052fdba", "fusion_lat": 0.0, "lon": -77.0199855, "type": "electric_scooter", "fusion_lon": 0.0, "lat": 38.9055695}, {"rental_uris": {"android": "https://dc.lft.to/lastmile_qr_scan", "ios": "https://dc.lft.to/lastmile_qr_scan"}, "is_reserved": 0, "is_disabled": 0, "name": "7846b2ca049c03f2213830f257f14403", "bike_id": "7846b2ca049c03f2213830f257f14403", "fusion_lat": 0.0, "lon": -77.027215, "type": "electric_scooter", "fusion_lon": 0.0, "lat": 38.90686783333334}, {"rental_uris": {"android": "https://dc.lft.to/lastmile_qr_scan", "ios": "https://dc.lft.to/lastmile_qr_scan"}, "is_reserved": 0, "is_disabled": 0, "name": "0a193d1153d14bd853f9baf938690594", "bike_id": "0a193d1153d14bd853f9baf938690594", "fusion_lat": 0.0, "lon": -77.04656883333334, "type": "electric_scooter", "fusion_lon": 0.0, "lat": 38.909499833333335}, {"rental_uris": {"android": "https://dc.lft.to/lastmile_qr_scan", "ios": "https://dc.lft.to/lastmile_qr_scan"}, "is_reserved": 0, "is_disabled": 0, "name": "ca81ca30ff0a3efc345644f7962f0de8", "bike_id": "ca81ca30ff0a3efc345644f7962f0de8", "fusion_lat": 0.0, "lon": -77.02654166666666, "type": "electric_scooter", "fusion_lon": 0.0, "lat": 38.9238565}, {"rental_uris": {"android": "https://dc.lft.to/lastmile_qr_scan", "ios": "https://dc.lft.to/lastmile_qr_scan"}, "is_reserved": 0, "is_disabled": 0, "name": "a38c910e9bcc875edfe3483f1a86707c", "bike_id": "a38c910e9bcc875edfe3483f1a86707c", "fusion_lat": 0.0, "lon": -77.06531516666666, "type": "electric_bike", "fusion_lon": 0.0, "lat": 38.992306166666665}, {"rental_uris": {"android": "https://dc.lft.to/lastmile_qr_scan", "ios": "https://dc.lft.to/lastmile_qr_scan"}, "is_reserved": 0, "is_disabled": 0, "name": "eeb4a4893956f40500720e12a32deeff", "bike_id": "eeb4a4893956f40500720e12a32deeff", "fusion_lat": 0.0, "lon": -77.01230383333333, "type": "electric_scooter", "fusion_lon": 0.0, "lat": 38.9140465}, {"rental_uris": {"android": "https://dc.lft.to/lastmile_qr_scan", "ios": "https://dc.lft.to/lastmile_qr_scan"}, "is_reserved": 0, "is_disabled": 0, "name": "59c5a166791d542632dbee455a2def97", "bike_id": "59c5a166791d542632dbee455a2def97", "fusion_lat": 0.0, "lon": -77.024042, "type": "electric_scooter", "fusion_lon": 0.0, "lat": 38.90187316666667}, {"rental_uris": {"android": "https://dc.lft.to/lastmile_qr_scan", "ios": "https://dc.lft.to/lastmile_qr_scan"}, "is_reserved": 0, "is_disabled": 0, "name": "1d39d1c8f094e11ffc33f9a5567b5aa1", "bike_id": "1d39d1c8f094e11ffc33f9a5567b5aa1", "fusion_lat": 0.0, "lon": -76.900911, "type": "electric_bike", "fusion_lon": 0.0, "lat": 38.887514333333336}, {"rental_uris": {"android": "https://dc.lft.to/lastmile_qr_scan", "ios": "https://dc.lft.to/lastmile_qr_scan"}, "is_reserved": 0, "is_disabled": 0, "name": "48cfc7034b6703cc2b76bf87f17f05cf", "bike_id": "48cfc7034b6703cc2b76bf87f17f05cf", "fusion_lat": 0.0, "lon": -77.0083805, "type": "electric_scooter", "fusion_lon": 0.0, "lat": 38.876531166666666}, {"rental_uris": {"android": "https://dc.lft.to/lastmile_qr_scan", "ios": "https://dc.lft.to/lastmile_qr_scan"}, "is_reserved": 0, "is_disabled": 0, "name": "9d44b15f23a4a8c6d7f978c7f530c452", "bike_id": "9d44b15f23a4a8c6d7f978c7f530c452", "fusion_lat": 0.0, "lon": -76.95359266666667, "type": "electric_scooter", "fusion_lon": 0.0, "lat": 38.8896315}, {"rental_uris": {"android": "https://dc.lft.to/lastmile_qr_scan", "ios": "https://dc.lft.to/lastmile_qr_scan"}, "is_reserved": 0, "is_disabled": 0, "name": "387907db3297d1e8d5febdfc4b0812b3", "bike_id": "387907db3297d1e8d5febdfc4b0812b3", "fusion_lat": 0.0, "lon": -77.0313805, "type": "electric_scooter", "fusion_lon": 0.0, "lat": 38.9223855}, {"rental_uris": {"android": "https://dc.lft.to/lastmile_qr_scan", "ios": "https://dc.lft.to/lastmile_qr_scan"}, "is_reserved": 0, "is_disabled": 0, "name": "3506dab25dd1610a043dafc408b729b0", "bike_id": "3506dab25dd1610a043dafc408b729b0", "fusion_lat": 0.0, "lon": -77.03462083333334, "type": "electric_scooter", "fusion_lon": 0.0, "lat": 38.91382083333333}, {"rental_uris": {"android": "https://dc.lft.to/lastmile_qr_scan", "ios": "https://dc.lft.to/lastmile_qr_scan"}, "is_reserved": 0, "is_disabled": 0, "name": "3671dc4a90f63d37c29da9cea234d164", "bike_id": "3671dc4a90f63d37c29da9cea234d164", "fusion_lat": 0.0, "lon": -77.0362865, "type": "electric_scooter", "fusion_lon": 0.0, "lat": 38.90326133333333}, {"rental_uris": {"android": "https://dc.lft.to/lastmile_qr_scan", "ios": "https://dc.lft.to/lastmile_qr_scan"}, "is_reserved": 0, "is_disabled": 0, "name": "39ad4899e9eda5ac7ed0f4e98273f322", "bike_id": "39ad4899e9eda5ac7ed0f4e98273f322", "fusion_lat": 0.0, "lon": -76.98831633333333, "type": "electric_scooter", "fusion_lon": 0.0, "lat": 38.900374}, {"rental_uris": {"android": "https://dc.lft.to/lastmile_qr_scan", "ios": "https://dc.lft.to/lastmile_qr_scan"}, "is_reserved": 0, "is_disabled": 0, "name": "7ca555cf479d952e9ac78e6061d69288", "bike_id": "7ca555cf479d952e9ac78e6061d69288", "fusion_lat": 0.0, "lon": -77.01815166666667, "type": "electric_scooter", "fusion_lon": 0.0, "lat": 38.914038166666664}, {"rental_uris": {"android": "https://dc.lft.to/lastmile_qr_scan", "ios": "https://dc.lft.to/lastmile_qr_scan"}, "is_reserved": 0, "is_disabled": 0, "name": "32aa5248ceb1676ceb27b9f43b755209", "bike_id": "32aa5248ceb1676ceb27b9f43b755209", "fusion_lat": 0.0, "lon": -77.038643, "type": "electric_scooter", "fusion_lon": 0.0, "lat": 38.912642}, {"rental_uris": {"android": "https://dc.lft.to/lastmile_qr_scan", "ios": "https://dc.lft.to/lastmile_qr_scan"}, "is_reserved": 0, "is_disabled": 0, "name": "effef100cea8775ac63b1ebc5eda4284", "bike_id": "effef100cea8775ac63b1ebc5eda4284", "fusion_lat": 0.0, "lon": -77.01626016666667, "type": "electric_scooter", "fusion_lon": 0.0, "lat": 38.887386166666666}, {"rental_uris": {"android": "https://dc.lft.to/lastmile_qr_scan", "ios": "https://dc.lft.to/lastmile_qr_scan"}, "is_reserved": 0, "is_disabled": 0, "name": "28f60bcdb7fd0440557f5d346b7abf54", "bike_id": "28f60bcdb7fd0440557f5d346b7abf54", "fusion_lat": 0.0, "lon": -77.027833, "type": "electric_scooter", "fusion_lon": 0.0, "lat": 38.961594}, {"rental_uris": {"android": "https://dc.lft.to/lastmile_qr_scan", "ios": "https://dc.lft.to/lastmile_qr_scan"}, "is_reserved": 0, "is_disabled": 0, "name": "5977c7ab1962a20a34397fef5bc42da3", "bike_id": "5977c7ab1962a20a34397fef5bc42da3", "fusion_lat": 0.0, "lon": -77.04197033333334, "type": "electric_scooter", "fusion_lon": 0.0, "lat": 38.91875916666667}, {"rental_uris": {"android": "https://dc.lft.to/lastmile_qr_scan", "ios": "https://dc.lft.to/lastmile_qr_scan"}, "is_reserved": 0, "is_disabled": 0, "name": "049410617db40878d93689711a7fd28f", "bike_id": "049410617db40878d93689711a7fd28f", "fusion_lat": 0.0, "lon": -77.03986566666667, "type": "electric_scooter", "fusion_lon": 0.0, "lat": 38.915613}, {"rental_uris": {"android": "https://dc.lft.to/lastmile_qr_scan", "ios": "https://dc.lft.to/lastmile_qr_scan"}, "is_reserved": 0, "is_disabled": 0, "name": "1baeaef0bb7f9e8762ea4ca96c590a2b", "bike_id": "1baeaef0bb7f9e8762ea4ca96c590a2b", "fusion_lat": 0.0, "lon": -77.05912316666667, "type": "electric_scooter", "fusion_lon": 0.0, "lat": 38.90168}, {"rental_uris": {"android": "https://dc.lft.to/lastmile_qr_scan", "ios": "https://dc.lft.to/lastmile_qr_scan"}, "is_reserved": 0, "is_disabled": 0, "name": "ff80854c53692168ee5ae87d85dc50fd", "bike_id": "ff80854c53692168ee5ae87d85dc50fd", "fusion_lat": 0.0, "lon": -77.01073466666666, "type": "electric_scooter", "fusion_lon": 0.0, "lat": 38.90327416666667}, {"rental_uris": {"android": "https://dc.lft.to/lastmile_qr_scan", "ios": "https://dc.lft.to/lastmile_qr_scan"}, "is_reserved": 0, "is_disabled": 0, "name": "c784530d59335b6181b57c921a781e57", "bike_id": "c784530d59335b6181b57c921a781e57", "fusion_lat": 0.0, "lon": -77.03009333333334, "type": "electric_bike", "fusion_lon": 0.0, "lat": 38.900139333333335}, {"rental_uris": {"android": "https://dc.lft.to/lastmile_qr_scan", "ios": "https://dc.lft.to/lastmile_qr_scan"}, "is_reserved": 0, "is_disabled": 0, "name": "e506742692beb1cd566cd2db84ddc565", "bike_id": "e506742692beb1cd566cd2db84ddc565", "fusion_lat": 0.0, "lon": -77.0332635, "type": "electric_scooter", "fusion_lon": 0.0, "lat": 38.89885183333333}, {"rental_uris": {"android": "https://dc.lft.to/lastmile_qr_scan", "ios": "https://dc.lft.to/lastmile_qr_scan"}, "is_reserved": 0, "is_disabled": 0, "name": "2012ae57213d42f83dbea4fef6a73f1e", "bike_id": "2012ae57213d42f83dbea4fef6a73f1e", "fusion_lat": 0.0, "lon": -76.98086416666666, "type": "electric_scooter", "fusion_lon": 0.0, "lat": 38.894415333333335}, {"rental_uris": {"android": "https://dc.lft.to/lastmile_qr_scan", "ios": "https://dc.lft.to/lastmile_qr_scan"}, "is_reserved": 0, "is_disabled": 0, "name": "72cf366fb0bf47e960c8859646df9962", "bike_id": "72cf366fb0bf47e960c8859646df9962", "fusion_lat": 0.0, "lon": -77.009043, "type": "electric_scooter", "fusion_lon": 0.0, "lat": 38.895525}, {"rental_uris": {"android": "https://dc.lft.to/lastmile_qr_scan", "ios": "https://dc.lft.to/lastmile_qr_scan"}, "is_reserved": 0, "is_disabled": 0, "name": "300d619d810e3f0cf3af383c82fc9bf8", "bike_id": "300d619d810e3f0cf3af383c82fc9bf8", "fusion_lat": 0.0, "lon": -77.02161866666667, "type": "electric_scooter", "fusion_lon": 0.0, "lat": 38.92605866666667}, {"rental_uris": {"android": "https://dc.lft.to/lastmile_qr_scan", "ios": "https://dc.lft.to/lastmile_qr_scan"}, "is_reserved": 0, "is_disabled": 0, "name": "3b773465953d1dc9d145526d9e2d547f", "bike_id": "3b773465953d1dc9d145526d9e2d547f", "fusion_lat": 0.0, "lon": -77.00718783333333, "type": "electric_scooter", "fusion_lon": 0.0, "lat": 38.91187816666667}, {"rental_uris": {"android": "https://dc.lft.to/lastmile_qr_scan", "ios": "https://dc.lft.to/lastmile_qr_scan"}, "is_reserved": 0, "is_disabled": 0, "name": "1932a64a7d6cfc89f5f6504da0a66605", "bike_id": "1932a64a7d6cfc89f5f6504da0a66605", "fusion_lat": 0.0, "lon": -77.03152766666666, "type": "electric_scooter", "fusion_lon": 0.0, "lat": 38.89774283333333}, {"rental_uris": {"android": "https://dc.lft.to/lastmile_qr_scan", "ios": "https://dc.lft.to/lastmile_qr_scan"}, "is_reserved": 0, "is_disabled": 0, "name": "824cdd852e91179519661e0211d5a3d5", "bike_id": "824cdd852e91179519661e0211d5a3d5", "fusion_lat": 0.0, "lon": -77.03663, "type": "electric_scooter", "fusion_lon": 0.0, "lat": 38.922710333333335}, {"rental_uris": {"android": "https://dc.lft.to/lastmile_qr_scan", "ios": "https://dc.lft.to/lastmile_qr_scan"}, "is_reserved": 0, "is_disabled": 0, "name": "22fcf28f41d89296c273c7072046eeb3", "bike_id": "22fcf28f41d89296c273c7072046eeb3", "fusion_lat": 0.0, "lon": -77.02692816666666, "type": "electric_scooter", "fusion_lon": 0.0, "lat": 38.916758333333334}, {"rental_uris": {"android": "https://dc.lft.to/lastmile_qr_scan", "ios": "https://dc.lft.to/lastmile_qr_scan"}, "is_reserved": 0, "is_disabled": 0, "name": "ce4f03a285076c34de04433ecbc1dfdb", "bike_id": "ce4f03a285076c34de04433ecbc1dfdb", "fusion_lat": 0.0, "lon": -77.04522, "type": "electric_scooter", "fusion_lon": 0.0, "lat": 38.90789616666667}, {"rental_uris": {"android": "https://dc.lft.to/lastmile_qr_scan", "ios": "https://dc.lft.to/lastmile_qr_scan"}, "is_reserved": 0, "is_disabled": 0, "name": "3996b3674f384ebcb459874827251356", "bike_id": "3996b3674f384ebcb459874827251356", "fusion_lat": 0.0, "lon": -77.04870033333333, "type": "electric_scooter", "fusion_lon": 0.0, "lat": 38.900817}, {"rental_uris": {"android": "https://dc.lft.to/lastmile_qr_scan", "ios": "https://dc.lft.to/lastmile_qr_scan"}, "is_reserved": 0, "is_disabled": 0, "name": "93278e8970422e63f97996909f12b68c", "bike_id": "93278e8970422e63f97996909f12b68c", "fusion_lat": 0.0, "lon": -76.98770566666667, "type": "electric_bike", "fusion_lon": 0.0, "lat": 38.85772733333334}, {"rental_uris": {"android": "https://dc.lft.to/lastmile_qr_scan", "ios": "https://dc.lft.to/lastmile_qr_scan"}, "is_reserved": 0, "is_disabled": 0, "name": "8efdd31738230d39f57b13cd5eb99466", "bike_id": "8efdd31738230d39f57b13cd5eb99466", "fusion_lat": 0.0, "lon": -77.02015866666666, "type": "electric_scooter", "fusion_lon": 0.0, "lat": 38.915650166666666}, {"rental_uris": {"android": "https://dc.lft.to/lastmile_qr_scan", "ios": "https://dc.lft.to/lastmile_qr_scan"}, "is_reserved": 0, "is_disabled": 0, "name": "a69657c030532bf2d879a2bb99bab168", "bike_id": "a69657c030532bf2d879a2bb99bab168", "fusion_lat": 0.0, "lon": -77.0302265, "type": "electric_scooter", "fusion_lon": 0.0, "lat": 38.87848366666667}, {"rental_uris": {"android": "https://dc.lft.to/lastmile_qr_scan", "ios": "https://dc.lft.to/lastmile_qr_scan"}, "is_reserved": 0, "is_disabled": 0, "name": "c152277de2a2a102c9c47e327745d774", "bike_id": "c152277de2a2a102c9c47e327745d774", "fusion_lat": 0.0, "lon": -77.058858, "type": "electric_scooter", "fusion_lon": 0.0, "lat": 38.936082166666665}, {"rental_uris": {"android": "https://dc.lft.to/lastmile_qr_scan", "ios": "https://dc.lft.to/lastmile_qr_scan"}, "is_reserved": 0, "is_disabled": 0, "name": "f3efdad1cf63b87890c5dacd4709f49a", "bike_id": "f3efdad1cf63b87890c5dacd4709f49a", "fusion_lat": 0.0, "lon": -77.007797, "type": "electric_scooter", "fusion_lon": 0.0, "lat": 38.89733283333333}, {"rental_uris": {"android": "https://dc.lft.to/lastmile_qr_scan", "ios": "https://dc.lft.to/lastmile_qr_scan"}, "is_reserved": 0, "is_disabled": 0, "name": "2db06b646da8ffe243a9642ac375ad68", "bike_id": "2db06b646da8ffe243a9642ac375ad68", "fusion_lat": 0.0, "lon": -77.03927433333334, "type": "electric_scooter", "fusion_lon": 0.0, "lat": 38.92465216666667}, {"rental_uris": {"android": "https://dc.lft.to/lastmile_qr_scan", "ios": "https://dc.lft.to/lastmile_qr_scan"}, "is_reserved": 0, "is_disabled": 0, "name": "1ff7a8f526347d48d2bf67c38d9ac2b8", "bike_id": "1ff7a8f526347d48d2bf67c38d9ac2b8", "fusion_lat": 0.0, "lon": -76.973362, "type": "electric_scooter", "fusion_lon": 0.0, "lat": 38.904103666666664}, {"rental_uris": {"android": "https://dc.lft.to/lastmile_qr_scan", "ios": "https://dc.lft.to/lastmile_qr_scan"}, "is_reserved": 0, "is_disabled": 0, "name": "1b65cf3aa4e5d779a030e7e9ea34b05a", "bike_id": "1b65cf3aa4e5d779a030e7e9ea34b05a", "fusion_lat": 0.0, "lon": -77.02944183333334, "type": "electric_scooter", "fusion_lon": 0.0, "lat": 38.907220333333335}, {"rental_uris": {"android": "https://dc.lft.to/lastmile_qr_scan", "ios": "https://dc.lft.to/lastmile_qr_scan"}, "is_reserved": 0, "is_disabled": 0, "name": "b1be8bb91f83d7265872b404157088cc", "bike_id": "b1be8bb91f83d7265872b404157088cc", "fusion_lat": 0.0, "lon": -77.02201633333334, "type": "electric_scooter", "fusion_lon": 0.0, "lat": 38.9148815}, {"rental_uris": {"android": "https://dc.lft.to/lastmile_qr_scan", "ios": "https://dc.lft.to/lastmile_qr_scan"}, "is_reserved": 0, "is_disabled": 0, "name": "6fc2b3010e004f9adecdc03d9bfc9ebc", "bike_id": "6fc2b3010e004f9adecdc03d9bfc9ebc", "fusion_lat": 0.0, "lon": -77.02021, "type": "electric_scooter", "fusion_lon": 0.0, "lat": 38.92442416666667}, {"rental_uris": {"android": "https://dc.lft.to/lastmile_qr_scan", "ios": "https://dc.lft.to/lastmile_qr_scan"}, "is_reserved": 0, "is_disabled": 0, "name": "5e7b30ffc7357f3c1a4c863eed7a68bd", "bike_id": "5e7b30ffc7357f3c1a4c863eed7a68bd", "fusion_lat": 0.0, "lon": -77.04023716666667, "type": "electric_scooter", "fusion_lon": 0.0, "lat": 38.90382483333333}, {"rental_uris": {"android": "https://dc.lft.to/lastmile_qr_scan", "ios": "https://dc.lft.to/lastmile_qr_scan"}, "is_reserved": 0, "is_disabled": 0, "name": "d096da21b323ad24d1831b8d8aa0666a", "bike_id": "d096da21b323ad24d1831b8d8aa0666a", "fusion_lat": 0.0, "lon": -77.022813, "type": "electric_scooter", "fusion_lon": 0.0, "lat": 38.91771133333334}, {"rental_uris": {"android": "https://dc.lft.to/lastmile_qr_scan", "ios": "https://dc.lft.to/lastmile_qr_scan"}, "is_reserved": 0, "is_disabled": 0, "name": "1debaf0311004b4d2ff158143a46a2c6", "bike_id": "1debaf0311004b4d2ff158143a46a2c6", "fusion_lat": 0.0, "lon": -77.1297495, "type": "electric_bike", "fusion_lon": 0.0, "lat": 38.799871}, {"rental_uris": {"android": "https://dc.lft.to/lastmile_qr_scan", "ios": "https://dc.lft.to/lastmile_qr_scan"}, "is_reserved": 0, "is_disabled": 0, "name": "3ad0fade466ca295f97f61be92390b54", "bike_id": "3ad0fade466ca295f97f61be92390b54", "fusion_lat": 0.0, "lon": -77.072773, "type": "electric_scooter", "fusion_lon": 0.0, "lat": 38.934800333333335}, {"rental_uris": {"android": "https://dc.lft.to/lastmile_qr_scan", "ios": "https://dc.lft.to/lastmile_qr_scan"}, "is_reserved": 0, "is_disabled": 0, "name": "6d3ec8c74b598ce53e585c7f5718d1c6", "bike_id": "6d3ec8c74b598ce53e585c7f5718d1c6", "fusion_lat": 0.0, "lon": -76.998051, "type": "electric_scooter", "fusion_lon": 0.0, "lat": 38.90566883333334}, {"rental_uris": {"android": "https://dc.lft.to/lastmile_qr_scan", "ios": "https://dc.lft.to/lastmile_qr_scan"}, "is_reserved": 0, "is_disabled": 0, "name": "a5cfbafd45667fa6d731f85a37304976", "bike_id": "a5cfbafd45667fa6d731f85a37304976", "fusion_lat": 0.0, "lon": -77.0271315, "type": "electric_scooter", "fusion_lon": 0.0, "lat": 38.92469083333334}, {"rental_uris": {"android": "https://dc.lft.to/lastmile_qr_scan", "ios": "https://dc.lft.to/lastmile_qr_scan"}, "is_reserved": 0, "is_disabled": 0, "name": "a7da0faad687b0835bb5e656cf959055", "bike_id": "a7da0faad687b0835bb5e656cf959055", "fusion_lat": 0.0, "lon": -77.04677983333333, "type": "electric_scooter", "fusion_lon": 0.0, "lat": 38.8956395}, {"rental_uris": {"android": "https://dc.lft.to/lastmile_qr_scan", "ios": "https://dc.lft.to/lastmile_qr_scan"}, "is_reserved": 0, "is_disabled": 0, "name": "b316c92384f16bba502fd2920fef7c71", "bike_id": "b316c92384f16bba502fd2920fef7c71", "fusion_lat": 0.0, "lon": -77.03277783333333, "type": "electric_scooter", "fusion_lon": 0.0, "lat": 38.89885983333333}, {"rental_uris": {"android": "https://dc.lft.to/lastmile_qr_scan", "ios": "https://dc.lft.to/lastmile_qr_scan"}, "is_reserved": 0, "is_disabled": 0, "name": "61549007aee71a80b0cd2388b2f2b6ec", "bike_id": "61549007aee71a80b0cd2388b2f2b6ec", "fusion_lat": 0.0, "lon": -77.02176333333334, "type": "electric_scooter", "fusion_lon": 0.0, "lat": 38.924961833333334}, {"rental_uris": {"android": "https://dc.lft.to/lastmile_qr_scan", "ios": "https://dc.lft.to/lastmile_qr_scan"}, "is_reserved": 0, "is_disabled": 0, "name": "3b6a5b83e61554ad7797dbc03d5e2a7c", "bike_id": "3b6a5b83e61554ad7797dbc03d5e2a7c", "fusion_lat": 0.0, "lon": -77.0237235, "type": "electric_scooter", "fusion_lon": 0.0, "lat": 38.92052866666667}, {"rental_uris": {"android": "https://dc.lft.to/lastmile_qr_scan", "ios": "https://dc.lft.to/lastmile_qr_scan"}, "is_reserved": 0, "is_disabled": 0, "name": "2fdce3471e5d4d39575e88a395a395d9", "bike_id": "2fdce3471e5d4d39575e88a395a395d9", "fusion_lat": 0.0, "lon": -76.9860155, "type": "electric_scooter", "fusion_lon": 0.0, "lat": 38.9065145}, {"rental_uris": {"android": "https://dc.lft.to/lastmile_qr_scan", "ios": "https://dc.lft.to/lastmile_qr_scan"}, "is_reserved": 0, "is_disabled": 0, "name": "2c962336fb558d2c6f8144fd3f10fa2c", "bike_id": "2c962336fb558d2c6f8144fd3f10fa2c", "fusion_lat": 0.0, "lon": -77.01816783333334, "type": "electric_scooter", "fusion_lon": 0.0, "lat": 38.919978666666665}, {"rental_uris": {"android": "https://dc.lft.to/lastmile_qr_scan", "ios": "https://dc.lft.to/lastmile_qr_scan"}, "is_reserved": 0, "is_disabled": 0, "name": "22b17bc02fe541c449c87228af9ac4c2", "bike_id": "22b17bc02fe541c449c87228af9ac4c2", "fusion_lat": 0.0, "lon": -77.02970233333333, "type": "electric_scooter", "fusion_lon": 0.0, "lat": 38.92443566666667}, {"rental_uris": {"android": "https://dc.lft.to/lastmile_qr_scan", "ios": "https://dc.lft.to/lastmile_qr_scan"}, "is_reserved": 0, "is_disabled": 0, "name": "1611edc78ef26e9b88072d17ba041e50", "bike_id": "1611edc78ef26e9b88072d17ba041e50", "fusion_lat": 0.0, "lon": -76.99711316666667, "type": "electric_bike", "fusion_lon": 0.0, "lat": 38.998521}, {"rental_uris": {"android": "https://dc.lft.to/lastmile_qr_scan", "ios": "https://dc.lft.to/lastmile_qr_scan"}, "is_reserved": 0, "is_disabled": 0, "name": "03cf0c59de4d2be58f57cd4ca5cd4d40", "bike_id": "03cf0c59de4d2be58f57cd4ca5cd4d40", "fusion_lat": 0.0, "lon": -77.025696, "type": "electric_scooter", "fusion_lon": 0.0, "lat": 38.912597}, {"rental_uris": {"android": "https://dc.lft.to/lastmile_qr_scan", "ios": "https://dc.lft.to/lastmile_qr_scan"}, "is_reserved": 0, "is_disabled": 0, "name": "89e864b6c77eb2de128cb534877d7e15", "bike_id": "89e864b6c77eb2de128cb534877d7e15", "fusion_lat": 0.0, "lon": -77.02775666666666, "type": "electric_scooter", "fusion_lon": 0.0, "lat": 38.9342275}, {"rental_uris": {"android": "https://dc.lft.to/lastmile_qr_scan", "ios": "https://dc.lft.to/lastmile_qr_scan"}, "is_reserved": 0, "is_disabled": 0, "name": "857aa4c787d927771b54566397be5b9d", "bike_id": "857aa4c787d927771b54566397be5b9d", "fusion_lat": 0.0, "lon": -76.9355105, "type": "electric_scooter", "fusion_lon": 0.0, "lat": 38.88271483333333}, {"rental_uris": {"android": "https://dc.lft.to/lastmile_qr_scan", "ios": "https://dc.lft.to/lastmile_qr_scan"}, "is_reserved": 0, "is_disabled": 0, "name": "a05416f8c545375d071c90f2b2e2661c", "bike_id": "a05416f8c545375d071c90f2b2e2661c", "fusion_lat": 0.0, "lon": -77.00676566666667, "type": "electric_scooter", "fusion_lon": 0.0, "lat": 38.90025633333333}, {"rental_uris": {"android": "https://dc.lft.to/lastmile_qr_scan", "ios": "https://dc.lft.to/lastmile_qr_scan"}, "is_reserved": 0, "is_disabled": 0, "name": "1052c5c2ba9f0d8122e09b3a2f43a162", "bike_id": "1052c5c2ba9f0d8122e09b3a2f43a162", "fusion_lat": 0.0, "lon": -76.96549016666667, "type": "electric_scooter", "fusion_lon": 0.0, "lat": 38.91861016666667}, {"rental_uris": {"android": "https://dc.lft.to/lastmile_qr_scan", "ios": "https://dc.lft.to/lastmile_qr_scan"}, "is_reserved": 0, "is_disabled": 0, "name": "5e5ffcf87436a29abaa23711a47c8527", "bike_id": "5e5ffcf87436a29abaa23711a47c8527", "fusion_lat": 0.0, "lon": -77.02129583333334, "type": "electric_scooter", "fusion_lon": 0.0, "lat": 38.92276}, {"rental_uris": {"android": "https://dc.lft.to/lastmile_qr_scan", "ios": "https://dc.lft.to/lastmile_qr_scan"}, "is_reserved": 0, "is_disabled": 0, "name": "d2ba3f55206fa5fa7130cc96ce7e1546", "bike_id": "d2ba3f55206fa5fa7130cc96ce7e1546", "fusion_lat": 0.0, "lon": -77.0316245, "type": "electric_scooter", "fusion_lon": 0.0, "lat": 38.929717333333336}, {"rental_uris": {"android": "https://dc.lft.to/lastmile_qr_scan", "ios": "https://dc.lft.to/lastmile_qr_scan"}, "is_reserved": 0, "is_disabled": 0, "name": "d85e64a907dab5050764787dce22d3e9", "bike_id": "d85e64a907dab5050764787dce22d3e9", "fusion_lat": 0.0, "lon": -77.05511633333333, "type": "electric_scooter", "fusion_lon": 0.0, "lat": 38.9284315}, {"rental_uris": {"android": "https://dc.lft.to/lastmile_qr_scan", "ios": "https://dc.lft.to/lastmile_qr_scan"}, "is_reserved": 0, "is_disabled": 0, "name": "ca6b46ae5d3840705f6dade5fd0d3b43", "bike_id": "ca6b46ae5d3840705f6dade5fd0d3b43", "fusion_lat": 0.0, "lon": -77.03247283333333, "type": "electric_scooter", "fusion_lon": 0.0, "lat": 38.9171015}, {"rental_uris": {"android": "https://dc.lft.to/lastmile_qr_scan", "ios": "https://dc.lft.to/lastmile_qr_scan"}, "is_reserved": 0, "is_disabled": 0, "name": "347004dc6e8257ded817ece751617a24", "bike_id": "347004dc6e8257ded817ece751617a24", "fusion_lat": 0.0, "lon": -76.96709766666666, "type": "electric_scooter", "fusion_lon": 0.0, "lat": 38.85974233333334}, {"rental_uris": {"android": "https://dc.lft.to/lastmile_qr_scan", "ios": "https://dc.lft.to/lastmile_qr_scan"}, "is_reserved": 0, "is_disabled": 0, "name": "09d437ccda23fc031a5a015d9b91389d", "bike_id": "09d437ccda23fc031a5a015d9b91389d", "fusion_lat": 0.0, "lon": -77.03059716666667, "type": "electric_scooter", "fusion_lon": 0.0, "lat": 38.92372733333333}, {"rental_uris": {"android": "https://dc.lft.to/lastmile_qr_scan", "ios": "https://dc.lft.to/lastmile_qr_scan"}, "is_reserved": 0, "is_disabled": 0, "name": "a3ff13218e4e279ec9f9ef13ab3d1364", "bike_id": "a3ff13218e4e279ec9f9ef13ab3d1364", "fusion_lat": 0.0, "lon": -77.02163533333334, "type": "electric_scooter", "fusion_lon": 0.0, "lat": 38.942927166666664}, {"rental_uris": {"android": "https://dc.lft.to/lastmile_qr_scan", "ios": "https://dc.lft.to/lastmile_qr_scan"}, "is_reserved": 0, "is_disabled": 0, "name": "b16796d991799ce8883a6694b7cf281e", "bike_id": "b16796d991799ce8883a6694b7cf281e", "fusion_lat": 0.0, "lon": -76.9953865, "type": "electric_bike", "fusion_lon": 0.0, "lat": 38.9563145}, {"rental_uris": {"android": "https://dc.lft.to/lastmile_qr_scan", "ios": "https://dc.lft.to/lastmile_qr_scan"}, "is_reserved": 0, "is_disabled": 0, "name": "bddcdbbac6d95163e6fd9bdd0c0363d1", "bike_id": "bddcdbbac6d95163e6fd9bdd0c0363d1", "fusion_lat": 0.0, "lon": -77.01865283333333, "type": "electric_scooter", "fusion_lon": 0.0, "lat": 38.97370816666667}, {"rental_uris": {"android": "https://dc.lft.to/lastmile_qr_scan", "ios": "https://dc.lft.to/lastmile_qr_scan"}, "is_reserved": 0, "is_disabled": 0, "name": "c713aaef2dbcf3ceb277ab100b3069f3", "bike_id": "c713aaef2dbcf3ceb277ab100b3069f3", "fusion_lat": 0.0, "lon": -77.04232633333334, "type": "electric_scooter", "fusion_lon": 0.0, "lat": 38.93419216666667}, {"rental_uris": {"android": "https://dc.lft.to/lastmile_qr_scan", "ios": "https://dc.lft.to/lastmile_qr_scan"}, "is_reserved": 0, "is_disabled": 0, "name": "2fabce011ac41ed17a6e21092a5b2a15", "bike_id": "2fabce011ac41ed17a6e21092a5b2a15", "fusion_lat": 0.0, "lon": -77.021667, "type": "electric_scooter", "fusion_lon": 0.0, "lat": 38.887185333333335}, {"rental_uris": {"android": "https://dc.lft.to/lastmile_qr_scan", "ios": "https://dc.lft.to/lastmile_qr_scan"},