{"data": {"bikes": [{"lon": -76.99661183333333, "fusion_lon": 0.0, "bike_id": "760534282403f3cc26408b8992c5fda7", "type": "electric_scooter", "name": "760534282403f3cc26408b8992c5fda7", "rental_uris": {"android": "https://dc.lft.to/lastmile_qr_scan", "ios": "https://dc.lft.to/lastmile_qr_scan"}, "is_disabled": 0, "fusion_lat": 0.0, "lat": 38.8600755, "is_reserved": 0}, {"lon": -77.0228175, "fusion_lon": 0.0, "bike_id": "2c610d0059e8d37313ba1e067a248242", "type": "electric_scooter", "name": "2c610d0059e8d37313ba1e067a248242", "rental_uris": {"android": "https://dc.lft.to/lastmile_qr_scan", "ios": "https://dc.lft.to/lastmile_qr_scan"}, "is_disabled": 0, "fusion_lat": 0.0, "lat": 38.908581166666664, "is_reserved": 0}, {"lon": -77.02697933333333, "fusion_lon": 0.0, "bike_id": "3dff1463b6eefa2bc8e69b747dc0bcc7", "type": "electric_scooter", "name": "3dff1463b6eefa2bc8e69b747dc0bcc7", "rental_uris": {"android": "https://dc.lft.to/lastmile_qr_scan", "ios": "https://dc.lft.to/lastmile_qr_scan"}, "is_disabled": 0, "fusion_lat": 0.0, "lat": 38.9084335, "is_reserved": 0}, {"lon": -77.029619, "fusion_lon": 0.0, "bike_id": "20efe4315b227c5c54ce9060d5270853", "type": "electric_scooter", "name": "20efe4315b227c5c54ce9060d5270853", "rental_uris": {"android": "https://dc.lft.to/lastmile_qr_scan", "ios": "https://dc.lft.to/lastmile_qr_scan"}, "is_disabled": 0, "fusion_lat": 0.0, "lat": 38.92321316666666, "is_reserved": 0}, {"lon": -77.026042, "fusion_lon": 0.0, "bike_id": "d63f2e7a19cbd42cf8cbfe65112d9a69", "type": "electric_scooter", "name": "d63f2e7a19cbd42cf8cbfe65112d9a69", "rental_uris": {"android": "https://dc.lft.to/lastmile_qr_scan", "ios": "https://dc.lft.to/lastmile_qr_scan"}, "is_disabled": 0, "fusion_lat": 0.0, "lat": 38.92842383333333, "is_reserved": 0}, {"lon": -76.98584816666667, "fusion_lon": 0.0, "bike_id": "8ba3edd35d4e6154c2d0b03c594597d4", "type": "electric_scooter", "name": "8ba3edd35d4e6154c2d0b03c594597d4", "rental_uris": {"android": "https://dc.lft.to/lastmile_qr_scan", "ios": "https://dc.lft.to/lastmile_qr_scan"}, "is_disabled": 0, "fusion_lat": 0.0, "lat": 38.884049833333336, "is_reserved": 0}, {"lon": -76.93339033333334, "fusion_lon": 0.0, "bike_id": "811038a87edcd33d78947a56a0b1afa0", "type": "electric_scooter", "name": "811038a87edcd33d78947a56a0b1afa0", "rental_uris": {"android": "https://dc.lft.to/lastmile_qr_scan", "ios": "https://dc.lft.to/lastmile_qr_scan"}, "is_disabled": 0, "fusion_lat": 0.0, "lat": 38.9086735, "is_reserved": 0}, {"lon": -77.00211116666667, "fusion_lon": 0.0, "bike_id": "5ddc5f8c07b055da6a7f51fde25f49a2", "type": "electric_scooter", "name": "5ddc5f8c07b055da6a7f51fde25f49a2", "rental_uris": {"android": "https://dc.lft.to/lastmile_qr_scan", "ios": "https://dc.lft.to/lastmile_qr_scan"}, "is_disabled": 0, "fusion_lat": 0.0, "lat": 38.907684333333336, "is_reserved": 0}, {"lon": -77.00056266666667, "fusion_lon": 0.0, "bike_id": "9b34646e7faf86e96194378ee2da98f2", "type": "electric_scooter", "name": "9b34646e7faf86e96194378ee2da98f2", "rental_uris": {"android": "https://dc.lft.to/lastmile_qr_scan", "ios": "https://dc.lft.to/lastmile_qr_scan"}, "is_disabled": 0, "fusion_lat": 0.0, "lat": 38.875378833333336, "is_reserved": 0}, {"lon": -77.05045466666667, "fusion_lon": 0.0, "bike_id": "ace647eb730431b304dc67b0eb61e2ff", "type": "electric_scooter", "name": "ace647eb730431b304dc67b0eb61e2ff", "rental_uris": {"android": "https://dc.lft.to/lastmile_qr_scan", "ios": "https://dc.lft.to/lastmile_qr_scan"}, "is_disabled": 0, "fusion_lat": 0.0, "lat": 38.923616833333334, "is_reserved": 0}, {"lon": -77.00595433333334, "fusion_lon": 0.0, "bike_id": "ec4200179b92abf6ff0267b8d051d525", "type": "electric_scooter", "name": "ec4200179b92abf6ff0267b8d051d525", "rental_uris": {"android": "https://dc.lft.to/lastmile_qr_scan", "ios": "https://dc.lft.to/lastmile_qr_scan"}, "is_disabled": 0, "fusion_lat": 0.0, "lat": 38.90564833333333, "is_reserved": 0}, {"lon": -77.00791383333333, "fusion_lon": 0.0, "bike_id": "a760bdd154b709469d982bbdcb4e4154", "type": "electric_scooter", "name": "a760bdd154b709469d982bbdcb4e4154", "rental_uris": {"android": "https://dc.lft.to/lastmile_qr_scan", "ios": "https://dc.lft.to/lastmile_qr_scan"}, "is_disabled": 0, "fusion_lat": 0.0, "lat": 38.905681666666666, "is_reserved": 0}, {"lon": -77.0046335, "fusion_lon": 0.0, "bike_id": "a013b4be058790445969e57bccc5fa7a", "type": "electric_scooter", "name": "a013b4be058790445969e57bccc5fa7a", "rental_uris": {"android": "https://dc.lft.to/lastmile_qr_scan", "ios": "https://dc.lft.to/lastmile_qr_scan"}, "is_disabled": 0, "fusion_lat": 0.0, "lat": 38.87663166666667, "is_reserved": 0}, {"lon": -76.93559916666666, "fusion_lon": 0.0, "bike_id": "4b5ea5cc21d6c13839504b1c359d6423", "type": "electric_scooter", "name": "4b5ea5cc21d6c13839504b1c359d6423", "rental_uris": {"android": "https://dc.lft.to/lastmile_qr_scan", "ios": "https://dc.lft.to/lastmile_qr_scan"}, "is_disabled": 0, "fusion_lat": 0.0, "lat": 38.8826285, "is_reserved": 0}, {"lon": -77.03657416666667, "fusion_lon": 0.0, "bike_id": "54d40e4170c4b35314603e4e50874567", "type": "electric_scooter", "name": "54d40e4170c4b35314603e4e50874567", "rental_uris": {"android": "https://dc.lft.to/lastmile_qr_scan", "ios": "https://dc.lft.to/lastmile_qr_scan"}, "is_disabled": 0, "fusion_lat": 0.0, "lat": 38.90814966666667, "is_reserved": 0}, {"lon": -77.07281766666667, "fusion_lon": 0.0, "bike_id": "c44f03cab048a0927f5dd369727885ce", "type": "electric_scooter", "name": "c44f03cab048a0927f5dd369727885ce", "rental_uris": {"android": "https://dc.lft.to/lastmile_qr_scan", "ios": "https://dc.lft.to/lastmile_qr_scan"}, "is_disabled": 0, "fusion_lat": 0.0, "lat": 38.93475766666667, "is_reserved": 0}, {"lon": -76.94854483333333, "fusion_lon": 0.0, "bike_id": "4c7a9db329496200fe73faf39c50e0ba", "type": "electric_scooter", "name": "4c7a9db329496200fe73faf39c50e0ba", "rental_uris": {"android": "https://dc.lft.to/lastmile_qr_scan", "ios": "https://dc.lft.to/lastmile_qr_scan"}, "is_disabled": 0, "fusion_lat": 0.0, "lat": 38.88304983333333, "is_reserved": 0}, {"lon": -77.03193266666666, "fusion_lon": 0.0, "bike_id": "e4b1e5ebf0328a7dc776d19c78fa2a25", "type": "electric_scooter", "name": "e4b1e5ebf0328a7dc776d19c78fa2a25", "rental_uris": {"android": "https://dc.lft.to/lastmile_qr_scan", "ios": "https://dc.lft.to/lastmile_qr_scan"}, "is_disabled": 0, "fusion_lat": 0.0, "lat": 38.892446666666665, "is_reserved": 0}, {"lon": -77.04228766666667, "fusion_lon": 0.0, "bike_id": "323ddb08a83c168469313c6c326de1cc", "type": "electric_scooter", "name": "323ddb08a83c168469313c6c326de1cc", "rental_uris": {"android": "https://dc.lft.to/lastmile_qr_scan", "ios": "https://dc.lft.to/lastmile_qr_scan"}, "is_disabled": 0, "fusion_lat": 0.0, "lat": 38.911075, "is_reserved": 0}, {"lon": -77.03422766666667, "fusion_lon": 0.0, "bike_id": "60281f19aadee48a7661667df265f360", "type": "electric_scooter", "name": "60281f19aadee48a7661667df265f360", "rental_uris": {"android": "https://dc.lft.to/lastmile_qr_scan", "ios": "https://dc.lft.to/lastmile_qr_scan"}, "is_disabled": 0, "fusion_lat": 0.0, "lat": 38.909581833333334, "is_reserved": 0}, {"lon": -77.041616, "fusion_lon": 0.0, "bike_id": "7d1ec741d4466b4e030b915f662e44d8", "type": "electric_scooter", "name": "7d1ec741d4466b4e030b915f662e44d8", "rental_uris": {"android": "https://dc.lft.to/lastmile_qr_scan", "ios": "https://dc.lft.to/lastmile_qr_scan"}, "is_disabled": 0, "fusion_lat": 0.0, "lat": 38.892335, "is_reserved": 0}, {"lon": -77.06415166666666, "fusion_lon": 0.0, "bike_id": "96bd11bad830f692b768770f7dd99815", "type": "electric_scooter", "name": "96bd11bad830f692b768770f7dd99815", "rental_uris": {"android": "https://dc.lft.to/lastmile_qr_scan", "ios": "https://dc.lft.to/lastmile_qr_scan"}, "is_disabled": 0, "fusion_lat": 0.0, "lat": 38.9134405, "is_reserved": 0}, {"lon": -77.03455183333334, "fusion_lon": 0.0, "bike_id": "3d3d0c218ed6e873c6787236c7e838bb", "type": "electric_scooter", "name": "3d3d0c218ed6e873c6787236c7e838bb", "rental_uris": {"android": "https://dc.lft.to/lastmile_qr_scan", "ios": "https://dc.lft.to/lastmile_qr_scan"}, "is_disabled": 0, "fusion_lat": 0.0, "lat": 38.908329, "is_reserved": 0}, {"lon": -76.9489225, "fusion_lon": 0.0, "bike_id": "e384bb5bb49daf2c2b74c5ca349d9f67", "type": "electric_scooter", "name": "e384bb5bb49daf2c2b74c5ca349d9f67", "rental_uris": {"android": "https://dc.lft.to/lastmile_qr_scan", "ios": "https://dc.lft.to/lastmile_qr_scan"}, "is_disabled": 0, "fusion_lat": 0.0, "lat": 38.895361333333334, "is_reserved": 0}, {"lon": -76.91594166666667, "fusion_lon": 0.0, "bike_id": "be6ce5b961a5be23ce7115a785b43261", "type": "electric_bike", "name": "be6ce5b961a5be23ce7115a785b43261", "rental_uris": {"android": "https://dc.lft.to/lastmile_qr_scan", "ios": "https://dc.lft.to/lastmile_qr_scan"}, "is_disabled": 0, "fusion_lat": 0.0, "lat": 38.879869166666666, "is_reserved": 0}, {"lon": -77.05258066666667, "fusion_lon": 0.0, "bike_id": "3c5a55d182f7c8ad3922f8433c28d247", "type": "electric_scooter", "name": "3c5a55d182f7c8ad3922f8433c28d247", "rental_uris": {"android": "https://dc.lft.to/lastmile_qr_scan", "ios": "https://dc.lft.to/lastmile_qr_scan"}, "is_disabled": 0, "fusion_lat": 0.0, "lat": 38.9278705, "is_reserved": 0}, {"lon": -76.94890133333334, "fusion_lon": 0.0, "bike_id": "e000bbdbc2b17ca91e0149e3dcbb8524", "type": "electric_scooter", "name": "e000bbdbc2b17ca91e0149e3dcbb8524", "rental_uris": {"android": "https://dc.lft.to/lastmile_qr_scan", "ios": "https://dc.lft.to/lastmile_qr_scan"}, "is_disabled": 0, "fusion_lat": 0.0, "lat": 38.895331, "is_reserved": 0}, {"lon": -77.02790683333333, "fusion_lon": 0.0, "bike_id": "39af1931067a40b0dcaba7feb971d8d2", "type": "electric_scooter", "name": "39af1931067a40b0dcaba7feb971d8d2", "rental_uris": {"android": "https://dc.lft.to/lastmile_qr_scan", "ios": "https://dc.lft.to/lastmile_qr_scan"}, "is_disabled": 0, "fusion_lat": 0.0, "lat": 38.91712966666667, "is_reserved": 0}, {"lon": -77.04150116666666, "fusion_lon": 0.0, "bike_id": "ef8eeafef33bf25e52314e20562ae436", "type": "electric_scooter", "name": "ef8eeafef33bf25e52314e20562ae436", "rental_uris": {"android": "https://dc.lft.to/lastmile_qr_scan", "ios": "https://dc.lft.to/lastmile_qr_scan"}, "is_disabled": 0, "fusion_lat": 0.0, "lat": 38.906261, "is_reserved": 0}, {"lon": -77.04939066666667, "fusion_lon": 0.0, "bike_id": "0fcac5804e7e4d661513157265f497d6", "type": "electric_scooter", "name": "0fcac5804e7e4d661513157265f497d6", "rental_uris": {"android": "https://dc.lft.to/lastmile_qr_scan", "ios": "https://dc.lft.to/lastmile_qr_scan"}, "is_disabled": 0, "fusion_lat": 0.0, "lat": 38.888258666666665, "is_reserved": 0}, {"lon": -77.02711016666667, "fusion_lon": 0.0, "bike_id": "c1f4e70c21e32955cf8eb6163cfa47ea", "type": "electric_scooter", "name": "c1f4e70c21e32955cf8eb6163cfa47ea", "rental_uris": {"android": "https://dc.lft.to/lastmile_qr_scan", "ios": "https://dc.lft.to/lastmile_qr_scan"}, "is_disabled": 0, "fusion_lat": 0.0, "lat": 38.91550633333333, "is_reserved": 0}, {"lon": -76.98714283333334, "fusion_lon": 0.0, "bike_id": "c131d83de2672f28db4d737853bb21f8", "type": "electric_scooter", "name": "c131d83de2672f28db4d737853bb21f8", "rental_uris": {"android": "https://dc.lft.to/lastmile_qr_scan", "ios": "https://dc.lft.to/lastmile_qr_scan"}, "is_disabled": 0, "fusion_lat": 0.0, "lat": 38.86702983333333, "is_reserved": 0}, {"lon": -76.94044866666667, "fusion_lon": 0.0, "bike_id": "37918fd296bf12e51d740aa44c580cb8", "type": "electric_bike", "name": "37918fd296bf12e51d740aa44c580cb8", "rental_uris": {"android": "https://dc.lft.to/lastmile_qr_scan", "ios": "https://dc.lft.to/lastmile_qr_scan"}, "is_disabled": 0, "fusion_lat": 0.0, "lat": 38.978612166666665, "is_reserved": 0}, {"lon": -76.946408, "fusion_lon": 0.0, "bike_id": "064272bbca16ccf7dac4722975529ea8", "type": "electric_scooter", "name": "064272bbca16ccf7dac4722975529ea8", "rental_uris": {"android": "https://dc.lft.to/lastmile_qr_scan", "ios": "https://dc.lft.to/lastmile_qr_scan"}, "is_disabled": 0, "fusion_lat": 0.0, "lat": 38.89868966666667, "is_reserved": 0}, {"lon": -77.04159716666666, "fusion_lon": 0.0, "bike_id": "831c707d76174838abe7ae21c422dd30", "type": "electric_scooter", "name": "831c707d76174838abe7ae21c422dd30", "rental_uris": {"android": "https://dc.lft.to/lastmile_qr_scan", "ios": "https://dc.lft.to/lastmile_qr_scan"}, "is_disabled": 0, "fusion_lat": 0.0, "lat": 38.91448166666667, "is_reserved": 0}, {"lon": -76.9739875, "fusion_lon": 0.0, "bike_id": "44cc1874a1c1839e12491e5c2342ede0", "type": "electric_bike", "name": "44cc1874a1c1839e12491e5c2342ede0", "rental_uris": {"android": "https://dc.lft.to/lastmile_qr_scan", "ios": "https://dc.lft.to/lastmile_qr_scan"}, "is_disabled": 0, "fusion_lat": 0.0, "lat": 38.84527633333333, "is_reserved": 0}, {"lon": -77.0042145, "fusion_lon": 0.0, "bike_id": "449e11c772a8830da3c275c85263a9d1", "type": "electric_scooter", "name": "449e11c772a8830da3c275c85263a9d1", "rental_uris": {"android": "https://dc.lft.to/lastmile_qr_scan", "ios": "https://dc.lft.to/lastmile_qr_scan"}, "is_disabled": 0, "fusion_lat": 0.0, "lat": 38.876642833333335, "is_reserved": 0}, {"lon": -77.047963, "fusion_lon": 0.0, "bike_id": "ea9f58cedea5099d09a08245fad0e569", "type": "electric_scooter", "name": "ea9f58cedea5099d09a08245fad0e569", "rental_uris": {"android": "https://dc.lft.to/lastmile_qr_scan", "ios": "https://dc.lft.to/lastmile_qr_scan"}, "is_disabled": 0, "fusion_lat": 0.0, "lat": 38.9193735, "is_reserved": 0}, {"lon": -77.04675266666666, "fusion_lon": 0.0, "bike_id": "06848f7afde5933620dc15a3f4fa9353", "type": "electric_scooter", "name": "06848f7afde5933620dc15a3f4fa9353", "rental_uris": {"android": "https://dc.lft.to/lastmile_qr_scan", "ios": "https://dc.lft.to/lastmile_qr_scan"}, "is_disabled": 0, "fusion_lat": 0.0, "lat": 38.89461383333333, "is_reserved": 0}, {"lon": -76.94654166666666, "fusion_lon": 0.0, "bike_id": "1c7d932f7758e91aa8f28707fd7cd037", "type": "electric_scooter", "name": "1c7d932f7758e91aa8f28707fd7cd037", "rental_uris": {"android": "https://dc.lft.to/lastmile_qr_scan", "ios": "https://dc.lft.to/lastmile_qr_scan"}, "is_disabled": 0, "fusion_lat": 0.0, "lat": 38.8982865, "is_reserved": 0}, {"lon": -77.03665833333334, "fusion_lon": 0.0, "bike_id": "b076b23c20b3844741e799c76f57e689", "type": "electric_scooter", "name": "b076b23c20b3844741e799c76f57e689", "rental_uris": {"android": "https://dc.lft.to/lastmile_qr_scan", "ios": "https://dc.lft.to/lastmile_qr_scan"}, "is_disabled": 0, "fusion_lat": 0.0, "lat": 38.92677483333333, "is_reserved": 0}, {"lon": -77.03270083333334, "fusion_lon": 0.0, "bike_id": "1169be176ef447e1840ac589b2d3a956", "type": "electric_scooter", "name": "1169be176ef447e1840ac589b2d3a956", "rental_uris": {"android": "https://dc.lft.to/lastmile_qr_scan", "ios": "https://dc.lft.to/lastmile_qr_scan"}, "is_disabled": 0, "fusion_lat": 0.0, "lat": 38.919950666666665, "is_reserved": 0}, {"lon": -77.012284, "fusion_lon": 0.0, "bike_id": "208e80d1c857971a41ff317f57bec5b3", "type": "electric_scooter", "name": "208e80d1c857971a41ff317f57bec5b3", "rental_uris": {"android": "https://dc.lft.to/lastmile_qr_scan", "ios": "https://dc.lft.to/lastmile_qr_scan"}, "is_disabled": 0, "fusion_lat": 0.0, "lat": 38.911050833333334, "is_reserved": 0}, {"lon": -77.01576783333333, "fusion_lon": 0.0, "bike_id": "340e0a7f20fdf235d50decbeb0af783b", "type": "electric_scooter", "name": "340e0a7f20fdf235d50decbeb0af783b", "rental_uris": {"android": "https://dc.lft.to/lastmile_qr_scan", "ios": "https://dc.lft.to/lastmile_qr_scan"}, "is_disabled": 0, "fusion_lat": 0.0, "lat": 38.91571733333333, "is_reserved": 0}, {"lon": -77.033312, "fusion_lon": 0.0, "bike_id": "98a48b7ec4ddc98a8eb438cf42956e55", "type": "electric_bike", "name": "98a48b7ec4ddc98a8eb438cf42956e55", "rental_uris": {"android": "https://dc.lft.to/lastmile_qr_scan", "ios": "https://dc.lft.to/lastmile_qr_scan"}, "is_disabled": 0, "fusion_lat": 0.0, "lat": 38.92059883333334, "is_reserved": 0}, {"lon": -77.031492, "fusion_lon": 0.0, "bike_id": "04f04c7859a355fa16b130e3db08c407", "type": "electric_scooter", "name": "04f04c7859a355fa16b130e3db08c407", "rental_uris": {"android": "https://dc.lft.to/lastmile_qr_scan", "ios": "https://dc.lft.to/lastmile_qr_scan"}, "is_disabled": 0, "fusion_lat": 0.0, "lat": 38.915648166666664, "is_reserved": 0}, {"lon": -77.052938, "fusion_lon": 0.0, "bike_id": "7d78c81a6361f85db33ae0c4e342a97e", "type": "electric_scooter", "name": "7d78c81a6361f85db33ae0c4e342a97e", "rental_uris": {"android": "https://dc.lft.to/lastmile_qr_scan", "ios": "https://dc.lft.to/lastmile_qr_scan"}, "is_disabled": 0, "fusion_lat": 0.0, "lat": 38.90528916666667, "is_reserved": 0}, {"lon": -77.0238695, "fusion_lon": 0.0, "bike_id": "3a85d90a569ed309d9c96b15bfec96cc", "type": "electric_scooter", "name": "3a85d90a569ed309d9c96b15bfec96cc", "rental_uris": {"android": "https://dc.lft.to/lastmile_qr_scan", "ios": "https://dc.lft.to/lastmile_qr_scan"}, "is_disabled": 0, "fusion_lat": 0.0, "lat": 38.912924333333336, "is_reserved": 0}, {"lon": -77.00465366666667, "fusion_lon": 0.0, "bike_id": "2da9be8bb9a547688f77835c721b5f95", "type": "electric_scooter", "name": "2da9be8bb9a547688f77835c721b5f95", "rental_uris": {"android": "https://dc.lft.to/lastmile_qr_scan", "ios": "https://dc.lft.to/lastmile_qr_scan"}, "is_disabled": 0, "fusion_lat": 0.0, "lat": 38.910674666666665, "is_reserved": 0}, {"lon": -77.08964016666667, "fusion_lon": 0.0, "bike_id": "318d8ab478981cc8a757f4c62fea9193", "type": "electric_scooter", "name": "318d8ab478981cc8a757f4c62fea9193", "rental_uris": {"android": "https://dc.lft.to/lastmile_qr_scan", "ios": "https://dc.lft.to/lastmile_qr_scan"}, "is_disabled": 0, "fusion_lat": 0.0, "lat": 38.93430016666667, "is_reserved": 0}, {"lon": -77.0010755, "fusion_lon": 0.0, "bike_id": "a5eacec3b419aa42b656d66c51231d51", "type": "electric_scooter", "name": "a5eacec3b419aa42b656d66c51231d51", "rental_uris": {"android": "https://dc.lft.to/lastmile_qr_scan", "ios": "https://dc.lft.to/lastmile_qr_scan"}, "is_disabled": 0, "fusion_lat": 0.0, "lat": 38.91635266666667, "is_reserved": 0}, {"lon": -77.01082266666667, "fusion_lon": 0.0, "bike_id": "8256315703578c28ed85e04e7b935b0d", "type": "electric_scooter", "name": "8256315703578c28ed85e04e7b935b0d", "rental_uris": {"android": "https://dc.lft.to/lastmile_qr_scan", "ios": "https://dc.lft.to/lastmile_qr_scan"}, "is_disabled": 0, "fusion_lat": 0.0, "lat": 38.91747383333333, "is_reserved": 0}, {"lon": -76.99541833333333, "fusion_lon": 0.0, "bike_id": "7363c287223a0d750ecd10a18f456f8f", "type": "electric_bike", "name": "7363c287223a0d750ecd10a18f456f8f", "rental_uris": {"android": "https://dc.lft.to/lastmile_qr_scan", "ios": "https://dc.lft.to/lastmile_qr_scan"}, "is_disabled": 0, "fusion_lat": 0.0, "lat": 38.83159283333333, "is_reserved": 0}, {"lon": -76.99063066666666, "fusion_lon": 0.0, "bike_id": "4c18a6b8f89044079cb33513f3afa077", "type": "electric_scooter", "name": "4c18a6b8f89044079cb33513f3afa077", "rental_uris": {"android": "https://dc.lft.to/lastmile_qr_scan", "ios": "https://dc.lft.to/lastmile_qr_scan"}, "is_disabled": 0, "fusion_lat": 0.0, "lat": 38.863759, "is_reserved": 0}, {"lon": -76.94963966666667, "fusion_lon": 0.0, "bike_id": "234cfa0a3d77d4d783faed64a54d90fa", "type": "electric_scooter", "name": "234cfa0a3d77d4d783faed64a54d90fa", "rental_uris": {"android": "https://dc.lft.to/lastmile_qr_scan", "ios": "https://dc.lft.to/lastmile_qr_scan"}, "is_disabled": 0, "fusion_lat": 0.0, "lat": 38.894668833333334, "is_reserved": 0}, {"lon": -77.01972116666667, "fusion_lon": 0.0, "bike_id": "bfb6dc97eb65188b70900f0c4b0bf022", "type": "electric_scooter", "name": "bfb6dc97eb65188b70900f0c4b0bf022", "rental_uris": {"android": "https://dc.lft.to/lastmile_qr_scan", "ios": "https://dc.lft.to/lastmile_qr_scan"}, "is_disabled": 0, "fusion_lat": 0.0, "lat": 38.97749016666667, "is_reserved": 0}, {"lon": -76.99256233333334, "fusion_lon": 0.0, "bike_id": "fdc95b878005f8d783b5be20b5310416", "type": "electric_scooter", "name": "fdc95b878005f8d783b5be20b5310416", "rental_uris": {"android": "https://dc.lft.to/lastmile_qr_scan", "ios": "https://dc.lft.to/lastmile_qr_scan"}, "is_disabled": 0, "fusion_lat": 0.0, "lat": 38.892757, "is_reserved": 0}, {"lon": -77.03943133333334, "fusion_lon": 0.0, "bike_id": "a7a4ca8185209f339d73bab8d5707b14", "type": "electric_scooter", "name": "a7a4ca8185209f339d73bab8d5707b14", "rental_uris": {"android": "https://dc.lft.to/lastmile_qr_scan", "ios": "https://dc.lft.to/lastmile_qr_scan"}, "is_disabled": 0, "fusion_lat": 0.0, "lat": 38.9029785, "is_reserved": 0}, {"lon": -77.048384, "fusion_lon": 0.0, "bike_id": "1d9caef6367e7ebe8bd1d14595dcc21f", "type": "electric_scooter", "name": "1d9caef6367e7ebe8bd1d14595dcc21f", "rental_uris": {"android": "https://dc.lft.to/lastmile_qr_scan", "ios": "https://dc.lft.to/lastmile_qr_scan"}, "is_disabled": 0, "fusion_lat": 0.0, "lat": 38.91175483333333, "is_reserved": 0}, {"lon": -77.03664916666666, "fusion_lon": 0.0, "bike_id": "743c86b5d090a7a97af68d30edfc0e34", "type": "electric_scooter", "name": "743c86b5d090a7a97af68d30edfc0e34", "rental_uris": {"android": "https://dc.lft.to/lastmile_qr_scan", "ios": "https://dc.lft.to/lastmile_qr_scan"}, "is_disabled": 0, "fusion_lat": 0.0, "lat": 38.9113765, "is_reserved": 0}, {"lon": -77.021159, "fusion_lon": 0.0, "bike_id": "e9ad20898c2878a3324960786c0b52d3", "type": "electric_bike", "name": "e9ad20898c2878a3324960786c0b52d3", "rental_uris": {"android": "https://dc.lft.to/lastmile_qr_scan", "ios": "https://dc.lft.to/lastmile_qr_scan"}, "is_disabled": 0, "fusion_lat": 0.0, "lat": 38.93601683333333, "is_reserved": 0}, {"lon": -77.03713083333334, "fusion_lon": 0.0, "bike_id": "7b2a77639847781b8bf5bad7d2be5377", "type": "electric_scooter", "name": "7b2a77639847781b8bf5bad7d2be5377", "rental_uris": {"android": "https://dc.lft.to/lastmile_qr_scan", "ios": "https://dc.lft.to/lastmile_qr_scan"}, "is_disabled": 0, "fusion_lat": 0.0, "lat": 38.928638, "is_reserved": 0}, {"lon": -77.03828483333334, "fusion_lon": 0.0, "bike_id": "3d6c5184ac12281bbc0e78c8ccc3e3cf", "type": "electric_scooter", "name": "3d6c5184ac12281bbc0e78c8ccc3e3cf", "rental_uris": {"android": "https://dc.lft.to/lastmile_qr_scan", "ios": "https://dc.lft.to/lastmile_qr_scan"}, "is_disabled": 0, "fusion_lat": 0.0, "lat": 38.911237666666665, "is_reserved": 0}, {"lon": -77.02459316666666, "fusion_lon": 0.0, "bike_id": "b0607189dcd7fbe2f79c82df906fa0cd", "type": "electric_scooter", "name": "b0607189dcd7fbe2f79c82df906fa0cd", "rental_uris": {"android": "https://dc.lft.to/lastmile_qr_scan", "ios": "https://dc.lft.to/lastmile_qr_scan"}, "is_disabled": 0, "fusion_lat": 0.0, "lat": 38.917119, "is_reserved": 0}, {"lon": -76.987174, "fusion_lon": 0.0, "bike_id": "84f9e6017f27ebb68bccffd0c940ecd4", "type": "electric_scooter", "name": "84f9e6017f27ebb68bccffd0c940ecd4", "rental_uris": {"android": "https://dc.lft.to/lastmile_qr_scan", "ios": "https://dc.lft.to/lastmile_qr_scan"}, "is_disabled": 0, "fusion_lat": 0.0, "lat": 38.866306, "is_reserved": 0}, {"lon": -76.9980715, "fusion_lon": 0.0, "bike_id": "f98dcc6b202a111c4b4f8a2250ae7f3e", "type": "electric_bike", "name": "f98dcc6b202a111c4b4f8a2250ae7f3e", "rental_uris": {"android": "https://dc.lft.to/lastmile_qr_scan", "ios": "https://dc.lft.to/lastmile_qr_scan"}, "is_disabled": 0, "fusion_lat": 0.0, "lat": 38.81980466666667, "is_reserved": 0}, {"lon": -77.0320975, "fusion_lon": 0.0, "bike_id": "658df4ba9a7ff1528252dd583f376f64", "type": "electric_scooter", "name": "658df4ba9a7ff1528252dd583f376f64", "rental_uris": {"android": "https://dc.lft.to/lastmile_qr_scan", "ios": "https://dc.lft.to/lastmile_qr_scan"}, "is_disabled": 0, "fusion_lat": 0.0, "lat": 38.89237333333333, "is_reserved": 0}, {"lon": -77.07655333333334, "fusion_lon": 0.0, "bike_id": "5a316fb0938e93ba3d4ccde647b07149", "type": "electric_scooter", "name": "5a316fb0938e93ba3d4ccde647b07149", "rental_uris": {"android": "https://dc.lft.to/lastmile_qr_scan", "ios": "https://dc.lft.to/lastmile_qr_scan"}, "is_disabled": 0, "fusion_lat": 0.0, "lat": 38.9432535, "is_reserved": 0}, {"lon": -77.01941483333333, "fusion_lon": 0.0, "bike_id": "631f64a5be26d145ff604d17391aa5f3", "type": "electric_scooter", "name": "631f64a5be26d145ff604d17391aa5f3", "rental_uris": {"android": "https://dc.lft.to/lastmile_qr_scan", "ios": "https://dc.lft.to/lastmile_qr_scan"}, "is_disabled": 0, "fusion_lat": 0.0, "lat": 38.92422233333333, "is_reserved": 0}, {"lon": -77.03498216666667, "fusion_lon": 0.0, "bike_id": "bbec663bfba929bb03552cf82f814958", "type": "electric_scooter", "name": "bbec663bfba929bb03552cf82f814958", "rental_uris": {"android": "https://dc.lft.to/lastmile_qr_scan", "ios": "https://dc.lft.to/lastmile_qr_scan"}, "is_disabled": 0, "fusion_lat": 0.0, "lat": 38.917093, "is_reserved": 0}, {"lon": -77.01817266666667, "fusion_lon": 0.0, "bike_id": "a258ef1ba84ef11fc16df4f292db1306", "type": "electric_scooter", "name": "a258ef1ba84ef11fc16df4f292db1306", "rental_uris": {"android": "https://dc.lft.to/lastmile_qr_scan", "ios": "https://dc.lft.to/lastmile_qr_scan"}, "is_disabled": 0, "fusion_lat": 0.0, "lat": 38.902610833333334, "is_reserved": 0}, {"lon": -77.02902783333333, "fusion_lon": 0.0, "bike_id": "0c03e2d84c4502bbe9b19133b882d112", "type": "electric_scooter", "name": "0c03e2d84c4502bbe9b19133b882d112", "rental_uris": {"android": "https://dc.lft.to/lastmile_qr_scan", "ios": "https://dc.lft.to/lastmile_qr_scan"}, "is_disabled": 0, "fusion_lat": 0.0, "lat": 38.917126333333336, "is_reserved": 0}, {"lon": -77.01164833333333, "fusion_lon": 0.0, "bike_id": "d9e030b000e4df7f5090593588b39e36", "type": "electric_scooter", "name": "d9e030b000e4df7f5090593588b39e36", "rental_uris": {"android": "https://dc.lft.to/lastmile_qr_scan", "ios": "https://dc.lft.to/lastmile_qr_scan"}, "is_disabled": 0, "fusion_lat": 0.0, "lat": 38.91120566666667, "is_reserved": 0}, {"lon": -77.03741833333333, "fusion_lon": 0.0, "bike_id": "be5034d5c4d3431d91624f9081a3a942", "type": "electric_scooter", "name": "be5034d5c4d3431d91624f9081a3a942", "rental_uris": {"android": "https://dc.lft.to/lastmile_qr_scan", "ios": "https://dc.lft.to/lastmile_qr_scan"}, "is_disabled": 0, "fusion_lat": 0.0, "lat": 38.91619266666667, "is_reserved": 0}, {"lon": -77.03528, "fusion_lon": 0.0, "bike_id": "52ff474574d4adb68d0adec23289b422", "type": "electric_scooter", "name": "52ff474574d4adb68d0adec23289b422", "rental_uris": {"android": "https://dc.lft.to/lastmile_qr_scan", "ios": "https://dc.lft.to/lastmile_qr_scan"}, "is_disabled": 0, "fusion_lat": 0.0, "lat": 38.92537866666667, "is_reserved": 0}, {"lon": -77.001156, "fusion_lon": 0.0, "bike_id": "795ac76c7aa0e340e276ad5ddebb38f2", "type": "electric_scooter", "name": "795ac76c7aa0e340e276ad5ddebb38f2", "rental_uris": {"android": "https://dc.lft.to/lastmile_qr_scan", "ios": "https://dc.lft.to/lastmile_qr_scan"}, "is_disabled": 0, "fusion_lat": 0.0, "lat": 38.87359083333333, "is_reserved": 0}, {"lon": -77.03827366666667, "fusion_lon": 0.0, "bike_id": "3abb8d98642b77abdb570318e264a627", "type": "electric_scooter", "name": "3abb8d98642b77abdb570318e264a627", "rental_uris": {"android": "https://dc.lft.to/lastmile_qr_scan", "ios": "https://dc.lft.to/lastmile_qr_scan"}, "is_disabled": 0, "fusion_lat": 0.0, "lat": 38.908012, "is_reserved": 0}, {"lon": -77.04454033333333, "fusion_lon": 0.0, "bike_id": "8daccd7a374aee942546fc8bfa555b68", "type": "electric_scooter", "name": "8daccd7a374aee942546fc8bfa555b68", "rental_uris": {"android": "https://dc.lft.to/lastmile_qr_scan", "ios": "https://dc.lft.to/lastmile_qr_scan"}, "is_disabled": 0, "fusion_lat": 0.0, "lat": 38.896037, "is_reserved": 0}, {"lon": -77.04185816666667, "fusion_lon": 0.0, "bike_id": "9114f28513994eb5625f99220f14bf86", "type": "electric_scooter", "name": "9114f28513994eb5625f99220f14bf86", "rental_uris": {"android": "https://dc.lft.to/lastmile_qr_scan", "ios": "https://dc.lft.to/lastmile_qr_scan"}, "is_disabled": 0, "fusion_lat": 0.0, "lat": 38.91623333333333, "is_reserved": 0}, {"lon": -76.99948316666666, "fusion_lon": 0.0, "bike_id": "bcf25ec647a5a1e3d7c1d2abc6bd49ed", "type": "electric_scooter", "name": "bcf25ec647a5a1e3d7c1d2abc6bd49ed", "rental_uris": {"android": "https://dc.lft.to/lastmile_qr_scan", "ios": "https://dc.lft.to/lastmile_qr_scan"}, "is_disabled": 0, "fusion_lat": 0.0, "lat": 38.84294116666667, "is_reserved": 0}, {"lon": -77.0465455, "fusion_lon": 0.0, "bike_id": "912bb823577b4d6f7af71cddb7e187fd", "type": "electric_scooter", "name": "912bb823577b4d6f7af71cddb7e187fd", "rental_uris": {"android": "https://dc.lft.to/lastmile_qr_scan", "ios": "https://dc.lft.to/lastmile_qr_scan"}, "is_disabled": 0, "fusion_lat": 0.0, "lat": 38.896914333333335, "is_reserved": 0}, {"lon": -77.03835516666666, "fusion_lon": 0.0, "bike_id": "7d31ce9e14ce0f8b1583067c7db3c568", "type": "electric_scooter", "name": "7d31ce9e14ce0f8b1583067c7db3c568", "rental_uris": {"android": "https://dc.lft.to/lastmile_qr_scan", "ios": "https://dc.lft.to/lastmile_qr_scan"}, "is_disabled": 0, "fusion_lat": 0.0, "lat": 38.9314825, "is_reserved": 0}, {"lon": -77.0386275, "fusion_lon": 0.0, "bike_id": "de615388409641cf5ce04eede448aedf", "type": "electric_scooter", "name": "de615388409641cf5ce04eede448aedf", "rental_uris": {"android": "https://dc.lft.to/lastmile_qr_scan", "ios": "https://dc.lft.to/lastmile_qr_scan"}, "is_disabled": 0, "fusion_lat": 0.0, "lat": 38.91559, "is_reserved": 0}, {"lon": -77.03801366666667, "fusion_lon": 0.0, "bike_id": "f122711438bb4f024cbc661170f06100", "type": "electric_scooter", "name": "f122711438bb4f024cbc661170f06100", "rental_uris": {"android": "https://dc.lft.to/lastmile_qr_scan", "ios": "https://dc.lft.to/lastmile_qr_scan"}, "is_disabled": 0, "fusion_lat": 0.0, "lat": 38.9199495, "is_reserved": 0}, {"lon": -77.03440116666667, "fusion_lon": 0.0, "bike_id": "a16e6a51eaeb64672f5938b3c2c4e2df", "type": "electric_scooter", "name": "a16e6a51eaeb64672f5938b3c2c4e2df", "rental_uris": {"android": "https://dc.lft.to/lastmile_qr_scan", "ios": "https://dc.lft.to/lastmile_qr_scan"}, "is_disabled": 0, "fusion_lat": 0.0, "lat": 38.909749, "is_reserved": 0}, {"lon": -77.0281315, "fusion_lon": 0.0, "bike_id": "b94acc0018a94e8b16347e216645566b", "type": "electric_scooter", "name": "b94acc0018a94e8b16347e216645566b", "rental_uris": {"android": "https://dc.lft.to/lastmile_qr_scan", "ios": "https://dc.lft.to/lastmile_qr_scan"}, "is_disabled": 0, "fusion_lat": 0.0, "lat": 38.91413516666667, "is_reserved": 0}, {"lon": -77.03199566666666, "fusion_lon": 0.0, "bike_id": "f9ff6eca464ded8dc490410cd42e8558", "type": "electric_scooter", "name": "f9ff6eca464ded8dc490410cd42e8558", "rental_uris": {"android": "https://dc.lft.to/lastmile_qr_scan", "ios": "https://dc.lft.to/lastmile_qr_scan"}, "is_disabled": 0, "fusion_lat": 0.0, "lat": 38.91615816666667, "is_reserved": 0}, {"lon": -77.0486845, "fusion_lon": 0.0, "bike_id": "f825ff8e329e36be8ee0eaedabbf1e7f", "type": "electric_scooter", "name": "f825ff8e329e36be8ee0eaedabbf1e7f", "rental_uris": {"android": "https://dc.lft.to/lastmile_qr_scan", "ios": "https://dc.lft.to/lastmile_qr_scan"}, "is_disabled": 0, "fusion_lat": 0.0, "lat": 38.899889, "is_reserved": 0}, {"lon": -77.0382685, "fusion_lon": 0.0, "bike_id": "83ae9510c58afd44f5e6cb8c020a9e53", "type": "electric_scooter", "name": "83ae9510c58afd44f5e6cb8c020a9e53", "rental_uris": {"android": "https://dc.lft.to/lastmile_qr_scan", "ios": "https://dc.lft.to/lastmile_qr_scan"}, "is_disabled": 0, "fusion_lat": 0.0, "lat": 38.91269283333333, "is_reserved": 0}, {"lon": -76.98787, "fusion_lon": 0.0, "bike_id": "65320338ef5a562bc43f6700db05c731", "type": "electric_scooter", "name": "65320338ef5a562bc43f6700db05c731", "rental_uris": {"android": "https://dc.lft.to/lastmile_qr_scan", "ios": "https://dc.lft.to/lastmile_qr_scan"}, "is_disabled": 0, "fusion_lat": 0.0, "lat": 38.91234166666667, "is_reserved": 0}, {"lon": -76.93141, "fusion_lon": 0.0, "bike_id": "74cbfa0c20ba5380c08569b9c09dc4b4", "type": "electric_scooter", "name": "74cbfa0c20ba5380c08569b9c09dc4b4", "rental_uris": {"android": "https://dc.lft.to/lastmile_qr_scan", "ios": "https://dc.lft.to/lastmile_qr_scan"}, "is_disabled": 0, "fusion_lat": 0.0, "lat": 38.89761933333333, "is_reserved": 0}, {"lon": -77.02135616666666, "fusion_lon": 0.0, "bike_id": "3496ea432d8b9be2d31dc5407ee4c87b", "type": "electric_scooter", "name": "3496ea432d8b9be2d31dc5407ee4c87b", "rental_uris": {"android": "https://dc.lft.to/lastmile_qr_scan", "ios": "https://dc.lft.to/lastmile_qr_scan"}, "is_disabled": 0, "fusion_lat": 0.0, "lat": 38.91116366666667, "is_reserved": 0}, {"lon": -77.01912283333333, "fusion_lon": 0.0, "bike_id": "28fcd14f3e8c010595a7b439164ce115", "type": "electric_bike", "name": "28fcd14f3e8c010595a7b439164ce115", "rental_uris": {"android": "https://dc.lft.to/lastmile_qr_scan", "ios": "https://dc.lft.to/lastmile_qr_scan"}, "is_disabled": 0, "fusion_lat": 0.0, "lat": 38.93776233333333, "is_reserved": 0}, {"lon": -77.02609983333333, "fusion_lon": 0.0, "bike_id": "b3316a6a37528b36a34cff31c338229e", "type": "electric_scooter", "name": "b3316a6a37528b36a34cff31c338229e", "rental_uris": {"android": "https://dc.lft.to/lastmile_qr_scan", "ios": "https://dc.lft.to/lastmile_qr_scan"}, "is_disabled": 0, "fusion_lat": 0.0, "lat": 38.91415033333333, "is_reserved": 0}, {"lon": -77.01765483333334, "fusion_lon": 0.0, "bike_id": "a188e2c462004388e39d74f070c926e2", "type": "electric_scooter", "name": "a188e2c462004388e39d74f070c926e2", "rental_uris": {"android": "https://dc.lft.to/lastmile_qr_scan", "ios": "https://dc.lft.to/lastmile_qr_scan"}, "is_disabled": 0, "fusion_lat": 0.0, "lat": 38.90267866666667, "is_reserved": 0}, {"lon": -77.02600116666666, "fusion_lon": 0.0, "bike_id": "20d7206f2eaa58b59e6ec6d949014027", "type": "electric_scooter", "name": "20d7206f2eaa58b59e6ec6d949014027", "rental_uris": {"android": "https://dc.lft.to/lastmile_qr_scan", "ios": "https://dc.lft.to/lastmile_qr_scan"}, "is_disabled": 0, "fusion_lat": 0.0, "lat": 38.927935833333336, "is_reserved": 0}, {"lon": -77.023075, "fusion_lon": 0.0, "bike_id": "da4f0b51bd3705318d3a7f46301d5aec", "type": "electric_scooter", "name": "da4f0b51bd3705318d3a7f46301d5aec", "rental_uris": {"android": "https://dc.lft.to/lastmile_qr_scan", "ios": "https://dc.lft.to/lastmile_qr_scan"}, "is_disabled": 0, "fusion_lat": 0.0, "lat": 38.915949, "is_reserved": 0}, {"lon": -77.06390016666667, "fusion_lon": 0.0, "bike_id": "872ce88486098fe653ff445de8c58a8e", "type": "electric_scooter", "name": "872ce88486098fe653ff445de8c58a8e", "rental_uris": {"android": "https://dc.lft.to/lastmile_qr_scan", "ios": "https://dc.lft.to/lastmile_qr_scan"}, "is_disabled": 0, "fusion_lat": 0.0, "lat": 38.9442275, "is_reserved": 0}, {"lon": -77.02287533333333, "fusion_lon": 0.0, "bike_id": "125a495ae8193e532ef583d98ee72d36", "type": "electric_scooter", "name": "125a495ae8193e532ef583d98ee72d36", "rental_uris": {"android": "https://dc.lft.to/lastmile_qr_scan", "ios": "https://dc.lft.to/lastmile_qr_scan"}, "is_disabled": 0, "fusion_lat": 0.0, "lat": 38.917937, "is_reserved": 0}, {"lon": -77.014111, "fusion_lon": 0.0, "bike_id": "e435c1226e7439d5573595ffc9a20f01", "type": "electric_scooter", "name": "e435c1226e7439d5573595ffc9a20f01", "rental_uris": {"android": "https://dc.lft.to/lastmile_qr_scan", "ios": "https://dc.lft.to/lastmile_qr_scan"}, "is_disabled": 0, "fusion_lat": 0.0, "lat": 38.919260333333334, "is_reserved": 0}, {"lon": -77.05045683333333, "fusion_lon": 0.0, "bike_id": "c1ca40036a7e05d087df1eec4c302d48", "type": "electric_scooter", "name": "c1ca40036a7e05d087df1eec4c302d48", "rental_uris": {"android": "https://dc.lft.to/lastmile_qr_scan", "ios": "https://dc.lft.to/lastmile_qr_scan"}, "is_disabled": 0, "fusion_lat": 0.0, "lat": 38.9236175, "is_reserved": 0}, {"lon": -76.982093, "fusion_lon": 0.0, "bike_id": "b6dfbba641e800447c743ba6b293b087", "type": "electric_bike", "name": "b6dfbba641e800447c743ba6b293b087", "rental_uris": {"android": "https://dc.lft.to/lastmile_qr_scan", "ios": "https://dc.lft.to/lastmile_qr_scan"}, "is_disabled": 0, "fusion_lat": 0.0, "lat": 38.985038, "is_reserved": 0}, {"lon": -77.02534, "fusion_lon": 0.0, "bike_id": "3d59ccd02fb9a28276a69cfb4208aa86", "type": "electric_scooter", "name": "3d59ccd02fb9a28276a69cfb4208aa86", "rental_uris": {"android": "https://dc.lft.to/lastmile_qr_scan", "ios": "https://dc.lft.to/lastmile_qr_scan"}, "is_disabled": 0, "fusion_lat": 0.0, "lat": 38.946249, "is_reserved": 0}, {"lon": -77.01968283333333, "fusion_lon": 0.0, "bike_id": "9d6aa91983741d6444c528677d07a08a", "type": "electric_scooter", "name": "9d6aa91983741d6444c528677d07a08a", "rental_uris": {"android": "https://dc.lft.to/lastmile_qr_scan", "ios": "https://dc.lft.to/lastmile_qr_scan"}, "is_disabled": 0, "fusion_lat": 0.0, "lat": 38.956545, "is_reserved": 0}, {"lon": -77.02693433333333, "fusion_lon": 0.0, "bike_id": "5597bc1a43f99307ad50a5c18ae7cc28", "type": "electric_scooter", "name": "5597bc1a43f99307ad50a5c18ae7cc28", "rental_uris": {"android": "https://dc.lft.to/lastmile_qr_scan", "ios": "https://dc.lft.to/lastmile_qr_scan"}, "is_disabled": 0, "fusion_lat": 0.0, "lat": 38.90844033333333, "is_reserved": 0}, {"lon": -77.02364616666667, "fusion_lon": 0.0, "bike_id": "f4fcee9a46d88bf836bc6f730fc3b9ef", "type": "electric_scooter", "name": "f4fcee9a46d88bf836bc6f730fc3b9ef", "rental_uris": {"android": "https://dc.lft.to/lastmile_qr_scan", "ios": "https://dc.lft.to/lastmile_qr_scan"}, "is_disabled": 0, "fusion_lat": 0.0, "lat": 38.906772, "is_reserved": 0}, {"lon": -77.00756083333333, "fusion_lon": 0.0, "bike_id": "50b788a9f1aa900705254f49ffcfc535", "type": "electric_scooter", "name": "50b788a9f1aa900705254f49ffcfc535", "rental_uris": {"android": "https://dc.lft.to/lastmile_qr_scan", "ios": "https://dc.lft.to/lastmile_qr_scan"}, "is_disabled": 0, "fusion_lat": 0.0, "lat": 38.87116483333333, "is_reserved": 0}, {"lon": -77.03590816666667, "fusion_lon": 0.0, "bike_id": "7917d07539c5a4c1a656b286c061318b", "type": "electric_scooter", "name": "7917d07539c5a4c1a656b286c061318b", "rental_uris": {"android": "https://dc.lft.to/lastmile_qr_scan", "ios": "https://dc.lft.to/lastmile_qr_scan"}, "is_disabled": 0, "fusion_lat": 0.0, "lat": 38.931501833333336, "is_reserved": 0}, {"lon": -77.0245685, "fusion_lon": 0.0, "bike_id": "5918175df06501ad5f4e6061d84b55b2", "type": "electric_scooter", "name": "5918175df06501ad5f4e6061d84b55b2", "rental_uris": {"android": "https://dc.lft.to/lastmile_qr_scan", "ios": "https://dc.lft.to/lastmile_qr_scan"}, "is_disabled": 0, "fusion_lat": 0.0, "lat": 38.9032595, "is_reserved": 0}, {"lon": -77.02451583333334, "fusion_lon": 0.0, "bike_id": "ebf057e9c895cf7cea60b5d525df3e5f", "type": "electric_scooter", "name": "ebf057e9c895cf7cea60b5d525df3e5f", "rental_uris": {"android": "https://dc.lft.to/lastmile_qr_scan", "ios": "https://dc.lft.to/lastmile_qr_scan"}, "is_disabled": 0, "fusion_lat": 0.0, "lat": 38.918686666666666, "is_reserved": 0}, {"lon": -76.96704933333334, "fusion_lon": 0.0, "bike_id": "23d1ba7e3217490bbf92e26159e4e68b", "type": "electric_scooter", "name": "23d1ba7e3217490bbf92e26159e4e68b", "rental_uris": {"android": "https://dc.lft.to/lastmile_qr_scan", "ios": "https://dc.lft.to/lastmile_qr_scan"}, "is_disabled": 0, "fusion_lat": 0.0, "lat": 38.860396333333334, "is_reserved": 0}, {"lon": -77.02501933333333, "fusion_lon": 0.0, "bike_id": "82629aa20947255d10ba27cea70b292a", "type": "electric_scooter", "name": "82629aa20947255d10ba27cea70b292a", "rental_uris": {"android": "https://dc.lft.to/lastmile_qr_scan", "ios": "https://dc.lft.to/lastmile_qr_scan"}, "is_disabled": 0, "fusion_lat": 0.0, "lat": 38.920121, "is_reserved": 0}, {"lon": -77.01782566666667, "fusion_lon": 0.0, "bike_id": "2c51654cd2aa0243720ef29583492953", "type": "electric_scooter", "name": "2c51654cd2aa0243720ef29583492953", "rental_uris": {"android": "https://dc.lft.to/lastmile_qr_scan", "ios": "https://dc.lft.to/lastmile_qr_scan"}, "is_disabled": 0, "fusion_lat": 0.0, "lat": 38.87710233333333, "is_reserved": 0}, {"lon": -77.04876366666667, "fusion_lon": 0.0, "bike_id": "44ea157f54d8ed6b468e73d8dc894898", "type": "electric_scooter", "name": "44ea157f54d8ed6b468e73d8dc894898", "rental_uris": {"android": "https://dc.lft.to/lastmile_qr_scan", "ios": "https://dc.lft.to/lastmile_qr_scan"}, "is_disabled": 0, "fusion_lat": 0.0, "lat": 38.90975683333333, "is_reserved": 0}, {"lon": -77.02296983333333, "fusion_lon": 0.0, "bike_id": "e1cfe35d3fbe21aab876b07c63d46199", "type": "electric_scooter", "name": "e1cfe35d3fbe21aab876b07c63d46199", "rental_uris": {"android": "https://dc.lft.to/lastmile_qr_scan", "ios": "https://dc.lft.to/lastmile_qr_scan"}, "is_disabled": 0, "fusion_lat": 0.0, "lat": 38.9179155, "is_reserved": 0}, {"lon": -77.03588766666667, "fusion_lon": 0.0, "bike_id": "13ea151b0226a6d157cbde4c47909912", "type": "electric_scooter", "name": "13ea151b0226a6d157cbde4c47909912", "rental_uris": {"android": "https://dc.lft.to/lastmile_qr_scan", "ios": "https://dc.lft.to/lastmile_qr_scan"}, "is_disabled": 0, "fusion_lat": 0.0, "lat": 38.931480666666666, "is_reserved": 0}, {"lon": -77.036387, "fusion_lon": 0.0, "bike_id": "6a477db66bccd3127e11641bc8fb525d", "type": "electric_scooter", "name": "6a477db66bccd3127e11641bc8fb525d", "rental_uris": {"android": "https://dc.lft.to/lastmile_qr_scan", "ios": "https://dc.lft.to/lastmile_qr_scan"}, "is_disabled": 0, "fusion_lat": 0.0, "lat": 38.9182615, "is_reserved": 0}, {"lon": -77.097151, "fusion_lon": 0.0, "bike_id": "481f566ea5bf64648004904f0c5db377", "type": "electric_scooter", "name": "481f566ea5bf64648004904f0c5db377", "rental_uris": {"android": "https://dc.lft.to/lastmile_qr_scan", "ios": "https://dc.lft.to/lastmile_qr_scan"}, "is_disabled": 0, "fusion_lat": 0.0, "lat": 38.951015, "is_reserved": 0}, {"lon": -77.01221, "fusion_lon": 0.0, "bike_id": "c3638fe1d5172c6075c86dd7545c1246", "type": "electric_scooter", "name": "c3638fe1d5172c6075c86dd7545c1246", "rental_uris": {"android": "https://dc.lft.to/lastmile_qr_scan", "ios": "https://dc.lft.to/lastmile_qr_scan"}, "is_disabled": 0, "fusion_lat": 0.0, "lat": 38.900353833333334, "is_reserved": 0}, {"lon": -76.99031683333334, "fusion_lon": 0.0, "bike_id": "4de50e4ad898ae2fe9b64f90c834803e", "type": "electric_scooter", "name": "4de50e4ad898ae2fe9b64f90c834803e", "rental_uris": {"android": "https://dc.lft.to/lastmile_qr_scan", "ios": "https://dc.lft.to/lastmile_qr_scan"}, "is_disabled": 0, "fusion_lat": 0.0, "lat": 38.88881683333334, "is_reserved": 0}, {"lon": -77.0195115, "fusion_lon": 0.0, "bike_id": "3fe7f84c8b43c772c5b70225a7ae9624", "type": "electric_scooter", "name": "3fe7f84c8b43c772c5b70225a7ae9624", "rental_uris": {"android": "https://dc.lft.to/lastmile_qr_scan", "ios": "https://dc.lft.to/lastmile_qr_scan"}, "is_disabled": 0, "fusion_lat": 0.0, "lat": 38.924218833333335, "is_reserved": 0}, {"lon": -77.040004, "fusion_lon": 0.0, "bike_id": "98f12973b6bdefe8e72ce491653e09c5", "type": "electric_scooter", "name": "98f12973b6bdefe8e72ce491653e09c5", "rental_uris": {"android": "https://dc.lft.to/lastmile_qr_scan", "ios": "https://dc.lft.to/lastmile_qr_scan"}, "is_disabled": 0, "fusion_lat": 0.0, "lat": 38.903580833333336, "is_reserved": 0}, {"lon": -77.036262, "fusion_lon": 0.0, "bike_id": "a665e1f8ddcc58d739d675cabf2a2087", "type": "electric_scooter", "name": "a665e1f8ddcc58d739d675cabf2a2087", "rental_uris": {"android": "https://dc.lft.to/lastmile_qr_scan", "ios": "https://dc.lft.to/lastmile_qr_scan"}, "is_disabled": 0, "fusion_lat": 0.0, "lat": 38.965521833333334, "is_reserved": 0}, {"lon": -77.04144883333333, "fusion_lon": 0.0, "bike_id": "078c47a54b54ef5fa0009ad01056ee5f", "type": "electric_scooter", "name": "078c47a54b54ef5fa0009ad01056ee5f", "rental_uris": {"android": "https://dc.lft.to/lastmile_qr_scan", "ios": "https://dc.lft.to/lastmile_qr_scan"}, "is_disabled": 0, "fusion_lat": 0.0, "lat": 38.916862, "is_reserved": 0}, {"lon": -77.04620316666667, "fusion_lon": 0.0, "bike_id": "b8ef22dc56bf9bbfcf4444e17fc1e180", "type": "electric_scooter", "name": "b8ef22dc56bf9bbfcf4444e17fc1e180", "rental_uris": {"android": "https://dc.lft.to/lastmile_qr_scan", "ios": "https://dc.lft.to/lastmile_qr_scan"}, "is_disabled": 0, "fusion_lat": 0.0, "lat": 38.9150715, "is_reserved": 0}, {"lon": -77.0220395, "fusion_lon": 0.0, "bike_id": "d7be7e0fac9cfd2e67ac18eceb926432", "type": "electric_scooter", "name": "d7be7e0fac9cfd2e67ac18eceb926432", "rental_uris": {"android": "https://dc.lft.to/lastmile_qr_scan", "ios": "https://dc.lft.to/lastmile_qr_scan"}, "is_disabled": 0, "fusion_lat": 0.0, "lat": 38.89612483333333, "is_reserved": 0}, {"lon": -77.02411316666667, "fusion_lon": 0.0, "bike_id": "4d832cc18abf75eb822db3e00113e8f0", "type": "electric_scooter", "name": "4d832cc18abf75eb822db3e00113e8f0", "rental_uris": {"android": "https://dc.lft.to/lastmile_qr_scan", "ios": "https://dc.lft.to/lastmile_qr_scan"}, "is_disabled": 0, "fusion_lat": 0.0, "lat": 38.916753, "is_reserved": 0}, {"lon": -77.03534, "fusion_lon": 0.0, "bike_id": "c0f734ab7ba2bd9b330449c559eeb50d", "type": "electric_scooter", "name": "c0f734ab7ba2bd9b330449c559eeb50d", "rental_uris": {"android": "https://dc.lft.to/lastmile_qr_scan", "ios": "https://dc.lft.to/lastmile_qr_scan"}, "is_disabled": 0, "fusion_lat": 0.0, "lat": 38.925228, "is_reserved": 0}, {"lon": -77.0998985, "fusion_lon": 0.0, "bike_id": "7a821896a5e183d71758ed7f46d1a7e1", "type": "electric_bike", "name": "7a821896a5e183d71758ed7f46d1a7e1", "rental_uris": {"android": "https://dc.lft.to/lastmile_qr_scan", "ios": "https://dc.lft.to/lastmile_qr_scan"}, "is_disabled": 0, "fusion_lat": 0.0, "lat": 38.85892883333333, "is_reserved": 0}, {"lon": -77.04486283333334, "fusion_lon": 0.0, "bike_id": "ed00163afb64c5120ebe86c640e9fd82", "type": "electric_scooter", "name": "ed00163afb64c5120ebe86c640e9fd82", "rental_uris": {"android": "https://dc.lft.to/lastmile_qr_scan", "ios": "https://dc.lft.to/lastmile_qr_scan"}, "is_disabled": 0, "fusion_lat": 0.0, "lat": 38.899508, "is_reserved": 0}, {"lon": -76.99132233333333, "fusion_lon": 0.0, "bike_id": "f631ad2ac7d02698eaf589ce58f3a9a9", "type": "electric_scooter", "name": "f631ad2ac7d02698eaf589ce58f3a9a9", "rental_uris": {"android": "https://dc.lft.to/lastmile_qr_scan", "ios": "https://dc.lft.to/lastmile_qr_scan"}, "is_disabled": 0, "fusion_lat": 0.0, "lat": 38.84643, "is_reserved": 0}, {"lon": -77.02352033333334, "fusion_lon": 0.0, "bike_id": "78d5c7685fde2fb2e5e7f94d6bb14440", "type": "electric_scooter", "name": "78d5c7685fde2fb2e5e7f94d6bb14440", "rental_uris": {"android": "https://dc.lft.to/lastmile_qr_scan", "ios": "https://dc.lft.to/lastmile_qr_scan"}, "is_disabled": 0, "fusion_lat": 0.0, "lat": 38.93537033333333, "is_reserved": 0}, {"lon": -76.98543483333333, "fusion_lon": 0.0, "bike_id": "f30f6437f6ef5de3a7220297df2dea5f", "type": "electric_scooter", "name": "f30f6437f6ef5de3a7220297df2dea5f", "rental_uris": {"android": "https://dc.lft.to/lastmile_qr_scan", "ios": "https://dc.lft.to/lastmile_qr_scan"}, "is_disabled": 0, "fusion_lat": 0.0, "lat": 38.8669065, "is_reserved": 0}, {"lon": -77.0396395, "fusion_lon": 0.0, "bike_id": "9fe61971105be8335ee39434821b2b40", "type": "electric_scooter", "name": "9fe61971105be8335ee39434821b2b40", "rental_uris": {"android": "https://dc.lft.to/lastmile_qr_scan", "ios": "https://dc.lft.to/lastmile_qr_scan"}, "is_disabled": 0, "fusion_lat": 0.0, "lat": 38.91712666666667, "is_reserved": 0}, {"lon": -77.033218, "fusion_lon": 0.0, "bike_id": "02ac99bd978b35824b1d0eac81c46f2a", "type": "electric_scooter", "name": "02ac99bd978b35824b1d0eac81c46f2a", "rental_uris": {"android": "https://dc.lft.to/lastmile_qr_scan", "ios": "https://dc.lft.to/lastmile_qr_scan"}, "is_disabled": 0, "fusion_lat": 0.0, "lat": 38.89009, "is_reserved": 0}, {"lon": -77.0165315, "fusion_lon": 0.0, "bike_id": "4b0dbf1ec484a666f6055d6268289b87", "type": "electric_scooter", "name": "4b0dbf1ec484a666f6055d6268289b87", "rental_uris": {"android": "https://dc.lft.to/lastmile_qr_scan", "ios": "https://dc.lft.to/lastmile_qr_scan"}, "is_disabled": 0, "fusion_lat": 0.0, "lat": 38.881046166666664, "is_reserved": 0}, {"lon": -77.03072316666666, "fusion_lon": 0.0, "bike_id": "6199ce373c412b23e8cfb10fa654deb8", "type": "electric_scooter", "name": "6199ce373c412b23e8cfb10fa654deb8", "rental_uris": {"android": "https://dc.lft.to/lastmile_qr_scan", "ios": "https://dc.lft.to/lastmile_qr_scan"}, "is_disabled": 0, "fusion_lat": 0.0, "lat": 38.9225155, "is_reserved": 0}, {"lon": -77.00070916666667, "fusion_lon": 0.0, "bike_id": "e9e014e4d6ca1576e7ce5ee56e48b6de", "type": "electric_scooter", "name": "e9e014e4d6ca1576e7ce5ee56e48b6de", "rental_uris": {"android": "https://dc.lft.to/lastmile_qr_scan", "ios": "https://dc.lft.to/lastmile_qr_scan"}, "is_disabled": 0, "fusion_lat": 0.0, "lat": 38.92541766666667, "is_reserved": 0}, {"lon": -76.99698066666667, "fusion_lon": 0.0, "bike_id": "86d39ae6d586633ffbbadc392cf356d9", "type": "electric_scooter", "name": "86d39ae6d586633ffbbadc392cf356d9", "rental_uris": {"android": "https://dc.lft.to/lastmile_qr_scan", "ios": "https://dc.lft.to/lastmile_qr_scan"}, "is_disabled": 0, "fusion_lat": 0.0, "lat": 38.88420333333333, "is_reserved": 0}, {"lon": -77.0373205, "fusion_lon": 0.0, "bike_id": "6977506f6e9f2347531552ab91eafb2d", "type": "electric_scooter", "name": "6977506f6e9f2347531552ab91eafb2d", "rental_uris": {"android": "https://dc.lft.to/lastmile_qr_scan", "ios": "https://dc.lft.to/lastmile_qr_scan"}, "is_disabled": 0, "fusion_lat": 0.0, "lat": 38.92883166666667, "is_reserved": 0}, {"lon": -76.94935966666667, "fusion_lon": 0.0, "bike_id": "c860d0ba93355a21312cdde77171749f", "type": "electric_scooter", "name": "c860d0ba93355a21312cdde77171749f", "rental_uris": {"android": "https://dc.lft.to/lastmile_qr_scan", "ios": "https://dc.lft.to/lastmile_qr_scan"}, "is_disabled": 0, "fusion_lat": 0.0, "lat": 38.89359566666667, "is_reserved": 0}, {"lon": -77.02169166666667, "fusion_lon": 0.0, "bike_id": "e7efc5fd45c14d3f80ab5b539bdede74", "type": "electric_scooter", "name": "e7efc5fd45c14d3f80ab5b539bdede74", "rental_uris": {"android": "https://dc.lft.to/lastmile_qr_scan", "ios": "https://dc.lft.to/lastmile_qr_scan"}, "is_disabled": 0, "fusion_lat": 0.0, "lat": 38.94299266666667, "is_reserved": 0}, {"lon": -76.99727216666666, "fusion_lon": 0.0, "bike_id": "5baa34f949a27b8633d43fbb2229eca1", "type": "electric_scooter", "name": "5baa34f949a27b8633d43fbb2229eca1", "rental_uris": {"android": "https://dc.lft.to/lastmile_qr_scan", "ios": "https://dc.lft.to/lastmile_qr_scan"}, "is_disabled": 0, "fusion_lat": 0.0, "lat": 38.89943316666667, "is_reserved": 0}, {"lon": -76.94630166666667, "fusion_lon": 0.0, "bike_id": "881b1ae3a83878a69b718a82b225c267", "type": "electric_scooter", "name": "881b1ae3a83878a69b718a82b225c267", "rental_uris": {"android": "https://dc.lft.to/lastmile_qr_scan", "ios": "https://dc.lft.to/lastmile_qr_scan"}, "is_disabled": 0, "fusion_lat": 0.0, "lat": 38.898293833333334, "is_reserved": 0}, {"lon": -77.10782833333333, "fusion_lon": 0.0, "bike_id": "3a8c7fcb56b677d1544aef42b7efa7e9", "type": "electric_bike", "name": "3a8c7fcb56b677d1544aef42b7efa7e9", "rental_uris": {"android": "https://dc.lft.to/lastmile_qr_scan", "ios": "https://dc.lft.to/lastmile_qr_scan"}, "is_disabled": 0, "fusion_lat": 0.0, "lat": 38.852467, "is_reserved": 0}, {"lon": -77.03172266666667, "fusion_lon": 0.0, "bike_id": "5971b810b07a80ee93166f958a4ead89", "type": "electric_scooter", "name": "5971b810b07a80ee93166f958a4ead89", "rental_uris": {"android": "https://dc.lft.to/lastmile_qr_scan", "ios": "https://dc.lft.to/lastmile_qr_scan"}, "is_disabled": 0, "fusion_lat": 0.0, "lat": 38.91919133333333, "is_reserved": 0}, {"lon": -76.99772883333333, "fusion_lon": 0.0, "bike_id": "fb1fdb56218714f6df4e96cfc2120629", "type": "electric_scooter", "name": "fb1fdb56218714f6df4e96cfc2120629", "rental_uris": {"android": "https://dc.lft.to/lastmile_qr_scan", "ios": "https://dc.lft.to/lastmile_qr_scan"}, "is_disabled": 0, "fusion_lat": 0.0, "lat": 38.9089795, "is_reserved": 0}, {"lon": -76.995162, "fusion_lon": 0.0, "bike_id": "a7646f0cc425d072ed721d1028c821c2", "type": "electric_bike", "name": "a7646f0cc425d072ed721d1028c821c2", "rental_uris": {"android": "https://dc.lft.to/lastmile_qr_scan", "ios": "https://dc.lft.to/lastmile_qr_scan"}, "is_disabled": 0, "fusion_lat": 0.0, "lat": 38.821756, "is_reserved": 0}, {"lon": -77.05046216666666, "fusion_lon": 0.0, "bike_id": "6ac82f62ddd48332ad43ea1e0cf02264", "type": "electric_scooter", "name": "6ac82f62ddd48332ad43ea1e0cf02264", "rental_uris": {"android": "https://dc.lft.to/lastmile_qr_scan", "ios": "https://dc.lft.to/lastmile_qr_scan"}, "is_disabled": 0, "fusion_lat": 0.0, "lat": 38.92342033333333, "is_reserved": 0}, {"lon": -77.00216016666667, "fusion_lon": 0.0, "bike_id": "c5b828595e5acb26d3d60f02e5da8ed6", "type": "electric_scooter", "name": "c5b828595e5acb26d3d60f02e5da8ed6", "rental_uris": {"android": "https://dc.lft.to/lastmile_qr_scan", "ios": "https://dc.lft.to/lastmile_qr_scan"}, "is_disabled": 0, "fusion_lat": 0.0, "lat": 38.9146105, "is_reserved": 0}, {"lon": -77.044856, "fusion_lon": 0.0, "bike_id": "4b9ba991af1252b81dfc9c5fc7b4d738", "type": "electric_scooter", "name": "4b9ba991af1252b81dfc9c5fc7b4d738", "rental_uris": {"android": "https://dc.lft.to/lastmile_qr_scan", "ios": "https://dc.lft.to/lastmile_qr_scan"}, "is_disabled": 0, "fusion_lat": 0.0, "lat": 38.8975805, "is_reserved": 0}, {"lon": -77.03839466666666, "fusion_lon": 0.0, "bike_id": "379ac879ea2044bb39e006e1e4e7de4a", "type": "electric_scooter", "name": "379ac879ea2044bb39e006e1e4e7de4a", "rental_uris": {"android": "https://dc.lft.to/lastmile_qr_scan", "ios": "https://dc.lft.to/lastmile_qr_scan"}, "is_disabled": 0, "fusion_lat": 0.0, "lat": 38.902761, "is_reserved": 0}, {"lon": -76.97031566666666, "fusion_lon": 0.0, "bike_id": "3e58703d1883af879594e02e2172617c", "type": "electric_scooter", "name": "3e58703d1883af879594e02e2172617c", "rental_uris": {"android": "https://dc.lft.to/lastmile_qr_scan", "ios": "https://dc.lft.to/lastmile_qr_scan"}, "is_disabled": 0, "fusion_lat": 0.0, "lat": 38.87361833333333, "is_reserved": 0}, {"lon": -77.02938116666667, "fusion_lon": 0.0, "bike_id": "3ae85947cf2a8c34f6a919fc56cddf50", "type": "electric_scooter", "name": "3ae85947cf2a8c34f6a919fc56cddf50", "rental_uris": {"android": "https://dc.lft.to/lastmile_qr_scan", "ios": "https://dc.lft.to/lastmile_qr_scan"}, "is_disabled": 0, "fusion_lat": 0.0, "lat": 38.90275616666667, "is_reserved": 0}, {"lon": -77.05141433333333, "fusion_lon": 0.0, "bike_id": "43b6efdf3108a5352d943aa9d141ad62", "type": "electric_scooter", "name": "43b6efdf3108a5352d943aa9d141ad62", "rental_uris": {"android": "https://dc.lft.to/lastmile_qr_scan", "ios": "https://dc.lft.to/lastmile_qr_scan"}, "is_disabled": 0, "fusion_lat": 0.0, "lat": 38.901890333333334, "is_reserved": 0}, {"lon": -77.024157, "fusion_lon": 0.0, "bike_id": "32f19fc31abad4a7e7f5bb5ef372623d", "type": "electric_scooter", "name": "32f19fc31abad4a7e7f5bb5ef372623d", "rental_uris": {"android": "https://dc.lft.to/lastmile_qr_scan", "ios": "https://dc.lft.to/lastmile_qr_scan"}, "is_disabled": 0, "fusion_lat": 0.0, "lat": 38.9057525, "is_reserved": 0}, {"lon": -77.08429766666667, "fusion_lon": 0.0, "bike_id": "04dd1bb513ad7562a952264e2ebcb2f1", "type": "electric_scooter", "name": "04dd1bb513ad7562a952264e2ebcb2f1", "rental_uris": {"android": "https://dc.lft.to/lastmile_qr_scan", "ios": "https://dc.lft.to/lastmile_qr_scan"}, "is_disabled": 0, "fusion_lat": 0.0, "lat": 38.93995616666667, "is_reserved": 0}, {"lon": -77.022889, "fusion_lon": 0.0, "bike_id": "9fcfb475a7f8a4914c5e805fc1d8a5c8", "type": "electric_scooter", "name": "9fcfb475a7f8a4914c5e805fc1d8a5c8", "rental_uris": {"android": "https://dc.lft.to/lastmile_qr_scan", "ios": "https://dc.lft.to/lastmile_qr_scan"}, "is_disabled": 0, "fusion_lat": 0.0, "lat": 38.8950215, "is_reserved": 0}, {"lon": -77.04608716666667, "fusion_lon": 0.0, "bike_id": "cff466d7c11081878317c38d3c917ee8", "type": "electric_scooter", "name": "cff466d7c11081878317c38d3c917ee8", "rental_uris": {"android": "https://dc.lft.to/lastmile_qr_scan", "ios": "https://dc.lft.to/lastmile_qr_scan"}, "is_disabled": 0, "fusion_lat": 0.0, "lat": 38.916789, "is_reserved": 0}, {"lon": -77.03677966666666, "fusion_lon": 0.0, "bike_id": "23b47a1968512fd13a7d97e104c90e3b", "type": "electric_bike", "name": "23b47a1968512fd13a7d97e104c90e3b", "rental_uris": {"android": "https://dc.lft.to/lastmile_qr_scan", "ios": "https://dc.lft.to/lastmile_qr_scan"}, "is_disabled": 0, "fusion_lat": 0.0, "lat": 38.93652616666667, "is_reserved": 0}, {"lon": -77.01765416666667, "fusion_lon": 0.0, "bike_id": "1e632b18f701822254efc2efdea3253c", "type": "electric_scooter", "name": "1e632b18f701822254efc2efdea3253c", "rental_uris": {"android": "https://dc.lft.to/lastmile_qr_scan", "ios": "https://dc.lft.to/lastmile_qr_scan"}, "is_disabled": 0, "fusion_lat": 0.0, "lat": 38.90093516666666, "is_reserved": 0}, {"lon": -77.004928, "fusion_lon": 0.0, "bike_id": "63c73cd8a0cd4779029d3dcb95ebe039", "type": "electric_scooter", "name": "63c73cd8a0cd4779029d3dcb95ebe039", "rental_uris": {"android": "https://dc.lft.to/lastmile_qr_scan", "ios": "https://dc.lft.to/lastmile_qr_scan"}, "is_disabled": 0, "fusion_lat": 0.0, "lat": 38.87468833333333, "is_reserved": 0}, {"lon": -77.08066933333333, "fusion_lon": 0.0, "bike_id": "a29d0a4e8bbf77f777d0fb7efd287a43", "type": "electric_bike", "name": "a29d0a4e8bbf77f777d0fb7efd287a43", "rental_uris": {"android": "https://dc.lft.to/lastmile_qr_scan", "ios": "https://dc.lft.to/lastmile_qr_scan"}, "is_disabled": 0, "fusion_lat": 0.0, "lat": 39.05255, "is_reserved": 0}, {"lon": -77.03384033333333, "fusion_lon": 0.0, "bike_id": "36c7b114cfbe95c4fb077420679bac3e", "type": "electric_scooter", "name": "36c7b114cfbe95c4fb077420679bac3e", "rental_uris": {"android": "https://dc.lft.to/lastmile_qr_scan", "ios": "https://dc.lft.to/lastmile_qr_scan"}, "is_disabled": 0, "fusion_lat": 0.0, "lat": 38.925441166666666, "is_reserved": 0}, {"lon": -77.03208533333333, "fusion_lon": 0.0, "bike_id": "2341e8f8dc3acfbb536fedef7c720aa7", "type": "electric_scooter", "name": "2341e8f8dc3acfbb536fedef7c720aa7", "rental_uris": {"android": "https://dc.lft.to/lastmile_qr_scan", "ios": "https://dc.lft.to/lastmile_qr_scan"}, "is_disabled": 0, "fusion_lat": 0.0, "lat": 38.9100385, "is_reserved": 0}, {"lon": -76.99598766666666, "fusion_lon": 0.0, "bike_id": "0f2226d5bb18cda5e1fd60d6e545f7c9", "type": "electric_scooter", "name": "0f2226d5bb18cda5e1fd60d6e545f7c9", "rental_uris": {"android": "https://dc.lft.to/lastmile_qr_scan", "ios": "https://dc.lft.to/lastmile_qr_scan"}, "is_disabled": 0, "fusion_lat": 0.0, "lat": 38.85691, "is_reserved": 0}, {"lon": -77.0326265, "fusion_lon": 0.0, "bike_id": "d5f4e461bb0c78ba0863d46f2c504863", "type": "electric_scooter", "name": "d5f4e461bb0c78ba0863d46f2c504863", "rental_uris": {"android": "https://dc.lft.to/lastmile_qr_scan", "ios": "https://dc.lft.to/lastmile_qr_scan"}, "is_disabled": 0, "fusion_lat": 0.0, "lat": 38.90155416666666, "is_reserved": 0}, {"lon": -77.00439283333333, "fusion_lon": 0.0, "bike_id": "1ff66c2f0bfb9e188388616bdc66b345", "type": "electric_bike", "name": "1ff66c2f0bfb9e188388616bdc66b345", "rental_uris": {"android": "https://dc.lft.to/lastmile_qr_scan", "ios": "https://dc.lft.to/lastmile_qr_scan"}, "is_disabled": 0, "fusion_lat": 0.0, "lat": 38.91193233333333, "is_reserved": 0}, {"lon": -77.0234195, "fusion_lon": 0.0, "bike_id": "e308816421c789873b1f4f81d6421159", "type": "electric_scooter", "name": "e308816421c789873b1f4f81d6421159", "rental_uris": {"android": "https://dc.lft.to/lastmile_qr_scan", "ios": "https://dc.lft.to/lastmile_qr_scan"}, "is_disabled": 0, "fusion_lat": 0.0, "lat": 38.89391766666667, "is_reserved": 0}, {"lon": -76.93366816666666, "fusion_lon": 0.0, "bike_id": "95ee06c002a5a171791c397e9f777570", "type": "electric_scooter", "name": "95ee06c002a5a171791c397e9f777570", "rental_uris": {"android": "https://dc.lft.to/lastmile_qr_scan", "ios": "https://dc.lft.to/lastmile_qr_scan"}, "is_disabled": 0, "fusion_lat": 0.0, "lat": 38.899074, "is_reserved": 0}, {"lon": -77.03366033333333, "fusion_lon": 0.0, "bike_id": "fd8d1a185ab51bde040ca19147db1afc", "type": "electric_scooter", "name": "fd8d1a185ab51bde040ca19147db1afc", "rental_uris": {"android": "https://dc.lft.to/lastmile_qr_scan", "ios": "https://dc.lft.to/lastmile_qr_scan"}, "is_disabled": 0, "fusion_lat": 0.0, "lat": 38.919243333333334, "is_reserved": 0}, {"lon": -76.98086033333334, "fusion_lon": 0.0, "bike_id": "c1c8e6586528a3857aa3186e36082a23", "type": "electric_scooter", "name": "c1c8e6586528a3857aa3186e36082a23", "rental_uris": {"android": "https://dc.lft.to/lastmile_qr_scan", "ios": "https://dc.lft.to/lastmile_qr_scan"}, "is_disabled": 0, "fusion_lat": 0.0, "lat": 38.922486, "is_reserved": 0}, {"lon": -76.99500633333334, "fusion_lon": 0.0, "bike_id": "09b168baae5742dc0ea98a6ee3d92b6b", "type": "electric_scooter", "name": "09b168baae5742dc0ea98a6ee3d92b6b", "rental_uris": {"android": "https://dc.lft.to/lastmile_qr_scan", "ios": "https://dc.lft.to/lastmile_qr_scan"}, "is_disabled": 0, "fusion_lat": 0.0, "lat": 38.90982316666667, "is_reserved": 0}, {"lon": -77.03380683333333, "fusion_lon": 0.0, "bike_id": "93ce47fc587878054570e30235543a56", "type": "electric_scooter", "name": "93ce47fc587878054570e30235543a56", "rental_uris": {"android": "https://dc.lft.to/lastmile_qr_scan", "ios": "https://dc.lft.to/lastmile_qr_scan"}, "is_disabled": 0, "fusion_lat": 0.0, "lat": 38.9215485, "is_reserved": 0}, {"lon": -77.031526, "fusion_lon": 0.0, "bike_id": "b87f9280b56e59e131a58e160c9fe8fc", "type": "electric_scooter", "name": "b87f9280b56e59e131a58e160c9fe8fc", "rental_uris": {"android": "https://dc.lft.to/lastmile_qr_scan", "ios": "https://dc.lft.to/lastmile_qr_scan"}, "is_disabled": 0, "fusion_lat": 0.0, "lat": 38.91262783333333, "is_reserved": 0}, {"lon": -77.0078485, "fusion_lon": 0.0, "bike_id": "30ee390137b9d9d4997dae3de5740f1f", "type": "electric_scooter", "name": "30ee390137b9d9d4997dae3de5740f1f", "rental_uris": {"android": "https://dc.lft.to/lastmile_qr_scan", "ios": "https://dc.lft.to/lastmile_qr_scan"}, "is_disabled": 0, "fusion_lat": 0.0, "lat": 38.907298833333336, "is_reserved": 0}, {"lon": -76.9905895, "fusion_lon": 0.0, "bike_id": "300cfe3915c6bca0ed878680fe63890f", "type": "electric_scooter", "name": "300cfe3915c6bca0ed878680fe63890f", "rental_uris": {"android": "https://dc.lft.to/lastmile_qr_scan", "ios": "https://dc.lft.to/lastmile_qr_scan"}, "is_disabled": 0, "fusion_lat": 0.0, "lat": 38.86373616666667, "is_reserved": 0}, {"lon": -77.01943633333333, "fusion_lon": 0.0, "bike_id": "49f2163e4179a1e244a0bcb9d85e92b3", "type": "electric_scooter", "name": "49f2163e4179a1e244a0bcb9d85e92b3", "rental_uris": {"android": "https://dc.lft.to/lastmile_qr_scan", "ios": "https://dc.lft.to/lastmile_qr_scan"}, "is_disabled": 0, "fusion_lat": 0.0, "lat": 38.92416216666667, "is_reserved": 0}, {"lon": -77.03822483333333, "fusion_lon": 0.0, "bike_id": "d2dbe69ee1ef685a148e6ba6c4929a85", "type": "electric_scooter", "name": "d2dbe69ee1ef685a148e6ba6c4929a85", "rental_uris": {"android": "https://dc.lft.to/lastmile_qr_scan", "ios": "https://dc.lft.to/lastmile_qr_scan"}, "is_disabled": 0, "fusion_lat": 0.0, "lat": 38.90794666666667, "is_reserved": 0}, {"lon": -77.005971, "fusion_lon": 0.0, "bike_id": "f3fe996998acdf3f08bccfa879b3ccaa", "type": "electric_scooter", "name": "f3fe996998acdf3f08bccfa879b3ccaa", "rental_uris": {"android": "https://dc.lft.to/lastmile_qr_scan", "ios": "https://dc.lft.to/lastmile_qr_scan"}, "is_disabled": 0, "fusion_lat": 0.0, "lat": 38.87565216666667, "is_reserved": 0}, {"lon": -76.96914166666667, "fusion_lon": 0.0, "bike_id": "32e9bc20b030c85ff8594b0f35d3ece9", "type": "electric_bike", "name": "32e9bc20b030c85ff8594b0f35d3ece9", "rental_uris": {"android": "https://dc.lft.to/lastmile_qr_scan", "ios": "https://dc.lft.to/lastmile_qr_scan"}, "is_disabled": 0, "fusion_lat": 0.0, "lat": 38.846169, "is_reserved": 0}, {"lon": -77.01531583333333, "fusion_lon": 0.0, "bike_id": "a0892853e3c16b6a759558637da47029", "type": "electric_scooter", "name": "a0892853e3c16b6a759558637da47029", "rental_uris": {"android": "https://dc.lft.to/lastmile_qr_scan", "ios": "https://dc.lft.to/lastmile_qr_scan"}, "is_disabled": 0, "fusion_lat": 0.0, "lat": 38.8873985, "is_reserved": 0}, {"lon": -76.98940066666667, "fusion_lon": 0.0, "bike_id": "13548481e14963e2ad14c95d45d67bbb", "type": "electric_scooter", "name": "13548481e14963e2ad14c95d45d67bbb", "rental_uris": {"android": "https://dc.lft.to/lastmile_qr_scan", "ios": "https://dc.lft.to/lastmile_qr_scan"}, "is_disabled": 0, "fusion_lat": 0.0, "lat": 38.903937, "is_reserved": 0}, {"lon": -77.01944666666667, "fusion_lon": 0.0, "bike_id": "a90c73080dd1b4571bba03031e6b47a4", "type": "electric_scooter", "name": "a90c73080dd1b4571bba03031e6b47a4", "rental_uris": {"android": "https://dc.lft.to/lastmile_qr_scan", "ios": "https://dc.lft.to/lastmile_qr_scan"}, "is_disabled": 0, "fusion_lat": 0.0, "lat": 38.90472233333333, "is_reserved": 0}, {"lon": -77.03634966666667, "fusion_lon": 0.0, "bike_id": "fe42969e06e9d608b049c221a5210a2b", "type": "electric_scooter", "name": "fe42969e06e9d608b049c221a5210a2b", "rental_uris": {"android": "https://dc.lft.to/lastmile_qr_scan", "ios": "https://dc.lft.to/lastmile_qr_scan"}, "is_disabled": 0, "fusion_lat": 0.0, "lat": 38.930662, "is_reserved": 0}, {"lon": -77.01991016666666, "fusion_lon": 0.0, "bike_id": "d377b709c0b87e113d0512fb69b270b2", "type": "electric_scooter", "name": "d377b709c0b87e113d0512fb69b270b2", "rental_uris": {"android": "https://dc.lft.to/lastmile_qr_scan", "ios": "https://dc.lft.to/lastmile_qr_scan"}, "is_disabled": 0, "fusion_lat": 0.0, "lat": 38.88031983333333, "is_reserved": 0}, {"lon": -77.0142145, "fusion_lon": 0.0, "bike_id": "399ee5a6aa94d89076458b52f1854d42", "type": "electric_scooter", "name": "399ee5a6aa94d89076458b52f1854d42", "rental_uris": {"android": "https://dc.lft.to/lastmile_qr_scan", "ios": "https://dc.lft.to/lastmile_qr_scan"}, "is_disabled": 0, "fusion_lat": 0.0, "lat": 38.90959266666667, "is_reserved": 0}, {"lon": -77.04847616666666, "fusion_lon": 0.0, "bike_id": "9df45fdd3bac4fee5b5cc969122e4937", "type": "electric_scooter", "name": "9df45fdd3bac4fee5b5cc969122e4937", "rental_uris": {"android": "https://dc.lft.to/lastmile_qr_scan", "ios": "https://dc.lft.to/lastmile_qr_scan"}, "is_disabled": 0, "fusion_lat": 0.0, "lat": 38.903096833333336, "is_reserved": 0}, {"lon": -77.035885, "fusion_lon": 0.0, "bike_id": "c3e07774d258cc592aaadd548d415795", "type": "electric_scooter", "name": "c3e07774d258cc592aaadd548d415795", "rental_uris": {"android": "https://dc.lft.to/lastmile_qr_scan", "ios": "https://dc.lft.to/lastmile_qr_scan"}, "is_disabled": 0, "fusion_lat": 0.0, "lat": 38.936739833333334, "is_reserved": 0}, {"lon": -77.02975, "fusion_lon": 0.0, "bike_id": "330c774dafbd7d414ad6d2e1e0b21ec4", "type": "electric_scooter", "name": "330c774dafbd7d414ad6d2e1e0b21ec4", "rental_uris": {"android": "https://dc.lft.to/lastmile_qr_scan", "ios": "https://dc.lft.to/lastmile_qr_scan"}, "is_disabled": 0, "fusion_lat": 0.0, "lat": 38.930839666666664, "is_reserved": 0}, {"lon": -77.01777183333333, "fusion_lon": 0.0, "bike_id": "7e1a5c28ea1a091217587cbd86748151", "type": "electric_scooter", "name": "7e1a5c28ea1a091217587cbd86748151", "rental_uris": {"android": "https://dc.lft.to/lastmile_qr_scan", "ios": "https://dc.lft.to/lastmile_qr_scan"}, "is_disabled": 0, "fusion_lat": 0.0, "lat": 38.8871285, "is_reserved": 0}, {"lon": -76.9604575, "fusion_lon": 0.0, "bike_id": "be1fe9a34beb1a6cafd1738d5265af16", "type": "electric_bike", "name": "be1fe9a34beb1a6cafd1738d5265af16", "rental_uris": {"android": "https://dc.lft.to/lastmile_qr_scan", "ios": "https://dc.lft.to/lastmile_qr_scan"}, "is_disabled": 0, "fusion_lat": 0.0, "lat": 38.96737366666667, "is_reserved": 0}, {"lon": -77.0272, "fusion_lon": 0.0, "bike_id": "aa057008b5a6f2d0efcb9aedc32d537f", "type": "electric_scooter", "name": "aa057008b5a6f2d0efcb9aedc32d537f", "rental_uris": {"android": "https://dc.lft.to/lastmile_qr_scan", "ios": "https://dc.lft.to/lastmile_qr_scan"}, "is_disabled": 0, "fusion_lat": 0.0, "lat": 38.9067735, "is_reserved": 0}, {"lon": -77.02753083333333, "fusion_lon": 0.0, "bike_id": "01c0e41f42a02f2f3d7c0dcd891a60c0", "type": "electric_scooter", "name": "01c0e41f42a02f2f3d7c0dcd891a60c0", "rental_uris": {"android": "https://dc.lft.to/lastmile_qr_scan", "ios": "https://dc.lft.to/lastmile_qr_scan"}, "is_disabled": 0, "fusion_lat": 0.0, "lat": 38.934669166666666, "is_reserved": 0}, {"lon": -77.02378116666667, "fusion_lon": 0.0, "bike_id": "e71c2af067dab58bc4450f9aa559ea23", "type": "electric_scooter", "name": "e71c2af067dab58bc4450f9aa559ea23", "rental_uris": {"android": "https://dc.lft.to/lastmile_qr_scan", "ios": "https://dc.lft.to/lastmile_qr_scan"}, "is_disabled": 0, "fusion_lat": 0.0, "lat": 38.89197583333333, "is_reserved": 0}, {"lon": -77.0237775, "fusion_lon": 0.0, "bike_id": "3c6ecad62d163201d9ef143a3995689d", "type": "electric_scooter", "name": "3c6ecad62d163201d9ef143a3995689d", "rental_uris": {"android": "https://dc.lft.to/lastmile_qr_scan", "ios": "https://dc.lft.to/lastmile_qr_scan"}, "is_disabled": 0, "fusion_lat": 0.0, "lat": 38.906778833333334, "is_reserved": 0}, {"lon": -77.0445675, "fusion_lon": 0.0, "bike_id": "6f793d193a351515aba1f5ccd1e69ee6", "type": "electric_bike", "name": "6f793d193a351515aba1f5ccd1e69ee6", "rental_uris": {"android": "https://dc.lft.to/lastmile_qr_scan", "ios": "https://dc.lft.to/lastmile_qr_scan"}, "is_disabled": 0, "fusion_lat": 0.0, "lat": 38.915502333333336, "is_reserved": 0}, {"lon": -77.02031833333334, "fusion_lon": 0.0, "bike_id": "802bac9bd23b651dc29fffd0a86ace91", "type": "electric_scooter", "name": "802bac9bd23b651dc29fffd0a86ace91", "rental_uris": {"android": "https://dc.lft.to/lastmile_qr_scan", "ios": "https://dc.lft.to/lastmile_qr_scan"}, "is_disabled": 0, "fusion_lat": 0.0, "lat": 38.901634, "is_reserved": 0}, {"lon": -77.03656716666667, "fusion_lon": 0.0, "bike_id": "4ab859df9e104ce2b3370170e909d133", "type": "electric_scooter", "name": "4ab859df9e104ce2b3370170e909d133", "rental_uris": {"android": "https://dc.lft.to/lastmile_qr_scan", "ios": "https://dc.lft.to/lastmile_qr_scan"}, "is_disabled": 0, "fusion_lat": 0.0, "lat": 38.92984083333333, "is_reserved": 0}, {"lon": -76.9289825, "fusion_lon": 0.0, "bike_id": "65010ca7551436e90a6e97e3bc195528", "type": "electric_scooter", "name": "65010ca7551436e90a6e97e3bc195528", "rental_uris": {"android": "https://dc.lft.to/lastmile_qr_scan", "ios": "https://dc.lft.to/lastmile_qr_scan"}, "is_disabled": 0, "fusion_lat": 0.0, "lat": 38.90187316666667, "is_reserved": 0}, {"lon": -76.94826166666667, "fusion_lon": 0.0, "bike_id": "144637c958d9e29772ab0ad91f327d1f", "type": "electric_scooter", "name": "144637c958d9e29772ab0ad91f327d1f", "rental_uris": {"android": "https://dc.lft.to/lastmile_qr_scan", "ios": "https://dc.lft.to/lastmile_qr_scan"}, "is_disabled": 0, "fusion_lat": 0.0, "lat": 38.88414016666667, "is_reserved": 0}, {"lon": -77.01548, "fusion_lon": 0.0, "bike_id": "a8d9fb95fbd636f2ce58b2add174f03a", "type": "electric_scooter", "name": "a8d9fb95fbd636f2ce58b2add174f03a", "rental_uris": {"android": "https://dc.lft.to/lastmile_qr_scan", "ios": "https://dc.lft.to/lastmile_qr_scan"}, "is_disabled": 0, "fusion_lat": 0.0, "lat": 38.91599633333333, "is_reserved": 0}, {"lon": -77.01436616666666, "fusion_lon": 0.0, "bike_id": "7e609515941df6c8f23d54683fad35e8", "type": "electric_scooter", "name": "7e609515941df6c8f23d54683fad35e8", "rental_uris": {"android": "https://dc.lft.to/lastmile_qr_scan", "ios": "https://dc.lft.to/lastmile_qr_scan"}, "is_disabled": 0, "fusion_lat": 0.0, "lat": 38.91959716666667, "is_reserved": 0}, {"lon": -77.030128, "fusion_lon": 0.0, "bike_id": "a5103c4551967ebee9fbd4bea209e440", "type": "electric_scooter", "name": "a5103c4551967ebee9fbd4bea209e440", "rental_uris": {"android": "https://dc.lft.to/lastmile_qr_scan", "ios": "https://dc.lft.to/lastmile_qr_scan"}, "is_disabled": 0, "fusion_lat": 0.0, "lat": 38.8977635, "is_reserved": 0}, {"lon": -77.02949333333333, "fusion_lon": 0.0, "bike_id": "dfa1b141972675be60c9e7e39feddc46", "type": "electric_scooter", "name": "dfa1b141972675be60c9e7e39feddc46", "rental_uris": {"android": "https://dc.lft.to/lastmile_qr_scan", "ios": "https://dc.lft.to/lastmile_qr_scan"}, "is_disabled": 0, "fusion_lat": 0.0, "lat": 38.9073785, "is_reserved": 0}, {"lon": -77.04291266666667, "fusion_lon": 0.0, "bike_id": "78646a0ee300d3811056d3163dd4577b", "type": "electric_bike", "name": "78646a0ee300d3811056d3163dd4577b", "rental_uris": {"android": "https://dc.lft.to/lastmile_qr_scan", "ios": "https://dc.lft.to/lastmile_qr_scan"}, "is_disabled": 0, "fusion_lat": 0.0, "lat": 38.83099333333333, "is_reserved": 0}, {"lon": -77.04853983333334, "fusion_lon": 0.0, "bike_id": "36af3abddbd8f4a1aa2253abb89ed2df", "type": "electric_scooter", "name": "36af3abddbd8f4a1aa2253abb89ed2df", "rental_uris": {"android": "https://dc.lft.to/lastmile_qr_scan", "ios": "https://dc.lft.to/lastmile_qr_scan"}, "is_disabled": 0, "fusion_lat": 0.0, "lat": 38.915254166666664, "is_reserved": 0}, {"lon": -77.0353455, "fusion_lon": 0.0, "bike_id": "2ae2ff215c8d0038880b9adea15964c7", "type": "electric_scooter", "name": "2ae2ff215c8d0038880b9adea15964c7", "rental_uris": {"android": "https://dc.lft.to/lastmile_qr_scan", "ios": "https://dc.lft.to/lastmile_qr_scan"}, "is_disabled": 0, "fusion_lat": 0.0, "lat": 38.9027885, "is_reserved": 0}, {"lon": -76.98334533333333, "fusion_lon": 0.0, "bike_id": "da805c9731205c1a2fd6eac4eed852ae", "type": "electric_scooter", "name": "da805c9731205c1a2fd6eac4eed852ae", "rental_uris": {"android": "https://dc.lft.to/lastmile_qr_scan", "ios": "https://dc.lft.to/lastmile_qr_scan"}, "is_disabled": 0, "fusion_lat": 0.0, "lat": 38.86564116666667, "is_reserved": 0}, {"lon": -77.07753933333333, "fusion_lon": 0.0, "bike_id": "e24bf61590f092f76cdd7c50c25afa36", "type": "electric_scooter", "name": "e24bf61590f092f76cdd7c50c25afa36", "rental_uris": {"android": "https://dc.lft.to/lastmile_qr_scan", "ios": "https://dc.lft.to/lastmile_qr_scan"}, "is_disabled": 0, "fusion_lat": 0.0, "lat": 38.9200035, "is_reserved": 0}, {"lon": -77.03034116666667, "fusion_lon": 0.0, "bike_id": "d61477779a664bdfda3a225172c138e3", "type": "electric_scooter", "name": "d61477779a664bdfda3a225172c138e3", "rental_uris": {"android": "https://dc.lft.to/lastmile_qr_scan", "ios": "https://dc.lft.to/lastmile_qr_scan"}, "is_disabled": 0, "fusion_lat": 0.0, "lat": 38.9226535, "is_reserved": 0}, {"lon": -77.037004, "fusion_lon": 0.0, "bike_id": "7db6acf88e3cfe3c70c74c098c9afb2f", "type": "electric_bike", "name": "7db6acf88e3cfe3c70c74c098c9afb2f", "rental_uris": {"android": "https://dc.lft.to/lastmile_qr_scan", "ios": "https://dc.lft.to/lastmile_qr_scan"}, "is_disabled": 0, "fusion_lat": 0.0, "lat": 38.935619333333335, "is_reserved": 0}, {"lon": -77.011912, "fusion_lon": 0.0, "bike_id": "104303b917fe1041505ee26cfbe14c4a", "type": "electric_scooter", "name": "104303b917fe1041505ee26cfbe14c4a", "rental_uris": {"android": "https://dc.lft.to/lastmile_qr_scan", "ios": "https://dc.lft.to/lastmile_qr_scan"}, "is_disabled": 0, "fusion_lat": 0.0, "lat": 38.900282, "is_reserved": 0}, {"lon": -77.03210916666667, "fusion_lon": 0.0, "bike_id": "f4eff07105484ddc7c631660ab7190e0", "type": "electric_scooter", "name": "f4eff07105484ddc7c631660ab7190e0", "rental_uris": {"android": "https://dc.lft.to/lastmile_qr_scan", "ios": "https://dc.lft.to/lastmile_qr_scan"}, "is_disabled": 0, "fusion_lat": 0.0, "lat": 38.91957716666667, "is_reserved": 0}, {"lon": -77.03898866666667, "fusion_lon": 0.0, "bike_id": "cfeac043cf33a2f340c3254fda37b176", "type": "electric_scooter", "name": "cfeac043cf33a2f340c3254fda37b176", "rental_uris": {"android": "https://dc.lft.to/lastmile_qr_scan", "ios": "https://dc.lft.to/lastmile_qr_scan"}, "is_disabled": 0, "fusion_lat": 0.0, "lat": 38.922233166666665, "is_reserved": 0}, {"lon": -77.02592683333333, "fusion_lon": 0.0, "bike_id": "143ef818e73fd3b52dbc88deb724be75", "type": "electric_scooter", "name": "143ef818e73fd3b52dbc88deb724be75", "rental_uris": {"android": "https://dc.lft.to/lastmile_qr_scan", "ios": "https://dc.lft.to/lastmile_qr_scan"}, "is_disabled": 0, "fusion_lat": 0.0, "lat": 38.96396266666667, "is_reserved": 0}, {"lon": -77.01278216666667, "fusion_lon": 0.0, "bike_id": "f419de174644bf64f0c467c58a3d4776", "type": "electric_scooter", "name": "f419de174644bf64f0c467c58a3d4776", "rental_uris": {"android": "https://dc.lft.to/lastmile_qr_scan", "ios": "https://dc.lft.to/lastmile_qr_scan"}, "is_disabled": 0, "fusion_lat": 0.0, "lat": 38.872997833333336, "is_reserved": 0}, {"lon": -77.02384, "fusion_lon": 0.0, "bike_id": "fb26cc3f2ce04a476bb5ad6d118e230a", "type": "electric_scooter", "name": "fb26cc3f2ce04a476bb5ad6d118e230a", "rental_uris": {"android": "https://dc.lft.to/lastmile_qr_scan", "ios": "https://dc.lft.to/lastmile_qr_scan"}, "is_disabled": 0, "fusion_lat": 0.0, "lat": 38.892282333333334, "is_reserved": 0}, {"lon": -76.997698, "fusion_lon": 0.0, "bike_id": "72507715a0359a2941c34ccfc2da7517", "type": "electric_scooter", "name": "72507715a0359a2941c34ccfc2da7517", "rental_uris": {"android": "https://dc.lft.to/lastmile_qr_scan", "ios": "https://dc.lft.to/lastmile_qr_scan"}, "is_disabled": 0, "fusion_lat": 0.0, "lat": 38.91121666666667, "is_reserved": 0}, {"lon": -77.01809416666667, "fusion_lon": 0.0, "bike_id": "16d446384c9bc4c555eb67d3adfb7168", "type": "electric_scooter", "name": "16d446384c9bc4c555eb67d3adfb7168", "rental_uris": {"android": "https://dc.lft.to/lastmile_qr_scan", "ios": "https://dc.lft.to/lastmile_qr_scan"}, "is_disabled": 0, "fusion_lat": 0.0, "lat": 38.90107733333333, "is_reserved": 0}, {"lon": -77.03921933333334, "fusion_lon": 0.0, "bike_id": "75a3985134ca05513255aaa9ed89a287", "type": "electric_scooter", "name": "75a3985134ca05513255aaa9ed89a287", "rental_uris": {"android": "https://dc.lft.to/lastmile_qr_scan", "ios": "https://dc.lft.to/lastmile_qr_scan"}, "is_disabled": 0, "fusion_lat": 0.0, "lat": 38.911180333333334, "is_reserved": 0}, {"lon": -77.038527, "fusion_lon": 0.0, "bike_id": "450c7fd03f72be00acb7baf705f4fa97", "type": "electric_scooter", "name": "450c7fd03f72be00acb7baf705f4fa97", "rental_uris": {"android": "https://dc.lft.to/lastmile_qr_scan", "ios": "https://dc.lft.to/lastmile_qr_scan"}, "is_disabled": 0, "fusion_lat": 0.0, "lat": 38.9176835, "is_reserved": 0}, {"lon": -77.05724816666667, "fusion_lon": 0.0, "bike_id": "963619e98e03c64dc2d9f920468d905c", "type": "electric_scooter", "name": "963619e98e03c64dc2d9f920468d905c", "rental_uris": {"android": "https://dc.lft.to/lastmile_qr_scan", "ios": "https://dc.lft.to/lastmile_qr_scan"}, "is_disabled": 0, "fusion_lat": 0.0, "lat": 38.933671, "is_reserved": 0}, {"lon": -77.09670516666667, "fusion_lon": 0.0, "bike_id": "427055db17d637ec933679f6ee7f59a5", "type": "electric_bike", "name": "427055db17d637ec933679f6ee7f59a5", "rental_uris": {"android": "https://dc.lft.to/lastmile_qr_scan", "ios": "https://dc.lft.to/lastmile_qr_scan"}, "is_disabled": 0, "fusion_lat": 0.0, "lat": 38.94617816666667, "is_reserved": 0}, {"lon": -77.00944, "fusion_lon": 0.0, "bike_id": "2178360b649a5f24fdbefe776a70559b", "type": "electric_scooter", "name": "2178360b649a5f24fdbefe776a70559b", "rental_uris": {"android": "https://dc.lft.to/lastmile_qr_scan", "ios": "https://dc.lft.to/lastmile_qr_scan"}, "is_disabled": 0, "fusion_lat": 0.0, "lat": 38.88348233333333, "is_reserved": 0}, {"lon": -77.05861716666666, "fusion_lon": 0.0, "bike_id": "78aadb9085062cce764e202171081d9b", "type": "electric_scooter", "name": "78aadb9085062cce764e202171081d9b", "rental_uris": {"android": "https://dc.lft.to/lastmile_qr_scan", "ios": "https://dc.lft.to/lastmile_qr_scan"}, "is_disabled": 0, "fusion_lat": 0.0, "lat": 38.93613633333333, "is_reserved": 0}, {"lon": -77.017784, "fusion_lon": 0.0, "bike_id": "f2d01f9fa5a2439d07b886691c77493c", "type": "electric_scooter", "name": "f2d01f9fa5a2439d07b886691c77493c", "rental_uris": {"android": "https://dc.lft.to/lastmile_qr_scan", "ios": "https://dc.lft.to/lastmile_qr_scan"}, "is_disabled": 0, "fusion_lat": 0.0, "lat": 38.88717066666667, "is_reserved": 0}, {"lon": -76.92592166666667, "fusion_lon": 0.0, "bike_id": "75a58c00ff2c9231a0884b6409ef22cf", "type": "electric_scooter", "name": "75a58c00ff2c9231a0884b6409ef22cf", "rental_uris": {"android": "https://dc.lft.to/lastmile_qr_scan", "ios": "https://dc.lft.to/lastmile_qr_scan"}, "is_disabled": 0, "fusion_lat": 0.0, "lat": 38.893593833333334, "is_reserved": 0}, {"lon": -77.04690466666666, "fusion_lon": 0.0, "bike_id": "6058e749b95dd25519a40f474fa47915", "type": "electric_scooter", "name": "6058e749b95dd25519a40f474fa47915", "rental_uris": {"android": "https://dc.lft.to/lastmile_qr_scan", "ios": "https://dc.lft.to/lastmile_qr_scan"}, "is_disabled": 0, "fusion_lat": 0.0, "lat": 38.89223483333333, "is_reserved": 0}, {"lon": -77.0216615, "fusion_lon": 0.0, "bike_id": "9b8d869aa2ce567a3bbc20e8c1bad269", "type": "electric_scooter", "name": "9b8d869aa2ce567a3bbc20e8c1bad269", "rental_uris": {"android": "https://dc.lft.to/lastmile_qr_scan", "ios": "https://dc.lft.to/lastmile_qr_scan"}, "is_disabled": 0, "fusion_lat": 0.0, "lat": 38.902088166666665, "is_reserved": 0}, {"lon": -76.9473105, "fusion_lon": 0.0, "bike_id": "9e8cf238e8168b0bbe961e7ea4d11022", "type": "electric_scooter", "name": "9e8cf238e8168b0bbe961e7ea4d11022", "rental_uris": {"android": "https://dc.lft.to/lastmile_qr_scan", "ios": "https://dc.lft.to/lastmile_qr_scan"}, "is_disabled": 0, "fusion_lat": 0.0, "lat": 38.8973675, "is_reserved": 0}, {"lon": -77.0147125, "fusion_lon": 0.0, "bike_id": "cf62944d08fd86f852fa87c2402da5b8", "type": "electric_scooter", "name": "cf62944d08fd86f852fa87c2402da5b8", "rental_uris": {"android": "https://dc.lft.to/lastmile_qr_scan", "ios": "https://dc.lft.to/lastmile_qr_scan"}, "is_disabled": 0, "fusion_lat": 0.0, "lat": 38.918723166666666, "is_reserved": 0}, {"lon": -77.03868166666666, "fusion_lon": 0.0, "bike_id": "5296328ae5b90470a5dbe043de4e8c2c", "type": "electric_scooter", "name": "5296328ae5b90470a5dbe043de4e8c2c", "rental_uris": {"android": "https://dc.lft.to/lastmile_qr_scan", "ios": "https://dc.lft.to/lastmile_qr_scan"}, "is_disabled": 0, "fusion_lat": 0.0, "lat": 38.92151, "is_reserved": 0}, {"lon": -77.03627733333333, "fusion_lon": 0.0, "bike_id": "79e50bd7e51b199385ef6cdece8e1f78", "type": "electric_scooter", "name": "79e50bd7e51b199385ef6cdece8e1f78", "rental_uris": {"android": "https://dc.lft.to/lastmile_qr_scan", "ios": "https://dc.lft.to/lastmile_qr_scan"}, "is_disabled": 0, "fusion_lat": 0.0, "lat": 38.9186235, "is_reserved": 0}, {"lon": -77.05598716666667, "fusion_lon": 0.0, "bike_id": "bfe65be30139c96926d3ec42f66a756a", "type": "electric_scooter", "name": "bfe65be30139c96926d3ec42f66a756a", "rental_uris": {"android": "https://dc.lft.to/lastmile_qr_scan", "ios": "https://dc.lft.to/lastmile_qr_scan"}, "is_disabled": 0, "fusion_lat": 0.0, "lat": 38.93704266666667, "is_reserved": 0}, {"lon": -77.03363433333334, "fusion_lon": 0.0, "bike_id": "3d0cc034f83f86024d6dee3ac94854dd", "type": "electric_scooter", "name": "3d0cc034f83f86024d6dee3ac94854dd", "rental_uris": {"android": "https://dc.lft.to/lastmile_qr_scan", "ios": "https://dc.lft.to/lastmile_qr_scan"}, "is_disabled": 0, "fusion_lat": 0.0, "lat": 38.927575833333336, "is_reserved": 0}, {"lon": -77.03503616666667, "fusion_lon": 0.0, "bike_id": "5c6a996999801758a060a6be3e446491", "type": "electric_scooter", "name": "5c6a996999801758a060a6be3e446491", "rental_uris": {"android": "https://dc.lft.to/lastmile_qr_scan", "ios": "https://dc.lft.to/lastmile_qr_scan"}, "is_disabled": 0, "fusion_lat": 0.0, "lat": 38.931649, "is_reserved": 0}, {"lon": -76.9955195, "fusion_lon": 0.0, "bike_id": "e47d73693dedcf4356525c52a65851ea", "type": "electric_scooter", "name": "e47d73693dedcf4356525c52a65851ea", "rental_uris": {"android": "https://dc.lft.to/lastmile_qr_scan", "ios": "https://dc.lft.to/lastmile_qr_scan"}, "is_disabled": 0, "fusion_lat": 0.0, "lat": 38.884198, "is_reserved": 0}, {"lon": -77.02478883333333, "fusion_lon": 0.0, "bike_id": "c6b47704ff87118f7496f685e22c831c", "type": "electric_scooter", "name": "c6b47704ff87118f7496f685e22c831c", "rental_uris": {"android": "https://dc.lft.to/lastmile_qr_scan", "ios": "https://dc.lft.to/lastmile_qr_scan"}, "is_disabled": 0, "fusion_lat": 0.0, "lat": 38.91924183333333, "is_reserved": 0}, {"lon": -77.00799866666667, "fusion_lon": 0.0, "bike_id": "9edef37b5629d5112c675bb848fda152", "type": "electric_scooter", "name": "9edef37b5629d5112c675bb848fda152", "rental_uris": {"android": "https://dc.lft.to/lastmile_qr_scan", "ios": "https://dc.lft.to/lastmile_qr_scan"}, "is_disabled": 0, "fusion_lat": 0.0, "lat": 38.915627666666666, "is_reserved": 0}, {"lon": -77.01347116666666, "fusion_lon": 0.0, "bike_id": "1cfd4c813413e8dca64a8740fabafea3", "type": "electric_scooter", "name": "1cfd4c813413e8dca64a8740fabafea3", "rental_uris": {"android": "https://dc.lft.to/lastmile_qr_scan", "ios": "https://dc.lft.to/lastmile_qr_scan"}, "is_disabled": 0, "fusion_lat": 0.0, "lat": 38.91912166666667, "is_reserved": 0}, {"lon": -77.0017665, "fusion_lon": 0.0, "bike_id": "f2e12f14c3cb2ef863529a7514e85531", "type": "electric_scooter", "name": "f2e12f14c3cb2ef863529a7514e85531", "rental_uris": {"android": "https://dc.lft.to/lastmile_qr_scan", "ios": "https://dc.lft.to/lastmile_qr_scan"}, "is_disabled": 0, "fusion_lat": 0.0, "lat": 38.90842, "is_reserved": 0}, {"lon": -77.02605116666666, "fusion_lon": 0.0, "bike_id": "89a95f62e7bd84bb80c7080f79bb227d", "type": "electric_scooter", "name": "89a95f62e7bd84bb80c7080f79bb227d", "rental_uris": {"android": "https://dc.lft.to/lastmile_qr_scan", "ios": "https://dc.lft.to/lastmile_qr_scan"}, "is_disabled": 0, "fusion_lat": 0.0, "lat": 38.91718766666666, "is_reserved": 0}, {"lon": -77.04673783333334, "fusion_lon": 0.0, "bike_id": "62cbf1ac72c4eb4ff01c29f36e38133c", "type": "electric_scooter", "name": "62cbf1ac72c4eb4ff01c29f36e38133c", "rental_uris": {"android": "https://dc.lft.to/lastmile_qr_scan", "ios": "https://dc.lft.to/lastmile_qr_scan"}, "is_disabled": 0, "fusion_lat": 0.0, "lat": 38.9142265, "is_reserved": 0}, {"lon": -77.0122665, "fusion_lon": 0.0, "bike_id": "c4d7eedfefa2c637c8a4270f343bc517", "type": "electric_scooter", "name": "c4d7eedfefa2c637c8a4270f343bc517", "rental_uris": {"android": "https://dc.lft.to/lastmile_qr_scan", "ios": "https://dc.lft.to/lastmile_qr_scan"}, "is_disabled": 0, "fusion_lat": 0.0, "lat": 38.9140445, "is_reserved": 0}, {"lon": -77.024244, "fusion_lon": 0.0, "bike_id": "f60910f0239bb9c120db89f5924a9089", "type": "electric_scooter", "name": "f60910f0239bb9c120db89f5924a9089", "rental_uris": {"android": "https://dc.lft.to/lastmile_qr_scan", "ios": "https://dc.lft.to/lastmile_qr_scan"}, "is_disabled": 0, "fusion_lat": 0.0, "lat": 38.918128333333335, "is_reserved": 0}, {"lon": -77.04478, "fusion_lon": 0.0, "bike_id": "3dce8840395efdf1aa0676e525d928c6", "type": "electric_scooter", "name": "3dce8840395efdf1aa0676e525d928c6", "rental_uris": {"android": "https://dc.lft.to/lastmile_qr_scan", "ios": "https://dc.lft.to/lastmile_qr_scan"}, "is_disabled": 0, "fusion_lat": 0.0, "lat": 38.90915366666667, "is_reserved": 0}, {"lon": -77.02243166666666, "fusion_lon": 0.0, "bike_id": "dd3002b3d65e8601f3eae8073dae231d", "type": "electric_scooter", "name": "dd3002b3d65e8601f3eae8073dae231d", "rental_uris": {"android": "https://dc.lft.to/lastmile_qr_scan", "ios": "https://dc.lft.to/lastmile_qr_scan"}, "is_disabled": 0, "fusion_lat": 0.0, "lat": 38.891937, "is_reserved": 0}, {"lon": -76.98504733333333, "fusion_lon": 0.0, "bike_id": "017abfb5190646c58ce94a5370565621", "type": "electric_scooter", "name": "017abfb5190646c58ce94a5370565621", "rental_uris": {"android": "https://dc.lft.to/lastmile_qr_scan", "ios": "https://dc.lft.to/lastmile_qr_scan"}, "is_disabled": 0, "fusion_lat": 0.0, "lat": 38.9133475, "is_reserved": 0}, {"lon": -77.026566, "fusion_lon": 0.0, "bike_id": "8622a2c387faf420ff342926b7435485", "type": "electric_scooter", "name": "8622a2c387faf420ff342926b7435485", "rental_uris": {"android": "https://dc.lft.to/lastmile_qr_scan", "ios": "https://dc.lft.to/lastmile_qr_scan"}, "is_disabled": 0, "fusion_lat": 0.0, "lat": 38.88100033333333, "is_reserved": 0}, {"lon": -77.02482266666667, "fusion_lon": 0.0, "bike_id": "8d7f1131bd3347f9748cc860b3ee5275", "type": "electric_scooter", "name": "8d7f1131bd3347f9748cc860b3ee5275", "rental_uris": {"android": "https://dc.lft.to/lastmile_qr_scan", "ios": "https://dc.lft.to/lastmile_qr_scan"}, "is_disabled": 0, "fusion_lat": 0.0, "lat": 38.93881283333333, "is_reserved": 0}, {"lon": -77.004454, "fusion_lon": 0.0, "bike_id": "ba43ac53fb694103ea00204fd25c0590", "type": "electric_scooter", "name": "ba43ac53fb694103ea00204fd25c0590", "rental_uris": {"android": "https://dc.lft.to/lastmile_qr_scan", "ios": "https://dc.lft.to/lastmile_qr_scan"}, "is_disabled": 0, "fusion_lat": 0.0, "lat": 38.87663966666667, "is_reserved": 0}, {"lon": -77.05028416666667, "fusion_lon": 0.0, "bike_id": "7bf33cbbd4c05a01df93a302c430b2c2", "type": "electric_scooter", "name": "7bf33cbbd4c05a01df93a302c430b2c2", "rental_uris": {"android": "https://dc.lft.to/lastmile_qr_scan", "ios": "https://dc.lft.to/lastmile_qr_scan"}, "is_disabled": 0, "fusion_lat": 0.0, "lat": 38.89793616666667, "is_reserved": 0}, {"lon": -77.0278655, "fusion_lon": 0.0, "bike_id": "7851598406efe54318f031ec362534bd", "type": "electric_scooter", "name": "7851598406efe54318f031ec362534bd", "rental_uris": {"android": "https://dc.lft.to/lastmile_qr_scan", "ios": "https://dc.lft.to/lastmile_qr_scan"}, "is_disabled": 0, "fusion_lat": 0.0, "lat": 38.8989845, "is_reserved": 0}, {"lon": -77.022888, "fusion_lon": 0.0, "bike_id": "f394c0a69729f628b23690bb8b5461e6", "type": "electric_scooter", "name": "f394c0a69729f628b23690bb8b5461e6", "rental_uris": {"android": "https://dc.lft.to/lastmile_qr_scan", "ios": "https://dc.lft.to/lastmile_qr_scan"}, "is_disabled": 0, "fusion_lat": 0.0, "lat": 38.91793216666667, "is_reserved": 0}, {"lon": -77.05741466666667, "fusion_lon": 0.0, "bike_id": "5e01c75bbc880da33a3aa4b7bbef6c64", "type": "electric_scooter", "name": "5e01c75bbc880da33a3aa4b7bbef6c64", "rental_uris": {"android": "https://dc.lft.to/lastmile_qr_scan", "ios": "https://dc.lft.to/lastmile_qr_scan"}, "is_disabled": 0, "fusion_lat": 0.0, "lat": 38.9338525, "is_reserved": 0}, {"lon": -77.02479, "fusion_lon": 0.0, "bike_id": "0d9201d9a29fb188ab8b43be957013f9", "type": "electric_scooter", "name": "0d9201d9a29fb188ab8b43be957013f9", "rental_uris": {"android": "https://dc.lft.to/lastmile_qr_scan", "ios": "https://dc.lft.to/lastmile_qr_scan"}, "is_disabled": 0, "fusion_lat": 0.0, "lat": 38.931038666666666, "is_reserved": 0}, {"lon": -77.054711, "fusion_lon": 0.0, "bike_id": "d5364397d80231393210c59031f362d2", "type": "electric_scooter", "name": "d5364397d80231393210c59031f362d2", "rental_uris": {"android": "https://dc.lft.to/lastmile_qr_scan", "ios": "https://dc.lft.to/lastmile_qr_scan"}, "is_disabled": 0, "fusion_lat": 0.0, "lat": 38.897298166666666, "is_reserved": 0}, {"lon": -76.98566266666667, "fusion_lon": 0.0, "bike_id": "8852b8d4bd587be095b25238dd4769b4", "type": "electric_scooter", "name": "8852b8d4bd587be095b25238dd4769b4", "rental_uris": {"android": "https://dc.lft.to/lastmile_qr_scan", "ios": "https://dc.lft.to/lastmile_qr_scan"}, "is_disabled": 0, "fusion_lat": 0.0, "lat": 38.8835155, "is_reserved": 0}, {"lon": -77.03248083333334, "fusion_lon": 0.0, "bike_id": "374190e63d436a0740fa2e604c6e3f7b", "type": "electric_scooter", "name": "374190e63d436a0740fa2e604c6e3f7b", "rental_uris": {"android": "https://dc.lft.to/lastmile_qr_scan", "ios": "https://dc.lft.to/lastmile_qr_scan"}, "is_disabled": 0, "fusion_lat": 0.0, "lat": 38.92391666666666, "is_reserved": 0}, {"lon": -77.04249583333333, "fusion_lon": 0.0, "bike_id": "be1ebc636defc62054d1c481090a68d8", "type": "electric_scooter", "name": "be1ebc636defc62054d1c481090a68d8", "rental_uris": {"android": "https://dc.lft.to/lastmile_qr_scan", "ios": "https://dc.lft.to/lastmile_qr_scan"}, "is_disabled": 0, "fusion_lat": 0.0, "lat": 38.90864833333333, "is_reserved": 0}, {"lon": -77.02536433333333, "fusion_lon": 0.0, "bike_id": "16f6f7f2369ee63a075b1a0f4042711c", "type": "electric_scooter", "name": "16f6f7f2369ee63a075b1a0f4042711c", "rental_uris": {"android": "https://dc.lft.to/lastmile_qr_scan", "ios": "https://dc.lft.to/lastmile_qr_scan"}, "is_disabled": 0, "fusion_lat": 0.0, "lat": 38.945617, "is_reserved": 0}, {"lon": -77.03690966666667, "fusion_lon": 0.0, "bike_id": "4de710fa8fd320c8f56295b6a2e5050c", "type": "electric_scooter", "name": "4de710fa8fd320c8f56295b6a2e5050c", "rental_uris": {"android": "https://dc.lft.to/lastmile_qr_scan", "ios": "https://dc.lft.to/lastmile_qr_scan"}, "is_disabled": 0, "fusion_lat": 0.0, "lat": 38.9364905, "is_reserved": 0}, {"lon": -77.04908766666667, "fusion_lon": 0.0, "bike_id": "43136be74f20cd11ddd7f7a6b25239f5", "type": "electric_scooter", "name": "43136be74f20cd11ddd7f7a6b25239f5", "rental_uris": {"android": "https://dc.lft.to/lastmile_qr_scan", "ios": "https://dc.lft.to/lastmile_qr_scan"}, "is_disabled": 0, "fusion_lat": 0.0, "lat": 38.916028, "is_reserved": 0}, {"lon": -77.0379315, "fusion_lon": 0.0, "bike_id": "1b6c0c749e483cb0cfce79c4940a458e", "type": "electric_scooter", "name": "1b6c0c749e483cb0cfce79c4940a458e", "rental_uris": {"android": "https://dc.lft.to/lastmile_qr_scan", "ios": "https://dc.lft.to/lastmile_qr_scan"}, "is_disabled": 0, "fusion_lat": 0.0, "lat": 38.92186783333333, "is_reserved": 0}, {"lon": -77.06009366666666, "fusion_lon": 0.0, "bike_id": "552cdd2cca7a6273495563c587a7d487", "type": "electric_scooter", "name": "552cdd2cca7a6273495563c587a7d487", "rental_uris": {"android": "https://dc.lft.to/lastmile_qr_scan", "ios": "https://dc.lft.to/lastmile_qr_scan"}, "is_disabled": 0, "fusion_lat": 0.0, "lat": 38.93642883333333, "is_reserved": 0}, {"lon": -76.97957866666667, "fusion_lon": 0.0, "bike_id": "a1c8e2520c572e74a5ea2a69a7452b60", "type": "electric_scooter", "name": "a1c8e2520c572e74a5ea2a69a7452b60", "rental_uris": {"android": "https://dc.lft.to/lastmile_qr_scan", "ios": "https://dc.lft.to/lastmile_qr_scan"}, "is_disabled": 0, "fusion_lat": 0.0, "lat": 38.905029166666665, "is_reserved": 0}, {"lon": -77.02425766666667, "fusion_lon": 0.0, "bike_id": "9a15f104e45088e81099070ea188b49f", "type": "electric_scooter", "name": "9a15f104e45088e81099070ea188b49f", "rental_uris": {"android": "https://dc.lft.to/lastmile_qr_scan", "ios": "https://dc.lft.to/lastmile_qr_scan"}, "is_disabled": 0, "fusion_lat": 0.0, "lat": 38.92077616666667, "is_reserved": 0}, {"lon": -77.11074633333334, "fusion_lon": 0.0, "bike_id": "c1831a711b4b8b4ce7162c6cd2c5cfca", "type": "electric_bike", "name": "c1831a711b4b8b4ce7162c6cd2c5cfca", "rental_uris": {"android": "https://dc.lft.to/lastmile_qr_scan", "ios": "https://dc.lft.to/lastmile_qr_scan"}, "is_disabled": 0, "fusion_lat": 0.0, "lat": 39.01226783333333, "is_reserved": 0}, {"lon": -77.018003, "fusion_lon": 0.0, "bike_id": "0ce3e5c4df87d2db98b2b22088d88cec", "type": "electric_scooter", "name": "0ce3e5c4df87d2db98b2b22088d88cec", "rental_uris": {"android": "https://dc.lft.to/lastmile_qr_scan", "ios": "https://dc.lft.to/lastmile_qr_scan"}, "is_disabled": 0, "fusion_lat": 0.0, "lat": 38.90423333333333, "is_reserved": 0}, {"lon": -77.00677216666666, "fusion_lon": 0.0, "bike_id": "a5a3650cb91554fee3818f6597084dd3", "type": "electric_scooter", "name": "a5a3650cb91554fee3818f6597084dd3", "rental_uris": {"android": "https://dc.lft.to/lastmile_qr_scan", "ios": "https://dc.lft.to/lastmile_qr_scan"}, "is_disabled": 0, "fusion_lat": 0.0, "lat": 38.8717155, "is_reserved": 0}, {"lon": -77.04422816666667, "fusion_lon": 0.0, "bike_id": "8b46baab493b347837ec911e4be36851", "type": "electric_scooter", "name": "8b46baab493b347837ec911e4be36851", "rental_uris": {"android": "https://dc.lft.to/lastmile_qr_scan", "ios": "https://dc.lft.to/lastmile_qr_scan"}, "is_disabled": 0, "fusion_lat": 0.0, "lat": 38.8922125, "is_reserved": 0}, {"lon": -77.03445483333333, "fusion_lon": 0.0, "bike_id": "9e2959ce5c926e468d0d2602a3751f12", "type": "electric_scooter", "name": "9e2959ce5c926e468d0d2602a3751f12", "rental_uris": {"android": "https://dc.lft.to/lastmile_qr_scan", "ios": "https://dc.lft.to/lastmile_qr_scan"}, "is_disabled": 0, "fusion_lat": 0.0, "lat": 38.9173665, "is_reserved": 0}, {"lon": -77.06353116666666, "fusion_lon": 0.0, "bike_id": "750504b25aca565a2b5c0bf3344b2444", "type": "electric_scooter", "name": "750504b25aca565a2b5c0bf3344b2444", "rental_uris": {"android": "https://dc.lft.to/lastmile_qr_scan", "ios": "https://dc.lft.to/lastmile_qr_scan"}, "is_disabled": 0, "fusion_lat": 0.0, "lat": 38.9444305, "is_reserved": 0}, {"lon": -76.97427733333333, "fusion_lon": 0.0, "bike_id": "b29e25648bd6b29a22fa263c2f2145da", "type": "electric_bike", "name": "b29e25648bd6b29a22fa263c2f2145da", "rental_uris": {"android": "https://dc.lft.to/lastmile_qr_scan", "ios": "https://dc.lft.to/lastmile_qr_scan"}, "is_disabled": 0, "fusion_lat": 0.0, "lat": 38.932380333333334, "is_reserved": 0}, {"lon": -77.032758, "fusion_lon": 0.0, "bike_id": "42a12970262f88b5fc427905b765fa0f", "type": "electric_scooter", "name": "42a12970262f88b5fc427905b765fa0f", "rental_uris": {"android": "https://dc.lft.to/lastmile_qr_scan", "ios": "https://dc.lft.to/lastmile_qr_scan"}, "is_disabled": 0, "fusion_lat": 0.0, "lat": 38.901650333333336, "is_reserved": 0}, {"lon": -76.9073495, "fusion_lon": 0.0, "bike_id": "3912b2543e9fb9943c8acc8c6990dc45", "type": "electric_bike", "name": "3912b2543e9fb9943c8acc8c6990dc45", "rental_uris": {"android": "https://dc.lft.to/lastmile_qr_scan", "ios": "https://dc.lft.to/lastmile_qr_scan"}, "is_disabled": 0, "fusion_lat": 0.0, "lat": 38.89613833333333, "is_reserved": 0}, {"lon": -77.02589833333333, "fusion_lon": 0.0, "bike_id": "74ca8243578ac869c47f94df7f1a60ce", "type": "electric_scooter", "name": "74ca8243578ac869c47f94df7f1a60ce", "rental_uris": {"android": "https://dc.lft.to/lastmile_qr_scan", "ios": "https://dc.lft.to/lastmile_qr_scan"}, "is_disabled": 0, "fusion_lat": 0.0, "lat": 38.914179833333336, "is_reserved": 0}, {"lon": -77.02267883333333, "fusion_lon": 0.0, "bike_id": "9849a09f0b682c4049e2eeff468b6de7", "type": "electric_scooter", "name": "9849a09f0b682c4049e2eeff468b6de7", "rental_uris": {"android": "https://dc.lft.to/lastmile_qr_scan", "ios": "https://dc.lft.to/lastmile_qr_scan"}, "is_disabled": 0, "fusion_lat": 0.0, "lat": 38.908809166666664, "is_reserved": 0}, {"lon": -77.22951266666666, "fusion_lon": 0.0, "bike_id": "7ee37b10a87dfd3b1c279d2f5119a0d2", "type": "electric_bike", "name": "7ee37b10a87dfd3b1c279d2f5119a0d2", "rental_uris": {"android": "https://dc.lft.to/lastmile_qr_scan", "ios": "https://dc.lft.to/lastmile_qr_scan"}, "is_disabled": 0, "fusion_lat": 0.0, "lat": 38.872327166666665, "is_reserved": 0}, {"lon": -77.01970383333334, "fusion_lon": 0.0, "bike_id": "5f433d07768ad8999599c2788599dbff", "type": "electric_scooter", "name": "5f433d07768ad8999599c2788599dbff", "rental_uris": {"android": "https://dc.lft.to/lastmile_qr_scan", "ios": "https://dc.lft.to/lastmile_qr_scan"}, "is_disabled": 0, "fusion_lat": 0.0, "lat": 38.935749, "is_reserved": 0}, {"lon": -77.04137483333334, "fusion_lon": 0.0, "bike_id": "45592474eb67a867a18f926c6de53848", "type": "electric_scooter", "name": "45592474eb67a867a18f926c6de53848", "rental_uris": {"android": "https://dc.lft.to/lastmile_qr_scan", "ios": "https://dc.lft.to/lastmile_qr_scan"}, "is_disabled": 0, "fusion_lat": 0.0, "lat": 38.91383, "is_reserved": 0},