{"data": {"bikes": [{"lon": -77.02307616666667, "bike_id": "f5169d9bd11945509a7cb6f687f2dcdb", "lat": 38.917815833333336, "fusion_lon": 0.0, "fusion_lat": 0.0, "type": "electric_scooter", "name": "f5169d9bd11945509a7cb6f687f2dcdb", "is_disabled": 0, "rental_uris": {"ios": "https://dc.lft.to/lastmile_qr_scan", "android": "https://dc.lft.to/lastmile_qr_scan"}, "is_reserved": 0}, {"lon": -77.02237266666667, "bike_id": "b7832e1a16486e229dfee54646bef23f", "lat": 38.962011833333335, "fusion_lon": 0.0, "fusion_lat": 0.0, "type": "electric_scooter", "name": "b7832e1a16486e229dfee54646bef23f", "is_disabled": 0, "rental_uris": {"ios": "https://dc.lft.to/lastmile_qr_scan", "android": "https://dc.lft.to/lastmile_qr_scan"}, "is_reserved": 0}, {"lon": -77.02930533333334, "bike_id": "f22481edb5e3d672b68ec13053814380", "lat": 38.917008, "fusion_lon": 0.0, "fusion_lat": 0.0, "type": "electric_scooter", "name": "f22481edb5e3d672b68ec13053814380", "is_disabled": 0, "rental_uris": {"ios": "https://dc.lft.to/lastmile_qr_scan", "android": "https://dc.lft.to/lastmile_qr_scan"}, "is_reserved": 0}, {"lon": -77.0601335, "bike_id": "fa699a2380cafc9a1c04dd3df40b765a", "lat": 38.90114616666666, "fusion_lon": 0.0, "fusion_lat": 0.0, "type": "electric_scooter", "name": "fa699a2380cafc9a1c04dd3df40b765a", "is_disabled": 0, "rental_uris": {"ios": "https://dc.lft.to/lastmile_qr_scan", "android": "https://dc.lft.to/lastmile_qr_scan"}, "is_reserved": 0}, {"lon": -77.0196115, "bike_id": "f28bbc6ca2654df3e0e8e4395883f568", "lat": 38.87843083333333, "fusion_lon": 0.0, "fusion_lat": 0.0, "type": "electric_scooter", "name": "f28bbc6ca2654df3e0e8e4395883f568", "is_disabled": 0, "rental_uris": {"ios": "https://dc.lft.to/lastmile_qr_scan", "android": "https://dc.lft.to/lastmile_qr_scan"}, "is_reserved": 0}, {"lon": -77.04873083333334, "bike_id": "a82e2b69a8d8e14d94f1abe82999a879", "lat": 38.89230833333333, "fusion_lon": 0.0, "fusion_lat": 0.0, "type": "electric_scooter", "name": "a82e2b69a8d8e14d94f1abe82999a879", "is_disabled": 0, "rental_uris": {"ios": "https://dc.lft.to/lastmile_qr_scan", "android": "https://dc.lft.to/lastmile_qr_scan"}, "is_reserved": 0}, {"lon": -77.02170716666667, "bike_id": "559229a78c3e32c90224d84b62a86cf6", "lat": 38.90110083333333, "fusion_lon": 0.0, "fusion_lat": 0.0, "type": "electric_scooter", "name": "559229a78c3e32c90224d84b62a86cf6", "is_disabled": 0, "rental_uris": {"ios": "https://dc.lft.to/lastmile_qr_scan", "android": "https://dc.lft.to/lastmile_qr_scan"}, "is_reserved": 0}, {"lon": -77.025264, "bike_id": "6b070f974055fc2752647e265beaccd0", "lat": 38.9057615, "fusion_lon": 0.0, "fusion_lat": 0.0, "type": "electric_scooter", "name": "6b070f974055fc2752647e265beaccd0", "is_disabled": 0, "rental_uris": {"ios": "https://dc.lft.to/lastmile_qr_scan", "android": "https://dc.lft.to/lastmile_qr_scan"}, "is_reserved": 0}, {"lon": -77.07929333333334, "bike_id": "6bd0844fbd7422c549bb46176ae5aa76", "lat": 38.93085633333333, "fusion_lon": 0.0, "fusion_lat": 0.0, "type": "electric_scooter", "name": "6bd0844fbd7422c549bb46176ae5aa76", "is_disabled": 0, "rental_uris": {"ios": "https://dc.lft.to/lastmile_qr_scan", "android": "https://dc.lft.to/lastmile_qr_scan"}, "is_reserved": 0}, {"lon": -77.0292165, "bike_id": "3097a1f896288b7c6394b7985797c559", "lat": 38.934612666666666, "fusion_lon": 0.0, "fusion_lat": 0.0, "type": "electric_scooter", "name": "3097a1f896288b7c6394b7985797c559", "is_disabled": 0, "rental_uris": {"ios": "https://dc.lft.to/lastmile_qr_scan", "android": "https://dc.lft.to/lastmile_qr_scan"}, "is_reserved": 0}, {"lon": -77.02448416666667, "bike_id": "91b823e0574dcd852de7baf85881653c", "lat": 38.92498033333333, "fusion_lon": 0.0, "fusion_lat": 0.0, "type": "electric_scooter", "name": "91b823e0574dcd852de7baf85881653c", "is_disabled": 0, "rental_uris": {"ios": "https://dc.lft.to/lastmile_qr_scan", "android": "https://dc.lft.to/lastmile_qr_scan"}, "is_reserved": 0}, {"lon": -77.038288, "bike_id": "9101c8e13b33cd9c9f77c46432bd6f0e", "lat": 38.906829333333334, "fusion_lon": 0.0, "fusion_lat": 0.0, "type": "electric_scooter", "name": "9101c8e13b33cd9c9f77c46432bd6f0e", "is_disabled": 0, "rental_uris": {"ios": "https://dc.lft.to/lastmile_qr_scan", "android": "https://dc.lft.to/lastmile_qr_scan"}, "is_reserved": 0}, {"lon": -76.9815275, "bike_id": "b8162231622906be0045376fd41c8585", "lat": 38.903245, "fusion_lon": 0.0, "fusion_lat": 0.0, "type": "electric_scooter", "name": "b8162231622906be0045376fd41c8585", "is_disabled": 0, "rental_uris": {"ios": "https://dc.lft.to/lastmile_qr_scan", "android": "https://dc.lft.to/lastmile_qr_scan"}, "is_reserved": 0}, {"lon": -76.9766905, "bike_id": "dac4841c0411586f795c8e39e8e81296", "lat": 38.952443, "fusion_lon": 0.0, "fusion_lat": 0.0, "type": "electric_bike", "name": "dac4841c0411586f795c8e39e8e81296", "is_disabled": 0, "rental_uris": {"ios": "https://dc.lft.to/lastmile_qr_scan", "android": "https://dc.lft.to/lastmile_qr_scan"}, "is_reserved": 0}, {"lon": -76.98862883333334, "bike_id": "74c12d1a3e6c7a4c35eee5800858e38a", "lat": 38.89172766666667, "fusion_lon": 0.0, "fusion_lat": 0.0, "type": "electric_scooter", "name": "74c12d1a3e6c7a4c35eee5800858e38a", "is_disabled": 0, "rental_uris": {"ios": "https://dc.lft.to/lastmile_qr_scan", "android": "https://dc.lft.to/lastmile_qr_scan"}, "is_reserved": 0}, {"lon": -77.0221865, "bike_id": "95c50887bff492a4daf5d12898e91083", "lat": 38.90573666666667, "fusion_lon": 0.0, "fusion_lat": 0.0, "type": "electric_scooter", "name": "95c50887bff492a4daf5d12898e91083", "is_disabled": 0, "rental_uris": {"ios": "https://dc.lft.to/lastmile_qr_scan", "android": "https://dc.lft.to/lastmile_qr_scan"}, "is_reserved": 0}, {"lon": -77.04088233333333, "bike_id": "1511e46cb683160bc3228f16a07b24ae", "lat": 38.908769666666664, "fusion_lon": 0.0, "fusion_lat": 0.0, "type": "electric_scooter", "name": "1511e46cb683160bc3228f16a07b24ae", "is_disabled": 0, "rental_uris": {"ios": "https://dc.lft.to/lastmile_qr_scan", "android": "https://dc.lft.to/lastmile_qr_scan"}, "is_reserved": 0}, {"lon": -77.02294266666667, "bike_id": "b9dd5d4cc4fb56ab4ddb18def4a14c57", "lat": 38.918394, "fusion_lon": 0.0, "fusion_lat": 0.0, "type": "electric_scooter", "name": "b9dd5d4cc4fb56ab4ddb18def4a14c57", "is_disabled": 0, "rental_uris": {"ios": "https://dc.lft.to/lastmile_qr_scan", "android": "https://dc.lft.to/lastmile_qr_scan"}, "is_reserved": 0}, {"lon": -76.98800833333334, "bike_id": "57bda9068d9ed288695206d478b51d84", "lat": 38.86730816666667, "fusion_lon": 0.0, "fusion_lat": 0.0, "type": "electric_scooter", "name": "57bda9068d9ed288695206d478b51d84", "is_disabled": 0, "rental_uris": {"ios": "https://dc.lft.to/lastmile_qr_scan", "android": "https://dc.lft.to/lastmile_qr_scan"}, "is_reserved": 0}, {"lon": -77.0468315, "bike_id": "353c36271b616b3876c6bfe83cae69a4", "lat": 38.89222783333334, "fusion_lon": 0.0, "fusion_lat": 0.0, "type": "electric_scooter", "name": "353c36271b616b3876c6bfe83cae69a4", "is_disabled": 0, "rental_uris": {"ios": "https://dc.lft.to/lastmile_qr_scan", "android": "https://dc.lft.to/lastmile_qr_scan"}, "is_reserved": 0}, {"lon": -77.03195833333334, "bike_id": "36083319aff63d3f7f6534b99e539d46", "lat": 38.913051833333334, "fusion_lon": 0.0, "fusion_lat": 0.0, "type": "electric_scooter", "name": "36083319aff63d3f7f6534b99e539d46", "is_disabled": 0, "rental_uris": {"ios": "https://dc.lft.to/lastmile_qr_scan", "android": "https://dc.lft.to/lastmile_qr_scan"}, "is_reserved": 0}, {"lon": -77.071187, "bike_id": "e7b99e35ae03ac55237c543be67359f4", "lat": 38.919707833333334, "fusion_lon": 0.0, "fusion_lat": 0.0, "type": "electric_scooter", "name": "e7b99e35ae03ac55237c543be67359f4", "is_disabled": 0, "rental_uris": {"ios": "https://dc.lft.to/lastmile_qr_scan", "android": "https://dc.lft.to/lastmile_qr_scan"}, "is_reserved": 0}, {"lon": -77.02933883333333, "bike_id": "aa0d6aecf8c1ff70402e74b8927285ea", "lat": 38.920601166666664, "fusion_lon": 0.0, "fusion_lat": 0.0, "type": "electric_scooter", "name": "aa0d6aecf8c1ff70402e74b8927285ea", "is_disabled": 0, "rental_uris": {"ios": "https://dc.lft.to/lastmile_qr_scan", "android": "https://dc.lft.to/lastmile_qr_scan"}, "is_reserved": 0}, {"lon": -77.01177766666666, "bike_id": "770370f04512bf113a1c53262e1c0cbf", "lat": 38.90024583333334, "fusion_lon": 0.0, "fusion_lat": 0.0, "type": "electric_scooter", "name": "770370f04512bf113a1c53262e1c0cbf", "is_disabled": 0, "rental_uris": {"ios": "https://dc.lft.to/lastmile_qr_scan", "android": "https://dc.lft.to/lastmile_qr_scan"}, "is_reserved": 0}, {"lon": -77.03109666666667, "bike_id": "37d067bf3cf072e30241d67b24771bf3", "lat": 38.915551, "fusion_lon": 0.0, "fusion_lat": 0.0, "type": "electric_scooter", "name": "37d067bf3cf072e30241d67b24771bf3", "is_disabled": 0, "rental_uris": {"ios": "https://dc.lft.to/lastmile_qr_scan", "android": "https://dc.lft.to/lastmile_qr_scan"}, "is_reserved": 0}, {"lon": -76.9943675, "bike_id": "48161d5502268a124c3807617b336a22", "lat": 38.9334575, "fusion_lon": 0.0, "fusion_lat": 0.0, "type": "electric_scooter", "name": "48161d5502268a124c3807617b336a22", "is_disabled": 0, "rental_uris": {"ios": "https://dc.lft.to/lastmile_qr_scan", "android": "https://dc.lft.to/lastmile_qr_scan"}, "is_reserved": 0}, {"lon": -77.05510433333333, "bike_id": "c992d5cb01c6f818db9f4c9a30c0abfa", "lat": 38.899878333333334, "fusion_lon": 0.0, "fusion_lat": 0.0, "type": "electric_scooter", "name": "c992d5cb01c6f818db9f4c9a30c0abfa", "is_disabled": 0, "rental_uris": {"ios": "https://dc.lft.to/lastmile_qr_scan", "android": "https://dc.lft.to/lastmile_qr_scan"}, "is_reserved": 0}, {"lon": -77.03440816666667, "bike_id": "91a200f1408e824215fa371c5b1d0b87", "lat": 38.91495233333333, "fusion_lon": 0.0, "fusion_lat": 0.0, "type": "electric_scooter", "name": "91a200f1408e824215fa371c5b1d0b87", "is_disabled": 0, "rental_uris": {"ios": "https://dc.lft.to/lastmile_qr_scan", "android": "https://dc.lft.to/lastmile_qr_scan"}, "is_reserved": 0}, {"lon": -77.0366235, "bike_id": "d90820696300cf5a1ff2e744737f300d", "lat": 38.93605933333333, "fusion_lon": 0.0, "fusion_lat": 0.0, "type": "electric_scooter", "name": "d90820696300cf5a1ff2e744737f300d", "is_disabled": 0, "rental_uris": {"ios": "https://dc.lft.to/lastmile_qr_scan", "android": "https://dc.lft.to/lastmile_qr_scan"}, "is_reserved": 0}, {"lon": -77.02160933333333, "bike_id": "2078e64182481bf8e50c82aadf3750e8", "lat": 38.89891266666667, "fusion_lon": 0.0, "fusion_lat": 0.0, "type": "electric_scooter", "name": "2078e64182481bf8e50c82aadf3750e8", "is_disabled": 0, "rental_uris": {"ios": "https://dc.lft.to/lastmile_qr_scan", "android": "https://dc.lft.to/lastmile_qr_scan"}, "is_reserved": 0}, {"lon": -77.04332066666667, "bike_id": "b121a81287d3a55674bb0fcca8c575fc", "lat": 38.907287833333335, "fusion_lon": 0.0, "fusion_lat": 0.0, "type": "electric_scooter", "name": "b121a81287d3a55674bb0fcca8c575fc", "is_disabled": 0, "rental_uris": {"ios": "https://dc.lft.to/lastmile_qr_scan", "android": "https://dc.lft.to/lastmile_qr_scan"}, "is_reserved": 0}, {"lon": -76.9889175, "bike_id": "d529f35d046e51ef45eaf719bcfcdd0d", "lat": 38.913420333333335, "fusion_lon": 0.0, "fusion_lat": 0.0, "type": "electric_scooter", "name": "d529f35d046e51ef45eaf719bcfcdd0d", "is_disabled": 0, "rental_uris": {"ios": "https://dc.lft.to/lastmile_qr_scan", "android": "https://dc.lft.to/lastmile_qr_scan"}, "is_reserved": 0}, {"lon": -77.02180083333333, "bike_id": "178b6ad482a33e2770be843e8334aeab", "lat": 38.909969833333335, "fusion_lon": 0.0, "fusion_lat": 0.0, "type": "electric_scooter", "name": "178b6ad482a33e2770be843e8334aeab", "is_disabled": 0, "rental_uris": {"ios": "https://dc.lft.to/lastmile_qr_scan", "android": "https://dc.lft.to/lastmile_qr_scan"}, "is_reserved": 0}, {"lon": -77.03441533333333, "bike_id": "53ce1e87bb9cbe5c0486aa8ac12a16e3", "lat": 38.90982666666667, "fusion_lon": 0.0, "fusion_lat": 0.0, "type": "electric_scooter", "name": "53ce1e87bb9cbe5c0486aa8ac12a16e3", "is_disabled": 0, "rental_uris": {"ios": "https://dc.lft.to/lastmile_qr_scan", "android": "https://dc.lft.to/lastmile_qr_scan"}, "is_reserved": 0}, {"lon": -77.03200816666667, "bike_id": "fb7e71fd4c209426d61ca1f4834c497f", "lat": 38.907866166666665, "fusion_lon": 0.0, "fusion_lat": 0.0, "type": "electric_scooter", "name": "fb7e71fd4c209426d61ca1f4834c497f", "is_disabled": 0, "rental_uris": {"ios": "https://dc.lft.to/lastmile_qr_scan", "android": "https://dc.lft.to/lastmile_qr_scan"}, "is_reserved": 0}, {"lon": -77.0084155, "bike_id": "2841a9cafa57c28a1e6fe5c2e0c9073a", "lat": 38.91627, "fusion_lon": 0.0, "fusion_lat": 0.0, "type": "electric_scooter", "name": "2841a9cafa57c28a1e6fe5c2e0c9073a", "is_disabled": 0, "rental_uris": {"ios": "https://dc.lft.to/lastmile_qr_scan", "android": "https://dc.lft.to/lastmile_qr_scan"}, "is_reserved": 0}, {"lon": -77.04254683333333, "bike_id": "4f88ace43fd124ea809869143ee81999", "lat": 38.900203, "fusion_lon": 0.0, "fusion_lat": 0.0, "type": "electric_scooter", "name": "4f88ace43fd124ea809869143ee81999", "is_disabled": 0, "rental_uris": {"ios": "https://dc.lft.to/lastmile_qr_scan", "android": "https://dc.lft.to/lastmile_qr_scan"}, "is_reserved": 0}, {"lon": -77.0382765, "bike_id": "969f7d9ba82abf5594536d03e57726e9", "lat": 38.90680833333333, "fusion_lon": 0.0, "fusion_lat": 0.0, "type": "electric_scooter", "name": "969f7d9ba82abf5594536d03e57726e9", "is_disabled": 0, "rental_uris": {"ios": "https://dc.lft.to/lastmile_qr_scan", "android": "https://dc.lft.to/lastmile_qr_scan"}, "is_reserved": 0}, {"lon": -76.99787383333333, "bike_id": "0526a88bc4d56a72bac56220facbca97", "lat": 38.89094983333333, "fusion_lon": 0.0, "fusion_lat": 0.0, "type": "electric_scooter", "name": "0526a88bc4d56a72bac56220facbca97", "is_disabled": 0, "rental_uris": {"ios": "https://dc.lft.to/lastmile_qr_scan", "android": "https://dc.lft.to/lastmile_qr_scan"}, "is_reserved": 0}, {"lon": -77.00357266666667, "bike_id": "77b76ed0c7de557a53eb7fc5f2ebfbf6", "lat": 38.895375666666666, "fusion_lon": 0.0, "fusion_lat": 0.0, "type": "electric_scooter", "name": "77b76ed0c7de557a53eb7fc5f2ebfbf6", "is_disabled": 0, "rental_uris": {"ios": "https://dc.lft.to/lastmile_qr_scan", "android": "https://dc.lft.to/lastmile_qr_scan"}, "is_reserved": 0}, {"lon": -77.00795266666667, "bike_id": "557234242139ee15b8fe4235d87a333b", "lat": 38.897167833333334, "fusion_lon": 0.0, "fusion_lat": 0.0, "type": "electric_scooter", "name": "557234242139ee15b8fe4235d87a333b", "is_disabled": 0, "rental_uris": {"ios": "https://dc.lft.to/lastmile_qr_scan", "android": "https://dc.lft.to/lastmile_qr_scan"}, "is_reserved": 0}, {"lon": -76.981049, "bike_id": "765e91517fd00f58b4fc67d36f8e08f1", "lat": 38.877311166666665, "fusion_lon": 0.0, "fusion_lat": 0.0, "type": "electric_bike", "name": "765e91517fd00f58b4fc67d36f8e08f1", "is_disabled": 0, "rental_uris": {"ios": "https://dc.lft.to/lastmile_qr_scan", "android": "https://dc.lft.to/lastmile_qr_scan"}, "is_reserved": 0}, {"lon": -77.02442366666666, "bike_id": "a490646cffece3b64fc9fcc58b58fb89", "lat": 38.90257166666667, "fusion_lon": 0.0, "fusion_lat": 0.0, "type": "electric_scooter", "name": "a490646cffece3b64fc9fcc58b58fb89", "is_disabled": 0, "rental_uris": {"ios": "https://dc.lft.to/lastmile_qr_scan", "android": "https://dc.lft.to/lastmile_qr_scan"}, "is_reserved": 0}, {"lon": -76.99914816666667, "bike_id": "4b38effe13cc2ba4542512cf6533b9a7", "lat": 38.8897455, "fusion_lon": 0.0, "fusion_lat": 0.0, "type": "electric_scooter", "name": "4b38effe13cc2ba4542512cf6533b9a7", "is_disabled": 0, "rental_uris": {"ios": "https://dc.lft.to/lastmile_qr_scan", "android": "https://dc.lft.to/lastmile_qr_scan"}, "is_reserved": 0}, {"lon": -77.029323, "bike_id": "b7b37619c1bc5c1c5b94e64409ef0972", "lat": 38.92080816666667, "fusion_lon": 0.0, "fusion_lat": 0.0, "type": "electric_scooter", "name": "b7b37619c1bc5c1c5b94e64409ef0972", "is_disabled": 0, "rental_uris": {"ios": "https://dc.lft.to/lastmile_qr_scan", "android": "https://dc.lft.to/lastmile_qr_scan"}, "is_reserved": 0}, {"lon": -77.0366175, "bike_id": "08352870f054f4cae052da955c9ac793", "lat": 38.93340366666666, "fusion_lon": 0.0, "fusion_lat": 0.0, "type": "electric_scooter", "name": "08352870f054f4cae052da955c9ac793", "is_disabled": 0, "rental_uris": {"ios": "https://dc.lft.to/lastmile_qr_scan", "android": "https://dc.lft.to/lastmile_qr_scan"}, "is_reserved": 0}, {"lon": -77.03322283333334, "bike_id": "2ad06ccb46724355ebe5c5ed2e9bf0b3", "lat": 38.92652483333333, "fusion_lon": 0.0, "fusion_lat": 0.0, "type": "electric_scooter", "name": "2ad06ccb46724355ebe5c5ed2e9bf0b3", "is_disabled": 0, "rental_uris": {"ios": "https://dc.lft.to/lastmile_qr_scan", "android": "https://dc.lft.to/lastmile_qr_scan"}, "is_reserved": 0}, {"lon": -77.03194033333334, "bike_id": "e63f30475f659b108c2305889f5fddb0", "lat": 38.90785183333333, "fusion_lon": 0.0, "fusion_lat": 0.0, "type": "electric_scooter", "name": "e63f30475f659b108c2305889f5fddb0", "is_disabled": 0, "rental_uris": {"ios": "https://dc.lft.to/lastmile_qr_scan", "android": "https://dc.lft.to/lastmile_qr_scan"}, "is_reserved": 0}, {"lon": -77.00070316666667, "bike_id": "f06d4d8bb7b212d8fe1225ea5d709392", "lat": 38.9013765, "fusion_lon": 0.0, "fusion_lat": 0.0, "type": "electric_scooter", "name": "f06d4d8bb7b212d8fe1225ea5d709392", "is_disabled": 0, "rental_uris": {"ios": "https://dc.lft.to/lastmile_qr_scan", "android": "https://dc.lft.to/lastmile_qr_scan"}, "is_reserved": 0}, {"lon": -77.032151, "bike_id": "69cbfac8b0e15f18954e766ae34e1cc5", "lat": 38.92003416666667, "fusion_lon": 0.0, "fusion_lat": 0.0, "type": "electric_scooter", "name": "69cbfac8b0e15f18954e766ae34e1cc5", "is_disabled": 0, "rental_uris": {"ios": "https://dc.lft.to/lastmile_qr_scan", "android": "https://dc.lft.to/lastmile_qr_scan"}, "is_reserved": 0}, {"lon": -77.00956483333333, "bike_id": "e68c9a40b7b4b23b36b7df48bda2bef9", "lat": 38.921353333333336, "fusion_lon": 0.0, "fusion_lat": 0.0, "type": "electric_scooter", "name": "e68c9a40b7b4b23b36b7df48bda2bef9", "is_disabled": 0, "rental_uris": {"ios": "https://dc.lft.to/lastmile_qr_scan", "android": "https://dc.lft.to/lastmile_qr_scan"}, "is_reserved": 0}, {"lon": -76.98246416666667, "bike_id": "dc406caacec33d682eaca845e6500768", "lat": 38.86457683333333, "fusion_lon": 0.0, "fusion_lat": 0.0, "type": "electric_scooter", "name": "dc406caacec33d682eaca845e6500768", "is_disabled": 0, "rental_uris": {"ios": "https://dc.lft.to/lastmile_qr_scan", "android": "https://dc.lft.to/lastmile_qr_scan"}, "is_reserved": 0}, {"lon": -77.021629, "bike_id": "8eda82ca2aaa69d9dac5dbec81e80d59", "lat": 38.897361, "fusion_lon": 0.0, "fusion_lat": 0.0, "type": "electric_scooter", "name": "8eda82ca2aaa69d9dac5dbec81e80d59", "is_disabled": 0, "rental_uris": {"ios": "https://dc.lft.to/lastmile_qr_scan", "android": "https://dc.lft.to/lastmile_qr_scan"}, "is_reserved": 0}, {"lon": -77.08200783333334, "bike_id": "782e11a5e5da0e903eecc5d294900505", "lat": 38.93509866666667, "fusion_lon": 0.0, "fusion_lat": 0.0, "type": "electric_scooter", "name": "782e11a5e5da0e903eecc5d294900505", "is_disabled": 0, "rental_uris": {"ios": "https://dc.lft.to/lastmile_qr_scan", "android": "https://dc.lft.to/lastmile_qr_scan"}, "is_reserved": 0}, {"lon": -77.0268115, "bike_id": "92637ae8c6f90db838bff37cc36e48e9", "lat": 38.900694, "fusion_lon": 0.0, "fusion_lat": 0.0, "type": "electric_scooter", "name": "92637ae8c6f90db838bff37cc36e48e9", "is_disabled": 0, "rental_uris": {"ios": "https://dc.lft.to/lastmile_qr_scan", "android": "https://dc.lft.to/lastmile_qr_scan"}, "is_reserved": 0}, {"lon": -76.91599233333334, "bike_id": "fe32320cb99f7eeb7ed8418400df056a", "lat": 38.87981283333333, "fusion_lon": 0.0, "fusion_lat": 0.0, "type": "electric_bike", "name": "fe32320cb99f7eeb7ed8418400df056a", "is_disabled": 0, "rental_uris": {"ios": "https://dc.lft.to/lastmile_qr_scan", "android": "https://dc.lft.to/lastmile_qr_scan"}, "is_reserved": 0}, {"lon": -76.9950565, "bike_id": "e19c6c91861297119204e3d91e0c1055", "lat": 38.883027166666665, "fusion_lon": 0.0, "fusion_lat": 0.0, "type": "electric_scooter", "name": "e19c6c91861297119204e3d91e0c1055", "is_disabled": 0, "rental_uris": {"ios": "https://dc.lft.to/lastmile_qr_scan", "android": "https://dc.lft.to/lastmile_qr_scan"}, "is_reserved": 0}, {"lon": -77.029641, "bike_id": "86efd75f6e6d8c2bf2d89b1e94cfdb72", "lat": 38.904841, "fusion_lon": 0.0, "fusion_lat": 0.0, "type": "electric_scooter", "name": "86efd75f6e6d8c2bf2d89b1e94cfdb72", "is_disabled": 0, "rental_uris": {"ios": "https://dc.lft.to/lastmile_qr_scan", "android": "https://dc.lft.to/lastmile_qr_scan"}, "is_reserved": 0}, {"lon": -77.01847133333334, "bike_id": "6e2037eb92840a9a6ca804611e209d85", "lat": 38.9039005, "fusion_lon": 0.0, "fusion_lat": 0.0, "type": "electric_scooter", "name": "6e2037eb92840a9a6ca804611e209d85", "is_disabled": 0, "rental_uris": {"ios": "https://dc.lft.to/lastmile_qr_scan", "android": "https://dc.lft.to/lastmile_qr_scan"}, "is_reserved": 0}, {"lon": -77.03284266666667, "bike_id": "8ef076fd9d8930b4347ea05ffa7fe79c", "lat": 38.93487316666667, "fusion_lon": 0.0, "fusion_lat": 0.0, "type": "electric_scooter", "name": "8ef076fd9d8930b4347ea05ffa7fe79c", "is_disabled": 0, "rental_uris": {"ios": "https://dc.lft.to/lastmile_qr_scan", "android": "https://dc.lft.to/lastmile_qr_scan"}, "is_reserved": 0}, {"lon": -77.05861733333333, "bike_id": "bffa89eabeefb98886ce8cad24485b69", "lat": 38.93604083333334, "fusion_lon": 0.0, "fusion_lat": 0.0, "type": "electric_scooter", "name": "bffa89eabeefb98886ce8cad24485b69", "is_disabled": 0, "rental_uris": {"ios": "https://dc.lft.to/lastmile_qr_scan", "android": "https://dc.lft.to/lastmile_qr_scan"}, "is_reserved": 0}, {"lon": -76.9904875, "bike_id": "8e5f6760565e71f1d61421f0b9942025", "lat": 38.884158666666664, "fusion_lon": 0.0, "fusion_lat": 0.0, "type": "electric_scooter", "name": "8e5f6760565e71f1d61421f0b9942025", "is_disabled": 0, "rental_uris": {"ios": "https://dc.lft.to/lastmile_qr_scan", "android": "https://dc.lft.to/lastmile_qr_scan"}, "is_reserved": 0}, {"lon": -76.94883383333334, "bike_id": "ddbaf0a05f8cb79b2859fe946354d963", "lat": 38.89506216666667, "fusion_lon": 0.0, "fusion_lat": 0.0, "type": "electric_scooter", "name": "ddbaf0a05f8cb79b2859fe946354d963", "is_disabled": 0, "rental_uris": {"ios": "https://dc.lft.to/lastmile_qr_scan", "android": "https://dc.lft.to/lastmile_qr_scan"}, "is_reserved": 0}, {"lon": -76.97331483333333, "bike_id": "277d6e291ecbb5f708a1e9c6bd0c71a4", "lat": 38.90481116666667, "fusion_lon": 0.0, "fusion_lat": 0.0, "type": "electric_bike", "name": "277d6e291ecbb5f708a1e9c6bd0c71a4", "is_disabled": 0, "rental_uris": {"ios": "https://dc.lft.to/lastmile_qr_scan", "android": "https://dc.lft.to/lastmile_qr_scan"}, "is_reserved": 0}, {"lon": -77.02523283333333, "bike_id": "33a06793f16dec7530c96eb5f479d920", "lat": 38.9168955, "fusion_lon": 0.0, "fusion_lat": 0.0, "type": "electric_scooter", "name": "33a06793f16dec7530c96eb5f479d920", "is_disabled": 0, "rental_uris": {"ios": "https://dc.lft.to/lastmile_qr_scan", "android": "https://dc.lft.to/lastmile_qr_scan"}, "is_reserved": 0}, {"lon": -77.02405383333334, "bike_id": "fb13720233cc3d67b29035119c85013f", "lat": 38.89823766666667, "fusion_lon": 0.0, "fusion_lat": 0.0, "type": "electric_scooter", "name": "fb13720233cc3d67b29035119c85013f", "is_disabled": 0, "rental_uris": {"ios": "https://dc.lft.to/lastmile_qr_scan", "android": "https://dc.lft.to/lastmile_qr_scan"}, "is_reserved": 0}, {"lon": -76.94414383333333, "bike_id": "650e6816a8e1673f9a86c4a69a64f399", "lat": 38.886159166666665, "fusion_lon": 0.0, "fusion_lat": 0.0, "type": "electric_scooter", "name": "650e6816a8e1673f9a86c4a69a64f399", "is_disabled": 0, "rental_uris": {"ios": "https://dc.lft.to/lastmile_qr_scan", "android": "https://dc.lft.to/lastmile_qr_scan"}, "is_reserved": 0}, {"lon": -76.984918, "bike_id": "f0f1012c66989a4af35295fda9fc9683", "lat": 38.878399, "fusion_lon": 0.0, "fusion_lat": 0.0, "type": "electric_scooter", "name": "f0f1012c66989a4af35295fda9fc9683", "is_disabled": 0, "rental_uris": {"ios": "https://dc.lft.to/lastmile_qr_scan", "android": "https://dc.lft.to/lastmile_qr_scan"}, "is_reserved": 0}, {"lon": -77.06009016666667, "bike_id": "26cd19dafa2a44ec996962bea87876b5", "lat": 38.90117633333333, "fusion_lon": 0.0, "fusion_lat": 0.0, "type": "electric_scooter", "name": "26cd19dafa2a44ec996962bea87876b5", "is_disabled": 0, "rental_uris": {"ios": "https://dc.lft.to/lastmile_qr_scan", "android": "https://dc.lft.to/lastmile_qr_scan"}, "is_reserved": 0}, {"lon": -76.9652765, "bike_id": "f9d706579303da24398a74f3fe76c711", "lat": 38.876302333333335, "fusion_lon": 0.0, "fusion_lat": 0.0, "type": "electric_scooter", "name": "f9d706579303da24398a74f3fe76c711", "is_disabled": 0, "rental_uris": {"ios": "https://dc.lft.to/lastmile_qr_scan", "android": "https://dc.lft.to/lastmile_qr_scan"}, "is_reserved": 0}, {"lon": -77.03261066666667, "bike_id": "28c1aae685a9789e8078747bdf83dc00", "lat": 38.93772666666667, "fusion_lon": 0.0, "fusion_lat": 0.0, "type": "electric_scooter", "name": "28c1aae685a9789e8078747bdf83dc00", "is_disabled": 0, "rental_uris": {"ios": "https://dc.lft.to/lastmile_qr_scan", "android": "https://dc.lft.to/lastmile_qr_scan"}, "is_reserved": 0}, {"lon": -77.04650583333333, "bike_id": "a2559524a455e5abb17ce2e1322b0a5c", "lat": 38.9095845, "fusion_lon": 0.0, "fusion_lat": 0.0, "type": "electric_scooter", "name": "a2559524a455e5abb17ce2e1322b0a5c", "is_disabled": 0, "rental_uris": {"ios": "https://dc.lft.to/lastmile_qr_scan", "android": "https://dc.lft.to/lastmile_qr_scan"}, "is_reserved": 0}, {"lon": -77.044881, "bike_id": "5529e59b3f88ba1e6de73337b3c7ad6a", "lat": 38.913571833333336, "fusion_lon": 0.0, "fusion_lat": 0.0, "type": "electric_scooter", "name": "5529e59b3f88ba1e6de73337b3c7ad6a", "is_disabled": 0, "rental_uris": {"ios": "https://dc.lft.to/lastmile_qr_scan", "android": "https://dc.lft.to/lastmile_qr_scan"}, "is_reserved": 0}, {"lon": -77.05014733333333, "bike_id": "5a72dbd101e559f4f2e05b06fc038970", "lat": 38.91573916666667, "fusion_lon": 0.0, "fusion_lat": 0.0, "type": "electric_scooter", "name": "5a72dbd101e559f4f2e05b06fc038970", "is_disabled": 0, "rental_uris": {"ios": "https://dc.lft.to/lastmile_qr_scan", "android": "https://dc.lft.to/lastmile_qr_scan"}, "is_reserved": 0}, {"lon": -77.0408595, "bike_id": "fa80821890d102c65627052c75410da3", "lat": 38.9170145, "fusion_lon": 0.0, "fusion_lat": 0.0, "type": "electric_scooter", "name": "fa80821890d102c65627052c75410da3", "is_disabled": 0, "rental_uris": {"ios": "https://dc.lft.to/lastmile_qr_scan", "android": "https://dc.lft.to/lastmile_qr_scan"}, "is_reserved": 0}, {"lon": -77.02239716666666, "bike_id": "bec6282b1ba9db7fc4faf6c4e1a0a11a", "lat": 38.908656666666666, "fusion_lon": 0.0, "fusion_lat": 0.0, "type": "electric_scooter", "name": "bec6282b1ba9db7fc4faf6c4e1a0a11a", "is_disabled": 0, "rental_uris": {"ios": "https://dc.lft.to/lastmile_qr_scan", "android": "https://dc.lft.to/lastmile_qr_scan"}, "is_reserved": 0}, {"lon": -77.031723, "bike_id": "48461af11254db91120aa2f11708c370", "lat": 38.91305916666666, "fusion_lon": 0.0, "fusion_lat": 0.0, "type": "electric_scooter", "name": "48461af11254db91120aa2f11708c370", "is_disabled": 0, "rental_uris": {"ios": "https://dc.lft.to/lastmile_qr_scan", "android": "https://dc.lft.to/lastmile_qr_scan"}, "is_reserved": 0}, {"lon": -77.02680916666667, "bike_id": "6444d4ff86403f0ec29ebd643ee296df", "lat": 38.90669666666667, "fusion_lon": 0.0, "fusion_lat": 0.0, "type": "electric_scooter", "name": "6444d4ff86403f0ec29ebd643ee296df", "is_disabled": 0, "rental_uris": {"ios": "https://dc.lft.to/lastmile_qr_scan", "android": "https://dc.lft.to/lastmile_qr_scan"}, "is_reserved": 0}, {"lon": -77.02009433333333, "bike_id": "be4a7db20ca87b5979528ec60d20001d", "lat": 38.924182, "fusion_lon": 0.0, "fusion_lat": 0.0, "type": "electric_scooter", "name": "be4a7db20ca87b5979528ec60d20001d", "is_disabled": 0, "rental_uris": {"ios": "https://dc.lft.to/lastmile_qr_scan", "android": "https://dc.lft.to/lastmile_qr_scan"}, "is_reserved": 0}, {"lon": -77.34407466666667, "bike_id": "82421329773654dfcef1b9e58a145a6f", "lat": 38.945937, "fusion_lon": 0.0, "fusion_lat": 0.0, "type": "electric_bike", "name": "82421329773654dfcef1b9e58a145a6f", "is_disabled": 0, "rental_uris": {"ios": "https://dc.lft.to/lastmile_qr_scan", "android": "https://dc.lft.to/lastmile_qr_scan"}, "is_reserved": 0}, {"lon": -76.99777833333333, "bike_id": "88302587193da11de734d2d4d83a0e3e", "lat": 38.844294, "fusion_lon": 0.0, "fusion_lat": 0.0, "type": "electric_scooter", "name": "88302587193da11de734d2d4d83a0e3e", "is_disabled": 0, "rental_uris": {"ios": "https://dc.lft.to/lastmile_qr_scan", "android": "https://dc.lft.to/lastmile_qr_scan"}, "is_reserved": 0}, {"lon": -76.94721933333334, "bike_id": "816a1cc4c15e274687759d390ddd4880", "lat": 38.897383833333336, "fusion_lon": 0.0, "fusion_lat": 0.0, "type": "electric_scooter", "name": "816a1cc4c15e274687759d390ddd4880", "is_disabled": 0, "rental_uris": {"ios": "https://dc.lft.to/lastmile_qr_scan", "android": "https://dc.lft.to/lastmile_qr_scan"}, "is_reserved": 0}, {"lon": -77.04532416666666, "bike_id": "d9bc6cd2f41cc809dd04a74cf06f0bcc", "lat": 38.91819783333333, "fusion_lon": 0.0, "fusion_lat": 0.0, "type": "electric_scooter", "name": "d9bc6cd2f41cc809dd04a74cf06f0bcc", "is_disabled": 0, "rental_uris": {"ios": "https://dc.lft.to/lastmile_qr_scan", "android": "https://dc.lft.to/lastmile_qr_scan"}, "is_reserved": 0}, {"lon": -77.026547, "bike_id": "ed1b1f8a7ec03f0eddd852756f5100dd", "lat": 38.9261245, "fusion_lon": 0.0, "fusion_lat": 0.0, "type": "electric_scooter", "name": "ed1b1f8a7ec03f0eddd852756f5100dd", "is_disabled": 0, "rental_uris": {"ios": "https://dc.lft.to/lastmile_qr_scan", "android": "https://dc.lft.to/lastmile_qr_scan"}, "is_reserved": 0}, {"lon": -77.03284483333333, "bike_id": "9349331dba28e62f503ae849e0e497fa", "lat": 38.93975833333333, "fusion_lon": 0.0, "fusion_lat": 0.0, "type": "electric_scooter", "name": "9349331dba28e62f503ae849e0e497fa", "is_disabled": 0, "rental_uris": {"ios": "https://dc.lft.to/lastmile_qr_scan", "android": "https://dc.lft.to/lastmile_qr_scan"}, "is_reserved": 0}, {"lon": -77.012033, "bike_id": "8bd31ac86b8c88ad918eceee3eb31989", "lat": 38.88550866666667, "fusion_lon": 0.0, "fusion_lat": 0.0, "type": "electric_scooter", "name": "8bd31ac86b8c88ad918eceee3eb31989", "is_disabled": 0, "rental_uris": {"ios": "https://dc.lft.to/lastmile_qr_scan", "android": "https://dc.lft.to/lastmile_qr_scan"}, "is_reserved": 0}, {"lon": -76.977026, "bike_id": "638ce17b4b214596e847a0e49961ac86", "lat": 38.949141166666664, "fusion_lon": 0.0, "fusion_lat": 0.0, "type": "electric_bike", "name": "638ce17b4b214596e847a0e49961ac86", "is_disabled": 0, "rental_uris": {"ios": "https://dc.lft.to/lastmile_qr_scan", "android": "https://dc.lft.to/lastmile_qr_scan"}, "is_reserved": 0}, {"lon": -77.05301366666667, "bike_id": "40756c3bd87ad36184a14d63311a2c29", "lat": 38.89888216666667, "fusion_lon": 0.0, "fusion_lat": 0.0, "type": "electric_scooter", "name": "40756c3bd87ad36184a14d63311a2c29", "is_disabled": 0, "rental_uris": {"ios": "https://dc.lft.to/lastmile_qr_scan", "android": "https://dc.lft.to/lastmile_qr_scan"}, "is_reserved": 0}, {"lon": -76.95183833333333, "bike_id": "bf54eee9c3fcab57a4d56dcdfc8817d8", "lat": 38.90737266666667, "fusion_lon": 0.0, "fusion_lat": 0.0, "type": "electric_scooter", "name": "bf54eee9c3fcab57a4d56dcdfc8817d8", "is_disabled": 0, "rental_uris": {"ios": "https://dc.lft.to/lastmile_qr_scan", "android": "https://dc.lft.to/lastmile_qr_scan"}, "is_reserved": 0}, {"lon": -77.00457266666666, "bike_id": "b3af56991294db18b20fd36da4c419f3", "lat": 38.9143805, "fusion_lon": 0.0, "fusion_lat": 0.0, "type": "electric_scooter", "name": "b3af56991294db18b20fd36da4c419f3", "is_disabled": 0, "rental_uris": {"ios": "https://dc.lft.to/lastmile_qr_scan", "android": "https://dc.lft.to/lastmile_qr_scan"}, "is_reserved": 0}, {"lon": -77.04246466666666, "bike_id": "6239b2a45590ddf408fee8d16ef0e5d0", "lat": 38.92242916666667, "fusion_lon": 0.0, "fusion_lat": 0.0, "type": "electric_scooter", "name": "6239b2a45590ddf408fee8d16ef0e5d0", "is_disabled": 0, "rental_uris": {"ios": "https://dc.lft.to/lastmile_qr_scan", "android": "https://dc.lft.to/lastmile_qr_scan"}, "is_reserved": 0}, {"lon": -77.06222283333334, "bike_id": "9121143a6e5c1dbe95d0517172920143", "lat": 38.862984166666664, "fusion_lon": 0.0, "fusion_lat": 0.0, "type": "electric_bike", "name": "9121143a6e5c1dbe95d0517172920143", "is_disabled": 0, "rental_uris": {"ios": "https://dc.lft.to/lastmile_qr_scan", "android": "https://dc.lft.to/lastmile_qr_scan"}, "is_reserved": 0}, {"lon": -76.98713916666667, "bike_id": "4d61050b3bace4ca885ff168912bcf0a", "lat": 38.86627133333333, "fusion_lon": 0.0, "fusion_lat": 0.0, "type": "electric_scooter", "name": "4d61050b3bace4ca885ff168912bcf0a", "is_disabled": 0, "rental_uris": {"ios": "https://dc.lft.to/lastmile_qr_scan", "android": "https://dc.lft.to/lastmile_qr_scan"}, "is_reserved": 0}, {"lon": -76.98196166666666, "bike_id": "c60e9429fdca9ba5d1cab520db35ba72", "lat": 38.899421833333335, "fusion_lon": 0.0, "fusion_lat": 0.0, "type": "electric_scooter", "name": "c60e9429fdca9ba5d1cab520db35ba72", "is_disabled": 0, "rental_uris": {"ios": "https://dc.lft.to/lastmile_qr_scan", "android": "https://dc.lft.to/lastmile_qr_scan"}, "is_reserved": 0}, {"lon": -76.98262533333333, "bike_id": "194c48a1081a3285f3c636f5506f8ff1", "lat": 38.90857616666667, "fusion_lon": 0.0, "fusion_lat": 0.0, "type": "electric_scooter", "name": "194c48a1081a3285f3c636f5506f8ff1", "is_disabled": 0, "rental_uris": {"ios": "https://dc.lft.to/lastmile_qr_scan", "android": "https://dc.lft.to/lastmile_qr_scan"}, "is_reserved": 0}, {"lon": -77.03858133333334, "bike_id": "0cbc38e3dee18088af081d50aa056e14", "lat": 38.911724, "fusion_lon": 0.0, "fusion_lat": 0.0, "type": "electric_scooter", "name": "0cbc38e3dee18088af081d50aa056e14", "is_disabled": 0, "rental_uris": {"ios": "https://dc.lft.to/lastmile_qr_scan", "android": "https://dc.lft.to/lastmile_qr_scan"}, "is_reserved": 0}, {"lon": -77.02696216666666, "bike_id": "18765e6f18a78dd7db5fd2cab74efb7e", "lat": 38.911717, "fusion_lon": 0.0, "fusion_lat": 0.0, "type": "electric_scooter", "name": "18765e6f18a78dd7db5fd2cab74efb7e", "is_disabled": 0, "rental_uris": {"ios": "https://dc.lft.to/lastmile_qr_scan", "android": "https://dc.lft.to/lastmile_qr_scan"}, "is_reserved": 0}, {"lon": -77.02413216666666, "bike_id": "3dcdf0c58c8c11265813190bb34e27d0", "lat": 38.87972383333334, "fusion_lon": 0.0, "fusion_lat": 0.0, "type": "electric_scooter", "name": "3dcdf0c58c8c11265813190bb34e27d0", "is_disabled": 0, "rental_uris": {"ios": "https://dc.lft.to/lastmile_qr_scan", "android": "https://dc.lft.to/lastmile_qr_scan"}, "is_reserved": 0}, {"lon": -77.0196445, "bike_id": "8afe0049a6f78ba3c299cdf9694b8c34", "lat": 38.92184733333333, "fusion_lon": 0.0, "fusion_lat": 0.0, "type": "electric_scooter", "name": "8afe0049a6f78ba3c299cdf9694b8c34", "is_disabled": 0, "rental_uris": {"ios": "https://dc.lft.to/lastmile_qr_scan", "android": "https://dc.lft.to/lastmile_qr_scan"}, "is_reserved": 0}, {"lon": -77.05270933333334, "bike_id": "f3ee394c4ee37711009744183339d926", "lat": 38.8996835, "fusion_lon": 0.0, "fusion_lat": 0.0, "type": "electric_scooter", "name": "f3ee394c4ee37711009744183339d926", "is_disabled": 0, "rental_uris": {"ios": "https://dc.lft.to/lastmile_qr_scan", "android": "https://dc.lft.to/lastmile_qr_scan"}, "is_reserved": 0}, {"lon": -76.98542033333334, "bike_id": "538e565a4a3c3fd53c304e8213bb0a0d", "lat": 38.8965745, "fusion_lon": 0.0, "fusion_lat": 0.0, "type": "electric_scooter", "name": "538e565a4a3c3fd53c304e8213bb0a0d", "is_disabled": 0, "rental_uris": {"ios": "https://dc.lft.to/lastmile_qr_scan", "android": "https://dc.lft.to/lastmile_qr_scan"}, "is_reserved": 0}, {"lon": -77.0263, "bike_id": "4044fee10eebca1346c2076ab27b9109", "lat": 38.91700566666667, "fusion_lon": 0.0, "fusion_lat": 0.0, "type": "electric_scooter", "name": "4044fee10eebca1346c2076ab27b9109", "is_disabled": 0, "rental_uris": {"ios": "https://dc.lft.to/lastmile_qr_scan", "android": "https://dc.lft.to/lastmile_qr_scan"}, "is_reserved": 0}, {"lon": -77.03302633333334, "bike_id": "1d690bc189b42bdce93cd4f152fbc9fd", "lat": 38.92550083333333, "fusion_lon": 0.0, "fusion_lat": 0.0, "type": "electric_scooter", "name": "1d690bc189b42bdce93cd4f152fbc9fd", "is_disabled": 0, "rental_uris": {"ios": "https://dc.lft.to/lastmile_qr_scan", "android": "https://dc.lft.to/lastmile_qr_scan"}, "is_reserved": 0}, {"lon": -77.041605, "bike_id": "938108a7c09f3bed8776941bcbe1e415", "lat": 38.9124845, "fusion_lon": 0.0, "fusion_lat": 0.0, "type": "electric_scooter", "name": "938108a7c09f3bed8776941bcbe1e415", "is_disabled": 0, "rental_uris": {"ios": "https://dc.lft.to/lastmile_qr_scan", "android": "https://dc.lft.to/lastmile_qr_scan"}, "is_reserved": 0}, {"lon": -77.04771433333333, "bike_id": "c3bfa7a8ff2beab2bd0615e8ad4904f6", "lat": 38.921442166666665, "fusion_lon": 0.0, "fusion_lat": 0.0, "type": "electric_scooter", "name": "c3bfa7a8ff2beab2bd0615e8ad4904f6", "is_disabled": 0, "rental_uris": {"ios": "https://dc.lft.to/lastmile_qr_scan", "android": "https://dc.lft.to/lastmile_qr_scan"}, "is_reserved": 0}, {"lon": -77.01935566666667, "bike_id": "c4e1c79f87175b103dd2e352c6dfd5f8", "lat": 38.936854333333336, "fusion_lon": 0.0, "fusion_lat": 0.0, "type": "electric_scooter", "name": "c4e1c79f87175b103dd2e352c6dfd5f8", "is_disabled": 0, "rental_uris": {"ios": "https://dc.lft.to/lastmile_qr_scan", "android": "https://dc.lft.to/lastmile_qr_scan"}, "is_reserved": 0}, {"lon": -77.03811683333333, "bike_id": "653bae4cba26f42a3f403a34ef49e287", "lat": 38.92186216666666, "fusion_lon": 0.0, "fusion_lat": 0.0, "type": "electric_bike", "name": "653bae4cba26f42a3f403a34ef49e287", "is_disabled": 0, "rental_uris": {"ios": "https://dc.lft.to/lastmile_qr_scan", "android": "https://dc.lft.to/lastmile_qr_scan"}, "is_reserved": 0}, {"lon": -77.0321675, "bike_id": "334f80fb0a421da215482a7b6571660c", "lat": 38.9141065, "fusion_lon": 0.0, "fusion_lat": 0.0, "type": "electric_scooter", "name": "334f80fb0a421da215482a7b6571660c", "is_disabled": 0, "rental_uris": {"ios": "https://dc.lft.to/lastmile_qr_scan", "android": "https://dc.lft.to/lastmile_qr_scan"}, "is_reserved": 0}, {"lon": -76.99529966666667, "bike_id": "11c4259ea30190af674dd6cbc267223a", "lat": 38.88374116666667, "fusion_lon": 0.0, "fusion_lat": 0.0, "type": "electric_scooter", "name": "11c4259ea30190af674dd6cbc267223a", "is_disabled": 0, "rental_uris": {"ios": "https://dc.lft.to/lastmile_qr_scan", "android": "https://dc.lft.to/lastmile_qr_scan"}, "is_reserved": 0}, {"lon": -77.05053216666667, "bike_id": "b2ab4d1c90acdce191ad8e021cd80810", "lat": 38.923717, "fusion_lon": 0.0, "fusion_lat": 0.0, "type": "electric_scooter", "name": "b2ab4d1c90acdce191ad8e021cd80810", "is_disabled": 0, "rental_uris": {"ios": "https://dc.lft.to/lastmile_qr_scan", "android": "https://dc.lft.to/lastmile_qr_scan"}, "is_reserved": 0}, {"lon": -77.0443425, "bike_id": "1139f1fec9c1bc08733cc9b4c8fae668", "lat": 38.905831, "fusion_lon": 0.0, "fusion_lat": 0.0, "type": "electric_bike", "name": "1139f1fec9c1bc08733cc9b4c8fae668", "is_disabled": 0, "rental_uris": {"ios": "https://dc.lft.to/lastmile_qr_scan", "android": "https://dc.lft.to/lastmile_qr_scan"}, "is_reserved": 0}, {"lon": -76.93123016666667, "bike_id": "6b94d6432f0dd76f5d0cdc4d5fdee6cf", "lat": 38.90140783333333, "fusion_lon": 0.0, "fusion_lat": 0.0, "type": "electric_scooter", "name": "6b94d6432f0dd76f5d0cdc4d5fdee6cf", "is_disabled": 0, "rental_uris": {"ios": "https://dc.lft.to/lastmile_qr_scan", "android": "https://dc.lft.to/lastmile_qr_scan"}, "is_reserved": 0}, {"lon": -77.0251475, "bike_id": "a42dd59acd3de1fb7c8dc85ac490c249", "lat": 38.916916666666665, "fusion_lon": 0.0, "fusion_lat": 0.0, "type": "electric_scooter", "name": "a42dd59acd3de1fb7c8dc85ac490c249", "is_disabled": 0, "rental_uris": {"ios": "https://dc.lft.to/lastmile_qr_scan", "android": "https://dc.lft.to/lastmile_qr_scan"}, "is_reserved": 0}, {"lon": -77.03859516666667, "bike_id": "93f284a221b8b8da7215cabe4cbee9fc", "lat": 38.9177885, "fusion_lon": 0.0, "fusion_lat": 0.0, "type": "electric_scooter", "name": "93f284a221b8b8da7215cabe4cbee9fc", "is_disabled": 0, "rental_uris": {"ios": "https://dc.lft.to/lastmile_qr_scan", "android": "https://dc.lft.to/lastmile_qr_scan"}, "is_reserved": 0}, {"lon": -76.99489283333334, "bike_id": "22534e99be541a8642bd99c973679356", "lat": 38.862449, "fusion_lon": 0.0, "fusion_lat": 0.0, "type": "electric_scooter", "name": "22534e99be541a8642bd99c973679356", "is_disabled": 0, "rental_uris": {"ios": "https://dc.lft.to/lastmile_qr_scan", "android": "https://dc.lft.to/lastmile_qr_scan"}, "is_reserved": 0}, {"lon": -77.04685433333333, "bike_id": "61cb0ce5cc8d161890b93c4a7dd7e4e9", "lat": 38.89737016666667, "fusion_lon": 0.0, "fusion_lat": 0.0, "type": "electric_scooter", "name": "61cb0ce5cc8d161890b93c4a7dd7e4e9", "is_disabled": 0, "rental_uris": {"ios": "https://dc.lft.to/lastmile_qr_scan", "android": "https://dc.lft.to/lastmile_qr_scan"}, "is_reserved": 0}, {"lon": -77.072716, "bike_id": "2e51a8b2871d711c8b855d83f1c2d7c1", "lat": 38.914254, "fusion_lon": 0.0, "fusion_lat": 0.0, "type": "electric_scooter", "name": "2e51a8b2871d711c8b855d83f1c2d7c1", "is_disabled": 0, "rental_uris": {"ios": "https://dc.lft.to/lastmile_qr_scan", "android": "https://dc.lft.to/lastmile_qr_scan"}, "is_reserved": 0}, {"lon": -77.0252115, "bike_id": "f33ee8912b41bf924255ae88652bcc78", "lat": 38.928957, "fusion_lon": 0.0, "fusion_lat": 0.0, "type": "electric_scooter", "name": "f33ee8912b41bf924255ae88652bcc78", "is_disabled": 0, "rental_uris": {"ios": "https://dc.lft.to/lastmile_qr_scan", "android": "https://dc.lft.to/lastmile_qr_scan"}, "is_reserved": 0}, {"lon": -76.98507216666667, "bike_id": "02df9a709e776bafc12d6c7018865a3a", "lat": 38.8808245, "fusion_lon": 0.0, "fusion_lat": 0.0, "type": "electric_scooter", "name": "02df9a709e776bafc12d6c7018865a3a", "is_disabled": 0, "rental_uris": {"ios": "https://dc.lft.to/lastmile_qr_scan", "android": "https://dc.lft.to/lastmile_qr_scan"}, "is_reserved": 0}, {"lon": -77.0375785, "bike_id": "140435ef0db590252bcc5b12f2864368", "lat": 38.907818166666665, "fusion_lon": 0.0, "fusion_lat": 0.0, "type": "electric_scooter", "name": "140435ef0db590252bcc5b12f2864368", "is_disabled": 0, "rental_uris": {"ios": "https://dc.lft.to/lastmile_qr_scan", "android": "https://dc.lft.to/lastmile_qr_scan"}, "is_reserved": 0}, {"lon": -77.02874316666667, "bike_id": "9a2f4dc32d3a8641cdc5db8a64f00aa3", "lat": 38.91694316666667, "fusion_lon": 0.0, "fusion_lat": 0.0, "type": "electric_scooter", "name": "9a2f4dc32d3a8641cdc5db8a64f00aa3", "is_disabled": 0, "rental_uris": {"ios": "https://dc.lft.to/lastmile_qr_scan", "android": "https://dc.lft.to/lastmile_qr_scan"}, "is_reserved": 0}, {"lon": -77.028426, "bike_id": "35e9b8c17051e87417616e47e7018550", "lat": 38.934179666666665, "fusion_lon": 0.0, "fusion_lat": 0.0, "type": "electric_scooter", "name": "35e9b8c17051e87417616e47e7018550", "is_disabled": 0, "rental_uris": {"ios": "https://dc.lft.to/lastmile_qr_scan", "android": "https://dc.lft.to/lastmile_qr_scan"}, "is_reserved": 0}, {"lon": -77.02969433333334, "bike_id": "240d354eab5629ff9259f68bbac98aaa", "lat": 38.914501, "fusion_lon": 0.0, "fusion_lat": 0.0, "type": "electric_scooter", "name": "240d354eab5629ff9259f68bbac98aaa", "is_disabled": 0, "rental_uris": {"ios": "https://dc.lft.to/lastmile_qr_scan", "android": "https://dc.lft.to/lastmile_qr_scan"}, "is_reserved": 0}, {"lon": -77.0134215, "bike_id": "681560c2620bd5365a705701a2967d1a", "lat": 38.87813, "fusion_lon": 0.0, "fusion_lat": 0.0, "type": "electric_scooter", "name": "681560c2620bd5365a705701a2967d1a", "is_disabled": 0, "rental_uris": {"ios": "https://dc.lft.to/lastmile_qr_scan", "android": "https://dc.lft.to/lastmile_qr_scan"}, "is_reserved": 0}, {"lon": -77.02286616666666, "bike_id": "cec56af6fbde5df9c8951c9a2268e33a", "lat": 38.90787316666667, "fusion_lon": 0.0, "fusion_lat": 0.0, "type": "electric_scooter", "name": "cec56af6fbde5df9c8951c9a2268e33a", "is_disabled": 0, "rental_uris": {"ios": "https://dc.lft.to/lastmile_qr_scan", "android": "https://dc.lft.to/lastmile_qr_scan"}, "is_reserved": 0}, {"lon": -77.0209175, "bike_id": "4554d0ab0c109bd034e5baff82f4983d", "lat": 38.91472666666667, "fusion_lon": 0.0, "fusion_lat": 0.0, "type": "electric_scooter", "name": "4554d0ab0c109bd034e5baff82f4983d", "is_disabled": 0, "rental_uris": {"ios": "https://dc.lft.to/lastmile_qr_scan", "android": "https://dc.lft.to/lastmile_qr_scan"}, "is_reserved": 0}, {"lon": -76.99774333333333, "bike_id": "a07f5ec1005ca2cd5fb70a17ddd81be9", "lat": 38.96150516666667, "fusion_lon": 0.0, "fusion_lat": 0.0, "type": "electric_bike", "name": "a07f5ec1005ca2cd5fb70a17ddd81be9", "is_disabled": 0, "rental_uris": {"ios": "https://dc.lft.to/lastmile_qr_scan", "android": "https://dc.lft.to/lastmile_qr_scan"}, "is_reserved": 0}, {"lon": -77.00196716666666, "bike_id": "c7ab8fb7e74e6043ce37004e211fe271", "lat": 38.902403, "fusion_lon": 0.0, "fusion_lat": 0.0, "type": "electric_scooter", "name": "c7ab8fb7e74e6043ce37004e211fe271", "is_disabled": 0, "rental_uris": {"ios": "https://dc.lft.to/lastmile_qr_scan", "android": "https://dc.lft.to/lastmile_qr_scan"}, "is_reserved": 0}, {"lon": -77.02087083333333, "bike_id": "1b088619f9c7d52fbb42ee7b1c3c16ef", "lat": 38.881822, "fusion_lon": 0.0, "fusion_lat": 0.0, "type": "electric_scooter", "name": "1b088619f9c7d52fbb42ee7b1c3c16ef", "is_disabled": 0, "rental_uris": {"ios": "https://dc.lft.to/lastmile_qr_scan", "android": "https://dc.lft.to/lastmile_qr_scan"}, "is_reserved": 0}, {"lon": -77.03630033333333, "bike_id": "8e52ca594d3c46702e5d2c9ac2c71f4b", "lat": 38.94496216666667, "fusion_lon": 0.0, "fusion_lat": 0.0, "type": "electric_scooter", "name": "8e52ca594d3c46702e5d2c9ac2c71f4b", "is_disabled": 0, "rental_uris": {"ios": "https://dc.lft.to/lastmile_qr_scan", "android": "https://dc.lft.to/lastmile_qr_scan"}, "is_reserved": 0}, {"lon": -76.96525, "bike_id": "2bd8a64ae56b70350173cce6000dfbe7", "lat": 38.87631483333333, "fusion_lon": 0.0, "fusion_lat": 0.0, "type": "electric_scooter", "name": "2bd8a64ae56b70350173cce6000dfbe7", "is_disabled": 0, "rental_uris": {"ios": "https://dc.lft.to/lastmile_qr_scan", "android": "https://dc.lft.to/lastmile_qr_scan"}, "is_reserved": 0}, {"lon": -77.02106083333334, "bike_id": "7f43dfdfc98615d2a2b743ac198d9393", "lat": 38.905647, "fusion_lon": 0.0, "fusion_lat": 0.0, "type": "electric_scooter", "name": "7f43dfdfc98615d2a2b743ac198d9393", "is_disabled": 0, "rental_uris": {"ios": "https://dc.lft.to/lastmile_qr_scan", "android": "https://dc.lft.to/lastmile_qr_scan"}, "is_reserved": 0}, {"lon": -77.04269283333333, "bike_id": "eafccead952ab187000427e661d0b3a6", "lat": 38.92299883333333, "fusion_lon": 0.0, "fusion_lat": 0.0, "type": "electric_scooter", "name": "eafccead952ab187000427e661d0b3a6", "is_disabled": 0, "rental_uris": {"ios": "https://dc.lft.to/lastmile_qr_scan", "android": "https://dc.lft.to/lastmile_qr_scan"}, "is_reserved": 0}, {"lon": -77.054656, "bike_id": "ed5f1d1baf4bb76f86a40f8e34b0e48b", "lat": 38.925748166666665, "fusion_lon": 0.0, "fusion_lat": 0.0, "type": "electric_scooter", "name": "ed5f1d1baf4bb76f86a40f8e34b0e48b", "is_disabled": 0, "rental_uris": {"ios": "https://dc.lft.to/lastmile_qr_scan", "android": "https://dc.lft.to/lastmile_qr_scan"}, "is_reserved": 0}, {"lon": -77.02320633333333, "bike_id": "dd1674ee176a7f8119cc36eee712ad99", "lat": 38.9240665, "fusion_lon": 0.0, "fusion_lat": 0.0, "type": "electric_scooter", "name": "dd1674ee176a7f8119cc36eee712ad99", "is_disabled": 0, "rental_uris": {"ios": "https://dc.lft.to/lastmile_qr_scan", "android": "https://dc.lft.to/lastmile_qr_scan"}, "is_reserved": 0}, {"lon": -77.04170183333333, "bike_id": "929474475addfc86f6a062d68180edf3", "lat": 38.91977833333333, "fusion_lon": 0.0, "fusion_lat": 0.0, "type": "electric_scooter", "name": "929474475addfc86f6a062d68180edf3", "is_disabled": 0, "rental_uris": {"ios": "https://dc.lft.to/lastmile_qr_scan", "android": "https://dc.lft.to/lastmile_qr_scan"}, "is_reserved": 0}, {"lon": -77.02966183333334, "bike_id": "77c60b8c16702a6e467dc4547ca2a454", "lat": 38.9166195, "fusion_lon": 0.0, "fusion_lat": 0.0, "type": "electric_scooter", "name": "77c60b8c16702a6e467dc4547ca2a454", "is_disabled": 0, "rental_uris": {"ios": "https://dc.lft.to/lastmile_qr_scan", "android": "https://dc.lft.to/lastmile_qr_scan"}, "is_reserved": 0}, {"lon": -77.03679283333334, "bike_id": "99bf4af36d25e9fddc259f2578031991", "lat": 38.93932216666666, "fusion_lon": 0.0, "fusion_lat": 0.0, "type": "electric_scooter", "name": "99bf4af36d25e9fddc259f2578031991", "is_disabled": 0, "rental_uris": {"ios": "https://dc.lft.to/lastmile_qr_scan", "android": "https://dc.lft.to/lastmile_qr_scan"}, "is_reserved": 0}, {"lon": -77.03867816666667, "bike_id": "41d173a1d50fa13af837b14bcc1b0e80", "lat": 38.92151783333333, "fusion_lon": 0.0, "fusion_lat": 0.0, "type": "electric_scooter", "name": "41d173a1d50fa13af837b14bcc1b0e80", "is_disabled": 0, "rental_uris": {"ios": "https://dc.lft.to/lastmile_qr_scan", "android": "https://dc.lft.to/lastmile_qr_scan"}, "is_reserved": 0}, {"lon": -77.03337266666666, "bike_id": "5d8135a7be69b669ccc1e408a9033163", "lat": 38.898314666666664, "fusion_lon": 0.0, "fusion_lat": 0.0, "type": "electric_scooter", "name": "5d8135a7be69b669ccc1e408a9033163", "is_disabled": 0, "rental_uris": {"ios": "https://dc.lft.to/lastmile_qr_scan", "android": "https://dc.lft.to/lastmile_qr_scan"}, "is_reserved": 0}, {"lon": -76.9403645, "bike_id": "5d4036752350f1968886d83f21ec2daf", "lat": 38.9081915, "fusion_lon": 0.0, "fusion_lat": 0.0, "type": "electric_bike", "name": "5d4036752350f1968886d83f21ec2daf", "is_disabled": 0, "rental_uris": {"ios": "https://dc.lft.to/lastmile_qr_scan", "android": "https://dc.lft.to/lastmile_qr_scan"}, "is_reserved": 0}, {"lon": -77.06415616666666, "bike_id": "c3b1edbde5caa167406de42881620f91", "lat": 38.993345, "fusion_lon": 0.0, "fusion_lat": 0.0, "type": "electric_scooter", "name": "c3b1edbde5caa167406de42881620f91", "is_disabled": 0, "rental_uris": {"ios": "https://dc.lft.to/lastmile_qr_scan", "android": "https://dc.lft.to/lastmile_qr_scan"}, "is_reserved": 0}, {"lon": -76.99489683333333, "bike_id": "b2255d3f62d896c8bb3bfd46d7d5faf0", "lat": 38.86244283333333, "fusion_lon": 0.0, "fusion_lat": 0.0, "type": "electric_scooter", "name": "b2255d3f62d896c8bb3bfd46d7d5faf0", "is_disabled": 0, "rental_uris": {"ios": "https://dc.lft.to/lastmile_qr_scan", "android": "https://dc.lft.to/lastmile_qr_scan"}, "is_reserved": 0}, {"lon": -76.988806, "bike_id": "4d5bfdeefa4af4e62cf1502e432d901f", "lat": 38.86649833333333, "fusion_lon": 0.0, "fusion_lat": 0.0, "type": "electric_scooter", "name": "4d5bfdeefa4af4e62cf1502e432d901f", "is_disabled": 0, "rental_uris": {"ios": "https://dc.lft.to/lastmile_qr_scan", "android": "https://dc.lft.to/lastmile_qr_scan"}, "is_reserved": 0}, {"lon": -77.03209466666667, "bike_id": "a4b98ec64b1892975349f022b8ff6442", "lat": 38.89245116666667, "fusion_lon": 0.0, "fusion_lat": 0.0, "type": "electric_scooter", "name": "a4b98ec64b1892975349f022b8ff6442", "is_disabled": 0, "rental_uris": {"ios": "https://dc.lft.to/lastmile_qr_scan", "android": "https://dc.lft.to/lastmile_qr_scan"}, "is_reserved": 0}, {"lon": -77.04346533333333, "bike_id": "e7350fab188ffe9f50871099cf047915", "lat": 38.9014395, "fusion_lon": 0.0, "fusion_lat": 0.0, "type": "electric_scooter", "name": "e7350fab188ffe9f50871099cf047915", "is_disabled": 0, "rental_uris": {"ios": "https://dc.lft.to/lastmile_qr_scan", "android": "https://dc.lft.to/lastmile_qr_scan"}, "is_reserved": 0}, {"lon": -77.0415325, "bike_id": "cb2cbf3b570b43442eb5ef655a2fabe6", "lat": 38.91555683333333, "fusion_lon": 0.0, "fusion_lat": 0.0, "type": "electric_scooter", "name": "cb2cbf3b570b43442eb5ef655a2fabe6", "is_disabled": 0, "rental_uris": {"ios": "https://dc.lft.to/lastmile_qr_scan", "android": "https://dc.lft.to/lastmile_qr_scan"}, "is_reserved": 0}, {"lon": -77.03283266666666, "bike_id": "948b40f7a3cadbf99fce690171f84365", "lat": 38.934869166666665, "fusion_lon": 0.0, "fusion_lat": 0.0, "type": "electric_scooter", "name": "948b40f7a3cadbf99fce690171f84365", "is_disabled": 0, "rental_uris": {"ios": "https://dc.lft.to/lastmile_qr_scan", "android": "https://dc.lft.to/lastmile_qr_scan"}, "is_reserved": 0}, {"lon": -76.987106, "bike_id": "17c680e3a5fceba891c6cbde6590ad9a", "lat": 38.86698333333333, "fusion_lon": 0.0, "fusion_lat": 0.0, "type": "electric_scooter", "name": "17c680e3a5fceba891c6cbde6590ad9a", "is_disabled": 0, "rental_uris": {"ios": "https://dc.lft.to/lastmile_qr_scan", "android": "https://dc.lft.to/lastmile_qr_scan"}, "is_reserved": 0}, {"lon": -77.03187916666667, "bike_id": "14253b43cce39509a90af8decdf42699", "lat": 38.907979166666664, "fusion_lon": 0.0, "fusion_lat": 0.0, "type": "electric_scooter", "name": "14253b43cce39509a90af8decdf42699", "is_disabled": 0, "rental_uris": {"ios": "https://dc.lft.to/lastmile_qr_scan", "android": "https://dc.lft.to/lastmile_qr_scan"}, "is_reserved": 0}, {"lon": -77.03663866666666, "bike_id": "c40a0f0354382e4471289de2e9503efe", "lat": 38.916792, "fusion_lon": 0.0, "fusion_lat": 0.0, "type": "electric_scooter", "name": "c40a0f0354382e4471289de2e9503efe", "is_disabled": 0, "rental_uris": {"ios": "https://dc.lft.to/lastmile_qr_scan", "android": "https://dc.lft.to/lastmile_qr_scan"}, "is_reserved": 0}, {"lon": -77.02531766666667, "bike_id": "d22c06bc8e69aae2e4c41ddc79d17593", "lat": 38.938588, "fusion_lon": 0.0, "fusion_lat": 0.0, "type": "electric_scooter", "name": "d22c06bc8e69aae2e4c41ddc79d17593", "is_disabled": 0, "rental_uris": {"ios": "https://dc.lft.to/lastmile_qr_scan", "android": "https://dc.lft.to/lastmile_qr_scan"}, "is_reserved": 0}, {"lon": -77.03865416666666, "bike_id": "a2992dfd43fb0b07014a46a6f48e33a7", "lat": 38.902892, "fusion_lon": 0.0, "fusion_lat": 0.0, "type": "electric_scooter", "name": "a2992dfd43fb0b07014a46a6f48e33a7", "is_disabled": 0, "rental_uris": {"ios": "https://dc.lft.to/lastmile_qr_scan", "android": "https://dc.lft.to/lastmile_qr_scan"}, "is_reserved": 0}, {"lon": -77.0448045, "bike_id": "106e3622fa9447eb53f4ae01d543c689", "lat": 38.91161266666667, "fusion_lon": 0.0, "fusion_lat": 0.0, "type": "electric_scooter", "name": "106e3622fa9447eb53f4ae01d543c689", "is_disabled": 0, "rental_uris": {"ios": "https://dc.lft.to/lastmile_qr_scan", "android": "https://dc.lft.to/lastmile_qr_scan"}, "is_reserved": 0}, {"lon": -77.04165633333334, "bike_id": "db4bef84427fc39aa47311ff1e022935", "lat": 38.9135535, "fusion_lon": 0.0, "fusion_lat": 0.0, "type": "electric_scooter", "name": "db4bef84427fc39aa47311ff1e022935", "is_disabled": 0, "rental_uris": {"ios": "https://dc.lft.to/lastmile_qr_scan", "android": "https://dc.lft.to/lastmile_qr_scan"}, "is_reserved": 0}, {"lon": -76.93730166666667, "bike_id": "89b49872798b32684c5ae085774accdd", "lat": 38.89015583333333, "fusion_lon": 0.0, "fusion_lat": 0.0, "type": "electric_scooter", "name": "89b49872798b32684c5ae085774accdd", "is_disabled": 0, "rental_uris": {"ios": "https://dc.lft.to/lastmile_qr_scan", "android": "https://dc.lft.to/lastmile_qr_scan"}, "is_reserved": 0}, {"lon": -77.02843166666666, "bike_id": "87a5d7d0df15b789ea44b10b68f20ae8", "lat": 38.9257485, "fusion_lon": 0.0, "fusion_lat": 0.0, "type": "electric_scooter", "name": "87a5d7d0df15b789ea44b10b68f20ae8", "is_disabled": 0, "rental_uris": {"ios": "https://dc.lft.to/lastmile_qr_scan", "android": "https://dc.lft.to/lastmile_qr_scan"}, "is_reserved": 0}, {"lon": -77.043932, "bike_id": "6331cc55cf8c89cdf581957fcb981357", "lat": 39.0472075, "fusion_lon": 0.0, "fusion_lat": 0.0, "type": "electric_bike", "name": "6331cc55cf8c89cdf581957fcb981357", "is_disabled": 0, "rental_uris": {"ios": "https://dc.lft.to/lastmile_qr_scan", "android": "https://dc.lft.to/lastmile_qr_scan"}, "is_reserved": 0}, {"lon": -77.020316, "bike_id": "232488d29a373de1c685058a4cdff882", "lat": 38.92415333333334, "fusion_lon": 0.0, "fusion_lat": 0.0, "type": "electric_scooter", "name": "232488d29a373de1c685058a4cdff882", "is_disabled": 0, "rental_uris": {"ios": "https://dc.lft.to/lastmile_qr_scan", "android": "https://dc.lft.to/lastmile_qr_scan"}, "is_reserved": 0}, {"lon": -77.06345316666666, "bike_id": "243b1db307cdc3d1bb27c55c2ddf0fa0", "lat": 38.90596433333333, "fusion_lon": 0.0, "fusion_lat": 0.0, "type": "electric_scooter", "name": "243b1db307cdc3d1bb27c55c2ddf0fa0", "is_disabled": 0, "rental_uris": {"ios": "https://dc.lft.to/lastmile_qr_scan", "android": "https://dc.lft.to/lastmile_qr_scan"}, "is_reserved": 0}, {"lon": -77.04657283333333, "bike_id": "d2692cab33be5489a0510d42c10c34a2", "lat": 38.898294, "fusion_lon": 0.0, "fusion_lat": 0.0, "type": "electric_scooter", "name": "d2692cab33be5489a0510d42c10c34a2", "is_disabled": 0, "rental_uris": {"ios": "https://dc.lft.to/lastmile_qr_scan", "android": "https://dc.lft.to/lastmile_qr_scan"}, "is_reserved": 0}, {"lon": -77.02237366666667, "bike_id": "c0a08d7a937513cde7eba88da918f0af", "lat": 38.9621475, "fusion_lon": 0.0, "fusion_lat": 0.0, "type": "electric_bike", "name": "c0a08d7a937513cde7eba88da918f0af", "is_disabled": 0, "rental_uris": {"ios": "https://dc.lft.to/lastmile_qr_scan", "android": "https://dc.lft.to/lastmile_qr_scan"}, "is_reserved": 0}, {"lon": -77.05254083333334, "bike_id": "71f84c47064f462f9c67bee4d3a317c9", "lat": 38.900005666666665, "fusion_lon": 0.0, "fusion_lat": 0.0, "type": "electric_scooter", "name": "71f84c47064f462f9c67bee4d3a317c9", "is_disabled": 0, "rental_uris": {"ios": "https://dc.lft.to/lastmile_qr_scan", "android": "https://dc.lft.to/lastmile_qr_scan"}, "is_reserved": 0}, {"lon": -77.01109783333334, "bike_id": "aa2897d0cd529aec2e4c310f905fec60", "lat": 38.90780083333333, "fusion_lon": 0.0, "fusion_lat": 0.0, "type": "electric_scooter", "name": "aa2897d0cd529aec2e4c310f905fec60", "is_disabled": 0, "rental_uris": {"ios": "https://dc.lft.to/lastmile_qr_scan", "android": "https://dc.lft.to/lastmile_qr_scan"}, "is_reserved": 0}, {"lon": -77.0245495, "bike_id": "e9ae8a9d459e19dcd0ba2cfc68356a10", "lat": 38.93860216666667, "fusion_lon": 0.0, "fusion_lat": 0.0, "type": "electric_scooter", "name": "e9ae8a9d459e19dcd0ba2cfc68356a10", "is_disabled": 0, "rental_uris": {"ios": "https://dc.lft.to/lastmile_qr_scan", "android": "https://dc.lft.to/lastmile_qr_scan"}, "is_reserved": 0}, {"lon": -77.02209583333334, "bike_id": "cb71949c4350590fa85c7e018f1982ec", "lat": 38.9141225, "fusion_lon": 0.0, "fusion_lat": 0.0, "type": "electric_scooter", "name": "cb71949c4350590fa85c7e018f1982ec", "is_disabled": 0, "rental_uris": {"ios": "https://dc.lft.to/lastmile_qr_scan", "android": "https://dc.lft.to/lastmile_qr_scan"}, "is_reserved": 0}, {"lon": -77.001198, "bike_id": "494f3d212c32b68fbced788bfff2b746", "lat": 38.874924, "fusion_lon": 0.0, "fusion_lat": 0.0, "type": "electric_scooter", "name": "494f3d212c32b68fbced788bfff2b746", "is_disabled": 0, "rental_uris": {"ios": "https://dc.lft.to/lastmile_qr_scan", "android": "https://dc.lft.to/lastmile_qr_scan"}, "is_reserved": 0}, {"lon": -77.01981366666666, "bike_id": "d295248769a86ea44159f8a5e186d4d4", "lat": 38.93023183333333, "fusion_lon": 0.0, "fusion_lat": 0.0, "type": "electric_scooter", "name": "d295248769a86ea44159f8a5e186d4d4", "is_disabled": 0, "rental_uris": {"ios": "https://dc.lft.to/lastmile_qr_scan", "android": "https://dc.lft.to/lastmile_qr_scan"}, "is_reserved": 0}, {"lon": -76.955733, "bike_id": "26998a4735a0f7d292218c1984abb2df", "lat": 38.887645, "fusion_lon": 0.0, "fusion_lat": 0.0, "type": "electric_scooter", "name": "26998a4735a0f7d292218c1984abb2df", "is_disabled": 0, "rental_uris": {"ios": "https://dc.lft.to/lastmile_qr_scan", "android": "https://dc.lft.to/lastmile_qr_scan"}, "is_reserved": 0}, {"lon": -76.989245, "bike_id": "bb3e620c18919d09bc5fa9a5e600b1e4", "lat": 38.85809316666667, "fusion_lon": 0.0, "fusion_lat": 0.0, "type": "electric_scooter", "name": "bb3e620c18919d09bc5fa9a5e600b1e4", "is_disabled": 0, "rental_uris": {"ios": "https://dc.lft.to/lastmile_qr_scan", "android": "https://dc.lft.to/lastmile_qr_scan"}, "is_reserved": 0}, {"lon": -77.02227083333334, "bike_id": "59b1403952f5851a8e865b8de898653d", "lat": 38.926203, "fusion_lon": 0.0, "fusion_lat": 0.0, "type": "electric_scooter", "name": "59b1403952f5851a8e865b8de898653d", "is_disabled": 0, "rental_uris": {"ios": "https://dc.lft.to/lastmile_qr_scan", "android": "https://dc.lft.to/lastmile_qr_scan"}, "is_reserved": 0}, {"lon": -77.0006545, "bike_id": "4a14b31e4d66dfcf0ab1885563bc0079", "lat": 38.899946, "fusion_lon": 0.0, "fusion_lat": 0.0, "type": "electric_scooter", "name": "4a14b31e4d66dfcf0ab1885563bc0079", "is_disabled": 0, "rental_uris": {"ios": "https://dc.lft.to/lastmile_qr_scan", "android": "https://dc.lft.to/lastmile_qr_scan"}, "is_reserved": 0}, {"lon": -77.01099833333333, "bike_id": "0426aaa933a0c32a2502d84085be8a66", "lat": 38.9037845, "fusion_lon": 0.0, "fusion_lat": 0.0, "type": "electric_scooter", "name": "0426aaa933a0c32a2502d84085be8a66", "is_disabled": 0, "rental_uris": {"ios": "https://dc.lft.to/lastmile_qr_scan", "android": "https://dc.lft.to/lastmile_qr_scan"}, "is_reserved": 0}, {"lon": -77.03181816666667, "bike_id": "b314da661906fe9ab9cd478b9586efe2", "lat": 38.917473666666666, "fusion_lon": 0.0, "fusion_lat": 0.0, "type": "electric_scooter", "name": "b314da661906fe9ab9cd478b9586efe2", "is_disabled": 0, "rental_uris": {"ios": "https://dc.lft.to/lastmile_qr_scan", "android": "https://dc.lft.to/lastmile_qr_scan"}, "is_reserved": 0}, {"lon": -77.0438005, "bike_id": "cebc18504d401159666ad5d47208426f", "lat": 38.918716, "fusion_lon": 0.0, "fusion_lat": 0.0, "type": "electric_scooter", "name": "cebc18504d401159666ad5d47208426f", "is_disabled": 0, "rental_uris": {"ios": "https://dc.lft.to/lastmile_qr_scan", "android": "https://dc.lft.to/lastmile_qr_scan"}, "is_reserved": 0}, {"lon": -77.04862516666667, "bike_id": "f02f78150268022d99826a311f3ffd20", "lat": 38.916304, "fusion_lon": 0.0, "fusion_lat": 0.0, "type": "electric_scooter", "name": "f02f78150268022d99826a311f3ffd20", "is_disabled": 0, "rental_uris": {"ios": "https://dc.lft.to/lastmile_qr_scan", "android": "https://dc.lft.to/lastmile_qr_scan"}, "is_reserved": 0}, {"lon": -76.98350066666667, "bike_id": "dced94c3ea51bfbd6934b1b334d784d4", "lat": 38.86262416666667, "fusion_lon": 0.0, "fusion_lat": 0.0, "type": "electric_bike", "name": "dced94c3ea51bfbd6934b1b334d784d4", "is_disabled": 0, "rental_uris": {"ios": "https://dc.lft.to/lastmile_qr_scan", "android": "https://dc.lft.to/lastmile_qr_scan"}, "is_reserved": 0}, {"lon": -77.02188933333333, "bike_id": "595c3ee3461c240993e6dea207a1f545", "lat": 38.91268016666667, "fusion_lon": 0.0, "fusion_lat": 0.0, "type": "electric_scooter", "name": "595c3ee3461c240993e6dea207a1f545", "is_disabled": 0, "rental_uris": {"ios": "https://dc.lft.to/lastmile_qr_scan", "android": "https://dc.lft.to/lastmile_qr_scan"}, "is_reserved": 0}, {"lon": -77.02321983333333, "bike_id": "f7b94b2e80493955e85e71e7f2b4f078", "lat": 38.92986716666667, "fusion_lon": 0.0, "fusion_lat": 0.0, "type": "electric_scooter", "name": "f7b94b2e80493955e85e71e7f2b4f078", "is_disabled": 0, "rental_uris": {"ios": "https://dc.lft.to/lastmile_qr_scan", "android": "https://dc.lft.to/lastmile_qr_scan"}, "is_reserved": 0}, {"lon": -77.12525366666667, "bike_id": "17f4a463dc5cde4c76374a71fc6ae2d3", "lat": 39.056365, "fusion_lon": 0.0, "fusion_lat": 0.0, "type": "electric_bike", "name": "17f4a463dc5cde4c76374a71fc6ae2d3", "is_disabled": 0, "rental_uris": {"ios": "https://dc.lft.to/lastmile_qr_scan", "android": "https://dc.lft.to/lastmile_qr_scan"}, "is_reserved": 0}, {"lon": -76.99930183333333, "bike_id": "4b94fe9a18e14bf7859035aacd4bab86", "lat": 38.84313916666667, "fusion_lon": 0.0, "fusion_lat": 0.0, "type": "electric_scooter", "name": "4b94fe9a18e14bf7859035aacd4bab86", "is_disabled": 0, "rental_uris": {"ios": "https://dc.lft.to/lastmile_qr_scan", "android": "https://dc.lft.to/lastmile_qr_scan"}, "is_reserved": 0}, {"lon": -77.036297, "bike_id": "53afa0392216b52d30d8651d0f5bb926", "lat": 38.9307885, "fusion_lon": 0.0, "fusion_lat": 0.0, "type": "electric_scooter", "name": "53afa0392216b52d30d8651d0f5bb926", "is_disabled": 0, "rental_uris": {"ios": "https://dc.lft.to/lastmile_qr_scan", "android": "https://dc.lft.to/lastmile_qr_scan"}, "is_reserved": 0}, {"lon": -77.07452783333333, "bike_id": "7e665fb0c2ffde6afad4dcdc83950306", "lat": 38.94503616666667, "fusion_lon": 0.0, "fusion_lat": 0.0, "type": "electric_scooter", "name": "7e665fb0c2ffde6afad4dcdc83950306", "is_disabled": 0, "rental_uris": {"ios": "https://dc.lft.to/lastmile_qr_scan", "android": "https://dc.lft.to/lastmile_qr_scan"}, "is_reserved": 0}, {"lon": -77.0515795, "bike_id": "a5b26d2c2465cbe0f2a8c8c7e1e7bb8d", "lat": 38.927366666666664, "fusion_lon": 0.0, "fusion_lat": 0.0, "type": "electric_scooter", "name": "a5b26d2c2465cbe0f2a8c8c7e1e7bb8d", "is_disabled": 0, "rental_uris": {"ios": "https://dc.lft.to/lastmile_qr_scan", "android": "https://dc.lft.to/lastmile_qr_scan"}, "is_reserved": 0}, {"lon": -77.02702, "bike_id": "137f014bdc586a311d0e2864c6defd5d", "lat": 38.90667166666667, "fusion_lon": 0.0, "fusion_lat": 0.0, "type": "electric_scooter", "name": "137f014bdc586a311d0e2864c6defd5d", "is_disabled": 0, "rental_uris": {"ios": "https://dc.lft.to/lastmile_qr_scan", "android": "https://dc.lft.to/lastmile_qr_scan"}, "is_reserved": 0}, {"lon": -76.9372955, "bike_id": "1686dc009e9f09d2688ab8e69aa2c95f", "lat": 38.890148333333336, "fusion_lon": 0.0, "fusion_lat": 0.0, "type": "electric_scooter", "name": "1686dc009e9f09d2688ab8e69aa2c95f", "is_disabled": 0, "rental_uris": {"ios": "https://dc.lft.to/lastmile_qr_scan", "android": "https://dc.lft.to/lastmile_qr_scan"}, "is_reserved": 0}, {"lon": -77.0343145, "bike_id": "96a603dd7795ec15e52c5f9b98caaba2", "lat": 38.909696833333335, "fusion_lon": 0.0, "fusion_lat": 0.0, "type": "electric_scooter", "name": "96a603dd7795ec15e52c5f9b98caaba2", "is_disabled": 0, "rental_uris": {"ios": "https://dc.lft.to/lastmile_qr_scan", "android": "https://dc.lft.to/lastmile_qr_scan"}, "is_reserved": 0}, {"lon": -77.01735766666667, "bike_id": "531c154f34216e18a2b0117503565495", "lat": 38.942094833333336, "fusion_lon": 0.0, "fusion_lat": 0.0, "type": "electric_scooter", "name": "531c154f34216e18a2b0117503565495", "is_disabled": 0, "rental_uris": {"ios": "https://dc.lft.to/lastmile_qr_scan", "android": "https://dc.lft.to/lastmile_qr_scan"}, "is_reserved": 0}, {"lon": -76.96259216666667, "bike_id": "b4c47452c9dc4541815dcc5ef9d97de2", "lat": 38.8824785, "fusion_lon": 0.0, "fusion_lat": 0.0, "type": "electric_bike", "name": "b4c47452c9dc4541815dcc5ef9d97de2", "is_disabled": 0, "rental_uris": {"ios": "https://dc.lft.to/lastmile_qr_scan", "android": "https://dc.lft.to/lastmile_qr_scan"}, "is_reserved": 0}, {"lon": -77.00657783333334, "bike_id": "93399b3e7195e9233cda6bf30c57c48f", "lat": 38.94463483333333, "fusion_lon": 0.0, "fusion_lat": 0.0, "type": "electric_scooter", "name": "93399b3e7195e9233cda6bf30c57c48f", "is_disabled": 0, "rental_uris": {"ios": "https://dc.lft.to/lastmile_qr_scan", "android": "https://dc.lft.to/lastmile_qr_scan"}, "is_reserved": 0}, {"lon": -77.0316955, "bike_id": "510d4cd706a104c4e5cc0743e08d9ea3", "lat": 38.93608316666667, "fusion_lon": 0.0, "fusion_lat": 0.0, "type": "electric_scooter", "name": "510d4cd706a104c4e5cc0743e08d9ea3", "is_disabled": 0, "rental_uris": {"ios": "https://dc.lft.to/lastmile_qr_scan", "android": "https://dc.lft.to/lastmile_qr_scan"}, "is_reserved": 0}, {"lon": -76.9835105, "bike_id": "d0f3f44b271af6fc2e309d3b34e2e99f", "lat": 38.8920845, "fusion_lon": 0.0, "fusion_lat": 0.0, "type": "electric_bike", "name": "d0f3f44b271af6fc2e309d3b34e2e99f", "is_disabled": 0, "rental_uris": {"ios": "https://dc.lft.to/lastmile_qr_scan", "android": "https://dc.lft.to/lastmile_qr_scan"}, "is_reserved": 0}, {"lon": -77.03187416666667, "bike_id": "b54aa9aa6a302232727999cf45fe961f", "lat": 38.92060383333333, "fusion_lon": 0.0, "fusion_lat": 0.0, "type": "electric_scooter", "name": "b54aa9aa6a302232727999cf45fe961f", "is_disabled": 0, "rental_uris": {"ios": "https://dc.lft.to/lastmile_qr_scan", "android": "https://dc.lft.to/lastmile_qr_scan"}, "is_reserved": 0}, {"lon": -77.0456095, "bike_id": "5f839248af77396e5032c0b487f70d10", "lat": 38.915939333333334, "fusion_lon": 0.0, "fusion_lat": 0.0, "type": "electric_scooter", "name": "5f839248af77396e5032c0b487f70d10", "is_disabled": 0, "rental_uris": {"ios": "https://dc.lft.to/lastmile_qr_scan", "android": "https://dc.lft.to/lastmile_qr_scan"}, "is_reserved": 0}, {"lon": -77.03221733333334, "bike_id": "d77775006086780e31d3f020ce815d46", "lat": 38.91629916666667, "fusion_lon": 0.0, "fusion_lat": 0.0, "type": "electric_scooter", "name": "d77775006086780e31d3f020ce815d46", "is_disabled": 0, "rental_uris": {"ios": "https://dc.lft.to/lastmile_qr_scan", "android": "https://dc.lft.to/lastmile_qr_scan"}, "is_reserved": 0}, {"lon": -77.017747, "bike_id": "eff7395d40497b9d6cdeb3273814dbf6", "lat": 38.92109516666667, "fusion_lon": 0.0, "fusion_lat": 0.0, "type": "electric_scooter", "name": "eff7395d40497b9d6cdeb3273814dbf6", "is_disabled": 0, "rental_uris": {"ios": "https://dc.lft.to/lastmile_qr_scan", "android": "https://dc.lft.to/lastmile_qr_scan"}, "is_reserved": 0}, {"lon": -77.00051783333333, "bike_id": "562d73df92df257882846c36646f124e", "lat": 38.876510833333334, "fusion_lon": 0.0, "fusion_lat": 0.0, "type": "electric_bike", "name": "562d73df92df257882846c36646f124e", "is_disabled": 0, "rental_uris": {"ios": "https://dc.lft.to/lastmile_qr_scan", "android": "https://dc.lft.to/lastmile_qr_scan"}, "is_reserved": 0}, {"lon": -77.18562383333334, "bike_id": "25d36448505db9bfc8d4d85feff353e7", "lat": 39.09974116666667, "fusion_lon": 0.0, "fusion_lat": 0.0, "type": "electric_bike", "name": "25d36448505db9bfc8d4d85feff353e7", "is_disabled": 0, "rental_uris": {"ios": "https://dc.lft.to/lastmile_qr_scan", "android": "https://dc.lft.to/lastmile_qr_scan"}, "is_reserved": 0}, {"lon": -76.9772845, "bike_id": "57b51a2d3382a96d59c2c10400191248", "lat": 38.864880166666666, "fusion_lon": 0.0, "fusion_lat": 0.0, "type": "electric_bike", "name": "57b51a2d3382a96d59c2c10400191248", "is_disabled": 0, "rental_uris": {"ios": "https://dc.lft.to/lastmile_qr_scan", "android": "https://dc.lft.to/lastmile_qr_scan"}, "is_reserved": 0}, {"lon": -77.00710916666667, "bike_id": "3650501e08a3048a10caa6c2691a2041", "lat": 38.9460105, "fusion_lon": 0.0, "fusion_lat": 0.0, "type": "electric_bike", "name": "3650501e08a3048a10caa6c2691a2041", "is_disabled": 0, "rental_uris": {"ios": "https://dc.lft.to/lastmile_qr_scan", "android": "https://dc.lft.to/lastmile_qr_scan"}, "is_reserved": 0}, {"lon": -77.0390905, "bike_id": "fb1c3a9a437c433c2ce93377c1703f88", "lat": 38.923254, "fusion_lon": 0.0, "fusion_lat": 0.0, "type": "electric_scooter", "name": "fb1c3a9a437c433c2ce93377c1703f88", "is_disabled": 0, "rental_uris": {"ios": "https://dc.lft.to/lastmile_qr_scan", "android": "https://dc.lft.to/lastmile_qr_scan"}, "is_reserved": 0}, {"lon": -77.04359283333334, "bike_id": "096577b5f86f77831ec00df29cd9497d", "lat": 38.921524, "fusion_lon": 0.0, "fusion_lat": 0.0, "type": "electric_scooter", "name": "096577b5f86f77831ec00df29cd9497d", "is_disabled": 0, "rental_uris": {"ios": "https://dc.lft.to/lastmile_qr_scan", "android": "https://dc.lft.to/lastmile_qr_scan"}, "is_reserved": 0}, {"lon": -77.01630366666667, "bike_id": "4fac1f696e714253c8d4570a4b806db3", "lat": 38.9033845, "fusion_lon": 0.0, "fusion_lat": 0.0, "type": "electric_scooter", "name": "4fac1f696e714253c8d4570a4b806db3", "is_disabled": 0, "rental_uris": {"ios": "https://dc.lft.to/lastmile_qr_scan", "android": "https://dc.lft.to/lastmile_qr_scan"}, "is_reserved": 0}, {"lon": -77.02979183333333, "bike_id": "ed45e448c804477ca4fb57baef34c662", "lat": 38.932485166666666, "fusion_lon": 0.0, "fusion_lat": 0.0, "type": "electric_scooter", "name": "ed45e448c804477ca4fb57baef34c662", "is_disabled": 0, "rental_uris": {"ios": "https://dc.lft.to/lastmile_qr_scan", "android": "https://dc.lft.to/lastmile_qr_scan"}, "is_reserved": 0}, {"lon": -77.02117766666667, "bike_id": "621e159d080bb98a9c74f84a67db72cd", "lat": 38.936986166666664, "fusion_lon": 0.0, "fusion_lat": 0.0, "type": "electric_scooter", "name": "621e159d080bb98a9c74f84a67db72cd", "is_disabled": 0, "rental_uris": {"ios": "https://dc.lft.to/lastmile_qr_scan", "android": "https://dc.lft.to/lastmile_qr_scan"}, "is_reserved": 0}, {"lon": -77.05806333333334, "bike_id": "353788af009f0fe96610652aee33931e", "lat": 38.905037166666666, "fusion_lon": 0.0, "fusion_lat": 0.0, "type": "electric_scooter", "name": "353788af009f0fe96610652aee33931e", "is_disabled": 0, "rental_uris": {"ios": "https://dc.lft.to/lastmile_qr_scan", "android": "https://dc.lft.to/lastmile_qr_scan"}, "is_reserved": 0}, {"lon": -77.00852566666667, "bike_id": "552d042e4e28199ac6ace0fa6c1497bc", "lat": 38.8791105, "fusion_lon": 0.0, "fusion_lat": 0.0, "type": "electric_scooter", "name": "552d042e4e28199ac6ace0fa6c1497bc", "is_disabled": 0, "rental_uris": {"ios": "https://dc.lft.to/lastmile_qr_scan", "android": "https://dc.lft.to/lastmile_qr_scan"}, "is_reserved": 0}, {"lon": -77.02444383333334, "bike_id": "c924f366432f2fd02322b4279e129128", "lat": 38.91409083333333, "fusion_lon": 0.0, "fusion_lat": 0.0, "type": "electric_scooter", "name": "c924f366432f2fd02322b4279e129128", "is_disabled": 0, "rental_uris": {"ios": "https://dc.lft.to/lastmile_qr_scan", "android": "https://dc.lft.to/lastmile_qr_scan"}, "is_reserved": 0}, {"lon": -76.99503066666666, "bike_id": "387d218d18e5047a8b67bca1de0f6504", "lat": 38.88194416666666, "fusion_lon": 0.0, "fusion_lat": 0.0, "type": "electric_bike", "name": "387d218d18e5047a8b67bca1de0f6504", "is_disabled": 0, "rental_uris": {"ios": "https://dc.lft.to/lastmile_qr_scan", "android": "https://dc.lft.to/lastmile_qr_scan"}, "is_reserved": 0}, {"lon": -76.9276935, "bike_id": "0515037894a2ba11a6ae54977e2a3eb3", "lat": 38.900831333333336, "fusion_lon": 0.0, "fusion_lat": 0.0, "type": "electric_scooter", "name": "0515037894a2ba11a6ae54977e2a3eb3", "is_disabled": 0, "rental_uris": {"ios": "https://dc.lft.to/lastmile_qr_scan", "android": "https://dc.lft.to/lastmile_qr_scan"}, "is_reserved": 0}, {"lon": -76.97910566666667, "bike_id": "abedfa404a6a4b75e7994478e4e3010c", "lat": 38.86364183333333, "fusion_lon": 0.0, "fusion_lat": 0.0, "type": "electric_scooter", "name": "abedfa404a6a4b75e7994478e4e3010c", "is_disabled": 0, "rental_uris": {"ios": "https://dc.lft.to/lastmile_qr_scan", "android": "https://dc.lft.to/lastmile_qr_scan"}, "is_reserved": 0}, {"lon": -77.03659483333334, "bike_id": "bea664f45aaa883d726de8dddf08648f", "lat": 38.917214333333334, "fusion_lon": 0.0, "fusion_lat": 0.0, "type": "electric_scooter", "name": "bea664f45aaa883d726de8dddf08648f", "is_disabled": 0, "rental_uris": {"ios": "https://dc.lft.to/lastmile_qr_scan", "android": "https://dc.lft.to/lastmile_qr_scan"}, "is_reserved": 0}, {"lon": -77.03607916666667, "bike_id": "5bd05adb58d1ba3dbf1e2f6fb1c9d261", "lat": 38.88770483333333, "fusion_lon": 0.0, "fusion_lat": 0.0, "type": "electric_scooter", "name": "5bd05adb58d1ba3dbf1e2f6fb1c9d261", "is_disabled": 0, "rental_uris": {"ios": "https://dc.lft.to/lastmile_qr_scan", "android": "https://dc.lft.to/lastmile_qr_scan"}, "is_reserved": 0}, {"lon": -77.00195533333333, "bike_id": "e3ab9d2285ebf83fd5da01b5b6d08f87", "lat": 38.90033566666666, "fusion_lon": 0.0, "fusion_lat": 0.0, "type": "electric_scooter", "name": "e3ab9d2285ebf83fd5da01b5b6d08f87", "is_disabled": 0, "rental_uris": {"ios": "https://dc.lft.to/lastmile_qr_scan", "android": "https://dc.lft.to/lastmile_qr_scan"}, "is_reserved": 0}, {"lon": -76.988807, "bike_id": "fec5994246c61a51cc4c84b138d4e827", "lat": 38.866493, "fusion_lon": 0.0, "fusion_lat": 0.0, "type": "electric_scooter", "name": "fec5994246c61a51cc4c84b138d4e827", "is_disabled": 0, "rental_uris": {"ios": "https://dc.lft.to/lastmile_qr_scan", "android": "https://dc.lft.to/lastmile_qr_scan"}, "is_reserved": 0}, {"lon": -77.0369645, "bike_id": "2d28c785d8fab6e45b7e5cd81538f0a0", "lat": 38.92640333333333, "fusion_lon": 0.0, "fusion_lat": 0.0, "type": "electric_scooter", "name": "2d28c785d8fab6e45b7e5cd81538f0a0", "is_disabled": 0, "rental_uris": {"ios": "https://dc.lft.to/lastmile_qr_scan", "android": "https://dc.lft.to/lastmile_qr_scan"}, "is_reserved": 0}, {"lon": -76.987114, "bike_id": "ed90f96c760c7435a922108488e705d0", "lat": 38.866228666666665, "fusion_lon": 0.0, "fusion_lat": 0.0, "type": "electric_scooter", "name": "ed90f96c760c7435a922108488e705d0", "is_disabled": 0, "rental_uris": {"ios": "https://dc.lft.to/lastmile_qr_scan", "android": "https://dc.lft.to/lastmile_qr_scan"}, "is_reserved": 0}, {"lon": -77.03439033333333, "bike_id": "80593531fb18f17a30ed70f03161b97e", "lat": 38.90971566666666, "fusion_lon": 0.0, "fusion_lat": 0.0, "type": "electric_scooter", "name": "80593531fb18f17a30ed70f03161b97e", "is_disabled": 0, "rental_uris": {"ios": "https://dc.lft.to/lastmile_qr_scan", "android": "https://dc.lft.to/lastmile_qr_scan"}, "is_reserved": 0}, {"lon": -77.040987, "bike_id": "2e784b3ccc76b7ca176d0a1ffdd37957", "lat": 38.89226983333333, "fusion_lon": 0.0, "fusion_lat": 0.0, "type": "electric_scooter", "name": "2e784b3ccc76b7ca176d0a1ffdd37957", "is_disabled": 0, "rental_uris": {"ios": "https://dc.lft.to/lastmile_qr_scan", "android": "https://dc.lft.to/lastmile_qr_scan"}, "is_reserved": 0}, {"lon": -77.02695466666667, "bike_id": "917171b9c96c9b638d248648f01d4a2c", "lat": 38.90663983333334, "fusion_lon": 0.0, "fusion_lat": 0.0, "type": "electric_scooter", "name": "917171b9c96c9b638d248648f01d4a2c", "is_disabled": 0, "rental_uris": {"ios": "https://dc.lft.to/lastmile_qr_scan", "android": "https://dc.lft.to/lastmile_qr_scan"}, "is_reserved": 0}, {"lon": -77.00255866666667, "bike_id": "02403dfffa04faa058a2229c56c24197", "lat": 38.91817433333333, "fusion_lon": 0.0, "fusion_lat": 0.0, "type": "electric_scooter", "name": "02403dfffa04faa058a2229c56c24197", "is_disabled": 0, "rental_uris": {"ios": "https://dc.lft.to/lastmile_qr_scan", "android": "https://dc.lft.to/lastmile_qr_scan"}, "is_reserved": 0}, {"lon": -77.03258716666667, "bike_id": "c3cdf95ab1b26d96425eeceaa4bc99c2", "lat": 38.932651, "fusion_lon": 0.0, "fusion_lat": 0.0, "type": "electric_scooter", "name": "c3cdf95ab1b26d96425eeceaa4bc99c2", "is_disabled": 0, "rental_uris": {"ios": "https://dc.lft.to/lastmile_qr_scan", "android": "https://dc.lft.to/lastmile_qr_scan"}, "is_reserved": 0}, {"lon": -77.03715083333333, "bike_id": "a2aa23d528f19a14169593a6196b6574", "lat": 38.914860833333336, "fusion_lon": 0.0, "fusion_lat": 0.0, "type": "electric_scooter", "name": "a2aa23d528f19a14169593a6196b6574", "is_disabled": 0, "rental_uris": {"ios": "https://dc.lft.to/lastmile_qr_scan", "android": "https://dc.lft.to/lastmile_qr_scan"}, "is_reserved": 0}, {"lon": -77.00102783333334, "bike_id": "1c2642549b30bf1917933dabf4ae48dd", "lat": 38.91706116666667, "fusion_lon": 0.0, "fusion_lat": 0.0, "type": "electric_scooter", "name": "1c2642549b30bf1917933dabf4ae48dd", "is_disabled": 0, "rental_uris": {"ios": "https://dc.lft.to/lastmile_qr_scan", "android": "https://dc.lft.to/lastmile_qr_scan"}, "is_reserved": 0}, {"lon": -77.01893883333334, "bike_id": "3dd7be3e7630ce915e97f96984ebf540", "lat": 38.874575166666666, "fusion_lon": 0.0, "fusion_lat": 0.0, "type": "electric_scooter", "name": "3dd7be3e7630ce915e97f96984ebf540", "is_disabled": 0, "rental_uris": {"ios": "https://dc.lft.to/lastmile_qr_scan", "android": "https://dc.lft.to/lastmile_qr_scan"}, "is_reserved": 0}, {"lon": -77.03677133333333, "bike_id": "8e89dd2072ad4ee6ecd9167375a41add", "lat": 38.90832266666666, "fusion_lon": 0.0, "fusion_lat": 0.0, "type": "electric_scooter", "name": "8e89dd2072ad4ee6ecd9167375a41add", "is_disabled": 0, "rental_uris": {"ios": "https://dc.lft.to/lastmile_qr_scan", "android": "https://dc.lft.to/lastmile_qr_scan"}, "is_reserved": 0}, {"lon": -76.99736683333333, "bike_id": "a49f21adf7f256aa59dd52241b503a12", "lat": 39.042343, "fusion_lon": 0.0, "fusion_lat": 0.0, "type": "electric_bike", "name": "a49f21adf7f256aa59dd52241b503a12", "is_disabled": 0, "rental_uris": {"ios": "https://dc.lft.to/lastmile_qr_scan", "android": "https://dc.lft.to/lastmile_qr_scan"}, "is_reserved": 0}, {"lon": -77.02404016666667, "bike_id": "40123b6142b1583891694b1f38ccd0e3", "lat": 38.88284933333333, "fusion_lon": 0.0, "fusion_lat": 0.0, "type": "electric_scooter", "name": "40123b6142b1583891694b1f38ccd0e3", "is_disabled": 0, "rental_uris": {"ios": "https://dc.lft.to/lastmile_qr_scan", "android": "https://dc.lft.to/lastmile_qr_scan"}, "is_reserved": 0}, {"lon": -77.05950466666667, "bike_id": "f1ed9510070d70fdd8c1d811d5764f82", "lat": 38.918352666666664, "fusion_lon": 0.0, "fusion_lat": 0.0, "type": "electric_scooter", "name": "f1ed9510070d70fdd8c1d811d5764f82", "is_disabled": 0, "rental_uris": {"ios": "https://dc.lft.to/lastmile_qr_scan", "android": "https://dc.lft.to/lastmile_qr_scan"}, "is_reserved": 0}, {"lon": -76.99802483333333, "bike_id": "534af641d97a5ef4426d38067765862f", "lat": 38.905011333333334, "fusion_lon": 0.0, "fusion_lat": 0.0, "type": "electric_bike", "name": "534af641d97a5ef4426d38067765862f", "is_disabled": 0, "rental_uris": {"ios": "https://dc.lft.to/lastmile_qr_scan", "android": "https://dc.lft.to/lastmile_qr_scan"}, "is_reserved": 0}, {"lon": -77.02185416666667, "bike_id": "07c57f0a4be05e21018e9c9482541cb4", "lat": 38.90939983333333, "fusion_lon": 0.0, "fusion_lat": 0.0, "type": "electric_scooter", "name": "07c57f0a4be05e21018e9c9482541cb4", "is_disabled": 0, "rental_uris": {"ios": "https://dc.lft.to/lastmile_qr_scan", "android": "https://dc.lft.to/lastmile_qr_scan"}, "is_reserved": 0}, {"lon": -77.03668533333334, "bike_id": "77bfcb910577530f8a0bffbb73860d8a", "lat": 38.91811466666667, "fusion_lon": 0.0, "fusion_lat": 0.0, "type": "electric_scooter", "name": "77bfcb910577530f8a0bffbb73860d8a", "is_disabled": 0, "rental_uris": {"ios": "https://dc.lft.to/lastmile_qr_scan", "android": "https://dc.lft.to/lastmile_qr_scan"}, "is_reserved": 0}, {"lon": -77.0220485, "bike_id": "6c6b60016220de7600e27d6464ae33fb", "lat": 38.89744733333333, "fusion_lon": 0.0, "fusion_lat": 0.0, "type": "electric_scooter", "name": "6c6b60016220de7600e27d6464ae33fb", "is_disabled": 0, "rental_uris": {"ios": "https://dc.lft.to/lastmile_qr_scan", "android": "https://dc.lft.to/lastmile_qr_scan"}, "is_reserved": 0}, {"lon": -77.050518, "bike_id": "147de4f9bd870e27f92d2db3dfd0cbad", "lat": 38.90051033333334, "fusion_lon": 0.0, "fusion_lat": 0.0, "type": "electric_scooter", "name": "147de4f9bd870e27f92d2db3dfd0cbad", "is_disabled": 0, "rental_uris": {"ios": "https://dc.lft.to/lastmile_qr_scan", "android": "https://dc.lft.to/lastmile_qr_scan"}, "is_reserved": 0}, {"lon": -77.0244665, "bike_id": "d501fe6c270d0f45c9d7af22a0990736", "lat": 38.914133666666665, "fusion_lon": 0.0, "fusion_lat": 0.0, "type": "electric_scooter", "name": "d501fe6c270d0f45c9d7af22a0990736", "is_disabled": 0, "rental_uris": {"ios": "https://dc.lft.to/lastmile_qr_scan", "android": "https://dc.lft.to/lastmile_qr_scan"}, "is_reserved": 0}, {"lon": -77.032655, "bike_id": "18e2d57bcccb0dadb6218bc9f8827f12", "lat": 38.92877683333333, "fusion_lon": 0.0, "fusion_lat": 0.0, "type": "electric_scooter", "name": "18e2d57bcccb0dadb6218bc9f8827f12", "is_disabled": 0, "rental_uris": {"ios": "https://dc.lft.to/lastmile_qr_scan", "android": "https://dc.lft.to/lastmile_qr_scan"}, "is_reserved": 0}, {"lon": -77.00027816666666, "bike_id": "30c0856511e039c11a29ccdff8473117", "lat": 38.96818483333333, "fusion_lon": 0.0, "fusion_lat": 0.0, "type": "electric_bike", "name": "30c0856511e039c11a29ccdff8473117", "is_disabled": 0, "rental_uris": {"ios": "https://dc.lft.to/lastmile_qr_scan", "android": "https://dc.lft.to/lastmile_qr_scan"}, "is_reserved": 0}, {"lon": -77.03202783333333, "bike_id": "3efd8f2a2e0b1704481d3f1f60f46ab5", "lat": 38.9441085, "fusion_lon": 0.0, "fusion_lat": 0.0, "type": "electric_scooter", "name": "3efd8f2a2e0b1704481d3f1f60f46ab5", "is_disabled": 0, "rental_uris": {"ios": "https://dc.lft.to/lastmile_qr_scan", "android": "https://dc.lft.to/lastmile_qr_scan"}, "is_reserved": 0}, {"lon": -77.04194716666667, "bike_id": "925458ecef75413f592236f6b86124f2", "lat": 38.920527666666665, "fusion_lon": 0.0, "fusion_lat": 0.0, "type": "electric_scooter", "name": "925458ecef75413f592236f6b86124f2", "is_disabled": 0, "rental_uris": {"ios": "https://dc.lft.to/lastmile_qr_scan", "android": "https://dc.lft.to/lastmile_qr_scan"}, "is_reserved": 0}, {"lon": -77.04558566666667, "bike_id": "53600381da872ac094e0aedcd6b77c2b", "lat": 38.896076666666666, "fusion_lon": 0.0, "fusion_lat": 0.0, "type": "electric_scooter", "name": "53600381da872ac094e0aedcd6b77c2b", "is_disabled": 0, "rental_uris": {"ios": "https://dc.lft.to/lastmile_qr_scan", "android": "https://dc.lft.to/lastmile_qr_scan"}, "is_reserved": 0}, {"lon": -77.03337833333333, "bike_id": "932a092ab059239c1988e19cd45729cd", "lat": 38.90165066666667, "fusion_lon": 0.0, "fusion_lat": 0.0, "type": "electric_scooter", "name": "932a092ab059239c1988e19cd45729cd", "is_disabled": 0, "rental_uris": {"ios": "https://dc.lft.to/lastmile_qr_scan", "android": "https://dc.lft.to/lastmile_qr_scan"}, "is_reserved": 0}, {"lon": -77.060612, "bike_id": "ee5ae46c6a802a12c748f79503026558", "lat": 38.808575, "fusion_lon": 0.0, "fusion_lat": 0.0, "type": "electric_bike", "name": "ee5ae46c6a802a12c748f79503026558", "is_disabled": 0, "rental_uris": {"ios": "https://dc.lft.to/lastmile_qr_scan", "android": "https://dc.lft.to/lastmile_qr_scan"}, "is_reserved": 0}, {"lon": -77.02782766666667, "bike_id": "d5cc54b312fcb17afe841fcc79db0fe5", "lat": 38.927688333333336, "fusion_lon": 0.0, "fusion_lat": 0.0, "type": "electric_scooter", "name": "d5cc54b312fcb17afe841fcc79db0fe5", "is_disabled": 0, "rental_uris": {"ios": "https://dc.lft.to/lastmile_qr_scan", "android": "https://dc.lft.to/lastmile_qr_scan"}, "is_reserved": 0}, {"lon": -77.0376425, "bike_id": "56124b0d208ccf3f54e6e0887592b176", "lat": 38.9294675, "fusion_lon": 0.0, "fusion_lat": 0.0, "type": "electric_scooter", "name": "56124b0d208ccf3f54e6e0887592b176", "is_disabled": 0, "rental_uris": {"ios": "https://dc.lft.to/lastmile_qr_scan", "android": "https://dc.lft.to/lastmile_qr_scan"}, "is_reserved": 0}, {"lon": -77.005479, "bike_id": "2ec8cb535485ab58f1d380130ef979b8", "lat": 38.874591, "fusion_lon": 0.0, "fusion_lat": 0.0, "type": "electric_scooter", "name": "2ec8cb535485ab58f1d380130ef979b8", "is_disabled": 0, "rental_uris": {"ios": "https://dc.lft.to/lastmile_qr_scan", "android": "https://dc.lft.to/lastmile_qr_scan"}, "is_reserved": 0}, {"lon": -77.03800266666667, "bike_id": "bd48f2b4adca3197287e94fd525d1643", "lat": 38.910371166666664, "fusion_lon": 0.0, "fusion_lat": 0.0, "type": "electric_scooter", "name": "bd48f2b4adca3197287e94fd525d1643", "is_disabled": 0, "rental_uris": {"ios": "https://dc.lft.to/lastmile_qr_scan", "android": "https://dc.lft.to/lastmile_qr_scan"}, "is_reserved": 0}, {"lon": -77.00199566666667, "bike_id": "4aed1c71af0c4342a0bc510d518bb8bd", "lat": 38.902422333333334, "fusion_lon": 0.0, "fusion_lat": 0.0, "type": "electric_scooter", "name": "4aed1c71af0c4342a0bc510d518bb8bd", "is_disabled": 0, "rental_uris": {"ios": "https://dc.lft.to/lastmile_qr_scan", "android": "https://dc.lft.to/lastmile_qr_scan"}, "is_reserved": 0}, {"lon": -76.98522066666666, "bike_id": "bb5797819de192b16b3151c7a9f360fb", "lat": 38.866869666666666, "fusion_lon": 0.0, "fusion_lat": 0.0, "type": "electric_scooter", "name": "bb5797819de192b16b3151c7a9f360fb", "is_disabled": 0, "rental_uris": {"ios": "https://dc.lft.to/lastmile_qr_scan", "android": "https://dc.lft.to/lastmile_qr_scan"}, "is_reserved": 0}, {"lon": -76.98585533333333, "bike_id": "dd27b304b091a23feaeb2c0f084d6e57", "lat": 38.866907166666664, "fusion_lon": 0.0, "fusion_lat": 0.0, "type": "electric_scooter", "name": "dd27b304b091a23feaeb2c0f084d6e57", "is_disabled": 0, "rental_uris": {"ios": "https://dc.lft.to/lastmile_qr_scan", "android": "https://dc.lft.to/lastmile_qr_scan"}, "is_reserved": 0}, {"lon": -77.03956183333334, "bike_id": "a718284bfcf5b3d6a938fe551b297847", "lat": 38.91560283333333, "fusion_lon": 0.0, "fusion_lat": 0.0, "type": "electric_scooter", "name": "a718284bfcf5b3d6a938fe551b297847", "is_disabled": 0, "rental_uris": {"ios": "https://dc.lft.to/lastmile_qr_scan", "android": "https://dc.lft.to/lastmile_qr_scan"}, "is_reserved": 0}, {"lon": -77.026801, "bike_id": "9728bad0c7cb9ca2fed1c1cd25845096", "lat": 38.902389166666666, "fusion_lon": 0.0, "fusion_lat": 0.0, "type": "electric_scooter", "name": "9728bad0c7cb9ca2fed1c1cd25845096", "is_disabled": 0, "rental_uris": {"ios": "https://dc.lft.to/lastmile_qr_scan", "android": "https://dc.lft.to/lastmile_qr_scan"}, "is_reserved": 0}, {"lon": -77.11575483333333, "bike_id": "4ce66cacfe461ceebb6285935b177188", "lat": 38.99343116666667, "fusion_lon": 0.0, "fusion_lat": 0.0, "type": "electric_bike", "name": "4ce66cacfe461ceebb6285935b177188", "is_disabled": 0, "rental_uris": {"ios": "https://dc.lft.to/lastmile_qr_scan", "android": "https://dc.lft.to/lastmile_qr_scan"}, "is_reserved": 0}, {"lon": -77.02919433333334, "bike_id": "a8c0e0def52b13583870089d0ee94c4e", "lat": 38.9169635, "fusion_lon": 0.0, "fusion_lat": 0.0, "type": "electric_scooter", "name": "a8c0e0def52b13583870089d0ee94c4e", "is_disabled": 0, "rental_uris": {"ios": "https://dc.lft.to/lastmile_qr_scan", "android": "https://dc.lft.to/lastmile_qr_scan"}, "is_reserved": 0}, {"lon": -77.07386833333334, "bike_id": "5c85cdfa80af90e8d9bd6e2befbea07f", "lat": 38.96215133333333, "fusion_lon": 0.0, "fusion_lat": 0.0, "type": "electric_scooter", "name": "5c85cdfa80af90e8d9bd6e2befbea07f", "is_disabled": 0, "rental_uris": {"ios": "https://dc.lft.to/lastmile_qr_scan", "android": "https://dc.lft.to/lastmile_qr_scan"}, "is_reserved": 0}, {"lon": -77.02555033333333, "bike_id": "40a2a21655a6daace1e644b19c48c555", "lat": 38.90958633333334, "fusion_lon": 0.0, "fusion_lat": 0.0, "type": "electric_scooter", "name": "40a2a21655a6daace1e644b19c48c555", "is_disabled": 0, "rental_uris": {"ios": "https://dc.lft.to/lastmile_qr_scan", "android": "https://dc.lft.to/lastmile_qr_scan"}, "is_reserved": 0}, {"lon": -77.009572, "bike_id": "a485b917dd4ecae97724985cbeed3063", "lat": 38.953442, "fusion_lon": 0.0, "fusion_lat": 0.0, "type": "electric_bike", "name": "a485b917dd4ecae97724985cbeed3063", "is_disabled": 0, "rental_uris": {"ios": "https://dc.lft.to/lastmile_qr_scan", "android": "https://dc.lft.to/lastmile_qr_scan"}, "is_reserved": 0}, {"lon": -77.12651266666667, "bike_id": "55dfed9b630260679a20bb15dc0b325c", "lat": 38.81513433333333, "fusion_lon": 0.0, "fusion_lat": 0.0, "type": "electric_bike", "name": "55dfed9b630260679a20bb15dc0b325c", "is_disabled": 0, "rental_uris": {"ios": "https://dc.lft.to/lastmile_qr_scan", "android": "https://dc.lft.to/lastmile_qr_scan"}, "is_reserved": 0}, {"lon": -77.04632433333333, "bike_id": "0536dd43497ad58b6dd3a3d5797b9cf0", "lat": 38.91904783333333, "fusion_lon": 0.0, "fusion_lat": 0.0, "type": "electric_scooter", "name": "0536dd43497ad58b6dd3a3d5797b9cf0", "is_disabled": 0, "rental_uris": {"ios": "https://dc.lft.to/lastmile_qr_scan", "android": "https://dc.lft.to/lastmile_qr_scan"}, "is_reserved": 0}, {"lon": -77.07162516666666, "bike_id": "0ec374e12193aae87948f8262df69227", "lat": 38.9077345, "fusion_lon": 0.0, "fusion_lat": 0.0, "type": "electric_scooter", "name": "0ec374e12193aae87948f8262df69227", "is_disabled": 0, "rental_uris": {"ios": "https://dc.lft.to/lastmile_qr_scan", "android": "https://dc.lft.to/lastmile_qr_scan"}, "is_reserved": 0}, {"lon": -77.03836633333333, "bike_id": "1029bfcf30968584903ec475e8f88de2", "lat": 38.91042616666667, "fusion_lon": 0.0, "fusion_lat": 0.0, "type": "electric_scooter", "name": "1029bfcf30968584903ec475e8f88de2", "is_disabled": 0, "rental_uris": {"ios": "https://dc.lft.to/lastmile_qr_scan", "android": "https://dc.lft.to/lastmile_qr_scan"}, "is_reserved": 0}, {"lon": -76.933773, "bike_id": "32b598fb13f0db4122d0cd787204806b", "lat": 38.910322666666666, "fusion_lon": 0.0, "fusion_lat": 0.0, "type": "electric_scooter", "name": "32b598fb13f0db4122d0cd787204806b", "is_disabled": 0, "rental_uris": {"ios": "https://dc.lft.to/lastmile_qr_scan", "android": "https://dc.lft.to/lastmile_qr_scan"}, "is_reserved": 0}, {"lon": -77.02679183333333, "bike_id": "0704b7f5011375987261cfc2afce5514", "lat": 38.943279, "fusion_lon": 0.0, "fusion_lat": 0.0, "type": "electric_scooter", "name": "0704b7f5011375987261cfc2afce5514", "is_disabled": 0, "rental_uris": {"ios": "https://dc.lft.to/lastmile_qr_scan", "android": "https://dc.lft.to/lastmile_qr_scan"}, "is_reserved": 0}, {"lon": -76.93356116666666, "bike_id": "4059d318986a0bf1e5f7053279745898", "lat": 38.898926, "fusion_lon": 0.0, "fusion_lat": 0.0, "type": "electric_scooter", "name": "4059d318986a0bf1e5f7053279745898", "is_disabled": 0, "rental_uris": {"ios": "https://dc.lft.to/lastmile_qr_scan", "android": "https://dc.lft.to/lastmile_qr_scan"}, "is_reserved": 0}, {"lon": -77.04443316666666, "bike_id": "3c000a2f4952c81856b1e674f36cafd4", "lat": 38.918883, "fusion_lon": 0.0, "fusion_lat": 0.0, "type": "electric_scooter", "name": "3c000a2f4952c81856b1e674f36cafd4", "is_disabled": 0, "rental_uris": {"ios": "https://dc.lft.to/lastmile_qr_scan", "android": "https://dc.lft.to/lastmile_qr_scan"}, "is_reserved": 0}, {"lon": -76.9818355, "bike_id": "1eacc0fa1a859e914739919064cc4638", "lat": 38.926044, "fusion_lon": 0.0, "fusion_lat": 0.0, "type": "electric_scooter", "name": "1eacc0fa1a859e914739919064cc4638", "is_disabled": 0, "rental_uris": {"ios": "https://dc.lft.to/lastmile_qr_scan", "android": "https://dc.lft.to/lastmile_qr_scan"}, "is_reserved": 0}, {"lon": -76.98554683333333, "bike_id": "ede66a74d677b1b8bc11e6b546014fb0", "lat": 38.89952183333333, "fusion_lon": 0.0, "fusion_lat": 0.0, "type": "electric_scooter", "name": "ede66a74d677b1b8bc11e6b546014fb0", "is_disabled": 0, "rental_uris": {"ios": "https://dc.lft.to/lastmile_qr_scan", "android": "https://dc.lft.to/lastmile_qr_scan"}, "is_reserved": 0}, {"lon": -77.03209516666666, "bike_id": "670257af5d1b38721aceaf818e33b572", "lat": 38.911997666666664, "fusion_lon": 0.0, "fusion_lat": 0.0, "type": "electric_scooter", "name": "670257af5d1b38721aceaf818e33b572", "is_disabled": 0, "rental_uris": {"ios": "https://dc.lft.to/lastmile_qr_scan", "android": "https://dc.lft.to/lastmile_qr_scan"}, "is_reserved": 0}, {"lon": -76.991073, "bike_id": "c2551cf9eac40d1cfdd016d7b6f811c1", "lat": 38.90321866666667, "fusion_lon": 0.0, "fusion_lat": 0.0, "type": "electric_scooter", "name": "c2551cf9eac40d1cfdd016d7b6f811c1", "is_disabled": 0, "rental_uris": {"ios": "https://dc.lft.to/lastmile_qr_scan", "android": "https://dc.lft.to/lastmile_qr_scan"}, "is_reserved": 0}, {"lon": -77.01304216666666, "bike_id": "dccff3a9b32517b6fd5c3b7b75bd6249", "lat": 38.94327633333333, "fusion_lon": 0.0, "fusion_lat": 0.0, "type": "electric_scooter", "name": "dccff3a9b32517b6fd5c3b7b75bd6249", "is_disabled": 0, "rental_uris": {"ios": "https://dc.lft.to/lastmile_qr_scan", "android": "https://dc.lft.to/lastmile_qr_scan"}, "is_reserved": 0}, {"lon": -77.033008, "bike_id": "10fc5dcce8dc8d7e4549386073621bcf", "lat": 38.907293833333334, "fusion_lon": 0.0, "fusion_lat": 0.0, "type": "electric_scooter", "name": "10fc5dcce8dc8d7e4549386073621bcf", "is_disabled": 0, "rental_uris": {"ios": "https://dc.lft.to/lastmile_qr_scan", "android": "https://dc.lft.to/lastmile_qr_scan"}, "is_reserved": 0}, {"lon": -77.02899433333333, "bike_id": "0cbf19e8c55fd9075b6106bdee1ec688", "lat": 38.917020666666666, "fusion_lon": 0.0, "fusion_lat": 0.0, "type": "electric_scooter", "name": "0cbf19e8c55fd9075b6106bdee1ec688", "is_disabled": 0, "rental_uris": {"ios": "https://dc.lft.to/lastmile_qr_scan", "android": "https://dc.lft.to/lastmile_qr_scan"}, "is_reserved": 0}, {"lon": -77.0057655, "bike_id": "4ebd71a3556b73ba66e5ea512a4e0388", "lat": 38.8359435, "fusion_lon": 0.0, "fusion_lat": 0.0, "type": "electric_scooter", "name": "4ebd71a3556b73ba66e5ea512a4e0388", "is_disabled": 0, "rental_uris": {"ios": "https://dc.lft.to/lastmile_qr_scan", "android": "https://dc.lft.to/lastmile_qr_scan"}, "is_reserved": 0}, {"lon": -77.04470033333334, "bike_id": "b20f1f3372e516924c296a31d74c4a7f", "lat": 38.91113816666667, "fusion_lon": 0.0, "fusion_lat": 0.0, "type": "electric_bike", "name": "b20f1f3372e516924c296a31d74c4a7f", "is_disabled": 0, "rental_uris": {"ios": "https://dc.lft.to/lastmile_qr_scan", "android": "https://dc.lft.to/lastmile_qr_scan"}, "is_reserved": 0}, {"lon": -76.96092483333334, "bike_id": "1222e37013e7ce86b54cede2bc87b184", "lat": 38.918633166666666, "fusion_lon": 0.0, "fusion_lat": 0.0, "type": "electric_bike", "name": "1222e37013e7ce86b54cede2bc87b184", "is_disabled": 0, "rental_uris": {"ios": "https://dc.lft.to/lastmile_qr_scan", "android": "https://dc.lft.to/lastmile_qr_scan"}, "is_reserved": 0}, {"lon": -77.03214133333333, "bike_id": "ae4bc1a4fa5fcdbcedd94eae244fa5b8", "lat": 38.92885833333333, "fusion_lon": 0.0, "fusion_lat": 0.0, "type": "electric_scooter", "name": "ae4bc1a4fa5fcdbcedd94eae244fa5b8", "is_disabled": 0, "rental_uris": {"ios": "https://dc.lft.to/lastmile_qr_scan", "android": "https://dc.lft.to/lastmile_qr_scan"}, "is_reserved": 0}, {"lon": -77.048736, "bike_id": "140dd8c57da5aa5766b5e7013ce03ee1", "lat": 38.892262833333334, "fusion_lon": 0.0, "fusion_lat": 0.0, "type": "electric_scooter", "name": "140dd8c57da5aa5766b5e7013ce03ee1", "is_disabled": 0, "rental_uris": {"ios": "https://dc.lft.to/lastmile_qr_scan", "android": "https://dc.lft.to/lastmile_qr_scan"}, "is_reserved": 0}, {"lon": -77.072296, "bike_id": "3ace9add301c61ecc1e74800ba7b3c47", "lat": 38.96814616666666, "fusion_lon": 0.0, "fusion_lat": 0.0, "type": "electric_bike", "name": "3ace9add301c61ecc1e74800ba7b3c47", "is_disabled": 0, "rental_uris": {"ios": "https://dc.lft.to/lastmile_qr_scan", "android": "https://dc.lft.to/lastmile_qr_scan"}, "is_reserved": 0}, {"lon": -77.070039, "bike_id": "b9694a9a288d09b6c375db1e56a8b014", "lat": 38.95853283333334, "fusion_lon": 0.0, "fusion_lat": 0.0, "type": "electric_scooter", "name": "b9694a9a288d09b6c375db1e56a8b014", "is_disabled": 0, "rental_uris": {"ios": "https://dc.lft.to/lastmile_qr_scan", "android": "https://dc.lft.to/lastmile_qr_scan"}, "is_reserved": 0}, {"lon": -77.04430533333333, "bike_id": "eaa27199ac7103cae7bc41b5bca99c72", "lat": 38.9095995, "fusion_lon": 0.0, "fusion_lat": 0.0, "type": "electric_scooter", "name": "eaa27199ac7103cae7bc41b5bca99c72", "is_disabled": 0, "rental_uris": {"ios": "https://dc.lft.to/lastmile_qr_scan", "android": "https://dc.lft.to/lastmile_qr_scan"}, "is_reserved": 0}, {"lon": -76.99369833333333, "bike_id": "952a4031f6a50a2c10dec965c3033c9b", "lat": 38.971852, "fusion_lon": 0.0, "fusion_lat": 0.0, "type": "electric_bike", "name": "952a4031f6a50a2c10dec965c3033c9b", "is_disabled": 0, "rental_uris": {"ios": "https://dc.lft.to/lastmile_qr_scan", "android": "https://dc.lft.to/lastmile_qr_scan"}, "is_reserved": 0}, {"lon": -77.01192666666667, "bike_id": "df21345485639212e03432fbed226467", "lat": 38.90004116666667, "fusion_lon": 0.0, "fusion_lat": 0.0, "type": "electric_scooter", "name": "df21345485639212e03432fbed226467", "is_disabled": 0, "rental_uris": {"ios": "https://dc.lft.to/lastmile_qr_scan", "android": "https://dc.lft.to/lastmile_qr_scan"}, "is_reserved": 0}, {"lon": -77.06252533333334, "bike_id": "f374ca9f1a823239f1a79e6da0468eed", "lat": 38.9441695, "fusion_lon": 0.0, "fusion_lat": 0.0, "type": "electric_scooter", "name": "f374ca9f1a823239f1a79e6da0468eed", "is_disabled": 0, "rental_uris": {"ios": "https://dc.lft.to/lastmile_qr_scan", "android": "https://dc.lft.to/lastmile_qr_scan"}, "is_reserved": 0},