{"data": {"bikes": [{"lat": 38.92743933333333, "is_disabled": 0, "type": "electric_scooter", "lon": -77.02534533333333, "bike_id": "f6c46cad8794c911900e54fdde7ac758", "fusion_lat": 0.0, "name": "f6c46cad8794c911900e54fdde7ac758", "is_reserved": 0, "rental_uris": {"android": "https://dc.lft.to/lastmile_qr_scan", "ios": "https://dc.lft.to/lastmile_qr_scan"}, "fusion_lon": 0.0}, {"lat": 38.8991465, "is_disabled": 0, "type": "electric_scooter", "lon": -76.93352283333333, "bike_id": "5025acddacb95e19b51a20635f0aa54d", "fusion_lat": 0.0, "name": "5025acddacb95e19b51a20635f0aa54d", "is_reserved": 0, "rental_uris": {"android": "https://dc.lft.to/lastmile_qr_scan", "ios": "https://dc.lft.to/lastmile_qr_scan"}, "fusion_lon": 0.0}, {"lat": 38.93059383333333, "is_disabled": 0, "type": "electric_scooter", "lon": -77.04180683333334, "bike_id": "6e385d522690686e80a75288abd2acab", "fusion_lat": 0.0, "name": "6e385d522690686e80a75288abd2acab", "is_reserved": 0, "rental_uris": {"android": "https://dc.lft.to/lastmile_qr_scan", "ios": "https://dc.lft.to/lastmile_qr_scan"}, "fusion_lon": 0.0}, {"lat": 38.90578333333333, "is_disabled": 0, "type": "electric_scooter", "lon": -77.06276283333334, "bike_id": "1fbe201a382002b4a12b9244ffc66c06", "fusion_lat": 0.0, "name": "1fbe201a382002b4a12b9244ffc66c06", "is_reserved": 0, "rental_uris": {"android": "https://dc.lft.to/lastmile_qr_scan", "ios": "https://dc.lft.to/lastmile_qr_scan"}, "fusion_lon": 0.0}, {"lat": 38.89265866666667, "is_disabled": 0, "type": "electric_scooter", "lon": -77.0321035, "bike_id": "3ed9ed3d9abf38707439c6ff554ac3f5", "fusion_lat": 0.0, "name": "3ed9ed3d9abf38707439c6ff554ac3f5", "is_reserved": 0, "rental_uris": {"android": "https://dc.lft.to/lastmile_qr_scan", "ios": "https://dc.lft.to/lastmile_qr_scan"}, "fusion_lon": 0.0}, {"lat": 38.904333333333334, "is_disabled": 0, "type": "electric_scooter", "lon": -76.98219283333333, "bike_id": "071acd1eaf4fe102c5c642968064c7c6", "fusion_lat": 0.0, "name": "071acd1eaf4fe102c5c642968064c7c6", "is_reserved": 0, "rental_uris": {"android": "https://dc.lft.to/lastmile_qr_scan", "ios": "https://dc.lft.to/lastmile_qr_scan"}, "fusion_lon": 0.0}, {"lat": 38.900471, "is_disabled": 0, "type": "electric_scooter", "lon": -76.99383483333334, "bike_id": "06dc6fe37b4cf34a608cb0bb1558b393", "fusion_lat": 0.0, "name": "06dc6fe37b4cf34a608cb0bb1558b393", "is_reserved": 0, "rental_uris": {"android": "https://dc.lft.to/lastmile_qr_scan", "ios": "https://dc.lft.to/lastmile_qr_scan"}, "fusion_lon": 0.0}, {"lat": 38.891097, "is_disabled": 0, "type": "electric_scooter", "lon": -76.94388483333333, "bike_id": "0fba06693f64ae0094c4341c32163ccc", "fusion_lat": 0.0, "name": "0fba06693f64ae0094c4341c32163ccc", "is_reserved": 0, "rental_uris": {"android": "https://dc.lft.to/lastmile_qr_scan", "ios": "https://dc.lft.to/lastmile_qr_scan"}, "fusion_lon": 0.0}, {"lat": 38.908970333333336, "is_disabled": 0, "type": "electric_scooter", "lon": -77.00258416666667, "bike_id": "e9f5b30bb5b80c10b5c7dbbd19af6e37", "fusion_lat": 0.0, "name": "e9f5b30bb5b80c10b5c7dbbd19af6e37", "is_reserved": 0, "rental_uris": {"android": "https://dc.lft.to/lastmile_qr_scan", "ios": "https://dc.lft.to/lastmile_qr_scan"}, "fusion_lon": 0.0}, {"lat": 38.9062095, "is_disabled": 0, "type": "electric_scooter", "lon": -76.98990983333333, "bike_id": "c9e4fea0ac5bd7ca8bb708818c64a47c", "fusion_lat": 0.0, "name": "c9e4fea0ac5bd7ca8bb708818c64a47c", "is_reserved": 0, "rental_uris": {"android": "https://dc.lft.to/lastmile_qr_scan", "ios": "https://dc.lft.to/lastmile_qr_scan"}, "fusion_lon": 0.0}, {"lat": 38.919637333333334, "is_disabled": 0, "type": "electric_scooter", "lon": -77.02499266666666, "bike_id": "ef9baf6901df734181ff181252aaa8e6", "fusion_lat": 0.0, "name": "ef9baf6901df734181ff181252aaa8e6", "is_reserved": 0, "rental_uris": {"android": "https://dc.lft.to/lastmile_qr_scan", "ios": "https://dc.lft.to/lastmile_qr_scan"}, "fusion_lon": 0.0}, {"lat": 38.92269866666667, "is_disabled": 0, "type": "electric_scooter", "lon": -77.04236666666667, "bike_id": "e486902ebd8cdda5ba4e5cb3c2dede6b", "fusion_lat": 0.0, "name": "e486902ebd8cdda5ba4e5cb3c2dede6b", "is_reserved": 0, "rental_uris": {"android": "https://dc.lft.to/lastmile_qr_scan", "ios": "https://dc.lft.to/lastmile_qr_scan"}, "fusion_lon": 0.0}, {"lat": 38.8590155, "is_disabled": 0, "type": "electric_scooter", "lon": -76.99153033333333, "bike_id": "073db65f04f6441406206c62acbe3fca", "fusion_lat": 0.0, "name": "073db65f04f6441406206c62acbe3fca", "is_reserved": 0, "rental_uris": {"android": "https://dc.lft.to/lastmile_qr_scan", "ios": "https://dc.lft.to/lastmile_qr_scan"}, "fusion_lon": 0.0}, {"lat": 38.915834833333335, "is_disabled": 0, "type": "electric_scooter", "lon": -77.03207416666666, "bike_id": "9505f9a2869d432fe592b18ec6ff2729", "fusion_lat": 0.0, "name": "9505f9a2869d432fe592b18ec6ff2729", "is_reserved": 0, "rental_uris": {"android": "https://dc.lft.to/lastmile_qr_scan", "ios": "https://dc.lft.to/lastmile_qr_scan"}, "fusion_lon": 0.0}, {"lat": 38.95893616666667, "is_disabled": 0, "type": "electric_bike", "lon": -76.92482283333334, "bike_id": "f4b96813846e6f0004e482e723cd4751", "fusion_lat": 0.0, "name": "f4b96813846e6f0004e482e723cd4751", "is_reserved": 0, "rental_uris": {"android": "https://dc.lft.to/lastmile_qr_scan", "ios": "https://dc.lft.to/lastmile_qr_scan"}, "fusion_lon": 0.0}, {"lat": 38.988233666666666, "is_disabled": 0, "type": "electric_bike", "lon": -76.99654166666667, "bike_id": "d8b26b3feed8dc1bfeebbf410a6e70ae", "fusion_lat": 0.0, "name": "d8b26b3feed8dc1bfeebbf410a6e70ae", "is_reserved": 0, "rental_uris": {"android": "https://dc.lft.to/lastmile_qr_scan", "ios": "https://dc.lft.to/lastmile_qr_scan"}, "fusion_lon": 0.0}, {"lat": 38.902669333333336, "is_disabled": 0, "type": "electric_scooter", "lon": -77.03482983333333, "bike_id": "4969e9f25d81f0168cd0b8ee4693d398", "fusion_lat": 0.0, "name": "4969e9f25d81f0168cd0b8ee4693d398", "is_reserved": 0, "rental_uris": {"android": "https://dc.lft.to/lastmile_qr_scan", "ios": "https://dc.lft.to/lastmile_qr_scan"}, "fusion_lon": 0.0}, {"lat": 38.91712, "is_disabled": 0, "type": "electric_scooter", "lon": -77.0323085, "bike_id": "04f9b2bcc9b630535212efb803523487", "fusion_lat": 0.0, "name": "04f9b2bcc9b630535212efb803523487", "is_reserved": 0, "rental_uris": {"android": "https://dc.lft.to/lastmile_qr_scan", "ios": "https://dc.lft.to/lastmile_qr_scan"}, "fusion_lon": 0.0}, {"lat": 38.916850833333335, "is_disabled": 0, "type": "electric_scooter", "lon": -77.00200566666666, "bike_id": "9e8bd8369c8edeb14cc690800deb7532", "fusion_lat": 0.0, "name": "9e8bd8369c8edeb14cc690800deb7532", "is_reserved": 0, "rental_uris": {"android": "https://dc.lft.to/lastmile_qr_scan", "ios": "https://dc.lft.to/lastmile_qr_scan"}, "fusion_lon": 0.0}, {"lat": 38.902125833333336, "is_disabled": 0, "type": "electric_scooter", "lon": -77.05319, "bike_id": "1608a2e36c8b025fe2d2c4942eed7285", "fusion_lat": 0.0, "name": "1608a2e36c8b025fe2d2c4942eed7285", "is_reserved": 0, "rental_uris": {"android": "https://dc.lft.to/lastmile_qr_scan", "ios": "https://dc.lft.to/lastmile_qr_scan"}, "fusion_lon": 0.0}, {"lat": 38.883591333333335, "is_disabled": 0, "type": "electric_scooter", "lon": -76.94156266666667, "bike_id": "168072feb2f7dc5c325a0cce751cd1f4", "fusion_lat": 0.0, "name": "168072feb2f7dc5c325a0cce751cd1f4", "is_reserved": 0, "rental_uris": {"android": "https://dc.lft.to/lastmile_qr_scan", "ios": "https://dc.lft.to/lastmile_qr_scan"}, "fusion_lon": 0.0}, {"lat": 38.92559683333333, "is_disabled": 0, "type": "electric_scooter", "lon": -77.03773983333333, "bike_id": "a01a46cfc604c4ad19b000a6d9fdbb3d", "fusion_lat": 0.0, "name": "a01a46cfc604c4ad19b000a6d9fdbb3d", "is_reserved": 0, "rental_uris": {"android": "https://dc.lft.to/lastmile_qr_scan", "ios": "https://dc.lft.to/lastmile_qr_scan"}, "fusion_lon": 0.0}, {"lat": 38.91764966666667, "is_disabled": 0, "type": "electric_scooter", "lon": -76.97619666666667, "bike_id": "8263614a5f89ab5ae4f3edf65865548c", "fusion_lat": 0.0, "name": "8263614a5f89ab5ae4f3edf65865548c", "is_reserved": 0, "rental_uris": {"android": "https://dc.lft.to/lastmile_qr_scan", "ios": "https://dc.lft.to/lastmile_qr_scan"}, "fusion_lon": 0.0}, {"lat": 38.926266166666665, "is_disabled": 0, "type": "electric_scooter", "lon": -77.0379165, "bike_id": "02431f10c3f4100e0e07fbcbbc40234d", "fusion_lat": 0.0, "name": "02431f10c3f4100e0e07fbcbbc40234d", "is_reserved": 0, "rental_uris": {"android": "https://dc.lft.to/lastmile_qr_scan", "ios": "https://dc.lft.to/lastmile_qr_scan"}, "fusion_lon": 0.0}, {"lat": 38.9411925, "is_disabled": 0, "type": "electric_scooter", "lon": -77.00083766666667, "bike_id": "f62a87e7d3f3f0bbeef6f725f004613e", "fusion_lat": 0.0, "name": "f62a87e7d3f3f0bbeef6f725f004613e", "is_reserved": 0, "rental_uris": {"android": "https://dc.lft.to/lastmile_qr_scan", "ios": "https://dc.lft.to/lastmile_qr_scan"}, "fusion_lon": 0.0}, {"lat": 38.905807333333335, "is_disabled": 0, "type": "electric_scooter", "lon": -77.04702183333333, "bike_id": "d41c84aa0df06d73342cf0f9777eaa31", "fusion_lat": 0.0, "name": "d41c84aa0df06d73342cf0f9777eaa31", "is_reserved": 0, "rental_uris": {"android": "https://dc.lft.to/lastmile_qr_scan", "ios": "https://dc.lft.to/lastmile_qr_scan"}, "fusion_lon": 0.0}, {"lat": 38.92756883333333, "is_disabled": 0, "type": "electric_scooter", "lon": -77.03215433333334, "bike_id": "ece51d5fea75fb1cf33ffe44d1666c59", "fusion_lat": 0.0, "name": "ece51d5fea75fb1cf33ffe44d1666c59", "is_reserved": 0, "rental_uris": {"android": "https://dc.lft.to/lastmile_qr_scan", "ios": "https://dc.lft.to/lastmile_qr_scan"}, "fusion_lon": 0.0}, {"lat": 38.920064833333335, "is_disabled": 0, "type": "electric_scooter", "lon": -77.03875066666667, "bike_id": "514f690abbef5ef82ca2068b720660ca", "fusion_lat": 0.0, "name": "514f690abbef5ef82ca2068b720660ca", "is_reserved": 0, "rental_uris": {"android": "https://dc.lft.to/lastmile_qr_scan", "ios": "https://dc.lft.to/lastmile_qr_scan"}, "fusion_lon": 0.0}, {"lat": 38.91725366666667, "is_disabled": 0, "type": "electric_scooter", "lon": -77.024079, "bike_id": "1163d12375272066db9c15a28b3a358d", "fusion_lat": 0.0, "name": "1163d12375272066db9c15a28b3a358d", "is_reserved": 0, "rental_uris": {"android": "https://dc.lft.to/lastmile_qr_scan", "ios": "https://dc.lft.to/lastmile_qr_scan"}, "fusion_lon": 0.0}, {"lat": 38.9090315, "is_disabled": 0, "type": "electric_scooter", "lon": -77.04307416666667, "bike_id": "b788e2e297d47f9f98f8734fc1e94909", "fusion_lat": 0.0, "name": "b788e2e297d47f9f98f8734fc1e94909", "is_reserved": 0, "rental_uris": {"android": "https://dc.lft.to/lastmile_qr_scan", "ios": "https://dc.lft.to/lastmile_qr_scan"}, "fusion_lon": 0.0}, {"lat": 38.939566666666664, "is_disabled": 0, "type": "electric_bike", "lon": -77.3609085, "bike_id": "82bb78133be8046820721abc8b275695", "fusion_lat": 0.0, "name": "82bb78133be8046820721abc8b275695", "is_reserved": 0, "rental_uris": {"android": "https://dc.lft.to/lastmile_qr_scan", "ios": "https://dc.lft.to/lastmile_qr_scan"}, "fusion_lon": 0.0}, {"lat": 38.95285416666667, "is_disabled": 0, "type": "electric_bike", "lon": -76.9459645, "bike_id": "3e4c60356ddcd85724b88cde43532036", "fusion_lat": 0.0, "name": "3e4c60356ddcd85724b88cde43532036", "is_reserved": 0, "rental_uris": {"android": "https://dc.lft.to/lastmile_qr_scan", "ios": "https://dc.lft.to/lastmile_qr_scan"}, "fusion_lon": 0.0}, {"lat": 38.91704516666667, "is_disabled": 0, "type": "electric_scooter", "lon": -77.00116333333334, "bike_id": "77fb85de13e3433265822f3ac4a45a4d", "fusion_lat": 0.0, "name": "77fb85de13e3433265822f3ac4a45a4d", "is_reserved": 0, "rental_uris": {"android": "https://dc.lft.to/lastmile_qr_scan", "ios": "https://dc.lft.to/lastmile_qr_scan"}, "fusion_lon": 0.0}, {"lat": 38.895565, "is_disabled": 0, "type": "electric_scooter", "lon": -76.93080716666667, "bike_id": "2a240900c4d7a52e8d3026feeac6529f", "fusion_lat": 0.0, "name": "2a240900c4d7a52e8d3026feeac6529f", "is_reserved": 0, "rental_uris": {"android": "https://dc.lft.to/lastmile_qr_scan", "ios": "https://dc.lft.to/lastmile_qr_scan"}, "fusion_lon": 0.0}, {"lat": 38.95630366666666, "is_disabled": 0, "type": "electric_bike", "lon": -77.02303216666667, "bike_id": "9753a59ed46014b76fe6b0ea945e08d6", "fusion_lat": 0.0, "name": "9753a59ed46014b76fe6b0ea945e08d6", "is_reserved": 0, "rental_uris": {"android": "https://dc.lft.to/lastmile_qr_scan", "ios": "https://dc.lft.to/lastmile_qr_scan"}, "fusion_lon": 0.0}, {"lat": 38.9310085, "is_disabled": 0, "type": "electric_scooter", "lon": -77.02439283333334, "bike_id": "fcf45db8611bc85690f1274e8400e2ec", "fusion_lat": 0.0, "name": "fcf45db8611bc85690f1274e8400e2ec", "is_reserved": 0, "rental_uris": {"android": "https://dc.lft.to/lastmile_qr_scan", "ios": "https://dc.lft.to/lastmile_qr_scan"}, "fusion_lon": 0.0}, {"lat": 38.88115116666667, "is_disabled": 0, "type": "electric_scooter", "lon": -77.01642916666667, "bike_id": "102758185aae247c864b0b6c4ab27a13", "fusion_lat": 0.0, "name": "102758185aae247c864b0b6c4ab27a13", "is_reserved": 0, "rental_uris": {"android": "https://dc.lft.to/lastmile_qr_scan", "ios": "https://dc.lft.to/lastmile_qr_scan"}, "fusion_lon": 0.0}, {"lat": 38.89990933333333, "is_disabled": 0, "type": "electric_scooter", "lon": -77.03322033333333, "bike_id": "5940971e9d3df8195c133556ca866c78", "fusion_lat": 0.0, "name": "5940971e9d3df8195c133556ca866c78", "is_reserved": 0, "rental_uris": {"android": "https://dc.lft.to/lastmile_qr_scan", "ios": "https://dc.lft.to/lastmile_qr_scan"}, "fusion_lon": 0.0}, {"lat": 38.8723245, "is_disabled": 0, "type": "electric_scooter", "lon": -77.01194733333334, "bike_id": "00127072e1064ecb24776e1226462b24", "fusion_lat": 0.0, "name": "00127072e1064ecb24776e1226462b24", "is_reserved": 0, "rental_uris": {"android": "https://dc.lft.to/lastmile_qr_scan", "ios": "https://dc.lft.to/lastmile_qr_scan"}, "fusion_lon": 0.0}, {"lat": 38.918351, "is_disabled": 0, "type": "electric_scooter", "lon": -77.0318665, "bike_id": "eaf09de398881f79f7f167aa3ecad2e4", "fusion_lat": 0.0, "name": "eaf09de398881f79f7f167aa3ecad2e4", "is_reserved": 0, "rental_uris": {"android": "https://dc.lft.to/lastmile_qr_scan", "ios": "https://dc.lft.to/lastmile_qr_scan"}, "fusion_lon": 0.0}, {"lat": 38.92618433333333, "is_disabled": 0, "type": "electric_scooter", "lon": -77.04417583333333, "bike_id": "b036153ff68bda72e1676220525e754d", "fusion_lat": 0.0, "name": "b036153ff68bda72e1676220525e754d", "is_reserved": 0, "rental_uris": {"android": "https://dc.lft.to/lastmile_qr_scan", "ios": "https://dc.lft.to/lastmile_qr_scan"}, "fusion_lon": 0.0}, {"lat": 38.96202183333333, "is_disabled": 0, "type": "electric_bike", "lon": -77.03517183333334, "bike_id": "341266ff6f99f342431249bb77e9ec17", "fusion_lat": 0.0, "name": "341266ff6f99f342431249bb77e9ec17", "is_reserved": 0, "rental_uris": {"android": "https://dc.lft.to/lastmile_qr_scan", "ios": "https://dc.lft.to/lastmile_qr_scan"}, "fusion_lon": 0.0}, {"lat": 38.901262333333335, "is_disabled": 0, "type": "electric_scooter", "lon": -77.003264, "bike_id": "7937bf78d5cccb94ba69d8fce0105b27", "fusion_lat": 0.0, "name": "7937bf78d5cccb94ba69d8fce0105b27", "is_reserved": 0, "rental_uris": {"android": "https://dc.lft.to/lastmile_qr_scan", "ios": "https://dc.lft.to/lastmile_qr_scan"}, "fusion_lon": 0.0}, {"lat": 38.89612066666667, "is_disabled": 0, "type": "electric_scooter", "lon": -76.95667866666666, "bike_id": "d34b35848c5801df52203aab38648072", "fusion_lat": 0.0, "name": "d34b35848c5801df52203aab38648072", "is_reserved": 0, "rental_uris": {"android": "https://dc.lft.to/lastmile_qr_scan", "ios": "https://dc.lft.to/lastmile_qr_scan"}, "fusion_lon": 0.0}, {"lat": 38.92882933333333, "is_disabled": 0, "type": "electric_scooter", "lon": -77.0387105, "bike_id": "a75a81bf4783be020944f656993be063", "fusion_lat": 0.0, "name": "a75a81bf4783be020944f656993be063", "is_reserved": 0, "rental_uris": {"android": "https://dc.lft.to/lastmile_qr_scan", "ios": "https://dc.lft.to/lastmile_qr_scan"}, "fusion_lon": 0.0}, {"lat": 38.913741333333334, "is_disabled": 0, "type": "electric_scooter", "lon": -77.03210383333334, "bike_id": "bb0a2126d7114679ecec5f36f2ffb0f6", "fusion_lat": 0.0, "name": "bb0a2126d7114679ecec5f36f2ffb0f6", "is_reserved": 0, "rental_uris": {"android": "https://dc.lft.to/lastmile_qr_scan", "ios": "https://dc.lft.to/lastmile_qr_scan"}, "fusion_lon": 0.0}, {"lat": 38.874022333333336, "is_disabled": 0, "type": "electric_scooter", "lon": -77.01455466666667, "bike_id": "7165a0f996a277d50126834f46c22f16", "fusion_lat": 0.0, "name": "7165a0f996a277d50126834f46c22f16", "is_reserved": 0, "rental_uris": {"android": "https://dc.lft.to/lastmile_qr_scan", "ios": "https://dc.lft.to/lastmile_qr_scan"}, "fusion_lon": 0.0}, {"lat": 38.94909216666667, "is_disabled": 0, "type": "electric_scooter", "lon": -77.06624416666666, "bike_id": "1be4848cd3dfcb4d428ae5628ebfd8ce", "fusion_lat": 0.0, "name": "1be4848cd3dfcb4d428ae5628ebfd8ce", "is_reserved": 0, "rental_uris": {"android": "https://dc.lft.to/lastmile_qr_scan", "ios": "https://dc.lft.to/lastmile_qr_scan"}, "fusion_lon": 0.0}, {"lat": 38.85317366666666, "is_disabled": 0, "type": "electric_scooter", "lon": -76.98022683333333, "bike_id": "a1d826fa058b74029b4649e3181946d4", "fusion_lat": 0.0, "name": "a1d826fa058b74029b4649e3181946d4", "is_reserved": 0, "rental_uris": {"android": "https://dc.lft.to/lastmile_qr_scan", "ios": "https://dc.lft.to/lastmile_qr_scan"}, "fusion_lon": 0.0}, {"lat": 38.88630416666667, "is_disabled": 0, "type": "electric_scooter", "lon": -77.02292933333334, "bike_id": "a0e64720c3804ca763aaf1e045919606", "fusion_lat": 0.0, "name": "a0e64720c3804ca763aaf1e045919606", "is_reserved": 0, "rental_uris": {"android": "https://dc.lft.to/lastmile_qr_scan", "ios": "https://dc.lft.to/lastmile_qr_scan"}, "fusion_lon": 0.0}, {"lat": 38.921032, "is_disabled": 0, "type": "electric_scooter", "lon": -77.0316985, "bike_id": "2be16374938b0941ae328717a7f8d88c", "fusion_lat": 0.0, "name": "2be16374938b0941ae328717a7f8d88c", "is_reserved": 0, "rental_uris": {"android": "https://dc.lft.to/lastmile_qr_scan", "ios": "https://dc.lft.to/lastmile_qr_scan"}, "fusion_lon": 0.0}, {"lat": 38.911063, "is_disabled": 0, "type": "electric_scooter", "lon": -77.02181083333333, "bike_id": "08c4b99153321fe292db01604a1db938", "fusion_lat": 0.0, "name": "08c4b99153321fe292db01604a1db938", "is_reserved": 0, "rental_uris": {"android": "https://dc.lft.to/lastmile_qr_scan", "ios": "https://dc.lft.to/lastmile_qr_scan"}, "fusion_lon": 0.0}, {"lat": 38.9385615, "is_disabled": 0, "type": "electric_scooter", "lon": -77.0247725, "bike_id": "887e38b625aa28d1d7bed948365e00ee", "fusion_lat": 0.0, "name": "887e38b625aa28d1d7bed948365e00ee", "is_reserved": 0, "rental_uris": {"android": "https://dc.lft.to/lastmile_qr_scan", "ios": "https://dc.lft.to/lastmile_qr_scan"}, "fusion_lon": 0.0}, {"lat": 39.015927833333336, "is_disabled": 0, "type": "electric_bike", "lon": -77.04428516666667, "bike_id": "f6e43def3b042b5049e544bbd8205a2a", "fusion_lat": 0.0, "name": "f6e43def3b042b5049e544bbd8205a2a", "is_reserved": 0, "rental_uris": {"android": "https://dc.lft.to/lastmile_qr_scan", "ios": "https://dc.lft.to/lastmile_qr_scan"}, "fusion_lon": 0.0}, {"lat": 38.91188316666667, "is_disabled": 0, "type": "electric_scooter", "lon": -77.0316165, "bike_id": "90620a9e3a86bc4cd29743d976ce7698", "fusion_lat": 0.0, "name": "90620a9e3a86bc4cd29743d976ce7698", "is_reserved": 0, "rental_uris": {"android": "https://dc.lft.to/lastmile_qr_scan", "ios": "https://dc.lft.to/lastmile_qr_scan"}, "fusion_lon": 0.0}, {"lat": 38.89123466666667, "is_disabled": 0, "type": "electric_scooter", "lon": -76.940918, "bike_id": "9ef5b9af352fd2a59799f71136539796", "fusion_lat": 0.0, "name": "9ef5b9af352fd2a59799f71136539796", "is_reserved": 0, "rental_uris": {"android": "https://dc.lft.to/lastmile_qr_scan", "ios": "https://dc.lft.to/lastmile_qr_scan"}, "fusion_lon": 0.0}, {"lat": 38.90458266666667, "is_disabled": 0, "type": "electric_scooter", "lon": -77.03257483333333, "bike_id": "26c9fffd4c2fa027c9cc4be88f5fd1ea", "fusion_lat": 0.0, "name": "26c9fffd4c2fa027c9cc4be88f5fd1ea", "is_reserved": 0, "rental_uris": {"android": "https://dc.lft.to/lastmile_qr_scan", "ios": "https://dc.lft.to/lastmile_qr_scan"}, "fusion_lon": 0.0}, {"lat": 38.935512333333335, "is_disabled": 0, "type": "electric_scooter", "lon": -77.058721, "bike_id": "a32f93b3da8e97202034195cc0f70420", "fusion_lat": 0.0, "name": "a32f93b3da8e97202034195cc0f70420", "is_reserved": 0, "rental_uris": {"android": "https://dc.lft.to/lastmile_qr_scan", "ios": "https://dc.lft.to/lastmile_qr_scan"}, "fusion_lon": 0.0}, {"lat": 38.8981705, "is_disabled": 0, "type": "electric_scooter", "lon": -77.04037783333334, "bike_id": "88b0c2c4485cc3b03ede6a6acc441f99", "fusion_lat": 0.0, "name": "88b0c2c4485cc3b03ede6a6acc441f99", "is_reserved": 0, "rental_uris": {"android": "https://dc.lft.to/lastmile_qr_scan", "ios": "https://dc.lft.to/lastmile_qr_scan"}, "fusion_lon": 0.0}, {"lat": 38.90023883333333, "is_disabled": 0, "type": "electric_scooter", "lon": -77.03966533333333, "bike_id": "3f816460ceb20d2e48c72feecb4c8e3a", "fusion_lat": 0.0, "name": "3f816460ceb20d2e48c72feecb4c8e3a", "is_reserved": 0, "rental_uris": {"android": "https://dc.lft.to/lastmile_qr_scan", "ios": "https://dc.lft.to/lastmile_qr_scan"}, "fusion_lon": 0.0}, {"lat": 38.96091883333333, "is_disabled": 0, "type": "electric_scooter", "lon": -77.0828815, "bike_id": "8363ff43cebe7ad7c05cf93e5cec6f54", "fusion_lat": 0.0, "name": "8363ff43cebe7ad7c05cf93e5cec6f54", "is_reserved": 0, "rental_uris": {"android": "https://dc.lft.to/lastmile_qr_scan", "ios": "https://dc.lft.to/lastmile_qr_scan"}, "fusion_lon": 0.0}, {"lat": 38.90010183333333, "is_disabled": 0, "type": "electric_scooter", "lon": -76.99848883333334, "bike_id": "548875281aace19db55b1dc072bd71e5", "fusion_lat": 0.0, "name": "548875281aace19db55b1dc072bd71e5", "is_reserved": 0, "rental_uris": {"android": "https://dc.lft.to/lastmile_qr_scan", "ios": "https://dc.lft.to/lastmile_qr_scan"}, "fusion_lon": 0.0}, {"lat": 38.91694283333333, "is_disabled": 0, "type": "electric_scooter", "lon": -77.0348075, "bike_id": "6fbeaab68b38722bbff347527c3e3c11", "fusion_lat": 0.0, "name": "6fbeaab68b38722bbff347527c3e3c11", "is_reserved": 0, "rental_uris": {"android": "https://dc.lft.to/lastmile_qr_scan", "ios": "https://dc.lft.to/lastmile_qr_scan"}, "fusion_lon": 0.0}, {"lat": 38.9228865, "is_disabled": 0, "type": "electric_scooter", "lon": -77.02963166666666, "bike_id": "0aae554c739e56ea802359070b1d29bb", "fusion_lat": 0.0, "name": "0aae554c739e56ea802359070b1d29bb", "is_reserved": 0, "rental_uris": {"android": "https://dc.lft.to/lastmile_qr_scan", "ios": "https://dc.lft.to/lastmile_qr_scan"}, "fusion_lon": 0.0}, {"lat": 38.91118216666667, "is_disabled": 0, "type": "electric_scooter", "lon": -77.03829266666666, "bike_id": "9df20f8aa35e6605c2833d5c0f9840c2", "fusion_lat": 0.0, "name": "9df20f8aa35e6605c2833d5c0f9840c2", "is_reserved": 0, "rental_uris": {"android": "https://dc.lft.to/lastmile_qr_scan", "ios": "https://dc.lft.to/lastmile_qr_scan"}, "fusion_lon": 0.0}, {"lat": 38.924212833333335, "is_disabled": 0, "type": "electric_scooter", "lon": -77.05180633333333, "bike_id": "ac979a33f60c66d0054f76bf23e261c1", "fusion_lat": 0.0, "name": "ac979a33f60c66d0054f76bf23e261c1", "is_reserved": 0, "rental_uris": {"android": "https://dc.lft.to/lastmile_qr_scan", "ios": "https://dc.lft.to/lastmile_qr_scan"}, "fusion_lon": 0.0}, {"lat": 38.950037333333334, "is_disabled": 0, "type": "electric_scooter", "lon": -77.015754, "bike_id": "eda069503b5513a21fce6d096ed45ded", "fusion_lat": 0.0, "name": "eda069503b5513a21fce6d096ed45ded", "is_reserved": 0, "rental_uris": {"android": "https://dc.lft.to/lastmile_qr_scan", "ios": "https://dc.lft.to/lastmile_qr_scan"}, "fusion_lon": 0.0}, {"lat": 38.90463833333333, "is_disabled": 0, "type": "electric_scooter", "lon": -77.03192983333334, "bike_id": "f2e888e59ca7f8c29ed9ba21b78ae86f", "fusion_lat": 0.0, "name": "f2e888e59ca7f8c29ed9ba21b78ae86f", "is_reserved": 0, "rental_uris": {"android": "https://dc.lft.to/lastmile_qr_scan", "ios": "https://dc.lft.to/lastmile_qr_scan"}, "fusion_lon": 0.0}, {"lat": 38.95270633333333, "is_disabled": 0, "type": "electric_bike", "lon": -77.06978316666667, "bike_id": "f69f13e0fc457576f01bcdb29afd1c76", "fusion_lat": 0.0, "name": "f69f13e0fc457576f01bcdb29afd1c76", "is_reserved": 0, "rental_uris": {"android": "https://dc.lft.to/lastmile_qr_scan", "ios": "https://dc.lft.to/lastmile_qr_scan"}, "fusion_lon": 0.0}, {"lat": 38.90207616666667, "is_disabled": 0, "type": "electric_scooter", "lon": -76.98205133333333, "bike_id": "5cab973825d5e624e0712fa1f803e815", "fusion_lat": 0.0, "name": "5cab973825d5e624e0712fa1f803e815", "is_reserved": 0, "rental_uris": {"android": "https://dc.lft.to/lastmile_qr_scan", "ios": "https://dc.lft.to/lastmile_qr_scan"}, "fusion_lon": 0.0}, {"lat": 38.906868833333334, "is_disabled": 0, "type": "electric_scooter", "lon": -77.03524366666667, "bike_id": "b48cb4365793a496da8bd607e719cd81", "fusion_lat": 0.0, "name": "b48cb4365793a496da8bd607e719cd81", "is_reserved": 0, "rental_uris": {"android": "https://dc.lft.to/lastmile_qr_scan", "ios": "https://dc.lft.to/lastmile_qr_scan"}, "fusion_lon": 0.0}, {"lat": 38.89683616666667, "is_disabled": 0, "type": "electric_scooter", "lon": -76.93607933333334, "bike_id": "6a9602d9943f60c1fa34f7760e3237e0", "fusion_lat": 0.0, "name": "6a9602d9943f60c1fa34f7760e3237e0", "is_reserved": 0, "rental_uris": {"android": "https://dc.lft.to/lastmile_qr_scan", "ios": "https://dc.lft.to/lastmile_qr_scan"}, "fusion_lon": 0.0}, {"lat": 38.90597566666667, "is_disabled": 0, "type": "electric_scooter", "lon": -77.02234583333333, "bike_id": "7bace123efab24778b2b5c253e5ecc51", "fusion_lat": 0.0, "name": "7bace123efab24778b2b5c253e5ecc51", "is_reserved": 0, "rental_uris": {"android": "https://dc.lft.to/lastmile_qr_scan", "ios": "https://dc.lft.to/lastmile_qr_scan"}, "fusion_lon": 0.0}, {"lat": 38.88721133333333, "is_disabled": 0, "type": "electric_scooter", "lon": -76.95485666666667, "bike_id": "0016523a34254dde10c541b8df9dba74", "fusion_lat": 0.0, "name": "0016523a34254dde10c541b8df9dba74", "is_reserved": 0, "rental_uris": {"android": "https://dc.lft.to/lastmile_qr_scan", "ios": "https://dc.lft.to/lastmile_qr_scan"}, "fusion_lon": 0.0}, {"lat": 38.913558, "is_disabled": 0, "type": "electric_scooter", "lon": -77.045811, "bike_id": "858a0d99660e6a73f4a2e13c6811fa3e", "fusion_lat": 0.0, "name": "858a0d99660e6a73f4a2e13c6811fa3e", "is_reserved": 0, "rental_uris": {"android": "https://dc.lft.to/lastmile_qr_scan", "ios": "https://dc.lft.to/lastmile_qr_scan"}, "fusion_lon": 0.0}, {"lat": 38.89615516666667, "is_disabled": 0, "type": "electric_scooter", "lon": -77.02192333333333, "bike_id": "566a73ecdedba823ae2f57b0143782c3", "fusion_lat": 0.0, "name": "566a73ecdedba823ae2f57b0143782c3", "is_reserved": 0, "rental_uris": {"android": "https://dc.lft.to/lastmile_qr_scan", "ios": "https://dc.lft.to/lastmile_qr_scan"}, "fusion_lon": 0.0}, {"lat": 38.900133333333336, "is_disabled": 0, "type": "electric_scooter", "lon": -77.000284, "bike_id": "e6c23ce90ef66d5e5c0715493c98d4ca", "fusion_lat": 0.0, "name": "e6c23ce90ef66d5e5c0715493c98d4ca", "is_reserved": 0, "rental_uris": {"android": "https://dc.lft.to/lastmile_qr_scan", "ios": "https://dc.lft.to/lastmile_qr_scan"}, "fusion_lon": 0.0}, {"lat": 38.87094316666666, "is_disabled": 0, "type": "electric_scooter", "lon": -77.01214233333333, "bike_id": "d4fc19fa89f0d0a2301f0d017626bb13", "fusion_lat": 0.0, "name": "d4fc19fa89f0d0a2301f0d017626bb13", "is_reserved": 0, "rental_uris": {"android": "https://dc.lft.to/lastmile_qr_scan", "ios": "https://dc.lft.to/lastmile_qr_scan"}, "fusion_lon": 0.0}, {"lat": 38.922752333333335, "is_disabled": 0, "type": "electric_scooter", "lon": -77.039074, "bike_id": "3dadc2d437efb7c18bf23ec9deb9b8d3", "fusion_lat": 0.0, "name": "3dadc2d437efb7c18bf23ec9deb9b8d3", "is_reserved": 0, "rental_uris": {"android": "https://dc.lft.to/lastmile_qr_scan", "ios": "https://dc.lft.to/lastmile_qr_scan"}, "fusion_lon": 0.0}, {"lat": 38.9012455, "is_disabled": 0, "type": "electric_scooter", "lon": -77.05917266666667, "bike_id": "5c842229c63f3b666de7a6ebe48add3d", "fusion_lat": 0.0, "name": "5c842229c63f3b666de7a6ebe48add3d", "is_reserved": 0, "rental_uris": {"android": "https://dc.lft.to/lastmile_qr_scan", "ios": "https://dc.lft.to/lastmile_qr_scan"}, "fusion_lon": 0.0}, {"lat": 38.93696633333333, "is_disabled": 0, "type": "electric_scooter", "lon": -77.02403, "bike_id": "0730f5b6409f4e572e576bab0fd94dbf", "fusion_lat": 0.0, "name": "0730f5b6409f4e572e576bab0fd94dbf", "is_reserved": 0, "rental_uris": {"android": "https://dc.lft.to/lastmile_qr_scan", "ios": "https://dc.lft.to/lastmile_qr_scan"}, "fusion_lon": 0.0}, {"lat": 38.95728883333334, "is_disabled": 0, "type": "electric_scooter", "lon": -77.02407333333333, "bike_id": "6c066394953803d73e1671c4bd18f384", "fusion_lat": 0.0, "name": "6c066394953803d73e1671c4bd18f384", "is_reserved": 0, "rental_uris": {"android": "https://dc.lft.to/lastmile_qr_scan", "ios": "https://dc.lft.to/lastmile_qr_scan"}, "fusion_lon": 0.0}, {"lat": 38.8925665, "is_disabled": 0, "type": "electric_scooter", "lon": -77.03206316666666, "bike_id": "4268e476dc72eb3cb5a4d34268dff568", "fusion_lat": 0.0, "name": "4268e476dc72eb3cb5a4d34268dff568", "is_reserved": 0, "rental_uris": {"android": "https://dc.lft.to/lastmile_qr_scan", "ios": "https://dc.lft.to/lastmile_qr_scan"}, "fusion_lon": 0.0}, {"lat": 38.93985, "is_disabled": 0, "type": "electric_scooter", "lon": -77.01933966666667, "bike_id": "0c620707e3138e2cc83e3c404c7017eb", "fusion_lat": 0.0, "name": "0c620707e3138e2cc83e3c404c7017eb", "is_reserved": 0, "rental_uris": {"android": "https://dc.lft.to/lastmile_qr_scan", "ios": "https://dc.lft.to/lastmile_qr_scan"}, "fusion_lon": 0.0}, {"lat": 38.924710166666664, "is_disabled": 0, "type": "electric_scooter", "lon": -77.03974566666666, "bike_id": "0fc61ceb4579f03693ebfd898d05357e", "fusion_lat": 0.0, "name": "0fc61ceb4579f03693ebfd898d05357e", "is_reserved": 0, "rental_uris": {"android": "https://dc.lft.to/lastmile_qr_scan", "ios": "https://dc.lft.to/lastmile_qr_scan"}, "fusion_lon": 0.0}, {"lat": 38.94629033333333, "is_disabled": 0, "type": "electric_scooter", "lon": -77.025252, "bike_id": "6230003c5ae23a63a8956a5ebd4b5b13", "fusion_lat": 0.0, "name": "6230003c5ae23a63a8956a5ebd4b5b13", "is_reserved": 0, "rental_uris": {"android": "https://dc.lft.to/lastmile_qr_scan", "ios": "https://dc.lft.to/lastmile_qr_scan"}, "fusion_lon": 0.0}, {"lat": 38.90847383333333, "is_disabled": 0, "type": "electric_scooter", "lon": -77.04476083333333, "bike_id": "18b23c81cd25f63638e3b18bad7714e2", "fusion_lat": 0.0, "name": "18b23c81cd25f63638e3b18bad7714e2", "is_reserved": 0, "rental_uris": {"android": "https://dc.lft.to/lastmile_qr_scan", "ios": "https://dc.lft.to/lastmile_qr_scan"}, "fusion_lon": 0.0}, {"lat": 38.9206305, "is_disabled": 0, "type": "electric_scooter", "lon": -77.04264833333333, "bike_id": "947a5558ae7da4d6954dab5a6b535967", "fusion_lat": 0.0, "name": "947a5558ae7da4d6954dab5a6b535967", "is_reserved": 0, "rental_uris": {"android": "https://dc.lft.to/lastmile_qr_scan", "ios": "https://dc.lft.to/lastmile_qr_scan"}, "fusion_lon": 0.0}, {"lat": 38.924096, "is_disabled": 0, "type": "electric_scooter", "lon": -77.05045066666666, "bike_id": "6c4d91121dc9f0fbb404d0b043e22c90", "fusion_lat": 0.0, "name": "6c4d91121dc9f0fbb404d0b043e22c90", "is_reserved": 0, "rental_uris": {"android": "https://dc.lft.to/lastmile_qr_scan", "ios": "https://dc.lft.to/lastmile_qr_scan"}, "fusion_lon": 0.0}, {"lat": 38.916261666666664, "is_disabled": 0, "type": "electric_scooter", "lon": -77.03284633333334, "bike_id": "b9cecb1de8d93d956af0efa6a3cca58a", "fusion_lat": 0.0, "name": "b9cecb1de8d93d956af0efa6a3cca58a", "is_reserved": 0, "rental_uris": {"android": "https://dc.lft.to/lastmile_qr_scan", "ios": "https://dc.lft.to/lastmile_qr_scan"}, "fusion_lon": 0.0}, {"lat": 38.871421833333336, "is_disabled": 0, "type": "electric_bike", "lon": -76.93708016666666, "bike_id": "cf44e9674e1f4bb077a70739b95e541b", "fusion_lat": 0.0, "name": "cf44e9674e1f4bb077a70739b95e541b", "is_reserved": 0, "rental_uris": {"android": "https://dc.lft.to/lastmile_qr_scan", "ios": "https://dc.lft.to/lastmile_qr_scan"}, "fusion_lon": 0.0}, {"lat": 38.90083533333333, "is_disabled": 0, "type": "electric_scooter", "lon": -77.05068066666666, "bike_id": "fbf7335f6a8b5ba25e063f1941252557", "fusion_lat": 0.0, "name": "fbf7335f6a8b5ba25e063f1941252557", "is_reserved": 0, "rental_uris": {"android": "https://dc.lft.to/lastmile_qr_scan", "ios": "https://dc.lft.to/lastmile_qr_scan"}, "fusion_lon": 0.0}, {"lat": 38.867074, "is_disabled": 0, "type": "electric_scooter", "lon": -76.98731933333333, "bike_id": "d93e742194a87ca6d5da2a3b9046d420", "fusion_lat": 0.0, "name": "d93e742194a87ca6d5da2a3b9046d420", "is_reserved": 0, "rental_uris": {"android": "https://dc.lft.to/lastmile_qr_scan", "ios": "https://dc.lft.to/lastmile_qr_scan"}, "fusion_lon": 0.0}, {"lat": 38.930933333333336, "is_disabled": 0, "type": "electric_scooter", "lon": -77.02508083333333, "bike_id": "5e83ced2f1f2fbd8f242c53955ebd32a", "fusion_lat": 0.0, "name": "5e83ced2f1f2fbd8f242c53955ebd32a", "is_reserved": 0, "rental_uris": {"android": "https://dc.lft.to/lastmile_qr_scan", "ios": "https://dc.lft.to/lastmile_qr_scan"}, "fusion_lon": 0.0}, {"lat": 38.911690666666665, "is_disabled": 0, "type": "electric_bike", "lon": -77.0026695, "bike_id": "031947d6007384159e9334913e1a95c3", "fusion_lat": 0.0, "name": "031947d6007384159e9334913e1a95c3", "is_reserved": 0, "rental_uris": {"android": "https://dc.lft.to/lastmile_qr_scan", "ios": "https://dc.lft.to/lastmile_qr_scan"}, "fusion_lon": 0.0}, {"lat": 38.9272145, "is_disabled": 0, "type": "electric_scooter", "lon": -77.0209425, "bike_id": "e81f4a20d32379d4b92cfe2c1ec31cc8", "fusion_lat": 0.0, "name": "e81f4a20d32379d4b92cfe2c1ec31cc8", "is_reserved": 0, "rental_uris": {"android": "https://dc.lft.to/lastmile_qr_scan", "ios": "https://dc.lft.to/lastmile_qr_scan"}, "fusion_lon": 0.0}, {"lat": 38.84562016666667, "is_disabled": 0, "type": "electric_bike", "lon": -77.09627366666666, "bike_id": "47754f8f474bd745e473139ffc6b2be2", "fusion_lat": 0.0, "name": "47754f8f474bd745e473139ffc6b2be2", "is_reserved": 0, "rental_uris": {"android": "https://dc.lft.to/lastmile_qr_scan", "ios": "https://dc.lft.to/lastmile_qr_scan"}, "fusion_lon": 0.0}, {"lat": 38.91108933333334, "is_disabled": 0, "type": "electric_scooter", "lon": -77.0216715, "bike_id": "000c7f3bd3e940be595236dbccdece3d", "fusion_lat": 0.0, "name": "000c7f3bd3e940be595236dbccdece3d", "is_reserved": 0, "rental_uris": {"android": "https://dc.lft.to/lastmile_qr_scan", "ios": "https://dc.lft.to/lastmile_qr_scan"}, "fusion_lon": 0.0}, {"lat": 38.89931133333333, "is_disabled": 0, "type": "electric_scooter", "lon": -77.04007483333334, "bike_id": "e641c6a69bf2f57f3398bef33c9b164c", "fusion_lat": 0.0, "name": "e641c6a69bf2f57f3398bef33c9b164c", "is_reserved": 0, "rental_uris": {"android": "https://dc.lft.to/lastmile_qr_scan", "ios": "https://dc.lft.to/lastmile_qr_scan"}, "fusion_lon": 0.0}, {"lat": 38.87543066666667, "is_disabled": 0, "type": "electric_scooter", "lon": -77.00539283333333, "bike_id": "f559831169041cee6da106cff6ce7833", "fusion_lat": 0.0, "name": "f559831169041cee6da106cff6ce7833", "is_reserved": 0, "rental_uris": {"android": "https://dc.lft.to/lastmile_qr_scan", "ios": "https://dc.lft.to/lastmile_qr_scan"}, "fusion_lon": 0.0}, {"lat": 38.881107666666665, "is_disabled": 0, "type": "electric_scooter", "lon": -76.98338533333333, "bike_id": "338472627749b42e00bfbd3360808d52", "fusion_lat": 0.0, "name": "338472627749b42e00bfbd3360808d52", "is_reserved": 0, "rental_uris": {"android": "https://dc.lft.to/lastmile_qr_scan", "ios": "https://dc.lft.to/lastmile_qr_scan"}, "fusion_lon": 0.0}, {"lat": 38.907530666666666, "is_disabled": 0, "type": "electric_scooter", "lon": -77.0012485, "bike_id": "257f0738c4076a29fddbddac15e4e139", "fusion_lat": 0.0, "name": "257f0738c4076a29fddbddac15e4e139", "is_reserved": 0, "rental_uris": {"android": "https://dc.lft.to/lastmile_qr_scan", "ios": "https://dc.lft.to/lastmile_qr_scan"}, "fusion_lon": 0.0}, {"lat": 38.86248833333333, "is_disabled": 0, "type": "electric_scooter", "lon": -76.99263, "bike_id": "8d42d092dc862390de19444848369329", "fusion_lat": 0.0, "name": "8d42d092dc862390de19444848369329", "is_reserved": 0, "rental_uris": {"android": "https://dc.lft.to/lastmile_qr_scan", "ios": "https://dc.lft.to/lastmile_qr_scan"}, "fusion_lon": 0.0}, {"lat": 38.925904, "is_disabled": 0, "type": "electric_scooter", "lon": -77.02267983333333, "bike_id": "158180c0dbce75cc8d4c61b7f2cb1312", "fusion_lat": 0.0, "name": "158180c0dbce75cc8d4c61b7f2cb1312", "is_reserved": 0, "rental_uris": {"android": "https://dc.lft.to/lastmile_qr_scan", "ios": "https://dc.lft.to/lastmile_qr_scan"}, "fusion_lon": 0.0}, {"lat": 38.917022333333335, "is_disabled": 0, "type": "electric_scooter", "lon": -77.03469466666667, "bike_id": "344ea2e3ea600ad8d2b93880e48915ab", "fusion_lat": 0.0, "name": "344ea2e3ea600ad8d2b93880e48915ab", "is_reserved": 0, "rental_uris": {"android": "https://dc.lft.to/lastmile_qr_scan", "ios": "https://dc.lft.to/lastmile_qr_scan"}, "fusion_lon": 0.0}, {"lat": 38.898353, "is_disabled": 0, "type": "electric_scooter", "lon": -77.02428183333333, "bike_id": "a2848e1c643dd2a35d1cbb990ccee92c", "fusion_lat": 0.0, "name": "a2848e1c643dd2a35d1cbb990ccee92c", "is_reserved": 0, "rental_uris": {"android": "https://dc.lft.to/lastmile_qr_scan", "ios": "https://dc.lft.to/lastmile_qr_scan"}, "fusion_lon": 0.0}, {"lat": 38.88719183333333, "is_disabled": 0, "type": "electric_scooter", "lon": -77.0138195, "bike_id": "6f3d1b029235aaa0ff380aa1839b29a8", "fusion_lat": 0.0, "name": "6f3d1b029235aaa0ff380aa1839b29a8", "is_reserved": 0, "rental_uris": {"android": "https://dc.lft.to/lastmile_qr_scan", "ios": "https://dc.lft.to/lastmile_qr_scan"}, "fusion_lon": 0.0}, {"lat": 38.957798333333336, "is_disabled": 0, "type": "electric_scooter", "lon": -77.02757416666667, "bike_id": "3bb7a4d4288544bee8b08b21b621c069", "fusion_lat": 0.0, "name": "3bb7a4d4288544bee8b08b21b621c069", "is_reserved": 0, "rental_uris": {"android": "https://dc.lft.to/lastmile_qr_scan", "ios": "https://dc.lft.to/lastmile_qr_scan"}, "fusion_lon": 0.0}, {"lat": 38.93972983333333, "is_disabled": 0, "type": "electric_scooter", "lon": -77.03587983333334, "bike_id": "9eeaecad58b6daed92e7a20fb45f479b", "fusion_lat": 0.0, "name": "9eeaecad58b6daed92e7a20fb45f479b", "is_reserved": 0, "rental_uris": {"android": "https://dc.lft.to/lastmile_qr_scan", "ios": "https://dc.lft.to/lastmile_qr_scan"}, "fusion_lon": 0.0}, {"lat": 38.908730166666665, "is_disabled": 0, "type": "electric_scooter", "lon": -77.036647, "bike_id": "45ff2a3d8ac87ccae119ab9b0c011951", "fusion_lat": 0.0, "name": "45ff2a3d8ac87ccae119ab9b0c011951", "is_reserved": 0, "rental_uris": {"android": "https://dc.lft.to/lastmile_qr_scan", "ios": "https://dc.lft.to/lastmile_qr_scan"}, "fusion_lon": 0.0}, {"lat": 38.920486, "is_disabled": 0, "type": "electric_scooter", "lon": -77.03296516666667, "bike_id": "930b979ed89a7d6662c545a76346d42d", "fusion_lat": 0.0, "name": "930b979ed89a7d6662c545a76346d42d", "is_reserved": 0, "rental_uris": {"android": "https://dc.lft.to/lastmile_qr_scan", "ios": "https://dc.lft.to/lastmile_qr_scan"}, "fusion_lon": 0.0}, {"lat": 38.91724966666666, "is_disabled": 0, "type": "electric_scooter", "lon": -77.02506883333334, "bike_id": "a6598fa2db22f4de379a29876a04c7dc", "fusion_lat": 0.0, "name": "a6598fa2db22f4de379a29876a04c7dc", "is_reserved": 0, "rental_uris": {"android": "https://dc.lft.to/lastmile_qr_scan", "ios": "https://dc.lft.to/lastmile_qr_scan"}, "fusion_lon": 0.0}, {"lat": 38.90108466666667, "is_disabled": 0, "type": "electric_scooter", "lon": -77.025278, "bike_id": "7e71a2db812a30161b575bdc2c776597", "fusion_lat": 0.0, "name": "7e71a2db812a30161b575bdc2c776597", "is_reserved": 0, "rental_uris": {"android": "https://dc.lft.to/lastmile_qr_scan", "ios": "https://dc.lft.to/lastmile_qr_scan"}, "fusion_lon": 0.0}, {"lat": 38.89845866666667, "is_disabled": 0, "type": "electric_scooter", "lon": -77.02263266666667, "bike_id": "c42670543e0099e81016ff74772487e2", "fusion_lat": 0.0, "name": "c42670543e0099e81016ff74772487e2", "is_reserved": 0, "rental_uris": {"android": "https://dc.lft.to/lastmile_qr_scan", "ios": "https://dc.lft.to/lastmile_qr_scan"}, "fusion_lon": 0.0}, {"lat": 38.855083666666665, "is_disabled": 0, "type": "electric_bike", "lon": -77.120151, "bike_id": "d823ff04c9dd02a1500b842b300c12ee", "fusion_lat": 0.0, "name": "d823ff04c9dd02a1500b842b300c12ee", "is_reserved": 0, "rental_uris": {"android": "https://dc.lft.to/lastmile_qr_scan", "ios": "https://dc.lft.to/lastmile_qr_scan"}, "fusion_lon": 0.0}, {"lat": 38.892262, "is_disabled": 0, "type": "electric_scooter", "lon": -77.03176966666666, "bike_id": "5caccafc8fb91372d205628638230a3b", "fusion_lat": 0.0, "name": "5caccafc8fb91372d205628638230a3b", "is_reserved": 0, "rental_uris": {"android": "https://dc.lft.to/lastmile_qr_scan", "ios": "https://dc.lft.to/lastmile_qr_scan"}, "fusion_lon": 0.0}, {"lat": 38.90976216666667, "is_disabled": 0, "type": "electric_scooter", "lon": -77.02396283333333, "bike_id": "a616f51f84b48bde9a6a160f311daa58", "fusion_lat": 0.0, "name": "a616f51f84b48bde9a6a160f311daa58", "is_reserved": 0, "rental_uris": {"android": "https://dc.lft.to/lastmile_qr_scan", "ios": "https://dc.lft.to/lastmile_qr_scan"}, "fusion_lon": 0.0}, {"lat": 38.908786666666664, "is_disabled": 0, "type": "electric_scooter", "lon": -77.06678216666667, "bike_id": "709442a8fb479314c74a27f5e2e8aeb5", "fusion_lat": 0.0, "name": "709442a8fb479314c74a27f5e2e8aeb5", "is_reserved": 0, "rental_uris": {"android": "https://dc.lft.to/lastmile_qr_scan", "ios": "https://dc.lft.to/lastmile_qr_scan"}, "fusion_lon": 0.0}, {"lat": 38.91692166666667, "is_disabled": 0, "type": "electric_scooter", "lon": -77.03734833333333, "bike_id": "2ac1ff552d165ae10c1b3f5146837542", "fusion_lat": 0.0, "name": "2ac1ff552d165ae10c1b3f5146837542", "is_reserved": 0, "rental_uris": {"android": "https://dc.lft.to/lastmile_qr_scan", "ios": "https://dc.lft.to/lastmile_qr_scan"}, "fusion_lon": 0.0}, {"lat": 38.89659133333333, "is_disabled": 0, "type": "electric_scooter", "lon": -77.04661833333333, "bike_id": "24b3e760a3a849052a997d88c069ddee", "fusion_lat": 0.0, "name": "24b3e760a3a849052a997d88c069ddee", "is_reserved": 0, "rental_uris": {"android": "https://dc.lft.to/lastmile_qr_scan", "ios": "https://dc.lft.to/lastmile_qr_scan"}, "fusion_lon": 0.0}, {"lat": 38.894927, "is_disabled": 0, "type": "electric_scooter", "lon": -77.002584, "bike_id": "810c875b77fa6c6bf6711d177873333a", "fusion_lat": 0.0, "name": "810c875b77fa6c6bf6711d177873333a", "is_reserved": 0, "rental_uris": {"android": "https://dc.lft.to/lastmile_qr_scan", "ios": "https://dc.lft.to/lastmile_qr_scan"}, "fusion_lon": 0.0}, {"lat": 38.943144833333335, "is_disabled": 0, "type": "electric_scooter", "lon": -77.0614035, "bike_id": "91016acd6dd3a23b9c63a78d8af61668", "fusion_lat": 0.0, "name": "91016acd6dd3a23b9c63a78d8af61668", "is_reserved": 0, "rental_uris": {"android": "https://dc.lft.to/lastmile_qr_scan", "ios": "https://dc.lft.to/lastmile_qr_scan"}, "fusion_lon": 0.0}, {"lat": 38.917049666666664, "is_disabled": 0, "type": "electric_scooter", "lon": -77.03471566666667, "bike_id": "c6cd1a60761843aa82b5056d90dd63e1", "fusion_lat": 0.0, "name": "c6cd1a60761843aa82b5056d90dd63e1", "is_reserved": 0, "rental_uris": {"android": "https://dc.lft.to/lastmile_qr_scan", "ios": "https://dc.lft.to/lastmile_qr_scan"}, "fusion_lon": 0.0}, {"lat": 38.921097333333336, "is_disabled": 0, "type": "electric_scooter", "lon": -77.0419305, "bike_id": "2e48d1f4695e195708039c1ae4fd6e25", "fusion_lat": 0.0, "name": "2e48d1f4695e195708039c1ae4fd6e25", "is_reserved": 0, "rental_uris": {"android": "https://dc.lft.to/lastmile_qr_scan", "ios": "https://dc.lft.to/lastmile_qr_scan"}, "fusion_lon": 0.0}, {"lat": 38.88631483333333, "is_disabled": 0, "type": "electric_scooter", "lon": -76.95491916666667, "bike_id": "883032ec1a96dd38e4ee4775c3a29b34", "fusion_lat": 0.0, "name": "883032ec1a96dd38e4ee4775c3a29b34", "is_reserved": 0, "rental_uris": {"android": "https://dc.lft.to/lastmile_qr_scan", "ios": "https://dc.lft.to/lastmile_qr_scan"}, "fusion_lon": 0.0}, {"lat": 38.90644366666667, "is_disabled": 0, "type": "electric_scooter", "lon": -77.01416, "bike_id": "ce3fecf271a0ed187a29fb73bbb10f56", "fusion_lat": 0.0, "name": "ce3fecf271a0ed187a29fb73bbb10f56", "is_reserved": 0, "rental_uris": {"android": "https://dc.lft.to/lastmile_qr_scan", "ios": "https://dc.lft.to/lastmile_qr_scan"}, "fusion_lon": 0.0}, {"lat": 38.91579466666666, "is_disabled": 0, "type": "electric_scooter", "lon": -77.05018816666667, "bike_id": "71de660234c611f53e3f6051e1596845", "fusion_lat": 0.0, "name": "71de660234c611f53e3f6051e1596845", "is_reserved": 0, "rental_uris": {"android": "https://dc.lft.to/lastmile_qr_scan", "ios": "https://dc.lft.to/lastmile_qr_scan"}, "fusion_lon": 0.0}, {"lat": 38.90482316666667, "is_disabled": 0, "type": "electric_scooter", "lon": -76.9733545, "bike_id": "18763da5c97e51273a07a626459db8de", "fusion_lat": 0.0, "name": "18763da5c97e51273a07a626459db8de", "is_reserved": 0, "rental_uris": {"android": "https://dc.lft.to/lastmile_qr_scan", "ios": "https://dc.lft.to/lastmile_qr_scan"}, "fusion_lon": 0.0}, {"lat": 38.94704633333333, "is_disabled": 0, "type": "electric_scooter", "lon": -77.01942733333334, "bike_id": "2e2dddd8e958c8108aa7a9297855b225", "fusion_lat": 0.0, "name": "2e2dddd8e958c8108aa7a9297855b225", "is_reserved": 0, "rental_uris": {"android": "https://dc.lft.to/lastmile_qr_scan", "ios": "https://dc.lft.to/lastmile_qr_scan"}, "fusion_lon": 0.0}, {"lat": 38.89782116666667, "is_disabled": 0, "type": "electric_scooter", "lon": -77.031807, "bike_id": "170e76580e4cf2542b9e9e199f587ce3", "fusion_lat": 0.0, "name": "170e76580e4cf2542b9e9e199f587ce3", "is_reserved": 0, "rental_uris": {"android": "https://dc.lft.to/lastmile_qr_scan", "ios": "https://dc.lft.to/lastmile_qr_scan"}, "fusion_lon": 0.0}, {"lat": 38.87070283333333, "is_disabled": 0, "type": "electric_scooter", "lon": -76.9797225, "bike_id": "ac6539b111174e511034ab4a43af48df", "fusion_lat": 0.0, "name": "ac6539b111174e511034ab4a43af48df", "is_reserved": 0, "rental_uris": {"android": "https://dc.lft.to/lastmile_qr_scan", "ios": "https://dc.lft.to/lastmile_qr_scan"}, "fusion_lon": 0.0}, {"lat": 38.91153383333334, "is_disabled": 0, "type": "electric_scooter", "lon": -77.03837233333333, "bike_id": "a5a475bb0c9244afd495aec60f549a61", "fusion_lat": 0.0, "name": "a5a475bb0c9244afd495aec60f549a61", "is_reserved": 0, "rental_uris": {"android": "https://dc.lft.to/lastmile_qr_scan", "ios": "https://dc.lft.to/lastmile_qr_scan"}, "fusion_lon": 0.0}, {"lat": 38.9177875, "is_disabled": 0, "type": "electric_scooter", "lon": -77.04103333333333, "bike_id": "511c8b13560161e19f6196071fcd8723", "fusion_lat": 0.0, "name": "511c8b13560161e19f6196071fcd8723", "is_reserved": 0, "rental_uris": {"android": "https://dc.lft.to/lastmile_qr_scan", "ios": "https://dc.lft.to/lastmile_qr_scan"}, "fusion_lon": 0.0}, {"lat": 38.896941166666664, "is_disabled": 0, "type": "electric_scooter", "lon": -77.00489633333333, "bike_id": "50cb22300f031c829b2380fd758c91a2", "fusion_lat": 0.0, "name": "50cb22300f031c829b2380fd758c91a2", "is_reserved": 0, "rental_uris": {"android": "https://dc.lft.to/lastmile_qr_scan", "ios": "https://dc.lft.to/lastmile_qr_scan"}, "fusion_lon": 0.0}, {"lat": 38.92250033333333, "is_disabled": 0, "type": "electric_scooter", "lon": -77.0193815, "bike_id": "e6825b9e0ac492571a945f9ef182094f", "fusion_lat": 0.0, "name": "e6825b9e0ac492571a945f9ef182094f", "is_reserved": 0, "rental_uris": {"android": "https://dc.lft.to/lastmile_qr_scan", "ios": "https://dc.lft.to/lastmile_qr_scan"}, "fusion_lon": 0.0}, {"lat": 38.9134875, "is_disabled": 0, "type": "electric_scooter", "lon": -77.03184916666666, "bike_id": "8b07365cea15871e93ab7150bd64e7de", "fusion_lat": 0.0, "name": "8b07365cea15871e93ab7150bd64e7de", "is_reserved": 0, "rental_uris": {"android": "https://dc.lft.to/lastmile_qr_scan", "ios": "https://dc.lft.to/lastmile_qr_scan"}, "fusion_lon": 0.0}, {"lat": 38.863665, "is_disabled": 0, "type": "electric_scooter", "lon": -76.99049166666667, "bike_id": "98afbb530e80978714727dcf8b120fbe", "fusion_lat": 0.0, "name": "98afbb530e80978714727dcf8b120fbe", "is_reserved": 0, "rental_uris": {"android": "https://dc.lft.to/lastmile_qr_scan", "ios": "https://dc.lft.to/lastmile_qr_scan"}, "fusion_lon": 0.0}, {"lat": 38.892611333333335, "is_disabled": 0, "type": "electric_scooter", "lon": -77.03337966666666, "bike_id": "b51c8f10bf5a591fcbb8576eaa183df7", "fusion_lat": 0.0, "name": "b51c8f10bf5a591fcbb8576eaa183df7", "is_reserved": 0, "rental_uris": {"android": "https://dc.lft.to/lastmile_qr_scan", "ios": "https://dc.lft.to/lastmile_qr_scan"}, "fusion_lon": 0.0}, {"lat": 38.95180533333333, "is_disabled": 0, "type": "electric_bike", "lon": -76.935463, "bike_id": "1a365593b50f66dab3b981d1cfbbaba7", "fusion_lat": 0.0, "name": "1a365593b50f66dab3b981d1cfbbaba7", "is_reserved": 0, "rental_uris": {"android": "https://dc.lft.to/lastmile_qr_scan", "ios": "https://dc.lft.to/lastmile_qr_scan"}, "fusion_lon": 0.0}, {"lat": 38.879681166666664, "is_disabled": 0, "type": "electric_bike", "lon": -77.10724483333334, "bike_id": "7a158e8c88734c33b56754f321973015", "fusion_lat": 0.0, "name": "7a158e8c88734c33b56754f321973015", "is_reserved": 0, "rental_uris": {"android": "https://dc.lft.to/lastmile_qr_scan", "ios": "https://dc.lft.to/lastmile_qr_scan"}, "fusion_lon": 0.0}, {"lat": 38.870906, "is_disabled": 0, "type": "electric_scooter", "lon": -77.01184783333333, "bike_id": "898cc23f15b7ea2da17e222164816f27", "fusion_lat": 0.0, "name": "898cc23f15b7ea2da17e222164816f27", "is_reserved": 0, "rental_uris": {"android": "https://dc.lft.to/lastmile_qr_scan", "ios": "https://dc.lft.to/lastmile_qr_scan"}, "fusion_lon": 0.0}, {"lat": 38.9076655, "is_disabled": 0, "type": "electric_scooter", "lon": -77.04345883333333, "bike_id": "20a4a6203287d2148b126f32bfff67d7", "fusion_lat": 0.0, "name": "20a4a6203287d2148b126f32bfff67d7", "is_reserved": 0, "rental_uris": {"android": "https://dc.lft.to/lastmile_qr_scan", "ios": "https://dc.lft.to/lastmile_qr_scan"}, "fusion_lon": 0.0}, {"lat": 38.90551833333333, "is_disabled": 0, "type": "electric_scooter", "lon": -77.02000033333333, "bike_id": "a46e30f132c9e57dcd91b98a99aa2c9a", "fusion_lat": 0.0, "name": "a46e30f132c9e57dcd91b98a99aa2c9a", "is_reserved": 0, "rental_uris": {"android": "https://dc.lft.to/lastmile_qr_scan", "ios": "https://dc.lft.to/lastmile_qr_scan"}, "fusion_lon": 0.0}, {"lat": 38.9282295, "is_disabled": 0, "type": "electric_scooter", "lon": -77.02192133333334, "bike_id": "ad2d6d873769e8c5fc58649beae60938", "fusion_lat": 0.0, "name": "ad2d6d873769e8c5fc58649beae60938", "is_reserved": 0, "rental_uris": {"android": "https://dc.lft.to/lastmile_qr_scan", "ios": "https://dc.lft.to/lastmile_qr_scan"}, "fusion_lon": 0.0}, {"lat": 38.91984133333333, "is_disabled": 0, "type": "electric_scooter", "lon": -77.0323645, "bike_id": "c050e9df4e58180ebb6b8439be65c7c5", "fusion_lat": 0.0, "name": "c050e9df4e58180ebb6b8439be65c7c5", "is_reserved": 0, "rental_uris": {"android": "https://dc.lft.to/lastmile_qr_scan", "ios": "https://dc.lft.to/lastmile_qr_scan"}, "fusion_lon": 0.0}, {"lat": 38.896052, "is_disabled": 0, "type": "electric_scooter", "lon": -77.05472183333333, "bike_id": "e8341ae7974dc09b306956170afe4c72", "fusion_lat": 0.0, "name": "e8341ae7974dc09b306956170afe4c72", "is_reserved": 0, "rental_uris": {"android": "https://dc.lft.to/lastmile_qr_scan", "ios": "https://dc.lft.to/lastmile_qr_scan"}, "fusion_lon": 0.0}, {"lat": 38.82263416666667, "is_disabled": 0, "type": "electric_bike", "lon": -77.05819583333333, "bike_id": "06dbedc65fd0e3b0d1c5849437e8784f", "fusion_lat": 0.0, "name": "06dbedc65fd0e3b0d1c5849437e8784f", "is_reserved": 0, "rental_uris": {"android": "https://dc.lft.to/lastmile_qr_scan", "ios": "https://dc.lft.to/lastmile_qr_scan"}, "fusion_lon": 0.0}, {"lat": 38.98500266666667, "is_disabled": 0, "type": "electric_bike", "lon": -76.98209066666666, "bike_id": "ea84ea4dd77917cfcca9689d9994d434", "fusion_lat": 0.0, "name": "ea84ea4dd77917cfcca9689d9994d434", "is_reserved": 0, "rental_uris": {"android": "https://dc.lft.to/lastmile_qr_scan", "ios": "https://dc.lft.to/lastmile_qr_scan"}, "fusion_lon": 0.0}, {"lat": 38.8699195, "is_disabled": 0, "type": "electric_bike", "lon": -76.95991566666666, "bike_id": "b9da15691eae86931a51026c89de4e8a", "fusion_lat": 0.0, "name": "b9da15691eae86931a51026c89de4e8a", "is_reserved": 0, "rental_uris": {"android": "https://dc.lft.to/lastmile_qr_scan", "ios": "https://dc.lft.to/lastmile_qr_scan"}, "fusion_lon": 0.0}, {"lat": 38.89821883333333, "is_disabled": 0, "type": "electric_scooter", "lon": -77.031615, "bike_id": "29f370d3e4feacfda80da7639af21032", "fusion_lat": 0.0, "name": "29f370d3e4feacfda80da7639af21032", "is_reserved": 0, "rental_uris": {"android": "https://dc.lft.to/lastmile_qr_scan", "ios": "https://dc.lft.to/lastmile_qr_scan"}, "fusion_lon": 0.0}, {"lat": 38.96485766666667, "is_disabled": 0, "type": "electric_scooter", "lon": -77.027935, "bike_id": "fdd49238ed28b3cd6e3e5464f2f40219", "fusion_lat": 0.0, "name": "fdd49238ed28b3cd6e3e5464f2f40219", "is_reserved": 0, "rental_uris": {"android": "https://dc.lft.to/lastmile_qr_scan", "ios": "https://dc.lft.to/lastmile_qr_scan"}, "fusion_lon": 0.0}, {"lat": 38.90796783333333, "is_disabled": 0, "type": "electric_scooter", "lon": -77.0367065, "bike_id": "e7a153eea39719bdd78b414a89d33960", "fusion_lat": 0.0, "name": "e7a153eea39719bdd78b414a89d33960", "is_reserved": 0, "rental_uris": {"android": "https://dc.lft.to/lastmile_qr_scan", "ios": "https://dc.lft.to/lastmile_qr_scan"}, "fusion_lon": 0.0}, {"lat": 38.90253333333333, "is_disabled": 0, "type": "electric_scooter", "lon": -77.0183535, "bike_id": "0620d25153ae26a33d8d233a02a093fb", "fusion_lat": 0.0, "name": "0620d25153ae26a33d8d233a02a093fb", "is_reserved": 0, "rental_uris": {"android": "https://dc.lft.to/lastmile_qr_scan", "ios": "https://dc.lft.to/lastmile_qr_scan"}, "fusion_lon": 0.0}, {"lat": 38.920308666666664, "is_disabled": 0, "type": "electric_scooter", "lon": -77.0305125, "bike_id": "47e32a4a3e4016b1b3ba524ceae5c6b2", "fusion_lat": 0.0, "name": "47e32a4a3e4016b1b3ba524ceae5c6b2", "is_reserved": 0, "rental_uris": {"android": "https://dc.lft.to/lastmile_qr_scan", "ios": "https://dc.lft.to/lastmile_qr_scan"}, "fusion_lon": 0.0}, {"lat": 38.8057635, "is_disabled": 0, "type": "electric_bike", "lon": -77.06860866666666, "bike_id": "af47674cb5a7a9d59beca5885c0647c4", "fusion_lat": 0.0, "name": "af47674cb5a7a9d59beca5885c0647c4", "is_reserved": 0, "rental_uris": {"android": "https://dc.lft.to/lastmile_qr_scan", "ios": "https://dc.lft.to/lastmile_qr_scan"}, "fusion_lon": 0.0}, {"lat": 38.919842333333335, "is_disabled": 0, "type": "electric_scooter", "lon": -77.04171, "bike_id": "e1b0194181cdda0f80568c958232c6bc", "fusion_lat": 0.0, "name": "e1b0194181cdda0f80568c958232c6bc", "is_reserved": 0, "rental_uris": {"android": "https://dc.lft.to/lastmile_qr_scan", "ios": "https://dc.lft.to/lastmile_qr_scan"}, "fusion_lon": 0.0}, {"lat": 38.92057416666667, "is_disabled": 0, "type": "electric_scooter", "lon": -77.02446616666667, "bike_id": "47f5dd41bba6432672fa02636016dda5", "fusion_lat": 0.0, "name": "47f5dd41bba6432672fa02636016dda5", "is_reserved": 0, "rental_uris": {"android": "https://dc.lft.to/lastmile_qr_scan", "ios": "https://dc.lft.to/lastmile_qr_scan"}, "fusion_lon": 0.0}, {"lat": 38.9058515, "is_disabled": 0, "type": "electric_scooter", "lon": -76.98621616666667, "bike_id": "a2b587eab7afc43cee8dc0a5651aee70", "fusion_lat": 0.0, "name": "a2b587eab7afc43cee8dc0a5651aee70", "is_reserved": 0, "rental_uris": {"android": "https://dc.lft.to/lastmile_qr_scan", "ios": "https://dc.lft.to/lastmile_qr_scan"}, "fusion_lon": 0.0}, {"lat": 38.92131766666667, "is_disabled": 0, "type": "electric_scooter", "lon": -77.04580416666667, "bike_id": "7a89d61f11cc4675f8a0ec3ff98d3347", "fusion_lat": 0.0, "name": "7a89d61f11cc4675f8a0ec3ff98d3347", "is_reserved": 0, "rental_uris": {"android": "https://dc.lft.to/lastmile_qr_scan", "ios": "https://dc.lft.to/lastmile_qr_scan"}, "fusion_lon": 0.0}, {"lat": 38.90489433333333, "is_disabled": 0, "type": "electric_scooter", "lon": -77.04176083333333, "bike_id": "c60318d13906f8cefb54000c9e40aa6e", "fusion_lat": 0.0, "name": "c60318d13906f8cefb54000c9e40aa6e", "is_reserved": 0, "rental_uris": {"android": "https://dc.lft.to/lastmile_qr_scan", "ios": "https://dc.lft.to/lastmile_qr_scan"}, "fusion_lon": 0.0}, {"lat": 38.917459, "is_disabled": 0, "type": "electric_scooter", "lon": -77.031902, "bike_id": "e85f7015a9e84d6f012d111843bf4d4f", "fusion_lat": 0.0, "name": "e85f7015a9e84d6f012d111843bf4d4f", "is_reserved": 0, "rental_uris": {"android": "https://dc.lft.to/lastmile_qr_scan", "ios": "https://dc.lft.to/lastmile_qr_scan"}, "fusion_lon": 0.0}, {"lat": 38.9391205, "is_disabled": 0, "type": "electric_scooter", "lon": -77.06675516666667, "bike_id": "763193e4c1a5c345af9fead982153755", "fusion_lat": 0.0, "name": "763193e4c1a5c345af9fead982153755", "is_reserved": 0, "rental_uris": {"android": "https://dc.lft.to/lastmile_qr_scan", "ios": "https://dc.lft.to/lastmile_qr_scan"}, "fusion_lon": 0.0}, {"lat": 38.9257185, "is_disabled": 0, "type": "electric_scooter", "lon": -77.05285483333333, "bike_id": "435c8aefb7f363148cbc160e6135c83c", "fusion_lat": 0.0, "name": "435c8aefb7f363148cbc160e6135c83c", "is_reserved": 0, "rental_uris": {"android": "https://dc.lft.to/lastmile_qr_scan", "ios": "https://dc.lft.to/lastmile_qr_scan"}, "fusion_lon": 0.0}, {"lat": 38.908593333333336, "is_disabled": 0, "type": "electric_bike", "lon": -76.9401485, "bike_id": "e3481cf5808364ea35358be883a553d8", "fusion_lat": 0.0, "name": "e3481cf5808364ea35358be883a553d8", "is_reserved": 0, "rental_uris": {"android": "https://dc.lft.to/lastmile_qr_scan", "ios": "https://dc.lft.to/lastmile_qr_scan"}, "fusion_lon": 0.0}, {"lat": 38.922591833333335, "is_disabled": 0, "type": "electric_scooter", "lon": -77.070356, "bike_id": "1495470f4cec23b11430bcf4426bf6ec", "fusion_lat": 0.0, "name": "1495470f4cec23b11430bcf4426bf6ec", "is_reserved": 0, "rental_uris": {"android": "https://dc.lft.to/lastmile_qr_scan", "ios": "https://dc.lft.to/lastmile_qr_scan"}, "fusion_lon": 0.0}, {"lat": 38.867105, "is_disabled": 0, "type": "electric_scooter", "lon": -76.9873035, "bike_id": "04eeac08803edf8bad7082cec41395c3", "fusion_lat": 0.0, "name": "04eeac08803edf8bad7082cec41395c3", "is_reserved": 0, "rental_uris": {"android": "https://dc.lft.to/lastmile_qr_scan", "ios": "https://dc.lft.to/lastmile_qr_scan"}, "fusion_lon": 0.0}, {"lat": 38.906431166666664, "is_disabled": 0, "type": "electric_scooter", "lon": -77.041985, "bike_id": "8b338676462afa3246a8abff0c766a3e", "fusion_lat": 0.0, "name": "8b338676462afa3246a8abff0c766a3e", "is_reserved": 0, "rental_uris": {"android": "https://dc.lft.to/lastmile_qr_scan", "ios": "https://dc.lft.to/lastmile_qr_scan"}, "fusion_lon": 0.0}, {"lat": 38.902638333333336, "is_disabled": 0, "type": "electric_scooter", "lon": -77.03960533333333, "bike_id": "16081f0ca7870d76cba22b963d492570", "fusion_lat": 0.0, "name": "16081f0ca7870d76cba22b963d492570", "is_reserved": 0, "rental_uris": {"android": "https://dc.lft.to/lastmile_qr_scan", "ios": "https://dc.lft.to/lastmile_qr_scan"}, "fusion_lon": 0.0}, {"lat": 38.92167166666667, "is_disabled": 0, "type": "electric_scooter", "lon": -77.04230366666667, "bike_id": "49b8f0a98e2d5bae399774a866010d06", "fusion_lat": 0.0, "name": "49b8f0a98e2d5bae399774a866010d06", "is_reserved": 0, "rental_uris": {"android": "https://dc.lft.to/lastmile_qr_scan", "ios": "https://dc.lft.to/lastmile_qr_scan"}, "fusion_lon": 0.0}, {"lat": 38.88738166666667, "is_disabled": 0, "type": "electric_scooter", "lon": -77.01536833333333, "bike_id": "0272536282c52d3229be49ed0a7a5415", "fusion_lat": 0.0, "name": "0272536282c52d3229be49ed0a7a5415", "is_reserved": 0, "rental_uris": {"android": "https://dc.lft.to/lastmile_qr_scan", "ios": "https://dc.lft.to/lastmile_qr_scan"}, "fusion_lon": 0.0}, {"lat": 38.91777533333333, "is_disabled": 0, "type": "electric_scooter", "lon": -77.02263866666667, "bike_id": "03270f0c57786fe373419a1f79125972", "fusion_lat": 0.0, "name": "03270f0c57786fe373419a1f79125972", "is_reserved": 0, "rental_uris": {"android": "https://dc.lft.to/lastmile_qr_scan", "ios": "https://dc.lft.to/lastmile_qr_scan"}, "fusion_lon": 0.0}, {"lat": 38.90885466666667, "is_disabled": 0, "type": "electric_scooter", "lon": -77.04349633333334, "bike_id": "2549e9f6ef5c907fa1e9247c554f0503", "fusion_lat": 0.0, "name": "2549e9f6ef5c907fa1e9247c554f0503", "is_reserved": 0, "rental_uris": {"android": "https://dc.lft.to/lastmile_qr_scan", "ios": "https://dc.lft.to/lastmile_qr_scan"}, "fusion_lon": 0.0}, {"lat": 38.9075275, "is_disabled": 0, "type": "electric_scooter", "lon": -77.001076, "bike_id": "67235d3f112b66b59d3ce45d16d5218c", "fusion_lat": 0.0, "name": "67235d3f112b66b59d3ce45d16d5218c", "is_reserved": 0, "rental_uris": {"android": "https://dc.lft.to/lastmile_qr_scan", "ios": "https://dc.lft.to/lastmile_qr_scan"}, "fusion_lon": 0.0}, {"lat": 38.9205095, "is_disabled": 0, "type": "electric_scooter", "lon": -77.03297633333334, "bike_id": "9e65befae4a06127463ba3cdb43ae033", "fusion_lat": 0.0, "name": "9e65befae4a06127463ba3cdb43ae033", "is_reserved": 0, "rental_uris": {"android": "https://dc.lft.to/lastmile_qr_scan", "ios": "https://dc.lft.to/lastmile_qr_scan"}, "fusion_lon": 0.0}, {"lat": 38.918024, "is_disabled": 0, "type": "electric_scooter", "lon": -77.03640783333333, "bike_id": "8b1f6da403dd4631810c046de312e06a", "fusion_lat": 0.0, "name": "8b1f6da403dd4631810c046de312e06a", "is_reserved": 0, "rental_uris": {"android": "https://dc.lft.to/lastmile_qr_scan", "ios": "https://dc.lft.to/lastmile_qr_scan"}, "fusion_lon": 0.0}, {"lat": 38.861596, "is_disabled": 0, "type": "electric_bike", "lon": -77.13097433333333, "bike_id": "7b74f97419b4e1774b9d182d770c418f", "fusion_lat": 0.0, "name": "7b74f97419b4e1774b9d182d770c418f", "is_reserved": 0, "rental_uris": {"android": "https://dc.lft.to/lastmile_qr_scan", "ios": "https://dc.lft.to/lastmile_qr_scan"}, "fusion_lon": 0.0}, {"lat": 38.889277166666666, "is_disabled": 0, "type": "electric_scooter", "lon": -76.97378233333333, "bike_id": "15510ddd3b04ef15f3637ed0fe29aa5a", "fusion_lat": 0.0, "name": "15510ddd3b04ef15f3637ed0fe29aa5a", "is_reserved": 0, "rental_uris": {"android": "https://dc.lft.to/lastmile_qr_scan", "ios": "https://dc.lft.to/lastmile_qr_scan"}, "fusion_lon": 0.0}, {"lat": 38.902517333333336, "is_disabled": 0, "type": "electric_scooter", "lon": -77.01753783333334, "bike_id": "040c3f5ccbc09beafa4b4f046e3e94ff", "fusion_lat": 0.0, "name": "040c3f5ccbc09beafa4b4f046e3e94ff", "is_reserved": 0, "rental_uris": {"android": "https://dc.lft.to/lastmile_qr_scan", "ios": "https://dc.lft.to/lastmile_qr_scan"}, "fusion_lon": 0.0}, {"lat": 38.90636083333333, "is_disabled": 0, "type": "electric_scooter", "lon": -77.06280683333334, "bike_id": "6f9e73509c0439f8d63cc34164e8c14e", "fusion_lat": 0.0, "name": "6f9e73509c0439f8d63cc34164e8c14e", "is_reserved": 0, "rental_uris": {"android": "https://dc.lft.to/lastmile_qr_scan", "ios": "https://dc.lft.to/lastmile_qr_scan"}, "fusion_lon": 0.0}, {"lat": 38.934878499999996, "is_disabled": 0, "type": "electric_scooter", "lon": -77.03417933333333, "bike_id": "ea68fa66d0771467dbaf3f573bc957d2", "fusion_lat": 0.0, "name": "ea68fa66d0771467dbaf3f573bc957d2", "is_reserved": 0, "rental_uris": {"android": "https://dc.lft.to/lastmile_qr_scan", "ios": "https://dc.lft.to/lastmile_qr_scan"}, "fusion_lon": 0.0}, {"lat": 38.9166325, "is_disabled": 0, "type": "electric_scooter", "lon": -77.04384766666666, "bike_id": "9f9e98a7960798a4aee732115beedf70", "fusion_lat": 0.0, "name": "9f9e98a7960798a4aee732115beedf70", "is_reserved": 0, "rental_uris": {"android": "https://dc.lft.to/lastmile_qr_scan", "ios": "https://dc.lft.to/lastmile_qr_scan"}, "fusion_lon": 0.0}, {"lat": 38.898368, "is_disabled": 0, "type": "electric_scooter", "lon": -77.02937083333333, "bike_id": "e32d2d2744348bab97714077973541b6", "fusion_lat": 0.0, "name": "e32d2d2744348bab97714077973541b6", "is_reserved": 0, "rental_uris": {"android": "https://dc.lft.to/lastmile_qr_scan", "ios": "https://dc.lft.to/lastmile_qr_scan"}, "fusion_lon": 0.0}, {"lat": 38.873698166666664, "is_disabled": 0, "type": "electric_scooter", "lon": -77.0020345, "bike_id": "ae62cffdafa066928b6495cc6457c09f", "fusion_lat": 0.0, "name": "ae62cffdafa066928b6495cc6457c09f", "is_reserved": 0, "rental_uris": {"android": "https://dc.lft.to/lastmile_qr_scan", "ios": "https://dc.lft.to/lastmile_qr_scan"}, "fusion_lon": 0.0}, {"lat": 38.92752, "is_disabled": 0, "type": "electric_scooter", "lon": -77.00595066666666, "bike_id": "c2b99c3ea8837e2c2c7157db47f5ead7", "fusion_lat": 0.0, "name": "c2b99c3ea8837e2c2c7157db47f5ead7", "is_reserved": 0, "rental_uris": {"android": "https://dc.lft.to/lastmile_qr_scan", "ios": "https://dc.lft.to/lastmile_qr_scan"}, "fusion_lon": 0.0}, {"lat": 38.91106716666667, "is_disabled": 0, "type": "electric_scooter", "lon": -77.0382955, "bike_id": "ae9e90c3af3bbbfb754079c3632ed0ee", "fusion_lat": 0.0, "name": "ae9e90c3af3bbbfb754079c3632ed0ee", "is_reserved": 0, "rental_uris": {"android": "https://dc.lft.to/lastmile_qr_scan", "ios": "https://dc.lft.to/lastmile_qr_scan"}, "fusion_lon": 0.0}, {"lat": 38.8998625, "is_disabled": 0, "type": "electric_bike", "lon": -76.98122633333334, "bike_id": "5b8342bb2dd3ea191725daaf9c1bc7b2", "fusion_lat": 0.0, "name": "5b8342bb2dd3ea191725daaf9c1bc7b2", "is_reserved": 0, "rental_uris": {"android": "https://dc.lft.to/lastmile_qr_scan", "ios": "https://dc.lft.to/lastmile_qr_scan"}, "fusion_lon": 0.0}, {"lat": 38.90007716666667, "is_disabled": 0, "type": "electric_scooter", "lon": -76.92237466666667, "bike_id": "812d8e85a8d4fcc108cf8d72ca9e6d62", "fusion_lat": 0.0, "name": "812d8e85a8d4fcc108cf8d72ca9e6d62", "is_reserved": 0, "rental_uris": {"android": "https://dc.lft.to/lastmile_qr_scan", "ios": "https://dc.lft.to/lastmile_qr_scan"}, "fusion_lon": 0.0}, {"lat": 38.90693066666667, "is_disabled": 0, "type": "electric_scooter", "lon": -77.03524633333333, "bike_id": "9a8d49389702c84040341114ce591401", "fusion_lat": 0.0, "name": "9a8d49389702c84040341114ce591401", "is_reserved": 0, "rental_uris": {"android": "https://dc.lft.to/lastmile_qr_scan", "ios": "https://dc.lft.to/lastmile_qr_scan"}, "fusion_lon": 0.0}, {"lat": 38.9253685, "is_disabled": 0, "type": "electric_scooter", "lon": -77.052484, "bike_id": "40feb82b9d97610d10c9b915d8a80872", "fusion_lat": 0.0, "name": "40feb82b9d97610d10c9b915d8a80872", "is_reserved": 0, "rental_uris": {"android": "https://dc.lft.to/lastmile_qr_scan", "ios": "https://dc.lft.to/lastmile_qr_scan"}, "fusion_lon": 0.0}, {"lat": 38.91264016666667, "is_disabled": 0, "type": "electric_scooter", "lon": -77.03145, "bike_id": "31a42602997578a682fa01113f9d9bc8", "fusion_lat": 0.0, "name": "31a42602997578a682fa01113f9d9bc8", "is_reserved": 0, "rental_uris": {"android": "https://dc.lft.to/lastmile_qr_scan", "ios": "https://dc.lft.to/lastmile_qr_scan"}, "fusion_lon": 0.0}, {"lat": 38.939644, "is_disabled": 0, "type": "electric_scooter", "lon": -77.02751983333333, "bike_id": "b7e3861131421c3ee7abdebbafaf8e26", "fusion_lat": 0.0, "name": "b7e3861131421c3ee7abdebbafaf8e26", "is_reserved": 0, "rental_uris": {"android": "https://dc.lft.to/lastmile_qr_scan", "ios": "https://dc.lft.to/lastmile_qr_scan"}, "fusion_lon": 0.0}, {"lat": 38.9078105, "is_disabled": 0, "type": "electric_scooter", "lon": -77.00366316666667, "bike_id": "2f0e218bce0338925bef0c2611d01a34", "fusion_lat": 0.0, "name": "2f0e218bce0338925bef0c2611d01a34", "is_reserved": 0, "rental_uris": {"android": "https://dc.lft.to/lastmile_qr_scan", "ios": "https://dc.lft.to/lastmile_qr_scan"}, "fusion_lon": 0.0}, {"lat": 38.90671833333333, "is_disabled": 0, "type": "electric_scooter", "lon": -76.98996766666667, "bike_id": "b6b9f13300d4423f7f7e12442ea51c95", "fusion_lat": 0.0, "name": "b6b9f13300d4423f7f7e12442ea51c95", "is_reserved": 0, "rental_uris": {"android": "https://dc.lft.to/lastmile_qr_scan", "ios": "https://dc.lft.to/lastmile_qr_scan"}, "fusion_lon": 0.0}, {"lat": 38.93850616666667, "is_disabled": 0, "type": "electric_bike", "lon": -77.07231533333334, "bike_id": "6647cd5c0a916a64579944b3700f6d6b", "fusion_lat": 0.0, "name": "6647cd5c0a916a64579944b3700f6d6b", "is_reserved": 0, "rental_uris": {"android": "https://dc.lft.to/lastmile_qr_scan", "ios": "https://dc.lft.to/lastmile_qr_scan"}, "fusion_lon": 0.0}, {"lat": 38.9027445, "is_disabled": 0, "type": "electric_scooter", "lon": -77.03869833333333, "bike_id": "87ff8357593af0699ac3d46d87a82d96", "fusion_lat": 0.0, "name": "87ff8357593af0699ac3d46d87a82d96", "is_reserved": 0, "rental_uris": {"android": "https://dc.lft.to/lastmile_qr_scan", "ios": "https://dc.lft.to/lastmile_qr_scan"}, "fusion_lon": 0.0}, {"lat": 38.93531766666667, "is_disabled": 0, "type": "electric_scooter", "lon": -77.0340645, "bike_id": "6a3cfc97a7a2358d31f7220289299a9d", "fusion_lat": 0.0, "name": "6a3cfc97a7a2358d31f7220289299a9d", "is_reserved": 0, "rental_uris": {"android": "https://dc.lft.to/lastmile_qr_scan", "ios": "https://dc.lft.to/lastmile_qr_scan"}, "fusion_lon": 0.0}, {"lat": 38.907197833333335, "is_disabled": 0, "type": "electric_scooter", "lon": -76.98928266666667, "bike_id": "f61261213c6de955979a60adab219b6e", "fusion_lat": 0.0, "name": "f61261213c6de955979a60adab219b6e", "is_reserved": 0, "rental_uris": {"android": "https://dc.lft.to/lastmile_qr_scan", "ios": "https://dc.lft.to/lastmile_qr_scan"}, "fusion_lon": 0.0}, {"lat": 38.92064, "is_disabled": 0, "type": "electric_bike", "lon": -76.98371016666667, "bike_id": "6dde9fafd5bc438142e3c49c93765a25", "fusion_lat": 0.0, "name": "6dde9fafd5bc438142e3c49c93765a25", "is_reserved": 0, "rental_uris": {"android": "https://dc.lft.to/lastmile_qr_scan", "ios": "https://dc.lft.to/lastmile_qr_scan"}, "fusion_lon": 0.0}, {"lat": 38.930848, "is_disabled": 0, "type": "electric_scooter", "lon": -77.0775135, "bike_id": "05183c2c46a4c79ff8e4793ff4f2cfda", "fusion_lat": 0.0, "name": "05183c2c46a4c79ff8e4793ff4f2cfda", "is_reserved": 0, "rental_uris": {"android": "https://dc.lft.to/lastmile_qr_scan", "ios": "https://dc.lft.to/lastmile_qr_scan"}, "fusion_lon": 0.0}, {"lat": 38.896201, "is_disabled": 0, "type": "electric_scooter", "lon": -77.0301715, "bike_id": "43c48ad5e23380b2308104c900611e05", "fusion_lat": 0.0, "name": "43c48ad5e23380b2308104c900611e05", "is_reserved": 0, "rental_uris": {"android": "https://dc.lft.to/lastmile_qr_scan", "ios": "https://dc.lft.to/lastmile_qr_scan"}, "fusion_lon": 0.0}, {"lat": 38.92422933333334, "is_disabled": 0, "type": "electric_scooter", "lon": -77.02982616666667, "bike_id": "d279b908c1fab976dad8e8cb4311fe24", "fusion_lat": 0.0, "name": "d279b908c1fab976dad8e8cb4311fe24", "is_reserved": 0, "rental_uris": {"android": "https://dc.lft.to/lastmile_qr_scan", "ios": "https://dc.lft.to/lastmile_qr_scan"}, "fusion_lon": 0.0}, {"lat": 38.898054, "is_disabled": 0, "type": "electric_scooter", "lon": -77.03013833333333, "bike_id": "93d57bacf57c3420960a5bba8508083a", "fusion_lat": 0.0, "name": "93d57bacf57c3420960a5bba8508083a", "is_reserved": 0, "rental_uris": {"android": "https://dc.lft.to/lastmile_qr_scan", "ios": "https://dc.lft.to/lastmile_qr_scan"}, "fusion_lon": 0.0}, {"lat": 38.921218833333334, "is_disabled": 0, "type": "electric_scooter", "lon": -77.03662766666666, "bike_id": "9a6cd696005aab47e713800251e1c795", "fusion_lat": 0.0, "name": "9a6cd696005aab47e713800251e1c795", "is_reserved": 0, "rental_uris": {"android": "https://dc.lft.to/lastmile_qr_scan", "ios": "https://dc.lft.to/lastmile_qr_scan"}, "fusion_lon": 0.0}, {"lat": 38.96116216666667, "is_disabled": 0, "type": "electric_scooter", "lon": -77.02816383333334, "bike_id": "97646789b976ca0fb06db54c9a40b09f", "fusion_lat": 0.0, "name": "97646789b976ca0fb06db54c9a40b09f", "is_reserved": 0, "rental_uris": {"android": "https://dc.lft.to/lastmile_qr_scan", "ios": "https://dc.lft.to/lastmile_qr_scan"}, "fusion_lon": 0.0}, {"lat": 38.89748, "is_disabled": 0, "type": "electric_scooter", "lon": -77.02656683333333, "bike_id": "b017bf1a38c5f88bc195568c5af83629", "fusion_lat": 0.0, "name": "b017bf1a38c5f88bc195568c5af83629", "is_reserved": 0, "rental_uris": {"android": "https://dc.lft.to/lastmile_qr_scan", "ios": "https://dc.lft.to/lastmile_qr_scan"}, "fusion_lon": 0.0}, {"lat": 38.92896366666667, "is_disabled": 0, "type": "electric_scooter", "lon": -77.074532, "bike_id": "b1e4a3206853cb2b0b364f57f48d3cfe", "fusion_lat": 0.0, "name": "b1e4a3206853cb2b0b364f57f48d3cfe", "is_reserved": 0, "rental_uris": {"android": "https://dc.lft.to/lastmile_qr_scan", "ios": "https://dc.lft.to/lastmile_qr_scan"}, "fusion_lon": 0.0}, {"lat": 38.9258035, "is_disabled": 0, "type": "electric_scooter", "lon": -77.05757966666667, "bike_id": "09a5a1e13a3c427a29bde8e085405cdf", "fusion_lat": 0.0, "name": "09a5a1e13a3c427a29bde8e085405cdf", "is_reserved": 0, "rental_uris": {"android": "https://dc.lft.to/lastmile_qr_scan", "ios": "https://dc.lft.to/lastmile_qr_scan"}, "fusion_lon": 0.0}, {"lat": 38.9258975, "is_disabled": 0, "type": "electric_scooter", "lon": -77.022749, "bike_id": "1a93ab6f97338bc8bb5114ab887b80da", "fusion_lat": 0.0, "name": "1a93ab6f97338bc8bb5114ab887b80da", "is_reserved": 0, "rental_uris": {"android": "https://dc.lft.to/lastmile_qr_scan", "ios": "https://dc.lft.to/lastmile_qr_scan"}, "fusion_lon": 0.0}, {"lat": 38.91414816666666, "is_disabled": 0, "type": "electric_scooter", "lon": -77.04500516666667, "bike_id": "7cf04f7c8e100956fddfa1a0aa57b713", "fusion_lat": 0.0, "name": "7cf04f7c8e100956fddfa1a0aa57b713", "is_reserved": 0, "rental_uris": {"android": "https://dc.lft.to/lastmile_qr_scan", "ios": "https://dc.lft.to/lastmile_qr_scan"}, "fusion_lon": 0.0}, {"lat": 38.914738666666665, "is_disabled": 0, "type": "electric_scooter", "lon": -77.00363183333333, "bike_id": "f9b6744a950e55dd326600e9b719cf02", "fusion_lat": 0.0, "name": "f9b6744a950e55dd326600e9b719cf02", "is_reserved": 0, "rental_uris": {"android": "https://dc.lft.to/lastmile_qr_scan", "ios": "https://dc.lft.to/lastmile_qr_scan"}, "fusion_lon": 0.0}, {"lat": 38.89768683333333, "is_disabled": 0, "type": "electric_bike", "lon": -76.90440833333334, "bike_id": "594bdf3eb290f2b92300fbd79b720837", "fusion_lat": 0.0, "name": "594bdf3eb290f2b92300fbd79b720837", "is_reserved": 0, "rental_uris": {"android": "https://dc.lft.to/lastmile_qr_scan", "ios": "https://dc.lft.to/lastmile_qr_scan"}, "fusion_lon": 0.0}, {"lat": 38.904241666666664, "is_disabled": 0, "type": "electric_scooter", "lon": -77.0533975, "bike_id": "2614ff5be3905eabfb3d27c3f084b028", "fusion_lat": 0.0, "name": "2614ff5be3905eabfb3d27c3f084b028", "is_reserved": 0, "rental_uris": {"android": "https://dc.lft.to/lastmile_qr_scan", "ios": "https://dc.lft.to/lastmile_qr_scan"}, "fusion_lon": 0.0}, {"lat": 38.91756816666667, "is_disabled": 0, "type": "electric_scooter", "lon": -77.016082, "bike_id": "be4dbc38379eb240756f2641a9081d71", "fusion_lat": 0.0, "name": "be4dbc38379eb240756f2641a9081d71", "is_reserved": 0, "rental_uris": {"android": "https://dc.lft.to/lastmile_qr_scan", "ios": "https://dc.lft.to/lastmile_qr_scan"}, "fusion_lon": 0.0}, {"lat": 38.957069, "is_disabled": 0, "type": "electric_scooter", "lon": -77.07091, "bike_id": "9e3062e6cb7d1a606602140fa5353624", "fusion_lat": 0.0, "name": "9e3062e6cb7d1a606602140fa5353624", "is_reserved": 0, "rental_uris": {"android": "https://dc.lft.to/lastmile_qr_scan", "ios": "https://dc.lft.to/lastmile_qr_scan"}, "fusion_lon": 0.0}, {"lat": 38.901562166666665, "is_disabled": 0, "type": "electric_scooter", "lon": -76.98633666666667, "bike_id": "054d3a4d155d9e03905c5640ce4b2a3a", "fusion_lat": 0.0, "name": "054d3a4d155d9e03905c5640ce4b2a3a", "is_reserved": 0, "rental_uris": {"android": "https://dc.lft.to/lastmile_qr_scan", "ios": "https://dc.lft.to/lastmile_qr_scan"}, "fusion_lon": 0.0}, {"lat": 38.9168985, "is_disabled": 0, "type": "electric_scooter", "lon": -77.03737733333334, "bike_id": "5fd908075fe1457f49709f070d7403f7", "fusion_lat": 0.0, "name": "5fd908075fe1457f49709f070d7403f7", "is_reserved": 0, "rental_uris": {"android": "https://dc.lft.to/lastmile_qr_scan", "ios": "https://dc.lft.to/lastmile_qr_scan"}, "fusion_lon": 0.0}, {"lat": 38.892391, "is_disabled": 0, "type": "electric_scooter", "lon": -77.028, "bike_id": "45d7dd13f39af9d17a7957800f3a7a5a", "fusion_lat": 0.0, "name": "45d7dd13f39af9d17a7957800f3a7a5a", "is_reserved": 0, "rental_uris": {"android": "https://dc.lft.to/lastmile_qr_scan", "ios": "https://dc.lft.to/lastmile_qr_scan"}, "fusion_lon": 0.0}, {"lat": 38.9010045, "is_disabled": 0, "type": "electric_scooter", "lon": -77.0170825, "bike_id": "046492a079a5066163569103d86cfceb", "fusion_lat": 0.0, "name": "046492a079a5066163569103d86cfceb", "is_reserved": 0, "rental_uris": {"android": "https://dc.lft.to/lastmile_qr_scan", "ios": "https://dc.lft.to/lastmile_qr_scan"}, "fusion_lon": 0.0}, {"lat": 38.885169833333336, "is_disabled": 0, "type": "electric_scooter", "lon": -77.002733, "bike_id": "6769379d778befa129dbb3ba47ed7146", "fusion_lat": 0.0, "name": "6769379d778befa129dbb3ba47ed7146", "is_reserved": 0, "rental_uris": {"android": "https://dc.lft.to/lastmile_qr_scan", "ios": "https://dc.lft.to/lastmile_qr_scan"}, "fusion_lon": 0.0}, {"lat": 38.92570466666667, "is_disabled": 0, "type": "electric_scooter", "lon": -77.05745416666667, "bike_id": "b2e3d744175f2b219ce9c4ef5f7c8f1d", "fusion_lat": 0.0, "name": "b2e3d744175f2b219ce9c4ef5f7c8f1d", "is_reserved": 0, "rental_uris": {"android": "https://dc.lft.to/lastmile_qr_scan", "ios": "https://dc.lft.to/lastmile_qr_scan"}, "fusion_lon": 0.0}, {"lat": 38.87381383333334, "is_disabled": 0, "type": "electric_scooter", "lon": -77.000573, "bike_id": "72687650872ca54de66adf58aa711965", "fusion_lat": 0.0, "name": "72687650872ca54de66adf58aa711965", "is_reserved": 0, "rental_uris": {"android": "https://dc.lft.to/lastmile_qr_scan", "ios": "https://dc.lft.to/lastmile_qr_scan"}, "fusion_lon": 0.0}, {"lat": 38.89994983333333, "is_disabled": 0, "type": "electric_scooter", "lon": -77.0218155, "bike_id": "2997bed517913a6aeb34c8dfdafbcc2e", "fusion_lat": 0.0, "name": "2997bed517913a6aeb34c8dfdafbcc2e", "is_reserved": 0, "rental_uris": {"android": "https://dc.lft.to/lastmile_qr_scan", "ios": "https://dc.lft.to/lastmile_qr_scan"}, "fusion_lon": 0.0}, {"lat": 38.881118666666666, "is_disabled": 0, "type": "electric_scooter", "lon": -76.98341166666667, "bike_id": "40bf1f3e001f80d59598c5963b81131a", "fusion_lat": 0.0, "name": "40bf1f3e001f80d59598c5963b81131a", "is_reserved": 0, "rental_uris": {"android": "https://dc.lft.to/lastmile_qr_scan", "ios": "https://dc.lft.to/lastmile_qr_scan"}, "fusion_lon": 0.0}, {"lat": 38.84271016666667, "is_disabled": 0, "type": "electric_bike", "lon": -76.98851316666666, "bike_id": "59eb0c68b9e994c2a4918420bb46e045", "fusion_lat": 0.0, "name": "59eb0c68b9e994c2a4918420bb46e045", "is_reserved": 0, "rental_uris": {"android": "https://dc.lft.to/lastmile_qr_scan", "ios": "https://dc.lft.to/lastmile_qr_scan"}, "fusion_lon": 0.0}, {"lat": 38.915617166666664, "is_disabled": 0, "type": "electric_scooter", "lon": -77.04871783333333, "bike_id": "e74fba50b2f8af8d33cd049b6eb2da9d", "fusion_lat": 0.0, "name": "e74fba50b2f8af8d33cd049b6eb2da9d", "is_reserved": 0, "rental_uris": {"android": "https://dc.lft.to/lastmile_qr_scan", "ios": "https://dc.lft.to/lastmile_qr_scan"}, "fusion_lon": 0.0}, {"lat": 38.8850355, "is_disabled": 0, "type": "electric_scooter", "lon": -77.01560733333334, "bike_id": "0c05d9dfc01edfef3bd199942266011d", "fusion_lat": 0.0, "name": "0c05d9dfc01edfef3bd199942266011d", "is_reserved": 0, "rental_uris": {"android": "https://dc.lft.to/lastmile_qr_scan", "ios": "https://dc.lft.to/lastmile_qr_scan"}, "fusion_lon": 0.0}, {"lat": 38.890427833333334, "is_disabled": 0, "type": "electric_scooter", "lon": -76.93759333333334, "bike_id": "fd8bb02f48327f3f45b4529baaaceb77", "fusion_lat": 0.0, "name": "fd8bb02f48327f3f45b4529baaaceb77", "is_reserved": 0, "rental_uris": {"android": "https://dc.lft.to/lastmile_qr_scan", "ios": "https://dc.lft.to/lastmile_qr_scan"}, "fusion_lon": 0.0}, {"lat": 38.9708755, "is_disabled": 0, "type": "electric_bike", "lon": -77.06970283333334, "bike_id": "d65ff4e2c48a48121d887a161c71b748", "fusion_lat": 0.0, "name": "d65ff4e2c48a48121d887a161c71b748", "is_reserved": 0, "rental_uris": {"android": "https://dc.lft.to/lastmile_qr_scan", "ios": "https://dc.lft.to/lastmile_qr_scan"}, "fusion_lon": 0.0}, {"lat": 38.91787016666667, "is_disabled": 0, "type": "electric_scooter", "lon": -77.04076216666667, "bike_id": "dd560a1881072fa16a8d6d26ed01a2a1", "fusion_lat": 0.0, "name": "dd560a1881072fa16a8d6d26ed01a2a1", "is_reserved": 0, "rental_uris": {"android": "https://dc.lft.to/lastmile_qr_scan", "ios": "https://dc.lft.to/lastmile_qr_scan"}, "fusion_lon": 0.0}, {"lat": 38.9084375, "is_disabled": 0, "type": "electric_scooter", "lon": -77.02715716666667, "bike_id": "1214f99f0136ea21150ebd0e61991116", "fusion_lat": 0.0, "name": "1214f99f0136ea21150ebd0e61991116", "is_reserved": 0, "rental_uris": {"android": "https://dc.lft.to/lastmile_qr_scan", "ios": "https://dc.lft.to/lastmile_qr_scan"}, "fusion_lon": 0.0}, {"lat": 38.88459, "is_disabled": 0, "type": "electric_scooter", "lon": -77.015396, "bike_id": "044180c6ce6a9f0ba27ea8878babf9e5", "fusion_lat": 0.0, "name": "044180c6ce6a9f0ba27ea8878babf9e5", "is_reserved": 0, "rental_uris": {"android": "https://dc.lft.to/lastmile_qr_scan", "ios": "https://dc.lft.to/lastmile_qr_scan"}, "fusion_lon": 0.0}, {"lat": 38.900372, "is_disabled": 0, "type": "electric_scooter", "lon": -77.00538066666667, "bike_id": "6f855097976ef5511d563ec89f79773e", "fusion_lat": 0.0, "name": "6f855097976ef5511d563ec89f79773e", "is_reserved": 0, "rental_uris": {"android": "https://dc.lft.to/lastmile_qr_scan", "ios": "https://dc.lft.to/lastmile_qr_scan"}, "fusion_lon": 0.0}, {"lat": 38.90866283333333, "is_disabled": 0, "type": "electric_scooter", "lon": -77.00282866666667, "bike_id": "813bc83d9de758c05ffd81d2856feeba", "fusion_lat": 0.0, "name": "813bc83d9de758c05ffd81d2856feeba", "is_reserved": 0, "rental_uris": {"android": "https://dc.lft.to/lastmile_qr_scan", "ios": "https://dc.lft.to/lastmile_qr_scan"}, "fusion_lon": 0.0}, {"lat": 38.957377, "is_disabled": 0, "type": "electric_bike", "lon": -77.02326583333334, "bike_id": "edd4c15991783988ee8c105f7d593a03", "fusion_lat": 0.0, "name": "edd4c15991783988ee8c105f7d593a03", "is_reserved": 0, "rental_uris": {"android": "https://dc.lft.to/lastmile_qr_scan", "ios": "https://dc.lft.to/lastmile_qr_scan"}, "fusion_lon": 0.0}, {"lat": 38.9172665, "is_disabled": 0, "type": "electric_scooter", "lon": -77.03663116666667, "bike_id": "8748e36da3f7b15237ce89df71896881", "fusion_lat": 0.0, "name": "8748e36da3f7b15237ce89df71896881", "is_reserved": 0, "rental_uris": {"android": "https://dc.lft.to/lastmile_qr_scan", "ios": "https://dc.lft.to/lastmile_qr_scan"}, "fusion_lon": 0.0}, {"lat": 38.920163333333335, "is_disabled": 0, "type": "electric_scooter", "lon": -77.03121216666666, "bike_id": "e2dd2b7c2cbbfe53444210277b8dc08d", "fusion_lat": 0.0, "name": "e2dd2b7c2cbbfe53444210277b8dc08d", "is_reserved": 0, "rental_uris": {"android": "https://dc.lft.to/lastmile_qr_scan", "ios": "https://dc.lft.to/lastmile_qr_scan"}, "fusion_lon": 0.0}, {"lat": 38.89144616666667, "is_disabled": 0, "type": "electric_bike", "lon": -77.113077, "bike_id": "46fc5df05499e85f558265fe41804995", "fusion_lat": 0.0, "name": "46fc5df05499e85f558265fe41804995", "is_reserved": 0, "rental_uris": {"android": "https://dc.lft.to/lastmile_qr_scan", "ios": "https://dc.lft.to/lastmile_qr_scan"}, "fusion_lon": 0.0}, {"lat": 38.89223116666667, "is_disabled": 0, "type": "electric_bike", "lon": -77.10785233333333, "bike_id": "557f0702cdf53867cd0cdd1d9937326a", "fusion_lat": 0.0, "name": "557f0702cdf53867cd0cdd1d9937326a", "is_reserved": 0, "rental_uris": {"android": "https://dc.lft.to/lastmile_qr_scan", "ios": "https://dc.lft.to/lastmile_qr_scan"}, "fusion_lon": 0.0}, {"lat": 38.8971475, "is_disabled": 0, "type": "electric_scooter", "lon": -77.008006, "bike_id": "b594655db6163d369c943b2da7b991b4", "fusion_lat": 0.0, "name": "b594655db6163d369c943b2da7b991b4", "is_reserved": 0, "rental_uris": {"android": "https://dc.lft.to/lastmile_qr_scan", "ios": "https://dc.lft.to/lastmile_qr_scan"}, "fusion_lon": 0.0}, {"lat": 38.92673966666667, "is_disabled": 0, "type": "electric_scooter", "lon": -77.0074405, "bike_id": "9f5240389369c2585575922d36971110", "fusion_lat": 0.0, "name": "9f5240389369c2585575922d36971110", "is_reserved": 0, "rental_uris": {"android": "https://dc.lft.to/lastmile_qr_scan", "ios": "https://dc.lft.to/lastmile_qr_scan"}, "fusion_lon": 0.0}, {"lat": 38.89495683333333, "is_disabled": 0, "type": "electric_scooter", "lon": -77.0021415, "bike_id": "2248839cbf297eec519032b25f140df9", "fusion_lat": 0.0, "name": "2248839cbf297eec519032b25f140df9", "is_reserved": 0, "rental_uris": {"android": "https://dc.lft.to/lastmile_qr_scan", "ios": "https://dc.lft.to/lastmile_qr_scan"}, "fusion_lon": 0.0}, {"lat": 38.92443033333333, "is_disabled": 0, "type": "electric_scooter", "lon": -77.04033266666667, "bike_id": "4d907d3248711008a20efae573d26cce", "fusion_lat": 0.0, "name": "4d907d3248711008a20efae573d26cce", "is_reserved": 0, "rental_uris": {"android": "https://dc.lft.to/lastmile_qr_scan", "ios": "https://dc.lft.to/lastmile_qr_scan"}, "fusion_lon": 0.0}, {"lat": 38.8865765, "is_disabled": 0, "type": "electric_scooter", "lon": -76.99628716666666, "bike_id": "aa81d5d06d4e3da4d33eb3d89e017b60", "fusion_lat": 0.0, "name": "aa81d5d06d4e3da4d33eb3d89e017b60", "is_reserved": 0, "rental_uris": {"android": "https://dc.lft.to/lastmile_qr_scan", "ios": "https://dc.lft.to/lastmile_qr_scan"}, "fusion_lon": 0.0}, {"lat": 38.92706783333333, "is_disabled": 0, "type": "electric_scooter", "lon": -77.02098866666667, "bike_id": "8a571eda9502ab638f4bf725d2229fc4", "fusion_lat": 0.0, "name": "8a571eda9502ab638f4bf725d2229fc4", "is_reserved": 0, "rental_uris": {"android": "https://dc.lft.to/lastmile_qr_scan", "ios": "https://dc.lft.to/lastmile_qr_scan"}, "fusion_lon": 0.0}, {"lat": 38.88498716666667, "is_disabled": 0, "type": "electric_bike", "lon": -76.9808645, "bike_id": "a583867f5c664c607180e12d03974c9a", "fusion_lat": 0.0, "name": "a583867f5c664c607180e12d03974c9a", "is_reserved": 0, "rental_uris": {"android": "https://dc.lft.to/lastmile_qr_scan", "ios": "https://dc.lft.to/lastmile_qr_scan"}, "fusion_lon": 0.0}, {"lat": 38.933537, "is_disabled": 0, "type": "electric_bike", "lon": -77.09967133333333, "bike_id": "6130ce044e953fd6be773a5f68d5a00f", "fusion_lat": 0.0, "name": "6130ce044e953fd6be773a5f68d5a00f", "is_reserved": 0, "rental_uris": {"android": "https://dc.lft.to/lastmile_qr_scan", "ios": "https://dc.lft.to/lastmile_qr_scan"}, "fusion_lon": 0.0}, {"lat": 38.90624916666667, "is_disabled": 0, "type": "electric_scooter", "lon": -77.03969416666666, "bike_id": "54c3ea5190dbdaf60496e235ec6d4c8c", "fusion_lat": 0.0, "name": "54c3ea5190dbdaf60496e235ec6d4c8c", "is_reserved": 0, "rental_uris": {"android": "https://dc.lft.to/lastmile_qr_scan", "ios": "https://dc.lft.to/lastmile_qr_scan"}, "fusion_lon": 0.0}, {"lat": 38.918136833333335, "is_disabled": 0, "type": "electric_scooter", "lon": -77.0000875, "bike_id": "3288d5711e521d1accc2a640a97b4467", "fusion_lat": 0.0, "name": "3288d5711e521d1accc2a640a97b4467", "is_reserved": 0, "rental_uris": {"android": "https://dc.lft.to/lastmile_qr_scan", "ios": "https://dc.lft.to/lastmile_qr_scan"}, "fusion_lon": 0.0}, {"lat": 38.897364, "is_disabled": 0, "type": "electric_scooter", "lon": -77.00948433333333, "bike_id": "dd4f3219866fd67512067bfdfe2ed261", "fusion_lat": 0.0, "name": "dd4f3219866fd67512067bfdfe2ed261", "is_reserved": 0, "rental_uris": {"android": "https://dc.lft.to/lastmile_qr_scan", "ios": "https://dc.lft.to/lastmile_qr_scan"}, "fusion_lon": 0.0}, {"lat": 38.911135, "is_disabled": 0, "type": "electric_scooter", "lon": -77.03243483333334, "bike_id": "ed783c0fc28c4a7ceacf44286fa7cb8f", "fusion_lat": 0.0, "name": "ed783c0fc28c4a7ceacf44286fa7cb8f", "is_reserved": 0, "rental_uris": {"android": "https://dc.lft.to/lastmile_qr_scan", "ios": "https://dc.lft.to/lastmile_qr_scan"}, "fusion_lon": 0.0}, {"lat": 38.94901816666667, "is_disabled": 0, "type": "electric_bike", "lon": -76.9724395, "bike_id": "c54e481be51b477fbbcb1faf3b77aa6f", "fusion_lat": 0.0, "name": "c54e481be51b477fbbcb1faf3b77aa6f", "is_reserved": 0, "rental_uris": {"android": "https://dc.lft.to/lastmile_qr_scan", "ios": "https://dc.lft.to/lastmile_qr_scan"}, "fusion_lon": 0.0}, {"lat": 38.9239875, "is_disabled": 0, "type": "electric_scooter", "lon": -77.0269475, "bike_id": "cf3760664f6718198dab237695734d75", "fusion_lat": 0.0, "name": "cf3760664f6718198dab237695734d75", "is_reserved": 0, "rental_uris": {"android": "https://dc.lft.to/lastmile_qr_scan", "ios": "https://dc.lft.to/lastmile_qr_scan"}, "fusion_lon": 0.0}, {"lat": 38.925265333333336, "is_disabled": 0, "type": "electric_scooter", "lon": -77.02564466666666, "bike_id": "7c9a0591b9bcc4cacb93e13d44bdf5c4", "fusion_lat": 0.0, "name": "7c9a0591b9bcc4cacb93e13d44bdf5c4", "is_reserved": 0, "rental_uris": {"android": "https://dc.lft.to/lastmile_qr_scan", "ios": "https://dc.lft.to/lastmile_qr_scan"}, "fusion_lon": 0.0}, {"lat": 38.89838016666667, "is_disabled": 0, "type": "electric_scooter", "lon": -77.02388316666666, "bike_id": "c6337dba9fcba9a75432dee61cb52281", "fusion_lat": 0.0, "name": "c6337dba9fcba9a75432dee61cb52281", "is_reserved": 0, "rental_uris": {"android": "https://dc.lft.to/lastmile_qr_scan", "ios": "https://dc.lft.to/lastmile_qr_scan"}, "fusion_lon": 0.0}, {"lat": 38.930776, "is_disabled": 0, "type": "electric_scooter", "lon": -77.03136483333333, "bike_id": "2b2c9f84f6e0e46fd6f962c79d328a02", "fusion_lat": 0.0, "name": "2b2c9f84f6e0e46fd6f962c79d328a02", "is_reserved": 0, "rental_uris": {"android": "https://dc.lft.to/lastmile_qr_scan", "ios": "https://dc.lft.to/lastmile_qr_scan"}, "fusion_lon": 0.0}, {"lat": 38.9408655, "is_disabled": 0, "type": "electric_scooter", "lon": -77.06138983333334, "bike_id": "6d86d96457a2b1d3f14c83e1988640b8", "fusion_lat": 0.0, "name": "6d86d96457a2b1d3f14c83e1988640b8", "is_reserved": 0, "rental_uris": {"android": "https://dc.lft.to/lastmile_qr_scan", "ios": "https://dc.lft.to/lastmile_qr_scan"}, "fusion_lon": 0.0}, {"lat": 38.907728, "is_disabled": 0, "type": "electric_scooter", "lon": -77.00345566666667, "bike_id": "1891e66e782463569ec1a16f61d65654", "fusion_lat": 0.0, "name": "1891e66e782463569ec1a16f61d65654", "is_reserved": 0, "rental_uris": {"android": "https://dc.lft.to/lastmile_qr_scan", "ios": "https://dc.lft.to/lastmile_qr_scan"}, "fusion_lon": 0.0}, {"lat": 38.89887366666667, "is_disabled": 0, "type": "electric_scooter", "lon": -77.0333395, "bike_id": "6cb22db1a836003d159fad8270c57647", "fusion_lat": 0.0, "name": "6cb22db1a836003d159fad8270c57647", "is_reserved": 0, "rental_uris": {"android": "https://dc.lft.to/lastmile_qr_scan", "ios": "https://dc.lft.to/lastmile_qr_scan"}, "fusion_lon": 0.0}, {"lat": 38.89328066666667, "is_disabled": 0, "type": "electric_scooter", "lon": -76.9298985, "bike_id": "2a5ad114c297e1193f5d4777ddcdae57", "fusion_lat": 0.0, "name": "2a5ad114c297e1193f5d4777ddcdae57", "is_reserved": 0, "rental_uris": {"android": "https://dc.lft.to/lastmile_qr_scan", "ios": "https://dc.lft.to/lastmile_qr_scan"}, "fusion_lon": 0.0}, {"lat": 38.89731466666667, "is_disabled": 0, "type": "electric_scooter", "lon": -77.02650216666666, "bike_id": "aa5a4e5096300d28f8f643da1e65f356", "fusion_lat": 0.0, "name": "aa5a4e5096300d28f8f643da1e65f356", "is_reserved": 0, "rental_uris": {"android": "https://dc.lft.to/lastmile_qr_scan", "ios": "https://dc.lft.to/lastmile_qr_scan"}, "fusion_lon": 0.0}, {"lat": 38.91707316666667, "is_disabled": 0, "type": "electric_scooter", "lon": -77.03501166666666, "bike_id": "61acd056beb0a7c426e831e8b0338983", "fusion_lat": 0.0, "name": "61acd056beb0a7c426e831e8b0338983", "is_reserved": 0, "rental_uris": {"android": "https://dc.lft.to/lastmile_qr_scan", "ios": "https://dc.lft.to/lastmile_qr_scan"}, "fusion_lon": 0.0}, {"lat": 38.898361666666666, "is_disabled": 0, "type": "electric_scooter", "lon": -77.04352416666667, "bike_id": "75b909a87eb6d2cb55002afc47778d09", "fusion_lat": 0.0, "name": "75b909a87eb6d2cb55002afc47778d09", "is_reserved": 0, "rental_uris": {"android": "https://dc.lft.to/lastmile_qr_scan", "ios": "https://dc.lft.to/lastmile_qr_scan"}, "fusion_lon": 0.0}, {"lat": 38.9386165, "is_disabled": 0, "type": "electric_scooter", "lon": -77.02653383333333, "bike_id": "b21824dd19d0f815eb20af4bdcb5f85d", "fusion_lat": 0.0, "name": "b21824dd19d0f815eb20af4bdcb5f85d", "is_reserved": 0, "rental_uris": {"android": "https://dc.lft.to/lastmile_qr_scan", "ios": "https://dc.lft.to/lastmile_qr_scan"}, "fusion_lon": 0.0}, {"lat": 38.896206166666666, "is_disabled": 0, "type": "electric_scooter", "lon": -76.998542, "bike_id": "61ea8f97020d2cb6cb9d08f2704e0125", "fusion_lat": 0.0, "name": "61ea8f97020d2cb6cb9d08f2704e0125", "is_reserved": 0, "rental_uris": {"android": "https://dc.lft.to/lastmile_qr_scan", "ios": "https://dc.lft.to/lastmile_qr_scan"}, "fusion_lon": 0.0}, {"lat": 39.03401433333333, "is_disabled": 0, "type": "electric_bike", "lon": -77.04202283333333, "bike_id": "4857800b4bb3ba9e0a00cbf75622ea47", "fusion_lat": 0.0, "name": "4857800b4bb3ba9e0a00cbf75622ea47", "is_reserved": 0, "rental_uris": {"android": "https://dc.lft.to/lastmile_qr_scan", "ios": "https://dc.lft.to/lastmile_qr_scan"}, "fusion_lon": 0.0}, {"lat": 38.922672166666665, "is_disabled": 0, "type": "electric_scooter", "lon": -77.03641566666667, "bike_id": "792c8b9629a42dae7f5c221191b58edd", "fusion_lat": 0.0, "name": "792c8b9629a42dae7f5c221191b58edd", "is_reserved": 0, "rental_uris": {"android": "https://dc.lft.to/lastmile_qr_scan", "ios": "https://dc.lft.to/lastmile_qr_scan"}, "fusion_lon": 0.0}, {"lat": 38.917111, "is_disabled": 0, "type": "electric_scooter", "lon": -77.03321016666666, "bike_id": "455d41fa88507101038840a44427a67a", "fusion_lat": 0.0, "name": "455d41fa88507101038840a44427a67a", "is_reserved": 0, "rental_uris": {"android": "https://dc.lft.to/lastmile_qr_scan", "ios": "https://dc.lft.to/lastmile_qr_scan"}, "fusion_lon": 0.0}, {"lat": 38.876287, "is_disabled": 0, "type": "electric_scooter", "lon": -76.96526733333333, "bike_id": "74a137059ad448f41a92767d880515ce", "fusion_lat": 0.0, "name": "74a137059ad448f41a92767d880515ce", "is_reserved": 0, "rental_uris": {"android": "https://dc.lft.to/lastmile_qr_scan", "ios": "https://dc.lft.to/lastmile_qr_scan"}, "fusion_lon": 0.0}, {"lat": 38.89547916666667, "is_disabled": 0, "type": "electric_scooter", "lon": -77.05008366666667, "bike_id": "a206bdf48bb42d10f31155ad65e4d8a9", "fusion_lat": 0.0, "name": "a206bdf48bb42d10f31155ad65e4d8a9", "is_reserved": 0, "rental_uris": {"android": "https://dc.lft.to/lastmile_qr_scan", "ios": "https://dc.lft.to/lastmile_qr_scan"}, "fusion_lon": 0.0}, {"lat": 38.900274333333336, "is_disabled": 0, "type": "electric_scooter", "lon": -76.99598683333333, "bike_id": "488d47ab5f81506a623fc2d990f8f058", "fusion_lat": 0.0, "name": "488d47ab5f81506a623fc2d990f8f058", "is_reserved": 0, "rental_uris": {"android": "https://dc.lft.to/lastmile_qr_scan", "ios": "https://dc.lft.to/lastmile_qr_scan"}, "fusion_lon": 0.0}, {"lat": 38.909253666666665, "is_disabled": 0, "type": "electric_scooter", "lon": -77.06172616666667, "bike_id": "702ee18d0d3ff7fc7d995eddcc78eade", "fusion_lat": 0.0, "name": "702ee18d0d3ff7fc7d995eddcc78eade", "is_reserved": 0, "rental_uris": {"android": "https://dc.lft.to/lastmile_qr_scan", "ios": "https://dc.lft.to/lastmile_qr_scan"}, "fusion_lon": 0.0}, {"lat": 38.9224735, "is_disabled": 0, "type": "electric_scooter", "lon": -77.02711416666666, "bike_id": "7c2115a63038e89beee445e26d5ea4ad", "fusion_lat": 0.0, "name": "7c2115a63038e89beee445e26d5ea4ad", "is_reserved": 0, "rental_uris": {"android": "https://dc.lft.to/lastmile_qr_scan", "ios": "https://dc.lft.to/lastmile_qr_scan"}, "fusion_lon": 0.0}, {"lat": 38.9308135, "is_disabled": 0, "type": "electric_scooter", "lon": -77.027946, "bike_id": "ca94e6ef44b7b0c3c52667a3edf672b3", "fusion_lat": 0.0, "name": "ca94e6ef44b7b0c3c52667a3edf672b3", "is_reserved": 0, "rental_uris": {"android": "https://dc.lft.to/lastmile_qr_scan", "ios": "https://dc.lft.to/lastmile_qr_scan"}, "fusion_lon": 0.0}, {"lat": 38.892821166666664, "is_disabled": 0, "type": "electric_scooter", "lon": -76.95851766666667, "bike_id": "76025c59bc04dc8f24afdeee73441236", "fusion_lat": 0.0, "name": "76025c59bc04dc8f24afdeee73441236", "is_reserved": 0, "rental_uris": {"android": "https://dc.lft.to/lastmile_qr_scan", "ios": "https://dc.lft.to/lastmile_qr_scan"}, "fusion_lon": 0.0}, {"lat": 38.90721466666667, "is_disabled": 0, "type": "electric_scooter", "lon": -77.02491216666667, "bike_id": "fcb8225441b78c6f08a27490b7672394", "fusion_lat": 0.0, "name": "fcb8225441b78c6f08a27490b7672394", "is_reserved": 0, "rental_uris": {"android": "https://dc.lft.to/lastmile_qr_scan", "ios": "https://dc.lft.to/lastmile_qr_scan"}, "fusion_lon": 0.0}, {"lat": 38.90965816666667, "is_disabled": 0, "type": "electric_scooter", "lon": -77.00920133333334, "bike_id": "60fe7e2f37e2f6bb9385d993d997dc92", "fusion_lat": 0.0, "name": "60fe7e2f37e2f6bb9385d993d997dc92", "is_reserved": 0, "rental_uris": {"android": "https://dc.lft.to/lastmile_qr_scan", "ios": "https://dc.lft.to/lastmile_qr_scan"}, "fusion_lon": 0.0}, {"lat": 38.9126775, "is_disabled": 0, "type": "electric_scooter", "lon": -77.03937583333334, "bike_id": "2926268c1119a6c82b0cf4477167a1b4", "fusion_lat": 0.0, "name": "2926268c1119a6c82b0cf4477167a1b4", "is_reserved": 0, "rental_uris": {"android": "https://dc.lft.to/lastmile_qr_scan", "ios": "https://dc.lft.to/lastmile_qr_scan"}, "fusion_lon": 0.0}, {"lat": 38.90105416666667, "is_disabled": 0, "type": "electric_scooter", "lon": -77.05902, "bike_id": "73950bf605eb2d710db96c6c0f7e6b11", "fusion_lat": 0.0, "name": "73950bf605eb2d710db96c6c0f7e6b11", "is_reserved": 0, "rental_uris": {"android": "https://dc.lft.to/lastmile_qr_scan", "ios": "https://dc.lft.to/lastmile_qr_scan"}, "fusion_lon": 0.0}, {"lat": 38.889861333333336, "is_disabled": 0, "type": "electric_bike", "lon": -77.0712815, "bike_id": "5bcca1528bcafe855f3d59757da2de95", "fusion_lat": 0.0, "name": "5bcca1528bcafe855f3d59757da2de95", "is_reserved": 0, "rental_uris": {"android": "https://dc.lft.to/lastmile_qr_scan", "ios": "https://dc.lft.to/lastmile_qr_scan"}, "fusion_lon": 0.0}, {"lat": 38.905455833333335, "is_disabled": 0, "type": "electric_scooter", "lon": -77.0340625, "bike_id": "2c1876b2023308fcb313f246e63ecef1", "fusion_lat": 0.0, "name": "2c1876b2023308fcb313f246e63ecef1", "is_reserved": 0, "rental_uris": {"android": "https://dc.lft.to/lastmile_qr_scan", "ios": "https://dc.lft.to/lastmile_qr_scan"}, "fusion_lon": 0.0}, {"lat": 38.924260333333336, "is_disabled": 0, "type": "electric_scooter", "lon": -77.05182166666667, "bike_id": "fee93e6bdc4fad147ba292ff8c549b2e", "fusion_lat": 0.0, "name": "fee93e6bdc4fad147ba292ff8c549b2e", "is_reserved": 0, "rental_uris": {"android": "https://dc.lft.to/lastmile_qr_scan", "ios": "https://dc.lft.to/lastmile_qr_scan"}, "fusion_lon": 0.0}, {"lat": 38.90981416666666, "is_disabled": 0, "type": "electric_bike", "lon": -76.985248, "bike_id": "b17f2cf9b779ed5090c8611801d54420", "fusion_lat": 0.0, "name": "b17f2cf9b779ed5090c8611801d54420", "is_reserved": 0, "rental_uris": {"android": "https://dc.lft.to/lastmile_qr_scan", "ios": "https://dc.lft.to/lastmile_qr_scan"}, "fusion_lon": 0.0},