{"data": {"bikes": [{"lon": -77.01760216666666, "bike_id": "e0fd6a7a5f0a9df3fdedd532899449f6", "lat": 38.878076666666665, "fusion_lon": 0.0, "fusion_lat": 0.0, "type": "electric_scooter", "name": "e0fd6a7a5f0a9df3fdedd532899449f6", "is_disabled": 0, "rental_uris": {"ios": "https://dc.lft.to/lastmile_qr_scan", "android": "https://dc.lft.to/lastmile_qr_scan"}, "is_reserved": 0}, {"lon": -76.97997216666667, "bike_id": "521d948bcb1fef418db4e83dd218143b", "lat": 38.906853, "fusion_lon": 0.0, "fusion_lat": 0.0, "type": "electric_scooter", "name": "521d948bcb1fef418db4e83dd218143b", "is_disabled": 0, "rental_uris": {"ios": "https://dc.lft.to/lastmile_qr_scan", "android": "https://dc.lft.to/lastmile_qr_scan"}, "is_reserved": 0}, {"lon": -77.03676116666666, "bike_id": "4756adf69cdf24c30b2ede5fd3237525", "lat": 38.93649166666667, "fusion_lon": 0.0, "fusion_lat": 0.0, "type": "electric_bike", "name": "4756adf69cdf24c30b2ede5fd3237525", "is_disabled": 0, "rental_uris": {"ios": "https://dc.lft.to/lastmile_qr_scan", "android": "https://dc.lft.to/lastmile_qr_scan"}, "is_reserved": 0}, {"lon": -76.951854, "bike_id": "43a99d28c5628941824d5696ca09d11d", "lat": 38.90742983333333, "fusion_lon": 0.0, "fusion_lat": 0.0, "type": "electric_scooter", "name": "43a99d28c5628941824d5696ca09d11d", "is_disabled": 0, "rental_uris": {"ios": "https://dc.lft.to/lastmile_qr_scan", "android": "https://dc.lft.to/lastmile_qr_scan"}, "is_reserved": 0}, {"lon": -76.9819705, "bike_id": "4004ed88d0e3014608ef8e3fd1c3d1dd", "lat": 38.8995195, "fusion_lon": 0.0, "fusion_lat": 0.0, "type": "electric_scooter", "name": "4004ed88d0e3014608ef8e3fd1c3d1dd", "is_disabled": 0, "rental_uris": {"ios": "https://dc.lft.to/lastmile_qr_scan", "android": "https://dc.lft.to/lastmile_qr_scan"}, "is_reserved": 0}, {"lon": -77.019497, "bike_id": "2ac738a3e85ce192a3df5a55bf9d9748", "lat": 38.922575, "fusion_lon": 0.0, "fusion_lat": 0.0, "type": "electric_scooter", "name": "2ac738a3e85ce192a3df5a55bf9d9748", "is_disabled": 0, "rental_uris": {"ios": "https://dc.lft.to/lastmile_qr_scan", "android": "https://dc.lft.to/lastmile_qr_scan"}, "is_reserved": 0}, {"lon": -77.0184755, "bike_id": "6eb309ad8a62df071d539588092a2b1c", "lat": 38.931096333333336, "fusion_lon": 0.0, "fusion_lat": 0.0, "type": "electric_bike", "name": "6eb309ad8a62df071d539588092a2b1c", "is_disabled": 0, "rental_uris": {"ios": "https://dc.lft.to/lastmile_qr_scan", "android": "https://dc.lft.to/lastmile_qr_scan"}, "is_reserved": 0}, {"lon": -76.98261866666667, "bike_id": "e8ecdd4658686813116d89abe1e97639", "lat": 38.90867, "fusion_lon": 0.0, "fusion_lat": 0.0, "type": "electric_scooter", "name": "e8ecdd4658686813116d89abe1e97639", "is_disabled": 0, "rental_uris": {"ios": "https://dc.lft.to/lastmile_qr_scan", "android": "https://dc.lft.to/lastmile_qr_scan"}, "is_reserved": 0}, {"lon": -77.0401515, "bike_id": "8616ae66fc707be46d61d15e03b54faa", "lat": 38.924550333333336, "fusion_lon": 0.0, "fusion_lat": 0.0, "type": "electric_scooter", "name": "8616ae66fc707be46d61d15e03b54faa", "is_disabled": 0, "rental_uris": {"ios": "https://dc.lft.to/lastmile_qr_scan", "android": "https://dc.lft.to/lastmile_qr_scan"}, "is_reserved": 0}, {"lon": -77.02796083333334, "bike_id": "b100f41d573b2c6ca34a5c0a495b0309", "lat": 38.929644, "fusion_lon": 0.0, "fusion_lat": 0.0, "type": "electric_scooter", "name": "b100f41d573b2c6ca34a5c0a495b0309", "is_disabled": 0, "rental_uris": {"ios": "https://dc.lft.to/lastmile_qr_scan", "android": "https://dc.lft.to/lastmile_qr_scan"}, "is_reserved": 0}, {"lon": -77.0235605, "bike_id": "9683645b6de3c20816aab0408af28129", "lat": 38.92089983333334, "fusion_lon": 0.0, "fusion_lat": 0.0, "type": "electric_scooter", "name": "9683645b6de3c20816aab0408af28129", "is_disabled": 0, "rental_uris": {"ios": "https://dc.lft.to/lastmile_qr_scan", "android": "https://dc.lft.to/lastmile_qr_scan"}, "is_reserved": 0}, {"lon": -76.983712, "bike_id": "3fa51d570d993857feca5fa6142a04cf", "lat": 38.89985, "fusion_lon": 0.0, "fusion_lat": 0.0, "type": "electric_scooter", "name": "3fa51d570d993857feca5fa6142a04cf", "is_disabled": 0, "rental_uris": {"ios": "https://dc.lft.to/lastmile_qr_scan", "android": "https://dc.lft.to/lastmile_qr_scan"}, "is_reserved": 0}, {"lon": -77.08768583333334, "bike_id": "b2a41541a6f6758a9bccda7a3db9055b", "lat": 38.889376666666664, "fusion_lon": 0.0, "fusion_lat": 0.0, "type": "electric_bike", "name": "b2a41541a6f6758a9bccda7a3db9055b", "is_disabled": 0, "rental_uris": {"ios": "https://dc.lft.to/lastmile_qr_scan", "android": "https://dc.lft.to/lastmile_qr_scan"}, "is_reserved": 0}, {"lon": -77.078985, "bike_id": "c1edbb6a4dc4e682e0ae31707d1a861d", "lat": 38.83936666666666, "fusion_lon": 0.0, "fusion_lat": 0.0, "type": "electric_bike", "name": "c1edbb6a4dc4e682e0ae31707d1a861d", "is_disabled": 0, "rental_uris": {"ios": "https://dc.lft.to/lastmile_qr_scan", "android": "https://dc.lft.to/lastmile_qr_scan"}, "is_reserved": 0}, {"lon": -76.98713466666666, "bike_id": "0e15ff3d787bf686b8a399b1fd1fe78d", "lat": 38.8662775, "fusion_lon": 0.0, "fusion_lat": 0.0, "type": "electric_scooter", "name": "0e15ff3d787bf686b8a399b1fd1fe78d", "is_disabled": 0, "rental_uris": {"ios": "https://dc.lft.to/lastmile_qr_scan", "android": "https://dc.lft.to/lastmile_qr_scan"}, "is_reserved": 0}, {"lon": -77.03570133333334, "bike_id": "90913c679c4b0e0c47e1e42935ac2fe6", "lat": 38.936881, "fusion_lon": 0.0, "fusion_lat": 0.0, "type": "electric_scooter", "name": "90913c679c4b0e0c47e1e42935ac2fe6", "is_disabled": 0, "rental_uris": {"ios": "https://dc.lft.to/lastmile_qr_scan", "android": "https://dc.lft.to/lastmile_qr_scan"}, "is_reserved": 0}, {"lon": -76.99647283333333, "bike_id": "c0764d4321b363097330e0918929ceec", "lat": 38.9002105, "fusion_lon": 0.0, "fusion_lat": 0.0, "type": "electric_scooter", "name": "c0764d4321b363097330e0918929ceec", "is_disabled": 0, "rental_uris": {"ios": "https://dc.lft.to/lastmile_qr_scan", "android": "https://dc.lft.to/lastmile_qr_scan"}, "is_reserved": 0}, {"lon": -77.03257666666667, "bike_id": "1de70f345d4151207c701e81d2b45670", "lat": 38.930015166666664, "fusion_lon": 0.0, "fusion_lat": 0.0, "type": "electric_scooter", "name": "1de70f345d4151207c701e81d2b45670", "is_disabled": 0, "rental_uris": {"ios": "https://dc.lft.to/lastmile_qr_scan", "android": "https://dc.lft.to/lastmile_qr_scan"}, "is_reserved": 0}, {"lon": -77.03057016666666, "bike_id": "56c29b560aba285aebe633722d7550ac", "lat": 38.884186166666666, "fusion_lon": 0.0, "fusion_lat": 0.0, "type": "electric_scooter", "name": "56c29b560aba285aebe633722d7550ac", "is_disabled": 0, "rental_uris": {"ios": "https://dc.lft.to/lastmile_qr_scan", "android": "https://dc.lft.to/lastmile_qr_scan"}, "is_reserved": 0}, {"lon": -77.04480516666666, "bike_id": "095429e85e6655df370f446bdcf1a2a9", "lat": 38.92427266666667, "fusion_lon": 0.0, "fusion_lat": 0.0, "type": "electric_scooter", "name": "095429e85e6655df370f446bdcf1a2a9", "is_disabled": 0, "rental_uris": {"ios": "https://dc.lft.to/lastmile_qr_scan", "android": "https://dc.lft.to/lastmile_qr_scan"}, "is_reserved": 0}, {"lon": -77.027475, "bike_id": "26eba8210b5e5abc1632593f9d03fccb", "lat": 38.94186966666667, "fusion_lon": 0.0, "fusion_lat": 0.0, "type": "electric_scooter", "name": "26eba8210b5e5abc1632593f9d03fccb", "is_disabled": 0, "rental_uris": {"ios": "https://dc.lft.to/lastmile_qr_scan", "android": "https://dc.lft.to/lastmile_qr_scan"}, "is_reserved": 0}, {"lon": -76.99696266666666, "bike_id": "9a6e54b4eed13a48b635cfbae4ebc976", "lat": 38.9084075, "fusion_lon": 0.0, "fusion_lat": 0.0, "type": "electric_scooter", "name": "9a6e54b4eed13a48b635cfbae4ebc976", "is_disabled": 0, "rental_uris": {"ios": "https://dc.lft.to/lastmile_qr_scan", "android": "https://dc.lft.to/lastmile_qr_scan"}, "is_reserved": 0}, {"lon": -77.03465683333333, "bike_id": "fe0a616e73dd1fc0c1db5f3745ede425", "lat": 38.92159383333333, "fusion_lon": 0.0, "fusion_lat": 0.0, "type": "electric_scooter", "name": "fe0a616e73dd1fc0c1db5f3745ede425", "is_disabled": 0, "rental_uris": {"ios": "https://dc.lft.to/lastmile_qr_scan", "android": "https://dc.lft.to/lastmile_qr_scan"}, "is_reserved": 0}, {"lon": -77.02170016666666, "bike_id": "809e8c547d587c42f2eacbbd331f4d13", "lat": 38.930772166666664, "fusion_lon": 0.0, "fusion_lat": 0.0, "type": "electric_scooter", "name": "809e8c547d587c42f2eacbbd331f4d13", "is_disabled": 0, "rental_uris": {"ios": "https://dc.lft.to/lastmile_qr_scan", "android": "https://dc.lft.to/lastmile_qr_scan"}, "is_reserved": 0}, {"lon": -77.012696, "bike_id": "1b1b051eea9d6b102069283950150654", "lat": 38.864930666666666, "fusion_lon": 0.0, "fusion_lat": 0.0, "type": "electric_scooter", "name": "1b1b051eea9d6b102069283950150654", "is_disabled": 0, "rental_uris": {"ios": "https://dc.lft.to/lastmile_qr_scan", "android": "https://dc.lft.to/lastmile_qr_scan"}, "is_reserved": 0}, {"lon": -77.05719883333333, "bike_id": "9d914a5634bdb518d21e8f7a87bf1abf", "lat": 38.933708, "fusion_lon": 0.0, "fusion_lat": 0.0, "type": "electric_scooter", "name": "9d914a5634bdb518d21e8f7a87bf1abf", "is_disabled": 0, "rental_uris": {"ios": "https://dc.lft.to/lastmile_qr_scan", "android": "https://dc.lft.to/lastmile_qr_scan"}, "is_reserved": 0}, {"lon": -77.03848116666667, "bike_id": "ee776590e4a1a1fe38e6d3035ff234c4", "lat": 38.91471666666666, "fusion_lon": 0.0, "fusion_lat": 0.0, "type": "electric_scooter", "name": "ee776590e4a1a1fe38e6d3035ff234c4", "is_disabled": 0, "rental_uris": {"ios": "https://dc.lft.to/lastmile_qr_scan", "android": "https://dc.lft.to/lastmile_qr_scan"}, "is_reserved": 0}, {"lon": -77.0230685, "bike_id": "dc0eb19755cd272304a0335faf5dac78", "lat": 38.9420275, "fusion_lon": 0.0, "fusion_lat": 0.0, "type": "electric_scooter", "name": "dc0eb19755cd272304a0335faf5dac78", "is_disabled": 0, "rental_uris": {"ios": "https://dc.lft.to/lastmile_qr_scan", "android": "https://dc.lft.to/lastmile_qr_scan"}, "is_reserved": 0}, {"lon": -77.04596033333333, "bike_id": "90f6df2de1e2af7d05893716ee1df4f4", "lat": 38.853095, "fusion_lon": 0.0, "fusion_lat": 0.0, "type": "electric_bike", "name": "90f6df2de1e2af7d05893716ee1df4f4", "is_disabled": 0, "rental_uris": {"ios": "https://dc.lft.to/lastmile_qr_scan", "android": "https://dc.lft.to/lastmile_qr_scan"}, "is_reserved": 0}, {"lon": -77.072389, "bike_id": "ad3700d6cfbb6ce79bea30956689d8ad", "lat": 38.899157, "fusion_lon": 0.0, "fusion_lat": 0.0, "type": "electric_scooter", "name": "ad3700d6cfbb6ce79bea30956689d8ad", "is_disabled": 0, "rental_uris": {"ios": "https://dc.lft.to/lastmile_qr_scan", "android": "https://dc.lft.to/lastmile_qr_scan"}, "is_reserved": 0}, {"lon": -76.97238416666667, "bike_id": "0c65f887f9a4f25fcd6b52c3da52542d", "lat": 38.9035245, "fusion_lon": 0.0, "fusion_lat": 0.0, "type": "electric_scooter", "name": "0c65f887f9a4f25fcd6b52c3da52542d", "is_disabled": 0, "rental_uris": {"ios": "https://dc.lft.to/lastmile_qr_scan", "android": "https://dc.lft.to/lastmile_qr_scan"}, "is_reserved": 0}, {"lon": -77.04912333333333, "bike_id": "7749e0579009d56761c1f7e6f66709f1", "lat": 38.9086325, "fusion_lon": 0.0, "fusion_lat": 0.0, "type": "electric_scooter", "name": "7749e0579009d56761c1f7e6f66709f1", "is_disabled": 0, "rental_uris": {"ios": "https://dc.lft.to/lastmile_qr_scan", "android": "https://dc.lft.to/lastmile_qr_scan"}, "is_reserved": 0}, {"lon": -77.00037866666666, "bike_id": "26db06d9a1979636fbf10d7d11532df4", "lat": 38.924081666666666, "fusion_lon": 0.0, "fusion_lat": 0.0, "type": "electric_scooter", "name": "26db06d9a1979636fbf10d7d11532df4", "is_disabled": 0, "rental_uris": {"ios": "https://dc.lft.to/lastmile_qr_scan", "android": "https://dc.lft.to/lastmile_qr_scan"}, "is_reserved": 0}, {"lon": -76.9884375, "bike_id": "4726cb4b51d0838b6aa2d2e84a36553a", "lat": 38.842795833333334, "fusion_lon": 0.0, "fusion_lat": 0.0, "type": "electric_bike", "name": "4726cb4b51d0838b6aa2d2e84a36553a", "is_disabled": 0, "rental_uris": {"ios": "https://dc.lft.to/lastmile_qr_scan", "android": "https://dc.lft.to/lastmile_qr_scan"}, "is_reserved": 0}, {"lon": -77.040055, "bike_id": "416103797c1405a25798a994ba7fcb02", "lat": 38.910080666666666, "fusion_lon": 0.0, "fusion_lat": 0.0, "type": "electric_scooter", "name": "416103797c1405a25798a994ba7fcb02", "is_disabled": 0, "rental_uris": {"ios": "https://dc.lft.to/lastmile_qr_scan", "android": "https://dc.lft.to/lastmile_qr_scan"}, "is_reserved": 0}, {"lon": -77.041208, "bike_id": "4f980feae982d64efd601913a2210a22", "lat": 38.9055795, "fusion_lon": 0.0, "fusion_lat": 0.0, "type": "electric_scooter", "name": "4f980feae982d64efd601913a2210a22", "is_disabled": 0, "rental_uris": {"ios": "https://dc.lft.to/lastmile_qr_scan", "android": "https://dc.lft.to/lastmile_qr_scan"}, "is_reserved": 0}, {"lon": -77.02969816666666, "bike_id": "fad8f81df2501e71187aededdb53ae07", "lat": 38.9281575, "fusion_lon": 0.0, "fusion_lat": 0.0, "type": "electric_scooter", "name": "fad8f81df2501e71187aededdb53ae07", "is_disabled": 0, "rental_uris": {"ios": "https://dc.lft.to/lastmile_qr_scan", "android": "https://dc.lft.to/lastmile_qr_scan"}, "is_reserved": 0}, {"lon": -76.9982875, "bike_id": "16bc3f25bbf27d5959da08a9979534d0", "lat": 38.90008266666667, "fusion_lon": 0.0, "fusion_lat": 0.0, "type": "electric_scooter", "name": "16bc3f25bbf27d5959da08a9979534d0", "is_disabled": 0, "rental_uris": {"ios": "https://dc.lft.to/lastmile_qr_scan", "android": "https://dc.lft.to/lastmile_qr_scan"}, "is_reserved": 0}, {"lon": -77.04143483333333, "bike_id": "31167e84740d2dd9c1b9f23a7c5b2489", "lat": 38.90738866666667, "fusion_lon": 0.0, "fusion_lat": 0.0, "type": "electric_scooter", "name": "31167e84740d2dd9c1b9f23a7c5b2489", "is_disabled": 0, "rental_uris": {"ios": "https://dc.lft.to/lastmile_qr_scan", "android": "https://dc.lft.to/lastmile_qr_scan"}, "is_reserved": 0}, {"lon": -76.9751975, "bike_id": "3937c7cb6b5bc0ff9b80b9140718cc39", "lat": 38.966996333333334, "fusion_lon": 0.0, "fusion_lat": 0.0, "type": "electric_bike", "name": "3937c7cb6b5bc0ff9b80b9140718cc39", "is_disabled": 0, "rental_uris": {"ios": "https://dc.lft.to/lastmile_qr_scan", "android": "https://dc.lft.to/lastmile_qr_scan"}, "is_reserved": 0}, {"lon": -77.02363366666667, "bike_id": "398cad9b50dd804bf1f322f3afa2cb06", "lat": 38.89225883333334, "fusion_lon": 0.0, "fusion_lat": 0.0, "type": "electric_scooter", "name": "398cad9b50dd804bf1f322f3afa2cb06", "is_disabled": 0, "rental_uris": {"ios": "https://dc.lft.to/lastmile_qr_scan", "android": "https://dc.lft.to/lastmile_qr_scan"}, "is_reserved": 0}, {"lon": -77.068749, "bike_id": "988ebe44e2be81706759e494d6ba1ad6", "lat": 38.90519583333333, "fusion_lon": 0.0, "fusion_lat": 0.0, "type": "electric_scooter", "name": "988ebe44e2be81706759e494d6ba1ad6", "is_disabled": 0, "rental_uris": {"ios": "https://dc.lft.to/lastmile_qr_scan", "android": "https://dc.lft.to/lastmile_qr_scan"}, "is_reserved": 0}, {"lon": -77.05307333333333, "bike_id": "13d31b7820043e161978386d1e1db84b", "lat": 38.900778333333335, "fusion_lon": 0.0, "fusion_lat": 0.0, "type": "electric_scooter", "name": "13d31b7820043e161978386d1e1db84b", "is_disabled": 0, "rental_uris": {"ios": "https://dc.lft.to/lastmile_qr_scan", "android": "https://dc.lft.to/lastmile_qr_scan"}, "is_reserved": 0}, {"lon": -77.05046816666666, "bike_id": "143d0f45aeb39ab99cb00487762ea1d2", "lat": 38.9072265, "fusion_lon": 0.0, "fusion_lat": 0.0, "type": "electric_scooter", "name": "143d0f45aeb39ab99cb00487762ea1d2", "is_disabled": 0, "rental_uris": {"ios": "https://dc.lft.to/lastmile_qr_scan", "android": "https://dc.lft.to/lastmile_qr_scan"}, "is_reserved": 0}, {"lon": -77.07109216666667, "bike_id": "8fcd52b0f4975b224f574d94019bcf1c", "lat": 38.919761, "fusion_lon": 0.0, "fusion_lat": 0.0, "type": "electric_scooter", "name": "8fcd52b0f4975b224f574d94019bcf1c", "is_disabled": 0, "rental_uris": {"ios": "https://dc.lft.to/lastmile_qr_scan", "android": "https://dc.lft.to/lastmile_qr_scan"}, "is_reserved": 0}, {"lon": -77.0419885, "bike_id": "726a2f0a7f1fbc4c2c92f21f632fbb28", "lat": 38.90781166666667, "fusion_lon": 0.0, "fusion_lat": 0.0, "type": "electric_scooter", "name": "726a2f0a7f1fbc4c2c92f21f632fbb28", "is_disabled": 0, "rental_uris": {"ios": "https://dc.lft.to/lastmile_qr_scan", "android": "https://dc.lft.to/lastmile_qr_scan"}, "is_reserved": 0}, {"lon": -77.04781833333334, "bike_id": "260a9f8ddfe60df75cc9b58b814a3232", "lat": 38.829473666666665, "fusion_lon": 0.0, "fusion_lat": 0.0, "type": "electric_bike", "name": "260a9f8ddfe60df75cc9b58b814a3232", "is_disabled": 0, "rental_uris": {"ios": "https://dc.lft.to/lastmile_qr_scan", "android": "https://dc.lft.to/lastmile_qr_scan"}, "is_reserved": 0}, {"lon": -76.9967885, "bike_id": "eb081706b5bf1b2dd2a9887175b122c4", "lat": 38.86021433333333, "fusion_lon": 0.0, "fusion_lat": 0.0, "type": "electric_scooter", "name": "eb081706b5bf1b2dd2a9887175b122c4", "is_disabled": 0, "rental_uris": {"ios": "https://dc.lft.to/lastmile_qr_scan", "android": "https://dc.lft.to/lastmile_qr_scan"}, "is_reserved": 0}, {"lon": -77.07409366666667, "bike_id": "3eb462c43b4695fd3ef38379b6aad50f", "lat": 38.9289545, "fusion_lon": 0.0, "fusion_lat": 0.0, "type": "electric_scooter", "name": "3eb462c43b4695fd3ef38379b6aad50f", "is_disabled": 0, "rental_uris": {"ios": "https://dc.lft.to/lastmile_qr_scan", "android": "https://dc.lft.to/lastmile_qr_scan"}, "is_reserved": 0}, {"lon": -76.931849, "bike_id": "7f2e0f80e490ac5c880a02c426c42c59", "lat": 38.898800666666666, "fusion_lon": 0.0, "fusion_lat": 0.0, "type": "electric_scooter", "name": "7f2e0f80e490ac5c880a02c426c42c59", "is_disabled": 0, "rental_uris": {"ios": "https://dc.lft.to/lastmile_qr_scan", "android": "https://dc.lft.to/lastmile_qr_scan"}, "is_reserved": 0}, {"lon": -77.016724, "bike_id": "7c6f3174e35a065d63ef61e89fdab62d", "lat": 38.914447333333335, "fusion_lon": 0.0, "fusion_lat": 0.0, "type": "electric_scooter", "name": "7c6f3174e35a065d63ef61e89fdab62d", "is_disabled": 0, "rental_uris": {"ios": "https://dc.lft.to/lastmile_qr_scan", "android": "https://dc.lft.to/lastmile_qr_scan"}, "is_reserved": 0}, {"lon": -77.03185166666667, "bike_id": "493c494129bf0b1bfc32bfc6fcce2fe9", "lat": 38.9171765, "fusion_lon": 0.0, "fusion_lat": 0.0, "type": "electric_scooter", "name": "493c494129bf0b1bfc32bfc6fcce2fe9", "is_disabled": 0, "rental_uris": {"ios": "https://dc.lft.to/lastmile_qr_scan", "android": "https://dc.lft.to/lastmile_qr_scan"}, "is_reserved": 0}, {"lon": -77.074701, "bike_id": "abe3e217b5df43467b1ee86351db1c79", "lat": 38.920675, "fusion_lon": 0.0, "fusion_lat": 0.0, "type": "electric_bike", "name": "abe3e217b5df43467b1ee86351db1c79", "is_disabled": 0, "rental_uris": {"ios": "https://dc.lft.to/lastmile_qr_scan", "android": "https://dc.lft.to/lastmile_qr_scan"}, "is_reserved": 0}, {"lon": -77.04180166666667, "bike_id": "2683d8c7f7b34d31c12a56b5dbf64c20", "lat": 38.919980833333334, "fusion_lon": 0.0, "fusion_lat": 0.0, "type": "electric_scooter", "name": "2683d8c7f7b34d31c12a56b5dbf64c20", "is_disabled": 0, "rental_uris": {"ios": "https://dc.lft.to/lastmile_qr_scan", "android": "https://dc.lft.to/lastmile_qr_scan"}, "is_reserved": 0}, {"lon": -76.9459835, "bike_id": "a3db6a98328ba201e9336c3270b2d98c", "lat": 38.901527333333334, "fusion_lon": 0.0, "fusion_lat": 0.0, "type": "electric_scooter", "name": "a3db6a98328ba201e9336c3270b2d98c", "is_disabled": 0, "rental_uris": {"ios": "https://dc.lft.to/lastmile_qr_scan", "android": "https://dc.lft.to/lastmile_qr_scan"}, "is_reserved": 0}, {"lon": -77.08805166666667, "bike_id": "3c261c7b37840e91d0425d6319da0341", "lat": 38.91185616666667, "fusion_lon": 0.0, "fusion_lat": 0.0, "type": "electric_scooter", "name": "3c261c7b37840e91d0425d6319da0341", "is_disabled": 0, "rental_uris": {"ios": "https://dc.lft.to/lastmile_qr_scan", "android": "https://dc.lft.to/lastmile_qr_scan"}, "is_reserved": 0}, {"lon": -77.0472015, "bike_id": "3cb1adf01a6c1a024b56a8f7460e3c15", "lat": 38.903126666666665, "fusion_lon": 0.0, "fusion_lat": 0.0, "type": "electric_scooter", "name": "3cb1adf01a6c1a024b56a8f7460e3c15", "is_disabled": 0, "rental_uris": {"ios": "https://dc.lft.to/lastmile_qr_scan", "android": "https://dc.lft.to/lastmile_qr_scan"}, "is_reserved": 0}, {"lon": -76.97391616666667, "bike_id": "a5d1dc467e7a06d8e72ccb3ca419936f", "lat": 38.90298516666667, "fusion_lon": 0.0, "fusion_lat": 0.0, "type": "electric_scooter", "name": "a5d1dc467e7a06d8e72ccb3ca419936f", "is_disabled": 0, "rental_uris": {"ios": "https://dc.lft.to/lastmile_qr_scan", "android": "https://dc.lft.to/lastmile_qr_scan"}, "is_reserved": 0}, {"lon": -77.0400115, "bike_id": "2d964d4ef32920501b435d72499aeb02", "lat": 38.934340666666664, "fusion_lon": 0.0, "fusion_lat": 0.0, "type": "electric_scooter", "name": "2d964d4ef32920501b435d72499aeb02", "is_disabled": 0, "rental_uris": {"ios": "https://dc.lft.to/lastmile_qr_scan", "android": "https://dc.lft.to/lastmile_qr_scan"}, "is_reserved": 0}, {"lon": -76.98059033333334, "bike_id": "f14aa0f1fb9ceee48e19fc1b86d7d9b0", "lat": 38.88498933333333, "fusion_lon": 0.0, "fusion_lat": 0.0, "type": "electric_scooter", "name": "f14aa0f1fb9ceee48e19fc1b86d7d9b0", "is_disabled": 0, "rental_uris": {"ios": "https://dc.lft.to/lastmile_qr_scan", "android": "https://dc.lft.to/lastmile_qr_scan"}, "is_reserved": 0}, {"lon": -76.98910216666667, "bike_id": "5b2eaefd52a19e7854610bf2f309141f", "lat": 38.8649775, "fusion_lon": 0.0, "fusion_lat": 0.0, "type": "electric_scooter", "name": "5b2eaefd52a19e7854610bf2f309141f", "is_disabled": 0, "rental_uris": {"ios": "https://dc.lft.to/lastmile_qr_scan", "android": "https://dc.lft.to/lastmile_qr_scan"}, "is_reserved": 0}, {"lon": -77.04469716666667, "bike_id": "6ee80458c9fccfd8fe76827a1cd1ce51", "lat": 38.924373, "fusion_lon": 0.0, "fusion_lat": 0.0, "type": "electric_scooter", "name": "6ee80458c9fccfd8fe76827a1cd1ce51", "is_disabled": 0, "rental_uris": {"ios": "https://dc.lft.to/lastmile_qr_scan", "android": "https://dc.lft.to/lastmile_qr_scan"}, "is_reserved": 0}, {"lon": -77.03419116666667, "bike_id": "064842e19b98cf4b00afef8d27a39307", "lat": 38.919299, "fusion_lon": 0.0, "fusion_lat": 0.0, "type": "electric_scooter", "name": "064842e19b98cf4b00afef8d27a39307", "is_disabled": 0, "rental_uris": {"ios": "https://dc.lft.to/lastmile_qr_scan", "android": "https://dc.lft.to/lastmile_qr_scan"}, "is_reserved": 0}, {"lon": -77.02101433333333, "bike_id": "338ec37ceb1477b7536c884b7d84d418", "lat": 38.949147333333336, "fusion_lon": 0.0, "fusion_lat": 0.0, "type": "electric_scooter", "name": "338ec37ceb1477b7536c884b7d84d418", "is_disabled": 0, "rental_uris": {"ios": "https://dc.lft.to/lastmile_qr_scan", "android": "https://dc.lft.to/lastmile_qr_scan"}, "is_reserved": 0}, {"lon": -77.03035133333333, "bike_id": "6dc97f66fe98dd7ddd46a3bb752eebc7", "lat": 38.93722733333333, "fusion_lon": 0.0, "fusion_lat": 0.0, "type": "electric_scooter", "name": "6dc97f66fe98dd7ddd46a3bb752eebc7", "is_disabled": 0, "rental_uris": {"ios": "https://dc.lft.to/lastmile_qr_scan", "android": "https://dc.lft.to/lastmile_qr_scan"}, "is_reserved": 0}, {"lon": -77.02688966666666, "bike_id": "c6405ce0aab4387437c08ae61b8f0f80", "lat": 38.904309166666664, "fusion_lon": 0.0, "fusion_lat": 0.0, "type": "electric_scooter", "name": "c6405ce0aab4387437c08ae61b8f0f80", "is_disabled": 0, "rental_uris": {"ios": "https://dc.lft.to/lastmile_qr_scan", "android": "https://dc.lft.to/lastmile_qr_scan"}, "is_reserved": 0}, {"lon": -77.08489216666666, "bike_id": "77dfbb907b04073e5493d171677a2b8e", "lat": 38.84853316666667, "fusion_lon": 0.0, "fusion_lat": 0.0, "type": "electric_bike", "name": "77dfbb907b04073e5493d171677a2b8e", "is_disabled": 0, "rental_uris": {"ios": "https://dc.lft.to/lastmile_qr_scan", "android": "https://dc.lft.to/lastmile_qr_scan"}, "is_reserved": 0}, {"lon": -77.036738, "bike_id": "d217312fee8b4adebc0f8f8b558a378b", "lat": 38.908902166666664, "fusion_lon": 0.0, "fusion_lat": 0.0, "type": "electric_scooter", "name": "d217312fee8b4adebc0f8f8b558a378b", "is_disabled": 0, "rental_uris": {"ios": "https://dc.lft.to/lastmile_qr_scan", "android": "https://dc.lft.to/lastmile_qr_scan"}, "is_reserved": 0}, {"lon": -76.9373495, "bike_id": "379dfd8967bdbefb6c250c6d381899f9", "lat": 38.890127166666666, "fusion_lon": 0.0, "fusion_lat": 0.0, "type": "electric_scooter", "name": "379dfd8967bdbefb6c250c6d381899f9", "is_disabled": 0, "rental_uris": {"ios": "https://dc.lft.to/lastmile_qr_scan", "android": "https://dc.lft.to/lastmile_qr_scan"}, "is_reserved": 0}, {"lon": -77.04486116666666, "bike_id": "fb2857b6842887d6426af8b8f0d06a1d", "lat": 38.9138925, "fusion_lon": 0.0, "fusion_lat": 0.0, "type": "electric_scooter", "name": "fb2857b6842887d6426af8b8f0d06a1d", "is_disabled": 0, "rental_uris": {"ios": "https://dc.lft.to/lastmile_qr_scan", "android": "https://dc.lft.to/lastmile_qr_scan"}, "is_reserved": 0}, {"lon": -77.0319875, "bike_id": "7112279271e8fdf42af39ead97eff55f", "lat": 38.90736533333333, "fusion_lon": 0.0, "fusion_lat": 0.0, "type": "electric_scooter", "name": "7112279271e8fdf42af39ead97eff55f", "is_disabled": 0, "rental_uris": {"ios": "https://dc.lft.to/lastmile_qr_scan", "android": "https://dc.lft.to/lastmile_qr_scan"}, "is_reserved": 0}, {"lon": -76.93754183333333, "bike_id": "31428eff74272aafb6f38da8fc459df2", "lat": 38.890521166666666, "fusion_lon": 0.0, "fusion_lat": 0.0, "type": "electric_scooter", "name": "31428eff74272aafb6f38da8fc459df2", "is_disabled": 0, "rental_uris": {"ios": "https://dc.lft.to/lastmile_qr_scan", "android": "https://dc.lft.to/lastmile_qr_scan"}, "is_reserved": 0}, {"lon": -77.0413055, "bike_id": "29312d615ca1332a4cce137458a0ab90", "lat": 38.916931166666664, "fusion_lon": 0.0, "fusion_lat": 0.0, "type": "electric_scooter", "name": "29312d615ca1332a4cce137458a0ab90", "is_disabled": 0, "rental_uris": {"ios": "https://dc.lft.to/lastmile_qr_scan", "android": "https://dc.lft.to/lastmile_qr_scan"}, "is_reserved": 0}, {"lon": -76.99541983333333, "bike_id": "502be18a7655892e843fa42d1cf04bbe", "lat": 38.862618, "fusion_lon": 0.0, "fusion_lat": 0.0, "type": "electric_scooter", "name": "502be18a7655892e843fa42d1cf04bbe", "is_disabled": 0, "rental_uris": {"ios": "https://dc.lft.to/lastmile_qr_scan", "android": "https://dc.lft.to/lastmile_qr_scan"}, "is_reserved": 0}, {"lon": -77.0522015, "bike_id": "6e0af7dc77b293bef42632982ea7e550", "lat": 38.92462783333333, "fusion_lon": 0.0, "fusion_lat": 0.0, "type": "electric_scooter", "name": "6e0af7dc77b293bef42632982ea7e550", "is_disabled": 0, "rental_uris": {"ios": "https://dc.lft.to/lastmile_qr_scan", "android": "https://dc.lft.to/lastmile_qr_scan"}, "is_reserved": 0}, {"lon": -77.01629683333333, "bike_id": "be89d29e7fce06945b6083a1d7d93327", "lat": 38.928953166666666, "fusion_lon": 0.0, "fusion_lat": 0.0, "type": "electric_scooter", "name": "be89d29e7fce06945b6083a1d7d93327", "is_disabled": 0, "rental_uris": {"ios": "https://dc.lft.to/lastmile_qr_scan", "android": "https://dc.lft.to/lastmile_qr_scan"}, "is_reserved": 0}, {"lon": -77.07372066666667, "bike_id": "ed9824987b06131b6ca0b52fdf3e2189", "lat": 38.93583316666667, "fusion_lon": 0.0, "fusion_lat": 0.0, "type": "electric_scooter", "name": "ed9824987b06131b6ca0b52fdf3e2189", "is_disabled": 0, "rental_uris": {"ios": "https://dc.lft.to/lastmile_qr_scan", "android": "https://dc.lft.to/lastmile_qr_scan"}, "is_reserved": 0}, {"lon": -77.03327416666667, "bike_id": "7944003ca61d0611d2a91e3dadc5cb9d", "lat": 38.93715683333333, "fusion_lon": 0.0, "fusion_lat": 0.0, "type": "electric_scooter", "name": "7944003ca61d0611d2a91e3dadc5cb9d", "is_disabled": 0, "rental_uris": {"ios": "https://dc.lft.to/lastmile_qr_scan", "android": "https://dc.lft.to/lastmile_qr_scan"}, "is_reserved": 0}, {"lon": -77.049026, "bike_id": "8482208cfe7bd7553e5ff4d5b8ec9fef", "lat": 38.903476166666664, "fusion_lon": 0.0, "fusion_lat": 0.0, "type": "electric_scooter", "name": "8482208cfe7bd7553e5ff4d5b8ec9fef", "is_disabled": 0, "rental_uris": {"ios": "https://dc.lft.to/lastmile_qr_scan", "android": "https://dc.lft.to/lastmile_qr_scan"}, "is_reserved": 0}, {"lon": -77.0067795, "bike_id": "53b46b3fced02b075db2f0a5a35cd55f", "lat": 38.900259, "fusion_lon": 0.0, "fusion_lat": 0.0, "type": "electric_scooter", "name": "53b46b3fced02b075db2f0a5a35cd55f", "is_disabled": 0, "rental_uris": {"ios": "https://dc.lft.to/lastmile_qr_scan", "android": "https://dc.lft.to/lastmile_qr_scan"}, "is_reserved": 0}, {"lon": -77.02383916666666, "bike_id": "eff66ad01b49af493cb8e9853394cec5", "lat": 38.906309, "fusion_lon": 0.0, "fusion_lat": 0.0, "type": "electric_scooter", "name": "eff66ad01b49af493cb8e9853394cec5", "is_disabled": 0, "rental_uris": {"ios": "https://dc.lft.to/lastmile_qr_scan", "android": "https://dc.lft.to/lastmile_qr_scan"}, "is_reserved": 0}, {"lon": -76.99668916666667, "bike_id": "278d9c96ed6efb36d723dc5a5d8a53ba", "lat": 38.924917, "fusion_lon": 0.0, "fusion_lat": 0.0, "type": "electric_bike", "name": "278d9c96ed6efb36d723dc5a5d8a53ba", "is_disabled": 0, "rental_uris": {"ios": "https://dc.lft.to/lastmile_qr_scan", "android": "https://dc.lft.to/lastmile_qr_scan"}, "is_reserved": 0}, {"lon": -77.03138833333334, "bike_id": "3671fd9499e2fdcbb88f6c8aca1c8a04", "lat": 38.915615, "fusion_lon": 0.0, "fusion_lat": 0.0, "type": "electric_scooter", "name": "3671fd9499e2fdcbb88f6c8aca1c8a04", "is_disabled": 0, "rental_uris": {"ios": "https://dc.lft.to/lastmile_qr_scan", "android": "https://dc.lft.to/lastmile_qr_scan"}, "is_reserved": 0}, {"lon": -77.03213483333333, "bike_id": "6b84b0258e481abf95e3f4268ed93647", "lat": 38.936211166666666, "fusion_lon": 0.0, "fusion_lat": 0.0, "type": "electric_scooter", "name": "6b84b0258e481abf95e3f4268ed93647", "is_disabled": 0, "rental_uris": {"ios": "https://dc.lft.to/lastmile_qr_scan", "android": "https://dc.lft.to/lastmile_qr_scan"}, "is_reserved": 0}, {"lon": -76.93276016666667, "bike_id": "47180f26414761e84c66fd3e8727652c", "lat": 38.95424033333333, "fusion_lon": 0.0, "fusion_lat": 0.0, "type": "electric_bike", "name": "47180f26414761e84c66fd3e8727652c", "is_disabled": 0, "rental_uris": {"ios": "https://dc.lft.to/lastmile_qr_scan", "android": "https://dc.lft.to/lastmile_qr_scan"}, "is_reserved": 0}, {"lon": -77.00534, "bike_id": "a7fa02949ad82101a160b276fff5db9d", "lat": 38.875505833333335, "fusion_lon": 0.0, "fusion_lat": 0.0, "type": "electric_scooter", "name": "a7fa02949ad82101a160b276fff5db9d", "is_disabled": 0, "rental_uris": {"ios": "https://dc.lft.to/lastmile_qr_scan", "android": "https://dc.lft.to/lastmile_qr_scan"}, "is_reserved": 0}, {"lon": -77.03634833333334, "bike_id": "6a0a99df03791ea92ea2ff3e97ee5873", "lat": 38.91556683333334, "fusion_lon": 0.0, "fusion_lat": 0.0, "type": "electric_scooter", "name": "6a0a99df03791ea92ea2ff3e97ee5873", "is_disabled": 0, "rental_uris": {"ios": "https://dc.lft.to/lastmile_qr_scan", "android": "https://dc.lft.to/lastmile_qr_scan"}, "is_reserved": 0}, {"lon": -77.005672, "bike_id": "39482264941e010a75ff950b57d4427f", "lat": 38.87440983333333, "fusion_lon": 0.0, "fusion_lat": 0.0, "type": "electric_scooter", "name": "39482264941e010a75ff950b57d4427f", "is_disabled": 0, "rental_uris": {"ios": "https://dc.lft.to/lastmile_qr_scan", "android": "https://dc.lft.to/lastmile_qr_scan"}, "is_reserved": 0}, {"lon": -77.0222135, "bike_id": "f08ff169efd4e67528f55437f4838f93", "lat": 38.956936666666664, "fusion_lon": 0.0, "fusion_lat": 0.0, "type": "electric_bike", "name": "f08ff169efd4e67528f55437f4838f93", "is_disabled": 0, "rental_uris": {"ios": "https://dc.lft.to/lastmile_qr_scan", "android": "https://dc.lft.to/lastmile_qr_scan"}, "is_reserved": 0}, {"lon": -76.9964235, "bike_id": "46b228c2a0ac3a27156916e573e7fb8a", "lat": 38.887226166666665, "fusion_lon": 0.0, "fusion_lat": 0.0, "type": "electric_scooter", "name": "46b228c2a0ac3a27156916e573e7fb8a", "is_disabled": 0, "rental_uris": {"ios": "https://dc.lft.to/lastmile_qr_scan", "android": "https://dc.lft.to/lastmile_qr_scan"}, "is_reserved": 0}, {"lon": -77.07251333333333, "bike_id": "ce78800b7e7ebf1e2e4ceb6b5af06ba1", "lat": 38.93436766666667, "fusion_lon": 0.0, "fusion_lat": 0.0, "type": "electric_scooter", "name": "ce78800b7e7ebf1e2e4ceb6b5af06ba1", "is_disabled": 0, "rental_uris": {"ios": "https://dc.lft.to/lastmile_qr_scan", "android": "https://dc.lft.to/lastmile_qr_scan"}, "is_reserved": 0}, {"lon": -77.04331033333334, "bike_id": "657d536b8994cf9eaff0be9eaee7d418", "lat": 38.91886983333333, "fusion_lon": 0.0, "fusion_lat": 0.0, "type": "electric_scooter", "name": "657d536b8994cf9eaff0be9eaee7d418", "is_disabled": 0, "rental_uris": {"ios": "https://dc.lft.to/lastmile_qr_scan", "android": "https://dc.lft.to/lastmile_qr_scan"}, "is_reserved": 0}, {"lon": -76.9833695, "bike_id": "44dd47ba2d3540927001a379c939a1f8", "lat": 38.900977166666664, "fusion_lon": 0.0, "fusion_lat": 0.0, "type": "electric_scooter", "name": "44dd47ba2d3540927001a379c939a1f8", "is_disabled": 0, "rental_uris": {"ios": "https://dc.lft.to/lastmile_qr_scan", "android": "https://dc.lft.to/lastmile_qr_scan"}, "is_reserved": 0}, {"lon": -77.0147195, "bike_id": "9352240bbbc2134a6ed79d2c9dc8c1aa", "lat": 38.94066333333333, "fusion_lon": 0.0, "fusion_lat": 0.0, "type": "electric_bike", "name": "9352240bbbc2134a6ed79d2c9dc8c1aa", "is_disabled": 0, "rental_uris": {"ios": "https://dc.lft.to/lastmile_qr_scan", "android": "https://dc.lft.to/lastmile_qr_scan"}, "is_reserved": 0}, {"lon": -77.00529433333334, "bike_id": "4ebd23b41b3376297479458bfa301129", "lat": 38.929817, "fusion_lon": 0.0, "fusion_lat": 0.0, "type": "electric_scooter", "name": "4ebd23b41b3376297479458bfa301129", "is_disabled": 0, "rental_uris": {"ios": "https://dc.lft.to/lastmile_qr_scan", "android": "https://dc.lft.to/lastmile_qr_scan"}, "is_reserved": 0}, {"lon": -77.02039966666666, "bike_id": "1de65558ceba5f072764b4b8bdc1a182", "lat": 38.90871283333333, "fusion_lon": 0.0, "fusion_lat": 0.0, "type": "electric_scooter", "name": "1de65558ceba5f072764b4b8bdc1a182", "is_disabled": 0, "rental_uris": {"ios": "https://dc.lft.to/lastmile_qr_scan", "android": "https://dc.lft.to/lastmile_qr_scan"}, "is_reserved": 0}, {"lon": -77.02269883333334, "bike_id": "8f186102f4390324dafdcbc4df8fd474", "lat": 38.93759466666667, "fusion_lon": 0.0, "fusion_lat": 0.0, "type": "electric_scooter", "name": "8f186102f4390324dafdcbc4df8fd474", "is_disabled": 0, "rental_uris": {"ios": "https://dc.lft.to/lastmile_qr_scan", "android": "https://dc.lft.to/lastmile_qr_scan"}, "is_reserved": 0}, {"lon": -77.05406383333333, "bike_id": "dd07734450c3ed6b55568d2e38fbaebf", "lat": 38.950403333333334, "fusion_lon": 0.0, "fusion_lat": 0.0, "type": "electric_scooter", "name": "dd07734450c3ed6b55568d2e38fbaebf", "is_disabled": 0, "rental_uris": {"ios": "https://dc.lft.to/lastmile_qr_scan", "android": "https://dc.lft.to/lastmile_qr_scan"}, "is_reserved": 0}, {"lon": -76.9262135, "bike_id": "e708f30783c529a4112dfaea141fd4e3", "lat": 38.884614, "fusion_lon": 0.0, "fusion_lat": 0.0, "type": "electric_scooter", "name": "e708f30783c529a4112dfaea141fd4e3", "is_disabled": 0, "rental_uris": {"ios": "https://dc.lft.to/lastmile_qr_scan", "android": "https://dc.lft.to/lastmile_qr_scan"}, "is_reserved": 0}, {"lon": -77.05156116666667, "bike_id": "3d500e6547346e4588f5a01b946e24a0", "lat": 38.90519033333333, "fusion_lon": 0.0, "fusion_lat": 0.0, "type": "electric_scooter", "name": "3d500e6547346e4588f5a01b946e24a0", "is_disabled": 0, "rental_uris": {"ios": "https://dc.lft.to/lastmile_qr_scan", "android": "https://dc.lft.to/lastmile_qr_scan"}, "is_reserved": 0}, {"lon": -77.00546166666666, "bike_id": "d7ad75f774d4748e2eda9234169b9e57", "lat": 38.874604, "fusion_lon": 0.0, "fusion_lat": 0.0, "type": "electric_scooter", "name": "d7ad75f774d4748e2eda9234169b9e57", "is_disabled": 0, "rental_uris": {"ios": "https://dc.lft.to/lastmile_qr_scan", "android": "https://dc.lft.to/lastmile_qr_scan"}, "is_reserved": 0}, {"lon": -77.02223283333333, "bike_id": "1e8c4a0405d49223b7939de4919a8aba", "lat": 38.91125683333333, "fusion_lon": 0.0, "fusion_lat": 0.0, "type": "electric_scooter", "name": "1e8c4a0405d49223b7939de4919a8aba", "is_disabled": 0, "rental_uris": {"ios": "https://dc.lft.to/lastmile_qr_scan", "android": "https://dc.lft.to/lastmile_qr_scan"}, "is_reserved": 0}, {"lon": -76.972999, "bike_id": "96e4aa49c1758b75c5ad67da05ce314e", "lat": 38.916535833333334, "fusion_lon": 0.0, "fusion_lat": 0.0, "type": "electric_scooter", "name": "96e4aa49c1758b75c5ad67da05ce314e", "is_disabled": 0, "rental_uris": {"ios": "https://dc.lft.to/lastmile_qr_scan", "android": "https://dc.lft.to/lastmile_qr_scan"}, "is_reserved": 0}, {"lon": -76.97598883333333, "bike_id": "d8d2e3ac8240567baa9c3e62538e9a0d", "lat": 38.905694, "fusion_lon": 0.0, "fusion_lat": 0.0, "type": "electric_scooter", "name": "d8d2e3ac8240567baa9c3e62538e9a0d", "is_disabled": 0, "rental_uris": {"ios": "https://dc.lft.to/lastmile_qr_scan", "android": "https://dc.lft.to/lastmile_qr_scan"}, "is_reserved": 0}, {"lon": -77.02945833333334, "bike_id": "8001f5dc4952290b64584dd2cf03d390", "lat": 38.88749833333333, "fusion_lon": 0.0, "fusion_lat": 0.0, "type": "electric_scooter", "name": "8001f5dc4952290b64584dd2cf03d390", "is_disabled": 0, "rental_uris": {"ios": "https://dc.lft.to/lastmile_qr_scan", "android": "https://dc.lft.to/lastmile_qr_scan"}, "is_reserved": 0}, {"lon": -76.98695383333333, "bike_id": "cb2aef4ca1024a82c6537d99e402afe3", "lat": 38.862549, "fusion_lon": 0.0, "fusion_lat": 0.0, "type": "electric_scooter", "name": "cb2aef4ca1024a82c6537d99e402afe3", "is_disabled": 0, "rental_uris": {"ios": "https://dc.lft.to/lastmile_qr_scan", "android": "https://dc.lft.to/lastmile_qr_scan"}, "is_reserved": 0}, {"lon": -77.00199516666666, "bike_id": "48658ad6a91dc8b68fe9d6021f39337e", "lat": 38.89546266666667, "fusion_lon": 0.0, "fusion_lat": 0.0, "type": "electric_scooter", "name": "48658ad6a91dc8b68fe9d6021f39337e", "is_disabled": 0, "rental_uris": {"ios": "https://dc.lft.to/lastmile_qr_scan", "android": "https://dc.lft.to/lastmile_qr_scan"}, "is_reserved": 0}, {"lon": -77.0318255, "bike_id": "968f27fcbe3b36050f437995ede3f968", "lat": 38.88412683333333, "fusion_lon": 0.0, "fusion_lat": 0.0, "type": "electric_scooter", "name": "968f27fcbe3b36050f437995ede3f968", "is_disabled": 0, "rental_uris": {"ios": "https://dc.lft.to/lastmile_qr_scan", "android": "https://dc.lft.to/lastmile_qr_scan"}, "is_reserved": 0}, {"lon": -77.07854916666666, "bike_id": "7c1e97e36a31503c8905103a4360645d", "lat": 38.924701666666664, "fusion_lon": 0.0, "fusion_lat": 0.0, "type": "electric_scooter", "name": "7c1e97e36a31503c8905103a4360645d", "is_disabled": 0, "rental_uris": {"ios": "https://dc.lft.to/lastmile_qr_scan", "android": "https://dc.lft.to/lastmile_qr_scan"}, "is_reserved": 0}, {"lon": -77.02832233333334, "bike_id": "788ce2fe63ae7be9331a1f65c09eff05", "lat": 38.931968, "fusion_lon": 0.0, "fusion_lat": 0.0, "type": "electric_scooter", "name": "788ce2fe63ae7be9331a1f65c09eff05", "is_disabled": 0, "rental_uris": {"ios": "https://dc.lft.to/lastmile_qr_scan", "android": "https://dc.lft.to/lastmile_qr_scan"}, "is_reserved": 0}, {"lon": -77.03291266666666, "bike_id": "db5c8fda3be373bfa2651e0fc0b999ae", "lat": 38.956522166666666, "fusion_lon": 0.0, "fusion_lat": 0.0, "type": "electric_scooter", "name": "db5c8fda3be373bfa2651e0fc0b999ae", "is_disabled": 0, "rental_uris": {"ios": "https://dc.lft.to/lastmile_qr_scan", "android": "https://dc.lft.to/lastmile_qr_scan"}, "is_reserved": 0}, {"lon": -77.01838933333333, "bike_id": "8b8ea076a737818b3491af74048e2f05", "lat": 38.93028616666667, "fusion_lon": 0.0, "fusion_lat": 0.0, "type": "electric_bike", "name": "8b8ea076a737818b3491af74048e2f05", "is_disabled": 0, "rental_uris": {"ios": "https://dc.lft.to/lastmile_qr_scan", "android": "https://dc.lft.to/lastmile_qr_scan"}, "is_reserved": 0}, {"lon": -77.178376, "bike_id": "9b774c837238ddcbd8f73de8960553dd", "lat": 39.088641, "fusion_lon": 0.0, "fusion_lat": 0.0, "type": "electric_bike", "name": "9b774c837238ddcbd8f73de8960553dd", "is_disabled": 0, "rental_uris": {"ios": "https://dc.lft.to/lastmile_qr_scan", "android": "https://dc.lft.to/lastmile_qr_scan"}, "is_reserved": 0}, {"lon": -77.0247255, "bike_id": "4eb1c77a03a0c24737ad6fb05d0f9b18", "lat": 38.936268, "fusion_lon": 0.0, "fusion_lat": 0.0, "type": "electric_scooter", "name": "4eb1c77a03a0c24737ad6fb05d0f9b18", "is_disabled": 0, "rental_uris": {"ios": "https://dc.lft.to/lastmile_qr_scan", "android": "https://dc.lft.to/lastmile_qr_scan"}, "is_reserved": 0}, {"lon": -76.99051583333333, "bike_id": "0738b4295a5e78c85dbfd11e22d4aa67", "lat": 38.86383033333333, "fusion_lon": 0.0, "fusion_lat": 0.0, "type": "electric_scooter", "name": "0738b4295a5e78c85dbfd11e22d4aa67", "is_disabled": 0, "rental_uris": {"ios": "https://dc.lft.to/lastmile_qr_scan", "android": "https://dc.lft.to/lastmile_qr_scan"}, "is_reserved": 0}, {"lon": -77.117771, "bike_id": "2315cfd074e7a326aa5f685aea71b58b", "lat": 39.054968833333334, "fusion_lon": 0.0, "fusion_lat": 0.0, "type": "electric_bike", "name": "2315cfd074e7a326aa5f685aea71b58b", "is_disabled": 0, "rental_uris": {"ios": "https://dc.lft.to/lastmile_qr_scan", "android": "https://dc.lft.to/lastmile_qr_scan"}, "is_reserved": 0}, {"lon": -77.0244275, "bike_id": "9f0c6e0cc0c36bf01f0c5851f87fff58", "lat": 38.92509033333333, "fusion_lon": 0.0, "fusion_lat": 0.0, "type": "electric_scooter", "name": "9f0c6e0cc0c36bf01f0c5851f87fff58", "is_disabled": 0, "rental_uris": {"ios": "https://dc.lft.to/lastmile_qr_scan", "android": "https://dc.lft.to/lastmile_qr_scan"}, "is_reserved": 0}, {"lon": -77.02411816666667, "bike_id": "3587d2b1f55f388771caaef8bda45d9f", "lat": 38.892295, "fusion_lon": 0.0, "fusion_lat": 0.0, "type": "electric_scooter", "name": "3587d2b1f55f388771caaef8bda45d9f", "is_disabled": 0, "rental_uris": {"ios": "https://dc.lft.to/lastmile_qr_scan", "android": "https://dc.lft.to/lastmile_qr_scan"}, "is_reserved": 0}, {"lon": -77.0067095, "bike_id": "5b1d5def36c28210d7de5285682fcf37", "lat": 38.900437, "fusion_lon": 0.0, "fusion_lat": 0.0, "type": "electric_scooter", "name": "5b1d5def36c28210d7de5285682fcf37", "is_disabled": 0, "rental_uris": {"ios": "https://dc.lft.to/lastmile_qr_scan", "android": "https://dc.lft.to/lastmile_qr_scan"}, "is_reserved": 0}, {"lon": -76.98152383333333, "bike_id": "41558f8814990e0e5ba74b954be139d0", "lat": 38.90322116666667, "fusion_lon": 0.0, "fusion_lat": 0.0, "type": "electric_scooter", "name": "41558f8814990e0e5ba74b954be139d0", "is_disabled": 0, "rental_uris": {"ios": "https://dc.lft.to/lastmile_qr_scan", "android": "https://dc.lft.to/lastmile_qr_scan"}, "is_reserved": 0}, {"lon": -77.00614066666667, "bike_id": "eae0b83e202a3c2a19383d81ef38a365", "lat": 38.900150333333336, "fusion_lon": 0.0, "fusion_lat": 0.0, "type": "electric_scooter", "name": "eae0b83e202a3c2a19383d81ef38a365", "is_disabled": 0, "rental_uris": {"ios": "https://dc.lft.to/lastmile_qr_scan", "android": "https://dc.lft.to/lastmile_qr_scan"}, "is_reserved": 0}, {"lon": -77.03590283333334, "bike_id": "7096c51adaceebea89ffb94d6d3da99f", "lat": 38.939468166666664, "fusion_lon": 0.0, "fusion_lat": 0.0, "type": "electric_scooter", "name": "7096c51adaceebea89ffb94d6d3da99f", "is_disabled": 0, "rental_uris": {"ios": "https://dc.lft.to/lastmile_qr_scan", "android": "https://dc.lft.to/lastmile_qr_scan"}, "is_reserved": 0}, {"lon": -77.07919, "bike_id": "b81114c694b1aaf55d129945b65ba3c8", "lat": 38.9312565, "fusion_lon": 0.0, "fusion_lat": 0.0, "type": "electric_scooter", "name": "b81114c694b1aaf55d129945b65ba3c8", "is_disabled": 0, "rental_uris": {"ios": "https://dc.lft.to/lastmile_qr_scan", "android": "https://dc.lft.to/lastmile_qr_scan"}, "is_reserved": 0}, {"lon": -76.99459, "bike_id": "75b71310dc12e203070485f46deca06f", "lat": 38.94069133333333, "fusion_lon": 0.0, "fusion_lat": 0.0, "type": "electric_scooter", "name": "75b71310dc12e203070485f46deca06f", "is_disabled": 0, "rental_uris": {"ios": "https://dc.lft.to/lastmile_qr_scan", "android": "https://dc.lft.to/lastmile_qr_scan"}, "is_reserved": 0}, {"lon": -77.0710095, "bike_id": "3d6474c2bee8198cc3c0343a80cb5795", "lat": 38.919830833333336, "fusion_lon": 0.0, "fusion_lat": 0.0, "type": "electric_scooter", "name": "3d6474c2bee8198cc3c0343a80cb5795", "is_disabled": 0, "rental_uris": {"ios": "https://dc.lft.to/lastmile_qr_scan", "android": "https://dc.lft.to/lastmile_qr_scan"}, "is_reserved": 0}, {"lon": -77.05120766666667, "bike_id": "9e70c0f814bd2f971775211be9fa434b", "lat": 38.905108166666665, "fusion_lon": 0.0, "fusion_lat": 0.0, "type": "electric_scooter", "name": "9e70c0f814bd2f971775211be9fa434b", "is_disabled": 0, "rental_uris": {"ios": "https://dc.lft.to/lastmile_qr_scan", "android": "https://dc.lft.to/lastmile_qr_scan"}, "is_reserved": 0}, {"lon": -76.97669966666666, "bike_id": "98e7d6c7233684af5b70927cfa7c055f", "lat": 38.952492666666664, "fusion_lon": 0.0, "fusion_lat": 0.0, "type": "electric_bike", "name": "98e7d6c7233684af5b70927cfa7c055f", "is_disabled": 0, "rental_uris": {"ios": "https://dc.lft.to/lastmile_qr_scan", "android": "https://dc.lft.to/lastmile_qr_scan"}, "is_reserved": 0}, {"lon": -77.01777483333333, "bike_id": "a75441729d2436332485190fe337c8d5", "lat": 38.90408683333333, "fusion_lon": 0.0, "fusion_lat": 0.0, "type": "electric_scooter", "name": "a75441729d2436332485190fe337c8d5", "is_disabled": 0, "rental_uris": {"ios": "https://dc.lft.to/lastmile_qr_scan", "android": "https://dc.lft.to/lastmile_qr_scan"}, "is_reserved": 0}, {"lon": -76.98803433333333, "bike_id": "b28e28b967b722d9de80cae3fb315bc8", "lat": 38.86728566666667, "fusion_lon": 0.0, "fusion_lat": 0.0, "type": "electric_scooter", "name": "b28e28b967b722d9de80cae3fb315bc8", "is_disabled": 0, "rental_uris": {"ios": "https://dc.lft.to/lastmile_qr_scan", "android": "https://dc.lft.to/lastmile_qr_scan"}, "is_reserved": 0}, {"lon": -77.04483333333333, "bike_id": "f8f44340d71939ae34176a4158e64fc5", "lat": 38.91936833333333, "fusion_lon": 0.0, "fusion_lat": 0.0, "type": "electric_scooter", "name": "f8f44340d71939ae34176a4158e64fc5", "is_disabled": 0, "rental_uris": {"ios": "https://dc.lft.to/lastmile_qr_scan", "android": "https://dc.lft.to/lastmile_qr_scan"}, "is_reserved": 0}, {"lon": -76.98839266666667, "bike_id": "3aae36fb20c166197a0cf7427d9f6d28", "lat": 38.901266666666665, "fusion_lon": 0.0, "fusion_lat": 0.0, "type": "electric_scooter", "name": "3aae36fb20c166197a0cf7427d9f6d28", "is_disabled": 0, "rental_uris": {"ios": "https://dc.lft.to/lastmile_qr_scan", "android": "https://dc.lft.to/lastmile_qr_scan"}, "is_reserved": 0}, {"lon": -77.0325655, "bike_id": "10901419fb6f8cd4bf2213d60095295f", "lat": 38.932507, "fusion_lon": 0.0, "fusion_lat": 0.0, "type": "electric_scooter", "name": "10901419fb6f8cd4bf2213d60095295f", "is_disabled": 0, "rental_uris": {"ios": "https://dc.lft.to/lastmile_qr_scan", "android": "https://dc.lft.to/lastmile_qr_scan"}, "is_reserved": 0}, {"lon": -77.03660566666667, "bike_id": "b82ad1152926e90eecd068f26b5ed4c6", "lat": 38.90280166666667, "fusion_lon": 0.0, "fusion_lat": 0.0, "type": "electric_scooter", "name": "b82ad1152926e90eecd068f26b5ed4c6", "is_disabled": 0, "rental_uris": {"ios": "https://dc.lft.to/lastmile_qr_scan", "android": "https://dc.lft.to/lastmile_qr_scan"}, "is_reserved": 0}, {"lon": -77.02776933333334, "bike_id": "70d23c60c1703c64dcab814b00d8efb4", "lat": 38.927702333333336, "fusion_lon": 0.0, "fusion_lat": 0.0, "type": "electric_scooter", "name": "70d23c60c1703c64dcab814b00d8efb4", "is_disabled": 0, "rental_uris": {"ios": "https://dc.lft.to/lastmile_qr_scan", "android": "https://dc.lft.to/lastmile_qr_scan"}, "is_reserved": 0}, {"lon": -77.0343835, "bike_id": "5909d7de35c8b53dbecc7b811cf7fc7f", "lat": 38.908181666666664, "fusion_lon": 0.0, "fusion_lat": 0.0, "type": "electric_scooter", "name": "5909d7de35c8b53dbecc7b811cf7fc7f", "is_disabled": 0, "rental_uris": {"ios": "https://dc.lft.to/lastmile_qr_scan", "android": "https://dc.lft.to/lastmile_qr_scan"}, "is_reserved": 0}, {"lon": -77.02777883333333, "bike_id": "3e5b97124bb4cd9d9132a8aa285dd1df", "lat": 38.9025765, "fusion_lon": 0.0, "fusion_lat": 0.0, "type": "electric_scooter", "name": "3e5b97124bb4cd9d9132a8aa285dd1df", "is_disabled": 0, "rental_uris": {"ios": "https://dc.lft.to/lastmile_qr_scan", "android": "https://dc.lft.to/lastmile_qr_scan"}, "is_reserved": 0}, {"lon": -77.0551235, "bike_id": "afb766b85071779939f23ef756fc9329", "lat": 38.89962633333333, "fusion_lon": 0.0, "fusion_lat": 0.0, "type": "electric_scooter", "name": "afb766b85071779939f23ef756fc9329", "is_disabled": 0, "rental_uris": {"ios": "https://dc.lft.to/lastmile_qr_scan", "android": "https://dc.lft.to/lastmile_qr_scan"}, "is_reserved": 0}, {"lon": -76.98107733333333, "bike_id": "71bb0c81f79b37ee8720a5fae6af0c0b", "lat": 38.9040635, "fusion_lon": 0.0, "fusion_lat": 0.0, "type": "electric_scooter", "name": "71bb0c81f79b37ee8720a5fae6af0c0b", "is_disabled": 0, "rental_uris": {"ios": "https://dc.lft.to/lastmile_qr_scan", "android": "https://dc.lft.to/lastmile_qr_scan"}, "is_reserved": 0}, {"lon": -76.990536, "bike_id": "fbf70a4b111efc9dbdf51c676b4e4bd7", "lat": 38.86381883333333, "fusion_lon": 0.0, "fusion_lat": 0.0, "type": "electric_scooter", "name": "fbf70a4b111efc9dbdf51c676b4e4bd7", "is_disabled": 0, "rental_uris": {"ios": "https://dc.lft.to/lastmile_qr_scan", "android": "https://dc.lft.to/lastmile_qr_scan"}, "is_reserved": 0}, {"lon": -77.0161235, "bike_id": "00fd9d2265d78a5fabf09b9a91f73da8", "lat": 38.906889666666665, "fusion_lon": 0.0, "fusion_lat": 0.0, "type": "electric_scooter", "name": "00fd9d2265d78a5fabf09b9a91f73da8", "is_disabled": 0, "rental_uris": {"ios": "https://dc.lft.to/lastmile_qr_scan", "android": "https://dc.lft.to/lastmile_qr_scan"}, "is_reserved": 0}, {"lon": -77.021988, "bike_id": "7c12a9ffc47940dcaa96fc1cf64d1864", "lat": 38.910148, "fusion_lon": 0.0, "fusion_lat": 0.0, "type": "electric_scooter", "name": "7c12a9ffc47940dcaa96fc1cf64d1864", "is_disabled": 0, "rental_uris": {"ios": "https://dc.lft.to/lastmile_qr_scan", "android": "https://dc.lft.to/lastmile_qr_scan"}, "is_reserved": 0}, {"lon": -77.022687, "bike_id": "d6665ea61ab1fc34003a4ca148c1f55d", "lat": 38.912767833333334, "fusion_lon": 0.0, "fusion_lat": 0.0, "type": "electric_scooter", "name": "d6665ea61ab1fc34003a4ca148c1f55d", "is_disabled": 0, "rental_uris": {"ios": "https://dc.lft.to/lastmile_qr_scan", "android": "https://dc.lft.to/lastmile_qr_scan"}, "is_reserved": 0}, {"lon": -77.11588766666667, "bike_id": "c7bb4f2d2e9b77fe7ee30d1834015d52", "lat": 39.074977833333335, "fusion_lon": 0.0, "fusion_lat": 0.0, "type": "electric_bike", "name": "c7bb4f2d2e9b77fe7ee30d1834015d52", "is_disabled": 0, "rental_uris": {"ios": "https://dc.lft.to/lastmile_qr_scan", "android": "https://dc.lft.to/lastmile_qr_scan"}, "is_reserved": 0}, {"lon": -77.032808, "bike_id": "06a86a3e321ffeed177e6e08952fc4d7", "lat": 38.93778916666667, "fusion_lon": 0.0, "fusion_lat": 0.0, "type": "electric_bike", "name": "06a86a3e321ffeed177e6e08952fc4d7", "is_disabled": 0, "rental_uris": {"ios": "https://dc.lft.to/lastmile_qr_scan", "android": "https://dc.lft.to/lastmile_qr_scan"}, "is_reserved": 0}, {"lon": -77.02451666666667, "bike_id": "d6d4a3cdeb829d7465266ad6cd57e4df", "lat": 38.918508333333335, "fusion_lon": 0.0, "fusion_lat": 0.0, "type": "electric_scooter", "name": "d6d4a3cdeb829d7465266ad6cd57e4df", "is_disabled": 0, "rental_uris": {"ios": "https://dc.lft.to/lastmile_qr_scan", "android": "https://dc.lft.to/lastmile_qr_scan"}, "is_reserved": 0}, {"lon": -76.969102, "bike_id": "51db6659a4beed37d4c7af3ea237d1d7", "lat": 38.846116, "fusion_lon": 0.0, "fusion_lat": 0.0, "type": "electric_bike", "name": "51db6659a4beed37d4c7af3ea237d1d7", "is_disabled": 0, "rental_uris": {"ios": "https://dc.lft.to/lastmile_qr_scan", "android": "https://dc.lft.to/lastmile_qr_scan"}, "is_reserved": 0}, {"lon": -76.99067983333333, "bike_id": "40fe8fface155ad15b09a5ae91d57a97", "lat": 38.927493, "fusion_lon": 0.0, "fusion_lat": 0.0, "type": "electric_scooter", "name": "40fe8fface155ad15b09a5ae91d57a97", "is_disabled": 0, "rental_uris": {"ios": "https://dc.lft.to/lastmile_qr_scan", "android": "https://dc.lft.to/lastmile_qr_scan"}, "is_reserved": 0}, {"lon": -76.99928366666667, "bike_id": "2cdf201ec9e99909f45c0f6840adf7f5", "lat": 38.84315466666666, "fusion_lon": 0.0, "fusion_lat": 0.0, "type": "electric_scooter", "name": "2cdf201ec9e99909f45c0f6840adf7f5", "is_disabled": 0, "rental_uris": {"ios": "https://dc.lft.to/lastmile_qr_scan", "android": "https://dc.lft.to/lastmile_qr_scan"}, "is_reserved": 0}, {"lon": -76.989006, "bike_id": "71e3ea633e82458171a97d5608146e5e", "lat": 38.91346933333333, "fusion_lon": 0.0, "fusion_lat": 0.0, "type": "electric_scooter", "name": "71e3ea633e82458171a97d5608146e5e", "is_disabled": 0, "rental_uris": {"ios": "https://dc.lft.to/lastmile_qr_scan", "android": "https://dc.lft.to/lastmile_qr_scan"}, "is_reserved": 0}, {"lon": -77.02043716666667, "bike_id": "d7145628bc6c99ed10d52fc9ba772b4a", "lat": 38.9155915, "fusion_lon": 0.0, "fusion_lat": 0.0, "type": "electric_scooter", "name": "d7145628bc6c99ed10d52fc9ba772b4a", "is_disabled": 0, "rental_uris": {"ios": "https://dc.lft.to/lastmile_qr_scan", "android": "https://dc.lft.to/lastmile_qr_scan"}, "is_reserved": 0}, {"lon": -77.00199033333334, "bike_id": "d2fd3afec6499a8420e80005a7c80949", "lat": 38.902412, "fusion_lon": 0.0, "fusion_lat": 0.0, "type": "electric_scooter", "name": "d2fd3afec6499a8420e80005a7c80949", "is_disabled": 0, "rental_uris": {"ios": "https://dc.lft.to/lastmile_qr_scan", "android": "https://dc.lft.to/lastmile_qr_scan"}, "is_reserved": 0}, {"lon": -77.02930916666666, "bike_id": "0055520afde76a0cf689810200e91794", "lat": 38.92083683333333, "fusion_lon": 0.0, "fusion_lat": 0.0, "type": "electric_scooter", "name": "0055520afde76a0cf689810200e91794", "is_disabled": 0, "rental_uris": {"ios": "https://dc.lft.to/lastmile_qr_scan", "android": "https://dc.lft.to/lastmile_qr_scan"}, "is_reserved": 0}, {"lon": -77.05912716666667, "bike_id": "eaba82277c5ce9ce0bdff27b935ca522", "lat": 38.862531833333335, "fusion_lon": 0.0, "fusion_lat": 0.0, "type": "electric_scooter", "name": "eaba82277c5ce9ce0bdff27b935ca522", "is_disabled": 0, "rental_uris": {"ios": "https://dc.lft.to/lastmile_qr_scan", "android": "https://dc.lft.to/lastmile_qr_scan"}, "is_reserved": 0}, {"lon": -77.013505, "bike_id": "4e1b3c5932bbc60f46d8eea0141bce56", "lat": 38.91951266666667, "fusion_lon": 0.0, "fusion_lat": 0.0, "type": "electric_scooter", "name": "4e1b3c5932bbc60f46d8eea0141bce56", "is_disabled": 0, "rental_uris": {"ios": "https://dc.lft.to/lastmile_qr_scan", "android": "https://dc.lft.to/lastmile_qr_scan"}, "is_reserved": 0}, {"lon": -77.04171583333333, "bike_id": "69a175f4cb5e45549c00afa42a9d3f74", "lat": 38.9046045, "fusion_lon": 0.0, "fusion_lat": 0.0, "type": "electric_scooter", "name": "69a175f4cb5e45549c00afa42a9d3f74", "is_disabled": 0, "rental_uris": {"ios": "https://dc.lft.to/lastmile_qr_scan", "android": "https://dc.lft.to/lastmile_qr_scan"}, "is_reserved": 0}, {"lon": -77.00842416666667, "bike_id": "9ffc03fea92fbc192dbcaa2f4cf83db8", "lat": 38.9162475, "fusion_lon": 0.0, "fusion_lat": 0.0, "type": "electric_scooter", "name": "9ffc03fea92fbc192dbcaa2f4cf83db8", "is_disabled": 0, "rental_uris": {"ios": "https://dc.lft.to/lastmile_qr_scan", "android": "https://dc.lft.to/lastmile_qr_scan"}, "is_reserved": 0}, {"lon": -77.02107066666666, "bike_id": "66be2cc3d06a8f10a99f3a784ce3239a", "lat": 38.899654, "fusion_lon": 0.0, "fusion_lat": 0.0, "type": "electric_scooter", "name": "66be2cc3d06a8f10a99f3a784ce3239a", "is_disabled": 0, "rental_uris": {"ios": "https://dc.lft.to/lastmile_qr_scan", "android": "https://dc.lft.to/lastmile_qr_scan"}, "is_reserved": 0}, {"lon": -77.05575066666667, "bike_id": "ba279efe3396d7f2dcf09c9948f35f29", "lat": 38.91605416666667, "fusion_lon": 0.0, "fusion_lat": 0.0, "type": "electric_scooter", "name": "ba279efe3396d7f2dcf09c9948f35f29", "is_disabled": 0, "rental_uris": {"ios": "https://dc.lft.to/lastmile_qr_scan", "android": "https://dc.lft.to/lastmile_qr_scan"}, "is_reserved": 0}, {"lon": -77.02697966666666, "bike_id": "47d51a0d6c0a10f1416c10e33ce9bcc2", "lat": 38.900482833333335, "fusion_lon": 0.0, "fusion_lat": 0.0, "type": "electric_scooter", "name": "47d51a0d6c0a10f1416c10e33ce9bcc2", "is_disabled": 0, "rental_uris": {"ios": "https://dc.lft.to/lastmile_qr_scan", "android": "https://dc.lft.to/lastmile_qr_scan"}, "is_reserved": 0}, {"lon": -77.05857183333333, "bike_id": "c91242a90240d1627e1e470f1d3e1aeb", "lat": 38.936089333333335, "fusion_lon": 0.0, "fusion_lat": 0.0, "type": "electric_scooter", "name": "c91242a90240d1627e1e470f1d3e1aeb", "is_disabled": 0, "rental_uris": {"ios": "https://dc.lft.to/lastmile_qr_scan", "android": "https://dc.lft.to/lastmile_qr_scan"}, "is_reserved": 0}, {"lon": -77.0734055, "bike_id": "3fb24a1d3af205b6eba61fa73d441344", "lat": 38.9110155, "fusion_lon": 0.0, "fusion_lat": 0.0, "type": "electric_scooter", "name": "3fb24a1d3af205b6eba61fa73d441344", "is_disabled": 0, "rental_uris": {"ios": "https://dc.lft.to/lastmile_qr_scan", "android": "https://dc.lft.to/lastmile_qr_scan"}, "is_reserved": 0}, {"lon": -76.98212566666666, "bike_id": "78f90bbab8b0d461b326320bcba1359e", "lat": 38.86619833333334, "fusion_lon": 0.0, "fusion_lat": 0.0, "type": "electric_scooter", "name": "78f90bbab8b0d461b326320bcba1359e", "is_disabled": 0, "rental_uris": {"ios": "https://dc.lft.to/lastmile_qr_scan", "android": "https://dc.lft.to/lastmile_qr_scan"}, "is_reserved": 0}, {"lon": -76.97332183333333, "bike_id": "2a6ae07130e3e96178c1f90aa1a78a9f", "lat": 38.904832, "fusion_lon": 0.0, "fusion_lat": 0.0, "type": "electric_bike", "name": "2a6ae07130e3e96178c1f90aa1a78a9f", "is_disabled": 0, "rental_uris": {"ios": "https://dc.lft.to/lastmile_qr_scan", "android": "https://dc.lft.to/lastmile_qr_scan"}, "is_reserved": 0}, {"lon": -77.041737, "bike_id": "14fd5005e9b876fd6379b548e224ce83", "lat": 38.919192, "fusion_lon": 0.0, "fusion_lat": 0.0, "type": "electric_scooter", "name": "14fd5005e9b876fd6379b548e224ce83", "is_disabled": 0, "rental_uris": {"ios": "https://dc.lft.to/lastmile_qr_scan", "android": "https://dc.lft.to/lastmile_qr_scan"}, "is_reserved": 0}, {"lon": -76.990494, "bike_id": "88b6eca14d1c0887f8b67675b39b9663", "lat": 38.884166666666665, "fusion_lon": 0.0, "fusion_lat": 0.0, "type": "electric_scooter", "name": "88b6eca14d1c0887f8b67675b39b9663", "is_disabled": 0, "rental_uris": {"ios": "https://dc.lft.to/lastmile_qr_scan", "android": "https://dc.lft.to/lastmile_qr_scan"}, "is_reserved": 0}, {"lon": -77.0026445, "bike_id": "edd9e5876c456def7acf88e45e8c5022", "lat": 38.911092, "fusion_lon": 0.0, "fusion_lat": 0.0, "type": "electric_scooter", "name": "edd9e5876c456def7acf88e45e8c5022", "is_disabled": 0, "rental_uris": {"ios": "https://dc.lft.to/lastmile_qr_scan", "android": "https://dc.lft.to/lastmile_qr_scan"}, "is_reserved": 0}, {"lon": -76.991807, "bike_id": "a3f729584538611577385ab9619f84ad", "lat": 38.9050695, "fusion_lon": 0.0, "fusion_lat": 0.0, "type": "electric_scooter", "name": "a3f729584538611577385ab9619f84ad", "is_disabled": 0, "rental_uris": {"ios": "https://dc.lft.to/lastmile_qr_scan", "android": "https://dc.lft.to/lastmile_qr_scan"}, "is_reserved": 0}, {"lon": -77.04176266666667, "bike_id": "6721f2daf585392e7dc2f1ad8e05363d", "lat": 38.919811, "fusion_lon": 0.0, "fusion_lat": 0.0, "type": "electric_scooter", "name": "6721f2daf585392e7dc2f1ad8e05363d", "is_disabled": 0, "rental_uris": {"ios": "https://dc.lft.to/lastmile_qr_scan", "android": "https://dc.lft.to/lastmile_qr_scan"}, "is_reserved": 0}, {"lon": -77.02615516666667, "bike_id": "d76d08b1f90a7a1326d8b5c174115a07", "lat": 38.91416433333333, "fusion_lon": 0.0, "fusion_lat": 0.0, "type": "electric_scooter", "name": "d76d08b1f90a7a1326d8b5c174115a07", "is_disabled": 0, "rental_uris": {"ios": "https://dc.lft.to/lastmile_qr_scan", "android": "https://dc.lft.to/lastmile_qr_scan"}, "is_reserved": 0}, {"lon": -77.108428, "bike_id": "ca2dec4c34415139323d0f380fd26c95", "lat": 38.812048, "fusion_lon": 0.0, "fusion_lat": 0.0, "type": "electric_bike", "name": "ca2dec4c34415139323d0f380fd26c95", "is_disabled": 0, "rental_uris": {"ios": "https://dc.lft.to/lastmile_qr_scan", "android": "https://dc.lft.to/lastmile_qr_scan"}, "is_reserved": 0}, {"lon": -77.028455, "bike_id": "04336f6a06d40d3fb246286d07485faa", "lat": 38.931826666666666, "fusion_lon": 0.0, "fusion_lat": 0.0, "type": "electric_scooter", "name": "04336f6a06d40d3fb246286d07485faa", "is_disabled": 0, "rental_uris": {"ios": "https://dc.lft.to/lastmile_qr_scan", "android": "https://dc.lft.to/lastmile_qr_scan"}, "is_reserved": 0}, {"lon": -77.03252733333333, "bike_id": "58ba1f5454836000629a332adc9ec328", "lat": 38.90125416666667, "fusion_lon": 0.0, "fusion_lat": 0.0, "type": "electric_scooter", "name": "58ba1f5454836000629a332adc9ec328", "is_disabled": 0, "rental_uris": {"ios": "https://dc.lft.to/lastmile_qr_scan", "android": "https://dc.lft.to/lastmile_qr_scan"}, "is_reserved": 0}, {"lon": -77.01454366666667, "bike_id": "2bcbd288419ed8442f831218995b089d", "lat": 38.917765, "fusion_lon": 0.0, "fusion_lat": 0.0, "type": "electric_scooter", "name": "2bcbd288419ed8442f831218995b089d", "is_disabled": 0, "rental_uris": {"ios": "https://dc.lft.to/lastmile_qr_scan", "android": "https://dc.lft.to/lastmile_qr_scan"}, "is_reserved": 0}, {"lon": -77.04008733333333, "bike_id": "55cfacee0b0a1364ab4ca8ca25967d84", "lat": 38.910065833333334, "fusion_lon": 0.0, "fusion_lat": 0.0, "type": "electric_scooter", "name": "55cfacee0b0a1364ab4ca8ca25967d84", "is_disabled": 0, "rental_uris": {"ios": "https://dc.lft.to/lastmile_qr_scan", "android": "https://dc.lft.to/lastmile_qr_scan"}, "is_reserved": 0}, {"lon": -77.04246066666667, "bike_id": "25f61c126e8c10c81f85f38697e3f13b", "lat": 38.90730416666667, "fusion_lon": 0.0, "fusion_lat": 0.0, "type": "electric_scooter", "name": "25f61c126e8c10c81f85f38697e3f13b", "is_disabled": 0, "rental_uris": {"ios": "https://dc.lft.to/lastmile_qr_scan", "android": "https://dc.lft.to/lastmile_qr_scan"}, "is_reserved": 0}, {"lon": -76.89538316666666, "bike_id": "2e492ad8e48b60d9c7f6e753fb645b0c", "lat": 38.94562116666667, "fusion_lon": 0.0, "fusion_lat": 0.0, "type": "electric_bike", "name": "2e492ad8e48b60d9c7f6e753fb645b0c", "is_disabled": 0, "rental_uris": {"ios": "https://dc.lft.to/lastmile_qr_scan", "android": "https://dc.lft.to/lastmile_qr_scan"}, "is_reserved": 0}, {"lon": -77.03188616666667, "bike_id": "8c559f264f801402b06d20ccb9be6ad6", "lat": 38.916344333333335, "fusion_lon": 0.0, "fusion_lat": 0.0, "type": "electric_scooter", "name": "8c559f264f801402b06d20ccb9be6ad6", "is_disabled": 0, "rental_uris": {"ios": "https://dc.lft.to/lastmile_qr_scan", "android": "https://dc.lft.to/lastmile_qr_scan"}, "is_reserved": 0}, {"lon": -77.029452, "bike_id": "d15522f5ca82260399d31852fa465503", "lat": 38.905107, "fusion_lon": 0.0, "fusion_lat": 0.0, "type": "electric_scooter", "name": "d15522f5ca82260399d31852fa465503", "is_disabled": 0, "rental_uris": {"ios": "https://dc.lft.to/lastmile_qr_scan", "android": "https://dc.lft.to/lastmile_qr_scan"}, "is_reserved": 0}, {"lon": -77.02086966666667, "bike_id": "6b2e587c0414d86594c4d6f30f946c39", "lat": 38.900008, "fusion_lon": 0.0, "fusion_lat": 0.0, "type": "electric_scooter", "name": "6b2e587c0414d86594c4d6f30f946c39", "is_disabled": 0, "rental_uris": {"ios": "https://dc.lft.to/lastmile_qr_scan", "android": "https://dc.lft.to/lastmile_qr_scan"}, "is_reserved": 0}, {"lon": -76.978145, "bike_id": "93444d10fba88ccd4d2ce3eb98f3ece2", "lat": 38.90675983333333, "fusion_lon": 0.0, "fusion_lat": 0.0, "type": "electric_scooter", "name": "93444d10fba88ccd4d2ce3eb98f3ece2", "is_disabled": 0, "rental_uris": {"ios": "https://dc.lft.to/lastmile_qr_scan", "android": "https://dc.lft.to/lastmile_qr_scan"}, "is_reserved": 0}, {"lon": -77.0711085, "bike_id": "cedbc665d1f67aec921e5b36876009ed", "lat": 38.91979933333333, "fusion_lon": 0.0, "fusion_lat": 0.0, "type": "electric_scooter", "name": "cedbc665d1f67aec921e5b36876009ed", "is_disabled": 0, "rental_uris": {"ios": "https://dc.lft.to/lastmile_qr_scan", "android": "https://dc.lft.to/lastmile_qr_scan"}, "is_reserved": 0}, {"lon": -77.02360583333333, "bike_id": "5ef540c7fda4d8b746e31f878ab84763", "lat": 38.892256833333334, "fusion_lon": 0.0, "fusion_lat": 0.0, "type": "electric_scooter", "name": "5ef540c7fda4d8b746e31f878ab84763", "is_disabled": 0, "rental_uris": {"ios": "https://dc.lft.to/lastmile_qr_scan", "android": "https://dc.lft.to/lastmile_qr_scan"}, "is_reserved": 0}, {"lon": -76.98726933333333, "bike_id": "f5fbb969b4343dd7e74946ea5ac9675a", "lat": 38.86711533333333, "fusion_lon": 0.0, "fusion_lat": 0.0, "type": "electric_scooter", "name": "f5fbb969b4343dd7e74946ea5ac9675a", "is_disabled": 0, "rental_uris": {"ios": "https://dc.lft.to/lastmile_qr_scan", "android": "https://dc.lft.to/lastmile_qr_scan"}, "is_reserved": 0}, {"lon": -77.03839933333333, "bike_id": "14475aeb6c7687381d67fb1a0fc89365", "lat": 38.913498, "fusion_lon": 0.0, "fusion_lat": 0.0, "type": "electric_scooter", "name": "14475aeb6c7687381d67fb1a0fc89365", "is_disabled": 0, "rental_uris": {"ios": "https://dc.lft.to/lastmile_qr_scan", "android": "https://dc.lft.to/lastmile_qr_scan"}, "is_reserved": 0}, {"lon": -77.003743, "bike_id": "207a8b97c7e20f7b9155d7f32f21f3d1", "lat": 38.89732583333333, "fusion_lon": 0.0, "fusion_lat": 0.0, "type": "electric_scooter", "name": "207a8b97c7e20f7b9155d7f32f21f3d1", "is_disabled": 0, "rental_uris": {"ios": "https://dc.lft.to/lastmile_qr_scan", "android": "https://dc.lft.to/lastmile_qr_scan"}, "is_reserved": 0}, {"lon": -77.024559, "bike_id": "61a31ce342b0020ba4b6f2fc5428062e", "lat": 38.9170985, "fusion_lon": 0.0, "fusion_lat": 0.0, "type": "electric_scooter", "name": "61a31ce342b0020ba4b6f2fc5428062e", "is_disabled": 0, "rental_uris": {"ios": "https://dc.lft.to/lastmile_qr_scan", "android": "https://dc.lft.to/lastmile_qr_scan"}, "is_reserved": 0}, {"lon": -77.02974733333333, "bike_id": "a7c496440c664e82cb1cc4a89f3628bf", "lat": 38.94743366666667, "fusion_lon": 0.0, "fusion_lat": 0.0, "type": "electric_scooter", "name": "a7c496440c664e82cb1cc4a89f3628bf", "is_disabled": 0, "rental_uris": {"ios": "https://dc.lft.to/lastmile_qr_scan", "android": "https://dc.lft.to/lastmile_qr_scan"}, "is_reserved": 0}, {"lon": -77.0340455, "bike_id": "7db7643dc5f792cac78ef7bf0c2d0f11", "lat": 38.9342675, "fusion_lon": 0.0, "fusion_lat": 0.0, "type": "electric_scooter", "name": "7db7643dc5f792cac78ef7bf0c2d0f11", "is_disabled": 0, "rental_uris": {"ios": "https://dc.lft.to/lastmile_qr_scan", "android": "https://dc.lft.to/lastmile_qr_scan"}, "is_reserved": 0}, {"lon": -77.03485166666667, "bike_id": "5078afd4d0c25379ff18931e1fe31bb3", "lat": 38.91711866666667, "fusion_lon": 0.0, "fusion_lat": 0.0, "type": "electric_scooter", "name": "5078afd4d0c25379ff18931e1fe31bb3", "is_disabled": 0, "rental_uris": {"ios": "https://dc.lft.to/lastmile_qr_scan", "android": "https://dc.lft.to/lastmile_qr_scan"}, "is_reserved": 0}, {"lon": -77.0424395, "bike_id": "544800d9fb64519a92245b9198754dbf", "lat": 38.9222695, "fusion_lon": 0.0, "fusion_lat": 0.0, "type": "electric_scooter", "name": "544800d9fb64519a92245b9198754dbf", "is_disabled": 0, "rental_uris": {"ios": "https://dc.lft.to/lastmile_qr_scan", "android": "https://dc.lft.to/lastmile_qr_scan"}, "is_reserved": 0}, {"lon": -77.0463145, "bike_id": "9bbc9057c35a078fca25e0a2dfd8a17b", "lat": 38.92122766666667, "fusion_lon": 0.0, "fusion_lat": 0.0, "type": "electric_scooter", "name": "9bbc9057c35a078fca25e0a2dfd8a17b", "is_disabled": 0, "rental_uris": {"ios": "https://dc.lft.to/lastmile_qr_scan", "android": "https://dc.lft.to/lastmile_qr_scan"}, "is_reserved": 0}, {"lon": -77.0255685, "bike_id": "ddf6c73db1c522ed3789b0f57f0304e3", "lat": 38.924056, "fusion_lon": 0.0, "fusion_lat": 0.0, "type": "electric_scooter", "name": "ddf6c73db1c522ed3789b0f57f0304e3", "is_disabled": 0, "rental_uris": {"ios": "https://dc.lft.to/lastmile_qr_scan", "android": "https://dc.lft.to/lastmile_qr_scan"}, "is_reserved": 0}, {"lon": -76.98537933333333, "bike_id": "9d8305a2a4f9901b1d4d204241d2a5ab", "lat": 38.9102615, "fusion_lon": 0.0, "fusion_lat": 0.0, "type": "electric_scooter", "name": "9d8305a2a4f9901b1d4d204241d2a5ab", "is_disabled": 0, "rental_uris": {"ios": "https://dc.lft.to/lastmile_qr_scan", "android": "https://dc.lft.to/lastmile_qr_scan"}, "is_reserved": 0}, {"lon": -77.04242066666667, "bike_id": "8b71a3645afbc43ba513f28a081c3205", "lat": 38.922268, "fusion_lon": 0.0, "fusion_lat": 0.0, "type": "electric_scooter", "name": "8b71a3645afbc43ba513f28a081c3205", "is_disabled": 0, "rental_uris": {"ios": "https://dc.lft.to/lastmile_qr_scan", "android": "https://dc.lft.to/lastmile_qr_scan"}, "is_reserved": 0}, {"lon": -77.04726216666667, "bike_id": "c80593aab91dcda82b920de4e9c201ca", "lat": 38.917756833333335, "fusion_lon": 0.0, "fusion_lat": 0.0, "type": "electric_scooter", "name": "c80593aab91dcda82b920de4e9c201ca", "is_disabled": 0, "rental_uris": {"ios": "https://dc.lft.to/lastmile_qr_scan", "android": "https://dc.lft.to/lastmile_qr_scan"}, "is_reserved": 0}, {"lon": -76.95744666666667, "bike_id": "516001f670580b10c1036f4decef6553", "lat": 38.8843365, "fusion_lon": 0.0, "fusion_lat": 0.0, "type": "electric_scooter", "name": "516001f670580b10c1036f4decef6553", "is_disabled": 0, "rental_uris": {"ios": "https://dc.lft.to/lastmile_qr_scan", "android": "https://dc.lft.to/lastmile_qr_scan"}, "is_reserved": 0}, {"lon": -77.01345966666666, "bike_id": "9abbebc087656b106edd432bc7e2a63c", "lat": 38.87816466666666, "fusion_lon": 0.0, "fusion_lat": 0.0, "type": "electric_scooter", "name": "9abbebc087656b106edd432bc7e2a63c", "is_disabled": 0, "rental_uris": {"ios": "https://dc.lft.to/lastmile_qr_scan", "android": "https://dc.lft.to/lastmile_qr_scan"}, "is_reserved": 0}, {"lon": -77.023592, "bike_id": "6c44b2fedd101fa155a63320736a56e2", "lat": 38.92223883333333, "fusion_lon": 0.0, "fusion_lat": 0.0, "type": "electric_scooter", "name": "6c44b2fedd101fa155a63320736a56e2", "is_disabled": 0, "rental_uris": {"ios": "https://dc.lft.to/lastmile_qr_scan", "android": "https://dc.lft.to/lastmile_qr_scan"}, "is_reserved": 0}, {"lon": -77.04555133333334, "bike_id": "5eceac052dc28e43ec8d8154e737869a", "lat": 38.91467683333333, "fusion_lon": 0.0, "fusion_lat": 0.0, "type": "electric_scooter", "name": "5eceac052dc28e43ec8d8154e737869a", "is_disabled": 0, "rental_uris": {"ios": "https://dc.lft.to/lastmile_qr_scan", "android": "https://dc.lft.to/lastmile_qr_scan"}, "is_reserved": 0}, {"lon": -77.0320375, "bike_id": "7e67b214641e1e53814ac64ec41bfa14", "lat": 38.90732333333333, "fusion_lon": 0.0, "fusion_lat": 0.0, "type": "electric_scooter", "name": "7e67b214641e1e53814ac64ec41bfa14", "is_disabled": 0, "rental_uris": {"ios": "https://dc.lft.to/lastmile_qr_scan", "android": "https://dc.lft.to/lastmile_qr_scan"}, "is_reserved": 0}, {"lon": -77.040445, "bike_id": "aeda22aa71715f93ec6dce063e4f9308", "lat": 38.92882216666667, "fusion_lon": 0.0, "fusion_lat": 0.0, "type": "electric_scooter", "name": "aeda22aa71715f93ec6dce063e4f9308", "is_disabled": 0, "rental_uris": {"ios": "https://dc.lft.to/lastmile_qr_scan", "android": "https://dc.lft.to/lastmile_qr_scan"}, "is_reserved": 0}, {"lon": -77.00333983333333, "bike_id": "c2ef184b2dabe3627e6b3d0177d98d02", "lat": 38.891904833333335, "fusion_lon": 0.0, "fusion_lat": 0.0, "type": "electric_scooter", "name": "c2ef184b2dabe3627e6b3d0177d98d02", "is_disabled": 0, "rental_uris": {"ios": "https://dc.lft.to/lastmile_qr_scan", "android": "https://dc.lft.to/lastmile_qr_scan"}, "is_reserved": 0}, {"lon": -77.1170655, "bike_id": "4dcf2f4fc092e15230530e88f30e8e12", "lat": 38.8674685, "fusion_lon": 0.0, "fusion_lat": 0.0, "type": "electric_bike", "name": "4dcf2f4fc092e15230530e88f30e8e12", "is_disabled": 0, "rental_uris": {"ios": "https://dc.lft.to/lastmile_qr_scan", "android": "https://dc.lft.to/lastmile_qr_scan"}, "is_reserved": 0}, {"lon": -77.00070783333334, "bike_id": "08f1696c874087ffbd9ffbada7a60388", "lat": 38.917368833333335, "fusion_lon": 0.0, "fusion_lat": 0.0, "type": "electric_scooter", "name": "08f1696c874087ffbd9ffbada7a60388", "is_disabled": 0, "rental_uris": {"ios": "https://dc.lft.to/lastmile_qr_scan", "android": "https://dc.lft.to/lastmile_qr_scan"}, "is_reserved": 0}, {"lon": -77.02325333333333, "bike_id": "afcd0c63b309fdb8f02466c4f292ae7a", "lat": 38.89514116666667, "fusion_lon": 0.0, "fusion_lat": 0.0, "type": "electric_scooter", "name": "afcd0c63b309fdb8f02466c4f292ae7a", "is_disabled": 0, "rental_uris": {"ios": "https://dc.lft.to/lastmile_qr_scan", "android": "https://dc.lft.to/lastmile_qr_scan"}, "is_reserved": 0}, {"lon": -76.98525583333333, "bike_id": "8a6ae8df825834f45be7454c401aaf26", "lat": 38.90468383333334, "fusion_lon": 0.0, "fusion_lat": 0.0, "type": "electric_scooter", "name": "8a6ae8df825834f45be7454c401aaf26", "is_disabled": 0, "rental_uris": {"ios": "https://dc.lft.to/lastmile_qr_scan", "android": "https://dc.lft.to/lastmile_qr_scan"}, "is_reserved": 0}, {"lon": -77.011986, "bike_id": "64790313dcd9485dd0663592f4ec4d93", "lat": 38.824093, "fusion_lon": 0.0, "fusion_lat": 0.0, "type": "electric_bike", "name": "64790313dcd9485dd0663592f4ec4d93", "is_disabled": 0, "rental_uris": {"ios": "https://dc.lft.to/lastmile_qr_scan", "android": "https://dc.lft.to/lastmile_qr_scan"}, "is_reserved": 0}, {"lon": -77.034493, "bike_id": "4f4395945f74eb1a99c5017df802267a", "lat": 38.927479, "fusion_lon": 0.0, "fusion_lat": 0.0, "type": "electric_scooter", "name": "4f4395945f74eb1a99c5017df802267a", "is_disabled": 0, "rental_uris": {"ios": "https://dc.lft.to/lastmile_qr_scan", "android": "https://dc.lft.to/lastmile_qr_scan"}, "is_reserved": 0}, {"lon": -77.023078, "bike_id": "bdb2964a13faf00b8e94f2eecf0fef31", "lat": 38.89910916666667, "fusion_lon": 0.0, "fusion_lat": 0.0, "type": "electric_scooter", "name": "bdb2964a13faf00b8e94f2eecf0fef31", "is_disabled": 0, "rental_uris": {"ios": "https://dc.lft.to/lastmile_qr_scan", "android": "https://dc.lft.to/lastmile_qr_scan"}, "is_reserved": 0}, {"lon": -77.02444633333333, "bike_id": "aa79534e5d16f620019e510e47d909f6", "lat": 38.90723166666667, "fusion_lon": 0.0, "fusion_lat": 0.0, "type": "electric_scooter", "name": "aa79534e5d16f620019e510e47d909f6", "is_disabled": 0, "rental_uris": {"ios": "https://dc.lft.to/lastmile_qr_scan", "android": "https://dc.lft.to/lastmile_qr_scan"}, "is_reserved": 0}, {"lon": -77.03433683333333, "bike_id": "668e9b658cb78b55da7bb56285cbb929", "lat": 38.934426333333334, "fusion_lon": 0.0, "fusion_lat": 0.0, "type": "electric_scooter", "name": "668e9b658cb78b55da7bb56285cbb929", "is_disabled": 0, "rental_uris": {"ios": "https://dc.lft.to/lastmile_qr_scan", "android": "https://dc.lft.to/lastmile_qr_scan"}, "is_reserved": 0}, {"lon": -77.0459965, "bike_id": "243c317e3e4db0259b3c8babfd61a6ae", "lat": 38.90770116666667, "fusion_lon": 0.0, "fusion_lat": 0.0, "type": "electric_scooter", "name": "243c317e3e4db0259b3c8babfd61a6ae", "is_disabled": 0, "rental_uris": {"ios": "https://dc.lft.to/lastmile_qr_scan", "android": "https://dc.lft.to/lastmile_qr_scan"}, "is_reserved": 0}, {"lon": -77.04657466666667, "bike_id": "a489c9a104caa7a5907a31d7d2d3b8d5", "lat": 38.91364883333333, "fusion_lon": 0.0, "fusion_lat": 0.0, "type": "electric_scooter", "name": "a489c9a104caa7a5907a31d7d2d3b8d5", "is_disabled": 0, "rental_uris": {"ios": "https://dc.lft.to/lastmile_qr_scan", "android": "https://dc.lft.to/lastmile_qr_scan"}, "is_reserved": 0}, {"lon": -77.0374875, "bike_id": "63092c8d82d11a9de4578d297efaaecb", "lat": 38.929128666666664, "fusion_lon": 0.0, "fusion_lat": 0.0, "type": "electric_scooter", "name": "63092c8d82d11a9de4578d297efaaecb", "is_disabled": 0, "rental_uris": {"ios": "https://dc.lft.to/lastmile_qr_scan", "android": "https://dc.lft.to/lastmile_qr_scan"}, "is_reserved": 0}, {"lon": -77.00563666666666, "bike_id": "49967aaf2c972b2c4de22915bc95942c", "lat": 38.87477883333333, "fusion_lon": 0.0, "fusion_lat": 0.0, "type": "electric_scooter", "name": "49967aaf2c972b2c4de22915bc95942c", "is_disabled": 0, "rental_uris": {"ios": "https://dc.lft.to/lastmile_qr_scan", "android": "https://dc.lft.to/lastmile_qr_scan"}, "is_reserved": 0}, {"lon": -77.02234866666667, "bike_id": "4d458f8d5cea0dd64406a892adb878c3", "lat": 38.92079433333333, "fusion_lon": 0.0, "fusion_lat": 0.0, "type": "electric_scooter", "name": "4d458f8d5cea0dd64406a892adb878c3", "is_disabled": 0, "rental_uris": {"ios": "https://dc.lft.to/lastmile_qr_scan", "android": "https://dc.lft.to/lastmile_qr_scan"}, "is_reserved": 0}, {"lon": -77.03284033333334, "bike_id": "4c72d79265d0a17c7a805368aaa2d9b1", "lat": 38.930235, "fusion_lon": 0.0, "fusion_lat": 0.0, "type": "electric_scooter", "name": "4c72d79265d0a17c7a805368aaa2d9b1", "is_disabled": 0, "rental_uris": {"ios": "https://dc.lft.to/lastmile_qr_scan", "android": "https://dc.lft.to/lastmile_qr_scan"}, "is_reserved": 0}, {"lon": -77.02498566666667, "bike_id": "e8fc8143190e70ce91d644e1f6e4509a", "lat": 38.9259595, "fusion_lon": 0.0, "fusion_lat": 0.0, "type": "electric_scooter", "name": "e8fc8143190e70ce91d644e1f6e4509a", "is_disabled": 0, "rental_uris": {"ios": "https://dc.lft.to/lastmile_qr_scan", "android": "https://dc.lft.to/lastmile_qr_scan"}, "is_reserved": 0}, {"lon": -77.04135233333334, "bike_id": "8bdf059fda7bd79ba849e7a6fc49789f", "lat": 38.94265983333333, "fusion_lon": 0.0, "fusion_lat": 0.0, "type": "electric_scooter", "name": "8bdf059fda7bd79ba849e7a6fc49789f", "is_disabled": 0, "rental_uris": {"ios": "https://dc.lft.to/lastmile_qr_scan", "android": "https://dc.lft.to/lastmile_qr_scan"}, "is_reserved": 0}, {"lon": -77.032743, "bike_id": "9e0d9a3c31546a294efb1652e7ff83ed", "lat": 38.940962999999996, "fusion_lon": 0.0, "fusion_lat": 0.0, "type": "electric_scooter", "name": "9e0d9a3c31546a294efb1652e7ff83ed", "is_disabled": 0, "rental_uris": {"ios": "https://dc.lft.to/lastmile_qr_scan", "android": "https://dc.lft.to/lastmile_qr_scan"}, "is_reserved": 0}, {"lon": -76.986622, "bike_id": "9593fed89884f4fd5981389c644f331c", "lat": 38.867345, "fusion_lon": 0.0, "fusion_lat": 0.0, "type": "electric_scooter", "name": "9593fed89884f4fd5981389c644f331c", "is_disabled": 0, "rental_uris": {"ios": "https://dc.lft.to/lastmile_qr_scan", "android": "https://dc.lft.to/lastmile_qr_scan"}, "is_reserved": 0}, {"lon": -77.16625266666667, "bike_id": "268d1d4795407f15482d3389452b926b", "lat": 38.88838883333333, "fusion_lon": 0.0, "fusion_lat": 0.0, "type": "electric_bike", "name": "268d1d4795407f15482d3389452b926b", "is_disabled": 0, "rental_uris": {"ios": "https://dc.lft.to/lastmile_qr_scan", "android": "https://dc.lft.to/lastmile_qr_scan"}, "is_reserved": 0}, {"lon": -76.993665, "bike_id": "9b25ddcd95b97ac7cc434f154bcdae6b", "lat": 38.8797715, "fusion_lon": 0.0, "fusion_lat": 0.0, "type": "electric_scooter", "name": "9b25ddcd95b97ac7cc434f154bcdae6b", "is_disabled": 0, "rental_uris": {"ios": "https://dc.lft.to/lastmile_qr_scan", "android": "https://dc.lft.to/lastmile_qr_scan"}, "is_reserved": 0}, {"lon": -77.00832733333333, "bike_id": "81d94108ed50d28c8ab837287e37c314", "lat": 38.913494166666666, "fusion_lon": 0.0, "fusion_lat": 0.0, "type": "electric_scooter", "name": "81d94108ed50d28c8ab837287e37c314", "is_disabled": 0, "rental_uris": {"ios": "https://dc.lft.to/lastmile_qr_scan", "android": "https://dc.lft.to/lastmile_qr_scan"}, "is_reserved": 0}, {"lon": -77.00374866666667, "bike_id": "ff7fbd057c5a0ba40d962d1a0d482fb4", "lat": 38.876673, "fusion_lon": 0.0, "fusion_lat": 0.0, "type": "electric_scooter", "name": "ff7fbd057c5a0ba40d962d1a0d482fb4", "is_disabled": 0, "rental_uris": {"ios": "https://dc.lft.to/lastmile_qr_scan", "android": "https://dc.lft.to/lastmile_qr_scan"}, "is_reserved": 0}, {"lon": -76.99457833333334, "bike_id": "303e744ea92dcafde0336f3b81d43a12", "lat": 38.966189666666665, "fusion_lon": 0.0, "fusion_lat": 0.0, "type": "electric_bike", "name": "303e744ea92dcafde0336f3b81d43a12", "is_disabled": 0, "rental_uris": {"ios": "https://dc.lft.to/lastmile_qr_scan", "android": "https://dc.lft.to/lastmile_qr_scan"}, "is_reserved": 0}, {"lon": -77.03783533333333, "bike_id": "150b36d3a2f10715aae9adc9015f0a64", "lat": 38.925794333333336, "fusion_lon": 0.0, "fusion_lat": 0.0, "type": "electric_scooter", "name": "150b36d3a2f10715aae9adc9015f0a64", "is_disabled": 0, "rental_uris": {"ios": "https://dc.lft.to/lastmile_qr_scan", "android": "https://dc.lft.to/lastmile_qr_scan"}, "is_reserved": 0}, {"lon": -76.97924616666667, "bike_id": "cece53a58d91b04cf874bb39333c609b", "lat": 38.90505783333333, "fusion_lon": 0.0, "fusion_lat": 0.0, "type": "electric_scooter", "name": "cece53a58d91b04cf874bb39333c609b", "is_disabled": 0, "rental_uris": {"ios": "https://dc.lft.to/lastmile_qr_scan", "android": "https://dc.lft.to/lastmile_qr_scan"}, "is_reserved": 0}, {"lon": -77.09861766666667, "bike_id": "311aa7da956dd0c12f078b0c6f69d013", "lat": 38.94968866666667, "fusion_lon": 0.0, "fusion_lat": 0.0, "type": "electric_scooter", "name": "311aa7da956dd0c12f078b0c6f69d013", "is_disabled": 0, "rental_uris": {"ios": "https://dc.lft.to/lastmile_qr_scan", "android": "https://dc.lft.to/lastmile_qr_scan"}, "is_reserved": 0}, {"lon": -77.03741766666667, "bike_id": "aa2bc02c07a08261f51752b7cb40acbc", "lat": 38.91811, "fusion_lon": 0.0, "fusion_lat": 0.0, "type": "electric_scooter", "name": "aa2bc02c07a08261f51752b7cb40acbc", "is_disabled": 0, "rental_uris": {"ios": "https://dc.lft.to/lastmile_qr_scan", "android": "https://dc.lft.to/lastmile_qr_scan"}, "is_reserved": 0}, {"lon": -77.02712483333333, "bike_id": "6e71755a8d26236683eb81139b13013c", "lat": 38.8972385, "fusion_lon": 0.0, "fusion_lat": 0.0, "type": "electric_scooter", "name": "6e71755a8d26236683eb81139b13013c", "is_disabled": 0, "rental_uris": {"ios": "https://dc.lft.to/lastmile_qr_scan", "android": "https://dc.lft.to/lastmile_qr_scan"}, "is_reserved": 0}, {"lon": -76.9954465, "bike_id": "f8de298e463168d90237b43af87d65ac", "lat": 38.862594666666666, "fusion_lon": 0.0, "fusion_lat": 0.0, "type": "electric_scooter", "name": "f8de298e463168d90237b43af87d65ac", "is_disabled": 0, "rental_uris": {"ios": "https://dc.lft.to/lastmile_qr_scan", "android": "https://dc.lft.to/lastmile_qr_scan"}, "is_reserved": 0}, {"lon": -77.01303066666667, "bike_id": "9a35619c0b0b06aed1acd39d8734b97c", "lat": 38.871548833333335, "fusion_lon": 0.0, "fusion_lat": 0.0, "type": "electric_scooter", "name": "9a35619c0b0b06aed1acd39d8734b97c", "is_disabled": 0, "rental_uris": {"ios": "https://dc.lft.to/lastmile_qr_scan", "android": "https://dc.lft.to/lastmile_qr_scan"}, "is_reserved": 0}, {"lon": -77.01130116666667, "bike_id": "99ea1bca25dadbc27123a41693dd1ecf", "lat": 38.9001165, "fusion_lon": 0.0, "fusion_lat": 0.0, "type": "electric_scooter", "name": "99ea1bca25dadbc27123a41693dd1ecf", "is_disabled": 0, "rental_uris": {"ios": "https://dc.lft.to/lastmile_qr_scan", "android": "https://dc.lft.to/lastmile_qr_scan"}, "is_reserved": 0}, {"lon": -76.99002833333333, "bike_id": "faed3adaf685e82df52a68f91a5b5a7e", "lat": 38.865065, "fusion_lon": 0.0, "fusion_lat": 0.0, "type": "electric_scooter", "name": "faed3adaf685e82df52a68f91a5b5a7e", "is_disabled": 0, "rental_uris": {"ios": "https://dc.lft.to/lastmile_qr_scan", "android": "https://dc.lft.to/lastmile_qr_scan"}, "is_reserved": 0}, {"lon": -77.03323, "bike_id": "77758bfef0fbfaa5788c16dc34cb7d10", "lat": 38.939046166666664, "fusion_lon": 0.0, "fusion_lat": 0.0, "type": "electric_scooter", "name": "77758bfef0fbfaa5788c16dc34cb7d10", "is_disabled": 0, "rental_uris": {"ios": "https://dc.lft.to/lastmile_qr_scan", "android": "https://dc.lft.to/lastmile_qr_scan"}, "is_reserved": 0}, {"lon": -77.03283616666667, "bike_id": "e61ec6da86dbfab48d81ccf44c47801b", "lat": 38.928421, "fusion_lon": 0.0, "fusion_lat": 0.0, "type": "electric_scooter", "name": "e61ec6da86dbfab48d81ccf44c47801b", "is_disabled": 0, "rental_uris": {"ios": "https://dc.lft.to/lastmile_qr_scan", "android": "https://dc.lft.to/lastmile_qr_scan"}, "is_reserved": 0}, {"lon": -77.01976666666667, "bike_id": "abca89da8db5942b8a595e8e137e102f", "lat": 38.91491166666667, "fusion_lon": 0.0, "fusion_lat": 0.0, "type": "electric_scooter", "name": "abca89da8db5942b8a595e8e137e102f", "is_disabled": 0, "rental_uris": {"ios": "https://dc.lft.to/lastmile_qr_scan", "android": "https://dc.lft.to/lastmile_qr_scan"}, "is_reserved": 0}, {"lon": -77.02998033333333, "bike_id": "feb259ffc3a91bcc71a47ce088b24079", "lat": 38.917103166666664, "fusion_lon": 0.0, "fusion_lat": 0.0, "type": "electric_scooter", "name": "feb259ffc3a91bcc71a47ce088b24079", "is_disabled": 0, "rental_uris": {"ios": "https://dc.lft.to/lastmile_qr_scan", "android": "https://dc.lft.to/lastmile_qr_scan"}, "is_reserved": 0}, {"lon": -77.04168683333333, "bike_id": "28d17b94e00f2a6d9aa535476a8864c7", "lat": 38.91734816666666, "fusion_lon": 0.0, "fusion_lat": 0.0, "type": "electric_scooter", "name": "28d17b94e00f2a6d9aa535476a8864c7", "is_disabled": 0, "rental_uris": {"ios": "https://dc.lft.to/lastmile_qr_scan", "android": "https://dc.lft.to/lastmile_qr_scan"}, "is_reserved": 0}, {"lon": -77.00137733333334, "bike_id": "ee29f189d4b3cc61449725dab8785f46", "lat": 38.9255805, "fusion_lon": 0.0, "fusion_lat": 0.0, "type": "electric_bike", "name": "ee29f189d4b3cc61449725dab8785f46", "is_disabled": 0, "rental_uris": {"ios": "https://dc.lft.to/lastmile_qr_scan", "android": "https://dc.lft.to/lastmile_qr_scan"}, "is_reserved": 0}, {"lon": -77.0267545, "bike_id": "d45dce84ffc595daa2a4ef8d9fb1d01f", "lat": 38.9168885, "fusion_lon": 0.0, "fusion_lat": 0.0, "type": "electric_scooter", "name": "d45dce84ffc595daa2a4ef8d9fb1d01f", "is_disabled": 0, "rental_uris": {"ios": "https://dc.lft.to/lastmile_qr_scan", "android": "https://dc.lft.to/lastmile_qr_scan"}, "is_reserved": 0}, {"lon": -77.0375745, "bike_id": "6eedeefe9873a1a138221a93ae65e513", "lat": 38.9288195, "fusion_lon": 0.0, "fusion_lat": 0.0, "type": "electric_scooter", "name": "6eedeefe9873a1a138221a93ae65e513", "is_disabled": 0, "rental_uris": {"ios": "https://dc.lft.to/lastmile_qr_scan", "android": "https://dc.lft.to/lastmile_qr_scan"}, "is_reserved": 0}, {"lon": -77.03259133333333, "bike_id": "75c70a50a35cb3343ae806ae56911406", "lat": 38.914080166666665, "fusion_lon": 0.0, "fusion_lat": 0.0, "type": "electric_scooter", "name": "75c70a50a35cb3343ae806ae56911406", "is_disabled": 0, "rental_uris": {"ios": "https://dc.lft.to/lastmile_qr_scan", "android": "https://dc.lft.to/lastmile_qr_scan"}, "is_reserved": 0}, {"lon": -77.03846866666666, "bike_id": "f7509e48eb295a4f0aebf634ad118c0e", "lat": 38.910169333333336, "fusion_lon": 0.0, "fusion_lat": 0.0, "type": "electric_scooter", "name": "f7509e48eb295a4f0aebf634ad118c0e", "is_disabled": 0, "rental_uris": {"ios": "https://dc.lft.to/lastmile_qr_scan", "android": "https://dc.lft.to/lastmile_qr_scan"}, "is_reserved": 0}, {"lon": -77.02696416666667, "bike_id": "7dbfbe3d3863a18e02b50a876644b92b", "lat": 38.91640433333333, "fusion_lon": 0.0, "fusion_lat": 0.0, "type": "electric_scooter", "name": "7dbfbe3d3863a18e02b50a876644b92b", "is_disabled": 0, "rental_uris": {"ios": "https://dc.lft.to/lastmile_qr_scan", "android": "https://dc.lft.to/lastmile_qr_scan"}, "is_reserved": 0}, {"lon": -77.03326266666667, "bike_id": "0eb17f1f789d3fcc84f6d5080953bf22", "lat": 38.915674833333334, "fusion_lon": 0.0, "fusion_lat": 0.0, "type": "electric_scooter", "name": "0eb17f1f789d3fcc84f6d5080953bf22", "is_disabled": 0, "rental_uris": {"ios": "https://dc.lft.to/lastmile_qr_scan", "android": "https://dc.lft.to/lastmile_qr_scan"}, "is_reserved": 0}, {"lon": -76.98460566666667, "bike_id": "cbc5701487559839b388b92f6d98d993", "lat": 38.90560816666667, "fusion_lon": 0.0, "fusion_lat": 0.0, "type": "electric_scooter", "name": "cbc5701487559839b388b92f6d98d993", "is_disabled": 0, "rental_uris": {"ios": "https://dc.lft.to/lastmile_qr_scan", "android": "https://dc.lft.to/lastmile_qr_scan"}, "is_reserved": 0}, {"lon": -77.031478, "bike_id": "c0c296c3a1a01d963aa68e5e6b73a55c", "lat": 38.88309866666667, "fusion_lon": 0.0, "fusion_lat": 0.0, "type": "electric_scooter", "name": "c0c296c3a1a01d963aa68e5e6b73a55c", "is_disabled": 0, "rental_uris": {"ios": "https://dc.lft.to/lastmile_qr_scan", "android": "https://dc.lft.to/lastmile_qr_scan"}, "is_reserved": 0}, {"lon": -76.991747, "bike_id": "ed70a8645a3354a72ad29c803ed78284", "lat": 38.88992833333333, "fusion_lon": 0.0, "fusion_lat": 0.0, "type": "electric_scooter", "name": "ed70a8645a3354a72ad29c803ed78284", "is_disabled": 0, "rental_uris": {"ios": "https://dc.lft.to/lastmile_qr_scan", "android": "https://dc.lft.to/lastmile_qr_scan"}, "is_reserved": 0}, {"lon": -77.04088766666666, "bike_id": "383bf716dbb6a87f4ebbf0f281a56ca0", "lat": 38.90969033333333, "fusion_lon": 0.0, "fusion_lat": 0.0, "type": "electric_scooter", "name": "383bf716dbb6a87f4ebbf0f281a56ca0", "is_disabled": 0, "rental_uris": {"ios": "https://dc.lft.to/lastmile_qr_scan", "android": "https://dc.lft.to/lastmile_qr_scan"}, "is_reserved": 0}, {"lon": -77.02444133333333, "bike_id": "8ce34e93162bd5f75e32d9d8f8366129", "lat": 38.923537333333336, "fusion_lon": 0.0, "fusion_lat": 0.0, "type": "electric_scooter", "name": "8ce34e93162bd5f75e32d9d8f8366129", "is_disabled": 0, "rental_uris": {"ios": "https://dc.lft.to/lastmile_qr_scan", "android": "https://dc.lft.to/lastmile_qr_scan"}, "is_reserved": 0}, {"lon": -77.05052233333333, "bike_id": "3776aaad0de08b744cae5b59446662ca", "lat": 38.9258825, "fusion_lon": 0.0, "fusion_lat": 0.0, "type": "electric_scooter", "name": "3776aaad0de08b744cae5b59446662ca", "is_disabled": 0, "rental_uris": {"ios": "https://dc.lft.to/lastmile_qr_scan", "android": "https://dc.lft.to/lastmile_qr_scan"}, "is_reserved": 0}, {"lon": -77.00046633333334, "bike_id": "5e94936265fef04cda16b12e9735bd01", "lat": 38.91903683333334, "fusion_lon": 0.0, "fusion_lat": 0.0, "type": "electric_scooter", "name": "5e94936265fef04cda16b12e9735bd01", "is_disabled": 0, "rental_uris": {"ios": "https://dc.lft.to/lastmile_qr_scan", "android": "https://dc.lft.to/lastmile_qr_scan"}, "is_reserved": 0}, {"lon": -77.032691, "bike_id": "f1aa0ba3fd4e918540bc65ddab6ff5b3", "lat": 38.9372835, "fusion_lon": 0.0, "fusion_lat": 0.0, "type": "electric_scooter", "name": "f1aa0ba3fd4e918540bc65ddab6ff5b3", "is_disabled": 0, "rental_uris": {"ios": "https://dc.lft.to/lastmile_qr_scan", "android": "https://dc.lft.to/lastmile_qr_scan"}, "is_reserved": 0}, {"lon": -76.990003, "bike_id": "5b593b1bb6a7398bf9d316a2c364b7bf", "lat": 38.86512483333333, "fusion_lon": 0.0, "fusion_lat": 0.0, "type": "electric_scooter", "name": "5b593b1bb6a7398bf9d316a2c364b7bf", "is_disabled": 0, "rental_uris": {"ios": "https://dc.lft.to/lastmile_qr_scan", "android": "https://dc.lft.to/lastmile_qr_scan"}, "is_reserved": 0}, {"lon": -77.00331033333333, "bike_id": "3baac8ed46295fb9a0991c3d4914a74c", "lat": 38.897304166666665, "fusion_lon": 0.0, "fusion_lat": 0.0, "type": "electric_scooter", "name": "3baac8ed46295fb9a0991c3d4914a74c", "is_disabled": 0, "rental_uris": {"ios": "https://dc.lft.to/lastmile_qr_scan", "android": "https://dc.lft.to/lastmile_qr_scan"}, "is_reserved": 0}, {"lon": -77.0280585, "bike_id": "bfad1a9be35622e89d6ddfbb613d1c2d", "lat": 38.93080166666667, "fusion_lon": 0.0, "fusion_lat": 0.0, "type": "electric_scooter", "name": "bfad1a9be35622e89d6ddfbb613d1c2d", "is_disabled": 0, "rental_uris": {"ios": "https://dc.lft.to/lastmile_qr_scan", "android": "https://dc.lft.to/lastmile_qr_scan"}, "is_reserved": 0}, {"lon": -77.00523616666666, "bike_id": "4244a8c549f45332f776a5eecaadcc09", "lat": 38.87546316666667, "fusion_lon": 0.0, "fusion_lat": 0.0, "type": "electric_scooter", "name": "4244a8c549f45332f776a5eecaadcc09", "is_disabled": 0, "rental_uris": {"ios": "https://dc.lft.to/lastmile_qr_scan", "android": "https://dc.lft.to/lastmile_qr_scan"}, "is_reserved": 0}, {"lon": -77.02764, "bike_id": "a44dfd0b602611738281ee8e01bf2691", "lat": 38.954300833333335, "fusion_lon": 0.0, "fusion_lat": 0.0, "type": "electric_scooter", "name": "a44dfd0b602611738281ee8e01bf2691", "is_disabled": 0, "rental_uris": {"ios": "https://dc.lft.to/lastmile_qr_scan", "android": "https://dc.lft.to/lastmile_qr_scan"}, "is_reserved": 0}, {"lon": -77.06828866666666, "bike_id": "2c6e8fa872efe8ef8c6efdc949ae84fb", "lat": 38.805708833333334, "fusion_lon": 0.0, "fusion_lat": 0.0, "type": "electric_bike", "name": "2c6e8fa872efe8ef8c6efdc949ae84fb", "is_disabled": 0, "rental_uris": {"ios": "https://dc.lft.to/lastmile_qr_scan", "android": "https://dc.lft.to/lastmile_qr_scan"}, "is_reserved": 0}, {"lon": -77.05233383333334, "bike_id": "8eacc647434faccf4d0d5a1bd3416914", "lat": 38.9234325, "fusion_lon": 0.0, "fusion_lat": 0.0, "type": "electric_scooter", "name": "8eacc647434faccf4d0d5a1bd3416914", "is_disabled": 0, "rental_uris": {"ios": "https://dc.lft.to/lastmile_qr_scan", "android": "https://dc.lft.to/lastmile_qr_scan"}, "is_reserved": 0}, {"lon": -76.98081666666667, "bike_id": "19c08a581039e11209fed882780cc056", "lat": 38.9070885, "fusion_lon": 0.0, "fusion_lat": 0.0, "type": "electric_scooter", "name": "19c08a581039e11209fed882780cc056", "is_disabled": 0, "rental_uris": {"ios": "https://dc.lft.to/lastmile_qr_scan", "android": "https://dc.lft.to/lastmile_qr_scan"}, "is_reserved": 0}, {"lon": -77.03320633333334, "bike_id": "903503ffb2370f22cf581dfe855d23c5", "lat": 38.91566616666667, "fusion_lon": 0.0, "fusion_lat": 0.0, "type": "electric_scooter", "name": "903503ffb2370f22cf581dfe855d23c5", "is_disabled": 0, "rental_uris": {"ios": "https://dc.lft.to/lastmile_qr_scan", "android": "https://dc.lft.to/lastmile_qr_scan"}, "is_reserved": 0}, {"lon": -77.06338283333334, "bike_id": "d4a3940979082a34c1fe86d7d964ee0a", "lat": 38.90684, "fusion_lon": 0.0, "fusion_lat": 0.0, "type": "electric_scooter", "name": "d4a3940979082a34c1fe86d7d964ee0a", "is_disabled": 0, "rental_uris": {"ios": "https://dc.lft.to/lastmile_qr_scan", "android": "https://dc.lft.to/lastmile_qr_scan"}, "is_reserved": 0}, {"lon": -77.04938983333334, "bike_id": "2cdd288525291b8b67346be3d0857520", "lat": 38.897371, "fusion_lon": 0.0, "fusion_lat": 0.0, "type": "electric_scooter", "name": "2cdd288525291b8b67346be3d0857520", "is_disabled": 0, "rental_uris": {"ios": "https://dc.lft.to/lastmile_qr_scan", "android": "https://dc.lft.to/lastmile_qr_scan"}, "is_reserved": 0}, {"lon": -77.05531316666666, "bike_id": "b191c60df05897cb7fd924633078eea0", "lat": 38.934341, "fusion_lon": 0.0, "fusion_lat": 0.0, "type": "electric_scooter", "name": "b191c60df05897cb7fd924633078eea0", "is_disabled": 0, "rental_uris": {"ios": "https://dc.lft.to/lastmile_qr_scan", "android": "https://dc.lft.to/lastmile_qr_scan"}, "is_reserved": 0}, {"lon": -77.03499366666667, "bike_id": "1d38db1334e0cd476329149adbc4173c", "lat": 38.9248305, "fusion_lon": 0.0, "fusion_lat": 0.0, "type": "electric_scooter", "name": "1d38db1334e0cd476329149adbc4173c", "is_disabled": 0, "rental_uris": {"ios": "https://dc.lft.to/lastmile_qr_scan", "android": "https://dc.lft.to/lastmile_qr_scan"}, "is_reserved": 0}, {"lon": -77.03422566666667, "bike_id": "ab497de185c457d5b1cff409118f4ec8", "lat": 38.9224285, "fusion_lon": 0.0, "fusion_lat": 0.0, "type": "electric_scooter", "name": "ab497de185c457d5b1cff409118f4ec8", "is_disabled": 0, "rental_uris": {"ios": "https://dc.lft.to/lastmile_qr_scan", "android": "https://dc.lft.to/lastmile_qr_scan"}, "is_reserved": 0}, {"lon": -76.9883775, "bike_id": "caa9872c45431694d5c9ee81cab34dd3", "lat": 38.900699833333334, "fusion_lon": 0.0, "fusion_lat": 0.0, "type": "electric_scooter", "name": "caa9872c45431694d5c9ee81cab34dd3", "is_disabled": 0, "rental_uris": {"ios": "https://dc.lft.to/lastmile_qr_scan", "android": "https://dc.lft.to/lastmile_qr_scan"}, "is_reserved": 0}, {"lon": -77.0267245, "bike_id": "1b13f29a6dc58ca1247efd9be31fba0f", "lat": 38.89715283333334, "fusion_lon": 0.0, "fusion_lat": 0.0, "type": "electric_scooter", "name": "1b13f29a6dc58ca1247efd9be31fba0f", "is_disabled": 0, "rental_uris": {"ios": "https://dc.lft.to/lastmile_qr_scan", "android": "https://dc.lft.to/lastmile_qr_scan"}, "is_reserved": 0}, {"lon": -77.03267983333333, "bike_id": "a1dc2e6f76b33a2a8a53f5483ead3b6e", "lat": 38.934129166666665, "fusion_lon": 0.0, "fusion_lat": 0.0, "type": "electric_scooter", "name": "a1dc2e6f76b33a2a8a53f5483ead3b6e", "is_disabled": 0, "rental_uris": {"ios": "https://dc.lft.to/lastmile_qr_scan", "android": "https://dc.lft.to/lastmile_qr_scan"}, "is_reserved": 0}, {"lon": -77.0389275, "bike_id": "67e86c6f593fe2a0abb02edd4647cde2", "lat": 38.92357633333334, "fusion_lon": 0.0, "fusion_lat": 0.0, "type": "electric_scooter", "name": "67e86c6f593fe2a0abb02edd4647cde2", "is_disabled": 0, "rental_uris": {"ios": "https://dc.lft.to/lastmile_qr_scan", "android": "https://dc.lft.to/lastmile_qr_scan"}, "is_reserved": 0}, {"lon": -77.039747, "bike_id": "1b75ff60054f3cee1fb99171e3a45235", "lat": 38.911988666666666, "fusion_lon": 0.0, "fusion_lat": 0.0, "type": "electric_scooter", "name": "1b75ff60054f3cee1fb99171e3a45235", "is_disabled": 0, "rental_uris": {"ios": "https://dc.lft.to/lastmile_qr_scan", "android": "https://dc.lft.to/lastmile_qr_scan"}, "is_reserved": 0}, {"lon": -77.03493883333333, "bike_id": "bb1abb538942ed2116ecf4b1cffaf2fb", "lat": 38.937580833333335, "fusion_lon": 0.0, "fusion_lat": 0.0, "type": "electric_scooter", "name": "bb1abb538942ed2116ecf4b1cffaf2fb", "is_disabled": 0, "rental_uris": {"ios": "https://dc.lft.to/lastmile_qr_scan", "android": "https://dc.lft.to/lastmile_qr_scan"}, "is_reserved": 0}, {"lon": -77.01320033333333, "bike_id": "f06065f50f56d1d13d5e91eb7a588e0f", "lat": 38.87932933333333, "fusion_lon": 0.0, "fusion_lat": 0.0, "type": "electric_scooter", "name": "f06065f50f56d1d13d5e91eb7a588e0f", "is_disabled": 0, "rental_uris": {"ios": "https://dc.lft.to/lastmile_qr_scan", "android": "https://dc.lft.to/lastmile_qr_scan"}, "is_reserved": 0}, {"lon": -77.08455, "bike_id": "8744622ace2ac258d7fbbf874136c8a6", "lat": 38.848236, "fusion_lon": 0.0, "fusion_lat": 0.0, "type": "electric_bike", "name": "8744622ace2ac258d7fbbf874136c8a6", "is_disabled": 0, "rental_uris": {"ios": "https://dc.lft.to/lastmile_qr_scan", "android": "https://dc.lft.to/lastmile_qr_scan"}, "is_reserved": 0}, {"lon": -76.98929016666666, "bike_id": "2e7b94f51ae7739dd0366d6d4da5982d", "lat": 38.91833183333333, "fusion_lon": 0.0, "fusion_lat": 0.0, "type": "electric_scooter", "name": "2e7b94f51ae7739dd0366d6d4da5982d", "is_disabled": 0, "rental_uris": {"ios": "https://dc.lft.to/lastmile_qr_scan", "android": "https://dc.lft.to/lastmile_qr_scan"}, "is_reserved": 0}, {"lon": -76.98762616666667, "bike_id": "b51b581f8d0f604022d105939cb1aacb", "lat": 38.857735166666664, "fusion_lon": 0.0, "fusion_lat": 0.0, "type": "electric_bike", "name": "b51b581f8d0f604022d105939cb1aacb", "is_disabled": 0, "rental_uris": {"ios": "https://dc.lft.to/lastmile_qr_scan", "android": "https://dc.lft.to/lastmile_qr_scan"}, "is_reserved": 0}, {"lon": -77.03765733333333, "bike_id": "f3e741f382b6ce05f58a7e6a6b1c0712", "lat": 38.92970416666667, "fusion_lon": 0.0, "fusion_lat": 0.0, "type": "electric_scooter", "name": "f3e741f382b6ce05f58a7e6a6b1c0712", "is_disabled": 0, "rental_uris": {"ios": "https://dc.lft.to/lastmile_qr_scan", "android": "https://dc.lft.to/lastmile_qr_scan"}, "is_reserved": 0}, {"lon": -77.02565516666667, "bike_id": "29d8de7d65ba36ebb771ece5c8fdbd46", "lat": 38.913437, "fusion_lon": 0.0, "fusion_lat": 0.0, "type": "electric_scooter", "name": "29d8de7d65ba36ebb771ece5c8fdbd46", "is_disabled": 0, "rental_uris": {"ios": "https://dc.lft.to/lastmile_qr_scan", "android": "https://dc.lft.to/lastmile_qr_scan"}, "is_reserved": 0}, {"lon": -77.0320835, "bike_id": "abfc5dedfd0a5ac8acd13c6a7df932be", "lat": 38.915731666666666, "fusion_lon": 0.0, "fusion_lat": 0.0, "type": "electric_scooter", "name": "abfc5dedfd0a5ac8acd13c6a7df932be", "is_disabled": 0, "rental_uris": {"ios": "https://dc.lft.to/lastmile_qr_scan", "android": "https://dc.lft.to/lastmile_qr_scan"}, "is_reserved": 0},