{"data": {"bikes": [{"is_disabled": 0, "rental_uris": {"android": "https://dc.lft.to/lastmile_qr_scan", "ios": "https://dc.lft.to/lastmile_qr_scan"}, "is_reserved": 0, "name": "dcf3dae1c0ee981233ef6fd5ba4d72c4", "lon": -76.93153033333333, "type": "electric_scooter", "bike_id": "dcf3dae1c0ee981233ef6fd5ba4d72c4", "fusion_lon": 0.0, "lat": 38.8985265, "fusion_lat": 0.0}, {"is_disabled": 0, "rental_uris": {"android": "https://dc.lft.to/lastmile_qr_scan", "ios": "https://dc.lft.to/lastmile_qr_scan"}, "is_reserved": 0, "name": "4d66b740f262686ed2adb78a464f99a3", "lon": -77.0221135, "type": "electric_scooter", "bike_id": "4d66b740f262686ed2adb78a464f99a3", "fusion_lon": 0.0, "lat": 38.887434166666665, "fusion_lat": 0.0}, {"is_disabled": 0, "rental_uris": {"android": "https://dc.lft.to/lastmile_qr_scan", "ios": "https://dc.lft.to/lastmile_qr_scan"}, "is_reserved": 0, "name": "f40ba824d6c45877f8067e5b1c9587fa", "lon": -77.0250685, "type": "electric_scooter", "bike_id": "f40ba824d6c45877f8067e5b1c9587fa", "fusion_lon": 0.0, "lat": 38.938703833333335, "fusion_lat": 0.0}, {"is_disabled": 0, "rental_uris": {"android": "https://dc.lft.to/lastmile_qr_scan", "ios": "https://dc.lft.to/lastmile_qr_scan"}, "is_reserved": 0, "name": "8f7af596f1ccaf310d3a2ab25909807c", "lon": -77.04122916666667, "type": "electric_scooter", "bike_id": "8f7af596f1ccaf310d3a2ab25909807c", "fusion_lon": 0.0, "lat": 38.9224265, "fusion_lat": 0.0}, {"is_disabled": 0, "rental_uris": {"android": "https://dc.lft.to/lastmile_qr_scan", "ios": "https://dc.lft.to/lastmile_qr_scan"}, "is_reserved": 0, "name": "c86c5077ba1983041a4790ea757a6214", "lon": -76.98349783333333, "type": "electric_scooter", "bike_id": "c86c5077ba1983041a4790ea757a6214", "fusion_lon": 0.0, "lat": 38.891703666666665, "fusion_lat": 0.0}, {"is_disabled": 0, "rental_uris": {"android": "https://dc.lft.to/lastmile_qr_scan", "ios": "https://dc.lft.to/lastmile_qr_scan"}, "is_reserved": 0, "name": "b88fc2e4cea441411866e4ae81d38726", "lon": -77.0399655, "type": "electric_scooter", "bike_id": "b88fc2e4cea441411866e4ae81d38726", "fusion_lon": 0.0, "lat": 38.918081, "fusion_lat": 0.0}, {"is_disabled": 0, "rental_uris": {"android": "https://dc.lft.to/lastmile_qr_scan", "ios": "https://dc.lft.to/lastmile_qr_scan"}, "is_reserved": 0, "name": "63407b4b317370dd00094954ca84f70c", "lon": -77.06657766666666, "type": "electric_scooter", "bike_id": "63407b4b317370dd00094954ca84f70c", "fusion_lon": 0.0, "lat": 38.94968216666667, "fusion_lat": 0.0}, {"is_disabled": 0, "rental_uris": {"android": "https://dc.lft.to/lastmile_qr_scan", "ios": "https://dc.lft.to/lastmile_qr_scan"}, "is_reserved": 0, "name": "bec354cdc3bde00df5453d50cd279107", "lon": -77.036629, "type": "electric_scooter", "bike_id": "bec354cdc3bde00df5453d50cd279107", "fusion_lon": 0.0, "lat": 38.93585733333333, "fusion_lat": 0.0}, {"is_disabled": 0, "rental_uris": {"android": "https://dc.lft.to/lastmile_qr_scan", "ios": "https://dc.lft.to/lastmile_qr_scan"}, "is_reserved": 0, "name": "6fd80613f864fd400f5a0421352fecfb", "lon": -77.0404225, "type": "electric_scooter", "bike_id": "6fd80613f864fd400f5a0421352fecfb", "fusion_lon": 0.0, "lat": 38.909689166666666, "fusion_lat": 0.0}, {"is_disabled": 0, "rental_uris": {"android": "https://dc.lft.to/lastmile_qr_scan", "ios": "https://dc.lft.to/lastmile_qr_scan"}, "is_reserved": 0, "name": "6758cc0068add65ea38eccc44e34c86a", "lon": -77.04163816666667, "type": "electric_scooter", "bike_id": "6758cc0068add65ea38eccc44e34c86a", "fusion_lon": 0.0, "lat": 38.9161665, "fusion_lat": 0.0}, {"is_disabled": 0, "rental_uris": {"android": "https://dc.lft.to/lastmile_qr_scan", "ios": "https://dc.lft.to/lastmile_qr_scan"}, "is_reserved": 0, "name": "c127e3862af2de842b3a33d502b34f50", "lon": -77.029389, "type": "electric_scooter", "bike_id": "c127e3862af2de842b3a33d502b34f50", "fusion_lon": 0.0, "lat": 38.898238166666665, "fusion_lat": 0.0}, {"is_disabled": 0, "rental_uris": {"android": "https://dc.lft.to/lastmile_qr_scan", "ios": "https://dc.lft.to/lastmile_qr_scan"}, "is_reserved": 0, "name": "6a91f7d508a537c9a779be6efcf7d5de", "lon": -77.02243266666666, "type": "electric_scooter", "bike_id": "6a91f7d508a537c9a779be6efcf7d5de", "fusion_lon": 0.0, "lat": 38.916485, "fusion_lat": 0.0}, {"is_disabled": 0, "rental_uris": {"android": "https://dc.lft.to/lastmile_qr_scan", "ios": "https://dc.lft.to/lastmile_qr_scan"}, "is_reserved": 0, "name": "33b4d31a56e54eb17fcb5926c4c4f0df", "lon": -76.987128, "type": "electric_scooter", "bike_id": "33b4d31a56e54eb17fcb5926c4c4f0df", "fusion_lon": 0.0, "lat": 38.867, "fusion_lat": 0.0}, {"is_disabled": 0, "rental_uris": {"android": "https://dc.lft.to/lastmile_qr_scan", "ios": "https://dc.lft.to/lastmile_qr_scan"}, "is_reserved": 0, "name": "c511148f568518a40d483ddb53cf00ef", "lon": -76.98729816666666, "type": "electric_scooter", "bike_id": "c511148f568518a40d483ddb53cf00ef", "fusion_lon": 0.0, "lat": 38.8671195, "fusion_lat": 0.0}, {"is_disabled": 0, "rental_uris": {"android": "https://dc.lft.to/lastmile_qr_scan", "ios": "https://dc.lft.to/lastmile_qr_scan"}, "is_reserved": 0, "name": "8d0440ebc6c75d818d1cb6e853cb2163", "lon": -77.03285816666667, "type": "electric_scooter", "bike_id": "8d0440ebc6c75d818d1cb6e853cb2163", "fusion_lon": 0.0, "lat": 38.920513666666665, "fusion_lat": 0.0}, {"is_disabled": 0, "rental_uris": {"android": "https://dc.lft.to/lastmile_qr_scan", "ios": "https://dc.lft.to/lastmile_qr_scan"}, "is_reserved": 0, "name": "a5e17b362121f9271e0e20137e18c64b", "lon": -76.99005383333333, "type": "electric_scooter", "bike_id": "a5e17b362121f9271e0e20137e18c64b", "fusion_lon": 0.0, "lat": 38.865075833333336, "fusion_lat": 0.0}, {"is_disabled": 0, "rental_uris": {"android": "https://dc.lft.to/lastmile_qr_scan", "ios": "https://dc.lft.to/lastmile_qr_scan"}, "is_reserved": 0, "name": "daf4604a4befc482bb89cb3ca0b403a3", "lon": -77.0433815, "type": "electric_scooter", "bike_id": "daf4604a4befc482bb89cb3ca0b403a3", "fusion_lon": 0.0, "lat": 38.8983485, "fusion_lat": 0.0}, {"is_disabled": 0, "rental_uris": {"android": "https://dc.lft.to/lastmile_qr_scan", "ios": "https://dc.lft.to/lastmile_qr_scan"}, "is_reserved": 0, "name": "3009866703231bb30f972ff968a6e17b", "lon": -76.99633066666667, "type": "electric_scooter", "bike_id": "3009866703231bb30f972ff968a6e17b", "fusion_lon": 0.0, "lat": 38.9003665, "fusion_lat": 0.0}, {"is_disabled": 0, "rental_uris": {"android": "https://dc.lft.to/lastmile_qr_scan", "ios": "https://dc.lft.to/lastmile_qr_scan"}, "is_reserved": 0, "name": "f21df1eb82b930fd51dccc8412116f89", "lon": -76.954118, "type": "electric_scooter", "bike_id": "f21df1eb82b930fd51dccc8412116f89", "fusion_lon": 0.0, "lat": 38.883881333333335, "fusion_lat": 0.0}, {"is_disabled": 0, "rental_uris": {"android": "https://dc.lft.to/lastmile_qr_scan", "ios": "https://dc.lft.to/lastmile_qr_scan"}, "is_reserved": 0, "name": "e5b55a36898cbece8f1679557cb017f5", "lon": -77.02515866666667, "type": "electric_scooter", "bike_id": "e5b55a36898cbece8f1679557cb017f5", "fusion_lon": 0.0, "lat": 38.91922683333333, "fusion_lat": 0.0}, {"is_disabled": 0, "rental_uris": {"android": "https://dc.lft.to/lastmile_qr_scan", "ios": "https://dc.lft.to/lastmile_qr_scan"}, "is_reserved": 0, "name": "8e2992590cdaeaa23363d2aff22e7ec2", "lon": -77.00367633333333, "type": "electric_scooter", "bike_id": "8e2992590cdaeaa23363d2aff22e7ec2", "fusion_lon": 0.0, "lat": 38.877545, "fusion_lat": 0.0}, {"is_disabled": 0, "rental_uris": {"android": "https://dc.lft.to/lastmile_qr_scan", "ios": "https://dc.lft.to/lastmile_qr_scan"}, "is_reserved": 0, "name": "836006fffd143ffdc6c98ad5675d800f", "lon": -77.0283755, "type": "electric_scooter", "bike_id": "836006fffd143ffdc6c98ad5675d800f", "fusion_lon": 0.0, "lat": 38.931914166666665, "fusion_lat": 0.0}, {"is_disabled": 0, "rental_uris": {"android": "https://dc.lft.to/lastmile_qr_scan", "ios": "https://dc.lft.to/lastmile_qr_scan"}, "is_reserved": 0, "name": "5a6232a0f6779e554677ac3a153628c7", "lon": -77.17802783333333, "type": "electric_bike", "bike_id": "5a6232a0f6779e554677ac3a153628c7", "fusion_lon": 0.0, "lat": 39.08842716666667, "fusion_lat": 0.0}, {"is_disabled": 0, "rental_uris": {"android": "https://dc.lft.to/lastmile_qr_scan", "ios": "https://dc.lft.to/lastmile_qr_scan"}, "is_reserved": 0, "name": "1c6d10f8d78d7fe29c684aa19bfa61f0", "lon": -77.03588483333333, "type": "electric_scooter", "bike_id": "1c6d10f8d78d7fe29c684aa19bfa61f0", "fusion_lon": 0.0, "lat": 38.90770716666667, "fusion_lat": 0.0}, {"is_disabled": 0, "rental_uris": {"android": "https://dc.lft.to/lastmile_qr_scan", "ios": "https://dc.lft.to/lastmile_qr_scan"}, "is_reserved": 0, "name": "be5f82df3fd3a2d67af05a8283b4fc29", "lon": -77.05120033333333, "type": "electric_scooter", "bike_id": "be5f82df3fd3a2d67af05a8283b4fc29", "fusion_lon": 0.0, "lat": 38.923404166666664, "fusion_lat": 0.0}, {"is_disabled": 0, "rental_uris": {"android": "https://dc.lft.to/lastmile_qr_scan", "ios": "https://dc.lft.to/lastmile_qr_scan"}, "is_reserved": 0, "name": "d2b2cf5479e1ec9795a48e958dd96eb4", "lon": -76.988946, "type": "electric_scooter", "bike_id": "d2b2cf5479e1ec9795a48e958dd96eb4", "fusion_lon": 0.0, "lat": 38.86675316666667, "fusion_lat": 0.0}, {"is_disabled": 0, "rental_uris": {"android": "https://dc.lft.to/lastmile_qr_scan", "ios": "https://dc.lft.to/lastmile_qr_scan"}, "is_reserved": 0, "name": "35d0d31d0752bc7dcb44e8de70571aae", "lon": -77.05013216666667, "type": "electric_scooter", "bike_id": "35d0d31d0752bc7dcb44e8de70571aae", "fusion_lon": 0.0, "lat": 38.89777016666667, "fusion_lat": 0.0}, {"is_disabled": 0, "rental_uris": {"android": "https://dc.lft.to/lastmile_qr_scan", "ios": "https://dc.lft.to/lastmile_qr_scan"}, "is_reserved": 0, "name": "9e4f534af4446e1f797dabf9edecb4bd", "lon": -77.02909916666667, "type": "electric_bike", "bike_id": "9e4f534af4446e1f797dabf9edecb4bd", "fusion_lon": 0.0, "lat": 38.9056675, "fusion_lat": 0.0}, {"is_disabled": 0, "rental_uris": {"android": "https://dc.lft.to/lastmile_qr_scan", "ios": "https://dc.lft.to/lastmile_qr_scan"}, "is_reserved": 0, "name": "ce5201fb499e7a45c292d7385b22fe93", "lon": -77.0326945, "type": "electric_scooter", "bike_id": "ce5201fb499e7a45c292d7385b22fe93", "fusion_lon": 0.0, "lat": 38.91348416666666, "fusion_lat": 0.0}, {"is_disabled": 0, "rental_uris": {"android": "https://dc.lft.to/lastmile_qr_scan", "ios": "https://dc.lft.to/lastmile_qr_scan"}, "is_reserved": 0, "name": "1591026c1b7955b362916724d7fe3fd7", "lon": -76.99401266666666, "type": "electric_scooter", "bike_id": "1591026c1b7955b362916724d7fe3fd7", "fusion_lon": 0.0, "lat": 38.9216605, "fusion_lat": 0.0}, {"is_disabled": 0, "rental_uris": {"android": "https://dc.lft.to/lastmile_qr_scan", "ios": "https://dc.lft.to/lastmile_qr_scan"}, "is_reserved": 0, "name": "09f76f130a4907c1d9358d1f2ab0c14c", "lon": -77.00213283333333, "type": "electric_scooter", "bike_id": "09f76f130a4907c1d9358d1f2ab0c14c", "fusion_lon": 0.0, "lat": 38.90030933333333, "fusion_lat": 0.0}, {"is_disabled": 0, "rental_uris": {"android": "https://dc.lft.to/lastmile_qr_scan", "ios": "https://dc.lft.to/lastmile_qr_scan"}, "is_reserved": 0, "name": "9dd842fe88c2fbcde46e2897503a5ad0", "lon": -77.02742916666666, "type": "electric_scooter", "bike_id": "9dd842fe88c2fbcde46e2897503a5ad0", "fusion_lon": 0.0, "lat": 38.935776, "fusion_lat": 0.0}, {"is_disabled": 0, "rental_uris": {"android": "https://dc.lft.to/lastmile_qr_scan", "ios": "https://dc.lft.to/lastmile_qr_scan"}, "is_reserved": 0, "name": "628cb6ea64e480b5e9765b6f6c3262f4", "lon": -76.97332766666666, "type": "electric_bike", "bike_id": "628cb6ea64e480b5e9765b6f6c3262f4", "fusion_lon": 0.0, "lat": 38.865508, "fusion_lat": 0.0}, {"is_disabled": 0, "rental_uris": {"android": "https://dc.lft.to/lastmile_qr_scan", "ios": "https://dc.lft.to/lastmile_qr_scan"}, "is_reserved": 0, "name": "3fcf14d97242e9ae7ada99cc5f5bfa1d", "lon": -76.9872955, "type": "electric_scooter", "bike_id": "3fcf14d97242e9ae7ada99cc5f5bfa1d", "fusion_lon": 0.0, "lat": 38.86712216666667, "fusion_lat": 0.0}, {"is_disabled": 0, "rental_uris": {"android": "https://dc.lft.to/lastmile_qr_scan", "ios": "https://dc.lft.to/lastmile_qr_scan"}, "is_reserved": 0, "name": "a2205cf113b355403b0ca98d43375787", "lon": -77.036642, "type": "electric_scooter", "bike_id": "a2205cf113b355403b0ca98d43375787", "fusion_lon": 0.0, "lat": 38.922807666666664, "fusion_lat": 0.0}, {"is_disabled": 0, "rental_uris": {"android": "https://dc.lft.to/lastmile_qr_scan", "ios": "https://dc.lft.to/lastmile_qr_scan"}, "is_reserved": 0, "name": "3420fbf52dffd8b125431ec84de05f7a", "lon": -77.034417, "type": "electric_scooter", "bike_id": "3420fbf52dffd8b125431ec84de05f7a", "fusion_lon": 0.0, "lat": 38.93363183333334, "fusion_lat": 0.0}, {"is_disabled": 0, "rental_uris": {"android": "https://dc.lft.to/lastmile_qr_scan", "ios": "https://dc.lft.to/lastmile_qr_scan"}, "is_reserved": 0, "name": "b9d3c10eceef7de8263747ead3204ae8", "lon": -77.05514466666666, "type": "electric_bike", "bike_id": "b9d3c10eceef7de8263747ead3204ae8", "fusion_lon": 0.0, "lat": 38.910622000000004, "fusion_lat": 0.0}, {"is_disabled": 0, "rental_uris": {"android": "https://dc.lft.to/lastmile_qr_scan", "ios": "https://dc.lft.to/lastmile_qr_scan"}, "is_reserved": 0, "name": "b6a2e06113f5905e0d773a5944f98cb8", "lon": -77.04555566666667, "type": "electric_bike", "bike_id": "b6a2e06113f5905e0d773a5944f98cb8", "fusion_lon": 0.0, "lat": 38.919291666666666, "fusion_lat": 0.0}, {"is_disabled": 0, "rental_uris": {"android": "https://dc.lft.to/lastmile_qr_scan", "ios": "https://dc.lft.to/lastmile_qr_scan"}, "is_reserved": 0, "name": "6404ec3cd6408c6d3294a156749e1003", "lon": -77.038735, "type": "electric_scooter", "bike_id": "6404ec3cd6408c6d3294a156749e1003", "fusion_lon": 0.0, "lat": 38.91565833333333, "fusion_lat": 0.0}, {"is_disabled": 0, "rental_uris": {"android": "https://dc.lft.to/lastmile_qr_scan", "ios": "https://dc.lft.to/lastmile_qr_scan"}, "is_reserved": 0, "name": "3d412162df7be1ceb5ae808515271054", "lon": -77.0416965, "type": "electric_scooter", "bike_id": "3d412162df7be1ceb5ae808515271054", "fusion_lon": 0.0, "lat": 38.898829, "fusion_lat": 0.0}, {"is_disabled": 0, "rental_uris": {"android": "https://dc.lft.to/lastmile_qr_scan", "ios": "https://dc.lft.to/lastmile_qr_scan"}, "is_reserved": 0, "name": "1d405d5e61939de96307591f7e924880", "lon": -77.00202583333333, "type": "electric_scooter", "bike_id": "1d405d5e61939de96307591f7e924880", "fusion_lon": 0.0, "lat": 38.911693666666665, "fusion_lat": 0.0}, {"is_disabled": 0, "rental_uris": {"android": "https://dc.lft.to/lastmile_qr_scan", "ios": "https://dc.lft.to/lastmile_qr_scan"}, "is_reserved": 0, "name": "f3631fd9d86b468fccddb3fa2968202c", "lon": -77.04048683333333, "type": "electric_scooter", "bike_id": "f3631fd9d86b468fccddb3fa2968202c", "fusion_lon": 0.0, "lat": 38.9240965, "fusion_lat": 0.0}, {"is_disabled": 0, "rental_uris": {"android": "https://dc.lft.to/lastmile_qr_scan", "ios": "https://dc.lft.to/lastmile_qr_scan"}, "is_reserved": 0, "name": "0fc728ce673548e5fc1ad2883c3e26e5", "lon": -76.93743616666667, "type": "electric_scooter", "bike_id": "0fc728ce673548e5fc1ad2883c3e26e5", "fusion_lon": 0.0, "lat": 38.890133, "fusion_lat": 0.0}, {"is_disabled": 0, "rental_uris": {"android": "https://dc.lft.to/lastmile_qr_scan", "ios": "https://dc.lft.to/lastmile_qr_scan"}, "is_reserved": 0, "name": "c409388ebb159ba80e33867fd5d5157b", "lon": -77.05420933333333, "type": "electric_scooter", "bike_id": "c409388ebb159ba80e33867fd5d5157b", "fusion_lon": 0.0, "lat": 38.92833, "fusion_lat": 0.0}, {"is_disabled": 0, "rental_uris": {"android": "https://dc.lft.to/lastmile_qr_scan", "ios": "https://dc.lft.to/lastmile_qr_scan"}, "is_reserved": 0, "name": "13383b0f56983ba20fb89950ded3a94f", "lon": -77.042096, "type": "electric_scooter", "bike_id": "13383b0f56983ba20fb89950ded3a94f", "fusion_lon": 0.0, "lat": 38.911311, "fusion_lat": 0.0}, {"is_disabled": 0, "rental_uris": {"android": "https://dc.lft.to/lastmile_qr_scan", "ios": "https://dc.lft.to/lastmile_qr_scan"}, "is_reserved": 0, "name": "48b233cf00257969bbc0266b7ce518a5", "lon": -77.0419065, "type": "electric_scooter", "bike_id": "48b233cf00257969bbc0266b7ce518a5", "fusion_lon": 0.0, "lat": 38.9037475, "fusion_lat": 0.0}, {"is_disabled": 0, "rental_uris": {"android": "https://dc.lft.to/lastmile_qr_scan", "ios": "https://dc.lft.to/lastmile_qr_scan"}, "is_reserved": 0, "name": "99262b01c94193ebce46316197ebff74", "lon": -76.9159675, "type": "electric_bike", "bike_id": "99262b01c94193ebce46316197ebff74", "fusion_lon": 0.0, "lat": 38.88008033333333, "fusion_lat": 0.0}, {"is_disabled": 0, "rental_uris": {"android": "https://dc.lft.to/lastmile_qr_scan", "ios": "https://dc.lft.to/lastmile_qr_scan"}, "is_reserved": 0, "name": "65b88ebe9befb3ae8d76b5ec1e13f8eb", "lon": -76.98338783333334, "type": "electric_scooter", "bike_id": "65b88ebe9befb3ae8d76b5ec1e13f8eb", "fusion_lon": 0.0, "lat": 38.912713333333336, "fusion_lat": 0.0}, {"is_disabled": 0, "rental_uris": {"android": "https://dc.lft.to/lastmile_qr_scan", "ios": "https://dc.lft.to/lastmile_qr_scan"}, "is_reserved": 0, "name": "be1b9c64b13c81c68826c3242779b3f7", "lon": -76.99536, "type": "electric_scooter", "bike_id": "be1b9c64b13c81c68826c3242779b3f7", "fusion_lon": 0.0, "lat": 38.86253883333333, "fusion_lat": 0.0}, {"is_disabled": 0, "rental_uris": {"android": "https://dc.lft.to/lastmile_qr_scan", "ios": "https://dc.lft.to/lastmile_qr_scan"}, "is_reserved": 0, "name": "e9d059260c16b00ccccea56c3c7702d9", "lon": -77.0509495, "type": "electric_scooter", "bike_id": "e9d059260c16b00ccccea56c3c7702d9", "fusion_lon": 0.0, "lat": 38.92346466666667, "fusion_lat": 0.0}, {"is_disabled": 0, "rental_uris": {"android": "https://dc.lft.to/lastmile_qr_scan", "ios": "https://dc.lft.to/lastmile_qr_scan"}, "is_reserved": 0, "name": "f41d9b8cae835fbde56280a55889ab56", "lon": -76.94898666666667, "type": "electric_scooter", "bike_id": "f41d9b8cae835fbde56280a55889ab56", "fusion_lon": 0.0, "lat": 38.89533383333333, "fusion_lat": 0.0}, {"is_disabled": 0, "rental_uris": {"android": "https://dc.lft.to/lastmile_qr_scan", "ios": "https://dc.lft.to/lastmile_qr_scan"}, "is_reserved": 0, "name": "5ee74ca30dfea757db78e22bd4a258bc", "lon": -76.90820133333334, "type": "electric_bike", "bike_id": "5ee74ca30dfea757db78e22bd4a258bc", "fusion_lon": 0.0, "lat": 38.994548333333334, "fusion_lat": 0.0}, {"is_disabled": 0, "rental_uris": {"android": "https://dc.lft.to/lastmile_qr_scan", "ios": "https://dc.lft.to/lastmile_qr_scan"}, "is_reserved": 0, "name": "419a5107ce69d7b79868712a57b25a3a", "lon": -77.01943666666666, "type": "electric_scooter", "bike_id": "419a5107ce69d7b79868712a57b25a3a", "fusion_lon": 0.0, "lat": 38.947016166666664, "fusion_lat": 0.0}, {"is_disabled": 0, "rental_uris": {"android": "https://dc.lft.to/lastmile_qr_scan", "ios": "https://dc.lft.to/lastmile_qr_scan"}, "is_reserved": 0, "name": "7a74d818ade567f9ed93e3c93c84ae8b", "lon": -77.03443266666666, "type": "electric_scooter", "bike_id": "7a74d818ade567f9ed93e3c93c84ae8b", "fusion_lon": 0.0, "lat": 38.9149725, "fusion_lat": 0.0}, {"is_disabled": 0, "rental_uris": {"android": "https://dc.lft.to/lastmile_qr_scan", "ios": "https://dc.lft.to/lastmile_qr_scan"}, "is_reserved": 0, "name": "283f271bdcad6b3131696fcb3d0f41b7", "lon": -77.0402495, "type": "electric_scooter", "bike_id": "283f271bdcad6b3131696fcb3d0f41b7", "fusion_lon": 0.0, "lat": 38.9241665, "fusion_lat": 0.0}, {"is_disabled": 0, "rental_uris": {"android": "https://dc.lft.to/lastmile_qr_scan", "ios": "https://dc.lft.to/lastmile_qr_scan"}, "is_reserved": 0, "name": "bd71e04fa4844964ff2b582eae066196", "lon": -77.00333566666667, "type": "electric_scooter", "bike_id": "bd71e04fa4844964ff2b582eae066196", "fusion_lon": 0.0, "lat": 38.883177333333336, "fusion_lat": 0.0}, {"is_disabled": 0, "rental_uris": {"android": "https://dc.lft.to/lastmile_qr_scan", "ios": "https://dc.lft.to/lastmile_qr_scan"}, "is_reserved": 0, "name": "d96ca4ba7d9dd2163e80c5956b488261", "lon": -77.037426, "type": "electric_scooter", "bike_id": "d96ca4ba7d9dd2163e80c5956b488261", "fusion_lon": 0.0, "lat": 38.911825666666665, "fusion_lat": 0.0}, {"is_disabled": 0, "rental_uris": {"android": "https://dc.lft.to/lastmile_qr_scan", "ios": "https://dc.lft.to/lastmile_qr_scan"}, "is_reserved": 0, "name": "a04d03c5d90a171eccc33888cc7e5899", "lon": -77.03648266666667, "type": "electric_scooter", "bike_id": "a04d03c5d90a171eccc33888cc7e5899", "fusion_lon": 0.0, "lat": 38.90286116666667, "fusion_lat": 0.0}, {"is_disabled": 0, "rental_uris": {"android": "https://dc.lft.to/lastmile_qr_scan", "ios": "https://dc.lft.to/lastmile_qr_scan"}, "is_reserved": 0, "name": "a2b7dd8b979a1721ff6640efc97f8e11", "lon": -77.01669883333334, "type": "electric_scooter", "bike_id": "a2b7dd8b979a1721ff6640efc97f8e11", "fusion_lon": 0.0, "lat": 38.88308283333333, "fusion_lat": 0.0}, {"is_disabled": 0, "rental_uris": {"android": "https://dc.lft.to/lastmile_qr_scan", "ios": "https://dc.lft.to/lastmile_qr_scan"}, "is_reserved": 0, "name": "66296e6176d35eae3ea346898a28ee7a", "lon": -77.0321475, "type": "electric_scooter", "bike_id": "66296e6176d35eae3ea346898a28ee7a", "fusion_lon": 0.0, "lat": 38.920118333333335, "fusion_lat": 0.0}, {"is_disabled": 0, "rental_uris": {"android": "https://dc.lft.to/lastmile_qr_scan", "ios": "https://dc.lft.to/lastmile_qr_scan"}, "is_reserved": 0, "name": "36efe91ea59e6d38d98c84e307eb338d", "lon": -77.02718783333333, "type": "electric_scooter", "bike_id": "36efe91ea59e6d38d98c84e307eb338d", "fusion_lon": 0.0, "lat": 38.899854833333336, "fusion_lat": 0.0}, {"is_disabled": 0, "rental_uris": {"android": "https://dc.lft.to/lastmile_qr_scan", "ios": "https://dc.lft.to/lastmile_qr_scan"}, "is_reserved": 0, "name": "b2e705f62e554e28e82a61df3001cf33", "lon": -76.97899883333334, "type": "electric_bike", "bike_id": "b2e705f62e554e28e82a61df3001cf33", "fusion_lon": 0.0, "lat": 38.85490633333333, "fusion_lat": 0.0}, {"is_disabled": 0, "rental_uris": {"android": "https://dc.lft.to/lastmile_qr_scan", "ios": "https://dc.lft.to/lastmile_qr_scan"}, "is_reserved": 0, "name": "fb02afd4bc0cc0c54c049e2f9b7b24b0", "lon": -77.00768416666666, "type": "electric_scooter", "bike_id": "fb02afd4bc0cc0c54c049e2f9b7b24b0", "fusion_lon": 0.0, "lat": 38.87111266666667, "fusion_lat": 0.0}, {"is_disabled": 0, "rental_uris": {"android": "https://dc.lft.to/lastmile_qr_scan", "ios": "https://dc.lft.to/lastmile_qr_scan"}, "is_reserved": 0, "name": "4697c387de9c4ae9e2c5b71a1aaaa8b6", "lon": -77.032263, "type": "electric_scooter", "bike_id": "4697c387de9c4ae9e2c5b71a1aaaa8b6", "fusion_lon": 0.0, "lat": 38.909576, "fusion_lat": 0.0}, {"is_disabled": 0, "rental_uris": {"android": "https://dc.lft.to/lastmile_qr_scan", "ios": "https://dc.lft.to/lastmile_qr_scan"}, "is_reserved": 0, "name": "ec793d2ee668ed64ec7bf1d7b9cd06aa", "lon": -77.03085, "type": "electric_scooter", "bike_id": "ec793d2ee668ed64ec7bf1d7b9cd06aa", "fusion_lon": 0.0, "lat": 38.922418, "fusion_lat": 0.0}, {"is_disabled": 0, "rental_uris": {"android": "https://dc.lft.to/lastmile_qr_scan", "ios": "https://dc.lft.to/lastmile_qr_scan"}, "is_reserved": 0, "name": "ee08f1effff6ab42023f58c302d1d125", "lon": -77.0387005, "type": "electric_scooter", "bike_id": "ee08f1effff6ab42023f58c302d1d125", "fusion_lon": 0.0, "lat": 38.912592, "fusion_lat": 0.0}, {"is_disabled": 0, "rental_uris": {"android": "https://dc.lft.to/lastmile_qr_scan", "ios": "https://dc.lft.to/lastmile_qr_scan"}, "is_reserved": 0, "name": "373a09e3c2679869fda83866b25ed3d0", "lon": -77.02956683333333, "type": "electric_scooter", "bike_id": "373a09e3c2679869fda83866b25ed3d0", "fusion_lon": 0.0, "lat": 38.9119645, "fusion_lat": 0.0}, {"is_disabled": 0, "rental_uris": {"android": "https://dc.lft.to/lastmile_qr_scan", "ios": "https://dc.lft.to/lastmile_qr_scan"}, "is_reserved": 0, "name": "5269111f643a2c5aefabc38592839756", "lon": -77.0653145, "type": "electric_scooter", "bike_id": "5269111f643a2c5aefabc38592839756", "fusion_lon": 0.0, "lat": 38.9051695, "fusion_lat": 0.0}, {"is_disabled": 0, "rental_uris": {"android": "https://dc.lft.to/lastmile_qr_scan", "ios": "https://dc.lft.to/lastmile_qr_scan"}, "is_reserved": 0, "name": "09e30371458b3778669cd67e0552f9ad", "lon": -77.03524883333333, "type": "electric_scooter", "bike_id": "09e30371458b3778669cd67e0552f9ad", "fusion_lon": 0.0, "lat": 38.92241966666667, "fusion_lat": 0.0}, {"is_disabled": 0, "rental_uris": {"android": "https://dc.lft.to/lastmile_qr_scan", "ios": "https://dc.lft.to/lastmile_qr_scan"}, "is_reserved": 0, "name": "99ceb24f1841ab4ff8325f6379ca539c", "lon": -77.05403966666667, "type": "electric_scooter", "bike_id": "99ceb24f1841ab4ff8325f6379ca539c", "fusion_lon": 0.0, "lat": 38.927781833333334, "fusion_lat": 0.0}, {"is_disabled": 0, "rental_uris": {"android": "https://dc.lft.to/lastmile_qr_scan", "ios": "https://dc.lft.to/lastmile_qr_scan"}, "is_reserved": 0, "name": "b977bb82d285395a0344902441b4fa1c", "lon": -77.027916, "type": "electric_scooter", "bike_id": "b977bb82d285395a0344902441b4fa1c", "fusion_lon": 0.0, "lat": 38.88423016666667, "fusion_lat": 0.0}, {"is_disabled": 0, "rental_uris": {"android": "https://dc.lft.to/lastmile_qr_scan", "ios": "https://dc.lft.to/lastmile_qr_scan"}, "is_reserved": 0, "name": "5b4ae62e7f3d99c81181ea631116c007", "lon": -77.04198666666667, "type": "electric_scooter", "bike_id": "5b4ae62e7f3d99c81181ea631116c007", "fusion_lon": 0.0, "lat": 38.916775, "fusion_lat": 0.0}, {"is_disabled": 0, "rental_uris": {"android": "https://dc.lft.to/lastmile_qr_scan", "ios": "https://dc.lft.to/lastmile_qr_scan"}, "is_reserved": 0, "name": "8cc7df316ebb4386928458d7931f81b6", "lon": -77.0600415, "type": "electric_scooter", "bike_id": "8cc7df316ebb4386928458d7931f81b6", "fusion_lon": 0.0, "lat": 38.86216016666667, "fusion_lat": 0.0}, {"is_disabled": 0, "rental_uris": {"android": "https://dc.lft.to/lastmile_qr_scan", "ios": "https://dc.lft.to/lastmile_qr_scan"}, "is_reserved": 0, "name": "160d464ff93ce56cd367a149913361e7", "lon": -77.11510133333333, "type": "electric_bike", "bike_id": "160d464ff93ce56cd367a149913361e7", "fusion_lon": 0.0, "lat": 38.8819785, "fusion_lat": 0.0}, {"is_disabled": 0, "rental_uris": {"android": "https://dc.lft.to/lastmile_qr_scan", "ios": "https://dc.lft.to/lastmile_qr_scan"}, "is_reserved": 0, "name": "94fe91d0cdaf7249207d17bb9be618db", "lon": -77.0220845, "type": "electric_scooter", "bike_id": "94fe91d0cdaf7249207d17bb9be618db", "fusion_lon": 0.0, "lat": 38.9098055, "fusion_lat": 0.0}, {"is_disabled": 0, "rental_uris": {"android": "https://dc.lft.to/lastmile_qr_scan", "ios": "https://dc.lft.to/lastmile_qr_scan"}, "is_reserved": 0, "name": "7d8345a78325a1e9016d47ea03392bd5", "lon": -76.97996016666667, "type": "electric_scooter", "bike_id": "7d8345a78325a1e9016d47ea03392bd5", "fusion_lon": 0.0, "lat": 38.88874033333333, "fusion_lat": 0.0}, {"is_disabled": 0, "rental_uris": {"android": "https://dc.lft.to/lastmile_qr_scan", "ios": "https://dc.lft.to/lastmile_qr_scan"}, "is_reserved": 0, "name": "6b25527238de60991a310ba666d897c7", "lon": -76.97735833333333, "type": "electric_scooter", "bike_id": "6b25527238de60991a310ba666d897c7", "fusion_lon": 0.0, "lat": 38.89491566666667, "fusion_lat": 0.0}, {"is_disabled": 0, "rental_uris": {"android": "https://dc.lft.to/lastmile_qr_scan", "ios": "https://dc.lft.to/lastmile_qr_scan"}, "is_reserved": 0, "name": "dcde9f0c030df150c095144b15fe525d", "lon": -77.03872866666667, "type": "electric_scooter", "bike_id": "dcde9f0c030df150c095144b15fe525d", "fusion_lon": 0.0, "lat": 38.903924833333335, "fusion_lat": 0.0}, {"is_disabled": 0, "rental_uris": {"android": "https://dc.lft.to/lastmile_qr_scan", "ios": "https://dc.lft.to/lastmile_qr_scan"}, "is_reserved": 0, "name": "2efbd5c8b5403c9d2f10a018aaa7ee53", "lon": -77.021834, "type": "electric_scooter", "bike_id": "2efbd5c8b5403c9d2f10a018aaa7ee53", "fusion_lon": 0.0, "lat": 38.9015265, "fusion_lat": 0.0}, {"is_disabled": 0, "rental_uris": {"android": "https://dc.lft.to/lastmile_qr_scan", "ios": "https://dc.lft.to/lastmile_qr_scan"}, "is_reserved": 0, "name": "4822a3fcca83e34208166bced3757c31", "lon": -76.98472033333333, "type": "electric_scooter", "bike_id": "4822a3fcca83e34208166bced3757c31", "fusion_lon": 0.0, "lat": 38.89358, "fusion_lat": 0.0}, {"is_disabled": 0, "rental_uris": {"android": "https://dc.lft.to/lastmile_qr_scan", "ios": "https://dc.lft.to/lastmile_qr_scan"}, "is_reserved": 0, "name": "31aade7a30d089a098c35cb5e799a288", "lon": -77.05784233333334, "type": "electric_scooter", "bike_id": "31aade7a30d089a098c35cb5e799a288", "fusion_lon": 0.0, "lat": 38.905104, "fusion_lat": 0.0}, {"is_disabled": 0, "rental_uris": {"android": "https://dc.lft.to/lastmile_qr_scan", "ios": "https://dc.lft.to/lastmile_qr_scan"}, "is_reserved": 0, "name": "6ccb2cc7e5dabfa0d067bcc90d544828", "lon": -76.935547, "type": "electric_scooter", "bike_id": "6ccb2cc7e5dabfa0d067bcc90d544828", "fusion_lon": 0.0, "lat": 38.901578, "fusion_lat": 0.0}, {"is_disabled": 0, "rental_uris": {"android": "https://dc.lft.to/lastmile_qr_scan", "ios": "https://dc.lft.to/lastmile_qr_scan"}, "is_reserved": 0, "name": "8712c49a948c46d37aebdd18c9f09ff7", "lon": -76.95196583333333, "type": "electric_bike", "bike_id": "8712c49a948c46d37aebdd18c9f09ff7", "fusion_lon": 0.0, "lat": 38.90688, "fusion_lat": 0.0}, {"is_disabled": 0, "rental_uris": {"android": "https://dc.lft.to/lastmile_qr_scan", "ios": "https://dc.lft.to/lastmile_qr_scan"}, "is_reserved": 0, "name": "f60e6c239ecb15ca00bbfc48b5272a8b", "lon": -76.98554516666667, "type": "electric_scooter", "bike_id": "f60e6c239ecb15ca00bbfc48b5272a8b", "fusion_lon": 0.0, "lat": 38.904211, "fusion_lat": 0.0}, {"is_disabled": 0, "rental_uris": {"android": "https://dc.lft.to/lastmile_qr_scan", "ios": "https://dc.lft.to/lastmile_qr_scan"}, "is_reserved": 0, "name": "cbf55a9ddd5b5da7f628197fbcf4a2c1", "lon": -77.021649, "type": "electric_scooter", "bike_id": "cbf55a9ddd5b5da7f628197fbcf4a2c1", "fusion_lon": 0.0, "lat": 38.90514616666667, "fusion_lat": 0.0}, {"is_disabled": 0, "rental_uris": {"android": "https://dc.lft.to/lastmile_qr_scan", "ios": "https://dc.lft.to/lastmile_qr_scan"}, "is_reserved": 0, "name": "53ad879f686b2c2a7978654e13667a13", "lon": -77.05453933333334, "type": "electric_scooter", "bike_id": "53ad879f686b2c2a7978654e13667a13", "fusion_lon": 0.0, "lat": 38.929007, "fusion_lat": 0.0}, {"is_disabled": 0, "rental_uris": {"android": "https://dc.lft.to/lastmile_qr_scan", "ios": "https://dc.lft.to/lastmile_qr_scan"}, "is_reserved": 0, "name": "907549440b06a9abd4e12e44c9fcb52c", "lon": -77.029198, "type": "electric_scooter", "bike_id": "907549440b06a9abd4e12e44c9fcb52c", "fusion_lon": 0.0, "lat": 38.924858666666665, "fusion_lat": 0.0}, {"is_disabled": 0, "rental_uris": {"android": "https://dc.lft.to/lastmile_qr_scan", "ios": "https://dc.lft.to/lastmile_qr_scan"}, "is_reserved": 0, "name": "aabbb2b9b504e0ee6efa47d37150fe83", "lon": -77.03783266666667, "type": "electric_scooter", "bike_id": "aabbb2b9b504e0ee6efa47d37150fe83", "fusion_lon": 0.0, "lat": 38.93020466666667, "fusion_lat": 0.0}, {"is_disabled": 0, "rental_uris": {"android": "https://dc.lft.to/lastmile_qr_scan", "ios": "https://dc.lft.to/lastmile_qr_scan"}, "is_reserved": 0, "name": "c94d9a73e9dcdb8508cda792a7aedd9f", "lon": -77.0321145, "type": "electric_scooter", "bike_id": "c94d9a73e9dcdb8508cda792a7aedd9f", "fusion_lon": 0.0, "lat": 38.92579716666667, "fusion_lat": 0.0}, {"is_disabled": 0, "rental_uris": {"android": "https://dc.lft.to/lastmile_qr_scan", "ios": "https://dc.lft.to/lastmile_qr_scan"}, "is_reserved": 0, "name": "bd63baed1d52130c85530f3d5a8bc8c4", "lon": -76.987671, "type": "electric_scooter", "bike_id": "bd63baed1d52130c85530f3d5a8bc8c4", "fusion_lon": 0.0, "lat": 38.844572, "fusion_lat": 0.0}, {"is_disabled": 0, "rental_uris": {"android": "https://dc.lft.to/lastmile_qr_scan", "ios": "https://dc.lft.to/lastmile_qr_scan"}, "is_reserved": 0, "name": "c2a186ac33b3020bbb928be81432f158", "lon": -77.02936666666666, "type": "electric_scooter", "bike_id": "c2a186ac33b3020bbb928be81432f158", "fusion_lon": 0.0, "lat": 38.89978166666667, "fusion_lat": 0.0}, {"is_disabled": 0, "rental_uris": {"android": "https://dc.lft.to/lastmile_qr_scan", "ios": "https://dc.lft.to/lastmile_qr_scan"}, "is_reserved": 0, "name": "9accb7dac9c4223ca795f8a89a36a8e4", "lon": -77.04192966666666, "type": "electric_scooter", "bike_id": "9accb7dac9c4223ca795f8a89a36a8e4", "fusion_lon": 0.0, "lat": 38.9167355, "fusion_lat": 0.0}, {"is_disabled": 0, "rental_uris": {"android": "https://dc.lft.to/lastmile_qr_scan", "ios": "https://dc.lft.to/lastmile_qr_scan"}, "is_reserved": 0, "name": "7031094762baf39e90c007d22673be1a", "lon": -77.03468333333333, "type": "electric_scooter", "bike_id": "7031094762baf39e90c007d22673be1a", "fusion_lon": 0.0, "lat": 38.91113383333333, "fusion_lat": 0.0}, {"is_disabled": 0, "rental_uris": {"android": "https://dc.lft.to/lastmile_qr_scan", "ios": "https://dc.lft.to/lastmile_qr_scan"}, "is_reserved": 0, "name": "4cc1b1375da15681aa410d96c11aa113", "lon": -76.98464533333333, "type": "electric_scooter", "bike_id": "4cc1b1375da15681aa410d96c11aa113", "fusion_lon": 0.0, "lat": 38.89369083333333, "fusion_lat": 0.0}, {"is_disabled": 0, "rental_uris": {"android": "https://dc.lft.to/lastmile_qr_scan", "ios": "https://dc.lft.to/lastmile_qr_scan"}, "is_reserved": 0, "name": "71d19cf33db25467de66ce83cd4ca585", "lon": -77.03660083333334, "type": "electric_scooter", "bike_id": "71d19cf33db25467de66ce83cd4ca585", "fusion_lon": 0.0, "lat": 38.936402, "fusion_lat": 0.0}, {"is_disabled": 0, "rental_uris": {"android": "https://dc.lft.to/lastmile_qr_scan", "ios": "https://dc.lft.to/lastmile_qr_scan"}, "is_reserved": 0, "name": "89c5ec8299265b2be53237c8c4889448", "lon": -77.03259633333333, "type": "electric_scooter", "bike_id": "89c5ec8299265b2be53237c8c4889448", "fusion_lon": 0.0, "lat": 38.90967083333334, "fusion_lat": 0.0}, {"is_disabled": 0, "rental_uris": {"android": "https://dc.lft.to/lastmile_qr_scan", "ios": "https://dc.lft.to/lastmile_qr_scan"}, "is_reserved": 0, "name": "e444bc8c66a351418c4f9600223d4964", "lon": -77.012015, "type": "electric_scooter", "bike_id": "e444bc8c66a351418c4f9600223d4964", "fusion_lon": 0.0, "lat": 38.92739316666667, "fusion_lat": 0.0}, {"is_disabled": 0, "rental_uris": {"android": "https://dc.lft.to/lastmile_qr_scan", "ios": "https://dc.lft.to/lastmile_qr_scan"}, "is_reserved": 0, "name": "d7db2ca69f71b7752aeb25dc70af3ba8", "lon": -77.029119, "type": "electric_scooter", "bike_id": "d7db2ca69f71b7752aeb25dc70af3ba8", "fusion_lon": 0.0, "lat": 38.93969416666667, "fusion_lat": 0.0}, {"is_disabled": 0, "rental_uris": {"android": "https://dc.lft.to/lastmile_qr_scan", "ios": "https://dc.lft.to/lastmile_qr_scan"}, "is_reserved": 0, "name": "894dda10ce34aac61271c09174f4cef6", "lon": -77.03141583333333, "type": "electric_scooter", "bike_id": "894dda10ce34aac61271c09174f4cef6", "fusion_lon": 0.0, "lat": 38.901316, "fusion_lat": 0.0}, {"is_disabled": 0, "rental_uris": {"android": "https://dc.lft.to/lastmile_qr_scan", "ios": "https://dc.lft.to/lastmile_qr_scan"}, "is_reserved": 0, "name": "f6a1a0e54c890cbce50099a485dfd703", "lon": -77.051039, "type": "electric_scooter", "bike_id": "f6a1a0e54c890cbce50099a485dfd703", "fusion_lon": 0.0, "lat": 38.901145166666666, "fusion_lat": 0.0}, {"is_disabled": 0, "rental_uris": {"android": "https://dc.lft.to/lastmile_qr_scan", "ios": "https://dc.lft.to/lastmile_qr_scan"}, "is_reserved": 0, "name": "a409187c4f66f1700537900f7241c9a1", "lon": -77.02374016666667, "type": "electric_scooter", "bike_id": "a409187c4f66f1700537900f7241c9a1", "fusion_lon": 0.0, "lat": 38.901979833333336, "fusion_lat": 0.0}, {"is_disabled": 0, "rental_uris": {"android": "https://dc.lft.to/lastmile_qr_scan", "ios": "https://dc.lft.to/lastmile_qr_scan"}, "is_reserved": 0, "name": "768af4dde371f5bd1d7687b40c9133c4", "lon": -77.0277645, "type": "electric_scooter", "bike_id": "768af4dde371f5bd1d7687b40c9133c4", "fusion_lon": 0.0, "lat": 38.917123, "fusion_lat": 0.0}, {"is_disabled": 0, "rental_uris": {"android": "https://dc.lft.to/lastmile_qr_scan", "ios": "https://dc.lft.to/lastmile_qr_scan"}, "is_reserved": 0, "name": "f6d2e2261706fb56a50b3b8cbc900d17", "lon": -77.05132616666667, "type": "electric_scooter", "bike_id": "f6d2e2261706fb56a50b3b8cbc900d17", "fusion_lon": 0.0, "lat": 38.90232966666667, "fusion_lat": 0.0}, {"is_disabled": 0, "rental_uris": {"android": "https://dc.lft.to/lastmile_qr_scan", "ios": "https://dc.lft.to/lastmile_qr_scan"}, "is_reserved": 0, "name": "aa97907c0e0e4ba18f82f62390fb8618", "lon": -77.00770833333333, "type": "electric_scooter", "bike_id": "aa97907c0e0e4ba18f82f62390fb8618", "fusion_lon": 0.0, "lat": 38.90751066666667, "fusion_lat": 0.0}, {"is_disabled": 0, "rental_uris": {"android": "https://dc.lft.to/lastmile_qr_scan", "ios": "https://dc.lft.to/lastmile_qr_scan"}, "is_reserved": 0, "name": "6637c46096b0daa1b5434864244b09d1", "lon": -77.04766316666667, "type": "electric_scooter", "bike_id": "6637c46096b0daa1b5434864244b09d1", "fusion_lon": 0.0, "lat": 38.917695, "fusion_lat": 0.0}, {"is_disabled": 0, "rental_uris": {"android": "https://dc.lft.to/lastmile_qr_scan", "ios": "https://dc.lft.to/lastmile_qr_scan"}, "is_reserved": 0, "name": "c4beb4abdf80d26c0fcc05d8604e84f7", "lon": -77.02154783333333, "type": "electric_scooter", "bike_id": "c4beb4abdf80d26c0fcc05d8604e84f7", "fusion_lon": 0.0, "lat": 38.87923383333333, "fusion_lat": 0.0}, {"is_disabled": 0, "rental_uris": {"android": "https://dc.lft.to/lastmile_qr_scan", "ios": "https://dc.lft.to/lastmile_qr_scan"}, "is_reserved": 0, "name": "305658749de58e9c75780d1bd1eaccfd", "lon": -77.0284725, "type": "electric_bike", "bike_id": "305658749de58e9c75780d1bd1eaccfd", "fusion_lon": 0.0, "lat": 38.913618666666665, "fusion_lat": 0.0}, {"is_disabled": 0, "rental_uris": {"android": "https://dc.lft.to/lastmile_qr_scan", "ios": "https://dc.lft.to/lastmile_qr_scan"}, "is_reserved": 0, "name": "8eb6a2cb4b05ebf6cde0a9d912280ba2", "lon": -77.027618, "type": "electric_scooter", "bike_id": "8eb6a2cb4b05ebf6cde0a9d912280ba2", "fusion_lon": 0.0, "lat": 38.9673215, "fusion_lat": 0.0}, {"is_disabled": 0, "rental_uris": {"android": "https://dc.lft.to/lastmile_qr_scan", "ios": "https://dc.lft.to/lastmile_qr_scan"}, "is_reserved": 0, "name": "fa2a76e03aa84b74fda34ae8420a2e22", "lon": -77.033823, "type": "electric_scooter", "bike_id": "fa2a76e03aa84b74fda34ae8420a2e22", "fusion_lon": 0.0, "lat": 38.92150683333333, "fusion_lat": 0.0}, {"is_disabled": 0, "rental_uris": {"android": "https://dc.lft.to/lastmile_qr_scan", "ios": "https://dc.lft.to/lastmile_qr_scan"}, "is_reserved": 0, "name": "40dd101535bb8e3eeac8768aa9302afd", "lon": -77.02613216666667, "type": "electric_scooter", "bike_id": "40dd101535bb8e3eeac8768aa9302afd", "fusion_lon": 0.0, "lat": 38.92445016666667, "fusion_lat": 0.0}, {"is_disabled": 0, "rental_uris": {"android": "https://dc.lft.to/lastmile_qr_scan", "ios": "https://dc.lft.to/lastmile_qr_scan"}, "is_reserved": 0, "name": "46376b51b513a04837ea7533564014a2", "lon": -77.01219966666666, "type": "electric_scooter", "bike_id": "46376b51b513a04837ea7533564014a2", "fusion_lon": 0.0, "lat": 38.91019083333333, "fusion_lat": 0.0}, {"is_disabled": 0, "rental_uris": {"android": "https://dc.lft.to/lastmile_qr_scan", "ios": "https://dc.lft.to/lastmile_qr_scan"}, "is_reserved": 0, "name": "bb4c40d50955d1212b00174b0606c27e", "lon": -77.02845166666667, "type": "electric_scooter", "bike_id": "bb4c40d50955d1212b00174b0606c27e", "fusion_lon": 0.0, "lat": 38.91708333333333, "fusion_lat": 0.0}, {"is_disabled": 0, "rental_uris": {"android": "https://dc.lft.to/lastmile_qr_scan", "ios": "https://dc.lft.to/lastmile_qr_scan"}, "is_reserved": 0, "name": "4b7bac0c57e4b7304d1ababe40921489", "lon": -77.03982683333334, "type": "electric_scooter", "bike_id": "4b7bac0c57e4b7304d1ababe40921489", "fusion_lon": 0.0, "lat": 38.90237066666667, "fusion_lat": 0.0}, {"is_disabled": 0, "rental_uris": {"android": "https://dc.lft.to/lastmile_qr_scan", "ios": "https://dc.lft.to/lastmile_qr_scan"}, "is_reserved": 0, "name": "9c732ba0084f7e9d52a9951a207777ef", "lon": -77.03853166666667, "type": "electric_scooter", "bike_id": "9c732ba0084f7e9d52a9951a207777ef", "fusion_lon": 0.0, "lat": 38.908757666666666, "fusion_lat": 0.0}, {"is_disabled": 0, "rental_uris": {"android": "https://dc.lft.to/lastmile_qr_scan", "ios": "https://dc.lft.to/lastmile_qr_scan"}, "is_reserved": 0, "name": "75fbaeef8b8ac4fd6cb83100be7829ee", "lon": -77.05019133333333, "type": "electric_scooter", "bike_id": "75fbaeef8b8ac4fd6cb83100be7829ee", "fusion_lon": 0.0, "lat": 38.9041325, "fusion_lat": 0.0}, {"is_disabled": 0, "rental_uris": {"android": "https://dc.lft.to/lastmile_qr_scan", "ios": "https://dc.lft.to/lastmile_qr_scan"}, "is_reserved": 0, "name": "e81c8f6a8a2c63d6ab1e25dc2b549a73", "lon": -76.87497966666666, "type": "electric_bike", "bike_id": "e81c8f6a8a2c63d6ab1e25dc2b549a73", "fusion_lon": 0.0, "lat": 38.9908925, "fusion_lat": 0.0}, {"is_disabled": 0, "rental_uris": {"android": "https://dc.lft.to/lastmile_qr_scan", "ios": "https://dc.lft.to/lastmile_qr_scan"}, "is_reserved": 0, "name": "01d3e85005f4aee8f587553ce4fc2763", "lon": -77.0380995, "type": "electric_scooter", "bike_id": "01d3e85005f4aee8f587553ce4fc2763", "fusion_lon": 0.0, "lat": 38.9097145, "fusion_lat": 0.0}, {"is_disabled": 0, "rental_uris": {"android": "https://dc.lft.to/lastmile_qr_scan", "ios": "https://dc.lft.to/lastmile_qr_scan"}, "is_reserved": 0, "name": "aad8c3658cdc963d97fcc4d5bd47cbb2", "lon": -77.072917, "type": "electric_scooter", "bike_id": "aad8c3658cdc963d97fcc4d5bd47cbb2", "fusion_lon": 0.0, "lat": 38.922836, "fusion_lat": 0.0}, {"is_disabled": 0, "rental_uris": {"android": "https://dc.lft.to/lastmile_qr_scan", "ios": "https://dc.lft.to/lastmile_qr_scan"}, "is_reserved": 0, "name": "a748fb3078e88aa26cac2cda81e39283", "lon": -77.1122035, "type": "electric_bike", "bike_id": "a748fb3078e88aa26cac2cda81e39283", "fusion_lon": 0.0, "lat": 38.8287455, "fusion_lat": 0.0}, {"is_disabled": 0, "rental_uris": {"android": "https://dc.lft.to/lastmile_qr_scan", "ios": "https://dc.lft.to/lastmile_qr_scan"}, "is_reserved": 0, "name": "25cc0903652b6314d2ed63517b212c38", "lon": -77.02367916666667, "type": "electric_scooter", "bike_id": "25cc0903652b6314d2ed63517b212c38", "fusion_lon": 0.0, "lat": 38.905613, "fusion_lat": 0.0}, {"is_disabled": 0, "rental_uris": {"android": "https://dc.lft.to/lastmile_qr_scan", "ios": "https://dc.lft.to/lastmile_qr_scan"}, "is_reserved": 0, "name": "803885dd5c430364a746658096228f5b", "lon": -76.91235033333334, "type": "electric_scooter", "bike_id": "803885dd5c430364a746658096228f5b", "fusion_lon": 0.0, "lat": 38.8939165, "fusion_lat": 0.0}, {"is_disabled": 0, "rental_uris": {"android": "https://dc.lft.to/lastmile_qr_scan", "ios": "https://dc.lft.to/lastmile_qr_scan"}, "is_reserved": 0, "name": "40a75722e3e7ac739597c8e9612c66e4", "lon": -77.01853266666667, "type": "electric_scooter", "bike_id": "40a75722e3e7ac739597c8e9612c66e4", "fusion_lon": 0.0, "lat": 38.973715, "fusion_lat": 0.0}, {"is_disabled": 0, "rental_uris": {"android": "https://dc.lft.to/lastmile_qr_scan", "ios": "https://dc.lft.to/lastmile_qr_scan"}, "is_reserved": 0, "name": "a290bc873b067454c922fd3e5f570733", "lon": -77.03179933333334, "type": "electric_scooter", "bike_id": "a290bc873b067454c922fd3e5f570733", "fusion_lon": 0.0, "lat": 38.91243433333333, "fusion_lat": 0.0}, {"is_disabled": 0, "rental_uris": {"android": "https://dc.lft.to/lastmile_qr_scan", "ios": "https://dc.lft.to/lastmile_qr_scan"}, "is_reserved": 0, "name": "d719533f7c699722f26e1d77d2a0a866", "lon": -77.03450866666667, "type": "electric_scooter", "bike_id": "d719533f7c699722f26e1d77d2a0a866", "fusion_lon": 0.0, "lat": 38.907901, "fusion_lat": 0.0}, {"is_disabled": 0, "rental_uris": {"android": "https://dc.lft.to/lastmile_qr_scan", "ios": "https://dc.lft.to/lastmile_qr_scan"}, "is_reserved": 0, "name": "0ba70793baf54786a3d95d0a461a692b", "lon": -77.0180415, "type": "electric_scooter", "bike_id": "0ba70793baf54786a3d95d0a461a692b", "fusion_lon": 0.0, "lat": 38.92109716666667, "fusion_lat": 0.0}, {"is_disabled": 0, "rental_uris": {"android": "https://dc.lft.to/lastmile_qr_scan", "ios": "https://dc.lft.to/lastmile_qr_scan"}, "is_reserved": 0, "name": "1a6c275cd3285664e2d60ec4645323ed", "lon": -76.9881325, "type": "electric_scooter", "bike_id": "1a6c275cd3285664e2d60ec4645323ed", "fusion_lon": 0.0, "lat": 38.9082755, "fusion_lat": 0.0}, {"is_disabled": 0, "rental_uris": {"android": "https://dc.lft.to/lastmile_qr_scan", "ios": "https://dc.lft.to/lastmile_qr_scan"}, "is_reserved": 0, "name": "86a148b44f5989c9354875f1b1a592e9", "lon": -76.98498316666667, "type": "electric_scooter", "bike_id": "86a148b44f5989c9354875f1b1a592e9", "fusion_lon": 0.0, "lat": 38.91008333333333, "fusion_lat": 0.0}, {"is_disabled": 0, "rental_uris": {"android": "https://dc.lft.to/lastmile_qr_scan", "ios": "https://dc.lft.to/lastmile_qr_scan"}, "is_reserved": 0, "name": "8350ce3d52f6c1ad5fcc1df9a750ce68", "lon": -77.037884, "type": "electric_scooter", "bike_id": "8350ce3d52f6c1ad5fcc1df9a750ce68", "fusion_lon": 0.0, "lat": 38.936054166666665, "fusion_lat": 0.0}, {"is_disabled": 0, "rental_uris": {"android": "https://dc.lft.to/lastmile_qr_scan", "ios": "https://dc.lft.to/lastmile_qr_scan"}, "is_reserved": 0, "name": "f58ee6fce0fd47d47708e1e6e95e05a9", "lon": -77.06103266666666, "type": "electric_scooter", "bike_id": "f58ee6fce0fd47d47708e1e6e95e05a9", "fusion_lon": 0.0, "lat": 38.937034, "fusion_lat": 0.0}, {"is_disabled": 0, "rental_uris": {"android": "https://dc.lft.to/lastmile_qr_scan", "ios": "https://dc.lft.to/lastmile_qr_scan"}, "is_reserved": 0, "name": "a85263d3834131569bb37fbb4ad40d0d", "lon": -77.02168783333333, "type": "electric_scooter", "bike_id": "a85263d3834131569bb37fbb4ad40d0d", "fusion_lon": 0.0, "lat": 38.886332833333334, "fusion_lat": 0.0}, {"is_disabled": 0, "rental_uris": {"android": "https://dc.lft.to/lastmile_qr_scan", "ios": "https://dc.lft.to/lastmile_qr_scan"}, "is_reserved": 0, "name": "e1959a305167e15aeee575a71f33f0eb", "lon": -77.041975, "type": "electric_scooter", "bike_id": "e1959a305167e15aeee575a71f33f0eb", "fusion_lon": 0.0, "lat": 38.9187565, "fusion_lat": 0.0}, {"is_disabled": 0, "rental_uris": {"android": "https://dc.lft.to/lastmile_qr_scan", "ios": "https://dc.lft.to/lastmile_qr_scan"}, "is_reserved": 0, "name": "7842d6c8d94fa49a31b27b1c8bf64aaf", "lon": -76.99828916666667, "type": "electric_scooter", "bike_id": "7842d6c8d94fa49a31b27b1c8bf64aaf", "fusion_lon": 0.0, "lat": 38.9087365, "fusion_lat": 0.0}, {"is_disabled": 0, "rental_uris": {"android": "https://dc.lft.to/lastmile_qr_scan", "ios": "https://dc.lft.to/lastmile_qr_scan"}, "is_reserved": 0, "name": "88377884319971dc10cedf6c717a1cd3", "lon": -77.07278816666667, "type": "electric_scooter", "bike_id": "88377884319971dc10cedf6c717a1cd3", "fusion_lon": 0.0, "lat": 38.934759666666665, "fusion_lat": 0.0}, {"is_disabled": 0, "rental_uris": {"android": "https://dc.lft.to/lastmile_qr_scan", "ios": "https://dc.lft.to/lastmile_qr_scan"}, "is_reserved": 0, "name": "b672cd638afd385792f755f48d480dc5", "lon": -77.03408433333334, "type": "electric_scooter", "bike_id": "b672cd638afd385792f755f48d480dc5", "fusion_lon": 0.0, "lat": 38.921609333333336, "fusion_lat": 0.0}, {"is_disabled": 0, "rental_uris": {"android": "https://dc.lft.to/lastmile_qr_scan", "ios": "https://dc.lft.to/lastmile_qr_scan"}, "is_reserved": 0, "name": "1212ab8d82042970663239097ff5409a", "lon": -77.03260966666667, "type": "electric_scooter", "bike_id": "1212ab8d82042970663239097ff5409a", "fusion_lon": 0.0, "lat": 38.90971316666667, "fusion_lat": 0.0}, {"is_disabled": 0, "rental_uris": {"android": "https://dc.lft.to/lastmile_qr_scan", "ios": "https://dc.lft.to/lastmile_qr_scan"}, "is_reserved": 0, "name": "f75491b78536e271e92bb07bb54f4830", "lon": -77.02547316666667, "type": "electric_scooter", "bike_id": "f75491b78536e271e92bb07bb54f4830", "fusion_lon": 0.0, "lat": 38.94837183333333, "fusion_lat": 0.0}, {"is_disabled": 0, "rental_uris": {"android": "https://dc.lft.to/lastmile_qr_scan", "ios": "https://dc.lft.to/lastmile_qr_scan"}, "is_reserved": 0, "name": "a6eaf8bb933ff0a6cd50b0e48baea5a0", "lon": -77.04886983333333, "type": "electric_scooter", "bike_id": "a6eaf8bb933ff0a6cd50b0e48baea5a0", "fusion_lon": 0.0, "lat": 38.908413333333336, "fusion_lat": 0.0}, {"is_disabled": 0, "rental_uris": {"android": "https://dc.lft.to/lastmile_qr_scan", "ios": "https://dc.lft.to/lastmile_qr_scan"}, "is_reserved": 0, "name": "4dc5bd45ab93bdce835c8e2a9a1166c7", "lon": -76.914247, "type": "electric_bike", "bike_id": "4dc5bd45ab93bdce835c8e2a9a1166c7", "fusion_lon": 0.0, "lat": 38.89832666666667, "fusion_lat": 0.0}, {"is_disabled": 0, "rental_uris": {"android": "https://dc.lft.to/lastmile_qr_scan", "ios": "https://dc.lft.to/lastmile_qr_scan"}, "is_reserved": 0, "name": "3d99b4f1522367591e7ece89e33d70ff", "lon": -76.99393416666666, "type": "electric_scooter", "bike_id": "3d99b4f1522367591e7ece89e33d70ff", "fusion_lon": 0.0, "lat": 38.92120416666667, "fusion_lat": 0.0}, {"is_disabled": 0, "rental_uris": {"android": "https://dc.lft.to/lastmile_qr_scan", "ios": "https://dc.lft.to/lastmile_qr_scan"}, "is_reserved": 0, "name": "1da3208debd4841de90e376c04b436a9", "lon": -77.0265155, "type": "electric_scooter", "bike_id": "1da3208debd4841de90e376c04b436a9", "fusion_lon": 0.0, "lat": 38.93862583333333, "fusion_lat": 0.0}, {"is_disabled": 0, "rental_uris": {"android": "https://dc.lft.to/lastmile_qr_scan", "ios": "https://dc.lft.to/lastmile_qr_scan"}, "is_reserved": 0, "name": "3a5b9a1ee5b81a20727f852d804321a0", "lon": -77.03211866666666, "type": "electric_scooter", "bike_id": "3a5b9a1ee5b81a20727f852d804321a0", "fusion_lon": 0.0, "lat": 38.91852133333333, "fusion_lat": 0.0}, {"is_disabled": 0, "rental_uris": {"android": "https://dc.lft.to/lastmile_qr_scan", "ios": "https://dc.lft.to/lastmile_qr_scan"}, "is_reserved": 0, "name": "ed793e0f59653f9807ca1442f85f333a", "lon": -77.05992333333333, "type": "electric_scooter", "bike_id": "ed793e0f59653f9807ca1442f85f333a", "fusion_lon": 0.0, "lat": 38.91194383333333, "fusion_lat": 0.0}, {"is_disabled": 0, "rental_uris": {"android": "https://dc.lft.to/lastmile_qr_scan", "ios": "https://dc.lft.to/lastmile_qr_scan"}, "is_reserved": 0, "name": "dda7ca73428b8f774267f59bb330bf8c", "lon": -76.93021133333333, "type": "electric_bike", "bike_id": "dda7ca73428b8f774267f59bb330bf8c", "fusion_lon": 0.0, "lat": 38.96646883333333, "fusion_lat": 0.0}, {"is_disabled": 0, "rental_uris": {"android": "https://dc.lft.to/lastmile_qr_scan", "ios": "https://dc.lft.to/lastmile_qr_scan"}, "is_reserved": 0, "name": "bd133068b5db4691271789e0a43f0438", "lon": -76.91878966666667, "type": "electric_scooter", "bike_id": "bd133068b5db4691271789e0a43f0438", "fusion_lon": 0.0, "lat": 38.89081566666667, "fusion_lat": 0.0}, {"is_disabled": 0, "rental_uris": {"android": "https://dc.lft.to/lastmile_qr_scan", "ios": "https://dc.lft.to/lastmile_qr_scan"}, "is_reserved": 0, "name": "81d0862caca6c8eb91a2800fcf2fa1fb", "lon": -77.01860416666666, "type": "electric_scooter", "bike_id": "81d0862caca6c8eb91a2800fcf2fa1fb", "fusion_lon": 0.0, "lat": 38.915689666666665, "fusion_lat": 0.0}, {"is_disabled": 0, "rental_uris": {"android": "https://dc.lft.to/lastmile_qr_scan", "ios": "https://dc.lft.to/lastmile_qr_scan"}, "is_reserved": 0, "name": "f7bb1e675605f020cd13c5633e576ff3", "lon": -77.04047133333333, "type": "electric_scooter", "bike_id": "f7bb1e675605f020cd13c5633e576ff3", "fusion_lon": 0.0, "lat": 38.901335, "fusion_lat": 0.0}, {"is_disabled": 0, "rental_uris": {"android": "https://dc.lft.to/lastmile_qr_scan", "ios": "https://dc.lft.to/lastmile_qr_scan"}, "is_reserved": 0, "name": "68906a99e2e2e3275bef0dfa7b1e5671", "lon": -76.99280283333333, "type": "electric_bike", "bike_id": "68906a99e2e2e3275bef0dfa7b1e5671", "fusion_lon": 0.0, "lat": 38.85838366666667, "fusion_lat": 0.0}, {"is_disabled": 0, "rental_uris": {"android": "https://dc.lft.to/lastmile_qr_scan", "ios": "https://dc.lft.to/lastmile_qr_scan"}, "is_reserved": 0, "name": "fe2df30603d7c375413cca5dc3aa2990", "lon": -77.028046, "type": "electric_scooter", "bike_id": "fe2df30603d7c375413cca5dc3aa2990", "fusion_lon": 0.0, "lat": 38.9329765, "fusion_lat": 0.0}, {"is_disabled": 0, "rental_uris": {"android": "https://dc.lft.to/lastmile_qr_scan", "ios": "https://dc.lft.to/lastmile_qr_scan"}, "is_reserved": 0, "name": "de8d8e2ca8597720e41a1bb11722feb2", "lon": -76.99036916666667, "type": "electric_scooter", "bike_id": "de8d8e2ca8597720e41a1bb11722feb2", "fusion_lon": 0.0, "lat": 38.90275033333333, "fusion_lat": 0.0}, {"is_disabled": 0, "rental_uris": {"android": "https://dc.lft.to/lastmile_qr_scan", "ios": "https://dc.lft.to/lastmile_qr_scan"}, "is_reserved": 0, "name": "1adc3fd49650ad66f08a39086af41471", "lon": -77.04890183333333, "type": "electric_scooter", "bike_id": "1adc3fd49650ad66f08a39086af41471", "fusion_lon": 0.0, "lat": 38.89814833333333, "fusion_lat": 0.0}, {"is_disabled": 0, "rental_uris": {"android": "https://dc.lft.to/lastmile_qr_scan", "ios": "https://dc.lft.to/lastmile_qr_scan"}, "is_reserved": 0, "name": "d4dddf1223ef9210c367ce4f134c77b3", "lon": -77.03949033333333, "type": "electric_scooter", "bike_id": "d4dddf1223ef9210c367ce4f134c77b3", "fusion_lon": 0.0, "lat": 38.899009166666666, "fusion_lat": 0.0}, {"is_disabled": 0, "rental_uris": {"android": "https://dc.lft.to/lastmile_qr_scan", "ios": "https://dc.lft.to/lastmile_qr_scan"}, "is_reserved": 0, "name": "7e42abecbbfb6e33c3e14b72c886c7ca", "lon": -77.03851316666666, "type": "electric_scooter", "bike_id": "7e42abecbbfb6e33c3e14b72c886c7ca", "fusion_lon": 0.0, "lat": 38.912222166666666, "fusion_lat": 0.0}, {"is_disabled": 0, "rental_uris": {"android": "https://dc.lft.to/lastmile_qr_scan", "ios": "https://dc.lft.to/lastmile_qr_scan"}, "is_reserved": 0, "name": "fa13e36e914fee1a01f7fde3c2f3081f", "lon": -77.01624083333333, "type": "electric_scooter", "bike_id": "fa13e36e914fee1a01f7fde3c2f3081f", "fusion_lon": 0.0, "lat": 38.89856983333333, "fusion_lat": 0.0}, {"is_disabled": 0, "rental_uris": {"android": "https://dc.lft.to/lastmile_qr_scan", "ios": "https://dc.lft.to/lastmile_qr_scan"}, "is_reserved": 0, "name": "d083a67d3195f48a2cc018a0a92488e4", "lon": -77.03467533333334, "type": "electric_scooter", "bike_id": "d083a67d3195f48a2cc018a0a92488e4", "fusion_lon": 0.0, "lat": 38.913894166666665, "fusion_lat": 0.0}, {"is_disabled": 0, "rental_uris": {"android": "https://dc.lft.to/lastmile_qr_scan", "ios": "https://dc.lft.to/lastmile_qr_scan"}, "is_reserved": 0, "name": "fc717417c8d5137371a25d42a1238379", "lon": -77.0467285, "type": "electric_scooter", "bike_id": "fc717417c8d5137371a25d42a1238379", "fusion_lon": 0.0, "lat": 38.915761333333336, "fusion_lat": 0.0}, {"is_disabled": 0, "rental_uris": {"android": "https://dc.lft.to/lastmile_qr_scan", "ios": "https://dc.lft.to/lastmile_qr_scan"}, "is_reserved": 0, "name": "1210b2c94e218582a7e11007fb3ee867", "lon": -77.02476066666667, "type": "electric_scooter", "bike_id": "1210b2c94e218582a7e11007fb3ee867", "fusion_lon": 0.0, "lat": 38.939041833333334, "fusion_lat": 0.0}, {"is_disabled": 0, "rental_uris": {"android": "https://dc.lft.to/lastmile_qr_scan", "ios": "https://dc.lft.to/lastmile_qr_scan"}, "is_reserved": 0, "name": "6aa7ec94d374e78b640e846d0e4d99e7", "lon": -77.3530855, "type": "electric_bike", "bike_id": "6aa7ec94d374e78b640e846d0e4d99e7", "fusion_lon": 0.0, "lat": 38.949974166666664, "fusion_lat": 0.0}, {"is_disabled": 0, "rental_uris": {"android": "https://dc.lft.to/lastmile_qr_scan", "ios": "https://dc.lft.to/lastmile_qr_scan"}, "is_reserved": 0, "name": "79d9bb109535927db8195eaa0142f95c", "lon": -77.04496133333333, "type": "electric_scooter", "bike_id": "79d9bb109535927db8195eaa0142f95c", "fusion_lon": 0.0, "lat": 38.906608, "fusion_lat": 0.0}, {"is_disabled": 0, "rental_uris": {"android": "https://dc.lft.to/lastmile_qr_scan", "ios": "https://dc.lft.to/lastmile_qr_scan"}, "is_reserved": 0, "name": "fcfba149ef49e3eca0fbe13dc5d6e616", "lon": -77.03257333333333, "type": "electric_scooter", "bike_id": "fcfba149ef49e3eca0fbe13dc5d6e616", "fusion_lon": 0.0, "lat": 38.911127, "fusion_lat": 0.0}, {"is_disabled": 0, "rental_uris": {"android": "https://dc.lft.to/lastmile_qr_scan", "ios": "https://dc.lft.to/lastmile_qr_scan"}, "is_reserved": 0, "name": "6a63e57812c4ed8b9c06d1a15dfb695d", "lon": -77.0153315, "type": "electric_scooter", "bike_id": "6a63e57812c4ed8b9c06d1a15dfb695d", "fusion_lon": 0.0, "lat": 38.88744966666667, "fusion_lat": 0.0}, {"is_disabled": 0, "rental_uris": {"android": "https://dc.lft.to/lastmile_qr_scan", "ios": "https://dc.lft.to/lastmile_qr_scan"}, "is_reserved": 0, "name": "aaec00a21b022d9b3b279e8b11cf2cd9", "lon": -77.0727915, "type": "electric_scooter", "bike_id": "aaec00a21b022d9b3b279e8b11cf2cd9", "fusion_lon": 0.0, "lat": 38.93473733333333, "fusion_lat": 0.0}, {"is_disabled": 0, "rental_uris": {"android": "https://dc.lft.to/lastmile_qr_scan", "ios": "https://dc.lft.to/lastmile_qr_scan"}, "is_reserved": 0, "name": "c09aa84b01bde0b485fdedb639bd6e83", "lon": -76.90538066666667, "type": "electric_bike", "bike_id": "c09aa84b01bde0b485fdedb639bd6e83", "fusion_lon": 0.0, "lat": 38.897343, "fusion_lat": 0.0}, {"is_disabled": 0, "rental_uris": {"android": "https://dc.lft.to/lastmile_qr_scan", "ios": "https://dc.lft.to/lastmile_qr_scan"}, "is_reserved": 0, "name": "8fc81b5d651879db445d898093c01124", "lon": -77.0141065, "type": "electric_scooter", "bike_id": "8fc81b5d651879db445d898093c01124", "fusion_lon": 0.0, "lat": 38.9140955, "fusion_lat": 0.0}, {"is_disabled": 0, "rental_uris": {"android": "https://dc.lft.to/lastmile_qr_scan", "ios": "https://dc.lft.to/lastmile_qr_scan"}, "is_reserved": 0, "name": "b6255b92162e326e72b8df56bf910266", "lon": -77.04214816666666, "type": "electric_scooter", "bike_id": "b6255b92162e326e72b8df56bf910266", "fusion_lon": 0.0, "lat": 38.914180333333334, "fusion_lat": 0.0}, {"is_disabled": 0, "rental_uris": {"android": "https://dc.lft.to/lastmile_qr_scan", "ios": "https://dc.lft.to/lastmile_qr_scan"}, "is_reserved": 0, "name": "653d981e2aa1ed2ba9d569a7080947b7", "lon": -77.03390183333333, "type": "electric_scooter", "bike_id": "653d981e2aa1ed2ba9d569a7080947b7", "fusion_lon": 0.0, "lat": 38.91262016666667, "fusion_lat": 0.0}, {"is_disabled": 0, "rental_uris": {"android": "https://dc.lft.to/lastmile_qr_scan", "ios": "https://dc.lft.to/lastmile_qr_scan"}, "is_reserved": 0, "name": "f63254cb9f990b95ec613a1330a2d07e", "lon": -77.00367333333334, "type": "electric_scooter", "bike_id": "f63254cb9f990b95ec613a1330a2d07e", "fusion_lon": 0.0, "lat": 38.8866565, "fusion_lat": 0.0}, {"is_disabled": 0, "rental_uris": {"android": "https://dc.lft.to/lastmile_qr_scan", "ios": "https://dc.lft.to/lastmile_qr_scan"}, "is_reserved": 0, "name": "77e8b96065fbf960b49d34be85e38f81", "lon": -77.01377483333333, "type": "electric_scooter", "bike_id": "77e8b96065fbf960b49d34be85e38f81", "fusion_lon": 0.0, "lat": 38.8864055, "fusion_lat": 0.0}, {"is_disabled": 0, "rental_uris": {"android": "https://dc.lft.to/lastmile_qr_scan", "ios": "https://dc.lft.to/lastmile_qr_scan"}, "is_reserved": 0, "name": "16075be20a85f1173fe6d49bdf8b6ee5", "lon": -77.04409083333333, "type": "electric_bike", "bike_id": "16075be20a85f1173fe6d49bdf8b6ee5", "fusion_lon": 0.0, "lat": 39.05206116666667, "fusion_lat": 0.0}, {"is_disabled": 0, "rental_uris": {"android": "https://dc.lft.to/lastmile_qr_scan", "ios": "https://dc.lft.to/lastmile_qr_scan"}, "is_reserved": 0, "name": "c56ec105b31aa1089a498a7efd0f3ca8", "lon": -77.04987783333333, "type": "electric_scooter", "bike_id": "c56ec105b31aa1089a498a7efd0f3ca8", "fusion_lon": 0.0, "lat": 38.9050965, "fusion_lat": 0.0}, {"is_disabled": 0, "rental_uris": {"android": "https://dc.lft.to/lastmile_qr_scan", "ios": "https://dc.lft.to/lastmile_qr_scan"}, "is_reserved": 0, "name": "10ff82aeaf188f47ab9349562f505eab", "lon": -77.01957666666667, "type": "electric_scooter", "bike_id": "10ff82aeaf188f47ab9349562f505eab", "fusion_lon": 0.0, "lat": 38.88383366666667, "fusion_lat": 0.0}, {"is_disabled": 0, "rental_uris": {"android": "https://dc.lft.to/lastmile_qr_scan", "ios": "https://dc.lft.to/lastmile_qr_scan"}, "is_reserved": 0, "name": "fa566a705ea3722b836a241ad0730885", "lon": -77.01367966666666, "type": "electric_scooter", "bike_id": "fa566a705ea3722b836a241ad0730885", "fusion_lon": 0.0, "lat": 38.92881583333333, "fusion_lat": 0.0}, {"is_disabled": 0, "rental_uris": {"android": "https://dc.lft.to/lastmile_qr_scan", "ios": "https://dc.lft.to/lastmile_qr_scan"}, "is_reserved": 0, "name": "1523dfa2c2b1d71e335609f20e87b960", "lon": -77.044307, "type": "electric_scooter", "bike_id": "1523dfa2c2b1d71e335609f20e87b960", "fusion_lon": 0.0, "lat": 38.912616, "fusion_lat": 0.0}, {"is_disabled": 0, "rental_uris": {"android": "https://dc.lft.to/lastmile_qr_scan", "ios": "https://dc.lft.to/lastmile_qr_scan"}, "is_reserved": 0, "name": "ce5b0d38ed1538f5829d9c85cdc45d41", "lon": -77.03835466666666, "type": "electric_scooter", "bike_id": "ce5b0d38ed1538f5829d9c85cdc45d41", "fusion_lon": 0.0, "lat": 38.916451, "fusion_lat": 0.0}, {"is_disabled": 0, "rental_uris": {"android": "https://dc.lft.to/lastmile_qr_scan", "ios": "https://dc.lft.to/lastmile_qr_scan"}, "is_reserved": 0, "name": "4d4814f7697ecbe45f63b15dc8721f3d", "lon": -77.0125715, "type": "electric_scooter", "bike_id": "4d4814f7697ecbe45f63b15dc8721f3d", "fusion_lon": 0.0, "lat": 38.87631716666667, "fusion_lat": 0.0}, {"is_disabled": 0, "rental_uris": {"android": "https://dc.lft.to/lastmile_qr_scan", "ios": "https://dc.lft.to/lastmile_qr_scan"}, "is_reserved": 0, "name": "2ce6b905f3ab6d3ed2d02b506bd0da1b", "lon": -77.02919466666667, "type": "electric_scooter", "bike_id": "2ce6b905f3ab6d3ed2d02b506bd0da1b", "fusion_lon": 0.0, "lat": 38.938748833333335, "fusion_lat": 0.0}, {"is_disabled": 0, "rental_uris": {"android": "https://dc.lft.to/lastmile_qr_scan", "ios": "https://dc.lft.to/lastmile_qr_scan"}, "is_reserved": 0, "name": "6d61bdd6b87b3cfe638af085764ae360", "lon": -77.02959816666667, "type": "electric_scooter", "bike_id": "6d61bdd6b87b3cfe638af085764ae360", "fusion_lon": 0.0, "lat": 38.90767533333333, "fusion_lat": 0.0}, {"is_disabled": 0, "rental_uris": {"android": "https://dc.lft.to/lastmile_qr_scan", "ios": "https://dc.lft.to/lastmile_qr_scan"}, "is_reserved": 0, "name": "d50efb98ab215326caf8139b9fbf8e89", "lon": -77.021263, "type": "electric_scooter", "bike_id": "d50efb98ab215326caf8139b9fbf8e89", "fusion_lon": 0.0, "lat": 38.88746016666666, "fusion_lat": 0.0}, {"is_disabled": 0, "rental_uris": {"android": "https://dc.lft.to/lastmile_qr_scan", "ios": "https://dc.lft.to/lastmile_qr_scan"}, "is_reserved": 0, "name": "ff78d8d86af68f00f89f45dd96a8f766", "lon": -77.035221, "type": "electric_scooter", "bike_id": "ff78d8d86af68f00f89f45dd96a8f766", "fusion_lon": 0.0, "lat": 38.935912333333334, "fusion_lat": 0.0}, {"is_disabled": 0, "rental_uris": {"android": "https://dc.lft.to/lastmile_qr_scan", "ios": "https://dc.lft.to/lastmile_qr_scan"}, "is_reserved": 0, "name": "74315b7ccfdf4ee9d9fceda057d540b9", "lon": -76.99496766666667, "type": "electric_scooter", "bike_id": "74315b7ccfdf4ee9d9fceda057d540b9", "fusion_lon": 0.0, "lat": 38.92578016666667, "fusion_lat": 0.0}, {"is_disabled": 0, "rental_uris": {"android": "https://dc.lft.to/lastmile_qr_scan", "ios": "https://dc.lft.to/lastmile_qr_scan"}, "is_reserved": 0, "name": "b355b4f95eba0da7fc4409c1b423e1a7", "lon": -77.0454985, "type": "electric_scooter", "bike_id": "b355b4f95eba0da7fc4409c1b423e1a7", "fusion_lon": 0.0, "lat": 38.91942483333333, "fusion_lat": 0.0}, {"is_disabled": 0, "rental_uris": {"android": "https://dc.lft.to/lastmile_qr_scan", "ios": "https://dc.lft.to/lastmile_qr_scan"}, "is_reserved": 0, "name": "70a8ace5a67dcc8101afee79aaeaf8e3", "lon": -77.04350983333333, "type": "electric_scooter", "bike_id": "70a8ace5a67dcc8101afee79aaeaf8e3", "fusion_lon": 0.0, "lat": 38.908483, "fusion_lat": 0.0}, {"is_disabled": 0, "rental_uris": {"android": "https://dc.lft.to/lastmile_qr_scan", "ios": "https://dc.lft.to/lastmile_qr_scan"}, "is_reserved": 0, "name": "d239ac7ba1e02cc7b87ed59102ecd16c", "lon": -76.934156, "type": "electric_bike", "bike_id": "d239ac7ba1e02cc7b87ed59102ecd16c", "fusion_lon": 0.0, "lat": 38.946253166666665, "fusion_lat": 0.0}, {"is_disabled": 0, "rental_uris": {"android": "https://dc.lft.to/lastmile_qr_scan", "ios": "https://dc.lft.to/lastmile_qr_scan"}, "is_reserved": 0, "name": "784b6fd953fe5c31e642bc0204f320b7", "lon": -77.01591216666667, "type": "electric_scooter", "bike_id": "784b6fd953fe5c31e642bc0204f320b7", "fusion_lon": 0.0, "lat": 38.876355833333335, "fusion_lat": 0.0}, {"is_disabled": 0, "rental_uris": {"android": "https://dc.lft.to/lastmile_qr_scan", "ios": "https://dc.lft.to/lastmile_qr_scan"}, "is_reserved": 0, "name": "c938a3d7b269dfe932f484270ae17980", "lon": -77.0396825, "type": "electric_scooter", "bike_id": "c938a3d7b269dfe932f484270ae17980", "fusion_lon": 0.0, "lat": 38.9315145, "fusion_lat": 0.0}, {"is_disabled": 0, "rental_uris": {"android": "https://dc.lft.to/lastmile_qr_scan", "ios": "https://dc.lft.to/lastmile_qr_scan"}, "is_reserved": 0, "name": "f1376ed8a805bdf0dae371f272c86380", "lon": -77.0597195, "type": "electric_scooter", "bike_id": "f1376ed8a805bdf0dae371f272c86380", "fusion_lon": 0.0, "lat": 38.90529133333333, "fusion_lat": 0.0}, {"is_disabled": 0, "rental_uris": {"android": "https://dc.lft.to/lastmile_qr_scan", "ios": "https://dc.lft.to/lastmile_qr_scan"}, "is_reserved": 0, "name": "88e01cc77c2ad9253d08bd8f72b3e564", "lon": -77.03734683333333, "type": "electric_scooter", "bike_id": "88e01cc77c2ad9253d08bd8f72b3e564", "fusion_lon": 0.0, "lat": 38.909789333333336, "fusion_lat": 0.0}, {"is_disabled": 0, "rental_uris": {"android": "https://dc.lft.to/lastmile_qr_scan", "ios": "https://dc.lft.to/lastmile_qr_scan"}, "is_reserved": 0, "name": "7f7bcdeefcc929dc18b0e610a04733ad", "lon": -77.02846466666666, "type": "electric_scooter", "bike_id": "7f7bcdeefcc929dc18b0e610a04733ad", "fusion_lon": 0.0, "lat": 38.934169, "fusion_lat": 0.0}, {"is_disabled": 0, "rental_uris": {"android": "https://dc.lft.to/lastmile_qr_scan", "ios": "https://dc.lft.to/lastmile_qr_scan"}, "is_reserved": 0, "name": "d98959c3ede11abbdcbaeecb14382a9e", "lon": -76.9608855, "type": "electric_bike", "bike_id": "d98959c3ede11abbdcbaeecb14382a9e", "fusion_lon": 0.0, "lat": 38.91859183333333, "fusion_lat": 0.0}, {"is_disabled": 0, "rental_uris": {"android": "https://dc.lft.to/lastmile_qr_scan", "ios": "https://dc.lft.to/lastmile_qr_scan"}, "is_reserved": 0, "name": "9d7316a00dc096555b31835c8168f1dd", "lon": -77.0638495, "type": "electric_bike", "bike_id": "9d7316a00dc096555b31835c8168f1dd", "fusion_lon": 0.0, "lat": 39.01735816666667, "fusion_lat": 0.0}, {"is_disabled": 0, "rental_uris": {"android": "https://dc.lft.to/lastmile_qr_scan", "ios": "https://dc.lft.to/lastmile_qr_scan"}, "is_reserved": 0, "name": "c8459d93d1a9dd10018b51de6c93c6ef", "lon": -77.02945833333334, "type": "electric_scooter", "bike_id": "c8459d93d1a9dd10018b51de6c93c6ef", "fusion_lon": 0.0, "lat": 38.90463966666667, "fusion_lat": 0.0}, {"is_disabled": 0, "rental_uris": {"android": "https://dc.lft.to/lastmile_qr_scan", "ios": "https://dc.lft.to/lastmile_qr_scan"}, "is_reserved": 0, "name": "88aac6d95254b803a74361b1a0074c18", "lon": -77.00845766666667, "type": "electric_scooter", "bike_id": "88aac6d95254b803a74361b1a0074c18", "fusion_lon": 0.0, "lat": 38.885007, "fusion_lat": 0.0}, {"is_disabled": 0, "rental_uris": {"android": "https://dc.lft.to/lastmile_qr_scan", "ios": "https://dc.lft.to/lastmile_qr_scan"}, "is_reserved": 0, "name": "8331f4c71aaafae3dafd9e43d87a207c", "lon": -77.0670185, "type": "electric_scooter", "bike_id": "8331f4c71aaafae3dafd9e43d87a207c", "fusion_lon": 0.0, "lat": 38.955886, "fusion_lat": 0.0}, {"is_disabled": 0, "rental_uris": {"android": "https://dc.lft.to/lastmile_qr_scan", "ios": "https://dc.lft.to/lastmile_qr_scan"}, "is_reserved": 0, "name": "5ab2a63a75f90ae6bf2748a663ae0b56", "lon": -77.02479366666667, "type": "electric_scooter", "bike_id": "5ab2a63a75f90ae6bf2748a663ae0b56", "fusion_lon": 0.0, "lat": 38.93097016666667, "fusion_lat": 0.0}, {"is_disabled": 0, "rental_uris": {"android": "https://dc.lft.to/lastmile_qr_scan", "ios": "https://dc.lft.to/lastmile_qr_scan"}, "is_reserved": 0, "name": "4bb27425744df7d3942d92c921ccf99a", "lon": -77.0308425, "type": "electric_scooter", "bike_id": "4bb27425744df7d3942d92c921ccf99a", "fusion_lon": 0.0, "lat": 38.92250283333333, "fusion_lat": 0.0}, {"is_disabled": 0, "rental_uris": {"android": "https://dc.lft.to/lastmile_qr_scan", "ios": "https://dc.lft.to/lastmile_qr_scan"}, "is_reserved": 0, "name": "c16b8d7f8d91a6683168c6217f159e52", "lon": -76.92762166666667, "type": "electric_bike", "bike_id": "c16b8d7f8d91a6683168c6217f159e52", "fusion_lon": 0.0, "lat": 38.960352666666665, "fusion_lat": 0.0}, {"is_disabled": 0, "rental_uris": {"android": "https://dc.lft.to/lastmile_qr_scan", "ios": "https://dc.lft.to/lastmile_qr_scan"}, "is_reserved": 0, "name": "d597650663eceb434bccd20c56e4b460", "lon": -77.05209833333333, "type": "electric_scooter", "bike_id": "d597650663eceb434bccd20c56e4b460", "fusion_lon": 0.0, "lat": 38.898079333333335, "fusion_lat": 0.0}, {"is_disabled": 0, "rental_uris": {"android": "https://dc.lft.to/lastmile_qr_scan", "ios": "https://dc.lft.to/lastmile_qr_scan"}, "is_reserved": 0, "name": "61896355ae8727e4d0cc597bfc9fdf6a", "lon": -77.01094183333333, "type": "electric_scooter", "bike_id": "61896355ae8727e4d0cc597bfc9fdf6a", "fusion_lon": 0.0, "lat": 38.8667445, "fusion_lat": 0.0}, {"is_disabled": 0, "rental_uris": {"android": "https://dc.lft.to/lastmile_qr_scan", "ios": "https://dc.lft.to/lastmile_qr_scan"}, "is_reserved": 0, "name": "5ff6eda7c091d9f525b0d65e1ff4e626", "lon": -77.00194816666666, "type": "electric_bike", "bike_id": "5ff6eda7c091d9f525b0d65e1ff4e626", "fusion_lon": 0.0, "lat": 38.819431333333334, "fusion_lat": 0.0}, {"is_disabled": 0, "rental_uris": {"android": "https://dc.lft.to/lastmile_qr_scan", "ios": "https://dc.lft.to/lastmile_qr_scan"}, "is_reserved": 0, "name": "2699613903a0f6cba59c4f8d5a0477da", "lon": -76.98886616666667, "type": "electric_scooter", "bike_id": "2699613903a0f6cba59c4f8d5a0477da", "fusion_lon": 0.0, "lat": 38.8667015, "fusion_lat": 0.0}, {"is_disabled": 0, "rental_uris": {"android": "https://dc.lft.to/lastmile_qr_scan", "ios": "https://dc.lft.to/lastmile_qr_scan"}, "is_reserved": 0, "name": "e1960bb847ef159a0c6808f407793a5b", "lon": -77.03344516666667, "type": "electric_scooter", "bike_id": "e1960bb847ef159a0c6808f407793a5b", "fusion_lon": 0.0, "lat": 38.89245966666667, "fusion_lat": 0.0}, {"is_disabled": 0, "rental_uris": {"android": "https://dc.lft.to/lastmile_qr_scan", "ios": "https://dc.lft.to/lastmile_qr_scan"}, "is_reserved": 0, "name": "80db52dad6cdf47fae36cf718aa36d36", "lon": -76.93543233333334, "type": "electric_bike", "bike_id": "80db52dad6cdf47fae36cf718aa36d36", "fusion_lon": 0.0, "lat": 38.9556145, "fusion_lat": 0.0}, {"is_disabled": 0, "rental_uris": {"android": "https://dc.lft.to/lastmile_qr_scan", "ios": "https://dc.lft.to/lastmile_qr_scan"}, "is_reserved": 0, "name": "fb784d41dac45e6610eda92ce12e5067", "lon": -77.07687166666666, "type": "electric_bike", "bike_id": "fb784d41dac45e6610eda92ce12e5067", "fusion_lon": 0.0, "lat": 38.83194783333333, "fusion_lat": 0.0}, {"is_disabled": 0, "rental_uris": {"android": "https://dc.lft.to/lastmile_qr_scan", "ios": "https://dc.lft.to/lastmile_qr_scan"}, "is_reserved": 0, "name": "362d90ce19e4dc28682b997fb3884077", "lon": -77.02419333333333, "type": "electric_scooter", "bike_id": "362d90ce19e4dc28682b997fb3884077", "fusion_lon": 0.0, "lat": 38.9110855, "fusion_lat": 0.0}, {"is_disabled": 0, "rental_uris": {"android": "https://dc.lft.to/lastmile_qr_scan", "ios": "https://dc.lft.to/lastmile_qr_scan"}, "is_reserved": 0, "name": "a96b968128780bae08f2c2247446325b", "lon": -77.01096783333334, "type": "electric_scooter", "bike_id": "a96b968128780bae08f2c2247446325b", "fusion_lon": 0.0, "lat": 38.9055735, "fusion_lat": 0.0}, {"is_disabled": 0, "rental_uris": {"android": "https://dc.lft.to/lastmile_qr_scan", "ios": "https://dc.lft.to/lastmile_qr_scan"}, "is_reserved": 0, "name": "52f460e9bb4144756d367f6de3cc0edf", "lon": -77.11235433333333, "type": "electric_bike", "bike_id": "52f460e9bb4144756d367f6de3cc0edf", "fusion_lon": 0.0, "lat": 38.82873933333333, "fusion_lat": 0.0}, {"is_disabled": 0, "rental_uris": {"android": "https://dc.lft.to/lastmile_qr_scan", "ios": "https://dc.lft.to/lastmile_qr_scan"}, "is_reserved": 0, "name": "97b9a7eacc07a6d051ed23b24cfeaf1f", "lon": -77.04860816666667, "type": "electric_scooter", "bike_id": "97b9a7eacc07a6d051ed23b24cfeaf1f", "fusion_lon": 0.0, "lat": 38.913387, "fusion_lat": 0.0}, {"is_disabled": 0, "rental_uris": {"android": "https://dc.lft.to/lastmile_qr_scan", "ios": "https://dc.lft.to/lastmile_qr_scan"}, "is_reserved": 0, "name": "f550cae2d407cbf28fb41620f2414507", "lon": -77.019582, "type": "electric_scooter", "bike_id": "f550cae2d407cbf28fb41620f2414507", "fusion_lon": 0.0, "lat": 38.8962255, "fusion_lat": 0.0}, {"is_disabled": 0, "rental_uris": {"android": "https://dc.lft.to/lastmile_qr_scan", "ios": "https://dc.lft.to/lastmile_qr_scan"}, "is_reserved": 0, "name": "606c19caac3abd44802ef646b59db11d", "lon": -76.99656616666667, "type": "electric_scooter", "bike_id": "606c19caac3abd44802ef646b59db11d", "fusion_lon": 0.0, "lat": 38.88726883333333, "fusion_lat": 0.0}, {"is_disabled": 0, "rental_uris": {"android": "https://dc.lft.to/lastmile_qr_scan", "ios": "https://dc.lft.to/lastmile_qr_scan"}, "is_reserved": 0, "name": "9db9645520479c8a292419cd9b1897dc", "lon": -76.99527366666666, "type": "electric_scooter", "bike_id": "9db9645520479c8a292419cd9b1897dc", "fusion_lon": 0.0, "lat": 38.92065383333333, "fusion_lat": 0.0}, {"is_disabled": 0, "rental_uris": {"android": "https://dc.lft.to/lastmile_qr_scan", "ios": "https://dc.lft.to/lastmile_qr_scan"}, "is_reserved": 0, "name": "51fa8a4c421b63f33130ca4715088a84", "lon": -77.02685216666667, "type": "electric_bike", "bike_id": "51fa8a4c421b63f33130ca4715088a84", "fusion_lon": 0.0, "lat": 38.948324166666666, "fusion_lat": 0.0}, {"is_disabled": 0, "rental_uris": {"android": "https://dc.lft.to/lastmile_qr_scan", "ios": "https://dc.lft.to/lastmile_qr_scan"}, "is_reserved": 0, "name": "440c9714542ccd6c7d3845609db7107c", "lon": -77.0321325, "type": "electric_scooter", "bike_id": "440c9714542ccd6c7d3845609db7107c", "fusion_lon": 0.0, "lat": 38.914620166666666, "fusion_lat": 0.0}, {"is_disabled": 0, "rental_uris": {"android": "https://dc.lft.to/lastmile_qr_scan", "ios": "https://dc.lft.to/lastmile_qr_scan"}, "is_reserved": 0, "name": "dd005621f12c7a07b60c74dd0acab66b", "lon": -77.03467733333333, "type": "electric_scooter", "bike_id": "dd005621f12c7a07b60c74dd0acab66b", "fusion_lon": 0.0, "lat": 38.9215485, "fusion_lat": 0.0}, {"is_disabled": 0, "rental_uris": {"android": "https://dc.lft.to/lastmile_qr_scan", "ios": "https://dc.lft.to/lastmile_qr_scan"}, "is_reserved": 0, "name": "0cc5b2c9a47c269dad8f1bcc6820d070", "lon": -77.04204583333333, "type": "electric_scooter", "bike_id": "0cc5b2c9a47c269dad8f1bcc6820d070", "fusion_lon": 0.0, "lat": 38.91125683333333, "fusion_lat": 0.0}, {"is_disabled": 0, "rental_uris": {"android": "https://dc.lft.to/lastmile_qr_scan", "ios": "https://dc.lft.to/lastmile_qr_scan"}, "is_reserved": 0, "name": "4f84d0301c0b22a46849b8e186b6d7e9", "lon": -77.0710245, "type": "electric_scooter", "bike_id": "4f84d0301c0b22a46849b8e186b6d7e9", "fusion_lon": 0.0, "lat": 38.92697, "fusion_lat": 0.0}, {"is_disabled": 0, "rental_uris": {"android": "https://dc.lft.to/lastmile_qr_scan", "ios": "https://dc.lft.to/lastmile_qr_scan"}, "is_reserved": 0, "name": "6496c0d3eadb2dd5b9612f0a7fc6fc15", "lon": -77.02438083333334, "type": "electric_scooter", "bike_id": "6496c0d3eadb2dd5b9612f0a7fc6fc15", "fusion_lon": 0.0, "lat": 38.916980333333335, "fusion_lat": 0.0}, {"is_disabled": 0, "rental_uris": {"android": "https://dc.lft.to/lastmile_qr_scan", "ios": "https://dc.lft.to/lastmile_qr_scan"}, "is_reserved": 0, "name": "9f81a30d7a3b706295d6f5eeb5b32acf", "lon": -77.07840333333333, "type": "electric_scooter", "bike_id": "9f81a30d7a3b706295d6f5eeb5b32acf", "fusion_lon": 0.0, "lat": 38.9315075, "fusion_lat": 0.0}, {"is_disabled": 0, "rental_uris": {"android": "https://dc.lft.to/lastmile_qr_scan", "ios": "https://dc.lft.to/lastmile_qr_scan"}, "is_reserved": 0, "name": "718a166e05000604d6b2d75261e1a3cd", "lon": -77.12256116666667, "type": "electric_bike", "bike_id": "718a166e05000604d6b2d75261e1a3cd", "fusion_lon": 0.0, "lat": 38.887667, "fusion_lat": 0.0}, {"is_disabled": 0, "rental_uris": {"android": "https://dc.lft.to/lastmile_qr_scan", "ios": "https://dc.lft.to/lastmile_qr_scan"}, "is_reserved": 0, "name": "5d8216afeb4a011fbd44ba228f572202", "lon": -77.01383, "type": "electric_scooter", "bike_id": "5d8216afeb4a011fbd44ba228f572202", "fusion_lon": 0.0, "lat": 38.91010583333333, "fusion_lat": 0.0}, {"is_disabled": 0, "rental_uris": {"android": "https://dc.lft.to/lastmile_qr_scan", "ios": "https://dc.lft.to/lastmile_qr_scan"}, "is_reserved": 0, "name": "54827f9fd3f2c769fee46fd4ced2380b", "lon": -77.033647, "type": "electric_scooter", "bike_id": "54827f9fd3f2c769fee46fd4ced2380b", "fusion_lon": 0.0, "lat": 38.91705833333333, "fusion_lat": 0.0}, {"is_disabled": 0, "rental_uris": {"android": "https://dc.lft.to/lastmile_qr_scan", "ios": "https://dc.lft.to/lastmile_qr_scan"}, "is_reserved": 0, "name": "f9addefd1583c9a201d3b5735297e0d1", "lon": -77.01433416666667, "type": "electric_scooter", "bike_id": "f9addefd1583c9a201d3b5735297e0d1", "fusion_lon": 0.0, "lat": 38.8777445, "fusion_lat": 0.0}, {"is_disabled": 0, "rental_uris": {"android": "https://dc.lft.to/lastmile_qr_scan", "ios": "https://dc.lft.to/lastmile_qr_scan"}, "is_reserved": 0, "name": "3dbdef58939d432bab15690e9e372ebd", "lon": -77.03866116666667, "type": "electric_scooter", "bike_id": "3dbdef58939d432bab15690e9e372ebd", "fusion_lon": 0.0, "lat": 38.9170625, "fusion_lat": 0.0}, {"is_disabled": 0, "rental_uris": {"android": "https://dc.lft.to/lastmile_qr_scan", "ios": "https://dc.lft.to/lastmile_qr_scan"}, "is_reserved": 0, "name": "4e065fe64a0fb733409c85dae8e39ff5", "lon": -77.03462933333333, "type": "electric_scooter", "bike_id": "4e065fe64a0fb733409c85dae8e39ff5", "fusion_lon": 0.0, "lat": 38.90566583333333, "fusion_lat": 0.0}, {"is_disabled": 0, "rental_uris": {"android": "https://dc.lft.to/lastmile_qr_scan", "ios": "https://dc.lft.to/lastmile_qr_scan"}, "is_reserved": 0, "name": "097fdf849ca691c0c826500a29c60f58", "lon": -77.0215395, "type": "electric_scooter", "bike_id": "097fdf849ca691c0c826500a29c60f58", "fusion_lon": 0.0, "lat": 38.926019, "fusion_lat": 0.0}, {"is_disabled": 0, "rental_uris": {"android": "https://dc.lft.to/lastmile_qr_scan", "ios": "https://dc.lft.to/lastmile_qr_scan"}, "is_reserved": 0, "name": "6a1568629499a4ed486018651a5d2286", "lon": -77.00713633333334, "type": "electric_scooter", "bike_id": "6a1568629499a4ed486018651a5d2286", "fusion_lon": 0.0, "lat": 38.8849655, "fusion_lat": 0.0}, {"is_disabled": 0, "rental_uris": {"android": "https://dc.lft.to/lastmile_qr_scan", "ios": "https://dc.lft.to/lastmile_qr_scan"}, "is_reserved": 0, "name": "97b65b4ff62cf32f62d4d9299aed4d56", "lon": -77.00518166666667, "type": "electric_scooter", "bike_id": "97b65b4ff62cf32f62d4d9299aed4d56", "fusion_lon": 0.0, "lat": 38.8488095, "fusion_lat": 0.0}, {"is_disabled": 0, "rental_uris": {"android": "https://dc.lft.to/lastmile_qr_scan", "ios": "https://dc.lft.to/lastmile_qr_scan"}, "is_reserved": 0, "name": "0281e56c3a8b562b8e62edcebff5eb62", "lon": -77.05939016666666, "type": "electric_scooter", "bike_id": "0281e56c3a8b562b8e62edcebff5eb62", "fusion_lon": 0.0, "lat": 38.901352833333334, "fusion_lat": 0.0}, {"is_disabled": 0, "rental_uris": {"android": "https://dc.lft.to/lastmile_qr_scan", "ios": "https://dc.lft.to/lastmile_qr_scan"}, "is_reserved": 0, "name": "0b9ced2867c0699740f0e3a21eaeb469", "lon": -77.006698, "type": "electric_scooter", "bike_id": "0b9ced2867c0699740f0e3a21eaeb469", "fusion_lon": 0.0, "lat": 38.899806, "fusion_lat": 0.0}, {"is_disabled": 0, "rental_uris": {"android": "https://dc.lft.to/lastmile_qr_scan", "ios": "https://dc.lft.to/lastmile_qr_scan"}, "is_reserved": 0, "name": "286cdd7207c5b60f91c35aafb32c0ff6", "lon": -77.059346, "type": "electric_scooter", "bike_id": "286cdd7207c5b60f91c35aafb32c0ff6", "fusion_lon": 0.0, "lat": 38.93668783333333, "fusion_lat": 0.0}, {"is_disabled": 0, "rental_uris": {"android": "https://dc.lft.to/lastmile_qr_scan", "ios": "https://dc.lft.to/lastmile_qr_scan"}, "is_reserved": 0, "name": "a7776dca09a548834552703360956e89", "lon": -76.9489655, "type": "electric_scooter", "bike_id": "a7776dca09a548834552703360956e89", "fusion_lon": 0.0, "lat": 38.895277666666665, "fusion_lat": 0.0}, {"is_disabled": 0, "rental_uris": {"android": "https://dc.lft.to/lastmile_qr_scan", "ios": "https://dc.lft.to/lastmile_qr_scan"}, "is_reserved": 0, "name": "0bcc810da2dc9af49d125b8d987b942f", "lon": -76.999537, "type": "electric_scooter", "bike_id": "0bcc810da2dc9af49d125b8d987b942f", "fusion_lon": 0.0, "lat": 38.842897, "fusion_lat": 0.0}, {"is_disabled": 0, "rental_uris": {"android": "https://dc.lft.to/lastmile_qr_scan", "ios": "https://dc.lft.to/lastmile_qr_scan"}, "is_reserved": 0, "name": "53876f8254a7d9f6a777a6a27faa85d6", "lon": -77.04386983333333, "type": "electric_scooter", "bike_id": "53876f8254a7d9f6a777a6a27faa85d6", "fusion_lon": 0.0, "lat": 38.90583383333333, "fusion_lat": 0.0}, {"is_disabled": 0, "rental_uris": {"android": "https://dc.lft.to/lastmile_qr_scan", "ios": "https://dc.lft.to/lastmile_qr_scan"}, "is_reserved": 0, "name": "191e72eb37f37bf3c962d15f1cc9f03b", "lon": -77.02495216666667, "type": "electric_scooter", "bike_id": "191e72eb37f37bf3c962d15f1cc9f03b", "fusion_lon": 0.0, "lat": 38.9056695, "fusion_lat": 0.0}, {"is_disabled": 0, "rental_uris": {"android": "https://dc.lft.to/lastmile_qr_scan", "ios": "https://dc.lft.to/lastmile_qr_scan"}, "is_reserved": 0, "name": "8722b518997083e4a6125bd891e18996", "lon": -76.947803, "type": "electric_scooter", "bike_id": "8722b518997083e4a6125bd891e18996", "fusion_lon": 0.0, "lat": 38.884639166666666, "fusion_lat": 0.0}, {"is_disabled": 0, "rental_uris": {"android": "https://dc.lft.to/lastmile_qr_scan", "ios": "https://dc.lft.to/lastmile_qr_scan"}, "is_reserved": 0, "name": "9c75aa6eedb9214ec6986ea74065e8f5", "lon": -76.982328, "type": "electric_scooter", "bike_id": "9c75aa6eedb9214ec6986ea74065e8f5", "fusion_lon": 0.0, "lat": 38.86471433333333, "fusion_lat": 0.0}, {"is_disabled": 0, "rental_uris": {"android": "https://dc.lft.to/lastmile_qr_scan", "ios": "https://dc.lft.to/lastmile_qr_scan"}, "is_reserved": 0, "name": "947d385db3fa5b3e1dfa42b7d7170091", "lon": -77.068984, "type": "electric_scooter", "bike_id": "947d385db3fa5b3e1dfa42b7d7170091", "fusion_lon": 0.0, "lat": 38.90784383333333, "fusion_lat": 0.0}, {"is_disabled": 0, "rental_uris": {"android": "https://dc.lft.to/lastmile_qr_scan", "ios": "https://dc.lft.to/lastmile_qr_scan"}, "is_reserved": 0, "name": "f81115e817e3de9c30f4430eb94c507c", "lon": -76.98613783333333, "type": "electric_scooter", "bike_id": "f81115e817e3de9c30f4430eb94c507c", "fusion_lon": 0.0, "lat": 38.90347966666667, "fusion_lat": 0.0}, {"is_disabled": 0, "rental_uris": {"android": "https://dc.lft.to/lastmile_qr_scan", "ios": "https://dc.lft.to/lastmile_qr_scan"}, "is_reserved": 0, "name": "be0c4e4e9a5c3d2ebb8da1dd4a0d139b", "lon": -77.04999583333333, "type": "electric_scooter", "bike_id": "be0c4e4e9a5c3d2ebb8da1dd4a0d139b", "fusion_lon": 0.0, "lat": 38.89228333333333, "fusion_lat": 0.0}, {"is_disabled": 0, "rental_uris": {"android": "https://dc.lft.to/lastmile_qr_scan", "ios": "https://dc.lft.to/lastmile_qr_scan"}, "is_reserved": 0, "name": "2323233a5a805ebf91d3bdefaa24329f", "lon": -77.03719666666667, "type": "electric_scooter", "bike_id": "2323233a5a805ebf91d3bdefaa24329f", "fusion_lon": 0.0, "lat": 38.91113266666667, "fusion_lat": 0.0}, {"is_disabled": 0, "rental_uris": {"android": "https://dc.lft.to/lastmile_qr_scan", "ios": "https://dc.lft.to/lastmile_qr_scan"}, "is_reserved": 0, "name": "36efb1f9bff6ee783ed3da32012983c3", "lon": -76.99486983333334, "type": "electric_scooter", "bike_id": "36efb1f9bff6ee783ed3da32012983c3", "fusion_lon": 0.0, "lat": 38.86237466666667, "fusion_lat": 0.0}, {"is_disabled": 0, "rental_uris": {"android": "https://dc.lft.to/lastmile_qr_scan", "ios": "https://dc.lft.to/lastmile_qr_scan"}, "is_reserved": 0, "name": "6108f617d3d7d27e0e8de01ce32699c5", "lon": -77.02184683333333, "type": "electric_scooter", "bike_id": "6108f617d3d7d27e0e8de01ce32699c5", "fusion_lon": 0.0, "lat": 38.895169833333334, "fusion_lat": 0.0}, {"is_disabled": 0, "rental_uris": {"android": "https://dc.lft.to/lastmile_qr_scan", "ios": "https://dc.lft.to/lastmile_qr_scan"}, "is_reserved": 0, "name": "e523ad7ac723a6e669d81c6442b05afd", "lon": -77.04355466666667, "type": "electric_scooter", "bike_id": "e523ad7ac723a6e669d81c6442b05afd", "fusion_lon": 0.0, "lat": 38.92168383333333, "fusion_lat": 0.0}, {"is_disabled": 0, "rental_uris": {"android": "https://dc.lft.to/lastmile_qr_scan", "ios": "https://dc.lft.to/lastmile_qr_scan"}, "is_reserved": 0, "name": "e19f17eea9a69551c7e2cf19dfb14a14", "lon": -77.03167666666667, "type": "electric_scooter", "bike_id": "e19f17eea9a69551c7e2cf19dfb14a14", "fusion_lon": 0.0, "lat": 38.89177516666667, "fusion_lat": 0.0}, {"is_disabled": 0, "rental_uris": {"android": "https://dc.lft.to/lastmile_qr_scan", "ios": "https://dc.lft.to/lastmile_qr_scan"}, "is_reserved": 0, "name": "1068373b9b636f908980a3910bb0f99d", "lon": -77.02780966666667, "type": "electric_scooter", "bike_id": "1068373b9b636f908980a3910bb0f99d", "fusion_lon": 0.0, "lat": 38.91017466666667, "fusion_lat": 0.0}, {"is_disabled": 0, "rental_uris": {"android": "https://dc.lft.to/lastmile_qr_scan", "ios": "https://dc.lft.to/lastmile_qr_scan"}, "is_reserved": 0, "name": "3622ebb4c442b9c13895da33e3f00d73", "lon": -77.03475266666666, "type": "electric_scooter", "bike_id": "3622ebb4c442b9c13895da33e3f00d73", "fusion_lon": 0.0, "lat": 38.921583166666665, "fusion_lat": 0.0}, {"is_disabled": 0, "rental_uris": {"android": "https://dc.lft.to/lastmile_qr_scan", "ios": "https://dc.lft.to/lastmile_qr_scan"}, "is_reserved": 0, "name": "721dccd0db7b04cd9c974987bdfed72f", "lon": -76.98614683333334, "type": "electric_scooter", "bike_id": "721dccd0db7b04cd9c974987bdfed72f", "fusion_lon": 0.0, "lat": 38.88272466666667, "fusion_lat": 0.0}, {"is_disabled": 0, "rental_uris": {"android": "https://dc.lft.to/lastmile_qr_scan", "ios": "https://dc.lft.to/lastmile_qr_scan"}, "is_reserved": 0, "name": "116c27519f9b07ca95b93ea74d03e32c", "lon": -77.032592, "type": "electric_scooter", "bike_id": "116c27519f9b07ca95b93ea74d03e32c", "fusion_lon": 0.0, "lat": 38.907146166666664, "fusion_lat": 0.0}, {"is_disabled": 0, "rental_uris": {"android": "https://dc.lft.to/lastmile_qr_scan", "ios": "https://dc.lft.to/lastmile_qr_scan"}, "is_reserved": 0, "name": "7a6bb3e42e4defb565922d133a9260a1", "lon": -76.96552283333334, "type": "electric_scooter", "bike_id": "7a6bb3e42e4defb565922d133a9260a1", "fusion_lon": 0.0, "lat": 38.9183745, "fusion_lat": 0.0}, {"is_disabled": 0, "rental_uris": {"android": "https://dc.lft.to/lastmile_qr_scan", "ios": "https://dc.lft.to/lastmile_qr_scan"}, "is_reserved": 0, "name": "cda7f7c1ad4e08f9b6d7c83292fa2fe4", "lon": -77.12734116666667, "type": "electric_bike", "bike_id": "cda7f7c1ad4e08f9b6d7c83292fa2fe4", "fusion_lon": 0.0, "lat": 38.88821133333333, "fusion_lat": 0.0}, {"is_disabled": 0, "rental_uris": {"android": "https://dc.lft.to/lastmile_qr_scan", "ios": "https://dc.lft.to/lastmile_qr_scan"}, "is_reserved": 0, "name": "aa2692016d127d9fb3de3e7111c097a0", "lon": -77.02162633333333, "type": "electric_scooter", "bike_id": "aa2692016d127d9fb3de3e7111c097a0", "fusion_lon": 0.0, "lat": 38.92612716666667, "fusion_lat": 0.0}, {"is_disabled": 0, "rental_uris": {"android": "https://dc.lft.to/lastmile_qr_scan", "ios": "https://dc.lft.to/lastmile_qr_scan"}, "is_reserved": 0, "name": "9ded6e4f6c9d24f1fb61186786479932", "lon": -77.00435766666666, "type": "electric_scooter", "bike_id": "9ded6e4f6c9d24f1fb61186786479932", "fusion_lon": 0.0, "lat": 38.83810033333334, "fusion_lat": 0.0}, {"is_disabled": 0, "rental_uris": {"android": "https://dc.lft.to/lastmile_qr_scan", "ios": "https://dc.lft.to/lastmile_qr_scan"}, "is_reserved": 0, "name": "b77b64409c0b651f97211858404e64c1", "lon": -77.02350166666666, "type": "electric_scooter", "bike_id": "b77b64409c0b651f97211858404e64c1", "fusion_lon": 0.0, "lat": 38.942908833333334, "fusion_lat": 0.0}, {"is_disabled": 0, "rental_uris": {"android": "https://dc.lft.to/lastmile_qr_scan", "ios": "https://dc.lft.to/lastmile_qr_scan"}, "is_reserved": 0, "name": "913d8a95ad18bcabc4231d41a49d6d32", "lon": -77.049796, "type": "electric_bike", "bike_id": "913d8a95ad18bcabc4231d41a49d6d32", "fusion_lon": 0.0, "lat": 38.99242683333333, "fusion_lat": 0.0}, {"is_disabled": 0, "rental_uris": {"android": "https://dc.lft.to/lastmile_qr_scan", "ios": "https://dc.lft.to/lastmile_qr_scan"}, "is_reserved": 0, "name": "03c97b74df9920df29f183f232a8079d", "lon": -77.19545583333333, "type": "electric_bike", "bike_id": "03c97b74df9920df29f183f232a8079d", "fusion_lon": 0.0, "lat": 39.115043, "fusion_lat": 0.0}, {"is_disabled": 0, "rental_uris": {"android": "https://dc.lft.to/lastmile_qr_scan", "ios": "https://dc.lft.to/lastmile_qr_scan"}, "is_reserved": 0, "name": "7528c634962cb607368333cab48d1980", "lon": -77.04671716666667, "type": "electric_scooter", "bike_id": "7528c634962cb607368333cab48d1980", "fusion_lon": 0.0, "lat": 38.915664666666665, "fusion_lat": 0.0}, {"is_disabled": 0, "rental_uris": {"android": "https://dc.lft.to/lastmile_qr_scan", "ios": "https://dc.lft.to/lastmile_qr_scan"}, "is_reserved": 0, "name": "a1453b4ce90fb30be5181d63cb94d30d", "lon": -77.05913216666667, "type": "electric_scooter", "bike_id": "a1453b4ce90fb30be5181d63cb94d30d", "fusion_lon": 0.0, "lat": 38.905410833333335, "fusion_lat": 0.0}, {"is_disabled": 0, "rental_uris": {"android": "https://dc.lft.to/lastmile_qr_scan", "ios": "https://dc.lft.to/lastmile_qr_scan"}, "is_reserved": 0, "name": "98d872d552a1906de3a4badb7d9b311d", "lon": -76.98101, "type": "electric_bike", "bike_id": "98d872d552a1906de3a4badb7d9b311d", "fusion_lon": 0.0, "lat": 38.857202666666666, "fusion_lat": 0.0}, {"is_disabled": 0, "rental_uris": {"android": "https://dc.lft.to/lastmile_qr_scan", "ios": "https://dc.lft.to/lastmile_qr_scan"}, "is_reserved": 0, "name": "829d57bee7acef74ac54409219ac3a9e", "lon": -77.03732433333333, "type": "electric_scooter", "bike_id": "829d57bee7acef74ac54409219ac3a9e", "fusion_lon": 0.0, "lat": 38.92649933333333, "fusion_lat": 0.0}, {"is_disabled": 0, "rental_uris": {"android": "https://dc.lft.to/lastmile_qr_scan", "ios": "https://dc.lft.to/lastmile_qr_scan"}, "is_reserved": 0, "name": "f72ec4513f039790af2ed5f79d32c323", "lon": -77.01766716666667, "type": "electric_scooter", "bike_id": "f72ec4513f039790af2ed5f79d32c323", "fusion_lon": 0.0, "lat": 38.88590883333333, "fusion_lat": 0.0}, {"is_disabled": 0, "rental_uris": {"android": "https://dc.lft.to/lastmile_qr_scan", "ios": "https://dc.lft.to/lastmile_qr_scan"}, "is_reserved": 0, "name": "2fae2cc94cab6f3e489ea521e8bd427a", "lon": -77.004167, "type": "electric_scooter", "bike_id": "2fae2cc94cab6f3e489ea521e8bd427a", "fusion_lon": 0.0, "lat": 38.93046116666667, "fusion_lat": 0.0}, {"is_disabled": 0, "rental_uris": {"android": "https://dc.lft.to/lastmile_qr_scan", "ios": "https://dc.lft.to/lastmile_qr_scan"}, "is_reserved": 0, "name": "e72a2a4bfbfed9990fc0ff3671e10721", "lon": -76.94632983333334, "type": "electric_scooter", "bike_id": "e72a2a4bfbfed9990fc0ff3671e10721", "fusion_lon": 0.0, "lat": 38.89844183333334, "fusion_lat": 0.0}, {"is_disabled": 0, "rental_uris": {"android": "https://dc.lft.to/lastmile_qr_scan", "ios": "https://dc.lft.to/lastmile_qr_scan"}, "is_reserved": 0, "name": "85dae689ae38cc23abd9abf7f7472d7d", "lon": -77.0241455, "type": "electric_scooter", "bike_id": "85dae689ae38cc23abd9abf7f7472d7d", "fusion_lon": 0.0, "lat": 38.9125355, "fusion_lat": 0.0}, {"is_disabled": 0, "rental_uris": {"android": "https://dc.lft.to/lastmile_qr_scan", "ios": "https://dc.lft.to/lastmile_qr_scan"}, "is_reserved": 0, "name": "f29d78705276b08639234326cfa8feb2", "lon": -77.0499855, "type": "electric_scooter", "bike_id": "f29d78705276b08639234326cfa8feb2", "fusion_lon": 0.0, "lat": 38.89726483333333, "fusion_lat": 0.0}, {"is_disabled": 0, "rental_uris": {"android": "https://dc.lft.to/lastmile_qr_scan", "ios": "https://dc.lft.to/lastmile_qr_scan"}, "is_reserved": 0, "name": "a94ebf1efe888a382058f9aa89874f22", "lon": -77.05051316666666, "type": "electric_scooter", "bike_id": "a94ebf1efe888a382058f9aa89874f22", "fusion_lon": 0.0, "lat": 38.916663666666665, "fusion_lat": 0.0}, {"is_disabled": 0, "rental_uris": {"android": "https://dc.lft.to/lastmile_qr_scan", "ios": "https://dc.lft.to/lastmile_qr_scan"}, "is_reserved": 0, "name": "e20427d001790def4c8aba3ff9904bd9", "lon": -77.00928233333333, "type": "electric_bike", "bike_id": "e20427d001790def4c8aba3ff9904bd9", "fusion_lon": 0.0, "lat": 38.97850116666667, "fusion_lat": 0.0}, {"is_disabled": 0, "rental_uris": {"android": "https://dc.lft.to/lastmile_qr_scan", "ios": "https://dc.lft.to/lastmile_qr_scan"}, "is_reserved": 0, "name": "64f15bc4461d91a3a2aae2ee43765900", "lon": -77.03309333333333, "type": "electric_scooter", "bike_id": "64f15bc4461d91a3a2aae2ee43765900", "fusion_lon": 0.0, "lat": 38.9181625, "fusion_lat": 0.0}, {"is_disabled": 0, "rental_uris": {"android": "https://dc.lft.to/lastmile_qr_scan", "ios": "https://dc.lft.to/lastmile_qr_scan"}, "is_reserved": 0, "name": "0372bbf7be1f8f82ef19464be9d96a3d", "lon": -77.02692, "type": "electric_scooter", "bike_id": "0372bbf7be1f8f82ef19464be9d96a3d", "fusion_lon": 0.0, "lat": 38.936339333333336, "fusion_lat": 0.0}, {"is_disabled": 0, "rental_uris": {"android": "https://dc.lft.to/lastmile_qr_scan", "ios": "https://dc.lft.to/lastmile_qr_scan"}, "is_reserved": 0, "name": "87418599eac02a294770c62bf75d6e97", "lon": -76.99634916666666, "type": "electric_scooter", "bike_id": "87418599eac02a294770c62bf75d6e97", "fusion_lon": 0.0, "lat": 38.900346, "fusion_lat": 0.0}, {"is_disabled": 0, "rental_uris": {"android": "https://dc.lft.to/lastmile_qr_scan", "ios": "https://dc.lft.to/lastmile_qr_scan"}, "is_reserved": 0, "name": "8028a7ef6e0ce576fff78f46734dfd9b", "lon": -77.0352205, "type": "electric_bike", "bike_id": "8028a7ef6e0ce576fff78f46734dfd9b", "fusion_lon": 0.0, "lat": 38.935916666666664, "fusion_lat": 0.0}, {"is_disabled": 0, "rental_uris": {"android": "https://dc.lft.to/lastmile_qr_scan", "ios": "https://dc.lft.to/lastmile_qr_scan"}, "is_reserved": 0, "name": "3d227887b673d74c3c4ebd28e3514896", "lon": -77.04505966666666, "type": "electric_scooter", "bike_id": "3d227887b673d74c3c4ebd28e3514896", "fusion_lon": 0.0, "lat": 38.9214175, "fusion_lat": 0.0}, {"is_disabled": 0, "rental_uris": {"android": "https://dc.lft.to/lastmile_qr_scan", "ios": "https://dc.lft.to/lastmile_qr_scan"}, "is_reserved": 0, "name": "a0e0b05152d26bc94de3601cc46ec10a", "lon": -76.98991783333334, "type": "electric_scooter", "bike_id": "a0e0b05152d26bc94de3601cc46ec10a", "fusion_lon": 0.0, "lat": 38.86431666666667, "fusion_lat": 0.0}, {"is_disabled": 0, "rental_uris": {"android": "https://dc.lft.to/lastmile_qr_scan", "ios": "https://dc.lft.to/lastmile_qr_scan"}, "is_reserved": 0, "name": "76392fe5bcf0ed911fac85b6e366f5d7", "lon": -77.0387185, "type": "electric_scooter", "bike_id": "76392fe5bcf0ed911fac85b6e366f5d7", "fusion_lon": 0.0, "lat": 38.921563166666665, "fusion_lat": 0.0}, {"is_disabled": 0, "rental_uris": {"android": "https://dc.lft.to/lastmile_qr_scan", "ios": "https://dc.lft.to/lastmile_qr_scan"}, "is_reserved": 0, "name": "da4f5c1df582e6ced3d32698dd530863", "lon": -77.0515025, "type": "electric_scooter", "bike_id": "da4f5c1df582e6ced3d32698dd530863", "fusion_lon": 0.0, "lat": 38.897764333333335, "fusion_lat": 0.0}, {"is_disabled": 0, "rental_uris": {"android": "https://dc.lft.to/lastmile_qr_scan", "ios": "https://dc.lft.to/lastmile_qr_scan"}, "is_reserved": 0, "name": "559f88a126d70acebd8928fccaddb173", "lon": -77.03179416666667, "type": "electric_scooter", "bike_id": "559f88a126d70acebd8928fccaddb173", "fusion_lon": 0.0, "lat": 38.89384316666667, "fusion_lat": 0.0}, {"is_disabled": 0, "rental_uris": {"android": "https://dc.lft.to/lastmile_qr_scan", "ios": "https://dc.lft.to/lastmile_qr_scan"}, "is_reserved": 0, "name": "e513cfdf64e9620a2c9ac6a4469c3a64", "lon": -77.03838516666667, "type": "electric_scooter", "bike_id": "e513cfdf64e9620a2c9ac6a4469c3a64", "fusion_lon": 0.0, "lat": 38.92160783333333, "fusion_lat": 0.0}, {"is_disabled": 0, "rental_uris": {"android": "https://dc.lft.to/lastmile_qr_scan", "ios": "https://dc.lft.to/lastmile_qr_scan"}, "is_reserved": 0, "name": "170449cab1d47f2220e683f755a624d5", "lon": -77.04188866666667, "type": "electric_scooter", "bike_id": "170449cab1d47f2220e683f755a624d5", "fusion_lon": 0.0, "lat": 38.92623433333333, "fusion_lat": 0.0}, {"is_disabled": 0, "rental_uris": {"android": "https://dc.lft.to/lastmile_qr_scan", "ios": "https://dc.lft.to/lastmile_qr_scan"}, "is_reserved": 0, "name": "15c5048dbed328db4daae961b17973fc", "lon": -77.04307416666667, "type": "electric_scooter", "bike_id": "15c5048dbed328db4daae961b17973fc", "fusion_lon": 0.0, "lat": 38.918710833333336, "fusion_lat": 0.0}, {"is_disabled": 0, "rental_uris": {"android": "https://dc.lft.to/lastmile_qr_scan", "ios": "https://dc.lft.to/lastmile_qr_scan"}, "is_reserved": 0, "name": "feaa61c82a3b42d3208da02f6adb3411", "lon": -77.03118333333333, "type": "electric_scooter", "bike_id": "feaa61c82a3b42d3208da02f6adb3411", "fusion_lon": 0.0, "lat": 38.923856, "fusion_lat": 0.0}, {"is_disabled": 0, "rental_uris": {"android": "https://dc.lft.to/lastmile_qr_scan", "ios": "https://dc.lft.to/lastmile_qr_scan"}, "is_reserved": 0, "name": "0b90fbf38b4fb2e983f7f0c664b2c0fd", "lon": -77.0575495, "type": "electric_bike", "bike_id": "0b90fbf38b4fb2e983f7f0c664b2c0fd", "fusion_lon": 0.0, "lat": 38.92438766666667, "fusion_lat": 0.0}, {"is_disabled": 0, "rental_uris": {"android": "https://dc.lft.to/lastmile_qr_scan", "ios": "https://dc.lft.to/lastmile_qr_scan"}, "is_reserved": 0, "name": "a87336d02163e5cf0b792904089030ae", "lon": -77.01187216666666, "type": "electric_scooter", "bike_id": "a87336d02163e5cf0b792904089030ae", "fusion_lon": 0.0, "lat": 38.9001145, "fusion_lat": 0.0}, {"is_disabled": 0, "rental_uris": {"android": "https://dc.lft.to/lastmile_qr_scan", "ios": "https://dc.lft.to/lastmile_qr_scan"}, "is_reserved": 0, "name": "a9d9a5996318f41557bd2b4c5dc8e4ab", "lon": -77.022254, "type": "electric_scooter", "bike_id": "a9d9a5996318f41557bd2b4c5dc8e4ab", "fusion_lon": 0.0, "lat": 38.89221083333333, "fusion_lat": 0.0}, {"is_disabled": 0, "rental_uris": {"android": "https://dc.lft.to/lastmile_qr_scan", "ios": "https://dc.lft.to/lastmile_qr_scan"}, "is_reserved": 0, "name": "6d4108347a7e9b90e446ff400fc315b2", "lon": -77.0056895, "type": "electric_scooter", "bike_id": "6d4108347a7e9b90e446ff400fc315b2", "fusion_lon": 0.0, "lat": 38.9280965, "fusion_lat": 0.0}, {"is_disabled": 0, "rental_uris": {"android": "https://dc.lft.to/lastmile_qr_scan", "ios": "https://dc.lft.to/lastmile_qr_scan"}, "is_reserved": 0, "name": "66638e89b4f9f2766bc6592d8c63a8c0", "lon": -77.01010266666667, "type": "electric_scooter", "bike_id": "66638e89b4f9f2766bc6592d8c63a8c0", "fusion_lon": 0.0, "lat": 38.8796525, "fusion_lat": 0.0}, {"is_disabled": 0, "rental_uris": {"android": "https://dc.lft.to/lastmile_qr_scan", "ios": "https://dc.lft.to/lastmile_qr_scan"},