{"data": {"bikes": [{"fusion_lon": 0.0, "bike_id": "5230e805c1948c585f70cffbabdd1f38", "is_disabled": 0, "is_reserved": 0, "lat": 38.94349616666667, "name": "5230e805c1948c585f70cffbabdd1f38", "rental_uris": {"ios": "https://dc.lft.to/lastmile_qr_scan", "android": "https://dc.lft.to/lastmile_qr_scan"}, "type": "electric_scooter", "fusion_lat": 0.0, "lon": -77.02595866666667}, {"fusion_lon": 0.0, "bike_id": "030c5d0b7ed7d2d82c16f85a79ba3774", "is_disabled": 0, "is_reserved": 0, "lat": 38.94273583333333, "name": "030c5d0b7ed7d2d82c16f85a79ba3774", "rental_uris": {"ios": "https://dc.lft.to/lastmile_qr_scan", "android": "https://dc.lft.to/lastmile_qr_scan"}, "type": "electric_scooter", "fusion_lat": 0.0, "lon": -77.02935483333333}, {"fusion_lon": 0.0, "bike_id": "8cee2c57be66acd158ca270516cfcbbc", "is_disabled": 0, "is_reserved": 0, "lat": 38.925070166666664, "name": "8cee2c57be66acd158ca270516cfcbbc", "rental_uris": {"ios": "https://dc.lft.to/lastmile_qr_scan", "android": "https://dc.lft.to/lastmile_qr_scan"}, "type": "electric_scooter", "fusion_lat": 0.0, "lon": -77.021623}, {"fusion_lon": 0.0, "bike_id": "b261cc98b4ec2b82df5bcdaab067accf", "is_disabled": 0, "is_reserved": 0, "lat": 38.90968183333333, "name": "b261cc98b4ec2b82df5bcdaab067accf", "rental_uris": {"ios": "https://dc.lft.to/lastmile_qr_scan", "android": "https://dc.lft.to/lastmile_qr_scan"}, "type": "electric_scooter", "fusion_lat": 0.0, "lon": -77.03349583333333}, {"fusion_lon": 0.0, "bike_id": "3f586d88fcdde985d60f545738534964", "is_disabled": 0, "is_reserved": 0, "lat": 38.922435, "name": "3f586d88fcdde985d60f545738534964", "rental_uris": {"ios": "https://dc.lft.to/lastmile_qr_scan", "android": "https://dc.lft.to/lastmile_qr_scan"}, "type": "electric_scooter", "fusion_lat": 0.0, "lon": -77.02824116666666}, {"fusion_lon": 0.0, "bike_id": "42db2d2c4f2f6dcf22a16e49690c25c6", "is_disabled": 0, "is_reserved": 0, "lat": 38.90085233333333, "name": "42db2d2c4f2f6dcf22a16e49690c25c6", "rental_uris": {"ios": "https://dc.lft.to/lastmile_qr_scan", "android": "https://dc.lft.to/lastmile_qr_scan"}, "type": "electric_scooter", "fusion_lat": 0.0, "lon": -77.04760316666666}, {"fusion_lon": 0.0, "bike_id": "ded616cddb4efa2cb84e872124aefc67", "is_disabled": 0, "is_reserved": 0, "lat": 38.927107166666666, "name": "ded616cddb4efa2cb84e872124aefc67", "rental_uris": {"ios": "https://dc.lft.to/lastmile_qr_scan", "android": "https://dc.lft.to/lastmile_qr_scan"}, "type": "electric_scooter", "fusion_lat": 0.0, "lon": -77.021029}, {"fusion_lon": 0.0, "bike_id": "9b8af7024f2f3797ae013fbd1a9ae548", "is_disabled": 0, "is_reserved": 0, "lat": 38.90091783333333, "name": "9b8af7024f2f3797ae013fbd1a9ae548", "rental_uris": {"ios": "https://dc.lft.to/lastmile_qr_scan", "android": "https://dc.lft.to/lastmile_qr_scan"}, "type": "electric_scooter", "fusion_lat": 0.0, "lon": -77.01626966666667}, {"fusion_lon": 0.0, "bike_id": "e77791a6b83aa9214d6ed126bf311cc8", "is_disabled": 0, "is_reserved": 0, "lat": 38.9175675, "name": "e77791a6b83aa9214d6ed126bf311cc8", "rental_uris": {"ios": "https://dc.lft.to/lastmile_qr_scan", "android": "https://dc.lft.to/lastmile_qr_scan"}, "type": "electric_scooter", "fusion_lat": 0.0, "lon": -77.02388516666667}, {"fusion_lon": 0.0, "bike_id": "e75673e8d3f6325afb7bf2bf768f4322", "is_disabled": 0, "is_reserved": 0, "lat": 38.932042333333335, "name": "e75673e8d3f6325afb7bf2bf768f4322", "rental_uris": {"ios": "https://dc.lft.to/lastmile_qr_scan", "android": "https://dc.lft.to/lastmile_qr_scan"}, "type": "electric_scooter", "fusion_lat": 0.0, "lon": -77.03749966666666}, {"fusion_lon": 0.0, "bike_id": "10ddbc0dbab67ccaca51f3d239608186", "is_disabled": 0, "is_reserved": 0, "lat": 38.958549833333336, "name": "10ddbc0dbab67ccaca51f3d239608186", "rental_uris": {"ios": "https://dc.lft.to/lastmile_qr_scan", "android": "https://dc.lft.to/lastmile_qr_scan"}, "type": "electric_scooter", "fusion_lat": 0.0, "lon": -77.0717175}, {"fusion_lon": 0.0, "bike_id": "f4e8913aa5ee77363b61c6872d621986", "is_disabled": 0, "is_reserved": 0, "lat": 38.905059666666666, "name": "f4e8913aa5ee77363b61c6872d621986", "rental_uris": {"ios": "https://dc.lft.to/lastmile_qr_scan", "android": "https://dc.lft.to/lastmile_qr_scan"}, "type": "electric_scooter", "fusion_lat": 0.0, "lon": -77.029567}, {"fusion_lon": 0.0, "bike_id": "89e0a991314bb0f1665436c23949ff51", "is_disabled": 0, "is_reserved": 0, "lat": 38.9051335, "name": "89e0a991314bb0f1665436c23949ff51", "rental_uris": {"ios": "https://dc.lft.to/lastmile_qr_scan", "android": "https://dc.lft.to/lastmile_qr_scan"}, "type": "electric_scooter", "fusion_lat": 0.0, "lon": -76.98399316666666}, {"fusion_lon": 0.0, "bike_id": "c18f542f4fe26364513d3d73c984bcbf", "is_disabled": 0, "is_reserved": 0, "lat": 38.90749, "name": "c18f542f4fe26364513d3d73c984bcbf", "rental_uris": {"ios": "https://dc.lft.to/lastmile_qr_scan", "android": "https://dc.lft.to/lastmile_qr_scan"}, "type": "electric_scooter", "fusion_lat": 0.0, "lon": -77.045392}, {"fusion_lon": 0.0, "bike_id": "e50f7baf2c8d4f46878efee4b8a9371f", "is_disabled": 0, "is_reserved": 0, "lat": 38.913518, "name": "e50f7baf2c8d4f46878efee4b8a9371f", "rental_uris": {"ios": "https://dc.lft.to/lastmile_qr_scan", "android": "https://dc.lft.to/lastmile_qr_scan"}, "type": "electric_scooter", "fusion_lat": 0.0, "lon": -77.031816}, {"fusion_lon": 0.0, "bike_id": "9e46505e2d6a1e8934d4857c6cf03a4b", "is_disabled": 0, "is_reserved": 0, "lat": 38.822117166666665, "name": "9e46505e2d6a1e8934d4857c6cf03a4b", "rental_uris": {"ios": "https://dc.lft.to/lastmile_qr_scan", "android": "https://dc.lft.to/lastmile_qr_scan"}, "type": "electric_bike", "fusion_lat": 0.0, "lon": -76.977116}, {"fusion_lon": 0.0, "bike_id": "ea57212b72fe43994b476b111c41e0fe", "is_disabled": 0, "is_reserved": 0, "lat": 38.94511983333334, "name": "ea57212b72fe43994b476b111c41e0fe", "rental_uris": {"ios": "https://dc.lft.to/lastmile_qr_scan", "android": "https://dc.lft.to/lastmile_qr_scan"}, "type": "electric_bike", "fusion_lat": 0.0, "lon": -77.00677416666667}, {"fusion_lon": 0.0, "bike_id": "ff8c67d9e8d17d10a8672972dfcdc52b", "is_disabled": 0, "is_reserved": 0, "lat": 38.91559633333333, "name": "ff8c67d9e8d17d10a8672972dfcdc52b", "rental_uris": {"ios": "https://dc.lft.to/lastmile_qr_scan", "android": "https://dc.lft.to/lastmile_qr_scan"}, "type": "electric_scooter", "fusion_lat": 0.0, "lon": -77.03218633333333}, {"fusion_lon": 0.0, "bike_id": "908a9c0702b1bb299d74487018631fb9", "is_disabled": 0, "is_reserved": 0, "lat": 38.90039516666667, "name": "908a9c0702b1bb299d74487018631fb9", "rental_uris": {"ios": "https://dc.lft.to/lastmile_qr_scan", "android": "https://dc.lft.to/lastmile_qr_scan"}, "type": "electric_scooter", "fusion_lat": 0.0, "lon": -76.988433}, {"fusion_lon": 0.0, "bike_id": "72f1088f3ae15f675ba9352369b3bdc2", "is_disabled": 0, "is_reserved": 0, "lat": 38.907999333333336, "name": "72f1088f3ae15f675ba9352369b3bdc2", "rental_uris": {"ios": "https://dc.lft.to/lastmile_qr_scan", "android": "https://dc.lft.to/lastmile_qr_scan"}, "type": "electric_scooter", "fusion_lat": 0.0, "lon": -77.00959433333334}, {"fusion_lon": 0.0, "bike_id": "0bea94e29d1bc28c7d08d30074533cdc", "is_disabled": 0, "is_reserved": 0, "lat": 38.91403833333333, "name": "0bea94e29d1bc28c7d08d30074533cdc", "rental_uris": {"ios": "https://dc.lft.to/lastmile_qr_scan", "android": "https://dc.lft.to/lastmile_qr_scan"}, "type": "electric_scooter", "fusion_lat": 0.0, "lon": -77.0306745}, {"fusion_lon": 0.0, "bike_id": "edd0c4d8226e5ba3aad53694ced7641a", "is_disabled": 0, "is_reserved": 0, "lat": 38.91960183333333, "name": "edd0c4d8226e5ba3aad53694ced7641a", "rental_uris": {"ios": "https://dc.lft.to/lastmile_qr_scan", "android": "https://dc.lft.to/lastmile_qr_scan"}, "type": "electric_scooter", "fusion_lat": 0.0, "lon": -77.0259535}, {"fusion_lon": 0.0, "bike_id": "bc0d683be4432500feaf673070029837", "is_disabled": 0, "is_reserved": 0, "lat": 38.922273833333335, "name": "bc0d683be4432500feaf673070029837", "rental_uris": {"ios": "https://dc.lft.to/lastmile_qr_scan", "android": "https://dc.lft.to/lastmile_qr_scan"}, "type": "electric_scooter", "fusion_lat": 0.0, "lon": -77.04307416666667}, {"fusion_lon": 0.0, "bike_id": "b7069a3046faffaa24949f78b8f5ec3e", "is_disabled": 0, "is_reserved": 0, "lat": 38.912563666666664, "name": "b7069a3046faffaa24949f78b8f5ec3e", "rental_uris": {"ios": "https://dc.lft.to/lastmile_qr_scan", "android": "https://dc.lft.to/lastmile_qr_scan"}, "type": "electric_scooter", "fusion_lat": 0.0, "lon": -77.0145875}, {"fusion_lon": 0.0, "bike_id": "892fba850bcd2c449f326984e3384e22", "is_disabled": 0, "is_reserved": 0, "lat": 38.9056125, "name": "892fba850bcd2c449f326984e3384e22", "rental_uris": {"ios": "https://dc.lft.to/lastmile_qr_scan", "android": "https://dc.lft.to/lastmile_qr_scan"}, "type": "electric_scooter", "fusion_lat": 0.0, "lon": -76.99792616666667}, {"fusion_lon": 0.0, "bike_id": "87b25d241e35a4b5a61756f1a5a6f3b1", "is_disabled": 0, "is_reserved": 0, "lat": 38.95187466666667, "name": "87b25d241e35a4b5a61756f1a5a6f3b1", "rental_uris": {"ios": "https://dc.lft.to/lastmile_qr_scan", "android": "https://dc.lft.to/lastmile_qr_scan"}, "type": "electric_scooter", "fusion_lat": 0.0, "lon": -77.026119}, {"fusion_lon": 0.0, "bike_id": "212dd9e2cbcc8e00ef3d3ebc0e7155be", "is_disabled": 0, "is_reserved": 0, "lat": 38.9168865, "name": "212dd9e2cbcc8e00ef3d3ebc0e7155be", "rental_uris": {"ios": "https://dc.lft.to/lastmile_qr_scan", "android": "https://dc.lft.to/lastmile_qr_scan"}, "type": "electric_scooter", "fusion_lat": 0.0, "lon": -77.01214366666666}, {"fusion_lon": 0.0, "bike_id": "be71e3a7f247f2ca6950cf7af4945fe2", "is_disabled": 0, "is_reserved": 0, "lat": 38.92814216666667, "name": "be71e3a7f247f2ca6950cf7af4945fe2", "rental_uris": {"ios": "https://dc.lft.to/lastmile_qr_scan", "android": "https://dc.lft.to/lastmile_qr_scan"}, "type": "electric_scooter", "fusion_lat": 0.0, "lon": -77.03645483333334}, {"fusion_lon": 0.0, "bike_id": "95f0d9a8940fbf2e820be935828b696f", "is_disabled": 0, "is_reserved": 0, "lat": 38.90034283333333, "name": "95f0d9a8940fbf2e820be935828b696f", "rental_uris": {"ios": "https://dc.lft.to/lastmile_qr_scan", "android": "https://dc.lft.to/lastmile_qr_scan"}, "type": "electric_scooter", "fusion_lat": 0.0, "lon": -77.03966616666666}, {"fusion_lon": 0.0, "bike_id": "abef6ba5eb295a31a654f955ab7e7ad7", "is_disabled": 0, "is_reserved": 0, "lat": 38.95151383333334, "name": "abef6ba5eb295a31a654f955ab7e7ad7", "rental_uris": {"ios": "https://dc.lft.to/lastmile_qr_scan", "android": "https://dc.lft.to/lastmile_qr_scan"}, "type": "electric_scooter", "fusion_lat": 0.0, "lon": -77.01867516666667}, {"fusion_lon": 0.0, "bike_id": "8b502b395a1ca15b89f8080345062a7e", "is_disabled": 0, "is_reserved": 0, "lat": 38.926119666666665, "name": "8b502b395a1ca15b89f8080345062a7e", "rental_uris": {"ios": "https://dc.lft.to/lastmile_qr_scan", "android": "https://dc.lft.to/lastmile_qr_scan"}, "type": "electric_scooter", "fusion_lat": 0.0, "lon": -77.05705316666666}, {"fusion_lon": 0.0, "bike_id": "c9a0c4d0628263c016d2299e254f326a", "is_disabled": 0, "is_reserved": 0, "lat": 38.90229816666667, "name": "c9a0c4d0628263c016d2299e254f326a", "rental_uris": {"ios": "https://dc.lft.to/lastmile_qr_scan", "android": "https://dc.lft.to/lastmile_qr_scan"}, "type": "electric_scooter", "fusion_lat": 0.0, "lon": -77.05137533333334}, {"fusion_lon": 0.0, "bike_id": "9037c0c4cb8a0c5192f8df67f7ed377d", "is_disabled": 0, "is_reserved": 0, "lat": 38.91564316666667, "name": "9037c0c4cb8a0c5192f8df67f7ed377d", "rental_uris": {"ios": "https://dc.lft.to/lastmile_qr_scan", "android": "https://dc.lft.to/lastmile_qr_scan"}, "type": "electric_scooter", "fusion_lat": 0.0, "lon": -77.032719}, {"fusion_lon": 0.0, "bike_id": "e0dfef86228c132d950c41e32248c426", "is_disabled": 0, "is_reserved": 0, "lat": 38.9206085, "name": "e0dfef86228c132d950c41e32248c426", "rental_uris": {"ios": "https://dc.lft.to/lastmile_qr_scan", "android": "https://dc.lft.to/lastmile_qr_scan"}, "type": "electric_scooter", "fusion_lat": 0.0, "lon": -77.01719166666666}, {"fusion_lon": 0.0, "bike_id": "b4c5e88795185772b3f2e07cb49b0d26", "is_disabled": 0, "is_reserved": 0, "lat": 38.923262666666666, "name": "b4c5e88795185772b3f2e07cb49b0d26", "rental_uris": {"ios": "https://dc.lft.to/lastmile_qr_scan", "android": "https://dc.lft.to/lastmile_qr_scan"}, "type": "electric_scooter", "fusion_lat": 0.0, "lon": -77.0366925}, {"fusion_lon": 0.0, "bike_id": "5c9dca1d7da54fbb52a2fefe96c13fa7", "is_disabled": 0, "is_reserved": 0, "lat": 38.913487333333336, "name": "5c9dca1d7da54fbb52a2fefe96c13fa7", "rental_uris": {"ios": "https://dc.lft.to/lastmile_qr_scan", "android": "https://dc.lft.to/lastmile_qr_scan"}, "type": "electric_scooter", "fusion_lat": 0.0, "lon": -77.03187033333333}, {"fusion_lon": 0.0, "bike_id": "8c3a22fabbb668fd95b70cba11a77628", "is_disabled": 0, "is_reserved": 0, "lat": 38.917012, "name": "8c3a22fabbb668fd95b70cba11a77628", "rental_uris": {"ios": "https://dc.lft.to/lastmile_qr_scan", "android": "https://dc.lft.to/lastmile_qr_scan"}, "type": "electric_scooter", "fusion_lat": 0.0, "lon": -77.03768516666666}, {"fusion_lon": 0.0, "bike_id": "07e1f888a898c814b0d1f1adfcf86735", "is_disabled": 0, "is_reserved": 0, "lat": 38.924860333333335, "name": "07e1f888a898c814b0d1f1adfcf86735", "rental_uris": {"ios": "https://dc.lft.to/lastmile_qr_scan", "android": "https://dc.lft.to/lastmile_qr_scan"}, "type": "electric_scooter", "fusion_lat": 0.0, "lon": -77.05760566666666}, {"fusion_lon": 0.0, "bike_id": "d3d89f2d094251e5d887789dcd826bf6", "is_disabled": 0, "is_reserved": 0, "lat": 38.90037266666667, "name": "d3d89f2d094251e5d887789dcd826bf6", "rental_uris": {"ios": "https://dc.lft.to/lastmile_qr_scan", "android": "https://dc.lft.to/lastmile_qr_scan"}, "type": "electric_scooter", "fusion_lat": 0.0, "lon": -76.99841016666667}, {"fusion_lon": 0.0, "bike_id": "5478ed50c38625ed6f745f7a83f167a7", "is_disabled": 0, "is_reserved": 0, "lat": 38.911090333333334, "name": "5478ed50c38625ed6f745f7a83f167a7", "rental_uris": {"ios": "https://dc.lft.to/lastmile_qr_scan", "android": "https://dc.lft.to/lastmile_qr_scan"}, "type": "electric_scooter", "fusion_lat": 0.0, "lon": -77.03831716666667}, {"fusion_lon": 0.0, "bike_id": "657ae43267950e0766d80ceac57c2131", "is_disabled": 0, "is_reserved": 0, "lat": 38.89977433333333, "name": "657ae43267950e0766d80ceac57c2131", "rental_uris": {"ios": "https://dc.lft.to/lastmile_qr_scan", "android": "https://dc.lft.to/lastmile_qr_scan"}, "type": "electric_scooter", "fusion_lat": 0.0, "lon": -76.99487366666666}, {"fusion_lon": 0.0, "bike_id": "8c8351242d294c538d8b9ef041211f21", "is_disabled": 0, "is_reserved": 0, "lat": 38.87752533333333, "name": "8c8351242d294c538d8b9ef041211f21", "rental_uris": {"ios": "https://dc.lft.to/lastmile_qr_scan", "android": "https://dc.lft.to/lastmile_qr_scan"}, "type": "electric_scooter", "fusion_lat": 0.0, "lon": -77.0190275}, {"fusion_lon": 0.0, "bike_id": "3ce9a3b5685c8d6053d67175b84dc081", "is_disabled": 0, "is_reserved": 0, "lat": 38.90736, "name": "3ce9a3b5685c8d6053d67175b84dc081", "rental_uris": {"ios": "https://dc.lft.to/lastmile_qr_scan", "android": "https://dc.lft.to/lastmile_qr_scan"}, "type": "electric_bike", "fusion_lat": 0.0, "lon": -77.00297533333334}, {"fusion_lon": 0.0, "bike_id": "26bcb558333d0b1475776e35cac26b71", "is_disabled": 0, "is_reserved": 0, "lat": 38.919107, "name": "26bcb558333d0b1475776e35cac26b71", "rental_uris": {"ios": "https://dc.lft.to/lastmile_qr_scan", "android": "https://dc.lft.to/lastmile_qr_scan"}, "type": "electric_scooter", "fusion_lat": 0.0, "lon": -77.046318}, {"fusion_lon": 0.0, "bike_id": "0424d1df04715f5d29eac16f74a65cea", "is_disabled": 0, "is_reserved": 0, "lat": 38.966965333333334, "name": "0424d1df04715f5d29eac16f74a65cea", "rental_uris": {"ios": "https://dc.lft.to/lastmile_qr_scan", "android": "https://dc.lft.to/lastmile_qr_scan"}, "type": "electric_scooter", "fusion_lat": 0.0, "lon": -77.03400333333333}, {"fusion_lon": 0.0, "bike_id": "a1b25c481dca4504d220504c5efd2c7f", "is_disabled": 0, "is_reserved": 0, "lat": 38.881772, "name": "a1b25c481dca4504d220504c5efd2c7f", "rental_uris": {"ios": "https://dc.lft.to/lastmile_qr_scan", "android": "https://dc.lft.to/lastmile_qr_scan"}, "type": "electric_scooter", "fusion_lat": 0.0, "lon": -77.017492}, {"fusion_lon": 0.0, "bike_id": "2b27cdc4a11c0faf6ba52f914113ffcc", "is_disabled": 0, "is_reserved": 0, "lat": 38.9018195, "name": "2b27cdc4a11c0faf6ba52f914113ffcc", "rental_uris": {"ios": "https://dc.lft.to/lastmile_qr_scan", "android": "https://dc.lft.to/lastmile_qr_scan"}, "type": "electric_scooter", "fusion_lat": 0.0, "lon": -77.05128016666667}, {"fusion_lon": 0.0, "bike_id": "f6514b33b8954b1af673cf3645400287", "is_disabled": 0, "is_reserved": 0, "lat": 38.967798333333334, "name": "f6514b33b8954b1af673cf3645400287", "rental_uris": {"ios": "https://dc.lft.to/lastmile_qr_scan", "android": "https://dc.lft.to/lastmile_qr_scan"}, "type": "electric_bike", "fusion_lat": 0.0, "lon": -76.99658216666667}, {"fusion_lon": 0.0, "bike_id": "645ed871ba60ae1cdd80bc0577fa87e6", "is_disabled": 0, "is_reserved": 0, "lat": 38.911079666666666, "name": "645ed871ba60ae1cdd80bc0577fa87e6", "rental_uris": {"ios": "https://dc.lft.to/lastmile_qr_scan", "android": "https://dc.lft.to/lastmile_qr_scan"}, "type": "electric_scooter", "fusion_lat": 0.0, "lon": -77.01145816666667}, {"fusion_lon": 0.0, "bike_id": "452959a22878d57bbf2933708408b8c2", "is_disabled": 0, "is_reserved": 0, "lat": 38.8996185, "name": "452959a22878d57bbf2933708408b8c2", "rental_uris": {"ios": "https://dc.lft.to/lastmile_qr_scan", "android": "https://dc.lft.to/lastmile_qr_scan"}, "type": "electric_scooter", "fusion_lat": 0.0, "lon": -76.99491266666666}, {"fusion_lon": 0.0, "bike_id": "20ad98a672794a23c55fa917304fb727", "is_disabled": 0, "is_reserved": 0, "lat": 38.898553166666666, "name": "20ad98a672794a23c55fa917304fb727", "rental_uris": {"ios": "https://dc.lft.to/lastmile_qr_scan", "android": "https://dc.lft.to/lastmile_qr_scan"}, "type": "electric_scooter", "fusion_lat": 0.0, "lon": -77.0466505}, {"fusion_lon": 0.0, "bike_id": "cdf2e3406ead06f71c02f831c03eb991", "is_disabled": 0, "is_reserved": 0, "lat": 38.947379, "name": "cdf2e3406ead06f71c02f831c03eb991", "rental_uris": {"ios": "https://dc.lft.to/lastmile_qr_scan", "android": "https://dc.lft.to/lastmile_qr_scan"}, "type": "electric_scooter", "fusion_lat": 0.0, "lon": -77.02371033333333}, {"fusion_lon": 0.0, "bike_id": "4ae35390f4280639c4ac9d63fe72859a", "is_disabled": 0, "is_reserved": 0, "lat": 38.921295, "name": "4ae35390f4280639c4ac9d63fe72859a", "rental_uris": {"ios": "https://dc.lft.to/lastmile_qr_scan", "android": "https://dc.lft.to/lastmile_qr_scan"}, "type": "electric_scooter", "fusion_lat": 0.0, "lon": -77.018766}, {"fusion_lon": 0.0, "bike_id": "a3cdc0de0f6349e8c54d5f9ab6d2e395", "is_disabled": 0, "is_reserved": 0, "lat": 38.9741135, "name": "a3cdc0de0f6349e8c54d5f9ab6d2e395", "rental_uris": {"ios": "https://dc.lft.to/lastmile_qr_scan", "android": "https://dc.lft.to/lastmile_qr_scan"}, "type": "electric_bike", "fusion_lat": 0.0, "lon": -76.98418533333333}, {"fusion_lon": 0.0, "bike_id": "66d6796fe2a9380ab4d4e36f0e629350", "is_disabled": 0, "is_reserved": 0, "lat": 38.92472683333333, "name": "66d6796fe2a9380ab4d4e36f0e629350", "rental_uris": {"ios": "https://dc.lft.to/lastmile_qr_scan", "android": "https://dc.lft.to/lastmile_qr_scan"}, "type": "electric_scooter", "fusion_lat": 0.0, "lon": -77.02203933333334}, {"fusion_lon": 0.0, "bike_id": "bc13276d9d4707e99594b7e5e5dc5332", "is_disabled": 0, "is_reserved": 0, "lat": 38.92274316666666, "name": "bc13276d9d4707e99594b7e5e5dc5332", "rental_uris": {"ios": "https://dc.lft.to/lastmile_qr_scan", "android": "https://dc.lft.to/lastmile_qr_scan"}, "type": "electric_scooter", "fusion_lat": 0.0, "lon": -77.021312}, {"fusion_lon": 0.0, "bike_id": "96f4c7cbefb64271c0a9d2ec254121be", "is_disabled": 0, "is_reserved": 0, "lat": 38.92330883333333, "name": "96f4c7cbefb64271c0a9d2ec254121be", "rental_uris": {"ios": "https://dc.lft.to/lastmile_qr_scan", "android": "https://dc.lft.to/lastmile_qr_scan"}, "type": "electric_scooter", "fusion_lat": 0.0, "lon": -77.02810216666667}, {"fusion_lon": 0.0, "bike_id": "b68fb6ca42160a0ea1e1d5afa2fed7a3", "is_disabled": 0, "is_reserved": 0, "lat": 38.94310383333333, "name": "b68fb6ca42160a0ea1e1d5afa2fed7a3", "rental_uris": {"ios": "https://dc.lft.to/lastmile_qr_scan", "android": "https://dc.lft.to/lastmile_qr_scan"}, "type": "electric_scooter", "fusion_lat": 0.0, "lon": -77.029406}, {"fusion_lon": 0.0, "bike_id": "05440016a4fae2bf02419f2f277d9c41", "is_disabled": 0, "is_reserved": 0, "lat": 38.899202, "name": "05440016a4fae2bf02419f2f277d9c41", "rental_uris": {"ios": "https://dc.lft.to/lastmile_qr_scan", "android": "https://dc.lft.to/lastmile_qr_scan"}, "type": "electric_scooter", "fusion_lat": 0.0, "lon": -77.00364433333333}, {"fusion_lon": 0.0, "bike_id": "230640de4828f07f284324549df412bb", "is_disabled": 0, "is_reserved": 0, "lat": 38.91625466666667, "name": "230640de4828f07f284324549df412bb", "rental_uris": {"ios": "https://dc.lft.to/lastmile_qr_scan", "android": "https://dc.lft.to/lastmile_qr_scan"}, "type": "electric_scooter", "fusion_lat": 0.0, "lon": -77.0050085}, {"fusion_lon": 0.0, "bike_id": "5f8331a0580e482974b4b8ac7f2fc92a", "is_disabled": 0, "is_reserved": 0, "lat": 38.92650183333333, "name": "5f8331a0580e482974b4b8ac7f2fc92a", "rental_uris": {"ios": "https://dc.lft.to/lastmile_qr_scan", "android": "https://dc.lft.to/lastmile_qr_scan"}, "type": "electric_bike", "fusion_lat": 0.0, "lon": -77.090257}, {"fusion_lon": 0.0, "bike_id": "b6b91c524711c30a229d4861b516e0a4", "is_disabled": 0, "is_reserved": 0, "lat": 38.915048, "name": "b6b91c524711c30a229d4861b516e0a4", "rental_uris": {"ios": "https://dc.lft.to/lastmile_qr_scan", "android": "https://dc.lft.to/lastmile_qr_scan"}, "type": "electric_scooter", "fusion_lat": 0.0, "lon": -77.03836466666667}, {"fusion_lon": 0.0, "bike_id": "f0eb9b9ca61dd9024c168401817ae1f1", "is_disabled": 0, "is_reserved": 0, "lat": 38.9432275, "name": "f0eb9b9ca61dd9024c168401817ae1f1", "rental_uris": {"ios": "https://dc.lft.to/lastmile_qr_scan", "android": "https://dc.lft.to/lastmile_qr_scan"}, "type": "electric_scooter", "fusion_lat": 0.0, "lon": -77.0732635}, {"fusion_lon": 0.0, "bike_id": "14129b69a85e9946a688f47e0eb1bbff", "is_disabled": 0, "is_reserved": 0, "lat": 38.92367483333334, "name": "14129b69a85e9946a688f47e0eb1bbff", "rental_uris": {"ios": "https://dc.lft.to/lastmile_qr_scan", "android": "https://dc.lft.to/lastmile_qr_scan"}, "type": "electric_scooter", "fusion_lat": 0.0, "lon": -77.03162233333333}, {"fusion_lon": 0.0, "bike_id": "155e9d7de8174d045968abef8659c5bc", "is_disabled": 0, "is_reserved": 0, "lat": 38.91571616666667, "name": "155e9d7de8174d045968abef8659c5bc", "rental_uris": {"ios": "https://dc.lft.to/lastmile_qr_scan", "android": "https://dc.lft.to/lastmile_qr_scan"}, "type": "electric_scooter", "fusion_lat": 0.0, "lon": -77.046147}, {"fusion_lon": 0.0, "bike_id": "7cd684d4e3d8ede484fc01f78913ff17", "is_disabled": 0, "is_reserved": 0, "lat": 38.8874425, "name": "7cd684d4e3d8ede484fc01f78913ff17", "rental_uris": {"ios": "https://dc.lft.to/lastmile_qr_scan", "android": "https://dc.lft.to/lastmile_qr_scan"}, "type": "electric_scooter", "fusion_lat": 0.0, "lon": -77.0320795}, {"fusion_lon": 0.0, "bike_id": "8e55facfdaa2e3a45a2ab12c5918ad3c", "is_disabled": 0, "is_reserved": 0, "lat": 38.93196433333333, "name": "8e55facfdaa2e3a45a2ab12c5918ad3c", "rental_uris": {"ios": "https://dc.lft.to/lastmile_qr_scan", "android": "https://dc.lft.to/lastmile_qr_scan"}, "type": "electric_scooter", "fusion_lat": 0.0, "lon": -77.02839533333334}, {"fusion_lon": 0.0, "bike_id": "2570eca06f3a9ffa6e9179542067bc78", "is_disabled": 0, "is_reserved": 0, "lat": 38.87928933333333, "name": "2570eca06f3a9ffa6e9179542067bc78", "rental_uris": {"ios": "https://dc.lft.to/lastmile_qr_scan", "android": "https://dc.lft.to/lastmile_qr_scan"}, "type": "electric_scooter", "fusion_lat": 0.0, "lon": -77.01325433333334}, {"fusion_lon": 0.0, "bike_id": "83cd5b7f6e57f99ed4bfaa93109ef691", "is_disabled": 0, "is_reserved": 0, "lat": 38.92498666666667, "name": "83cd5b7f6e57f99ed4bfaa93109ef691", "rental_uris": {"ios": "https://dc.lft.to/lastmile_qr_scan", "android": "https://dc.lft.to/lastmile_qr_scan"}, "type": "electric_scooter", "fusion_lat": 0.0, "lon": -77.02165933333333}, {"fusion_lon": 0.0, "bike_id": "2329da8355d2640c1a78c9e93bbb4477", "is_disabled": 0, "is_reserved": 0, "lat": 38.9202685, "name": "2329da8355d2640c1a78c9e93bbb4477", "rental_uris": {"ios": "https://dc.lft.to/lastmile_qr_scan", "android": "https://dc.lft.to/lastmile_qr_scan"}, "type": "electric_scooter", "fusion_lat": 0.0, "lon": -77.041858}, {"fusion_lon": 0.0, "bike_id": "4130fe1a4960e74d9aa626670d31035d", "is_disabled": 0, "is_reserved": 0, "lat": 38.90890233333333, "name": "4130fe1a4960e74d9aa626670d31035d", "rental_uris": {"ios": "https://dc.lft.to/lastmile_qr_scan", "android": "https://dc.lft.to/lastmile_qr_scan"}, "type": "electric_scooter", "fusion_lat": 0.0, "lon": -77.02316833333333}, {"fusion_lon": 0.0, "bike_id": "52a51bfb75caee7d6ca0e6f71b3e6972", "is_disabled": 0, "is_reserved": 0, "lat": 38.909486, "name": "52a51bfb75caee7d6ca0e6f71b3e6972", "rental_uris": {"ios": "https://dc.lft.to/lastmile_qr_scan", "android": "https://dc.lft.to/lastmile_qr_scan"}, "type": "electric_scooter", "fusion_lat": 0.0, "lon": -76.98542083333334}, {"fusion_lon": 0.0, "bike_id": "9c740ed09368af3ccd1bf0704c7ce9f1", "is_disabled": 0, "is_reserved": 0, "lat": 38.93534533333333, "name": "9c740ed09368af3ccd1bf0704c7ce9f1", "rental_uris": {"ios": "https://dc.lft.to/lastmile_qr_scan", "android": "https://dc.lft.to/lastmile_qr_scan"}, "type": "electric_scooter", "fusion_lat": 0.0, "lon": -77.02348883333333}, {"fusion_lon": 0.0, "bike_id": "7e12eab31b47ce52b4d8f8ee8ceed2ea", "is_disabled": 0, "is_reserved": 0, "lat": 38.89794, "name": "7e12eab31b47ce52b4d8f8ee8ceed2ea", "rental_uris": {"ios": "https://dc.lft.to/lastmile_qr_scan", "android": "https://dc.lft.to/lastmile_qr_scan"}, "type": "electric_scooter", "fusion_lat": 0.0, "lon": -77.01184716666667}, {"fusion_lon": 0.0, "bike_id": "770ac02c025ccc58a63f55163d2c1d43", "is_disabled": 0, "is_reserved": 0, "lat": 38.898530666666666, "name": "770ac02c025ccc58a63f55163d2c1d43", "rental_uris": {"ios": "https://dc.lft.to/lastmile_qr_scan", "android": "https://dc.lft.to/lastmile_qr_scan"}, "type": "electric_scooter", "fusion_lat": 0.0, "lon": -77.02275266666666}, {"fusion_lon": 0.0, "bike_id": "9d1d12734dde4122644ec4291d0d71ab", "is_disabled": 0, "is_reserved": 0, "lat": 38.9104725, "name": "9d1d12734dde4122644ec4291d0d71ab", "rental_uris": {"ios": "https://dc.lft.to/lastmile_qr_scan", "android": "https://dc.lft.to/lastmile_qr_scan"}, "type": "electric_scooter", "fusion_lat": 0.0, "lon": -77.0276415}, {"fusion_lon": 0.0, "bike_id": "6b93bdff755805f0d90b38635429f8fd", "is_disabled": 0, "is_reserved": 0, "lat": 38.93082916666667, "name": "6b93bdff755805f0d90b38635429f8fd", "rental_uris": {"ios": "https://dc.lft.to/lastmile_qr_scan", "android": "https://dc.lft.to/lastmile_qr_scan"}, "type": "electric_scooter", "fusion_lat": 0.0, "lon": -77.02793283333334}, {"fusion_lon": 0.0, "bike_id": "afe231d0b5d9ffc2fe7518e92cdfea3e", "is_disabled": 0, "is_reserved": 0, "lat": 38.899771333333334, "name": "afe231d0b5d9ffc2fe7518e92cdfea3e", "rental_uris": {"ios": "https://dc.lft.to/lastmile_qr_scan", "android": "https://dc.lft.to/lastmile_qr_scan"}, "type": "electric_scooter", "fusion_lat": 0.0, "lon": -77.02573666666666}, {"fusion_lon": 0.0, "bike_id": "5edace8e6358373da154652cf53cb74c", "is_disabled": 0, "is_reserved": 0, "lat": 38.929126, "name": "5edace8e6358373da154652cf53cb74c", "rental_uris": {"ios": "https://dc.lft.to/lastmile_qr_scan", "android": "https://dc.lft.to/lastmile_qr_scan"}, "type": "electric_scooter", "fusion_lat": 0.0, "lon": -77.02349716666667}, {"fusion_lon": 0.0, "bike_id": "e1425c777d5c0d883867c9ae8a5a94c5", "is_disabled": 0, "is_reserved": 0, "lat": 38.917104333333334, "name": "e1425c777d5c0d883867c9ae8a5a94c5", "rental_uris": {"ios": "https://dc.lft.to/lastmile_qr_scan", "android": "https://dc.lft.to/lastmile_qr_scan"}, "type": "electric_scooter", "fusion_lat": 0.0, "lon": -77.03865283333333}, {"fusion_lon": 0.0, "bike_id": "20b01014887157da629a6a72773da5d1", "is_disabled": 0, "is_reserved": 0, "lat": 38.90425183333333, "name": "20b01014887157da629a6a72773da5d1", "rental_uris": {"ios": "https://dc.lft.to/lastmile_qr_scan", "android": "https://dc.lft.to/lastmile_qr_scan"}, "type": "electric_scooter", "fusion_lat": 0.0, "lon": -77.02508583333334}, {"fusion_lon": 0.0, "bike_id": "bce48f4e90a12b19f41b61c0a4acd632", "is_disabled": 0, "is_reserved": 0, "lat": 38.9210035, "name": "bce48f4e90a12b19f41b61c0a4acd632", "rental_uris": {"ios": "https://dc.lft.to/lastmile_qr_scan", "android": "https://dc.lft.to/lastmile_qr_scan"}, "type": "electric_scooter", "fusion_lat": 0.0, "lon": -76.9990745}, {"fusion_lon": 0.0, "bike_id": "dacdc2343615404e38b90c2661148373", "is_disabled": 0, "is_reserved": 0, "lat": 38.92106166666667, "name": "dacdc2343615404e38b90c2661148373", "rental_uris": {"ios": "https://dc.lft.to/lastmile_qr_scan", "android": "https://dc.lft.to/lastmile_qr_scan"}, "type": "electric_scooter", "fusion_lat": 0.0, "lon": -77.03183866666667}, {"fusion_lon": 0.0, "bike_id": "8abe6d36f841610b76b419b38606ae26", "is_disabled": 0, "is_reserved": 0, "lat": 38.91672966666667, "name": "8abe6d36f841610b76b419b38606ae26", "rental_uris": {"ios": "https://dc.lft.to/lastmile_qr_scan", "android": "https://dc.lft.to/lastmile_qr_scan"}, "type": "electric_scooter", "fusion_lat": 0.0, "lon": -77.0385005}, {"fusion_lon": 0.0, "bike_id": "423ff117f5cfe01a96f23076bdc44029", "is_disabled": 0, "is_reserved": 0, "lat": 38.92137533333333, "name": "423ff117f5cfe01a96f23076bdc44029", "rental_uris": {"ios": "https://dc.lft.to/lastmile_qr_scan", "android": "https://dc.lft.to/lastmile_qr_scan"}, "type": "electric_scooter", "fusion_lat": 0.0, "lon": -77.01785333333333}, {"fusion_lon": 0.0, "bike_id": "822e097828cb8ea6646998dd5565d8eb", "is_disabled": 0, "is_reserved": 0, "lat": 38.92480833333333, "name": "822e097828cb8ea6646998dd5565d8eb", "rental_uris": {"ios": "https://dc.lft.to/lastmile_qr_scan", "android": "https://dc.lft.to/lastmile_qr_scan"}, "type": "electric_scooter", "fusion_lat": 0.0, "lon": -77.008913}, {"fusion_lon": 0.0, "bike_id": "671e5ae8fc12790995a867110a215ef8", "is_disabled": 0, "is_reserved": 0, "lat": 38.93963216666667, "name": "671e5ae8fc12790995a867110a215ef8", "rental_uris": {"ios": "https://dc.lft.to/lastmile_qr_scan", "android": "https://dc.lft.to/lastmile_qr_scan"}, "type": "electric_scooter", "fusion_lat": 0.0, "lon": -77.07241583333334}, {"fusion_lon": 0.0, "bike_id": "91cba871c749a3a7db21bdecdd7ce076", "is_disabled": 0, "is_reserved": 0, "lat": 38.92119816666667, "name": "91cba871c749a3a7db21bdecdd7ce076", "rental_uris": {"ios": "https://dc.lft.to/lastmile_qr_scan", "android": "https://dc.lft.to/lastmile_qr_scan"}, "type": "electric_scooter", "fusion_lat": 0.0, "lon": -77.0121535}, {"fusion_lon": 0.0, "bike_id": "6c198fabc8a4d153d751500d912195a2", "is_disabled": 0, "is_reserved": 0, "lat": 38.9051565, "name": "6c198fabc8a4d153d751500d912195a2", "rental_uris": {"ios": "https://dc.lft.to/lastmile_qr_scan", "android": "https://dc.lft.to/lastmile_qr_scan"}, "type": "electric_scooter", "fusion_lat": 0.0, "lon": -77.05141816666666}, {"fusion_lon": 0.0, "bike_id": "6106401301bb3d082b64eb412b5a72cd", "is_disabled": 0, "is_reserved": 0, "lat": 38.921033666666666, "name": "6106401301bb3d082b64eb412b5a72cd", "rental_uris": {"ios": "https://dc.lft.to/lastmile_qr_scan", "android": "https://dc.lft.to/lastmile_qr_scan"}, "type": "electric_scooter", "fusion_lat": 0.0, "lon": -77.046842}, {"fusion_lon": 0.0, "bike_id": "cdc98a682f0e0ad6215d9fa259affd6b", "is_disabled": 0, "is_reserved": 0, "lat": 38.9988735, "name": "cdc98a682f0e0ad6215d9fa259affd6b", "rental_uris": {"ios": "https://dc.lft.to/lastmile_qr_scan", "android": "https://dc.lft.to/lastmile_qr_scan"}, "type": "electric_bike", "fusion_lat": 0.0, "lon": -76.9108985}, {"fusion_lon": 0.0, "bike_id": "815b4bf515272e22c7ff3496df2aaafc", "is_disabled": 0, "is_reserved": 0, "lat": 38.90820516666667, "name": "815b4bf515272e22c7ff3496df2aaafc", "rental_uris": {"ios": "https://dc.lft.to/lastmile_qr_scan", "android": "https://dc.lft.to/lastmile_qr_scan"}, "type": "electric_scooter", "fusion_lat": 0.0, "lon": -77.02943383333333}, {"fusion_lon": 0.0, "bike_id": "03429fe1c229fa12657637689e34d521", "is_disabled": 0, "is_reserved": 0, "lat": 38.941543333333335, "name": "03429fe1c229fa12657637689e34d521", "rental_uris": {"ios": "https://dc.lft.to/lastmile_qr_scan", "android": "https://dc.lft.to/lastmile_qr_scan"}, "type": "electric_bike", "fusion_lat": 0.0, "lon": -77.00200483333333}, {"fusion_lon": 0.0, "bike_id": "6b7712f0ff79bd6a84056dd6a529776a", "is_disabled": 0, "is_reserved": 0, "lat": 38.911844333333335, "name": "6b7712f0ff79bd6a84056dd6a529776a", "rental_uris": {"ios": "https://dc.lft.to/lastmile_qr_scan", "android": "https://dc.lft.to/lastmile_qr_scan"}, "type": "electric_scooter", "fusion_lat": 0.0, "lon": -77.066142}, {"fusion_lon": 0.0, "bike_id": "bedd811918c27e26880e54f83553811b", "is_disabled": 0, "is_reserved": 0, "lat": 38.926009, "name": "bedd811918c27e26880e54f83553811b", "rental_uris": {"ios": "https://dc.lft.to/lastmile_qr_scan", "android": "https://dc.lft.to/lastmile_qr_scan"}, "type": "electric_scooter", "fusion_lat": 0.0, "lon": -77.02157183333334}, {"fusion_lon": 0.0, "bike_id": "0026f2b81cf31121c74e35b3896821fc", "is_disabled": 0, "is_reserved": 0, "lat": 38.885503666666665, "name": "0026f2b81cf31121c74e35b3896821fc", "rental_uris": {"ios": "https://dc.lft.to/lastmile_qr_scan", "android": "https://dc.lft.to/lastmile_qr_scan"}, "type": "electric_scooter", "fusion_lat": 0.0, "lon": -77.0200715}, {"fusion_lon": 0.0, "bike_id": "8732355cc90bd20601beeee3ef0afb7c", "is_disabled": 0, "is_reserved": 0, "lat": 38.91148183333333, "name": "8732355cc90bd20601beeee3ef0afb7c", "rental_uris": {"ios": "https://dc.lft.to/lastmile_qr_scan", "android": "https://dc.lft.to/lastmile_qr_scan"}, "type": "electric_scooter", "fusion_lat": 0.0, "lon": -76.987289}, {"fusion_lon": 0.0, "bike_id": "660348233020b7c77a96ccfef3aa455b", "is_disabled": 0, "is_reserved": 0, "lat": 38.86625766666667, "name": "660348233020b7c77a96ccfef3aa455b", "rental_uris": {"ios": "https://dc.lft.to/lastmile_qr_scan", "android": "https://dc.lft.to/lastmile_qr_scan"}, "type": "electric_bike", "fusion_lat": 0.0, "lon": -76.94572783333334}, {"fusion_lon": 0.0, "bike_id": "62d2e12a68fee8cd0c9d33e1e8a21759", "is_disabled": 0, "is_reserved": 0, "lat": 38.915346166666666, "name": "62d2e12a68fee8cd0c9d33e1e8a21759", "rental_uris": {"ios": "https://dc.lft.to/lastmile_qr_scan", "android": "https://dc.lft.to/lastmile_qr_scan"}, "type": "electric_scooter", "fusion_lat": 0.0, "lon": -77.07544933333334}, {"fusion_lon": 0.0, "bike_id": "bef9e2c801b0b97c5854d53a055a0193", "is_disabled": 0, "is_reserved": 0, "lat": 38.91424216666667, "name": "bef9e2c801b0b97c5854d53a055a0193", "rental_uris": {"ios": "https://dc.lft.to/lastmile_qr_scan", "android": "https://dc.lft.to/lastmile_qr_scan"}, "type": "electric_scooter", "fusion_lat": 0.0, "lon": -77.06708966666666}, {"fusion_lon": 0.0, "bike_id": "3705a4b40ecb989048ee4cd84044f3ef", "is_disabled": 0, "is_reserved": 0, "lat": 38.924177, "name": "3705a4b40ecb989048ee4cd84044f3ef", "rental_uris": {"ios": "https://dc.lft.to/lastmile_qr_scan", "android": "https://dc.lft.to/lastmile_qr_scan"}, "type": "electric_scooter", "fusion_lat": 0.0, "lon": -77.02130516666666}, {"fusion_lon": 0.0, "bike_id": "9090fe10452512f637e9362d14333b62", "is_disabled": 0, "is_reserved": 0, "lat": 38.90311233333333, "name": "9090fe10452512f637e9362d14333b62", "rental_uris": {"ios": "https://dc.lft.to/lastmile_qr_scan", "android": "https://dc.lft.to/lastmile_qr_scan"}, "type": "electric_scooter", "fusion_lat": 0.0, "lon": -77.03650683333333}, {"fusion_lon": 0.0, "bike_id": "5cab5f3e1043d06d75e96c65b6cab7bc", "is_disabled": 0, "is_reserved": 0, "lat": 38.92181216666667, "name": "5cab5f3e1043d06d75e96c65b6cab7bc", "rental_uris": {"ios": "https://dc.lft.to/lastmile_qr_scan", "android": "https://dc.lft.to/lastmile_qr_scan"}, "type": "electric_scooter", "fusion_lat": 0.0, "lon": -77.02672483333333}, {"fusion_lon": 0.0, "bike_id": "403ced50385616929b87a8ab928f123d", "is_disabled": 0, "is_reserved": 0, "lat": 38.9115785, "name": "403ced50385616929b87a8ab928f123d", "rental_uris": {"ios": "https://dc.lft.to/lastmile_qr_scan", "android": "https://dc.lft.to/lastmile_qr_scan"}, "type": "electric_scooter", "fusion_lat": 0.0, "lon": -77.01993933333334}, {"fusion_lon": 0.0, "bike_id": "3d057c7b05cf3028b2c2b0a8e4ce58aa", "is_disabled": 0, "is_reserved": 0, "lat": 38.998625, "name": "3d057c7b05cf3028b2c2b0a8e4ce58aa", "rental_uris": {"ios": "https://dc.lft.to/lastmile_qr_scan", "android": "https://dc.lft.to/lastmile_qr_scan"}, "type": "electric_bike", "fusion_lat": 0.0, "lon": -77.00388483333333}, {"fusion_lon": 0.0, "bike_id": "d4f4e8144568f154fcc6908d865a1d56", "is_disabled": 0, "is_reserved": 0, "lat": 38.907855166666664, "name": "d4f4e8144568f154fcc6908d865a1d56", "rental_uris": {"ios": "https://dc.lft.to/lastmile_qr_scan", "android": "https://dc.lft.to/lastmile_qr_scan"}, "type": "electric_scooter", "fusion_lat": 0.0, "lon": -77.07253183333333}, {"fusion_lon": 0.0, "bike_id": "9b81068af593958f0f5df6082f12a29c", "is_disabled": 0, "is_reserved": 0, "lat": 38.89221583333333, "name": "9b81068af593958f0f5df6082f12a29c", "rental_uris": {"ios": "https://dc.lft.to/lastmile_qr_scan", "android": "https://dc.lft.to/lastmile_qr_scan"}, "type": "electric_scooter", "fusion_lat": 0.0, "lon": -77.02542683333333}, {"fusion_lon": 0.0, "bike_id": "111687f6f8491533faf4a75bf2eb789b", "is_disabled": 0, "is_reserved": 0, "lat": 38.92497016666667, "name": "111687f6f8491533faf4a75bf2eb789b", "rental_uris": {"ios": "https://dc.lft.to/lastmile_qr_scan", "android": "https://dc.lft.to/lastmile_qr_scan"}, "type": "electric_scooter", "fusion_lat": 0.0, "lon": -77.0434165}, {"fusion_lon": 0.0, "bike_id": "f7774e94c0c62883da352c090b02655c", "is_disabled": 0, "is_reserved": 0, "lat": 38.905444, "name": "f7774e94c0c62883da352c090b02655c", "rental_uris": {"ios": "https://dc.lft.to/lastmile_qr_scan", "android": "https://dc.lft.to/lastmile_qr_scan"}, "type": "electric_scooter", "fusion_lat": 0.0, "lon": -76.98647216666667}, {"fusion_lon": 0.0, "bike_id": "587a87e39a99c9be0ab0390f61404d95", "is_disabled": 0, "is_reserved": 0, "lat": 38.92368966666667, "name": "587a87e39a99c9be0ab0390f61404d95", "rental_uris": {"ios": "https://dc.lft.to/lastmile_qr_scan", "android": "https://dc.lft.to/lastmile_qr_scan"}, "type": "electric_scooter", "fusion_lat": 0.0, "lon": -77.01951033333333}, {"fusion_lon": 0.0, "bike_id": "285d54122735ed9a4532f79b9dbcf59a", "is_disabled": 0, "is_reserved": 0, "lat": 38.89331683333333, "name": "285d54122735ed9a4532f79b9dbcf59a", "rental_uris": {"ios": "https://dc.lft.to/lastmile_qr_scan", "android": "https://dc.lft.to/lastmile_qr_scan"}, "type": "electric_scooter", "fusion_lat": 0.0, "lon": -77.03374533333333}, {"fusion_lon": 0.0, "bike_id": "42930ba81cdc3ccbad1a6e1f089908a6", "is_disabled": 0, "is_reserved": 0, "lat": 38.913615666666665, "name": "42930ba81cdc3ccbad1a6e1f089908a6", "rental_uris": {"ios": "https://dc.lft.to/lastmile_qr_scan", "android": "https://dc.lft.to/lastmile_qr_scan"}, "type": "electric_scooter", "fusion_lat": 0.0, "lon": -77.00823783333334}, {"fusion_lon": 0.0, "bike_id": "95af16ddc03e82aef220b2cbf1ad8eb9", "is_disabled": 0, "is_reserved": 0, "lat": 38.91333816666667, "name": "95af16ddc03e82aef220b2cbf1ad8eb9", "rental_uris": {"ios": "https://dc.lft.to/lastmile_qr_scan", "android": "https://dc.lft.to/lastmile_qr_scan"}, "type": "electric_scooter", "fusion_lat": 0.0, "lon": -77.02581}, {"fusion_lon": 0.0, "bike_id": "2b396cccad14bb8c2249e75c971aef58", "is_disabled": 0, "is_reserved": 0, "lat": 39.03472266666667, "name": "2b396cccad14bb8c2249e75c971aef58", "rental_uris": {"ios": "https://dc.lft.to/lastmile_qr_scan", "android": "https://dc.lft.to/lastmile_qr_scan"}, "type": "electric_bike", "fusion_lat": 0.0, "lon": -77.04104416666667}, {"fusion_lon": 0.0, "bike_id": "b4d74d11bad383b74dad11ead90219c8", "is_disabled": 0, "is_reserved": 0, "lat": 38.92857333333333, "name": "b4d74d11bad383b74dad11ead90219c8", "rental_uris": {"ios": "https://dc.lft.to/lastmile_qr_scan", "android": "https://dc.lft.to/lastmile_qr_scan"}, "type": "electric_scooter", "fusion_lat": 0.0, "lon": -77.01403433333333}, {"fusion_lon": 0.0, "bike_id": "b668be377d8743f8e7b922ee8f611d4d", "is_disabled": 0, "is_reserved": 0, "lat": 38.93345933333333, "name": "b668be377d8743f8e7b922ee8f611d4d", "rental_uris": {"ios": "https://dc.lft.to/lastmile_qr_scan", "android": "https://dc.lft.to/lastmile_qr_scan"}, "type": "electric_scooter", "fusion_lat": 0.0, "lon": -77.0572385}, {"fusion_lon": 0.0, "bike_id": "c5e87f2eb6dfbd5abe881d14a91026b1", "is_disabled": 0, "is_reserved": 0, "lat": 38.927450666666665, "name": "c5e87f2eb6dfbd5abe881d14a91026b1", "rental_uris": {"ios": "https://dc.lft.to/lastmile_qr_scan", "android": "https://dc.lft.to/lastmile_qr_scan"}, "type": "electric_scooter", "fusion_lat": 0.0, "lon": -77.03560316666666}, {"fusion_lon": 0.0, "bike_id": "b17a116d3047d882a035e46d651a10cd", "is_disabled": 0, "is_reserved": 0, "lat": 38.9127055, "name": "b17a116d3047d882a035e46d651a10cd", "rental_uris": {"ios": "https://dc.lft.to/lastmile_qr_scan", "android": "https://dc.lft.to/lastmile_qr_scan"}, "type": "electric_scooter", "fusion_lat": 0.0, "lon": -77.0222875}, {"fusion_lon": 0.0, "bike_id": "605d58e67fbf86e5cb7c3ec04ef83ec7", "is_disabled": 0, "is_reserved": 0, "lat": 38.92370533333333, "name": "605d58e67fbf86e5cb7c3ec04ef83ec7", "rental_uris": {"ios": "https://dc.lft.to/lastmile_qr_scan", "android": "https://dc.lft.to/lastmile_qr_scan"}, "type": "electric_scooter", "fusion_lat": 0.0, "lon": -77.0214515}, {"fusion_lon": 0.0, "bike_id": "b54146d0597a4de311d485e195ee0193", "is_disabled": 0, "is_reserved": 0, "lat": 38.90024366666667, "name": "b54146d0597a4de311d485e195ee0193", "rental_uris": {"ios": "https://dc.lft.to/lastmile_qr_scan", "android": "https://dc.lft.to/lastmile_qr_scan"}, "type": "electric_scooter", "fusion_lat": 0.0, "lon": -76.98846766666666}, {"fusion_lon": 0.0, "bike_id": "47fec3b0b1bcee4c2b4684e6f8f72934", "is_disabled": 0, "is_reserved": 0, "lat": 38.931820333333334, "name": "47fec3b0b1bcee4c2b4684e6f8f72934", "rental_uris": {"ios": "https://dc.lft.to/lastmile_qr_scan", "android": "https://dc.lft.to/lastmile_qr_scan"}, "type": "electric_scooter", "fusion_lat": 0.0, "lon": -77.03853133333334}, {"fusion_lon": 0.0, "bike_id": "b2c5f47727d2fc01567663d0bb4f31ec", "is_disabled": 0, "is_reserved": 0, "lat": 38.89509416666667, "name": "b2c5f47727d2fc01567663d0bb4f31ec", "rental_uris": {"ios": "https://dc.lft.to/lastmile_qr_scan", "android": "https://dc.lft.to/lastmile_qr_scan"}, "type": "electric_scooter", "fusion_lat": 0.0, "lon": -76.94883233333333}, {"fusion_lon": 0.0, "bike_id": "7b7fa5b7a9904bc238e3441037f67e99", "is_disabled": 0, "is_reserved": 0, "lat": 38.900298166666666, "name": "7b7fa5b7a9904bc238e3441037f67e99", "rental_uris": {"ios": "https://dc.lft.to/lastmile_qr_scan", "android": "https://dc.lft.to/lastmile_qr_scan"}, "type": "electric_scooter", "fusion_lat": 0.0, "lon": -76.98846866666666}, {"fusion_lon": 0.0, "bike_id": "9e8d7525b14b5993b8f25fe214548835", "is_disabled": 0, "is_reserved": 0, "lat": 38.89947183333334, "name": "9e8d7525b14b5993b8f25fe214548835", "rental_uris": {"ios": "https://dc.lft.to/lastmile_qr_scan", "android": "https://dc.lft.to/lastmile_qr_scan"}, "type": "electric_scooter", "fusion_lat": 0.0, "lon": -76.9376555}, {"fusion_lon": 0.0, "bike_id": "02efc321031512f7153649ef4edc8619", "is_disabled": 0, "is_reserved": 0, "lat": 38.88007433333333, "name": "02efc321031512f7153649ef4edc8619", "rental_uris": {"ios": "https://dc.lft.to/lastmile_qr_scan", "android": "https://dc.lft.to/lastmile_qr_scan"}, "type": "electric_scooter", "fusion_lat": 0.0, "lon": -76.998355}, {"fusion_lon": 0.0, "bike_id": "42cc86049230c94e982cdfb4ceaf3f9b", "is_disabled": 0, "is_reserved": 0, "lat": 38.92325133333333, "name": "42cc86049230c94e982cdfb4ceaf3f9b", "rental_uris": {"ios": "https://dc.lft.to/lastmile_qr_scan", "android": "https://dc.lft.to/lastmile_qr_scan"}, "type": "electric_scooter", "fusion_lat": 0.0, "lon": -77.028947}, {"fusion_lon": 0.0, "bike_id": "b3be90ccc75b118850bbf94fb24bb85e", "is_disabled": 0, "is_reserved": 0, "lat": 38.893333166666665, "name": "b3be90ccc75b118850bbf94fb24bb85e", "rental_uris": {"ios": "https://dc.lft.to/lastmile_qr_scan", "android": "https://dc.lft.to/lastmile_qr_scan"}, "type": "electric_scooter", "fusion_lat": 0.0, "lon": -76.99381066666666}, {"fusion_lon": 0.0, "bike_id": "11e7fa63b1b0f6eaa4954c920adb1244", "is_disabled": 0, "is_reserved": 0, "lat": 38.932136166666666, "name": "11e7fa63b1b0f6eaa4954c920adb1244", "rental_uris": {"ios": "https://dc.lft.to/lastmile_qr_scan", "android": "https://dc.lft.to/lastmile_qr_scan"}, "type": "electric_scooter", "fusion_lat": 0.0, "lon": -77.02669683333333}, {"fusion_lon": 0.0, "bike_id": "308d70bfce167c90bde6366df3f64883", "is_disabled": 0, "is_reserved": 0, "lat": 38.90246066666667, "name": "308d70bfce167c90bde6366df3f64883", "rental_uris": {"ios": "https://dc.lft.to/lastmile_qr_scan", "android": "https://dc.lft.to/lastmile_qr_scan"}, "type": "electric_scooter", "fusion_lat": 0.0, "lon": -77.0513045}, {"fusion_lon": 0.0, "bike_id": "292c36ecb1517133e499ffe8cd429fa6", "is_disabled": 0, "is_reserved": 0, "lat": 38.9319675, "name": "292c36ecb1517133e499ffe8cd429fa6", "rental_uris": {"ios": "https://dc.lft.to/lastmile_qr_scan", "android": "https://dc.lft.to/lastmile_qr_scan"}, "type": "electric_scooter", "fusion_lat": 0.0, "lon": -77.02834566666667}, {"fusion_lon": 0.0, "bike_id": "fe3ed86c205f86bd9f0bab5d960e1cfe", "is_disabled": 0, "is_reserved": 0, "lat": 38.905801833333335, "name": "fe3ed86c205f86bd9f0bab5d960e1cfe", "rental_uris": {"ios": "https://dc.lft.to/lastmile_qr_scan", "android": "https://dc.lft.to/lastmile_qr_scan"}, "type": "electric_scooter", "fusion_lat": 0.0, "lon": -77.02990266666667}, {"fusion_lon": 0.0, "bike_id": "5cfe9478dd8cbc8eab35b02d6905787e", "is_disabled": 0, "is_reserved": 0, "lat": 38.917092833333335, "name": "5cfe9478dd8cbc8eab35b02d6905787e", "rental_uris": {"ios": "https://dc.lft.to/lastmile_qr_scan", "android": "https://dc.lft.to/lastmile_qr_scan"}, "type": "electric_scooter", "fusion_lat": 0.0, "lon": -77.02414433333334}, {"fusion_lon": 0.0, "bike_id": "dc938901eb0d5974149acf9fc739b16b", "is_disabled": 0, "is_reserved": 0, "lat": 38.90186816666667, "name": "dc938901eb0d5974149acf9fc739b16b", "rental_uris": {"ios": "https://dc.lft.to/lastmile_qr_scan", "android": "https://dc.lft.to/lastmile_qr_scan"}, "type": "electric_scooter", "fusion_lat": 0.0, "lon": -76.976735}, {"fusion_lon": 0.0, "bike_id": "2252c26e2e2635bc5436f71534e70a5c", "is_disabled": 0, "is_reserved": 0, "lat": 38.87296666666667, "name": "2252c26e2e2635bc5436f71534e70a5c", "rental_uris": {"ios": "https://dc.lft.to/lastmile_qr_scan", "android": "https://dc.lft.to/lastmile_qr_scan"}, "type": "electric_scooter", "fusion_lat": 0.0, "lon": -77.0098425}, {"fusion_lon": 0.0, "bike_id": "7fcec88ee38b44121f72854455421adb", "is_disabled": 0, "is_reserved": 0, "lat": 38.93093283333333, "name": "7fcec88ee38b44121f72854455421adb", "rental_uris": {"ios": "https://dc.lft.to/lastmile_qr_scan", "android": "https://dc.lft.to/lastmile_qr_scan"}, "type": "electric_scooter", "fusion_lat": 0.0, "lon": -77.02550833333333}, {"fusion_lon": 0.0, "bike_id": "ce150e13ebe6c4ced3ae99d4224129a4", "is_disabled": 0, "is_reserved": 0, "lat": 38.92840283333334, "name": "ce150e13ebe6c4ced3ae99d4224129a4", "rental_uris": {"ios": "https://dc.lft.to/lastmile_qr_scan", "android": "https://dc.lft.to/lastmile_qr_scan"}, "type": "electric_scooter", "fusion_lat": 0.0, "lon": -77.01398716666667}, {"fusion_lon": 0.0, "bike_id": "8ca31d4e9a1c2288e72c83cd1a842486", "is_disabled": 0, "is_reserved": 0, "lat": 38.911205333333335, "name": "8ca31d4e9a1c2288e72c83cd1a842486", "rental_uris": {"ios": "https://dc.lft.to/lastmile_qr_scan", "android": "https://dc.lft.to/lastmile_qr_scan"}, "type": "electric_scooter", "fusion_lat": 0.0, "lon": -77.0326695}, {"fusion_lon": 0.0, "bike_id": "c62e59fa09581901410d665c29cc09df", "is_disabled": 0, "is_reserved": 0, "lat": 38.951871, "name": "c62e59fa09581901410d665c29cc09df", "rental_uris": {"ios": "https://dc.lft.to/lastmile_qr_scan", "android": "https://dc.lft.to/lastmile_qr_scan"}, "type": "electric_bike", "fusion_lat": 0.0, "lon": -76.93548516666667}, {"fusion_lon": 0.0, "bike_id": "f01ea24b5f796f25ec1b9c7d28faded7", "is_disabled": 0, "is_reserved": 0, "lat": 38.918156833333335, "name": "f01ea24b5f796f25ec1b9c7d28faded7", "rental_uris": {"ios": "https://dc.lft.to/lastmile_qr_scan", "android": "https://dc.lft.to/lastmile_qr_scan"}, "type": "electric_scooter", "fusion_lat": 0.0, "lon": -77.04007933333334}, {"fusion_lon": 0.0, "bike_id": "9104e91c9173e4fc8fa4d6929b325066", "is_disabled": 0, "is_reserved": 0, "lat": 38.9237505, "name": "9104e91c9173e4fc8fa4d6929b325066", "rental_uris": {"ios": "https://dc.lft.to/lastmile_qr_scan", "android": "https://dc.lft.to/lastmile_qr_scan"}, "type": "electric_scooter", "fusion_lat": 0.0, "lon": -77.08054866666667}, {"fusion_lon": 0.0, "bike_id": "9238da0278a6603191515484818b7982", "is_disabled": 0, "is_reserved": 0, "lat": 38.89220316666667, "name": "9238da0278a6603191515484818b7982", "rental_uris": {"ios": "https://dc.lft.to/lastmile_qr_scan", "android": "https://dc.lft.to/lastmile_qr_scan"}, "type": "electric_scooter", "fusion_lat": 0.0, "lon": -77.03988416666667}, {"fusion_lon": 0.0, "bike_id": "a17b0e9b06bb95ee7936ee0c479d3ada", "is_disabled": 0, "is_reserved": 0, "lat": 38.92332833333333, "name": "a17b0e9b06bb95ee7936ee0c479d3ada", "rental_uris": {"ios": "https://dc.lft.to/lastmile_qr_scan", "android": "https://dc.lft.to/lastmile_qr_scan"}, "type": "electric_scooter", "fusion_lat": 0.0, "lon": -77.037808}, {"fusion_lon": 0.0, "bike_id": "89590913cf813d075bf02c7d18791355", "is_disabled": 0, "is_reserved": 0, "lat": 38.895461833333336, "name": "89590913cf813d075bf02c7d18791355", "rental_uris": {"ios": "https://dc.lft.to/lastmile_qr_scan", "android": "https://dc.lft.to/lastmile_qr_scan"}, "type": "electric_scooter", "fusion_lat": 0.0, "lon": -76.98338566666666}, {"fusion_lon": 0.0, "bike_id": "edbc463aa02058f3d1bb8a4d899275cc", "is_disabled": 0, "is_reserved": 0, "lat": 38.9002825, "name": "edbc463aa02058f3d1bb8a4d899275cc", "rental_uris": {"ios": "https://dc.lft.to/lastmile_qr_scan", "android": "https://dc.lft.to/lastmile_qr_scan"}, "type": "electric_scooter", "fusion_lat": 0.0, "lon": -76.98845216666666}, {"fusion_lon": 0.0, "bike_id": "f25e5d1847e356db8c84831f4f4e7a5e", "is_disabled": 0, "is_reserved": 0, "lat": 38.90015433333333, "name": "f25e5d1847e356db8c84831f4f4e7a5e", "rental_uris": {"ios": "https://dc.lft.to/lastmile_qr_scan", "android": "https://dc.lft.to/lastmile_qr_scan"}, "type": "electric_scooter", "fusion_lat": 0.0, "lon": -77.044816}, {"fusion_lon": 0.0, "bike_id": "ca5fec9c4608dcac61af68b434e60bb0", "is_disabled": 0, "is_reserved": 0, "lat": 38.815523166666665, "name": "ca5fec9c4608dcac61af68b434e60bb0", "rental_uris": {"ios": "https://dc.lft.to/lastmile_qr_scan", "android": "https://dc.lft.to/lastmile_qr_scan"}, "type": "electric_bike", "fusion_lat": 0.0, "lon": -77.04645733333334}, {"fusion_lon": 0.0, "bike_id": "0a9709aab2e0c5f4565c9ab9ce396822", "is_disabled": 0, "is_reserved": 0, "lat": 38.918840333333335, "name": "0a9709aab2e0c5f4565c9ab9ce396822", "rental_uris": {"ios": "https://dc.lft.to/lastmile_qr_scan", "android": "https://dc.lft.to/lastmile_qr_scan"}, "type": "electric_scooter", "fusion_lat": 0.0, "lon": -77.0447415}, {"fusion_lon": 0.0, "bike_id": "e502a513a73bebc65f6e3223e3bce0f9", "is_disabled": 0, "is_reserved": 0, "lat": 38.90964566666667, "name": "e502a513a73bebc65f6e3223e3bce0f9", "rental_uris": {"ios": "https://dc.lft.to/lastmile_qr_scan", "android": "https://dc.lft.to/lastmile_qr_scan"}, "type": "electric_scooter", "fusion_lat": 0.0, "lon": -77.02417}, {"fusion_lon": 0.0, "bike_id": "d121ee7df1a49e2b396a4798fd08dbb3", "is_disabled": 0, "is_reserved": 0, "lat": 38.91402683333333, "name": "d121ee7df1a49e2b396a4798fd08dbb3", "rental_uris": {"ios": "https://dc.lft.to/lastmile_qr_scan", "android": "https://dc.lft.to/lastmile_qr_scan"}, "type": "electric_scooter", "fusion_lat": 0.0, "lon": -77.0184375}, {"fusion_lon": 0.0, "bike_id": "89050b87f2bccd0085823fea910a2238", "is_disabled": 0, "is_reserved": 0, "lat": 38.8972695, "name": "89050b87f2bccd0085823fea910a2238", "rental_uris": {"ios": "https://dc.lft.to/lastmile_qr_scan", "android": "https://dc.lft.to/lastmile_qr_scan"}, "type": "electric_scooter", "fusion_lat": 0.0, "lon": -76.97862683333334}, {"fusion_lon": 0.0, "bike_id": "c4d8745a731b83dab42d110d89fbdd69", "is_disabled": 0, "is_reserved": 0, "lat": 38.91483866666667, "name": "c4d8745a731b83dab42d110d89fbdd69", "rental_uris": {"ios": "https://dc.lft.to/lastmile_qr_scan", "android": "https://dc.lft.to/lastmile_qr_scan"}, "type": "electric_scooter", "fusion_lat": 0.0, "lon": -77.02191733333333}, {"fusion_lon": 0.0, "bike_id": "252b0a7ce3575f9bb48b513cb8a5127b", "is_disabled": 0, "is_reserved": 0, "lat": 38.92547483333333, "name": "252b0a7ce3575f9bb48b513cb8a5127b", "rental_uris": {"ios": "https://dc.lft.to/lastmile_qr_scan", "android": "https://dc.lft.to/lastmile_qr_scan"}, "type": "electric_scooter", "fusion_lat": 0.0, "lon": -77.04176916666667}, {"fusion_lon": 0.0, "bike_id": "344bf2c8c662dccffe0b395732312fd6", "is_disabled": 0, "is_reserved": 0, "lat": 38.93675733333333, "name": "344bf2c8c662dccffe0b395732312fd6", "rental_uris": {"ios": "https://dc.lft.to/lastmile_qr_scan", "android": "https://dc.lft.to/lastmile_qr_scan"}, "type": "electric_scooter", "fusion_lat": 0.0, "lon": -77.03283516666667}, {"fusion_lon": 0.0, "bike_id": "6ade6802689a5affd756143a6b45bd23", "is_disabled": 0, "is_reserved": 0, "lat": 38.922449, "name": "6ade6802689a5affd756143a6b45bd23", "rental_uris": {"ios": "https://dc.lft.to/lastmile_qr_scan", "android": "https://dc.lft.to/lastmile_qr_scan"}, "type": "electric_scooter", "fusion_lat": 0.0, "lon": -77.033526}, {"fusion_lon": 0.0, "bike_id": "45c1faf1cf04dcb7fb1e7e1a58945447", "is_disabled": 0, "is_reserved": 0, "lat": 38.906567, "name": "45c1faf1cf04dcb7fb1e7e1a58945447", "rental_uris": {"ios": "https://dc.lft.to/lastmile_qr_scan", "android": "https://dc.lft.to/lastmile_qr_scan"}, "type": "electric_scooter", "fusion_lat": 0.0, "lon": -77.0141625}, {"fusion_lon": 0.0, "bike_id": "676c80dfc220db9cffa62ca6c5955967", "is_disabled": 0, "is_reserved": 0, "lat": 38.901008, "name": "676c80dfc220db9cffa62ca6c5955967", "rental_uris": {"ios": "https://dc.lft.to/lastmile_qr_scan", "android": "https://dc.lft.to/lastmile_qr_scan"}, "type": "electric_scooter", "fusion_lat": 0.0, "lon": -77.0476715}, {"fusion_lon": 0.0, "bike_id": "8a2e240403f6941a418334f079ff41af", "is_disabled": 0, "is_reserved": 0, "lat": 38.9073795, "name": "8a2e240403f6941a418334f079ff41af", "rental_uris": {"ios": "https://dc.lft.to/lastmile_qr_scan", "android": "https://dc.lft.to/lastmile_qr_scan"}, "type": "electric_scooter", "fusion_lat": 0.0, "lon": -77.02183133333334}, {"fusion_lon": 0.0, "bike_id": "7879d063c47fed7318e189358277bb6d", "is_disabled": 0, "is_reserved": 0, "lat": 38.93702233333333, "name": "7879d063c47fed7318e189358277bb6d", "rental_uris": {"ios": "https://dc.lft.to/lastmile_qr_scan", "android": "https://dc.lft.to/lastmile_qr_scan"}, "type": "electric_scooter", "fusion_lat": 0.0, "lon": -77.02404016666667}, {"fusion_lon": 0.0, "bike_id": "7de2dc50191b1837238b1a207c3adde9", "is_disabled": 0, "is_reserved": 0, "lat": 38.96739983333333, "name": "7de2dc50191b1837238b1a207c3adde9", "rental_uris": {"ios": "https://dc.lft.to/lastmile_qr_scan", "android": "https://dc.lft.to/lastmile_qr_scan"}, "type": "electric_bike", "fusion_lat": 0.0, "lon": -76.96046116666666}, {"fusion_lon": 0.0, "bike_id": "321ee3a47733001a614d2891e8e35544", "is_disabled": 0, "is_reserved": 0, "lat": 38.93516116666667, "name": "321ee3a47733001a614d2891e8e35544", "rental_uris": {"ios": "https://dc.lft.to/lastmile_qr_scan", "android": "https://dc.lft.to/lastmile_qr_scan"}, "type": "electric_scooter", "fusion_lat": 0.0, "lon": -77.03372233333333}, {"fusion_lon": 0.0, "bike_id": "daffa73ffb52d05aa93bafacfccbeba4", "is_disabled": 0, "is_reserved": 0, "lat": 38.91882316666667, "name": "daffa73ffb52d05aa93bafacfccbeba4", "rental_uris": {"ios": "https://dc.lft.to/lastmile_qr_scan", "android": "https://dc.lft.to/lastmile_qr_scan"}, "type": "electric_scooter", "fusion_lat": 0.0, "lon": -77.03501383333334}, {"fusion_lon": 0.0, "bike_id": "99b351e1757f5800d02124da48f4eb69", "is_disabled": 0, "is_reserved": 0, "lat": 38.87547166666667, "name": "99b351e1757f5800d02124da48f4eb69", "rental_uris": {"ios": "https://dc.lft.to/lastmile_qr_scan", "android": "https://dc.lft.to/lastmile_qr_scan"}, "type": "electric_scooter", "fusion_lat": 0.0, "lon": -77.0054175}, {"fusion_lon": 0.0, "bike_id": "da30e03774b05be733dbfb82ff3d4729", "is_disabled": 0, "is_reserved": 0, "lat": 38.91471416666667, "name": "da30e03774b05be733dbfb82ff3d4729", "rental_uris": {"ios": "https://dc.lft.to/lastmile_qr_scan", "android": "https://dc.lft.to/lastmile_qr_scan"}, "type": "electric_scooter", "fusion_lat": 0.0, "lon": -77.00215016666667}, {"fusion_lon": 0.0, "bike_id": "85bd1ec0342a136762f59a799088ef6f", "is_disabled": 0, "is_reserved": 0, "lat": 38.9736885, "name": "85bd1ec0342a136762f59a799088ef6f", "rental_uris": {"ios": "https://dc.lft.to/lastmile_qr_scan", "android": "https://dc.lft.to/lastmile_qr_scan"}, "type": "electric_scooter", "fusion_lat": 0.0, "lon": -77.01864483333334}, {"fusion_lon": 0.0, "bike_id": "f83e3247b00264e2350fb4517fab5dc6", "is_disabled": 0, "is_reserved": 0, "lat": 38.93315183333333, "name": "f83e3247b00264e2350fb4517fab5dc6", "rental_uris": {"ios": "https://dc.lft.to/lastmile_qr_scan", "android": "https://dc.lft.to/lastmile_qr_scan"}, "type": "electric_scooter", "fusion_lat": 0.0, "lon": -77.03445533333333}, {"fusion_lon": 0.0, "bike_id": "efcff74ea1c62263dae9cfc2ef5ba9dd", "is_disabled": 0, "is_reserved": 0, "lat": 38.91698866666667, "name": "efcff74ea1c62263dae9cfc2ef5ba9dd", "rental_uris": {"ios": "https://dc.lft.to/lastmile_qr_scan", "android": "https://dc.lft.to/lastmile_qr_scan"}, "type": "electric_scooter", "fusion_lat": 0.0, "lon": -77.03771383333333}, {"fusion_lon": 0.0, "bike_id": "d9b5d7f08f64fcae0dacc8462cda95b3", "is_disabled": 0, "is_reserved": 0, "lat": 38.956045333333336, "name": "d9b5d7f08f64fcae0dacc8462cda95b3", "rental_uris": {"ios": "https://dc.lft.to/lastmile_qr_scan", "android": "https://dc.lft.to/lastmile_qr_scan"}, "type": "electric_scooter", "fusion_lat": 0.0, "lon": -77.0803775}, {"fusion_lon": 0.0, "bike_id": "63702989b79050036e62db8bd18bab74", "is_disabled": 0, "is_reserved": 0, "lat": 38.919365, "name": "63702989b79050036e62db8bd18bab74", "rental_uris": {"ios": "https://dc.lft.to/lastmile_qr_scan", "android": "https://dc.lft.to/lastmile_qr_scan"}, "type": "electric_scooter", "fusion_lat": 0.0, "lon": -77.025041}, {"fusion_lon": 0.0, "bike_id": "358ee258cab8aa3a23b51d34fdf48cdb", "is_disabled": 0, "is_reserved": 0, "lat": 38.9199175, "name": "358ee258cab8aa3a23b51d34fdf48cdb", "rental_uris": {"ios": "https://dc.lft.to/lastmile_qr_scan", "android": "https://dc.lft.to/lastmile_qr_scan"}, "type": "electric_scooter", "fusion_lat": 0.0, "lon": -77.041587}, {"fusion_lon": 0.0, "bike_id": "c5481ef3eb27c9288d5f4d37fa91ba30", "is_disabled": 0, "is_reserved": 0, "lat": 38.90700316666667, "name": "c5481ef3eb27c9288d5f4d37fa91ba30", "rental_uris": {"ios": "https://dc.lft.to/lastmile_qr_scan", "android": "https://dc.lft.to/lastmile_qr_scan"}, "type": "electric_scooter", "fusion_lat": 0.0, "lon": -77.0271685}, {"fusion_lon": 0.0, "bike_id": "14732e9f999b3f825baea59bd4a29789", "is_disabled": 0, "is_reserved": 0, "lat": 38.92465683333333, "name": "14732e9f999b3f825baea59bd4a29789", "rental_uris": {"ios": "https://dc.lft.to/lastmile_qr_scan", "android": "https://dc.lft.to/lastmile_qr_scan"}, "type": "electric_scooter", "fusion_lat": 0.0, "lon": -77.0224315}, {"fusion_lon": 0.0, "bike_id": "79969fa2e1d94a61e27f694d07daa71e", "is_disabled": 0, "is_reserved": 0, "lat": 38.8857635, "name": "79969fa2e1d94a61e27f694d07daa71e", "rental_uris": {"ios": "https://dc.lft.to/lastmile_qr_scan", "android": "https://dc.lft.to/lastmile_qr_scan"}, "type": "electric_scooter", "fusion_lat": 0.0, "lon": -76.95429383333334}, {"fusion_lon": 0.0, "bike_id": "904e35b7ad409fa4a634228e9f6d9581", "is_disabled": 0, "is_reserved": 0, "lat": 38.894424, "name": "904e35b7ad409fa4a634228e9f6d9581", "rental_uris": {"ios": "https://dc.lft.to/lastmile_qr_scan", "android": "https://dc.lft.to/lastmile_qr_scan"}, "type": "electric_scooter", "fusion_lat": 0.0, "lon": -76.97734166666666}, {"fusion_lon": 0.0, "bike_id": "056d3b8f1b114c933e91bbad99c2d00c", "is_disabled": 0, "is_reserved": 0, "lat": 38.91619166666667, "name": "056d3b8f1b114c933e91bbad99c2d00c", "rental_uris": {"ios": "https://dc.lft.to/lastmile_qr_scan", "android": "https://dc.lft.to/lastmile_qr_scan"}, "type": "electric_scooter", "fusion_lat": 0.0, "lon": -77.02809983333333}, {"fusion_lon": 0.0, "bike_id": "83ba9e11089059c97211c51a741378b6", "is_disabled": 0, "is_reserved": 0, "lat": 38.916987166666665, "name": "83ba9e11089059c97211c51a741378b6", "rental_uris": {"ios": "https://dc.lft.to/lastmile_qr_scan", "android": "https://dc.lft.to/lastmile_qr_scan"}, "type": "electric_scooter", "fusion_lat": 0.0, "lon": -77.0230165}, {"fusion_lon": 0.0, "bike_id": "6c6f74cf6c395c6ca8b415fd61843fcf", "is_disabled": 0, "is_reserved": 0, "lat": 38.89976866666667, "name": "6c6f74cf6c395c6ca8b415fd61843fcf", "rental_uris": {"ios": "https://dc.lft.to/lastmile_qr_scan", "android": "https://dc.lft.to/lastmile_qr_scan"}, "type": "electric_scooter", "fusion_lat": 0.0, "lon": -77.04188766666667}, {"fusion_lon": 0.0, "bike_id": "4b7fa830bca06d0dafb8076e047d6e65", "is_disabled": 0, "is_reserved": 0, "lat": 38.8779095, "name": "4b7fa830bca06d0dafb8076e047d6e65", "rental_uris": {"ios": "https://dc.lft.to/lastmile_qr_scan", "android": "https://dc.lft.to/lastmile_qr_scan"}, "type": "electric_scooter", "fusion_lat": 0.0, "lon": -76.9961245}, {"fusion_lon": 0.0, "bike_id": "a18810547c3d1088f6a3142f0cb87948", "is_disabled": 0, "is_reserved": 0, "lat": 38.91893666666667, "name": "a18810547c3d1088f6a3142f0cb87948", "rental_uris": {"ios": "https://dc.lft.to/lastmile_qr_scan", "android": "https://dc.lft.to/lastmile_qr_scan"}, "type": "electric_scooter", "fusion_lat": 0.0, "lon": -76.96899733333333}, {"fusion_lon": 0.0, "bike_id": "0a5d5ca6576ec097b8feabbb8a0c45ee", "is_disabled": 0, "is_reserved": 0, "lat": 38.91673433333333, "name": "0a5d5ca6576ec097b8feabbb8a0c45ee", "rental_uris": {"ios": "https://dc.lft.to/lastmile_qr_scan", "android": "https://dc.lft.to/lastmile_qr_scan"}, "type": "electric_scooter", "fusion_lat": 0.0, "lon": -77.04704683333334}, {"fusion_lon": 0.0, "bike_id": "2953479b3ec998ce5d3f504eb5a65b2d", "is_disabled": 0, "is_reserved": 0, "lat": 38.9240385, "name": "2953479b3ec998ce5d3f504eb5a65b2d", "rental_uris": {"ios": "https://dc.lft.to/lastmile_qr_scan", "android": "https://dc.lft.to/lastmile_qr_scan"}, "type": "electric_scooter", "fusion_lat": 0.0, "lon": -77.04048483333334}, {"fusion_lon": 0.0, "bike_id": "8b7cb9de993cced0b578112f1c01a5fa", "is_disabled": 0, "is_reserved": 0, "lat": 38.935350166666666, "name": "8b7cb9de993cced0b578112f1c01a5fa", "rental_uris": {"ios": "https://dc.lft.to/lastmile_qr_scan", "android": "https://dc.lft.to/lastmile_qr_scan"}, "type": "electric_scooter", "fusion_lat": 0.0, "lon": -77.02347316666666}, {"fusion_lon": 0.0, "bike_id": "f735f2e04844867b82045aa3d6d84ff6", "is_disabled": 0, "is_reserved": 0, "lat": 38.893934333333334, "name": "f735f2e04844867b82045aa3d6d84ff6", "rental_uris": {"ios": "https://dc.lft.to/lastmile_qr_scan", "android": "https://dc.lft.to/lastmile_qr_scan"}, "type": "electric_scooter", "fusion_lat": 0.0, "lon": -77.05474366666667}, {"fusion_lon": 0.0, "bike_id": "5a721b49fb0d8ebe9e37590fa79522ea", "is_disabled": 0, "is_reserved": 0, "lat": 38.88605166666667, "name": "5a721b49fb0d8ebe9e37590fa79522ea", "rental_uris": {"ios": "https://dc.lft.to/lastmile_qr_scan", "android": "https://dc.lft.to/lastmile_qr_scan"}, "type": "electric_scooter", "fusion_lat": 0.0, "lon": -76.9250805}, {"fusion_lon": 0.0, "bike_id": "12c933b2ba142b89d8fe80f8fd5aedfc", "is_disabled": 0, "is_reserved": 0, "lat": 38.90057516666667, "name": "12c933b2ba142b89d8fe80f8fd5aedfc", "rental_uris": {"ios": "https://dc.lft.to/lastmile_qr_scan", "android": "https://dc.lft.to/lastmile_qr_scan"}, "type": "electric_scooter", "fusion_lat": 0.0, "lon": -76.99344033333334}, {"fusion_lon": 0.0, "bike_id": "bf997228ba065b774d0532952f82b599", "is_disabled": 0, "is_reserved": 0, "lat": 38.905571333333334, "name": "bf997228ba065b774d0532952f82b599", "rental_uris": {"ios": "https://dc.lft.to/lastmile_qr_scan", "android": "https://dc.lft.to/lastmile_qr_scan"}, "type": "electric_scooter", "fusion_lat": 0.0, "lon": -77.03469866666667}, {"fusion_lon": 0.0, "bike_id": "d5c2c82f0e00c4496d5376dd850b49a1", "is_disabled": 0, "is_reserved": 0, "lat": 38.903772833333335, "name": "d5c2c82f0e00c4496d5376dd850b49a1", "rental_uris": {"ios": "https://dc.lft.to/lastmile_qr_scan", "android": "https://dc.lft.to/lastmile_qr_scan"}, "type": "electric_scooter", "fusion_lat": 0.0, "lon": -77.02007266666666}, {"fusion_lon": 0.0, "bike_id": "5a962b05fef9207f458c6cb4b9d019db", "is_disabled": 0, "is_reserved": 0, "lat": 38.92410133333333, "name": "5a962b05fef9207f458c6cb4b9d019db", "rental_uris": {"ios": "https://dc.lft.to/lastmile_qr_scan", "android": "https://dc.lft.to/lastmile_qr_scan"}, "type": "electric_scooter", "fusion_lat": 0.0, "lon": -77.03541733333333}, {"fusion_lon": 0.0, "bike_id": "21f50249188cc596c646cbe5f08db6a7", "is_disabled": 0, "is_reserved": 0, "lat": 38.925912, "name": "21f50249188cc596c646cbe5f08db6a7", "rental_uris": {"ios": "https://dc.lft.to/lastmile_qr_scan", "android": "https://dc.lft.to/lastmile_qr_scan"}, "type": "electric_scooter", "fusion_lat": 0.0, "lon": -77.03731116666667}, {"fusion_lon": 0.0, "bike_id": "bea8a7460950dcdf1244b753a27553ba", "is_disabled": 0, "is_reserved": 0, "lat": 38.9060345, "name": "bea8a7460950dcdf1244b753a27553ba", "rental_uris": {"ios": "https://dc.lft.to/lastmile_qr_scan", "android": "https://dc.lft.to/lastmile_qr_scan"}, "type": "electric_scooter", "fusion_lat": 0.0, "lon": -77.02113}, {"fusion_lon": 0.0, "bike_id": "199399b84daa1e6f77886dbde4741d5b", "is_disabled": 0, "is_reserved": 0, "lat": 38.88609866666667, "name": "199399b84daa1e6f77886dbde4741d5b", "rental_uris": {"ios": "https://dc.lft.to/lastmile_qr_scan", "android": "https://dc.lft.to/lastmile_qr_scan"}, "type": "electric_scooter", "fusion_lat": 0.0, "lon": -76.985464}, {"fusion_lon": 0.0, "bike_id": "a66a1a910263d66ddb4541b57798534b", "is_disabled": 0, "is_reserved": 0, "lat": 38.91810683333333, "name": "a66a1a910263d66ddb4541b57798534b", "rental_uris": {"ios": "https://dc.lft.to/lastmile_qr_scan", "android": "https://dc.lft.to/lastmile_qr_scan"}, "type": "electric_scooter", "fusion_lat": 0.0, "lon": -77.03441033333333}, {"fusion_lon": 0.0, "bike_id": "1b37de53087e7b0d037f6109e9ac0497", "is_disabled": 0, "is_reserved": 0, "lat": 38.861264166666665, "name": "1b37de53087e7b0d037f6109e9ac0497", "rental_uris": {"ios": "https://dc.lft.to/lastmile_qr_scan", "android": "https://dc.lft.to/lastmile_qr_scan"}, "type": "electric_scooter", "fusion_lat": 0.0, "lon": -77.0032345}, {"fusion_lon": 0.0, "bike_id": "43f054778a62ef204153a2937ef09020", "is_disabled": 0, "is_reserved": 0, "lat": 38.878510166666665, "name": "43f054778a62ef204153a2937ef09020", "rental_uris": {"ios": "https://dc.lft.to/lastmile_qr_scan", "android": "https://dc.lft.to/lastmile_qr_scan"}, "type": "electric_scooter", "fusion_lat": 0.0, "lon": -77.00502066666667}, {"fusion_lon": 0.0, "bike_id": "73e42cac209b16b995ded4227a3294c9", "is_disabled": 0, "is_reserved": 0, "lat": 38.915564833333335, "name": "73e42cac209b16b995ded4227a3294c9", "rental_uris": {"ios": "https://dc.lft.to/lastmile_qr_scan", "android": "https://dc.lft.to/lastmile_qr_scan"}, "type": "electric_scooter", "fusion_lat": 0.0, "lon": -77.03175666666667}, {"fusion_lon": 0.0, "bike_id": "dcdd394ec743af513943b42c11c930a7", "is_disabled": 0, "is_reserved": 0, "lat": 38.862026166666666, "name": "dcdd394ec743af513943b42c11c930a7", "rental_uris": {"ios": "https://dc.lft.to/lastmile_qr_scan", "android": "https://dc.lft.to/lastmile_qr_scan"}, "type": "electric_scooter", "fusion_lat": 0.0, "lon": -76.99464033333334}, {"fusion_lon": 0.0, "bike_id": "1eec018ed7ae2bbd3903de5ebc104d58", "is_disabled": 0, "is_reserved": 0, "lat": 38.916698, "name": "1eec018ed7ae2bbd3903de5ebc104d58", "rental_uris": {"ios": "https://dc.lft.to/lastmile_qr_scan", "android": "https://dc.lft.to/lastmile_qr_scan"}, "type": "electric_scooter", "fusion_lat": 0.0, "lon": -77.04745133333333}, {"fusion_lon": 0.0, "bike_id": "a621378c2fee1e650fe814a2b2d4d6f3", "is_disabled": 0, "is_reserved": 0, "lat": 38.896695666666666, "name": "a621378c2fee1e650fe814a2b2d4d6f3", "rental_uris": {"ios": "https://dc.lft.to/lastmile_qr_scan", "android": "https://dc.lft.to/lastmile_qr_scan"}, "type": "electric_scooter", "fusion_lat": 0.0, "lon": -76.9321455}, {"fusion_lon": 0.0, "bike_id": "f5bffc207b994b4b1426d4075185a0e2", "is_disabled": 0, "is_reserved": 0, "lat": 38.899714333333336, "name": "f5bffc207b994b4b1426d4075185a0e2", "rental_uris": {"ios": "https://dc.lft.to/lastmile_qr_scan", "android": "https://dc.lft.to/lastmile_qr_scan"}, "type": "electric_scooter", "fusion_lat": 0.0, "lon": -77.04522683333333}, {"fusion_lon": 0.0, "bike_id": "f54e1462b88f0d1c0c287880bc22d5a2", "is_disabled": 0, "is_reserved": 0, "lat": 38.91843133333333, "name": "f54e1462b88f0d1c0c287880bc22d5a2", "rental_uris": {"ios": "https://dc.lft.to/lastmile_qr_scan", "android": "https://dc.lft.to/lastmile_qr_scan"}, "type": "electric_scooter", "fusion_lat": 0.0, "lon": -77.0417105}, {"fusion_lon": 0.0, "bike_id": "43691453e13b97da017f3ab964ee3bba", "is_disabled": 0, "is_reserved": 0, "lat": 38.9206235, "name": "43691453e13b97da017f3ab964ee3bba", "rental_uris": {"ios": "https://dc.lft.to/lastmile_qr_scan", "android": "https://dc.lft.to/lastmile_qr_scan"}, "type": "electric_scooter", "fusion_lat": 0.0, "lon": -77.04191666666667}, {"fusion_lon": 0.0, "bike_id": "c524ce1ad8a850074d6d57ae891a29cb", "is_disabled": 0, "is_reserved": 0, "lat": 38.927816666666665, "name": "c524ce1ad8a850074d6d57ae891a29cb", "rental_uris": {"ios": "https://dc.lft.to/lastmile_qr_scan", "android": "https://dc.lft.to/lastmile_qr_scan"}, "type": "electric_scooter", "fusion_lat": 0.0, "lon": -77.02722533333333}, {"fusion_lon": 0.0, "bike_id": "9d271043c240db2de5fb129e29d7652f", "is_disabled": 0, "is_reserved": 0, "lat": 38.91106716666667, "name": "9d271043c240db2de5fb129e29d7652f", "rental_uris": {"ios": "https://dc.lft.to/lastmile_qr_scan", "android": "https://dc.lft.to/lastmile_qr_scan"}, "type": "electric_scooter", "fusion_lat": 0.0, "lon": -77.01162066666667}, {"fusion_lon": 0.0, "bike_id": "932aef34e530443c8a0a2100e2404073", "is_disabled": 0, "is_reserved": 0, "lat": 38.86825283333334, "name": "932aef34e530443c8a0a2100e2404073", "rental_uris": {"ios": "https://dc.lft.to/lastmile_qr_scan", "android": "https://dc.lft.to/lastmile_qr_scan"}, "type": "electric_bike", "fusion_lat": 0.0, "lon": -76.980236}, {"fusion_lon": 0.0, "bike_id": "0fcd1e0d8a41d4effac2fed58cc48a9f", "is_disabled": 0, "is_reserved": 0, "lat": 38.9296535, "name": "0fcd1e0d8a41d4effac2fed58cc48a9f", "rental_uris": {"ios": "https://dc.lft.to/lastmile_qr_scan", "android": "https://dc.lft.to/lastmile_qr_scan"}, "type": "electric_scooter", "fusion_lat": 0.0, "lon": -77.04032466666666}, {"fusion_lon": 0.0, "bike_id": "e1f43fe4f3ee90fac53e5a032e66e801", "is_disabled": 0, "is_reserved": 0, "lat": 38.93051916666667, "name": "e1f43fe4f3ee90fac53e5a032e66e801", "rental_uris": {"ios": "https://dc.lft.to/lastmile_qr_scan", "android": "https://dc.lft.to/lastmile_qr_scan"}, "type": "electric_scooter", "fusion_lat": 0.0, "lon": -77.05570266666666}, {"fusion_lon": 0.0, "bike_id": "a1bdeaa24c8341ab4d3cb59fdb1ba00d", "is_disabled": 0, "is_reserved": 0, "lat": 38.89831266666667, "name": "a1bdeaa24c8341ab4d3cb59fdb1ba00d", "rental_uris": {"ios": "https://dc.lft.to/lastmile_qr_scan", "android": "https://dc.lft.to/lastmile_qr_scan"}, "type": "electric_scooter", "fusion_lat": 0.0, "lon": -77.04942816666667}, {"fusion_lon": 0.0, "bike_id": "9229c6a326e6c0fa4147c324ddcdbe39", "is_disabled": 0, "is_reserved": 0, "lat": 38.98532766666667, "name": "9229c6a326e6c0fa4147c324ddcdbe39", "rental_uris": {"ios": "https://dc.lft.to/lastmile_qr_scan", "android": "https://dc.lft.to/lastmile_qr_scan"}, "type": "electric_bike", "fusion_lat": 0.0, "lon": -77.00416366666667}, {"fusion_lon": 0.0, "bike_id": "52293678cfa434063687be40c39d188a", "is_disabled": 0, "is_reserved": 0, "lat": 38.9141695, "name": "52293678cfa434063687be40c39d188a", "rental_uris": {"ios": "https://dc.lft.to/lastmile_qr_scan", "android": "https://dc.lft.to/lastmile_qr_scan"}, "type": "electric_scooter", "fusion_lat": 0.0, "lon": -77.0222555}, {"fusion_lon": 0.0, "bike_id": "8c7fc52fcf16f2a5ce66e2dc783805f1", "is_disabled": 0, "is_reserved": 0, "lat": 38.904411833333334, "name": "8c7fc52fcf16f2a5ce66e2dc783805f1", "rental_uris": {"ios": "https://dc.lft.to/lastmile_qr_scan", "android": "https://dc.lft.to/lastmile_qr_scan"}, "type": "electric_scooter", "fusion_lat": 0.0, "lon": -77.028787}, {"fusion_lon": 0.0, "bike_id": "1eaaad093efcda89a8e8284b6f0bdba0", "is_disabled": 0, "is_reserved": 0, "lat": 38.91621216666667, "name": "1eaaad093efcda89a8e8284b6f0bdba0", "rental_uris": {"ios": "https://dc.lft.to/lastmile_qr_scan", "android": "https://dc.lft.to/lastmile_qr_scan"}, "type": "electric_scooter", "fusion_lat": 0.0, "lon": -77.03752466666667}, {"fusion_lon": 0.0, "bike_id": "139015656f2264da5162a59a57cb7e80", "is_disabled": 0, "is_reserved": 0, "lat": 38.89562733333333, "name": "139015656f2264da5162a59a57cb7e80", "rental_uris": {"ios": "https://dc.lft.to/lastmile_qr_scan", "android": "https://dc.lft.to/lastmile_qr_scan"}, "type": "electric_scooter", "fusion_lat": 0.0, "lon": -77.00917233333334}, {"fusion_lon": 0.0, "bike_id": "a77d6bfb75bcfd73a1ff031a2757c13f", "is_disabled": 0, "is_reserved": 0, "lat": 38.9235485, "name": "a77d6bfb75bcfd73a1ff031a2757c13f", "rental_uris": {"ios": "https://dc.lft.to/lastmile_qr_scan", "android": "https://dc.lft.to/lastmile_qr_scan"}, "type": "electric_scooter", "fusion_lat": 0.0, "lon": -77.03538333333333}, {"fusion_lon": 0.0, "bike_id": "150556806e7149ba5e8ce757979a7f5c", "is_disabled": 0, "is_reserved": 0, "lat": 38.87845983333333, "name": "150556806e7149ba5e8ce757979a7f5c", "rental_uris": {"ios": "https://dc.lft.to/lastmile_qr_scan", "android": "https://dc.lft.to/lastmile_qr_scan"}, "type": "electric_scooter", "fusion_lat": 0.0, "lon": -77.01970333333334}, {"fusion_lon": 0.0, "bike_id": "7d6962929aea0624533c01cc97476482", "is_disabled": 0, "is_reserved": 0, "lat": 38.950719666666664, "name": "7d6962929aea0624533c01cc97476482", "rental_uris": {"ios": "https://dc.lft.to/lastmile_qr_scan", "android": "https://dc.lft.to/lastmile_qr_scan"}, "type": "electric_bike", "fusion_lat": 0.0, "lon": -77.0120395}, {"fusion_lon": 0.0, "bike_id": "5b15a478e6e2898f35c9e81b4e74d909", "is_disabled": 0, "is_reserved": 0, "lat": 38.877389666666666, "name": "5b15a478e6e2898f35c9e81b4e74d909", "rental_uris": {"ios": "https://dc.lft.to/lastmile_qr_scan", "android": "https://dc.lft.to/lastmile_qr_scan"}, "type": "electric_bike", "fusion_lat": 0.0, "lon": -77.1487375}, {"fusion_lon": 0.0, "bike_id": "fbf55f55eedf6513ea273464bbb06de2", "is_disabled": 0, "is_reserved": 0, "lat": 38.877598666666664, "name": "fbf55f55eedf6513ea273464bbb06de2", "rental_uris": {"ios": "https://dc.lft.to/lastmile_qr_scan", "android": "https://dc.lft.to/lastmile_qr_scan"}, "type": "electric_scooter", "fusion_lat": 0.0, "lon": -76.99419133333333}, {"fusion_lon": 0.0, "bike_id": "2ef25418e4736485b883b07c0cba90ae", "is_disabled": 0, "is_reserved": 0, "lat": 38.906152, "name": "2ef25418e4736485b883b07c0cba90ae", "rental_uris": {"ios": "https://dc.lft.to/lastmile_qr_scan", "android": "https://dc.lft.to/lastmile_qr_scan"}, "type": "electric_scooter", "fusion_lat": 0.0, "lon": -77.03384833333334}, {"fusion_lon": 0.0, "bike_id": "b16745270e322931aa9168df76ffb65c", "is_disabled": 0, "is_reserved": 0, "lat": 38.907600333333335, "name": "b16745270e322931aa9168df76ffb65c", "rental_uris": {"ios": "https://dc.lft.to/lastmile_qr_scan", "android": "https://dc.lft.to/lastmile_qr_scan"}, "type": "electric_scooter", "fusion_lat": 0.0, "lon": -77.01700516666666}, {"fusion_lon": 0.0, "bike_id": "54cc587a1b31df0d199f82255102ac4a", "is_disabled": 0, "is_reserved": 0, "lat": 38.92340983333333, "name": "54cc587a1b31df0d199f82255102ac4a", "rental_uris": {"ios": "https://dc.lft.to/lastmile_qr_scan", "android": "https://dc.lft.to/lastmile_qr_scan"}, "type": "electric_scooter", "fusion_lat": 0.0, "lon": -77.05617266666667}, {"fusion_lon": 0.0, "bike_id": "ca74688771a7179bd8357a3997df3288", "is_disabled": 0, "is_reserved": 0, "lat": 38.9203615, "name": "ca74688771a7179bd8357a3997df3288", "rental_uris": {"ios": "https://dc.lft.to/lastmile_qr_scan", "android": "https://dc.lft.to/lastmile_qr_scan"}, "type": "electric_scooter", "fusion_lat": 0.0, "lon": -77.01221816666667}, {"fusion_lon": 0.0, "bike_id": "04392113da56ae26b244f4f337f0cf19", "is_disabled": 0, "is_reserved": 0, "lat": 38.951745333333335, "name": "04392113da56ae26b244f4f337f0cf19", "rental_uris": {"ios": "https://dc.lft.to/lastmile_qr_scan", "android": "https://dc.lft.to/lastmile_qr_scan"}, "type": "electric_scooter", "fusion_lat": 0.0, "lon": -77.03772216666667}, {"fusion_lon": 0.0, "bike_id": "9fc130b51b1d13122c20a7afd77b2b32", "is_disabled": 0, "is_reserved": 0, "lat": 38.9398065, "name": "9fc130b51b1d13122c20a7afd77b2b32", "rental_uris": {"ios": "https://dc.lft.to/lastmile_qr_scan", "android": "https://dc.lft.to/lastmile_qr_scan"}, "type": "electric_scooter", "fusion_lat": 0.0, "lon": -77.02960433333334}, {"fusion_lon": 0.0, "bike_id": "f12ab11506e0ca523873c64c8e4078c9", "is_disabled": 0, "is_reserved": 0, "lat": 38.86509316666667, "name": "f12ab11506e0ca523873c64c8e4078c9", "rental_uris": {"ios": "https://dc.lft.to/lastmile_qr_scan", "android": "https://dc.lft.to/lastmile_qr_scan"}, "type": "electric_bike", "fusion_lat": 0.0, "lon": -76.9732105}, {"fusion_lon": 0.0, "bike_id": "1b978329118a439c76824f43ecfac081", "is_disabled": 0, "is_reserved": 0, "lat": 39.005364666666665, "name": "1b978329118a439c76824f43ecfac081", "rental_uris": {"ios": "https://dc.lft.to/lastmile_qr_scan", "android": "https://dc.lft.to/lastmile_qr_scan"}, "type": "electric_bike", "fusion_lat": 0.0, "lon": -77.10403483333333}, {"fusion_lon": 0.0, "bike_id": "fcdd3212a14bd41077cd721fda94c60c", "is_disabled": 0, "is_reserved": 0, "lat": 38.904027, "name": "fcdd3212a14bd41077cd721fda94c60c", "rental_uris": {"ios": "https://dc.lft.to/lastmile_qr_scan", "android": "https://dc.lft.to/lastmile_qr_scan"}, "type": "electric_scooter", "fusion_lat": 0.0, "lon": -77.02063116666666}, {"fusion_lon": 0.0, "bike_id": "11ada07be2be058d9b5fb0f4fe4e8986", "is_disabled": 0, "is_reserved": 0, "lat": 38.966344166666666, "name": "11ada07be2be058d9b5fb0f4fe4e8986", "rental_uris": {"ios": "https://dc.lft.to/lastmile_qr_scan", "android": "https://dc.lft.to/lastmile_qr_scan"}, "type": "electric_scooter", "fusion_lat": 0.0, "lon": -77.027495}, {"fusion_lon": 0.0, "bike_id": "db81949547a5b7f1c4f730a4631dfb43", "is_disabled": 0, "is_reserved": 0, "lat": 38.905699166666665, "name": "db81949547a5b7f1c4f730a4631dfb43", "rental_uris": {"ios": "https://dc.lft.to/lastmile_qr_scan", "android": "https://dc.lft.to/lastmile_qr_scan"}, "type": "electric_scooter", "fusion_lat": 0.0, "lon": -77.04351333333334}, {"fusion_lon": 0.0, "bike_id": "5ffbde568e596d7ea45aa55ecba78d65", "is_disabled": 0, "is_reserved": 0, "lat": 38.89785116666667, "name": "5ffbde568e596d7ea45aa55ecba78d65", "rental_uris": {"ios": "https://dc.lft.to/lastmile_qr_scan", "android": "https://dc.lft.to/lastmile_qr_scan"}, "type": "electric_scooter", "fusion_lat": 0.0, "lon": -77.04969033333333}, {"fusion_lon": 0.0, "bike_id": "2af30103a7f9fc3a2bd84470ce7afb3f", "is_disabled": 0, "is_reserved": 0, "lat": 38.92082883333333, "name": "2af30103a7f9fc3a2bd84470ce7afb3f", "rental_uris": {"ios": "https://dc.lft.to/lastmile_qr_scan", "android": "https://dc.lft.to/lastmile_qr_scan"}, "type": "electric_scooter", "fusion_lat": 0.0, "lon": -77.0388475}, {"fusion_lon": 0.0, "bike_id": "6c18bfd6d23b5bb4f75da17ad98348f0", "is_disabled": 0, "is_reserved": 0, "lat": 38.9254065, "name": "6c18bfd6d23b5bb4f75da17ad98348f0", "rental_uris": {"ios": "https://dc.lft.to/lastmile_qr_scan", "android": "https://dc.lft.to/lastmile_qr_scan"}, "type": "electric_bike", "fusion_lat": 0.0, "lon": -77.0732145}, {"fusion_lon": 0.0, "bike_id": "a19156364a857a1ffbd5ae25a4466149", "is_disabled": 0, "is_reserved": 0, "lat": 38.91956783333333, "name": "a19156364a857a1ffbd5ae25a4466149", "rental_uris": {"ios": "https://dc.lft.to/lastmile_qr_scan", "android": "https://dc.lft.to/lastmile_qr_scan"}, "type": "electric_scooter", "fusion_lat": 0.0, "lon": -77.01389283333333}, {"fusion_lon": 0.0, "bike_id": "aec837b9fc1cc013a1bfe55eb8333e83", "is_disabled": 0, "is_reserved": 0, "lat": 38.90972416666666, "name": "aec837b9fc1cc013a1bfe55eb8333e83", "rental_uris": {"ios": "https://dc.lft.to/lastmile_qr_scan", "android": "https://dc.lft.to/lastmile_qr_scan"}, "type": "electric_scooter", "fusion_lat": 0.0, "lon": -77.03213133333334}, {"fusion_lon": 0.0, "bike_id": "0947e750c1c47f887831ace0c6a328a7", "is_disabled": 0, "is_reserved": 0, "lat": 38.97607416666666, "name": "0947e750c1c47f887831ace0c6a328a7", "rental_uris": {"ios": "https://dc.lft.to/lastmile_qr_scan", "android": "https://dc.lft.to/lastmile_qr_scan"}, "type": "electric_scooter", "fusion_lat": 0.0, "lon": -77.02655783333333}, {"fusion_lon": 0.0, "bike_id": "dffdf4096022b3464e05e04b8467fef9", "is_disabled": 0, "is_reserved": 0, "lat": 38.928943833333335, "name": "dffdf4096022b3464e05e04b8467fef9", "rental_uris": {"ios": "https://dc.lft.to/lastmile_qr_scan", "android": "https://dc.lft.to/lastmile_qr_scan"}, "type": "electric_scooter", "fusion_lat": 0.0, "lon": -77.02254916666666}, {"fusion_lon": 0.0, "bike_id": "babf3c18832d686f96f5ae169fafd2d1", "is_disabled": 0, "is_reserved": 0, "lat": 38.915654, "name": "babf3c18832d686f96f5ae169fafd2d1", "rental_uris": {"ios": "https://dc.lft.to/lastmile_qr_scan", "android": "https://dc.lft.to/lastmile_qr_scan"}, "type": "electric_scooter", "fusion_lat": 0.0, "lon": -77.012098}, {"fusion_lon": 0.0, "bike_id": "bbe5fb3e0181f8b6056669aca555264f", "is_disabled": 0, "is_reserved": 0, "lat": 38.91807333333333, "name": "bbe5fb3e0181f8b6056669aca555264f", "rental_uris": {"ios": "https://dc.lft.to/lastmile_qr_scan", "android": "https://dc.lft.to/lastmile_qr_scan"}, "type": "electric_scooter", "fusion_lat": 0.0, "lon": -77.02453433333334}, {"fusion_lon": 0.0, "bike_id": "bd779770036bfa19307fba4388570fdf", "is_disabled": 0, "is_reserved": 0, "lat": 38.93278033333333, "name": "bd779770036bfa19307fba4388570fdf", "rental_uris": {"ios": "https://dc.lft.to/lastmile_qr_scan", "android": "https://dc.lft.to/lastmile_qr_scan"}, "type": "electric_scooter", "fusion_lat": 0.0, "lon": -77.0348105}, {"fusion_lon": 0.0, "bike_id": "d6663559a92a93bdd86e5719925ee420", "is_disabled": 0, "is_reserved": 0, "lat": 38.9087745, "name": "d6663559a92a93bdd86e5719925ee420", "rental_uris": {"ios": "https://dc.lft.to/lastmile_qr_scan", "android": "https://dc.lft.to/lastmile_qr_scan"}, "type": "electric_scooter", "fusion_lat": 0.0, "lon": -77.04502216666667}, {"fusion_lon": 0.0, "bike_id": "ddeabc46d3b49b7142f903e09d487753", "is_disabled": 0, "is_reserved": 0, "lat": 38.92772016666667, "name": "ddeabc46d3b49b7142f903e09d487753", "rental_uris": {"ios": "https://dc.lft.to/lastmile_qr_scan", "android": "https://dc.lft.to/lastmile_qr_scan"}, "type": "electric_scooter", "fusion_lat": 0.0, "lon": -77.020526}, {"fusion_lon": 0.0, "bike_id": "cc53bd933c256fc0f9f717316c15df8e", "is_disabled": 0, "is_reserved": 0, "lat": 38.91276633333333, "name": "cc53bd933c256fc0f9f717316c15df8e", "rental_uris": {"ios": "https://dc.lft.to/lastmile_qr_scan", "android": "https://dc.lft.to/lastmile_qr_scan"}, "type": "electric_scooter", "fusion_lat": 0.0, "lon": -77.03854033333333}, {"fusion_lon": 0.0, "bike_id": "19e1ef28ccf65c8ad57ef6e318c1be86", "is_disabled": 0, "is_reserved": 0, "lat": 38.905734333333335, "name": "19e1ef28ccf65c8ad57ef6e318c1be86", "rental_uris": {"ios": "https://dc.lft.to/lastmile_qr_scan", "android": "https://dc.lft.to/lastmile_qr_scan"}, "type": "electric_scooter", "fusion_lat": 0.0, "lon": -77.00483533333333}, {"fusion_lon": 0.0, "bike_id": "841bc3b8dd6a284ed7dc4d36f9451db5", "is_disabled": 0, "is_reserved": 0, "lat": 38.92359966666667, "name": "841bc3b8dd6a284ed7dc4d36f9451db5", "rental_uris": {"ios": "https://dc.lft.to/lastmile_qr_scan", "android": "https://dc.lft.to/lastmile_qr_scan"}, "type": "electric_scooter", "fusion_lat": 0.0, "lon": -77.0282025}, {"fusion_lon": 0.0, "bike_id": "7b53364dd75f9ee4d60f417669bbdae9", "is_disabled": 0, "is_reserved": 0, "lat": 38.919659833333334, "name": "7b53364dd75f9ee4d60f417669bbdae9", "rental_uris": {"ios": "https://dc.lft.to/lastmile_qr_scan", "android": "https://dc.lft.to/lastmile_qr_scan"}, "type": "electric_scooter", "fusion_lat": 0.0, "lon": -77.042318}, {"fusion_lon": 0.0, "bike_id": "251ce4fb1f9ec446a0bbe2a70828a941", "is_disabled": 0, "is_reserved": 0, "lat": 38.92483566666667, "name": "251ce4fb1f9ec446a0bbe2a70828a941", "rental_uris": {"ios": "https://dc.lft.to/lastmile_qr_scan", "android": "https://dc.lft.to/lastmile_qr_scan"}, "type": "electric_scooter", "fusion_lat": 0.0, "lon": -77.02233516666666}, {"fusion_lon": 0.0, "bike_id": "8427a0f9161c00d35468e86198140a6f", "is_disabled": 0, "is_reserved": 0, "lat": 38.92414766666667, "name": "8427a0f9161c00d35468e86198140a6f", "rental_uris": {"ios": "https://dc.lft.to/lastmile_qr_scan", "android": "https://dc.lft.to/lastmile_qr_scan"}, "type": "electric_scooter", "fusion_lat": 0.0, "lon": -77.02127383333334}, {"fusion_lon": 0.0, "bike_id": "493b6068be4ee6003aa3946bf9be7a17", "is_disabled": 0, "is_reserved": 0, "lat": 38.894614833333335, "name": "493b6068be4ee6003aa3946bf9be7a17", "rental_uris": {"ios": "https://dc.lft.to/lastmile_qr_scan", "android": "https://dc.lft.to/lastmile_qr_scan"}, "type": "electric_bike", "fusion_lat": 0.0, "lon": -77.04676066666667}, {"fusion_lon": 0.0, "bike_id": "8066da973d9fda75c2c93c421e21d8de", "is_disabled": 0, "is_reserved": 0, "lat": 38.899614, "name": "8066da973d9fda75c2c93c421e21d8de", "rental_uris": {"ios": "https://dc.lft.to/lastmile_qr_scan", "android": "https://dc.lft.to/lastmile_qr_scan"}, "type": "electric_scooter", "fusion_lat": 0.0, "lon": -77.04498116666667}, {"fusion_lon": 0.0, "bike_id": "1ee9bf558af264389f18f0e4c7c78e13", "is_disabled": 0, "is_reserved": 0, "lat": 38.917291, "name": "1ee9bf558af264389f18f0e4c7c78e13", "rental_uris": {"ios": "https://dc.lft.to/lastmile_qr_scan", "android": "https://dc.lft.to/lastmile_qr_scan"}, "type": "electric_scooter", "fusion_lat": 0.0, "lon": -77.02965266666666}, {"fusion_lon": 0.0, "bike_id": "a81a52da40561a99e9de2c08edc70507", "is_disabled": 0, "is_reserved": 0, "lat": 38.938762833333335, "name": "a81a52da40561a99e9de2c08edc70507", "rental_uris": {"ios": "https://dc.lft.to/lastmile_qr_scan", "android": "https://dc.lft.to/lastmile_qr_scan"}, "type": "electric_scooter", "fusion_lat": 0.0, "lon": -77.024634}, {"fusion_lon": 0.0, "bike_id": "5a4c9944e1d6f654907b346f0573cdee", "is_disabled": 0, "is_reserved": 0, "lat": 38.89333933333333, "name": "5a4c9944e1d6f654907b346f0573cdee", "rental_uris": {"ios": "https://dc.lft.to/lastmile_qr_scan", "android": "https://dc.lft.to/lastmile_qr_scan"}, "type": "electric_scooter", "fusion_lat": 0.0, "lon": -77.03193116666667}, {"fusion_lon": 0.0, "bike_id": "a3b4e5c2a07ebec53259af12ddef587f", "is_disabled": 0, "is_reserved": 0, "lat": 38.92167883333333, "name": "a3b4e5c2a07ebec53259af12ddef587f", "rental_uris": {"ios": "https://dc.lft.to/lastmile_qr_scan", "android": "https://dc.lft.to/lastmile_qr_scan"}, "type": "electric_scooter", "fusion_lat": 0.0, "lon": -77.03524116666667}, {"fusion_lon": 0.0, "bike_id": "7e225fe317a8de43c3874ac72268e553", "is_disabled": 0, "is_reserved": 0, "lat": 38.8853385, "name": "7e225fe317a8de43c3874ac72268e553", "rental_uris": {"ios": "https://dc.lft.to/lastmile_qr_scan", "android": "https://dc.lft.to/lastmile_qr_scan"}, "type": "electric_scooter", "fusion_lat": 0.0, "lon": -77.02006883333334}, {"fusion_lon": 0.0, "bike_id": "4be01658f58850544ec8fa8fa95418be", "is_disabled": 0, "is_reserved": 0, "lat": 38.87737633333333, "name": "4be01658f58850544ec8fa8fa95418be", "rental_uris": {"ios": "https://dc.lft.to/lastmile_qr_scan", "android": "https://dc.lft.to/lastmile_qr_scan"}, "type": "electric_scooter", "fusion_lat": 0.0, "lon": -77.01054316666666}, {"fusion_lon": 0.0, "bike_id": "9ed5462492caeff4f27b0b3139ce1ea3", "is_disabled": 0, "is_reserved": 0, "lat": 38.920414, "name": "9ed5462492caeff4f27b0b3139ce1ea3", "rental_uris": {"ios": "https://dc.lft.to/lastmile_qr_scan", "android": "https://dc.lft.to/lastmile_qr_scan"}, "type": "electric_scooter", "fusion_lat": 0.0, "lon": -77.034072}, {"fusion_lon": 0.0, "bike_id": "9ac2cc6a03dfe9ced21f15d496e4f68c", "is_disabled": 0, "is_reserved": 0, "lat": 38.927566166666665, "name": "9ac2cc6a03dfe9ced21f15d496e4f68c", "rental_uris": {"ios": "https://dc.lft.to/lastmile_qr_scan", "android": "https://dc.lft.to/lastmile_qr_scan"}, "type": "electric_scooter", "fusion_lat": 0.0, "lon": -77.0329585}, {"fusion_lon": 0.0, "bike_id": "82a462ae4b73787a0a7a10ce269931e6", "is_disabled": 0, "is_reserved": 0, "lat": 38.91940366666667, "name": "82a462ae4b73787a0a7a10ce269931e6", "rental_uris": {"ios": "https://dc.lft.to/lastmile_qr_scan", "android": "https://dc.lft.to/lastmile_qr_scan"}, "type": "electric_scooter", "fusion_lat": 0.0, "lon": -77.01355933333333}, {"fusion_lon": 0.0, "bike_id": "54e6f0a5d89a2f5c4970f27da2a4e010", "is_disabled": 0, "is_reserved": 0, "lat": 38.90173333333333, "name": "54e6f0a5d89a2f5c4970f27da2a4e010", "rental_uris": {"ios": "https://dc.lft.to/lastmile_qr_scan", "android": "https://dc.lft.to/lastmile_qr_scan"}, "type": "electric_scooter", "fusion_lat": 0.0, "lon": -76.92944616666666}, {"fusion_lon": 0.0, "bike_id": "a6c6b562f40a54477e063937f55472e1", "is_disabled": 0, "is_reserved": 0, "lat": 38.93552483333333, "name": "a6c6b562f40a54477e063937f55472e1", "rental_uris": {"ios": "https://dc.lft.to/lastmile_qr_scan", "android": "https://dc.lft.to/lastmile_qr_scan"}, "type": "electric_scooter", "fusion_lat": 0.0, "lon": -77.02511083333333}, {"fusion_lon": 0.0, "bike_id": "5b9f68e08d33326f3ec7e2e79b2c7886", "is_disabled": 0, "is_reserved": 0, "lat": 38.92952833333333, "name": "5b9f68e08d33326f3ec7e2e79b2c7886", "rental_uris": {"ios": "https://dc.lft.to/lastmile_qr_scan", "android": "https://dc.lft.to/lastmile_qr_scan"}, "type": "electric_scooter", "fusion_lat": 0.0, "lon": -77.05509483333333}, {"fusion_lon": 0.0, "bike_id": "db8021bda37d1d34cf6be190b3a21f46", "is_disabled": 0, "is_reserved": 0, "lat": 38.974776166666665, "name": "db8021bda37d1d34cf6be190b3a21f46", "rental_uris": {"ios": "https://dc.lft.to/lastmile_qr_scan", "android": "https://dc.lft.to/lastmile_qr_scan"}, "type": "electric_bike", "fusion_lat": 0.0, "lon": -76.98673033333333}, {"fusion_lon": 0.0, "bike_id": "248491dc1cc7f9f69bc34b7d6bc81c8a", "is_disabled": 0, "is_reserved": 0, "lat": 38.91336016666666, "name": "248491dc1cc7f9f69bc34b7d6bc81c8a", "rental_uris": {"ios": "https://dc.lft.to/lastmile_qr_scan", "android": "https://dc.lft.to/lastmile_qr_scan"}, "type": "electric_scooter", "fusion_lat": 0.0, "lon": -77.02189983333334}, {"fusion_lon": 0.0, "bike_id": "09cd6ad4d774a4ee5533bf3e5bc8dc96", "is_disabled": 0, "is_reserved": 0, "lat": 38.805026166666664, "name": "09cd6ad4d774a4ee5533bf3e5bc8dc96", "rental_uris": {"ios": "https://dc.lft.to/lastmile_qr_scan", "android": "https://dc.lft.to/lastmile_qr_scan"}, "type": "electric_bike", "fusion_lat": 0.0, "lon": -77.048162}, {"fusion_lon": 0.0, "bike_id": "5b4053ef4b9c9cc30775214f36649e7f", "is_disabled": 0, "is_reserved": 0, "lat": 38.92800616666667, "name": "5b4053ef4b9c9cc30775214f36649e7f", "rental_uris": {"ios": "https://dc.lft.to/lastmile_qr_scan", "android": "https://dc.lft.to/lastmile_qr_scan"}, "type": "electric_scooter", "fusion_lat": 0.0, "lon": -77.03616416666667}, {"fusion_lon": 0.0, "bike_id": "d77e848a5836abcf1d4149476a25e20f", "is_disabled": 0, "is_reserved": 0, "lat": 38.8938025, "name": "d77e848a5836abcf1d4149476a25e20f", "rental_uris": {"ios": "https://dc.lft.to/lastmile_qr_scan", "android": "https://dc.lft.to/lastmile_qr_scan"}, "type": "electric_scooter", "fusion_lat": 0.0, "lon": -77.02454533333334}, {"fusion_lon": 0.0, "bike_id": "9cee845b217f7ed4e33baafd2acbb74a", "is_disabled": 0, "is_reserved": 0, "lat": 38.921517333333334, "name": "9cee845b217f7ed4e33baafd2acbb74a", "rental_uris": {"ios": "https://dc.lft.to/lastmile_qr_scan", "android": "https://dc.lft.to/lastmile_qr_scan"}, "type": "electric_scooter", "fusion_lat": 0.0, "lon": -77.0207175}, {"fusion_lon": 0.0, "bike_id": "e9f3b13a023b7a177877af5cd4be0880", "is_disabled": 0, "is_reserved": 0, "lat": 39.02298783333333, "name": "e9f3b13a023b7a177877af5cd4be0880", "rental_uris": {"ios": "https://dc.lft.to/lastmile_qr_scan", "android": "https://dc.lft.to/lastmile_qr_scan"}, "type": "electric_bike", "fusion_lat": 0.0, "lon": -77.021083}, {"fusion_lon": 0.0, "bike_id": "12c9b71e9c2a621536a6732b1f8a7658", "is_disabled": 0, "is_reserved": 0, "lat": 38.92793916666667, "name": "12c9b71e9c2a621536a6732b1f8a7658", "rental_uris": {"ios": "https://dc.lft.to/lastmile_qr_scan", "android": "https://dc.lft.to/lastmile_qr_scan"}, "type": "electric_scooter", "fusion_lat": 0.0, "lon": -77.02600016666666}, {"fusion_lon": 0.0, "bike_id": "9d20a17c097972146fef3b324b698903", "is_disabled": 0, "is_reserved": 0, "lat": 38.88969916666667, "name": "9d20a17c097972146fef3b324b698903", "rental_uris": {"ios": "https://dc.lft.to/lastmile_qr_scan", "android": "https://dc.lft.to/lastmile_qr_scan"}, "type": "electric_scooter", "fusion_lat": 0.0, "lon": -76.98034633333333}, {"fusion_lon": 0.0, "bike_id": "dcc6c9c9524d88354d2e7d6a8a4f0ce2", "is_disabled": 0, "is_reserved": 0, "lat": 38.90437133333333, "name": "dcc6c9c9524d88354d2e7d6a8a4f0ce2", "rental_uris": {"ios": "https://dc.lft.to/lastmile_qr_scan", "android": "https://dc.lft.to/lastmile_qr_scan"}, "type": "electric_scooter", "fusion_lat": 0.0, "lon": -77.02836183333334}, {"fusion_lon": 0.0, "bike_id": "df9a29f2e7a139b4397d97b334017689", "is_disabled": 0, "is_reserved": 0, "lat": 38.894243333333335, "name": "df9a29f2e7a139b4397d97b334017689", "rental_uris": {"ios": "https://dc.lft.to/lastmile_qr_scan", "android": "https://dc.lft.to/lastmile_qr_scan"}, "type": "electric_bike", "fusion_lat": 0.0, "lon": -77.0944765}, {"fusion_lon": 0.0, "bike_id": "4367f96c3007353b362349ccb43838d7", "is_disabled": 0, "is_reserved": 0, "lat": 38.901778166666666, "name": "4367f96c3007353b362349ccb43838d7", "rental_uris": {"ios": "https://dc.lft.to/lastmile_qr_scan", "android": "https://dc.lft.to/lastmile_qr_scan"}, "type": "electric_scooter", "fusion_lat": 0.0, "lon": -77.02482866666666}, {"fusion_lon": 0.0, "bike_id": "d61876b63defdd4fd5950a754b31c756", "is_disabled": 0, "is_reserved": 0, "lat": 38.9118405, "name": "d61876b63defdd4fd5950a754b31c756", "rental_uris": {"ios": "https://dc.lft.to/lastmile_qr_scan", "android": "https://dc.lft.to/lastmile_qr_scan"}, "type": "electric_scooter", "fusion_lat": 0.0, "lon": -77.00501}, {"fusion_lon": 0.0, "bike_id": "31338fec4f8dfb1c57b7c7eaf2e9a98c", "is_disabled": 0, "is_reserved": 0, "lat": 38.90397983333333, "name": "31338fec4f8dfb1c57b7c7eaf2e9a98c", "rental_uris": {"ios": "https://dc.lft.to/lastmile_qr_scan", "android": "https://dc.lft.to/lastmile_qr_scan"}, "type": "electric_scooter", "fusion_lat": 0.0, "lon": -77.04356333333334}, {"fusion_lon": 0.0, "bike_id": "e3b79ddc25b8259eb11e81968a7f7fab", "is_disabled": 0, "is_reserved": 0, "lat": 38.93065566666667, "name": "e3b79ddc25b8259eb11e81968a7f7fab", "rental_uris": {"ios": "https://dc.lft.to/lastmile_qr_scan", "android": "https://dc.lft.to/lastmile_qr_scan"}, "type": "electric_scooter", "fusion_lat": 0.0, "lon": -77.0394365}, {"fusion_lon": 0.0, "bike_id": "370429e380910a54742a499490f0ed4c", "is_disabled": 0, "is_reserved": 0, "lat": 38.90693783333333, "name": "370429e380910a54742a499490f0ed4c", "rental_uris": {"ios": "https://dc.lft.to/lastmile_qr_scan", "android": "https://dc.lft.to/lastmile_qr_scan"}, "type": "electric_scooter", "fusion_lat": 0.0, "lon": -77.02716666666667}, {"fusion_lon": 0.0, "bike_id": "58e56adec4eab5191d0f8f9951de2c3b", "is_disabled": 0, "is_reserved": 0, "lat": 38.92232166666667, "name": "58e56adec4eab5191d0f8f9951de2c3b", "rental_uris": {"ios": "https://dc.lft.to/lastmile_qr_scan", "android": "https://dc.lft.to/lastmile_qr_scan"}, "type": "electric_scooter", "fusion_lat": 0.0, "lon": -77.04248733333333}, {"fusion_lon": 0.0, "bike_id": "1fe6987b5b25768fd76ce8b1c9c82423", "is_disabled": 0, "is_reserved": 0, "lat": 38.907377, "name": "1fe6987b5b25768fd76ce8b1c9c82423", "rental_uris": {"ios": "https://dc.lft.to/lastmile_qr_scan", "android": "https://dc.lft.to/lastmile_qr_scan"}, "type": "electric_scooter", "fusion_lat": 0.0, "lon": -77.03440766666667}, {"fusion_lon": 0.0, "bike_id": "3a00752e2bd48c82ae5e616ddf990498", "is_disabled": 0, "is_reserved": 0, "lat": 38.952579, "name": "3a00752e2bd48c82ae5e616ddf990498", "rental_uris": {"ios": "https://dc.lft.to/lastmile_qr_scan", "android": "https://dc.lft.to/lastmile_qr_scan"}, "type": "electric_scooter", "fusion_lat": 0.0, "lon": -77.02074766666667}, {"fusion_lon": 0.0, "bike_id": "7355af0df0a8992664d3f8303e60a04c", "is_disabled": 0, "is_reserved": 0, "lat": 38.917571, "name": "7355af0df0a8992664d3f8303e60a04c", "rental_uris": {"ios": "https://dc.lft.to/lastmile_qr_scan", "android": "https://dc.lft.to/lastmile_qr_scan"}, "type": "electric_scooter", "fusion_lat": 0.0, "lon": -77.02118383333334}, {"fusion_lon": 0.0, "bike_id": "4204ff4c82a1eace6da20a7b4bfea7ed", "is_disabled": 0, "is_reserved": 0, "lat": 38.91256216666667, "name": "4204ff4c82a1eace6da20a7b4bfea7ed", "rental_uris": {"ios": "https://dc.lft.to/lastmile_qr_scan", "android": "https://dc.lft.to/lastmile_qr_scan"}, "type": "electric_scooter", "fusion_lat": 0.0, "lon": -77.0280975}, {"fusion_lon": 0.0, "bike_id": "fb69e723e014d0b63df0305e3453fda2", "is_disabled": 0, "is_reserved": 0, "lat": 38.905086833333336, "name": "fb69e723e014d0b63df0305e3453fda2", "rental_uris": {"ios": "https://dc.lft.to/lastmile_qr_scan", "android": "https://dc.lft.to/lastmile_qr_scan"}, "type": "electric_scooter", "fusion_lat": 0.0, "lon": -77.065226}, {"fusion_lon": 0.0, "bike_id": "b1fd3cc78b69330e2aa06ba24c075270", "is_disabled": 0, "is_reserved": 0, "lat": 38.89825583333333, "name": "b1fd3cc78b69330e2aa06ba24c075270", "rental_uris": {"ios": "https://dc.lft.to/lastmile_qr_scan", "android": "https://dc.lft.to/lastmile_qr_scan"}, "type": "electric_scooter", "fusion_lat": 0.0, "lon": -77.04614216666667},