{"data": {"bikes": [{"lon": -77.06184466666667, "bike_id": "928f97338f479ecadcf539c3eb0a4b42", "lat": 38.9105155, "fusion_lon": 0.0, "fusion_lat": 0.0, "type": "electric_scooter", "name": "928f97338f479ecadcf539c3eb0a4b42", "is_disabled": 0, "rental_uris": {"ios": "https://dc.lft.to/lastmile_qr_scan", "android": "https://dc.lft.to/lastmile_qr_scan"}, "is_reserved": 0}, {"lon": -77.005325, "bike_id": "421277e9df7115a9bb22c512e05160da", "lat": 38.909571666666665, "fusion_lon": 0.0, "fusion_lat": 0.0, "type": "electric_scooter", "name": "421277e9df7115a9bb22c512e05160da", "is_disabled": 0, "rental_uris": {"ios": "https://dc.lft.to/lastmile_qr_scan", "android": "https://dc.lft.to/lastmile_qr_scan"}, "is_reserved": 0}, {"lon": -76.98333883333333, "bike_id": "eaa5cec655b4cd0fa6aceebd0617d22a", "lat": 38.900946, "fusion_lon": 0.0, "fusion_lat": 0.0, "type": "electric_scooter", "name": "eaa5cec655b4cd0fa6aceebd0617d22a", "is_disabled": 0, "rental_uris": {"ios": "https://dc.lft.to/lastmile_qr_scan", "android": "https://dc.lft.to/lastmile_qr_scan"}, "is_reserved": 0}, {"lon": -77.00184533333334, "bike_id": "eeb822dae525950aa53ede77bcdd7b27", "lat": 38.911928833333334, "fusion_lon": 0.0, "fusion_lat": 0.0, "type": "electric_scooter", "name": "eeb822dae525950aa53ede77bcdd7b27", "is_disabled": 0, "rental_uris": {"ios": "https://dc.lft.to/lastmile_qr_scan", "android": "https://dc.lft.to/lastmile_qr_scan"}, "is_reserved": 0}, {"lon": -77.00314666666667, "bike_id": "85b3f6eddd550fad5eaeda63955faa8b", "lat": 38.9190015, "fusion_lon": 0.0, "fusion_lat": 0.0, "type": "electric_bike", "name": "85b3f6eddd550fad5eaeda63955faa8b", "is_disabled": 0, "rental_uris": {"ios": "https://dc.lft.to/lastmile_qr_scan", "android": "https://dc.lft.to/lastmile_qr_scan"}, "is_reserved": 0}, {"lon": -77.06348133333333, "bike_id": "51c3cbb368d4e009c2198d2c1933afdf", "lat": 38.94444, "fusion_lon": 0.0, "fusion_lat": 0.0, "type": "electric_scooter", "name": "51c3cbb368d4e009c2198d2c1933afdf", "is_disabled": 0, "rental_uris": {"ios": "https://dc.lft.to/lastmile_qr_scan", "android": "https://dc.lft.to/lastmile_qr_scan"}, "is_reserved": 0}, {"lon": -77.0447825, "bike_id": "c572c7956dabe7cc4afd3f1b98c1bdd5", "lat": 38.9214875, "fusion_lon": 0.0, "fusion_lat": 0.0, "type": "electric_scooter", "name": "c572c7956dabe7cc4afd3f1b98c1bdd5", "is_disabled": 0, "rental_uris": {"ios": "https://dc.lft.to/lastmile_qr_scan", "android": "https://dc.lft.to/lastmile_qr_scan"}, "is_reserved": 0}, {"lon": -77.038521, "bike_id": "8f47f8bb5dd47ab38eb6f87c49f3b505", "lat": 38.91756133333333, "fusion_lon": 0.0, "fusion_lat": 0.0, "type": "electric_scooter", "name": "8f47f8bb5dd47ab38eb6f87c49f3b505", "is_disabled": 0, "rental_uris": {"ios": "https://dc.lft.to/lastmile_qr_scan", "android": "https://dc.lft.to/lastmile_qr_scan"}, "is_reserved": 0}, {"lon": -76.9415295, "bike_id": "e796f523801a258717e8475d75a6af93", "lat": 38.879074333333335, "fusion_lon": 0.0, "fusion_lat": 0.0, "type": "electric_scooter", "name": "e796f523801a258717e8475d75a6af93", "is_disabled": 0, "rental_uris": {"ios": "https://dc.lft.to/lastmile_qr_scan", "android": "https://dc.lft.to/lastmile_qr_scan"}, "is_reserved": 0}, {"lon": -77.00781383333333, "bike_id": "7dd36af328926b221f1950c3a90fb6ae", "lat": 38.89739383333333, "fusion_lon": 0.0, "fusion_lat": 0.0, "type": "electric_scooter", "name": "7dd36af328926b221f1950c3a90fb6ae", "is_disabled": 0, "rental_uris": {"ios": "https://dc.lft.to/lastmile_qr_scan", "android": "https://dc.lft.to/lastmile_qr_scan"}, "is_reserved": 0}, {"lon": -77.046068, "bike_id": "9883ac28847cd06502de976c9d2f6531", "lat": 38.92178833333333, "fusion_lon": 0.0, "fusion_lat": 0.0, "type": "electric_scooter", "name": "9883ac28847cd06502de976c9d2f6531", "is_disabled": 0, "rental_uris": {"ios": "https://dc.lft.to/lastmile_qr_scan", "android": "https://dc.lft.to/lastmile_qr_scan"}, "is_reserved": 0}, {"lon": -76.992625, "bike_id": "07a54d78313080111f333dc56373179e", "lat": 38.89763583333333, "fusion_lon": 0.0, "fusion_lat": 0.0, "type": "electric_scooter", "name": "07a54d78313080111f333dc56373179e", "is_disabled": 0, "rental_uris": {"ios": "https://dc.lft.to/lastmile_qr_scan", "android": "https://dc.lft.to/lastmile_qr_scan"}, "is_reserved": 0}, {"lon": -77.00712033333333, "bike_id": "5c4157e4c89288668ccaad111a0e5e19", "lat": 38.884910166666664, "fusion_lon": 0.0, "fusion_lat": 0.0, "type": "electric_scooter", "name": "5c4157e4c89288668ccaad111a0e5e19", "is_disabled": 0, "rental_uris": {"ios": "https://dc.lft.to/lastmile_qr_scan", "android": "https://dc.lft.to/lastmile_qr_scan"}, "is_reserved": 0}, {"lon": -77.01602316666667, "bike_id": "9f50c6a7d1162e84c6aec300924058e9", "lat": 38.903706666666665, "fusion_lon": 0.0, "fusion_lat": 0.0, "type": "electric_scooter", "name": "9f50c6a7d1162e84c6aec300924058e9", "is_disabled": 0, "rental_uris": {"ios": "https://dc.lft.to/lastmile_qr_scan", "android": "https://dc.lft.to/lastmile_qr_scan"}, "is_reserved": 0}, {"lon": -77.0332805, "bike_id": "3f94bae5d2eb996d90fb87ed45220009", "lat": 38.92902516666667, "fusion_lon": 0.0, "fusion_lat": 0.0, "type": "electric_scooter", "name": "3f94bae5d2eb996d90fb87ed45220009", "is_disabled": 0, "rental_uris": {"ios": "https://dc.lft.to/lastmile_qr_scan", "android": "https://dc.lft.to/lastmile_qr_scan"}, "is_reserved": 0}, {"lon": -76.98066933333334, "bike_id": "9421666bcb22b9bdfd5ca05f3805cd1d", "lat": 38.901709833333335, "fusion_lon": 0.0, "fusion_lat": 0.0, "type": "electric_scooter", "name": "9421666bcb22b9bdfd5ca05f3805cd1d", "is_disabled": 0, "rental_uris": {"ios": "https://dc.lft.to/lastmile_qr_scan", "android": "https://dc.lft.to/lastmile_qr_scan"}, "is_reserved": 0}, {"lon": -77.02209916666666, "bike_id": "2b3a73b5f66e74250bab804c2293081a", "lat": 38.90564, "fusion_lon": 0.0, "fusion_lat": 0.0, "type": "electric_scooter", "name": "2b3a73b5f66e74250bab804c2293081a", "is_disabled": 0, "rental_uris": {"ios": "https://dc.lft.to/lastmile_qr_scan", "android": "https://dc.lft.to/lastmile_qr_scan"}, "is_reserved": 0}, {"lon": -77.0072785, "bike_id": "619f772ef04e7abd8350fa133bebace5", "lat": 38.8764945, "fusion_lon": 0.0, "fusion_lat": 0.0, "type": "electric_scooter", "name": "619f772ef04e7abd8350fa133bebace5", "is_disabled": 0, "rental_uris": {"ios": "https://dc.lft.to/lastmile_qr_scan", "android": "https://dc.lft.to/lastmile_qr_scan"}, "is_reserved": 0}, {"lon": -77.00155433333333, "bike_id": "c3d1104aac291c7011dfaeffa71932d6", "lat": 38.8750985, "fusion_lon": 0.0, "fusion_lat": 0.0, "type": "electric_scooter", "name": "c3d1104aac291c7011dfaeffa71932d6", "is_disabled": 0, "rental_uris": {"ios": "https://dc.lft.to/lastmile_qr_scan", "android": "https://dc.lft.to/lastmile_qr_scan"}, "is_reserved": 0}, {"lon": -77.02408033333333, "bike_id": "3776353ff4535429d5bec2fbdc222e90", "lat": 38.9152575, "fusion_lon": 0.0, "fusion_lat": 0.0, "type": "electric_scooter", "name": "3776353ff4535429d5bec2fbdc222e90", "is_disabled": 0, "rental_uris": {"ios": "https://dc.lft.to/lastmile_qr_scan", "android": "https://dc.lft.to/lastmile_qr_scan"}, "is_reserved": 0}, {"lon": -77.0336645, "bike_id": "793f29addd04c2d82068973454659539", "lat": 38.88691133333333, "fusion_lon": 0.0, "fusion_lat": 0.0, "type": "electric_scooter", "name": "793f29addd04c2d82068973454659539", "is_disabled": 0, "rental_uris": {"ios": "https://dc.lft.to/lastmile_qr_scan", "android": "https://dc.lft.to/lastmile_qr_scan"}, "is_reserved": 0}, {"lon": -76.98367666666667, "bike_id": "03c0c6c43fefe6e5413806a9f4d75b10", "lat": 38.908852333333336, "fusion_lon": 0.0, "fusion_lat": 0.0, "type": "electric_scooter", "name": "03c0c6c43fefe6e5413806a9f4d75b10", "is_disabled": 0, "rental_uris": {"ios": "https://dc.lft.to/lastmile_qr_scan", "android": "https://dc.lft.to/lastmile_qr_scan"}, "is_reserved": 0}, {"lon": -77.07453983333333, "bike_id": "c2441551614a5d1436fe984dacd31abc", "lat": 38.94509983333333, "fusion_lon": 0.0, "fusion_lat": 0.0, "type": "electric_scooter", "name": "c2441551614a5d1436fe984dacd31abc", "is_disabled": 0, "rental_uris": {"ios": "https://dc.lft.to/lastmile_qr_scan", "android": "https://dc.lft.to/lastmile_qr_scan"}, "is_reserved": 0}, {"lon": -76.97626366666667, "bike_id": "465151562b0aee2705cf83cdfe4d1521", "lat": 38.905725833333335, "fusion_lon": 0.0, "fusion_lat": 0.0, "type": "electric_scooter", "name": "465151562b0aee2705cf83cdfe4d1521", "is_disabled": 0, "rental_uris": {"ios": "https://dc.lft.to/lastmile_qr_scan", "android": "https://dc.lft.to/lastmile_qr_scan"}, "is_reserved": 0}, {"lon": -77.03863333333334, "bike_id": "0bf278acee3abff1bc9d8dd1a3be3fbc", "lat": 38.90122216666666, "fusion_lon": 0.0, "fusion_lat": 0.0, "type": "electric_scooter", "name": "0bf278acee3abff1bc9d8dd1a3be3fbc", "is_disabled": 0, "rental_uris": {"ios": "https://dc.lft.to/lastmile_qr_scan", "android": "https://dc.lft.to/lastmile_qr_scan"}, "is_reserved": 0}, {"lon": -77.12525916666667, "bike_id": "5c4b31df0859a620ee44213cb729f9e1", "lat": 39.0563095, "fusion_lon": 0.0, "fusion_lat": 0.0, "type": "electric_bike", "name": "5c4b31df0859a620ee44213cb729f9e1", "is_disabled": 0, "rental_uris": {"ios": "https://dc.lft.to/lastmile_qr_scan", "android": "https://dc.lft.to/lastmile_qr_scan"}, "is_reserved": 0}, {"lon": -77.044795, "bike_id": "a3bc9f044ffb68b29deb8c77b88152af", "lat": 38.892621, "fusion_lon": 0.0, "fusion_lat": 0.0, "type": "electric_scooter", "name": "a3bc9f044ffb68b29deb8c77b88152af", "is_disabled": 0, "rental_uris": {"ios": "https://dc.lft.to/lastmile_qr_scan", "android": "https://dc.lft.to/lastmile_qr_scan"}, "is_reserved": 0}, {"lon": -77.03622883333334, "bike_id": "b062d6b73803a4ef7171ad859da39607", "lat": 38.93166433333333, "fusion_lon": 0.0, "fusion_lat": 0.0, "type": "electric_scooter", "name": "b062d6b73803a4ef7171ad859da39607", "is_disabled": 0, "rental_uris": {"ios": "https://dc.lft.to/lastmile_qr_scan", "android": "https://dc.lft.to/lastmile_qr_scan"}, "is_reserved": 0}, {"lon": -77.05914633333333, "bike_id": "bc9f0eb5db4dc582e2ee01a23c46037b", "lat": 38.903615333333335, "fusion_lon": 0.0, "fusion_lat": 0.0, "type": "electric_scooter", "name": "bc9f0eb5db4dc582e2ee01a23c46037b", "is_disabled": 0, "rental_uris": {"ios": "https://dc.lft.to/lastmile_qr_scan", "android": "https://dc.lft.to/lastmile_qr_scan"}, "is_reserved": 0}, {"lon": -77.07572933333333, "bike_id": "70a7fb7d960dc97240e17d9042ff8c3b", "lat": 38.894883, "fusion_lon": 0.0, "fusion_lat": 0.0, "type": "electric_scooter", "name": "70a7fb7d960dc97240e17d9042ff8c3b", "is_disabled": 0, "rental_uris": {"ios": "https://dc.lft.to/lastmile_qr_scan", "android": "https://dc.lft.to/lastmile_qr_scan"}, "is_reserved": 0}, {"lon": -77.02567166666667, "bike_id": "19fcf76817e416dd74949b10522a8dba", "lat": 38.92460966666667, "fusion_lon": 0.0, "fusion_lat": 0.0, "type": "electric_scooter", "name": "19fcf76817e416dd74949b10522a8dba", "is_disabled": 0, "rental_uris": {"ios": "https://dc.lft.to/lastmile_qr_scan", "android": "https://dc.lft.to/lastmile_qr_scan"}, "is_reserved": 0}, {"lon": -77.0176395, "bike_id": "2bdda17fa31f88812eb5bd160e019579", "lat": 38.92101516666666, "fusion_lon": 0.0, "fusion_lat": 0.0, "type": "electric_scooter", "name": "2bdda17fa31f88812eb5bd160e019579", "is_disabled": 0, "rental_uris": {"ios": "https://dc.lft.to/lastmile_qr_scan", "android": "https://dc.lft.to/lastmile_qr_scan"}, "is_reserved": 0}, {"lon": -77.03492066666666, "bike_id": "6df7db6beff79403a115f4b8ddf9662b", "lat": 38.9354335, "fusion_lon": 0.0, "fusion_lat": 0.0, "type": "electric_scooter", "name": "6df7db6beff79403a115f4b8ddf9662b", "is_disabled": 0, "rental_uris": {"ios": "https://dc.lft.to/lastmile_qr_scan", "android": "https://dc.lft.to/lastmile_qr_scan"}, "is_reserved": 0}, {"lon": -77.036783, "bike_id": "d6581c36a56bf635f8513097e778d004", "lat": 38.939221833333335, "fusion_lon": 0.0, "fusion_lat": 0.0, "type": "electric_scooter", "name": "d6581c36a56bf635f8513097e778d004", "is_disabled": 0, "rental_uris": {"ios": "https://dc.lft.to/lastmile_qr_scan", "android": "https://dc.lft.to/lastmile_qr_scan"}, "is_reserved": 0}, {"lon": -77.007637, "bike_id": "13cdaa45eb3e1604fe6eec96050163db", "lat": 38.9813315, "fusion_lon": 0.0, "fusion_lat": 0.0, "type": "electric_bike", "name": "13cdaa45eb3e1604fe6eec96050163db", "is_disabled": 0, "rental_uris": {"ios": "https://dc.lft.to/lastmile_qr_scan", "android": "https://dc.lft.to/lastmile_qr_scan"}, "is_reserved": 0}, {"lon": -77.00193266666666, "bike_id": "af441d9756c3cf9019c51e18c9d1c926", "lat": 38.915913333333336, "fusion_lon": 0.0, "fusion_lat": 0.0, "type": "electric_scooter", "name": "af441d9756c3cf9019c51e18c9d1c926", "is_disabled": 0, "rental_uris": {"ios": "https://dc.lft.to/lastmile_qr_scan", "android": "https://dc.lft.to/lastmile_qr_scan"}, "is_reserved": 0}, {"lon": -76.98022883333333, "bike_id": "bfa1c2a44b6aae6bbd4c69014069ab08", "lat": 38.902927, "fusion_lon": 0.0, "fusion_lat": 0.0, "type": "electric_scooter", "name": "bfa1c2a44b6aae6bbd4c69014069ab08", "is_disabled": 0, "rental_uris": {"ios": "https://dc.lft.to/lastmile_qr_scan", "android": "https://dc.lft.to/lastmile_qr_scan"}, "is_reserved": 0}, {"lon": -77.02901783333333, "bike_id": "d99ddc087b58277489f1f7db6e2c12b4", "lat": 38.928209333333335, "fusion_lon": 0.0, "fusion_lat": 0.0, "type": "electric_scooter", "name": "d99ddc087b58277489f1f7db6e2c12b4", "is_disabled": 0, "rental_uris": {"ios": "https://dc.lft.to/lastmile_qr_scan", "android": "https://dc.lft.to/lastmile_qr_scan"}, "is_reserved": 0}, {"lon": -77.023453, "bike_id": "402359ec206f5e8cba012b7ef5fac814", "lat": 38.93535133333334, "fusion_lon": 0.0, "fusion_lat": 0.0, "type": "electric_scooter", "name": "402359ec206f5e8cba012b7ef5fac814", "is_disabled": 0, "rental_uris": {"ios": "https://dc.lft.to/lastmile_qr_scan", "android": "https://dc.lft.to/lastmile_qr_scan"}, "is_reserved": 0}, {"lon": -76.998775, "bike_id": "5091320e32c5330377e0b356a7a96974", "lat": 38.90127283333333, "fusion_lon": 0.0, "fusion_lat": 0.0, "type": "electric_scooter", "name": "5091320e32c5330377e0b356a7a96974", "is_disabled": 0, "rental_uris": {"ios": "https://dc.lft.to/lastmile_qr_scan", "android": "https://dc.lft.to/lastmile_qr_scan"}, "is_reserved": 0}, {"lon": -77.0150105, "bike_id": "1f7392a2cdd4398c60b8b1de1758d0f7", "lat": 38.91766716666667, "fusion_lon": 0.0, "fusion_lat": 0.0, "type": "electric_scooter", "name": "1f7392a2cdd4398c60b8b1de1758d0f7", "is_disabled": 0, "rental_uris": {"ios": "https://dc.lft.to/lastmile_qr_scan", "android": "https://dc.lft.to/lastmile_qr_scan"}, "is_reserved": 0}, {"lon": -77.00577333333334, "bike_id": "e0735c15f7cb2220249c624edb1e0def", "lat": 38.905442666666666, "fusion_lon": 0.0, "fusion_lat": 0.0, "type": "electric_scooter", "name": "e0735c15f7cb2220249c624edb1e0def", "is_disabled": 0, "rental_uris": {"ios": "https://dc.lft.to/lastmile_qr_scan", "android": "https://dc.lft.to/lastmile_qr_scan"}, "is_reserved": 0}, {"lon": -76.97746316666667, "bike_id": "eadb9dc3522a19329b21cc6934970442", "lat": 38.86484733333333, "fusion_lon": 0.0, "fusion_lat": 0.0, "type": "electric_bike", "name": "eadb9dc3522a19329b21cc6934970442", "is_disabled": 0, "rental_uris": {"ios": "https://dc.lft.to/lastmile_qr_scan", "android": "https://dc.lft.to/lastmile_qr_scan"}, "is_reserved": 0}, {"lon": -77.1856205, "bike_id": "d762a60bfcb6c3350f1bc52b832fdf0a", "lat": 39.09975566666667, "fusion_lon": 0.0, "fusion_lat": 0.0, "type": "electric_bike", "name": "d762a60bfcb6c3350f1bc52b832fdf0a", "is_disabled": 0, "rental_uris": {"ios": "https://dc.lft.to/lastmile_qr_scan", "android": "https://dc.lft.to/lastmile_qr_scan"}, "is_reserved": 0}, {"lon": -77.03265633333334, "bike_id": "f05f7bf331c2ddef166f8aa5bc79e59a", "lat": 38.934341833333335, "fusion_lon": 0.0, "fusion_lat": 0.0, "type": "electric_scooter", "name": "f05f7bf331c2ddef166f8aa5bc79e59a", "is_disabled": 0, "rental_uris": {"ios": "https://dc.lft.to/lastmile_qr_scan", "android": "https://dc.lft.to/lastmile_qr_scan"}, "is_reserved": 0}, {"lon": -76.99598066666667, "bike_id": "d2acc36874f0590b4f17097b547ae224", "lat": 38.950722999999996, "fusion_lon": 0.0, "fusion_lat": 0.0, "type": "electric_bike", "name": "d2acc36874f0590b4f17097b547ae224", "is_disabled": 0, "rental_uris": {"ios": "https://dc.lft.to/lastmile_qr_scan", "android": "https://dc.lft.to/lastmile_qr_scan"}, "is_reserved": 0}, {"lon": -77.01876216666666, "bike_id": "63fd364d90d66e4c151ec4ccd3a5fad8", "lat": 38.91407266666667, "fusion_lon": 0.0, "fusion_lat": 0.0, "type": "electric_scooter", "name": "63fd364d90d66e4c151ec4ccd3a5fad8", "is_disabled": 0, "rental_uris": {"ios": "https://dc.lft.to/lastmile_qr_scan", "android": "https://dc.lft.to/lastmile_qr_scan"}, "is_reserved": 0}, {"lon": -77.0317795, "bike_id": "82ef5e2748fd2303c584acc1d3c76b8e", "lat": 38.93602516666667, "fusion_lon": 0.0, "fusion_lat": 0.0, "type": "electric_scooter", "name": "82ef5e2748fd2303c584acc1d3c76b8e", "is_disabled": 0, "rental_uris": {"ios": "https://dc.lft.to/lastmile_qr_scan", "android": "https://dc.lft.to/lastmile_qr_scan"}, "is_reserved": 0}, {"lon": -77.0370635, "bike_id": "bb4de84ae982704fab410cd6fd144727", "lat": 38.9264015, "fusion_lon": 0.0, "fusion_lat": 0.0, "type": "electric_scooter", "name": "bb4de84ae982704fab410cd6fd144727", "is_disabled": 0, "rental_uris": {"ios": "https://dc.lft.to/lastmile_qr_scan", "android": "https://dc.lft.to/lastmile_qr_scan"}, "is_reserved": 0}, {"lon": -77.03170966666667, "bike_id": "08b9672ea0a02f9d1b31ab90b488cbef", "lat": 38.920988666666666, "fusion_lon": 0.0, "fusion_lat": 0.0, "type": "electric_bike", "name": "08b9672ea0a02f9d1b31ab90b488cbef", "is_disabled": 0, "rental_uris": {"ios": "https://dc.lft.to/lastmile_qr_scan", "android": "https://dc.lft.to/lastmile_qr_scan"}, "is_reserved": 0}, {"lon": -77.004598, "bike_id": "66718dc4509d03eea8ea19a5096383e5", "lat": 38.877681833333334, "fusion_lon": 0.0, "fusion_lat": 0.0, "type": "electric_scooter", "name": "66718dc4509d03eea8ea19a5096383e5", "is_disabled": 0, "rental_uris": {"ios": "https://dc.lft.to/lastmile_qr_scan", "android": "https://dc.lft.to/lastmile_qr_scan"}, "is_reserved": 0}, {"lon": -77.076018, "bike_id": "b7e740980c56804c6c3bb954334184ef", "lat": 38.912174666666665, "fusion_lon": 0.0, "fusion_lat": 0.0, "type": "electric_scooter", "name": "b7e740980c56804c6c3bb954334184ef", "is_disabled": 0, "rental_uris": {"ios": "https://dc.lft.to/lastmile_qr_scan", "android": "https://dc.lft.to/lastmile_qr_scan"}, "is_reserved": 0}, {"lon": -77.021954, "bike_id": "f32fe7cff3d56f2d62dc0491bcaada34", "lat": 38.895145166666666, "fusion_lon": 0.0, "fusion_lat": 0.0, "type": "electric_scooter", "name": "f32fe7cff3d56f2d62dc0491bcaada34", "is_disabled": 0, "rental_uris": {"ios": "https://dc.lft.to/lastmile_qr_scan", "android": "https://dc.lft.to/lastmile_qr_scan"}, "is_reserved": 0}, {"lon": -76.99917683333334, "bike_id": "ebb67fd92149bc3130103e804c4a7ec9", "lat": 38.90921566666667, "fusion_lon": 0.0, "fusion_lat": 0.0, "type": "electric_scooter", "name": "ebb67fd92149bc3130103e804c4a7ec9", "is_disabled": 0, "rental_uris": {"ios": "https://dc.lft.to/lastmile_qr_scan", "android": "https://dc.lft.to/lastmile_qr_scan"}, "is_reserved": 0}, {"lon": -77.01209133333333, "bike_id": "2f874d0395036470590a7d8992854b75", "lat": 38.89994516666667, "fusion_lon": 0.0, "fusion_lat": 0.0, "type": "electric_scooter", "name": "2f874d0395036470590a7d8992854b75", "is_disabled": 0, "rental_uris": {"ios": "https://dc.lft.to/lastmile_qr_scan", "android": "https://dc.lft.to/lastmile_qr_scan"}, "is_reserved": 0}, {"lon": -76.9867055, "bike_id": "0dad362ddeac64751c080ab81c450daf", "lat": 38.9025275, "fusion_lon": 0.0, "fusion_lat": 0.0, "type": "electric_scooter", "name": "0dad362ddeac64751c080ab81c450daf", "is_disabled": 0, "rental_uris": {"ios": "https://dc.lft.to/lastmile_qr_scan", "android": "https://dc.lft.to/lastmile_qr_scan"}, "is_reserved": 0}, {"lon": -77.03851, "bike_id": "cbce98830e5ca8a134135c78085b27bd", "lat": 38.906736, "fusion_lon": 0.0, "fusion_lat": 0.0, "type": "electric_scooter", "name": "cbce98830e5ca8a134135c78085b27bd", "is_disabled": 0, "rental_uris": {"ios": "https://dc.lft.to/lastmile_qr_scan", "android": "https://dc.lft.to/lastmile_qr_scan"}, "is_reserved": 0}, {"lon": -77.046927, "bike_id": "d91e6b62274f649ef8834660403d1af4", "lat": 38.92236666666667, "fusion_lon": 0.0, "fusion_lat": 0.0, "type": "electric_scooter", "name": "d91e6b62274f649ef8834660403d1af4", "is_disabled": 0, "rental_uris": {"ios": "https://dc.lft.to/lastmile_qr_scan", "android": "https://dc.lft.to/lastmile_qr_scan"}, "is_reserved": 0}, {"lon": -77.02807166666666, "bike_id": "97ffb1d7caebd1044a84a185d8ac2ea9", "lat": 38.9201455, "fusion_lon": 0.0, "fusion_lat": 0.0, "type": "electric_scooter", "name": "97ffb1d7caebd1044a84a185d8ac2ea9", "is_disabled": 0, "rental_uris": {"ios": "https://dc.lft.to/lastmile_qr_scan", "android": "https://dc.lft.to/lastmile_qr_scan"}, "is_reserved": 0}, {"lon": -77.0426545, "bike_id": "e8f025b44c2412cedf00048ce7afdea0", "lat": 38.917840166666664, "fusion_lon": 0.0, "fusion_lat": 0.0, "type": "electric_scooter", "name": "e8f025b44c2412cedf00048ce7afdea0", "is_disabled": 0, "rental_uris": {"ios": "https://dc.lft.to/lastmile_qr_scan", "android": "https://dc.lft.to/lastmile_qr_scan"}, "is_reserved": 0}, {"lon": -77.00068183333333, "bike_id": "6fe6363787c5aa9ee047fec02912ff96", "lat": 38.9243645, "fusion_lon": 0.0, "fusion_lat": 0.0, "type": "electric_scooter", "name": "6fe6363787c5aa9ee047fec02912ff96", "is_disabled": 0, "rental_uris": {"ios": "https://dc.lft.to/lastmile_qr_scan", "android": "https://dc.lft.to/lastmile_qr_scan"}, "is_reserved": 0}, {"lon": -77.05210166666667, "bike_id": "c3d37bb4e4ee69d70821c6aa657eb891", "lat": 38.900107, "fusion_lon": 0.0, "fusion_lat": 0.0, "type": "electric_scooter", "name": "c3d37bb4e4ee69d70821c6aa657eb891", "is_disabled": 0, "rental_uris": {"ios": "https://dc.lft.to/lastmile_qr_scan", "android": "https://dc.lft.to/lastmile_qr_scan"}, "is_reserved": 0}, {"lon": -77.02388783333333, "bike_id": "23149e51509bb4f07a9ea0c29f947c16", "lat": 38.91760983333333, "fusion_lon": 0.0, "fusion_lat": 0.0, "type": "electric_scooter", "name": "23149e51509bb4f07a9ea0c29f947c16", "is_disabled": 0, "rental_uris": {"ios": "https://dc.lft.to/lastmile_qr_scan", "android": "https://dc.lft.to/lastmile_qr_scan"}, "is_reserved": 0}, {"lon": -76.9360955, "bike_id": "218776891aca6860e57d01179a56ed06", "lat": 38.896860333333336, "fusion_lon": 0.0, "fusion_lat": 0.0, "type": "electric_scooter", "name": "218776891aca6860e57d01179a56ed06", "is_disabled": 0, "rental_uris": {"ios": "https://dc.lft.to/lastmile_qr_scan", "android": "https://dc.lft.to/lastmile_qr_scan"}, "is_reserved": 0}, {"lon": -76.97621666666667, "bike_id": "0d6df967f4ac7f27005b31fe6b6a1245", "lat": 38.90384683333333, "fusion_lon": 0.0, "fusion_lat": 0.0, "type": "electric_scooter", "name": "0d6df967f4ac7f27005b31fe6b6a1245", "is_disabled": 0, "rental_uris": {"ios": "https://dc.lft.to/lastmile_qr_scan", "android": "https://dc.lft.to/lastmile_qr_scan"}, "is_reserved": 0}, {"lon": -77.029018, "bike_id": "ceea4ff4fdeb6e09f7d1c8ee9cbb4aec", "lat": 38.90388383333333, "fusion_lon": 0.0, "fusion_lat": 0.0, "type": "electric_scooter", "name": "ceea4ff4fdeb6e09f7d1c8ee9cbb4aec", "is_disabled": 0, "rental_uris": {"ios": "https://dc.lft.to/lastmile_qr_scan", "android": "https://dc.lft.to/lastmile_qr_scan"}, "is_reserved": 0}, {"lon": -77.0857435, "bike_id": "bfff78682e6a7d07722c50fc0e40081d", "lat": 38.933493, "fusion_lon": 0.0, "fusion_lat": 0.0, "type": "electric_scooter", "name": "bfff78682e6a7d07722c50fc0e40081d", "is_disabled": 0, "rental_uris": {"ios": "https://dc.lft.to/lastmile_qr_scan", "android": "https://dc.lft.to/lastmile_qr_scan"}, "is_reserved": 0}, {"lon": -77.0280215, "bike_id": "34813cb012e09846238a6130e2d93033", "lat": 38.88174566666667, "fusion_lon": 0.0, "fusion_lat": 0.0, "type": "electric_scooter", "name": "34813cb012e09846238a6130e2d93033", "is_disabled": 0, "rental_uris": {"ios": "https://dc.lft.to/lastmile_qr_scan", "android": "https://dc.lft.to/lastmile_qr_scan"}, "is_reserved": 0}, {"lon": -77.01116516666667, "bike_id": "0e03d17e69b27263777a878a98514537", "lat": 38.88550033333333, "fusion_lon": 0.0, "fusion_lat": 0.0, "type": "electric_scooter", "name": "0e03d17e69b27263777a878a98514537", "is_disabled": 0, "rental_uris": {"ios": "https://dc.lft.to/lastmile_qr_scan", "android": "https://dc.lft.to/lastmile_qr_scan"}, "is_reserved": 0}, {"lon": -77.0142435, "bike_id": "a0dbff1f761be4f3573d81fd4513cc37", "lat": 38.972181166666665, "fusion_lon": 0.0, "fusion_lat": 0.0, "type": "electric_bike", "name": "a0dbff1f761be4f3573d81fd4513cc37", "is_disabled": 0, "rental_uris": {"ios": "https://dc.lft.to/lastmile_qr_scan", "android": "https://dc.lft.to/lastmile_qr_scan"}, "is_reserved": 0}, {"lon": -77.01426783333334, "bike_id": "fea20d4d9ab1a1c6d2b5155657bcb110", "lat": 38.92828883333333, "fusion_lon": 0.0, "fusion_lat": 0.0, "type": "electric_scooter", "name": "fea20d4d9ab1a1c6d2b5155657bcb110", "is_disabled": 0, "rental_uris": {"ios": "https://dc.lft.to/lastmile_qr_scan", "android": "https://dc.lft.to/lastmile_qr_scan"}, "is_reserved": 0}, {"lon": -77.059373, "bike_id": "902e3dbb1a448eb07f27043cabca6a75", "lat": 38.91240416666667, "fusion_lon": 0.0, "fusion_lat": 0.0, "type": "electric_scooter", "name": "902e3dbb1a448eb07f27043cabca6a75", "is_disabled": 0, "rental_uris": {"ios": "https://dc.lft.to/lastmile_qr_scan", "android": "https://dc.lft.to/lastmile_qr_scan"}, "is_reserved": 0}, {"lon": -77.04024533333333, "bike_id": "0d2b8e271df88b5d435be48940337ec2", "lat": 38.911133166666666, "fusion_lon": 0.0, "fusion_lat": 0.0, "type": "electric_scooter", "name": "0d2b8e271df88b5d435be48940337ec2", "is_disabled": 0, "rental_uris": {"ios": "https://dc.lft.to/lastmile_qr_scan", "android": "https://dc.lft.to/lastmile_qr_scan"}, "is_reserved": 0}, {"lon": -77.02112633333333, "bike_id": "dad7b05ea81da3ceb4a49e1111902155", "lat": 38.91740083333333, "fusion_lon": 0.0, "fusion_lat": 0.0, "type": "electric_scooter", "name": "dad7b05ea81da3ceb4a49e1111902155", "is_disabled": 0, "rental_uris": {"ios": "https://dc.lft.to/lastmile_qr_scan", "android": "https://dc.lft.to/lastmile_qr_scan"}, "is_reserved": 0}, {"lon": -77.04597416666667, "bike_id": "7d3ec16595d6c7a276406ac2092f0ec2", "lat": 38.90389483333333, "fusion_lon": 0.0, "fusion_lat": 0.0, "type": "electric_scooter", "name": "7d3ec16595d6c7a276406ac2092f0ec2", "is_disabled": 0, "rental_uris": {"ios": "https://dc.lft.to/lastmile_qr_scan", "android": "https://dc.lft.to/lastmile_qr_scan"}, "is_reserved": 0}, {"lon": -77.10907766666666, "bike_id": "ccaf817022fbb0f63e03923cdd442c2a", "lat": 39.0519855, "fusion_lon": 0.0, "fusion_lat": 0.0, "type": "electric_bike", "name": "ccaf817022fbb0f63e03923cdd442c2a", "is_disabled": 0, "rental_uris": {"ios": "https://dc.lft.to/lastmile_qr_scan", "android": "https://dc.lft.to/lastmile_qr_scan"}, "is_reserved": 0}, {"lon": -76.99727666666666, "bike_id": "be9faee166cf03841814e0d8511f221d", "lat": 38.91120333333333, "fusion_lon": 0.0, "fusion_lat": 0.0, "type": "electric_scooter", "name": "be9faee166cf03841814e0d8511f221d", "is_disabled": 0, "rental_uris": {"ios": "https://dc.lft.to/lastmile_qr_scan", "android": "https://dc.lft.to/lastmile_qr_scan"}, "is_reserved": 0}, {"lon": -76.9299305, "bike_id": "ed3927c51aa99c6bec9c3f93253cf3d9", "lat": 38.901848, "fusion_lon": 0.0, "fusion_lat": 0.0, "type": "electric_scooter", "name": "ed3927c51aa99c6bec9c3f93253cf3d9", "is_disabled": 0, "rental_uris": {"ios": "https://dc.lft.to/lastmile_qr_scan", "android": "https://dc.lft.to/lastmile_qr_scan"}, "is_reserved": 0}, {"lon": -77.06726483333334, "bike_id": "583120da6c64312744d41d6584650583", "lat": 38.909728333333334, "fusion_lon": 0.0, "fusion_lat": 0.0, "type": "electric_scooter", "name": "583120da6c64312744d41d6584650583", "is_disabled": 0, "rental_uris": {"ios": "https://dc.lft.to/lastmile_qr_scan", "android": "https://dc.lft.to/lastmile_qr_scan"}, "is_reserved": 0}, {"lon": -77.04145883333334, "bike_id": "7de72eced9d61a1f78e35e14e8145a58", "lat": 38.923107, "fusion_lon": 0.0, "fusion_lat": 0.0, "type": "electric_scooter", "name": "7de72eced9d61a1f78e35e14e8145a58", "is_disabled": 0, "rental_uris": {"ios": "https://dc.lft.to/lastmile_qr_scan", "android": "https://dc.lft.to/lastmile_qr_scan"}, "is_reserved": 0}, {"lon": -77.00191883333333, "bike_id": "0e8547a1a4a57dd0e8414f47200627b3", "lat": 38.914747166666665, "fusion_lon": 0.0, "fusion_lat": 0.0, "type": "electric_scooter", "name": "0e8547a1a4a57dd0e8414f47200627b3", "is_disabled": 0, "rental_uris": {"ios": "https://dc.lft.to/lastmile_qr_scan", "android": "https://dc.lft.to/lastmile_qr_scan"}, "is_reserved": 0}, {"lon": -77.06404133333334, "bike_id": "afafd671cb5d247739592627fdc274fa", "lat": 38.84066716666667, "fusion_lon": 0.0, "fusion_lat": 0.0, "type": "electric_bike", "name": "afafd671cb5d247739592627fdc274fa", "is_disabled": 0, "rental_uris": {"ios": "https://dc.lft.to/lastmile_qr_scan", "android": "https://dc.lft.to/lastmile_qr_scan"}, "is_reserved": 0}, {"lon": -77.0435225, "bike_id": "deb207ff7493b3964179165c14d7e09e", "lat": 38.92059283333333, "fusion_lon": 0.0, "fusion_lat": 0.0, "type": "electric_scooter", "name": "deb207ff7493b3964179165c14d7e09e", "is_disabled": 0, "rental_uris": {"ios": "https://dc.lft.to/lastmile_qr_scan", "android": "https://dc.lft.to/lastmile_qr_scan"}, "is_reserved": 0}, {"lon": -77.03892283333333, "bike_id": "94f890d5c230e127559638aaa7cc13c5", "lat": 38.922110833333335, "fusion_lon": 0.0, "fusion_lat": 0.0, "type": "electric_scooter", "name": "94f890d5c230e127559638aaa7cc13c5", "is_disabled": 0, "rental_uris": {"ios": "https://dc.lft.to/lastmile_qr_scan", "android": "https://dc.lft.to/lastmile_qr_scan"}, "is_reserved": 0}, {"lon": -77.02668116666666, "bike_id": "10572b452d425cad4de01962df6d9b94", "lat": 38.931019166666665, "fusion_lon": 0.0, "fusion_lat": 0.0, "type": "electric_scooter", "name": "10572b452d425cad4de01962df6d9b94", "is_disabled": 0, "rental_uris": {"ios": "https://dc.lft.to/lastmile_qr_scan", "android": "https://dc.lft.to/lastmile_qr_scan"}, "is_reserved": 0}, {"lon": -77.036363, "bike_id": "3bb87f08480a5825f4d588601e6401ce", "lat": 38.921836666666664, "fusion_lon": 0.0, "fusion_lat": 0.0, "type": "electric_scooter", "name": "3bb87f08480a5825f4d588601e6401ce", "is_disabled": 0, "rental_uris": {"ios": "https://dc.lft.to/lastmile_qr_scan", "android": "https://dc.lft.to/lastmile_qr_scan"}, "is_reserved": 0}, {"lon": -77.024697, "bike_id": "9e90f3f1a24b25aac3442cfe186697fb", "lat": 38.9001065, "fusion_lon": 0.0, "fusion_lat": 0.0, "type": "electric_scooter", "name": "9e90f3f1a24b25aac3442cfe186697fb", "is_disabled": 0, "rental_uris": {"ios": "https://dc.lft.to/lastmile_qr_scan", "android": "https://dc.lft.to/lastmile_qr_scan"}, "is_reserved": 0}, {"lon": -76.97854083333333, "bike_id": "c83624f21926e947e62e419bc5fad2df", "lat": 38.87072, "fusion_lon": 0.0, "fusion_lat": 0.0, "type": "electric_scooter", "name": "c83624f21926e947e62e419bc5fad2df", "is_disabled": 0, "rental_uris": {"ios": "https://dc.lft.to/lastmile_qr_scan", "android": "https://dc.lft.to/lastmile_qr_scan"}, "is_reserved": 0}, {"lon": -77.023834, "bike_id": "6efeaca87ea1fd9b7f3d5ea342b7dddc", "lat": 38.9009045, "fusion_lon": 0.0, "fusion_lat": 0.0, "type": "electric_scooter", "name": "6efeaca87ea1fd9b7f3d5ea342b7dddc", "is_disabled": 0, "rental_uris": {"ios": "https://dc.lft.to/lastmile_qr_scan", "android": "https://dc.lft.to/lastmile_qr_scan"}, "is_reserved": 0}, {"lon": -77.01794933333333, "bike_id": "5c92673dab054053acecb3653fbcab3e", "lat": 38.90139033333333, "fusion_lon": 0.0, "fusion_lat": 0.0, "type": "electric_scooter", "name": "5c92673dab054053acecb3653fbcab3e", "is_disabled": 0, "rental_uris": {"ios": "https://dc.lft.to/lastmile_qr_scan", "android": "https://dc.lft.to/lastmile_qr_scan"}, "is_reserved": 0}, {"lon": -77.02168866666666, "bike_id": "05614ce72a995870d4835d86c127569c", "lat": 38.88754133333333, "fusion_lon": 0.0, "fusion_lat": 0.0, "type": "electric_scooter", "name": "05614ce72a995870d4835d86c127569c", "is_disabled": 0, "rental_uris": {"ios": "https://dc.lft.to/lastmile_qr_scan", "android": "https://dc.lft.to/lastmile_qr_scan"}, "is_reserved": 0}, {"lon": -77.02363383333334, "bike_id": "36045f452f14a4d1d9976c4c1f86c59b", "lat": 38.9204325, "fusion_lon": 0.0, "fusion_lat": 0.0, "type": "electric_scooter", "name": "36045f452f14a4d1d9976c4c1f86c59b", "is_disabled": 0, "rental_uris": {"ios": "https://dc.lft.to/lastmile_qr_scan", "android": "https://dc.lft.to/lastmile_qr_scan"}, "is_reserved": 0}, {"lon": -77.02950516666667, "bike_id": "706b6600b444a671ad3aac0bdef77247", "lat": 38.921774166666665, "fusion_lon": 0.0, "fusion_lat": 0.0, "type": "electric_scooter", "name": "706b6600b444a671ad3aac0bdef77247", "is_disabled": 0, "rental_uris": {"ios": "https://dc.lft.to/lastmile_qr_scan", "android": "https://dc.lft.to/lastmile_qr_scan"}, "is_reserved": 0}, {"lon": -77.0048415, "bike_id": "465a271dae13b582897d339239852aba", "lat": 38.920745, "fusion_lon": 0.0, "fusion_lat": 0.0, "type": "electric_scooter", "name": "465a271dae13b582897d339239852aba", "is_disabled": 0, "rental_uris": {"ios": "https://dc.lft.to/lastmile_qr_scan", "android": "https://dc.lft.to/lastmile_qr_scan"}, "is_reserved": 0}, {"lon": -76.94997066666667, "bike_id": "6d532e9ce582061e9675d2bd0268a9c1", "lat": 38.89384066666667, "fusion_lon": 0.0, "fusion_lat": 0.0, "type": "electric_scooter", "name": "6d532e9ce582061e9675d2bd0268a9c1", "is_disabled": 0, "rental_uris": {"ios": "https://dc.lft.to/lastmile_qr_scan", "android": "https://dc.lft.to/lastmile_qr_scan"}, "is_reserved": 0}, {"lon": -77.0242715, "bike_id": "c7b9fa32059c5bd601134d19937228d5", "lat": 38.91407433333333, "fusion_lon": 0.0, "fusion_lat": 0.0, "type": "electric_scooter", "name": "c7b9fa32059c5bd601134d19937228d5", "is_disabled": 0, "rental_uris": {"ios": "https://dc.lft.to/lastmile_qr_scan", "android": "https://dc.lft.to/lastmile_qr_scan"}, "is_reserved": 0}, {"lon": -76.98016216666667, "bike_id": "8d173fbd0ce31fdb27cf65cd0a991ba9", "lat": 38.89890333333334, "fusion_lon": 0.0, "fusion_lat": 0.0, "type": "electric_scooter", "name": "8d173fbd0ce31fdb27cf65cd0a991ba9", "is_disabled": 0, "rental_uris": {"ios": "https://dc.lft.to/lastmile_qr_scan", "android": "https://dc.lft.to/lastmile_qr_scan"}, "is_reserved": 0}, {"lon": -77.014465, "bike_id": "796bf94aed2e55cecdb460d08ff4af9b", "lat": 38.879355, "fusion_lon": 0.0, "fusion_lat": 0.0, "type": "electric_scooter", "name": "796bf94aed2e55cecdb460d08ff4af9b", "is_disabled": 0, "rental_uris": {"ios": "https://dc.lft.to/lastmile_qr_scan", "android": "https://dc.lft.to/lastmile_qr_scan"}, "is_reserved": 0}, {"lon": -77.07431533333333, "bike_id": "7671b525629683c2540b5bb9f511b439", "lat": 38.99946533333333, "fusion_lon": 0.0, "fusion_lat": 0.0, "type": "electric_bike", "name": "7671b525629683c2540b5bb9f511b439", "is_disabled": 0, "rental_uris": {"ios": "https://dc.lft.to/lastmile_qr_scan", "android": "https://dc.lft.to/lastmile_qr_scan"}, "is_reserved": 0}, {"lon": -77.00739366666667, "bike_id": "998bf41b8a86abfc171017fde1723a3a", "lat": 38.916275166666665, "fusion_lon": 0.0, "fusion_lat": 0.0, "type": "electric_scooter", "name": "998bf41b8a86abfc171017fde1723a3a", "is_disabled": 0, "rental_uris": {"ios": "https://dc.lft.to/lastmile_qr_scan", "android": "https://dc.lft.to/lastmile_qr_scan"}, "is_reserved": 0}, {"lon": -77.01428, "bike_id": "22c7025f9d35b6cfcbaff60f62cfd836", "lat": 38.91462283333333, "fusion_lon": 0.0, "fusion_lat": 0.0, "type": "electric_scooter", "name": "22c7025f9d35b6cfcbaff60f62cfd836", "is_disabled": 0, "rental_uris": {"ios": "https://dc.lft.to/lastmile_qr_scan", "android": "https://dc.lft.to/lastmile_qr_scan"}, "is_reserved": 0}, {"lon": -77.03256966666666, "bike_id": "cfe7bae1271d18ea222a12189165c746", "lat": 38.935629, "fusion_lon": 0.0, "fusion_lat": 0.0, "type": "electric_scooter", "name": "cfe7bae1271d18ea222a12189165c746", "is_disabled": 0, "rental_uris": {"ios": "https://dc.lft.to/lastmile_qr_scan", "android": "https://dc.lft.to/lastmile_qr_scan"}, "is_reserved": 0}, {"lon": -76.98714883333334, "bike_id": "fe358a9a7f3cb44f8b1b6a8060d946eb", "lat": 38.86626183333333, "fusion_lon": 0.0, "fusion_lat": 0.0, "type": "electric_scooter", "name": "fe358a9a7f3cb44f8b1b6a8060d946eb", "is_disabled": 0, "rental_uris": {"ios": "https://dc.lft.to/lastmile_qr_scan", "android": "https://dc.lft.to/lastmile_qr_scan"}, "is_reserved": 0}, {"lon": -77.058562, "bike_id": "c313acf3fd26aa916779155cbed691b2", "lat": 38.936087666666666, "fusion_lon": 0.0, "fusion_lat": 0.0, "type": "electric_scooter", "name": "c313acf3fd26aa916779155cbed691b2", "is_disabled": 0, "rental_uris": {"ios": "https://dc.lft.to/lastmile_qr_scan", "android": "https://dc.lft.to/lastmile_qr_scan"}, "is_reserved": 0}, {"lon": -76.93352633333333, "bike_id": "f8526363e6b4cbea5ebe6f33c75cb9ab", "lat": 38.899022333333335, "fusion_lon": 0.0, "fusion_lat": 0.0, "type": "electric_scooter", "name": "f8526363e6b4cbea5ebe6f33c75cb9ab", "is_disabled": 0, "rental_uris": {"ios": "https://dc.lft.to/lastmile_qr_scan", "android": "https://dc.lft.to/lastmile_qr_scan"}, "is_reserved": 0}, {"lon": -76.98286483333334, "bike_id": "54e1a27f1cd1b6d303f302b70b88f41f", "lat": 38.900453166666665, "fusion_lon": 0.0, "fusion_lat": 0.0, "type": "electric_scooter", "name": "54e1a27f1cd1b6d303f302b70b88f41f", "is_disabled": 0, "rental_uris": {"ios": "https://dc.lft.to/lastmile_qr_scan", "android": "https://dc.lft.to/lastmile_qr_scan"}, "is_reserved": 0}, {"lon": -77.05132766666667, "bike_id": "1b9ec1d564fcb49ec780bfa052070e89", "lat": 38.923632833333336, "fusion_lon": 0.0, "fusion_lat": 0.0, "type": "electric_scooter", "name": "1b9ec1d564fcb49ec780bfa052070e89", "is_disabled": 0, "rental_uris": {"ios": "https://dc.lft.to/lastmile_qr_scan", "android": "https://dc.lft.to/lastmile_qr_scan"}, "is_reserved": 0}, {"lon": -77.03455366666667, "bike_id": "21fc1e81247286da10d9b984905fc9a5", "lat": 38.90900366666666, "fusion_lon": 0.0, "fusion_lat": 0.0, "type": "electric_scooter", "name": "21fc1e81247286da10d9b984905fc9a5", "is_disabled": 0, "rental_uris": {"ios": "https://dc.lft.to/lastmile_qr_scan", "android": "https://dc.lft.to/lastmile_qr_scan"}, "is_reserved": 0}, {"lon": -77.08340583333333, "bike_id": "ec048d5aa29b5081e4436b8e6cf35d32", "lat": 38.92998883333333, "fusion_lon": 0.0, "fusion_lat": 0.0, "type": "electric_scooter", "name": "ec048d5aa29b5081e4436b8e6cf35d32", "is_disabled": 0, "rental_uris": {"ios": "https://dc.lft.to/lastmile_qr_scan", "android": "https://dc.lft.to/lastmile_qr_scan"}, "is_reserved": 0}, {"lon": -77.03991833333333, "bike_id": "7df6a0de3344ae84b1675523f157e76a", "lat": 38.92463383333333, "fusion_lon": 0.0, "fusion_lat": 0.0, "type": "electric_scooter", "name": "7df6a0de3344ae84b1675523f157e76a", "is_disabled": 0, "rental_uris": {"ios": "https://dc.lft.to/lastmile_qr_scan", "android": "https://dc.lft.to/lastmile_qr_scan"}, "is_reserved": 0}, {"lon": -77.04464766666666, "bike_id": "f5e0f3e3174fb8772730de4d95227ab5", "lat": 38.915767833333334, "fusion_lon": 0.0, "fusion_lat": 0.0, "type": "electric_scooter", "name": "f5e0f3e3174fb8772730de4d95227ab5", "is_disabled": 0, "rental_uris": {"ios": "https://dc.lft.to/lastmile_qr_scan", "android": "https://dc.lft.to/lastmile_qr_scan"}, "is_reserved": 0}, {"lon": -77.12655016666666, "bike_id": "f5ff1d1d77f61f5a837eba65478c7423", "lat": 38.81513133333333, "fusion_lon": 0.0, "fusion_lat": 0.0, "type": "electric_bike", "name": "f5ff1d1d77f61f5a837eba65478c7423", "is_disabled": 0, "rental_uris": {"ios": "https://dc.lft.to/lastmile_qr_scan", "android": "https://dc.lft.to/lastmile_qr_scan"}, "is_reserved": 0}, {"lon": -77.0366175, "bike_id": "0becaafbf21dfda50914d14eb8c277b3", "lat": 38.92117416666667, "fusion_lon": 0.0, "fusion_lat": 0.0, "type": "electric_scooter", "name": "0becaafbf21dfda50914d14eb8c277b3", "is_disabled": 0, "rental_uris": {"ios": "https://dc.lft.to/lastmile_qr_scan", "android": "https://dc.lft.to/lastmile_qr_scan"}, "is_reserved": 0}, {"lon": -77.02195283333333, "bike_id": "1f0940789b30377d5a4dbe424847f126", "lat": 38.91015933333333, "fusion_lon": 0.0, "fusion_lat": 0.0, "type": "electric_scooter", "name": "1f0940789b30377d5a4dbe424847f126", "is_disabled": 0, "rental_uris": {"ios": "https://dc.lft.to/lastmile_qr_scan", "android": "https://dc.lft.to/lastmile_qr_scan"}, "is_reserved": 0}, {"lon": -77.02154883333333, "bike_id": "0828c68da06413cfdae4a1b86cb9bc5f", "lat": 38.92602, "fusion_lon": 0.0, "fusion_lat": 0.0, "type": "electric_bike", "name": "0828c68da06413cfdae4a1b86cb9bc5f", "is_disabled": 0, "rental_uris": {"ios": "https://dc.lft.to/lastmile_qr_scan", "android": "https://dc.lft.to/lastmile_qr_scan"}, "is_reserved": 0}, {"lon": -76.92734783333333, "bike_id": "8575c9134259039ee2d7de7327096469", "lat": 38.88967433333333, "fusion_lon": 0.0, "fusion_lat": 0.0, "type": "electric_scooter", "name": "8575c9134259039ee2d7de7327096469", "is_disabled": 0, "rental_uris": {"ios": "https://dc.lft.to/lastmile_qr_scan", "android": "https://dc.lft.to/lastmile_qr_scan"}, "is_reserved": 0}, {"lon": -77.019017, "bike_id": "6b62c804d4ff84199fc12f187c532ead", "lat": 38.905090333333334, "fusion_lon": 0.0, "fusion_lat": 0.0, "type": "electric_scooter", "name": "6b62c804d4ff84199fc12f187c532ead", "is_disabled": 0, "rental_uris": {"ios": "https://dc.lft.to/lastmile_qr_scan", "android": "https://dc.lft.to/lastmile_qr_scan"}, "is_reserved": 0}, {"lon": -77.0142325, "bike_id": "fda93e706909d13c5f92d4eb8699ac1e", "lat": 38.87646, "fusion_lon": 0.0, "fusion_lat": 0.0, "type": "electric_scooter", "name": "fda93e706909d13c5f92d4eb8699ac1e", "is_disabled": 0, "rental_uris": {"ios": "https://dc.lft.to/lastmile_qr_scan", "android": "https://dc.lft.to/lastmile_qr_scan"}, "is_reserved": 0}, {"lon": -76.9854835, "bike_id": "0d4f0326dac63e0bec8b15c74b8f8f60", "lat": 38.92000383333333, "fusion_lon": 0.0, "fusion_lat": 0.0, "type": "electric_scooter", "name": "0d4f0326dac63e0bec8b15c74b8f8f60", "is_disabled": 0, "rental_uris": {"ios": "https://dc.lft.to/lastmile_qr_scan", "android": "https://dc.lft.to/lastmile_qr_scan"}, "is_reserved": 0}, {"lon": -77.05176783333333, "bike_id": "1bba4c0678ac5d4fc3cf4e5c9c60b3b0", "lat": 38.92346216666667, "fusion_lon": 0.0, "fusion_lat": 0.0, "type": "electric_scooter", "name": "1bba4c0678ac5d4fc3cf4e5c9c60b3b0", "is_disabled": 0, "rental_uris": {"ios": "https://dc.lft.to/lastmile_qr_scan", "android": "https://dc.lft.to/lastmile_qr_scan"}, "is_reserved": 0}, {"lon": -77.08066616666666, "bike_id": "f8af7053d2cad2dfe854517bfe29dda2", "lat": 38.96318483333334, "fusion_lon": 0.0, "fusion_lat": 0.0, "type": "electric_bike", "name": "f8af7053d2cad2dfe854517bfe29dda2", "is_disabled": 0, "rental_uris": {"ios": "https://dc.lft.to/lastmile_qr_scan", "android": "https://dc.lft.to/lastmile_qr_scan"}, "is_reserved": 0}, {"lon": -77.003425, "bike_id": "29fcfd04d70ccc2853ac207cf477aca3", "lat": 38.89531566666667, "fusion_lon": 0.0, "fusion_lat": 0.0, "type": "electric_scooter", "name": "29fcfd04d70ccc2853ac207cf477aca3", "is_disabled": 0, "rental_uris": {"ios": "https://dc.lft.to/lastmile_qr_scan", "android": "https://dc.lft.to/lastmile_qr_scan"}, "is_reserved": 0}, {"lon": -77.017667, "bike_id": "8940795c53211e00dc3d7ab67c1b860d", "lat": 38.90385666666667, "fusion_lon": 0.0, "fusion_lat": 0.0, "type": "electric_scooter", "name": "8940795c53211e00dc3d7ab67c1b860d", "is_disabled": 0, "rental_uris": {"ios": "https://dc.lft.to/lastmile_qr_scan", "android": "https://dc.lft.to/lastmile_qr_scan"}, "is_reserved": 0}, {"lon": -76.99936266666667, "bike_id": "8f9df274c761bc63b8972fe5ce261a04", "lat": 38.843021666666665, "fusion_lon": 0.0, "fusion_lat": 0.0, "type": "electric_scooter", "name": "8f9df274c761bc63b8972fe5ce261a04", "is_disabled": 0, "rental_uris": {"ios": "https://dc.lft.to/lastmile_qr_scan", "android": "https://dc.lft.to/lastmile_qr_scan"}, "is_reserved": 0}, {"lon": -76.993761, "bike_id": "aba2bd0727eb7118e2a2289633909c4c", "lat": 38.97189866666667, "fusion_lon": 0.0, "fusion_lat": 0.0, "type": "electric_bike", "name": "aba2bd0727eb7118e2a2289633909c4c", "is_disabled": 0, "rental_uris": {"ios": "https://dc.lft.to/lastmile_qr_scan", "android": "https://dc.lft.to/lastmile_qr_scan"}, "is_reserved": 0}, {"lon": -77.07005883333333, "bike_id": "f99ff91121a0aee2caf6969a57a3a830", "lat": 38.958491, "fusion_lon": 0.0, "fusion_lat": 0.0, "type": "electric_scooter", "name": "f99ff91121a0aee2caf6969a57a3a830", "is_disabled": 0, "rental_uris": {"ios": "https://dc.lft.to/lastmile_qr_scan", "android": "https://dc.lft.to/lastmile_qr_scan"}, "is_reserved": 0}, {"lon": -76.94872283333333, "bike_id": "1c361a55b9e4936599d52676cf84564c", "lat": 38.8954905, "fusion_lon": 0.0, "fusion_lat": 0.0, "type": "electric_scooter", "name": "1c361a55b9e4936599d52676cf84564c", "is_disabled": 0, "rental_uris": {"ios": "https://dc.lft.to/lastmile_qr_scan", "android": "https://dc.lft.to/lastmile_qr_scan"}, "is_reserved": 0}, {"lon": -77.0312015, "bike_id": "94d688d271da246004a805e784c8f900", "lat": 38.91700133333333, "fusion_lon": 0.0, "fusion_lat": 0.0, "type": "electric_scooter", "name": "94d688d271da246004a805e784c8f900", "is_disabled": 0, "rental_uris": {"ios": "https://dc.lft.to/lastmile_qr_scan", "android": "https://dc.lft.to/lastmile_qr_scan"}, "is_reserved": 0}, {"lon": -77.03764083333333, "bike_id": "ad9a20f1447427b9b5f833e36bec25ef", "lat": 38.902724166666665, "fusion_lon": 0.0, "fusion_lat": 0.0, "type": "electric_scooter", "name": "ad9a20f1447427b9b5f833e36bec25ef", "is_disabled": 0, "rental_uris": {"ios": "https://dc.lft.to/lastmile_qr_scan", "android": "https://dc.lft.to/lastmile_qr_scan"}, "is_reserved": 0}, {"lon": -77.02723666666667, "bike_id": "821a4025fae13e980f66c5902be121f7", "lat": 38.97244583333333, "fusion_lon": 0.0, "fusion_lat": 0.0, "type": "electric_scooter", "name": "821a4025fae13e980f66c5902be121f7", "is_disabled": 0, "rental_uris": {"ios": "https://dc.lft.to/lastmile_qr_scan", "android": "https://dc.lft.to/lastmile_qr_scan"}, "is_reserved": 0}, {"lon": -77.03164533333333, "bike_id": "3c7ec283f766ce5472cafe359eda44d2", "lat": 38.9360245, "fusion_lon": 0.0, "fusion_lat": 0.0, "type": "electric_scooter", "name": "3c7ec283f766ce5472cafe359eda44d2", "is_disabled": 0, "rental_uris": {"ios": "https://dc.lft.to/lastmile_qr_scan", "android": "https://dc.lft.to/lastmile_qr_scan"}, "is_reserved": 0}, {"lon": -77.020883, "bike_id": "e57c0c0e63aab82e42a7f7d9472ce1a4", "lat": 38.94523516666667, "fusion_lon": 0.0, "fusion_lat": 0.0, "type": "electric_scooter", "name": "e57c0c0e63aab82e42a7f7d9472ce1a4", "is_disabled": 0, "rental_uris": {"ios": "https://dc.lft.to/lastmile_qr_scan", "android": "https://dc.lft.to/lastmile_qr_scan"}, "is_reserved": 0}, {"lon": -77.05253883333333, "bike_id": "979cb7e8a69aa609054a7e5c4eb747fa", "lat": 38.9236785, "fusion_lon": 0.0, "fusion_lat": 0.0, "type": "electric_scooter", "name": "979cb7e8a69aa609054a7e5c4eb747fa", "is_disabled": 0, "rental_uris": {"ios": "https://dc.lft.to/lastmile_qr_scan", "android": "https://dc.lft.to/lastmile_qr_scan"}, "is_reserved": 0}, {"lon": -77.0243825, "bike_id": "f839b7803aa2828b8d01e53c6a57351c", "lat": 38.91695816666667, "fusion_lon": 0.0, "fusion_lat": 0.0, "type": "electric_scooter", "name": "f839b7803aa2828b8d01e53c6a57351c", "is_disabled": 0, "rental_uris": {"ios": "https://dc.lft.to/lastmile_qr_scan", "android": "https://dc.lft.to/lastmile_qr_scan"}, "is_reserved": 0}, {"lon": -77.01412316666666, "bike_id": "15f0b34abb4865322f79e79043cfedcf", "lat": 38.90642416666667, "fusion_lon": 0.0, "fusion_lat": 0.0, "type": "electric_scooter", "name": "15f0b34abb4865322f79e79043cfedcf", "is_disabled": 0, "rental_uris": {"ios": "https://dc.lft.to/lastmile_qr_scan", "android": "https://dc.lft.to/lastmile_qr_scan"}, "is_reserved": 0}, {"lon": -76.92372033333334, "bike_id": "f9fa10ae5807e4af331baa40ec7334f8", "lat": 38.883734, "fusion_lon": 0.0, "fusion_lat": 0.0, "type": "electric_bike", "name": "f9fa10ae5807e4af331baa40ec7334f8", "is_disabled": 0, "rental_uris": {"ios": "https://dc.lft.to/lastmile_qr_scan", "android": "https://dc.lft.to/lastmile_qr_scan"}, "is_reserved": 0}, {"lon": -77.03385116666666, "bike_id": "3b1ebf3d4fb37c72219994de6906f21b", "lat": 38.9384225, "fusion_lon": 0.0, "fusion_lat": 0.0, "type": "electric_scooter", "name": "3b1ebf3d4fb37c72219994de6906f21b", "is_disabled": 0, "rental_uris": {"ios": "https://dc.lft.to/lastmile_qr_scan", "android": "https://dc.lft.to/lastmile_qr_scan"}, "is_reserved": 0}, {"lon": -77.02168216666666, "bike_id": "ae10c633c00142f69f297a905a05205a", "lat": 38.887519, "fusion_lon": 0.0, "fusion_lat": 0.0, "type": "electric_scooter", "name": "ae10c633c00142f69f297a905a05205a", "is_disabled": 0, "rental_uris": {"ios": "https://dc.lft.to/lastmile_qr_scan", "android": "https://dc.lft.to/lastmile_qr_scan"}, "is_reserved": 0}, {"lon": -77.0317895, "bike_id": "a182e75d7e822123eadd48e783ebfcaa", "lat": 38.895769, "fusion_lon": 0.0, "fusion_lat": 0.0, "type": "electric_scooter", "name": "a182e75d7e822123eadd48e783ebfcaa", "is_disabled": 0, "rental_uris": {"ios": "https://dc.lft.to/lastmile_qr_scan", "android": "https://dc.lft.to/lastmile_qr_scan"}, "is_reserved": 0}, {"lon": -76.9888135, "bike_id": "040c74eaa0eb5db2df9d7ad805355e98", "lat": 38.866561, "fusion_lon": 0.0, "fusion_lat": 0.0, "type": "electric_scooter", "name": "040c74eaa0eb5db2df9d7ad805355e98", "is_disabled": 0, "rental_uris": {"ios": "https://dc.lft.to/lastmile_qr_scan", "android": "https://dc.lft.to/lastmile_qr_scan"}, "is_reserved": 0}, {"lon": -77.023059, "bike_id": "0ee1a66dc845c2b4680bddfc406df395", "lat": 38.940949, "fusion_lon": 0.0, "fusion_lat": 0.0, "type": "electric_scooter", "name": "0ee1a66dc845c2b4680bddfc406df395", "is_disabled": 0, "rental_uris": {"ios": "https://dc.lft.to/lastmile_qr_scan", "android": "https://dc.lft.to/lastmile_qr_scan"}, "is_reserved": 0}, {"lon": -76.9859615, "bike_id": "40de03d8384827d549f66075f8f28fac", "lat": 38.906225, "fusion_lon": 0.0, "fusion_lat": 0.0, "type": "electric_bike", "name": "40de03d8384827d549f66075f8f28fac", "is_disabled": 0, "rental_uris": {"ios": "https://dc.lft.to/lastmile_qr_scan", "android": "https://dc.lft.to/lastmile_qr_scan"}, "is_reserved": 0}, {"lon": -77.04169033333334, "bike_id": "2c1636bc389975846e7159a16afb3a14", "lat": 38.92018366666667, "fusion_lon": 0.0, "fusion_lat": 0.0, "type": "electric_scooter", "name": "2c1636bc389975846e7159a16afb3a14", "is_disabled": 0, "rental_uris": {"ios": "https://dc.lft.to/lastmile_qr_scan", "android": "https://dc.lft.to/lastmile_qr_scan"}, "is_reserved": 0}, {"lon": -77.02397116666667, "bike_id": "5dbd3dbe5fcb7048462b3f547ccf0b97", "lat": 38.919884, "fusion_lon": 0.0, "fusion_lat": 0.0, "type": "electric_scooter", "name": "5dbd3dbe5fcb7048462b3f547ccf0b97", "is_disabled": 0, "rental_uris": {"ios": "https://dc.lft.to/lastmile_qr_scan", "android": "https://dc.lft.to/lastmile_qr_scan"}, "is_reserved": 0}, {"lon": -77.03990066666667, "bike_id": "58c6f9aef97170dc9657b1d330f6efa1", "lat": 38.924651, "fusion_lon": 0.0, "fusion_lat": 0.0, "type": "electric_scooter", "name": "58c6f9aef97170dc9657b1d330f6efa1", "is_disabled": 0, "rental_uris": {"ios": "https://dc.lft.to/lastmile_qr_scan", "android": "https://dc.lft.to/lastmile_qr_scan"}, "is_reserved": 0}, {"lon": -77.0216315, "bike_id": "efb99f2a9e47f8cd8521cf22bd384d1a", "lat": 38.8921125, "fusion_lon": 0.0, "fusion_lat": 0.0, "type": "electric_scooter", "name": "efb99f2a9e47f8cd8521cf22bd384d1a", "is_disabled": 0, "rental_uris": {"ios": "https://dc.lft.to/lastmile_qr_scan", "android": "https://dc.lft.to/lastmile_qr_scan"}, "is_reserved": 0}, {"lon": -77.02595133333334, "bike_id": "50c557103865961ea9b32048dd412195", "lat": 38.926596833333335, "fusion_lon": 0.0, "fusion_lat": 0.0, "type": "electric_scooter", "name": "50c557103865961ea9b32048dd412195", "is_disabled": 0, "rental_uris": {"ios": "https://dc.lft.to/lastmile_qr_scan", "android": "https://dc.lft.to/lastmile_qr_scan"}, "is_reserved": 0}, {"lon": -77.04926983333333, "bike_id": "02911eb78fe81b9495ec51774d839005", "lat": 39.029332, "fusion_lon": 0.0, "fusion_lat": 0.0, "type": "electric_bike", "name": "02911eb78fe81b9495ec51774d839005", "is_disabled": 0, "rental_uris": {"ios": "https://dc.lft.to/lastmile_qr_scan", "android": "https://dc.lft.to/lastmile_qr_scan"}, "is_reserved": 0}, {"lon": -77.04630833333333, "bike_id": "edc2921eafc391398ade345444f7ad21", "lat": 38.90343266666667, "fusion_lon": 0.0, "fusion_lat": 0.0, "type": "electric_scooter", "name": "edc2921eafc391398ade345444f7ad21", "is_disabled": 0, "rental_uris": {"ios": "https://dc.lft.to/lastmile_qr_scan", "android": "https://dc.lft.to/lastmile_qr_scan"}, "is_reserved": 0}, {"lon": -77.048164, "bike_id": "8b08e3e8d6a6452eb0286aa313444c7a", "lat": 38.91334283333333, "fusion_lon": 0.0, "fusion_lat": 0.0, "type": "electric_scooter", "name": "8b08e3e8d6a6452eb0286aa313444c7a", "is_disabled": 0, "rental_uris": {"ios": "https://dc.lft.to/lastmile_qr_scan", "android": "https://dc.lft.to/lastmile_qr_scan"}, "is_reserved": 0}, {"lon": -77.02428483333334, "bike_id": "57091f219b6e05fb6deb489d98daff37", "lat": 38.91407383333333, "fusion_lon": 0.0, "fusion_lat": 0.0, "type": "electric_scooter", "name": "57091f219b6e05fb6deb489d98daff37", "is_disabled": 0, "rental_uris": {"ios": "https://dc.lft.to/lastmile_qr_scan", "android": "https://dc.lft.to/lastmile_qr_scan"}, "is_reserved": 0}, {"lon": -77.024015, "bike_id": "db774308819f0b749775fbc3ec9a6297", "lat": 38.934808833333335, "fusion_lon": 0.0, "fusion_lat": 0.0, "type": "electric_scooter", "name": "db774308819f0b749775fbc3ec9a6297", "is_disabled": 0, "rental_uris": {"ios": "https://dc.lft.to/lastmile_qr_scan", "android": "https://dc.lft.to/lastmile_qr_scan"}, "is_reserved": 0}, {"lon": -76.97821916666666, "bike_id": "3f7d29f38aad61370510490c6e652e46", "lat": 38.843643, "fusion_lon": 0.0, "fusion_lat": 0.0, "type": "electric_bike", "name": "3f7d29f38aad61370510490c6e652e46", "is_disabled": 0, "rental_uris": {"ios": "https://dc.lft.to/lastmile_qr_scan", "android": "https://dc.lft.to/lastmile_qr_scan"}, "is_reserved": 0}, {"lon": -77.03465216666666, "bike_id": "3d0d30141bb1665b2cb950e486f81955", "lat": 38.9186995, "fusion_lon": 0.0, "fusion_lat": 0.0, "type": "electric_scooter", "name": "3d0d30141bb1665b2cb950e486f81955", "is_disabled": 0, "rental_uris": {"ios": "https://dc.lft.to/lastmile_qr_scan", "android": "https://dc.lft.to/lastmile_qr_scan"}, "is_reserved": 0}, {"lon": -77.0240705, "bike_id": "3dd3aaedde6d564e873efc6f8ea3bc6d", "lat": 38.901067833333336, "fusion_lon": 0.0, "fusion_lat": 0.0, "type": "electric_scooter", "name": "3dd3aaedde6d564e873efc6f8ea3bc6d", "is_disabled": 0, "rental_uris": {"ios": "https://dc.lft.to/lastmile_qr_scan", "android": "https://dc.lft.to/lastmile_qr_scan"}, "is_reserved": 0}, {"lon": -77.09068866666667, "bike_id": "6c496ec83771387ca26a81ac0d23de22", "lat": 38.86263066666667, "fusion_lon": 0.0, "fusion_lat": 0.0, "type": "electric_bike", "name": "6c496ec83771387ca26a81ac0d23de22", "is_disabled": 0, "rental_uris": {"ios": "https://dc.lft.to/lastmile_qr_scan", "android": "https://dc.lft.to/lastmile_qr_scan"}, "is_reserved": 0}, {"lon": -77.04163216666667, "bike_id": "873817ccce375dc7ed77f7119ab6d6a0", "lat": 38.914852833333335, "fusion_lon": 0.0, "fusion_lat": 0.0, "type": "electric_scooter", "name": "873817ccce375dc7ed77f7119ab6d6a0", "is_disabled": 0, "rental_uris": {"ios": "https://dc.lft.to/lastmile_qr_scan", "android": "https://dc.lft.to/lastmile_qr_scan"}, "is_reserved": 0}, {"lon": -76.94381666666666, "bike_id": "da238f6b6841c3fbfb0e0fb2092be37d", "lat": 38.8932345, "fusion_lon": 0.0, "fusion_lat": 0.0, "type": "electric_scooter", "name": "da238f6b6841c3fbfb0e0fb2092be37d", "is_disabled": 0, "rental_uris": {"ios": "https://dc.lft.to/lastmile_qr_scan", "android": "https://dc.lft.to/lastmile_qr_scan"}, "is_reserved": 0}, {"lon": -76.9826275, "bike_id": "9b86475e4760c17091c29c3e7511c36e", "lat": 38.9013725, "fusion_lon": 0.0, "fusion_lat": 0.0, "type": "electric_scooter", "name": "9b86475e4760c17091c29c3e7511c36e", "is_disabled": 0, "rental_uris": {"ios": "https://dc.lft.to/lastmile_qr_scan", "android": "https://dc.lft.to/lastmile_qr_scan"}, "is_reserved": 0}, {"lon": -76.97421633333333, "bike_id": "1d96f8871cca2d3c203bf13ca5bfcac3", "lat": 38.90402366666667, "fusion_lon": 0.0, "fusion_lat": 0.0, "type": "electric_scooter", "name": "1d96f8871cca2d3c203bf13ca5bfcac3", "is_disabled": 0, "rental_uris": {"ios": "https://dc.lft.to/lastmile_qr_scan", "android": "https://dc.lft.to/lastmile_qr_scan"}, "is_reserved": 0}, {"lon": -77.0257925, "bike_id": "8d192c193f99b0039c1953d7465a535e", "lat": 38.9032965, "fusion_lon": 0.0, "fusion_lat": 0.0, "type": "electric_scooter", "name": "8d192c193f99b0039c1953d7465a535e", "is_disabled": 0, "rental_uris": {"ios": "https://dc.lft.to/lastmile_qr_scan", "android": "https://dc.lft.to/lastmile_qr_scan"}, "is_reserved": 0}, {"lon": -77.360904, "bike_id": "9dc3acfa9aeadb8fe905a06ecaafa036", "lat": 38.939605, "fusion_lon": 0.0, "fusion_lat": 0.0, "type": "electric_bike", "name": "9dc3acfa9aeadb8fe905a06ecaafa036", "is_disabled": 0, "rental_uris": {"ios": "https://dc.lft.to/lastmile_qr_scan", "android": "https://dc.lft.to/lastmile_qr_scan"}, "is_reserved": 0}, {"lon": -77.01651166666667, "bike_id": "85a0b9ebae2e7bea2f9f265c05b128bb", "lat": 38.88740466666667, "fusion_lon": 0.0, "fusion_lat": 0.0, "type": "electric_scooter", "name": "85a0b9ebae2e7bea2f9f265c05b128bb", "is_disabled": 0, "rental_uris": {"ios": "https://dc.lft.to/lastmile_qr_scan", "android": "https://dc.lft.to/lastmile_qr_scan"}, "is_reserved": 0}, {"lon": -77.03652516666666, "bike_id": "21eb2426695df482cb3daa94632b2235", "lat": 38.917482666666665, "fusion_lon": 0.0, "fusion_lat": 0.0, "type": "electric_scooter", "name": "21eb2426695df482cb3daa94632b2235", "is_disabled": 0, "rental_uris": {"ios": "https://dc.lft.to/lastmile_qr_scan", "android": "https://dc.lft.to/lastmile_qr_scan"}, "is_reserved": 0}, {"lon": -77.05122566666667, "bike_id": "2346f9330fde5bdcc22ad75d76e5609a", "lat": 38.90212016666667, "fusion_lon": 0.0, "fusion_lat": 0.0, "type": "electric_scooter", "name": "2346f9330fde5bdcc22ad75d76e5609a", "is_disabled": 0, "rental_uris": {"ios": "https://dc.lft.to/lastmile_qr_scan", "android": "https://dc.lft.to/lastmile_qr_scan"}, "is_reserved": 0}, {"lon": -76.9942405, "bike_id": "103cd66b2264520574fb27a47c22ba19", "lat": 38.895629, "fusion_lon": 0.0, "fusion_lat": 0.0, "type": "electric_scooter", "name": "103cd66b2264520574fb27a47c22ba19", "is_disabled": 0, "rental_uris": {"ios": "https://dc.lft.to/lastmile_qr_scan", "android": "https://dc.lft.to/lastmile_qr_scan"}, "is_reserved": 0}, {"lon": -76.97702666666666, "bike_id": "7bb9af130c629b01891e5e99a18ecb37", "lat": 38.94918166666667, "fusion_lon": 0.0, "fusion_lat": 0.0, "type": "electric_bike", "name": "7bb9af130c629b01891e5e99a18ecb37", "is_disabled": 0, "rental_uris": {"ios": "https://dc.lft.to/lastmile_qr_scan", "android": "https://dc.lft.to/lastmile_qr_scan"}, "is_reserved": 0}, {"lon": -77.00383133333334, "bike_id": "609bee97b16d8b63ba1c4553b41f4dfc", "lat": 38.897523666666665, "fusion_lon": 0.0, "fusion_lat": 0.0, "type": "electric_scooter", "name": "609bee97b16d8b63ba1c4553b41f4dfc", "is_disabled": 0, "rental_uris": {"ios": "https://dc.lft.to/lastmile_qr_scan", "android": "https://dc.lft.to/lastmile_qr_scan"}, "is_reserved": 0}, {"lon": -76.90605933333333, "bike_id": "be35492e798116e6eba6c716aa23d5ad", "lat": 39.00462233333333, "fusion_lon": 0.0, "fusion_lat": 0.0, "type": "electric_bike", "name": "be35492e798116e6eba6c716aa23d5ad", "is_disabled": 0, "rental_uris": {"ios": "https://dc.lft.to/lastmile_qr_scan", "android": "https://dc.lft.to/lastmile_qr_scan"}, "is_reserved": 0}, {"lon": -77.02984183333334, "bike_id": "7c8614dd942fa8a274040417a36fa204", "lat": 38.907867, "fusion_lon": 0.0, "fusion_lat": 0.0, "type": "electric_scooter", "name": "7c8614dd942fa8a274040417a36fa204", "is_disabled": 0, "rental_uris": {"ios": "https://dc.lft.to/lastmile_qr_scan", "android": "https://dc.lft.to/lastmile_qr_scan"}, "is_reserved": 0}, {"lon": -77.01619816666667, "bike_id": "014eef4ec4fe0c7305a7ca42b005c2fb", "lat": 38.965722166666666, "fusion_lon": 0.0, "fusion_lat": 0.0, "type": "electric_scooter", "name": "014eef4ec4fe0c7305a7ca42b005c2fb", "is_disabled": 0, "rental_uris": {"ios": "https://dc.lft.to/lastmile_qr_scan", "android": "https://dc.lft.to/lastmile_qr_scan"}, "is_reserved": 0}, {"lon": -76.98617933333334, "bike_id": "4c73d1bf71bac791c8d2ee2f401002dd", "lat": 38.93829133333333, "fusion_lon": 0.0, "fusion_lat": 0.0, "type": "electric_scooter", "name": "4c73d1bf71bac791c8d2ee2f401002dd", "is_disabled": 0, "rental_uris": {"ios": "https://dc.lft.to/lastmile_qr_scan", "android": "https://dc.lft.to/lastmile_qr_scan"}, "is_reserved": 0}, {"lon": -76.98023816666667, "bike_id": "c3e14c7e3798f33b1d94774a97a909e2", "lat": 38.900829, "fusion_lon": 0.0, "fusion_lat": 0.0, "type": "electric_bike", "name": "c3e14c7e3798f33b1d94774a97a909e2", "is_disabled": 0, "rental_uris": {"ios": "https://dc.lft.to/lastmile_qr_scan", "android": "https://dc.lft.to/lastmile_qr_scan"}, "is_reserved": 0}, {"lon": -76.94632833333333, "bike_id": "559a79ca4f106f53d12e61f16e280c92", "lat": 38.89835033333333, "fusion_lon": 0.0, "fusion_lat": 0.0, "type": "electric_scooter", "name": "559a79ca4f106f53d12e61f16e280c92", "is_disabled": 0, "rental_uris": {"ios": "https://dc.lft.to/lastmile_qr_scan", "android": "https://dc.lft.to/lastmile_qr_scan"}, "is_reserved": 0}, {"lon": -77.00038683333334, "bike_id": "2cee70cff2a00c79dca10c07c6cf36e6", "lat": 38.908694833333335, "fusion_lon": 0.0, "fusion_lat": 0.0, "type": "electric_scooter", "name": "2cee70cff2a00c79dca10c07c6cf36e6", "is_disabled": 0, "rental_uris": {"ios": "https://dc.lft.to/lastmile_qr_scan", "android": "https://dc.lft.to/lastmile_qr_scan"}, "is_reserved": 0}, {"lon": -77.023889, "bike_id": "e610992ce1a7879b09690532ba7f73d4", "lat": 38.9207405, "fusion_lon": 0.0, "fusion_lat": 0.0, "type": "electric_scooter", "name": "e610992ce1a7879b09690532ba7f73d4", "is_disabled": 0, "rental_uris": {"ios": "https://dc.lft.to/lastmile_qr_scan", "android": "https://dc.lft.to/lastmile_qr_scan"}, "is_reserved": 0}, {"lon": -77.04174183333333, "bike_id": "d057cd6af0ca27eddfeea9194f6bdbf5", "lat": 38.916522, "fusion_lon": 0.0, "fusion_lat": 0.0, "type": "electric_scooter", "name": "d057cd6af0ca27eddfeea9194f6bdbf5", "is_disabled": 0, "rental_uris": {"ios": "https://dc.lft.to/lastmile_qr_scan", "android": "https://dc.lft.to/lastmile_qr_scan"}, "is_reserved": 0}, {"lon": -77.02507316666667, "bike_id": "f9ca6cad16fd6b888dad0d9db863de90", "lat": 38.9420695, "fusion_lon": 0.0, "fusion_lat": 0.0, "type": "electric_scooter", "name": "f9ca6cad16fd6b888dad0d9db863de90", "is_disabled": 0, "rental_uris": {"ios": "https://dc.lft.to/lastmile_qr_scan", "android": "https://dc.lft.to/lastmile_qr_scan"}, "is_reserved": 0}, {"lon": -77.02965083333333, "bike_id": "c42cec665dee65a04d5bbb72ec45d1bc", "lat": 38.92293216666667, "fusion_lon": 0.0, "fusion_lat": 0.0, "type": "electric_scooter", "name": "c42cec665dee65a04d5bbb72ec45d1bc", "is_disabled": 0, "rental_uris": {"ios": "https://dc.lft.to/lastmile_qr_scan", "android": "https://dc.lft.to/lastmile_qr_scan"}, "is_reserved": 0}, {"lon": -76.9760125, "bike_id": "e3960d940da0192212d2658ef563f486", "lat": 38.8974665, "fusion_lon": 0.0, "fusion_lat": 0.0, "type": "electric_scooter", "name": "e3960d940da0192212d2658ef563f486", "is_disabled": 0, "rental_uris": {"ios": "https://dc.lft.to/lastmile_qr_scan", "android": "https://dc.lft.to/lastmile_qr_scan"}, "is_reserved": 0}, {"lon": -76.9788995, "bike_id": "e07f8c208ec02232f0b00dc41d4f78bd", "lat": 38.88535, "fusion_lon": 0.0, "fusion_lat": 0.0, "type": "electric_scooter", "name": "e07f8c208ec02232f0b00dc41d4f78bd", "is_disabled": 0, "rental_uris": {"ios": "https://dc.lft.to/lastmile_qr_scan", "android": "https://dc.lft.to/lastmile_qr_scan"}, "is_reserved": 0}, {"lon": -76.983298, "bike_id": "7c275490cd6bbef0294543ae0a52d721", "lat": 38.8954335, "fusion_lon": 0.0, "fusion_lat": 0.0, "type": "electric_scooter", "name": "7c275490cd6bbef0294543ae0a52d721", "is_disabled": 0, "rental_uris": {"ios": "https://dc.lft.to/lastmile_qr_scan", "android": "https://dc.lft.to/lastmile_qr_scan"}, "is_reserved": 0}, {"lon": -77.11802433333334, "bike_id": "7c09c7d12384eb50eff2fb2a8e1f82c2", "lat": 38.873767666666666, "fusion_lon": 0.0, "fusion_lat": 0.0, "type": "electric_bike", "name": "7c09c7d12384eb50eff2fb2a8e1f82c2", "is_disabled": 0, "rental_uris": {"ios": "https://dc.lft.to/lastmile_qr_scan", "android": "https://dc.lft.to/lastmile_qr_scan"}, "is_reserved": 0}, {"lon": -77.03165133333333, "bike_id": "74a18dfa47cffa4439917f0862fa93b4", "lat": 38.89221283333333, "fusion_lon": 0.0, "fusion_lat": 0.0, "type": "electric_scooter", "name": "74a18dfa47cffa4439917f0862fa93b4", "is_disabled": 0, "rental_uris": {"ios": "https://dc.lft.to/lastmile_qr_scan", "android": "https://dc.lft.to/lastmile_qr_scan"}, "is_reserved": 0}, {"lon": -77.02678266666666, "bike_id": "61cc993130fe55f7918ae0304fd68a37", "lat": 38.9023665, "fusion_lon": 0.0, "fusion_lat": 0.0, "type": "electric_scooter", "name": "61cc993130fe55f7918ae0304fd68a37", "is_disabled": 0, "rental_uris": {"ios": "https://dc.lft.to/lastmile_qr_scan", "android": "https://dc.lft.to/lastmile_qr_scan"}, "is_reserved": 0}, {"lon": -77.032434, "bike_id": "a10a0e67f5444ffa93fecb2446fb635c", "lat": 38.92767033333333, "fusion_lon": 0.0, "fusion_lat": 0.0, "type": "electric_scooter", "name": "a10a0e67f5444ffa93fecb2446fb635c", "is_disabled": 0, "rental_uris": {"ios": "https://dc.lft.to/lastmile_qr_scan", "android": "https://dc.lft.to/lastmile_qr_scan"}, "is_reserved": 0}, {"lon": -76.99500666666667, "bike_id": "6866b0226d6965cfb39fa59eebf20baa", "lat": 38.89764483333333, "fusion_lon": 0.0, "fusion_lat": 0.0, "type": "electric_scooter", "name": "6866b0226d6965cfb39fa59eebf20baa", "is_disabled": 0, "rental_uris": {"ios": "https://dc.lft.to/lastmile_qr_scan", "android": "https://dc.lft.to/lastmile_qr_scan"}, "is_reserved": 0}, {"lon": -77.01756866666666, "bike_id": "8dd7fa7e95f524101ff22093a5028ea1", "lat": 38.88196216666667, "fusion_lon": 0.0, "fusion_lat": 0.0, "type": "electric_scooter", "name": "8dd7fa7e95f524101ff22093a5028ea1", "is_disabled": 0, "rental_uris": {"ios": "https://dc.lft.to/lastmile_qr_scan", "android": "https://dc.lft.to/lastmile_qr_scan"}, "is_reserved": 0}, {"lon": -76.99703383333333, "bike_id": "9ef9aca147e1503dfe6810dd04cbad89", "lat": 38.844321666666666, "fusion_lon": 0.0, "fusion_lat": 0.0, "type": "electric_scooter", "name": "9ef9aca147e1503dfe6810dd04cbad89", "is_disabled": 0, "rental_uris": {"ios": "https://dc.lft.to/lastmile_qr_scan", "android": "https://dc.lft.to/lastmile_qr_scan"}, "is_reserved": 0}, {"lon": -77.01153766666667, "bike_id": "6d7aee4abd559a6f0685b3dd61b7f759", "lat": 38.896139166666664, "fusion_lon": 0.0, "fusion_lat": 0.0, "type": "electric_scooter", "name": "6d7aee4abd559a6f0685b3dd61b7f759", "is_disabled": 0, "rental_uris": {"ios": "https://dc.lft.to/lastmile_qr_scan", "android": "https://dc.lft.to/lastmile_qr_scan"}, "is_reserved": 0}, {"lon": -77.00536316666667, "bike_id": "3ef165e5accc5ddeac8922f4a8c8df75", "lat": 38.87542966666667, "fusion_lon": 0.0, "fusion_lat": 0.0, "type": "electric_scooter", "name": "3ef165e5accc5ddeac8922f4a8c8df75", "is_disabled": 0, "rental_uris": {"ios": "https://dc.lft.to/lastmile_qr_scan", "android": "https://dc.lft.to/lastmile_qr_scan"}, "is_reserved": 0}, {"lon": -77.01198283333333, "bike_id": "3b5c6c3b84b4c6f5c62d4073e6c4b1de", "lat": 38.893145, "fusion_lon": 0.0, "fusion_lat": 0.0, "type": "electric_scooter", "name": "3b5c6c3b84b4c6f5c62d4073e6c4b1de", "is_disabled": 0, "rental_uris": {"ios": "https://dc.lft.to/lastmile_qr_scan", "android": "https://dc.lft.to/lastmile_qr_scan"}, "is_reserved": 0}, {"lon": -77.002843, "bike_id": "64984944241f4ecfc989c71e1898532d", "lat": 38.91812, "fusion_lon": 0.0, "fusion_lat": 0.0, "type": "electric_scooter", "name": "64984944241f4ecfc989c71e1898532d", "is_disabled": 0, "rental_uris": {"ios": "https://dc.lft.to/lastmile_qr_scan", "android": "https://dc.lft.to/lastmile_qr_scan"}, "is_reserved": 0}, {"lon": -77.00127666666667, "bike_id": "e1e686820bb06281ab79c3930dabfd98", "lat": 38.885229, "fusion_lon": 0.0, "fusion_lat": 0.0, "type": "electric_scooter", "name": "e1e686820bb06281ab79c3930dabfd98", "is_disabled": 0, "rental_uris": {"ios": "https://dc.lft.to/lastmile_qr_scan", "android": "https://dc.lft.to/lastmile_qr_scan"}, "is_reserved": 0}, {"lon": -77.009268, "bike_id": "d24b13cc1bf4f74b0b2c30ef4da38db9", "lat": 38.918067666666666, "fusion_lon": 0.0, "fusion_lat": 0.0, "type": "electric_scooter", "name": "d24b13cc1bf4f74b0b2c30ef4da38db9", "is_disabled": 0, "rental_uris": {"ios": "https://dc.lft.to/lastmile_qr_scan", "android": "https://dc.lft.to/lastmile_qr_scan"}, "is_reserved": 0}, {"lon": -77.02584633333333, "bike_id": "7bfbad128fe5179a91b428748c4c72ad", "lat": 38.90371616666667, "fusion_lon": 0.0, "fusion_lat": 0.0, "type": "electric_scooter", "name": "7bfbad128fe5179a91b428748c4c72ad", "is_disabled": 0, "rental_uris": {"ios": "https://dc.lft.to/lastmile_qr_scan", "android": "https://dc.lft.to/lastmile_qr_scan"}, "is_reserved": 0}, {"lon": -76.98881266666666, "bike_id": "e107fcb0fbc63c6d302c55846f6e4d64", "lat": 38.86654083333333, "fusion_lon": 0.0, "fusion_lat": 0.0, "type": "electric_scooter", "name": "e107fcb0fbc63c6d302c55846f6e4d64", "is_disabled": 0, "rental_uris": {"ios": "https://dc.lft.to/lastmile_qr_scan", "android": "https://dc.lft.to/lastmile_qr_scan"}, "is_reserved": 0}, {"lon": -77.0249085, "bike_id": "30d414c8dd93305f100e7518f66de216", "lat": 38.941847, "fusion_lon": 0.0, "fusion_lat": 0.0, "type": "electric_scooter", "name": "30d414c8dd93305f100e7518f66de216", "is_disabled": 0, "rental_uris": {"ios": "https://dc.lft.to/lastmile_qr_scan", "android": "https://dc.lft.to/lastmile_qr_scan"}, "is_reserved": 0}, {"lon": -77.02298383333333, "bike_id": "c8c7a8851ce797889daa26154ddd17a0", "lat": 38.9232655, "fusion_lon": 0.0, "fusion_lat": 0.0, "type": "electric_bike", "name": "c8c7a8851ce797889daa26154ddd17a0", "is_disabled": 0, "rental_uris": {"ios": "https://dc.lft.to/lastmile_qr_scan", "android": "https://dc.lft.to/lastmile_qr_scan"}, "is_reserved": 0}, {"lon": -77.0613555, "bike_id": "7a8a0e08ad3d55e396843d72c826172c", "lat": 38.94357933333333, "fusion_lon": 0.0, "fusion_lat": 0.0, "type": "electric_scooter", "name": "7a8a0e08ad3d55e396843d72c826172c", "is_disabled": 0, "rental_uris": {"ios": "https://dc.lft.to/lastmile_qr_scan", "android": "https://dc.lft.to/lastmile_qr_scan"}, "is_reserved": 0}, {"lon": -77.05116583333333, "bike_id": "4dcc31ed4baeac79c9dd4362e7b44bff", "lat": 38.923460166666665, "fusion_lon": 0.0, "fusion_lat": 0.0, "type": "electric_scooter", "name": "4dcc31ed4baeac79c9dd4362e7b44bff", "is_disabled": 0, "rental_uris": {"ios": "https://dc.lft.to/lastmile_qr_scan", "android": "https://dc.lft.to/lastmile_qr_scan"}, "is_reserved": 0}, {"lon": -77.077934, "bike_id": "2dcbf64374ef411fdfa3014cc2fdfa3b", "lat": 38.995991333333336, "fusion_lon": 0.0, "fusion_lat": 0.0, "type": "electric_bike", "name": "2dcbf64374ef411fdfa3014cc2fdfa3b", "is_disabled": 0, "rental_uris": {"ios": "https://dc.lft.to/lastmile_qr_scan", "android": "https://dc.lft.to/lastmile_qr_scan"}, "is_reserved": 0}, {"lon": -76.99786483333334, "bike_id": "a9b4b9f6d4f7064500f0caf095b2247d", "lat": 38.91059416666667, "fusion_lon": 0.0, "fusion_lat": 0.0, "type": "electric_scooter", "name": "a9b4b9f6d4f7064500f0caf095b2247d", "is_disabled": 0, "rental_uris": {"ios": "https://dc.lft.to/lastmile_qr_scan", "android": "https://dc.lft.to/lastmile_qr_scan"}, "is_reserved": 0}, {"lon": -77.04352533333333, "bike_id": "9bd664d3677c736c20e00f83cac3c5fc", "lat": 38.9079585, "fusion_lon": 0.0, "fusion_lat": 0.0, "type": "electric_scooter", "name": "9bd664d3677c736c20e00f83cac3c5fc", "is_disabled": 0, "rental_uris": {"ios": "https://dc.lft.to/lastmile_qr_scan", "android": "https://dc.lft.to/lastmile_qr_scan"}, "is_reserved": 0}, {"lon": -76.99571666666667, "bike_id": "d8d8d74d320f269f1bde8636f19d739a", "lat": 38.862252, "fusion_lon": 0.0, "fusion_lat": 0.0, "type": "electric_scooter", "name": "d8d8d74d320f269f1bde8636f19d739a", "is_disabled": 0, "rental_uris": {"ios": "https://dc.lft.to/lastmile_qr_scan", "android": "https://dc.lft.to/lastmile_qr_scan"}, "is_reserved": 0}, {"lon": -77.03498516666667, "bike_id": "fb63f3372e2cbe22601f3b6effc50484", "lat": 38.924823333333336, "fusion_lon": 0.0, "fusion_lat": 0.0, "type": "electric_scooter", "name": "fb63f3372e2cbe22601f3b6effc50484", "is_disabled": 0, "rental_uris": {"ios": "https://dc.lft.to/lastmile_qr_scan", "android": "https://dc.lft.to/lastmile_qr_scan"}, "is_reserved": 0}, {"lon": -77.02942333333333, "bike_id": "d662a0b3a73c0af387f9fbc7d04c0635", "lat": 38.907186333333335, "fusion_lon": 0.0, "fusion_lat": 0.0, "type": "electric_scooter", "name": "d662a0b3a73c0af387f9fbc7d04c0635", "is_disabled": 0, "rental_uris": {"ios": "https://dc.lft.to/lastmile_qr_scan", "android": "https://dc.lft.to/lastmile_qr_scan"}, "is_reserved": 0}, {"lon": -77.00202616666667, "bike_id": "16c6b45b2dae16ecf44ff4469c5a4d58", "lat": 38.90017683333333, "fusion_lon": 0.0, "fusion_lat": 0.0, "type": "electric_scooter", "name": "16c6b45b2dae16ecf44ff4469c5a4d58", "is_disabled": 0, "rental_uris": {"ios": "https://dc.lft.to/lastmile_qr_scan", "android": "https://dc.lft.to/lastmile_qr_scan"}, "is_reserved": 0}, {"lon": -76.98490616666666, "bike_id": "035effd6723c35c1742ff43a3ec49f67", "lat": 38.879566833333335, "fusion_lon": 0.0, "fusion_lat": 0.0, "type": "electric_bike", "name": "035effd6723c35c1742ff43a3ec49f67", "is_disabled": 0, "rental_uris": {"ios": "https://dc.lft.to/lastmile_qr_scan", "android": "https://dc.lft.to/lastmile_qr_scan"}, "is_reserved": 0}, {"lon": -77.00351933333333, "bike_id": "17ba7844df0fb395fcb09369f304cbec", "lat": 38.89938733333334, "fusion_lon": 0.0, "fusion_lat": 0.0, "type": "electric_scooter", "name": "17ba7844df0fb395fcb09369f304cbec", "is_disabled": 0, "rental_uris": {"ios": "https://dc.lft.to/lastmile_qr_scan", "android": "https://dc.lft.to/lastmile_qr_scan"}, "is_reserved": 0}, {"lon": -76.97535133333334, "bike_id": "06734c914751981a0025c61200d38fe3", "lat": 38.90333116666667, "fusion_lon": 0.0, "fusion_lat": 0.0, "type": "electric_bike", "name": "06734c914751981a0025c61200d38fe3", "is_disabled": 0, "rental_uris": {"ios": "https://dc.lft.to/lastmile_qr_scan", "android": "https://dc.lft.to/lastmile_qr_scan"}, "is_reserved": 0}, {"lon": -77.03680216666666, "bike_id": "e0278cb97947dcd7e6e8f1f002572f22", "lat": 38.93939316666667, "fusion_lon": 0.0, "fusion_lat": 0.0, "type": "electric_scooter", "name": "e0278cb97947dcd7e6e8f1f002572f22", "is_disabled": 0, "rental_uris": {"ios": "https://dc.lft.to/lastmile_qr_scan", "android": "https://dc.lft.to/lastmile_qr_scan"}, "is_reserved": 0}, {"lon": -77.01137383333334, "bike_id": "863814e2d517e3478fa2f4071e2bf890", "lat": 38.90727233333333, "fusion_lon": 0.0, "fusion_lat": 0.0, "type": "electric_scooter", "name": "863814e2d517e3478fa2f4071e2bf890", "is_disabled": 0, "rental_uris": {"ios": "https://dc.lft.to/lastmile_qr_scan", "android": "https://dc.lft.to/lastmile_qr_scan"}, "is_reserved": 0}, {"lon": -76.9855765, "bike_id": "0a7abe69d226b1db50996da21148d651", "lat": 38.90002483333333, "fusion_lon": 0.0, "fusion_lat": 0.0, "type": "electric_scooter", "name": "0a7abe69d226b1db50996da21148d651", "is_disabled": 0, "rental_uris": {"ios": "https://dc.lft.to/lastmile_qr_scan", "android": "https://dc.lft.to/lastmile_qr_scan"}, "is_reserved": 0}, {"lon": -77.025287, "bike_id": "a4c36030b0ec66b0661b9bdee1397b63", "lat": 38.93301866666667, "fusion_lon": 0.0, "fusion_lat": 0.0, "type": "electric_scooter", "name": "a4c36030b0ec66b0661b9bdee1397b63", "is_disabled": 0, "rental_uris": {"ios": "https://dc.lft.to/lastmile_qr_scan", "android": "https://dc.lft.to/lastmile_qr_scan"}, "is_reserved": 0}, {"lon": -77.07301116666666, "bike_id": "065da7fd203e5d166441809420d6ef40", "lat": 38.89606783333333, "fusion_lon": 0.0, "fusion_lat": 0.0, "type": "electric_bike", "name": "065da7fd203e5d166441809420d6ef40", "is_disabled": 0, "rental_uris": {"ios": "https://dc.lft.to/lastmile_qr_scan", "android": "https://dc.lft.to/lastmile_qr_scan"}, "is_reserved": 0}, {"lon": -77.03827, "bike_id": "327699fc18aa1bb6ffc48dbca6421317", "lat": 38.907966, "fusion_lon": 0.0, "fusion_lat": 0.0, "type": "electric_scooter", "name": "327699fc18aa1bb6ffc48dbca6421317", "is_disabled": 0, "rental_uris": {"ios": "https://dc.lft.to/lastmile_qr_scan", "android": "https://dc.lft.to/lastmile_qr_scan"}, "is_reserved": 0}, {"lon": -76.99778616666667, "bike_id": "94bc739fe7713ab45f00a02d36baf3bf", "lat": 38.84430866666667, "fusion_lon": 0.0, "fusion_lat": 0.0, "type": "electric_scooter", "name": "94bc739fe7713ab45f00a02d36baf3bf", "is_disabled": 0, "rental_uris": {"ios": "https://dc.lft.to/lastmile_qr_scan", "android": "https://dc.lft.to/lastmile_qr_scan"}, "is_reserved": 0}, {"lon": -77.02547933333334, "bike_id": "7f524176abc36f0cd5944d18b0017a00", "lat": 38.91414316666667, "fusion_lon": 0.0, "fusion_lat": 0.0, "type": "electric_scooter", "name": "7f524176abc36f0cd5944d18b0017a00", "is_disabled": 0, "rental_uris": {"ios": "https://dc.lft.to/lastmile_qr_scan", "android": "https://dc.lft.to/lastmile_qr_scan"}, "is_reserved": 0}, {"lon": -77.0445435, "bike_id": "885a7fe4d3a651747e94a3fa273be2ec", "lat": 38.90832183333333, "fusion_lon": 0.0, "fusion_lat": 0.0, "type": "electric_scooter", "name": "885a7fe4d3a651747e94a3fa273be2ec", "is_disabled": 0, "rental_uris": {"ios": "https://dc.lft.to/lastmile_qr_scan", "android": "https://dc.lft.to/lastmile_qr_scan"}, "is_reserved": 0}, {"lon": -77.031819, "bike_id": "8061b8957f98e01ca3055b63a1c75205", "lat": 38.915037833333336, "fusion_lon": 0.0, "fusion_lat": 0.0, "type": "electric_scooter", "name": "8061b8957f98e01ca3055b63a1c75205", "is_disabled": 0, "rental_uris": {"ios": "https://dc.lft.to/lastmile_qr_scan", "android": "https://dc.lft.to/lastmile_qr_scan"}, "is_reserved": 0}, {"lon": -76.98102883333334, "bike_id": "b71bcef4e4c6670cb10cf167c4bb5966", "lat": 38.903961, "fusion_lon": 0.0, "fusion_lat": 0.0, "type": "electric_scooter", "name": "b71bcef4e4c6670cb10cf167c4bb5966", "is_disabled": 0, "rental_uris": {"ios": "https://dc.lft.to/lastmile_qr_scan", "android": "https://dc.lft.to/lastmile_qr_scan"}, "is_reserved": 0}, {"lon": -77.036534, "bike_id": "62a526f58e3ac64269d590e4d51b0722", "lat": 38.928364, "fusion_lon": 0.0, "fusion_lat": 0.0, "type": "electric_scooter", "name": "62a526f58e3ac64269d590e4d51b0722", "is_disabled": 0, "rental_uris": {"ios": "https://dc.lft.to/lastmile_qr_scan", "android": "https://dc.lft.to/lastmile_qr_scan"}, "is_reserved": 0}, {"lon": -76.9919015, "bike_id": "31485f4c944f98ba62a8883526d2add9", "lat": 38.8826845, "fusion_lon": 0.0, "fusion_lat": 0.0, "type": "electric_scooter", "name": "31485f4c944f98ba62a8883526d2add9", "is_disabled": 0, "rental_uris": {"ios": "https://dc.lft.to/lastmile_qr_scan", "android": "https://dc.lft.to/lastmile_qr_scan"}, "is_reserved": 0}, {"lon": -77.026956, "bike_id": "f950071aa9099031f083f41d36c8664b", "lat": 38.907871666666665, "fusion_lon": 0.0, "fusion_lat": 0.0, "type": "electric_scooter", "name": "f950071aa9099031f083f41d36c8664b", "is_disabled": 0, "rental_uris": {"ios": "https://dc.lft.to/lastmile_qr_scan", "android": "https://dc.lft.to/lastmile_qr_scan"}, "is_reserved": 0}, {"lon": -77.02801783333334, "bike_id": "3bd3aa2160a8b7c1cf921b23e0edd9d6", "lat": 38.91658533333333, "fusion_lon": 0.0, "fusion_lat": 0.0, "type": "electric_scooter", "name": "3bd3aa2160a8b7c1cf921b23e0edd9d6", "is_disabled": 0, "rental_uris": {"ios": "https://dc.lft.to/lastmile_qr_scan", "android": "https://dc.lft.to/lastmile_qr_scan"}, "is_reserved": 0}, {"lon": -77.02652416666666, "bike_id": "c0cfc1177f5e363fd4f2df404b3ae7fe", "lat": 38.910550666666666, "fusion_lon": 0.0, "fusion_lat": 0.0, "type": "electric_scooter", "name": "c0cfc1177f5e363fd4f2df404b3ae7fe", "is_disabled": 0, "rental_uris": {"ios": "https://dc.lft.to/lastmile_qr_scan", "android": "https://dc.lft.to/lastmile_qr_scan"}, "is_reserved": 0}, {"lon": -76.9827125, "bike_id": "b77b1b41454c608170a718b3d37bd030", "lat": 38.885309, "fusion_lon": 0.0, "fusion_lat": 0.0, "type": "electric_scooter", "name": "b77b1b41454c608170a718b3d37bd030", "is_disabled": 0, "rental_uris": {"ios": "https://dc.lft.to/lastmile_qr_scan", "android": "https://dc.lft.to/lastmile_qr_scan"}, "is_reserved": 0}, {"lon": -77.0473775, "bike_id": "09af00fe5efa23938edb33bb43ba2ab6", "lat": 38.923150166666666, "fusion_lon": 0.0, "fusion_lat": 0.0, "type": "electric_scooter", "name": "09af00fe5efa23938edb33bb43ba2ab6", "is_disabled": 0, "rental_uris": {"ios": "https://dc.lft.to/lastmile_qr_scan", "android": "https://dc.lft.to/lastmile_qr_scan"}, "is_reserved": 0}, {"lon": -77.031933, "bike_id": "66fb7aa7c79952be2272b37a4af62f29", "lat": 38.900653, "fusion_lon": 0.0, "fusion_lat": 0.0, "type": "electric_scooter", "name": "66fb7aa7c79952be2272b37a4af62f29", "is_disabled": 0, "rental_uris": {"ios": "https://dc.lft.to/lastmile_qr_scan", "android": "https://dc.lft.to/lastmile_qr_scan"}, "is_reserved": 0}, {"lon": -77.02176766666666, "bike_id": "bffe9a59df385e0edebd2f5232fe66a9", "lat": 38.901802333333336, "fusion_lon": 0.0, "fusion_lat": 0.0, "type": "electric_scooter", "name": "bffe9a59df385e0edebd2f5232fe66a9", "is_disabled": 0, "rental_uris": {"ios": "https://dc.lft.to/lastmile_qr_scan", "android": "https://dc.lft.to/lastmile_qr_scan"}, "is_reserved": 0}, {"lon": -77.01508066666666, "bike_id": "b81ab22dd7570663fa762a6f918205a8", "lat": 38.918629, "fusion_lon": 0.0, "fusion_lat": 0.0, "type": "electric_scooter", "name": "b81ab22dd7570663fa762a6f918205a8", "is_disabled": 0, "rental_uris": {"ios": "https://dc.lft.to/lastmile_qr_scan", "android": "https://dc.lft.to/lastmile_qr_scan"}, "is_reserved": 0}, {"lon": -76.99583283333334, "bike_id": "198295078ecee64b6dc1964512c7b79a", "lat": 38.852985833333335, "fusion_lon": 0.0, "fusion_lat": 0.0, "type": "electric_scooter", "name": "198295078ecee64b6dc1964512c7b79a", "is_disabled": 0, "rental_uris": {"ios": "https://dc.lft.to/lastmile_qr_scan", "android": "https://dc.lft.to/lastmile_qr_scan"}, "is_reserved": 0}, {"lon": -77.0250975, "bike_id": "c890a2d3e66146c2fc7fa72e53c8cd27", "lat": 38.9340935, "fusion_lon": 0.0, "fusion_lat": 0.0, "type": "electric_bike", "name": "c890a2d3e66146c2fc7fa72e53c8cd27", "is_disabled": 0, "rental_uris": {"ios": "https://dc.lft.to/lastmile_qr_scan", "android": "https://dc.lft.to/lastmile_qr_scan"}, "is_reserved": 0}, {"lon": -76.98557533333333, "bike_id": "d1d4761ecf05dc9cc2a9904bd8ab0b64", "lat": 38.910357833333336, "fusion_lon": 0.0, "fusion_lat": 0.0, "type": "electric_scooter", "name": "d1d4761ecf05dc9cc2a9904bd8ab0b64", "is_disabled": 0, "rental_uris": {"ios": "https://dc.lft.to/lastmile_qr_scan", "android": "https://dc.lft.to/lastmile_qr_scan"}, "is_reserved": 0}, {"lon": -77.03811583333334, "bike_id": "5aea2b500673259c5fd7963f08089189", "lat": 38.920707666666665, "fusion_lon": 0.0, "fusion_lat": 0.0, "type": "electric_scooter", "name": "5aea2b500673259c5fd7963f08089189", "is_disabled": 0, "rental_uris": {"ios": "https://dc.lft.to/lastmile_qr_scan", "android": "https://dc.lft.to/lastmile_qr_scan"}, "is_reserved": 0}, {"lon": -77.05037816666666, "bike_id": "7a23e523180e69c8b24f6246160327c0", "lat": 38.92375066666666, "fusion_lon": 0.0, "fusion_lat": 0.0, "type": "electric_scooter", "name": "7a23e523180e69c8b24f6246160327c0", "is_disabled": 0, "rental_uris": {"ios": "https://dc.lft.to/lastmile_qr_scan", "android": "https://dc.lft.to/lastmile_qr_scan"}, "is_reserved": 0}, {"lon": -77.0442895, "bike_id": "b2ac907b9de45529dc86625a94003ed3", "lat": 38.9146925, "fusion_lon": 0.0, "fusion_lat": 0.0, "type": "electric_scooter", "name": "b2ac907b9de45529dc86625a94003ed3", "is_disabled": 0, "rental_uris": {"ios": "https://dc.lft.to/lastmile_qr_scan", "android": "https://dc.lft.to/lastmile_qr_scan"}, "is_reserved": 0}, {"lon": -76.93551216666667, "bike_id": "2bb8d77d9c08d8734bed3af2b2207092", "lat": 38.9556505, "fusion_lon": 0.0, "fusion_lat": 0.0, "type": "electric_bike", "name": "2bb8d77d9c08d8734bed3af2b2207092", "is_disabled": 0, "rental_uris": {"ios": "https://dc.lft.to/lastmile_qr_scan", "android": "https://dc.lft.to/lastmile_qr_scan"}, "is_reserved": 0}, {"lon": -77.027898, "bike_id": "d7490d5e7afda9dfe462840e7fd13ac9", "lat": 38.9276985, "fusion_lon": 0.0, "fusion_lat": 0.0, "type": "electric_scooter", "name": "d7490d5e7afda9dfe462840e7fd13ac9", "is_disabled": 0, "rental_uris": {"ios": "https://dc.lft.to/lastmile_qr_scan", "android": "https://dc.lft.to/lastmile_qr_scan"}, "is_reserved": 0}, {"lon": -77.052119, "bike_id": "59b8b5a4bdc18ff4f8aaa773d375234b", "lat": 38.9248235, "fusion_lon": 0.0, "fusion_lat": 0.0, "type": "electric_scooter", "name": "59b8b5a4bdc18ff4f8aaa773d375234b", "is_disabled": 0, "rental_uris": {"ios": "https://dc.lft.to/lastmile_qr_scan", "android": "https://dc.lft.to/lastmile_qr_scan"}, "is_reserved": 0}, {"lon": -77.041192, "bike_id": "8b4c7be35bfaff08da451a7847086d2c", "lat": 38.9440715, "fusion_lon": 0.0, "fusion_lat": 0.0, "type": "electric_bike", "name": "8b4c7be35bfaff08da451a7847086d2c", "is_disabled": 0, "rental_uris": {"ios": "https://dc.lft.to/lastmile_qr_scan", "android": "https://dc.lft.to/lastmile_qr_scan"}, "is_reserved": 0}, {"lon": -76.92524733333333, "bike_id": "fe03a413d7fa62169c30292fc24d65b8", "lat": 38.88340633333333, "fusion_lon": 0.0, "fusion_lat": 0.0, "type": "electric_bike", "name": "fe03a413d7fa62169c30292fc24d65b8", "is_disabled": 0, "rental_uris": {"ios": "https://dc.lft.to/lastmile_qr_scan", "android": "https://dc.lft.to/lastmile_qr_scan"}, "is_reserved": 0}, {"lon": -77.0805095, "bike_id": "08f2477ddd7fade323594fb1f866da56", "lat": 38.92064933333333, "fusion_lon": 0.0, "fusion_lat": 0.0, "type": "electric_bike", "name": "08f2477ddd7fade323594fb1f866da56", "is_disabled": 0, "rental_uris": {"ios": "https://dc.lft.to/lastmile_qr_scan", "android": "https://dc.lft.to/lastmile_qr_scan"}, "is_reserved": 0}, {"lon": -77.03857933333333, "bike_id": "47b51be48282374c19480307471b7cf8", "lat": 38.907464, "fusion_lon": 0.0, "fusion_lat": 0.0, "type": "electric_scooter", "name": "47b51be48282374c19480307471b7cf8", "is_disabled": 0, "rental_uris": {"ios": "https://dc.lft.to/lastmile_qr_scan", "android": "https://dc.lft.to/lastmile_qr_scan"}, "is_reserved": 0}, {"lon": -76.99605816666667, "bike_id": "37e3b86d1e45c0c43637df5597a7243e", "lat": 38.9096335, "fusion_lon": 0.0, "fusion_lat": 0.0, "type": "electric_scooter", "name": "37e3b86d1e45c0c43637df5597a7243e", "is_disabled": 0, "rental_uris": {"ios": "https://dc.lft.to/lastmile_qr_scan", "android": "https://dc.lft.to/lastmile_qr_scan"}, "is_reserved": 0}, {"lon": -76.99331683333334, "bike_id": "4debad74f08750f137aa8f27abfb7550", "lat": 38.8714135, "fusion_lon": 0.0, "fusion_lat": 0.0, "type": "electric_scooter", "name": "4debad74f08750f137aa8f27abfb7550", "is_disabled": 0, "rental_uris": {"ios": "https://dc.lft.to/lastmile_qr_scan", "android": "https://dc.lft.to/lastmile_qr_scan"}, "is_reserved": 0}, {"lon": -77.04244616666666, "bike_id": "cd24ef0c62d39a5472f678070e13f479", "lat": 38.91078616666667, "fusion_lon": 0.0, "fusion_lat": 0.0, "type": "electric_scooter", "name": "cd24ef0c62d39a5472f678070e13f479", "is_disabled": 0, "rental_uris": {"ios": "https://dc.lft.to/lastmile_qr_scan", "android": "https://dc.lft.to/lastmile_qr_scan"}, "is_reserved": 0}, {"lon": -76.9605805, "bike_id": "71550919563c3acf74ca998dd1ceafef", "lat": 38.884046, "fusion_lon": 0.0, "fusion_lat": 0.0, "type": "electric_bike", "name": "71550919563c3acf74ca998dd1ceafef", "is_disabled": 0, "rental_uris": {"ios": "https://dc.lft.to/lastmile_qr_scan", "android": "https://dc.lft.to/lastmile_qr_scan"}, "is_reserved": 0}, {"lon": -77.0208665, "bike_id": "ed08c286de34ed14b9a9b006f08ea15a", "lat": 38.9576125, "fusion_lon": 0.0, "fusion_lat": 0.0, "type": "electric_scooter", "name": "ed08c286de34ed14b9a9b006f08ea15a", "is_disabled": 0, "rental_uris": {"ios": "https://dc.lft.to/lastmile_qr_scan", "android": "https://dc.lft.to/lastmile_qr_scan"}, "is_reserved": 0}, {"lon": -76.98726516666666, "bike_id": "4ffc7d6cc8393577365b14b39749d154", "lat": 38.86715216666666, "fusion_lon": 0.0, "fusion_lat": 0.0, "type": "electric_scooter", "name": "4ffc7d6cc8393577365b14b39749d154", "is_disabled": 0, "rental_uris": {"ios": "https://dc.lft.to/lastmile_qr_scan", "android": "https://dc.lft.to/lastmile_qr_scan"}, "is_reserved": 0}, {"lon": -77.03337383333333, "bike_id": "15075709c112fddd4ac1617ceb0bba9b", "lat": 38.9364235, "fusion_lon": 0.0, "fusion_lat": 0.0, "type": "electric_scooter", "name": "15075709c112fddd4ac1617ceb0bba9b", "is_disabled": 0, "rental_uris": {"ios": "https://dc.lft.to/lastmile_qr_scan", "android": "https://dc.lft.to/lastmile_qr_scan"}, "is_reserved": 0}, {"lon": -77.02198066666666, "bike_id": "3db20136f376eea5ac609ccbaaadef24", "lat": 38.90277416666667, "fusion_lon": 0.0, "fusion_lat": 0.0, "type": "electric_scooter", "name": "3db20136f376eea5ac609ccbaaadef24", "is_disabled": 0, "rental_uris": {"ios": "https://dc.lft.to/lastmile_qr_scan", "android": "https://dc.lft.to/lastmile_qr_scan"}, "is_reserved": 0}, {"lon": -76.94886983333333, "bike_id": "2c43f7c879f2cc13b39987f266065202", "lat": 38.89510716666667, "fusion_lon": 0.0, "fusion_lat": 0.0, "type": "electric_scooter", "name": "2c43f7c879f2cc13b39987f266065202", "is_disabled": 0, "rental_uris": {"ios": "https://dc.lft.to/lastmile_qr_scan", "android": "https://dc.lft.to/lastmile_qr_scan"}, "is_reserved": 0}, {"lon": -77.01645983333333, "bike_id": "13e0d95d62157ff2bf6f06bc4653eac0", "lat": 38.905758166666665, "fusion_lon": 0.0, "fusion_lat": 0.0, "type": "electric_scooter", "name": "13e0d95d62157ff2bf6f06bc4653eac0", "is_disabled": 0, "rental_uris": {"ios": "https://dc.lft.to/lastmile_qr_scan", "android": "https://dc.lft.to/lastmile_qr_scan"}, "is_reserved": 0}, {"lon": -77.0276245, "bike_id": "6abf4aa88a106a978c7677c1627523b9", "lat": 38.89694866666667, "fusion_lon": 0.0, "fusion_lat": 0.0, "type": "electric_scooter", "name": "6abf4aa88a106a978c7677c1627523b9", "is_disabled": 0, "rental_uris": {"ios": "https://dc.lft.to/lastmile_qr_scan", "android": "https://dc.lft.to/lastmile_qr_scan"}, "is_reserved": 0}, {"lon": -76.97340383333334, "bike_id": "33a35bcb834e3fd49f3e739727663af9", "lat": 38.917640166666665, "fusion_lon": 0.0, "fusion_lat": 0.0, "type": "electric_bike", "name": "33a35bcb834e3fd49f3e739727663af9", "is_disabled": 0, "rental_uris": {"ios": "https://dc.lft.to/lastmile_qr_scan", "android": "https://dc.lft.to/lastmile_qr_scan"}, "is_reserved": 0}, {"lon": -76.987081, "bike_id": "b1cb6736afc819c8c2d87bf1f12dd889", "lat": 38.86539416666667, "fusion_lon": 0.0, "fusion_lat": 0.0, "type": "electric_scooter", "name": "b1cb6736afc819c8c2d87bf1f12dd889", "is_disabled": 0, "rental_uris": {"ios": "https://dc.lft.to/lastmile_qr_scan", "android": "https://dc.lft.to/lastmile_qr_scan"}, "is_reserved": 0}, {"lon": -77.0734935, "bike_id": "abffe97f6103b058c3d6190ce494ba66", "lat": 38.930531, "fusion_lon": 0.0, "fusion_lat": 0.0, "type": "electric_bike", "name": "abffe97f6103b058c3d6190ce494ba66", "is_disabled": 0, "rental_uris": {"ios": "https://dc.lft.to/lastmile_qr_scan", "android": "https://dc.lft.to/lastmile_qr_scan"}, "is_reserved": 0}, {"lon": -77.04935583333334, "bike_id": "e8d5935d9574b16827b76ea127a8225a", "lat": 38.918290166666665, "fusion_lon": 0.0, "fusion_lat": 0.0, "type": "electric_scooter", "name": "e8d5935d9574b16827b76ea127a8225a", "is_disabled": 0, "rental_uris": {"ios": "https://dc.lft.to/lastmile_qr_scan", "android": "https://dc.lft.to/lastmile_qr_scan"}, "is_reserved": 0}, {"lon": -76.98861283333333, "bike_id": "0408f00261eb28903c988938d45da3b9", "lat": 38.954807833333334, "fusion_lon": 0.0, "fusion_lat": 0.0, "type": "electric_bike", "name": "0408f00261eb28903c988938d45da3b9", "is_disabled": 0, "rental_uris": {"ios": "https://dc.lft.to/lastmile_qr_scan", "android": "https://dc.lft.to/lastmile_qr_scan"}, "is_reserved": 0}, {"lon": -76.9837695, "bike_id": "05a284b3272ed9b4af75c176ea11c06f", "lat": 38.89145116666667, "fusion_lon": 0.0, "fusion_lat": 0.0, "type": "electric_scooter", "name": "05a284b3272ed9b4af75c176ea11c06f", "is_disabled": 0, "rental_uris": {"ios": "https://dc.lft.to/lastmile_qr_scan", "android": "https://dc.lft.to/lastmile_qr_scan"}, "is_reserved": 0}, {"lon": -76.98566883333334, "bike_id": "efdfdefdc313f410f9df55e313ee9125", "lat": 38.8961715, "fusion_lon": 0.0, "fusion_lat": 0.0, "type": "electric_scooter", "name": "efdfdefdc313f410f9df55e313ee9125", "is_disabled": 0, "rental_uris": {"ios": "https://dc.lft.to/lastmile_qr_scan", "android": "https://dc.lft.to/lastmile_qr_scan"}, "is_reserved": 0}, {"lon": -77.03180333333333, "bike_id": "35d2ca41f8a2da0057549e77a52a8c29", "lat": 38.936029833333336, "fusion_lon": 0.0, "fusion_lat": 0.0, "type": "electric_scooter", "name": "35d2ca41f8a2da0057549e77a52a8c29", "is_disabled": 0, "rental_uris": {"ios": "https://dc.lft.to/lastmile_qr_scan", "android": "https://dc.lft.to/lastmile_qr_scan"}, "is_reserved": 0}, {"lon": -77.02579783333333, "bike_id": "3e7986ee4be7116f72dcf70dbc33c569", "lat": 38.90155716666666, "fusion_lon": 0.0, "fusion_lat": 0.0, "type": "electric_scooter", "name": "3e7986ee4be7116f72dcf70dbc33c569", "is_disabled": 0, "rental_uris": {"ios": "https://dc.lft.to/lastmile_qr_scan", "android": "https://dc.lft.to/lastmile_qr_scan"}, "is_reserved": 0}, {"lon": -77.00922883333334, "bike_id": "eaac6c938dd627776045adb740855fc1", "lat": 38.910698, "fusion_lon": 0.0, "fusion_lat": 0.0, "type": "electric_scooter", "name": "eaac6c938dd627776045adb740855fc1", "is_disabled": 0, "rental_uris": {"ios": "https://dc.lft.to/lastmile_qr_scan", "android": "https://dc.lft.to/lastmile_qr_scan"}, "is_reserved": 0}, {"lon": -77.021682, "bike_id": "07cd21c62ff7f36588c14258133364d2", "lat": 38.90190716666667, "fusion_lon": 0.0, "fusion_lat": 0.0, "type": "electric_scooter", "name": "07cd21c62ff7f36588c14258133364d2", "is_disabled": 0, "rental_uris": {"ios": "https://dc.lft.to/lastmile_qr_scan", "android": "https://dc.lft.to/lastmile_qr_scan"}, "is_reserved": 0}, {"lon": -77.04492133333333, "bike_id": "2fb01bfe3baccbe3abb0791085ac45dd", "lat": 38.90728583333333, "fusion_lon": 0.0, "fusion_lat": 0.0, "type": "electric_scooter", "name": "2fb01bfe3baccbe3abb0791085ac45dd", "is_disabled": 0, "rental_uris": {"ios": "https://dc.lft.to/lastmile_qr_scan", "android": "https://dc.lft.to/lastmile_qr_scan"}, "is_reserved": 0}, {"lon": -77.04019533333333, "bike_id": "94157b9811893a81ac61ffe1785e86c1", "lat": 38.9160555, "fusion_lon": 0.0, "fusion_lat": 0.0, "type": "electric_scooter", "name": "94157b9811893a81ac61ffe1785e86c1", "is_disabled": 0, "rental_uris": {"ios": "https://dc.lft.to/lastmile_qr_scan", "android": "https://dc.lft.to/lastmile_qr_scan"}, "is_reserved": 0}, {"lon": -77.03770566666667, "bike_id": "cdd6eeb7be584e09f54a9274fcf7a6e9", "lat": 38.92590083333333, "fusion_lon": 0.0, "fusion_lat": 0.0, "type": "electric_scooter", "name": "cdd6eeb7be584e09f54a9274fcf7a6e9", "is_disabled": 0, "rental_uris": {"ios": "https://dc.lft.to/lastmile_qr_scan", "android": "https://dc.lft.to/lastmile_qr_scan"}, "is_reserved": 0}, {"lon": -77.05163833333333, "bike_id": "7da24cf9d163c32ac4ca8e8fef297a12", "lat": 38.9031745, "fusion_lon": 0.0, "fusion_lat": 0.0, "type": "electric_scooter", "name": "7da24cf9d163c32ac4ca8e8fef297a12", "is_disabled": 0, "rental_uris": {"ios": "https://dc.lft.to/lastmile_qr_scan", "android": "https://dc.lft.to/lastmile_qr_scan"}, "is_reserved": 0}, {"lon": -76.988335, "bike_id": "d644def63bbe0e0e64c6e51b3f6ddcc9", "lat": 38.900786, "fusion_lon": 0.0, "fusion_lat": 0.0, "type": "electric_scooter", "name": "d644def63bbe0e0e64c6e51b3f6ddcc9", "is_disabled": 0, "rental_uris": {"ios": "https://dc.lft.to/lastmile_qr_scan", "android": "https://dc.lft.to/lastmile_qr_scan"}, "is_reserved": 0}, {"lon": -77.024693, "bike_id": "7044f1f58da4333456736ec89714c345", "lat": 38.9169375, "fusion_lon": 0.0, "fusion_lat": 0.0, "type": "electric_scooter", "name": "7044f1f58da4333456736ec89714c345", "is_disabled": 0, "rental_uris": {"ios": "https://dc.lft.to/lastmile_qr_scan", "android": "https://dc.lft.to/lastmile_qr_scan"}, "is_reserved": 0}, {"lon": -77.038668, "bike_id": "390fd5602436493e3d2972b5cd0ead3a", "lat": 38.917069166666664, "fusion_lon": 0.0, "fusion_lat": 0.0, "type": "electric_scooter", "name": "390fd5602436493e3d2972b5cd0ead3a", "is_disabled": 0, "rental_uris": {"ios": "https://dc.lft.to/lastmile_qr_scan", "android": "https://dc.lft.to/lastmile_qr_scan"}, "is_reserved": 0}, {"lon": -77.06094966666667, "bike_id": "b08d6ddf02d47ebdea07e5233588af96", "lat": 38.9437105, "fusion_lon": 0.0, "fusion_lat": 0.0, "type": "electric_scooter", "name": "b08d6ddf02d47ebdea07e5233588af96", "is_disabled": 0, "rental_uris": {"ios": "https://dc.lft.to/lastmile_qr_scan", "android": "https://dc.lft.to/lastmile_qr_scan"}, "is_reserved": 0}, {"lon": -76.9487695, "bike_id": "2b1bd1e8bd8bdea30e7bc3675e3756e3", "lat": 38.89552416666667, "fusion_lon": 0.0, "fusion_lat": 0.0, "type": "electric_scooter", "name": "2b1bd1e8bd8bdea30e7bc3675e3756e3", "is_disabled": 0, "rental_uris": {"ios": "https://dc.lft.to/lastmile_qr_scan", "android": "https://dc.lft.to/lastmile_qr_scan"}, "is_reserved": 0}, {"lon": -77.05076216666667, "bike_id": "8f4e7dc8056234c43779b9c4346943b9", "lat": 38.896709333333334, "fusion_lon": 0.0, "fusion_lat": 0.0, "type": "electric_scooter", "name": "8f4e7dc8056234c43779b9c4346943b9", "is_disabled": 0, "rental_uris": {"ios": "https://dc.lft.to/lastmile_qr_scan", "android": "https://dc.lft.to/lastmile_qr_scan"}, "is_reserved": 0}, {"lon": -77.03344016666667, "bike_id": "a7fa92e9abc7807583b5351e5d7d5f75", "lat": 38.902841333333335, "fusion_lon": 0.0, "fusion_lat": 0.0, "type": "electric_scooter", "name": "a7fa92e9abc7807583b5351e5d7d5f75", "is_disabled": 0, "rental_uris": {"ios": "https://dc.lft.to/lastmile_qr_scan", "android": "https://dc.lft.to/lastmile_qr_scan"}, "is_reserved": 0}, {"lon": -77.04902516666667, "bike_id": "3ec3faad830b362cd5fe37d39549fcf7", "lat": 38.90368516666667, "fusion_lon": 0.0, "fusion_lat": 0.0, "type": "electric_scooter", "name": "3ec3faad830b362cd5fe37d39549fcf7", "is_disabled": 0, "rental_uris": {"ios": "https://dc.lft.to/lastmile_qr_scan", "android": "https://dc.lft.to/lastmile_qr_scan"}, "is_reserved": 0}, {"lon": -77.02077083333333, "bike_id": "5451cc5bfc816342f91eb9efa6aadd62", "lat": 38.92703816666667, "fusion_lon": 0.0, "fusion_lat": 0.0, "type": "electric_scooter", "name": "5451cc5bfc816342f91eb9efa6aadd62", "is_disabled": 0, "rental_uris": {"ios": "https://dc.lft.to/lastmile_qr_scan", "android": "https://dc.lft.to/lastmile_qr_scan"}, "is_reserved": 0}, {"lon": -77.0238235, "bike_id": "507034e47ee2dd2f0ee19a8a83670c67", "lat": 38.92046333333333, "fusion_lon": 0.0, "fusion_lat": 0.0, "type": "electric_scooter", "name": "507034e47ee2dd2f0ee19a8a83670c67", "is_disabled": 0, "rental_uris": {"ios": "https://dc.lft.to/lastmile_qr_scan", "android": "https://dc.lft.to/lastmile_qr_scan"}, "is_reserved": 0}, {"lon": -77.016084, "bike_id": "6cb8afd533a4f7a383c471db45471d64", "lat": 38.91948883333333, "fusion_lon": 0.0, "fusion_lat": 0.0, "type": "electric_scooter", "name": "6cb8afd533a4f7a383c471db45471d64", "is_disabled": 0, "rental_uris": {"ios": "https://dc.lft.to/lastmile_qr_scan", "android": "https://dc.lft.to/lastmile_qr_scan"}, "is_reserved": 0},