{"data": {"bikes": [{"rental_uris": {"ios": "https://dc.lft.to/lastmile_qr_scan", "android": "https://dc.lft.to/lastmile_qr_scan"}, "type": "electric_scooter", "name": "d28d7014a764d4cbfdbb1a2a1dd68211", "is_reserved": 0, "lon": -76.9853935, "is_disabled": 0, "fusion_lat": 0.0, "lat": 38.9129065, "bike_id": "d28d7014a764d4cbfdbb1a2a1dd68211", "fusion_lon": 0.0}, {"rental_uris": {"ios": "https://dc.lft.to/lastmile_qr_scan", "android": "https://dc.lft.to/lastmile_qr_scan"}, "type": "electric_scooter", "name": "4d6b439b4e5123ec70865102826abf0a", "is_reserved": 0, "lon": -77.0344735, "is_disabled": 0, "fusion_lat": 0.0, "lat": 38.91804033333333, "bike_id": "4d6b439b4e5123ec70865102826abf0a", "fusion_lon": 0.0}, {"rental_uris": {"ios": "https://dc.lft.to/lastmile_qr_scan", "android": "https://dc.lft.to/lastmile_qr_scan"}, "type": "electric_scooter", "name": "5c708f63a58748d05423ac783ca3f409", "is_reserved": 0, "lon": -77.02610066666666, "is_disabled": 0, "fusion_lat": 0.0, "lat": 38.9241105, "bike_id": "5c708f63a58748d05423ac783ca3f409", "fusion_lon": 0.0}, {"rental_uris": {"ios": "https://dc.lft.to/lastmile_qr_scan", "android": "https://dc.lft.to/lastmile_qr_scan"}, "type": "electric_scooter", "name": "a2a910be2de146f174dc782a83de134f", "is_reserved": 0, "lon": -77.06289933333333, "is_disabled": 0, "fusion_lat": 0.0, "lat": 38.912427666666666, "bike_id": "a2a910be2de146f174dc782a83de134f", "fusion_lon": 0.0}, {"rental_uris": {"ios": "https://dc.lft.to/lastmile_qr_scan", "android": "https://dc.lft.to/lastmile_qr_scan"}, "type": "electric_scooter", "name": "c4e57359698e91ec2c63670250bf0338", "is_reserved": 0, "lon": -76.95741016666666, "is_disabled": 0, "fusion_lat": 0.0, "lat": 38.8838635, "bike_id": "c4e57359698e91ec2c63670250bf0338", "fusion_lon": 0.0}, {"rental_uris": {"ios": "https://dc.lft.to/lastmile_qr_scan", "android": "https://dc.lft.to/lastmile_qr_scan"}, "type": "electric_scooter", "name": "6d055d9adf2cb0a8c8bf867c790d3419", "is_reserved": 0, "lon": -77.03342366666666, "is_disabled": 0, "fusion_lat": 0.0, "lat": 38.91917083333333, "bike_id": "6d055d9adf2cb0a8c8bf867c790d3419", "fusion_lon": 0.0}, {"rental_uris": {"ios": "https://dc.lft.to/lastmile_qr_scan", "android": "https://dc.lft.to/lastmile_qr_scan"}, "type": "electric_scooter", "name": "29a246c9a8c00ebc6a5cd1b3f5b48ace", "is_reserved": 0, "lon": -77.033691, "is_disabled": 0, "fusion_lat": 0.0, "lat": 38.91110366666667, "bike_id": "29a246c9a8c00ebc6a5cd1b3f5b48ace", "fusion_lon": 0.0}, {"rental_uris": {"ios": "https://dc.lft.to/lastmile_qr_scan", "android": "https://dc.lft.to/lastmile_qr_scan"}, "type": "electric_scooter", "name": "beccebe5be3b298254fea9b8269be234", "is_reserved": 0, "lon": -77.00585266666667, "is_disabled": 0, "fusion_lat": 0.0, "lat": 38.90579416666667, "bike_id": "beccebe5be3b298254fea9b8269be234", "fusion_lon": 0.0}, {"rental_uris": {"ios": "https://dc.lft.to/lastmile_qr_scan", "android": "https://dc.lft.to/lastmile_qr_scan"}, "type": "electric_scooter", "name": "19020962bba516b4ec9efc5ae646b721", "is_reserved": 0, "lon": -77.02814516666666, "is_disabled": 0, "fusion_lat": 0.0, "lat": 38.899229, "bike_id": "19020962bba516b4ec9efc5ae646b721", "fusion_lon": 0.0}, {"rental_uris": {"ios": "https://dc.lft.to/lastmile_qr_scan", "android": "https://dc.lft.to/lastmile_qr_scan"}, "type": "electric_scooter", "name": "e27d6a1c5fdd90bd5e6b80902ff076e2", "is_reserved": 0, "lon": -77.0451895, "is_disabled": 0, "fusion_lat": 0.0, "lat": 38.923177, "bike_id": "e27d6a1c5fdd90bd5e6b80902ff076e2", "fusion_lon": 0.0}, {"rental_uris": {"ios": "https://dc.lft.to/lastmile_qr_scan", "android": "https://dc.lft.to/lastmile_qr_scan"}, "type": "electric_scooter", "name": "7b492921a91e42380b8a90d632728aac", "is_reserved": 0, "lon": -77.02956133333333, "is_disabled": 0, "fusion_lat": 0.0, "lat": 38.90422566666667, "bike_id": "7b492921a91e42380b8a90d632728aac", "fusion_lon": 0.0}, {"rental_uris": {"ios": "https://dc.lft.to/lastmile_qr_scan", "android": "https://dc.lft.to/lastmile_qr_scan"}, "type": "electric_scooter", "name": "7b4568355ad6cb9b4e0d6fed41fbfaa6", "is_reserved": 0, "lon": -77.03185383333333, "is_disabled": 0, "fusion_lat": 0.0, "lat": 38.915601, "bike_id": "7b4568355ad6cb9b4e0d6fed41fbfaa6", "fusion_lon": 0.0}, {"rental_uris": {"ios": "https://dc.lft.to/lastmile_qr_scan", "android": "https://dc.lft.to/lastmile_qr_scan"}, "type": "electric_scooter", "name": "2a07c080db5b190361ea4a0309f827c1", "is_reserved": 0, "lon": -77.0211145, "is_disabled": 0, "fusion_lat": 0.0, "lat": 38.92690066666667, "bike_id": "2a07c080db5b190361ea4a0309f827c1", "fusion_lon": 0.0}, {"rental_uris": {"ios": "https://dc.lft.to/lastmile_qr_scan", "android": "https://dc.lft.to/lastmile_qr_scan"}, "type": "electric_scooter", "name": "e8c9241b5083e021205b723d77f10861", "is_reserved": 0, "lon": -77.00916816666667, "is_disabled": 0, "fusion_lat": 0.0, "lat": 38.9123655, "bike_id": "e8c9241b5083e021205b723d77f10861", "fusion_lon": 0.0}, {"rental_uris": {"ios": "https://dc.lft.to/lastmile_qr_scan", "android": "https://dc.lft.to/lastmile_qr_scan"}, "type": "electric_scooter", "name": "8b91e102d6a70bcfe77aaf59a473d727", "is_reserved": 0, "lon": -77.036602, "is_disabled": 0, "fusion_lat": 0.0, "lat": 38.922912333333336, "bike_id": "8b91e102d6a70bcfe77aaf59a473d727", "fusion_lon": 0.0}, {"rental_uris": {"ios": "https://dc.lft.to/lastmile_qr_scan", "android": "https://dc.lft.to/lastmile_qr_scan"}, "type": "electric_scooter", "name": "bb51811d2bb213a2195289bd74c6fabe", "is_reserved": 0, "lon": -77.03193333333333, "is_disabled": 0, "fusion_lat": 0.0, "lat": 38.907018666666666, "bike_id": "bb51811d2bb213a2195289bd74c6fabe", "fusion_lon": 0.0}, {"rental_uris": {"ios": "https://dc.lft.to/lastmile_qr_scan", "android": "https://dc.lft.to/lastmile_qr_scan"}, "type": "electric_scooter", "name": "f6ae812b87fa5d8b2436d81bd3b62d4c", "is_reserved": 0, "lon": -77.02692533333334, "is_disabled": 0, "fusion_lat": 0.0, "lat": 38.90841866666667, "bike_id": "f6ae812b87fa5d8b2436d81bd3b62d4c", "fusion_lon": 0.0}, {"rental_uris": {"ios": "https://dc.lft.to/lastmile_qr_scan", "android": "https://dc.lft.to/lastmile_qr_scan"}, "type": "electric_scooter", "name": "2801e59fe92fc1ec3b61fb0bf044edbd", "is_reserved": 0, "lon": -77.0123085, "is_disabled": 0, "fusion_lat": 0.0, "lat": 38.915764333333335, "bike_id": "2801e59fe92fc1ec3b61fb0bf044edbd", "fusion_lon": 0.0}, {"rental_uris": {"ios": "https://dc.lft.to/lastmile_qr_scan", "android": "https://dc.lft.to/lastmile_qr_scan"}, "type": "electric_scooter", "name": "073007f7350281e918e23737e1d6c0f7", "is_reserved": 0, "lon": -77.034289, "is_disabled": 0, "fusion_lat": 0.0, "lat": 38.919133, "bike_id": "073007f7350281e918e23737e1d6c0f7", "fusion_lon": 0.0}, {"rental_uris": {"ios": "https://dc.lft.to/lastmile_qr_scan", "android": "https://dc.lft.to/lastmile_qr_scan"}, "type": "electric_scooter", "name": "b0e2bfe39a144317653932997f33a1b9", "is_reserved": 0, "lon": -77.063421, "is_disabled": 0, "fusion_lat": 0.0, "lat": 38.943658, "bike_id": "b0e2bfe39a144317653932997f33a1b9", "fusion_lon": 0.0}, {"rental_uris": {"ios": "https://dc.lft.to/lastmile_qr_scan", "android": "https://dc.lft.to/lastmile_qr_scan"}, "type": "electric_scooter", "name": "ca0ad334eae248d1dd177466da49c33e", "is_reserved": 0, "lon": -77.04731766666667, "is_disabled": 0, "fusion_lat": 0.0, "lat": 38.895573, "bike_id": "ca0ad334eae248d1dd177466da49c33e", "fusion_lon": 0.0}, {"rental_uris": {"ios": "https://dc.lft.to/lastmile_qr_scan", "android": "https://dc.lft.to/lastmile_qr_scan"}, "type": "electric_scooter", "name": "9afcd48511ec301cf4a1a82c0a2e9678", "is_reserved": 0, "lon": -77.03832616666666, "is_disabled": 0, "fusion_lat": 0.0, "lat": 38.911329, "bike_id": "9afcd48511ec301cf4a1a82c0a2e9678", "fusion_lon": 0.0}, {"rental_uris": {"ios": "https://dc.lft.to/lastmile_qr_scan", "android": "https://dc.lft.to/lastmile_qr_scan"}, "type": "electric_scooter", "name": "9e36faf8e1fae514824eee851aba35f7", "is_reserved": 0, "lon": -76.931872, "is_disabled": 0, "fusion_lat": 0.0, "lat": 38.898764666666665, "bike_id": "9e36faf8e1fae514824eee851aba35f7", "fusion_lon": 0.0}, {"rental_uris": {"ios": "https://dc.lft.to/lastmile_qr_scan", "android": "https://dc.lft.to/lastmile_qr_scan"}, "type": "electric_scooter", "name": "9e49b597cd4fb79fef9e7de5e11c7fd8", "is_reserved": 0, "lon": -77.01018483333333, "is_disabled": 0, "fusion_lat": 0.0, "lat": 38.9125425, "bike_id": "9e49b597cd4fb79fef9e7de5e11c7fd8", "fusion_lon": 0.0}, {"rental_uris": {"ios": "https://dc.lft.to/lastmile_qr_scan", "android": "https://dc.lft.to/lastmile_qr_scan"}, "type": "electric_scooter", "name": "12e2921b37a7751819de0ea335b29357", "is_reserved": 0, "lon": -77.02287566666666, "is_disabled": 0, "fusion_lat": 0.0, "lat": 38.91676616666667, "bike_id": "12e2921b37a7751819de0ea335b29357", "fusion_lon": 0.0}, {"rental_uris": {"ios": "https://dc.lft.to/lastmile_qr_scan", "android": "https://dc.lft.to/lastmile_qr_scan"}, "type": "electric_scooter", "name": "b4f091cc8ef9f5772f0ac2bc779aae19", "is_reserved": 0, "lon": -77.01862433333334, "is_disabled": 0, "fusion_lat": 0.0, "lat": 38.905266166666664, "bike_id": "b4f091cc8ef9f5772f0ac2bc779aae19", "fusion_lon": 0.0}, {"rental_uris": {"ios": "https://dc.lft.to/lastmile_qr_scan", "android": "https://dc.lft.to/lastmile_qr_scan"}, "type": "electric_scooter", "name": "a2cb0d20a05c442aafc3f3cbe04c2042", "is_reserved": 0, "lon": -77.03499816666667, "is_disabled": 0, "fusion_lat": 0.0, "lat": 38.915581333333336, "bike_id": "a2cb0d20a05c442aafc3f3cbe04c2042", "fusion_lon": 0.0}, {"rental_uris": {"ios": "https://dc.lft.to/lastmile_qr_scan", "android": "https://dc.lft.to/lastmile_qr_scan"}, "type": "electric_scooter", "name": "0b5c02eee272f7bb85637e2b76bd20bf", "is_reserved": 0, "lon": -77.03773083333333, "is_disabled": 0, "fusion_lat": 0.0, "lat": 38.923343833333334, "bike_id": "0b5c02eee272f7bb85637e2b76bd20bf", "fusion_lon": 0.0}, {"rental_uris": {"ios": "https://dc.lft.to/lastmile_qr_scan", "android": "https://dc.lft.to/lastmile_qr_scan"}, "type": "electric_scooter", "name": "1ed2ec6ce2a4464c1153819c4704d2f5", "is_reserved": 0, "lon": -76.985331, "is_disabled": 0, "fusion_lat": 0.0, "lat": 38.88078616666667, "bike_id": "1ed2ec6ce2a4464c1153819c4704d2f5", "fusion_lon": 0.0}, {"rental_uris": {"ios": "https://dc.lft.to/lastmile_qr_scan", "android": "https://dc.lft.to/lastmile_qr_scan"}, "type": "electric_scooter", "name": "18556d3e8c376734f4d472883b6b9911", "is_reserved": 0, "lon": -77.031894, "is_disabled": 0, "fusion_lat": 0.0, "lat": 38.916322666666666, "bike_id": "18556d3e8c376734f4d472883b6b9911", "fusion_lon": 0.0}, {"rental_uris": {"ios": "https://dc.lft.to/lastmile_qr_scan", "android": "https://dc.lft.to/lastmile_qr_scan"}, "type": "electric_scooter", "name": "3328553b2ec51aedad72070e4db77d9a", "is_reserved": 0, "lon": -77.0122875, "is_disabled": 0, "fusion_lat": 0.0, "lat": 38.91571716666667, "bike_id": "3328553b2ec51aedad72070e4db77d9a", "fusion_lon": 0.0}, {"rental_uris": {"ios": "https://dc.lft.to/lastmile_qr_scan", "android": "https://dc.lft.to/lastmile_qr_scan"}, "type": "electric_scooter", "name": "a5cf17fe0a79ec3ddc8423b0fe283aa0", "is_reserved": 0, "lon": -76.98701833333334, "is_disabled": 0, "fusion_lat": 0.0, "lat": 38.85962, "bike_id": "a5cf17fe0a79ec3ddc8423b0fe283aa0", "fusion_lon": 0.0}, {"rental_uris": {"ios": "https://dc.lft.to/lastmile_qr_scan", "android": "https://dc.lft.to/lastmile_qr_scan"}, "type": "electric_scooter", "name": "19cc84f57cf41576d2764d36cf29d018", "is_reserved": 0, "lon": -76.99514933333333, "is_disabled": 0, "fusion_lat": 0.0, "lat": 38.88989133333333, "bike_id": "19cc84f57cf41576d2764d36cf29d018", "fusion_lon": 0.0}, {"rental_uris": {"ios": "https://dc.lft.to/lastmile_qr_scan", "android": "https://dc.lft.to/lastmile_qr_scan"}, "type": "electric_scooter", "name": "e6ead30af162fcbaa74d8002df5d792d", "is_reserved": 0, "lon": -77.01215666666667, "is_disabled": 0, "fusion_lat": 0.0, "lat": 38.90162566666667, "bike_id": "e6ead30af162fcbaa74d8002df5d792d", "fusion_lon": 0.0}, {"rental_uris": {"ios": "https://dc.lft.to/lastmile_qr_scan", "android": "https://dc.lft.to/lastmile_qr_scan"}, "type": "electric_scooter", "name": "db90d81f862b29ef240c4af67efcac49", "is_reserved": 0, "lon": -77.0006425, "is_disabled": 0, "fusion_lat": 0.0, "lat": 38.8736125, "bike_id": "db90d81f862b29ef240c4af67efcac49", "fusion_lon": 0.0}, {"rental_uris": {"ios": "https://dc.lft.to/lastmile_qr_scan", "android": "https://dc.lft.to/lastmile_qr_scan"}, "type": "electric_scooter", "name": "1507d54401306b4c3b0bb0a54630bc02", "is_reserved": 0, "lon": -77.04344183333333, "is_disabled": 0, "fusion_lat": 0.0, "lat": 38.908347, "bike_id": "1507d54401306b4c3b0bb0a54630bc02", "fusion_lon": 0.0}, {"rental_uris": {"ios": "https://dc.lft.to/lastmile_qr_scan", "android": "https://dc.lft.to/lastmile_qr_scan"}, "type": "electric_scooter", "name": "c9ca7c37962e80cb5d2ac73cf3452bc3", "is_reserved": 0, "lon": -77.0122935, "is_disabled": 0, "fusion_lat": 0.0, "lat": 38.869731, "bike_id": "c9ca7c37962e80cb5d2ac73cf3452bc3", "fusion_lon": 0.0}, {"rental_uris": {"ios": "https://dc.lft.to/lastmile_qr_scan", "android": "https://dc.lft.to/lastmile_qr_scan"}, "type": "electric_scooter", "name": "fbc83f6e4b2baeb5a23acfe4a47384e8", "is_reserved": 0, "lon": -77.04464916666667, "is_disabled": 0, "fusion_lat": 0.0, "lat": 38.90357383333333, "bike_id": "fbc83f6e4b2baeb5a23acfe4a47384e8", "fusion_lon": 0.0}, {"rental_uris": {"ios": "https://dc.lft.to/lastmile_qr_scan", "android": "https://dc.lft.to/lastmile_qr_scan"}, "type": "electric_scooter", "name": "3b1932141c6ccc6a4e6f8b197a46c3ff", "is_reserved": 0, "lon": -77.02719116666667, "is_disabled": 0, "fusion_lat": 0.0, "lat": 38.91015616666667, "bike_id": "3b1932141c6ccc6a4e6f8b197a46c3ff", "fusion_lon": 0.0}, {"rental_uris": {"ios": "https://dc.lft.to/lastmile_qr_scan", "android": "https://dc.lft.to/lastmile_qr_scan"}, "type": "electric_scooter", "name": "8e5562821675e37ee4d19a755f57c128", "is_reserved": 0, "lon": -76.97361433333333, "is_disabled": 0, "fusion_lat": 0.0, "lat": 38.85020866666667, "bike_id": "8e5562821675e37ee4d19a755f57c128", "fusion_lon": 0.0}, {"rental_uris": {"ios": "https://dc.lft.to/lastmile_qr_scan", "android": "https://dc.lft.to/lastmile_qr_scan"}, "type": "electric_scooter", "name": "bba53c7593d66585239bbbdba6fb841e", "is_reserved": 0, "lon": -77.08193133333333, "is_disabled": 0, "fusion_lat": 0.0, "lat": 38.93333783333333, "bike_id": "bba53c7593d66585239bbbdba6fb841e", "fusion_lon": 0.0}, {"rental_uris": {"ios": "https://dc.lft.to/lastmile_qr_scan", "android": "https://dc.lft.to/lastmile_qr_scan"}, "type": "electric_scooter", "name": "eeb6f34205c16260336756989bf3c2f7", "is_reserved": 0, "lon": -77.03535166666667, "is_disabled": 0, "fusion_lat": 0.0, "lat": 38.923358, "bike_id": "eeb6f34205c16260336756989bf3c2f7", "fusion_lon": 0.0}, {"rental_uris": {"ios": "https://dc.lft.to/lastmile_qr_scan", "android": "https://dc.lft.to/lastmile_qr_scan"}, "type": "electric_scooter", "name": "3522c04ac5636dcc70c01354e834466d", "is_reserved": 0, "lon": -77.00628283333333, "is_disabled": 0, "fusion_lat": 0.0, "lat": 38.87174183333333, "bike_id": "3522c04ac5636dcc70c01354e834466d", "fusion_lon": 0.0}, {"rental_uris": {"ios": "https://dc.lft.to/lastmile_qr_scan", "android": "https://dc.lft.to/lastmile_qr_scan"}, "type": "electric_scooter", "name": "45592d333bcb962a06b03ba240583dbc", "is_reserved": 0, "lon": -77.03204916666667, "is_disabled": 0, "fusion_lat": 0.0, "lat": 38.9218115, "bike_id": "45592d333bcb962a06b03ba240583dbc", "fusion_lon": 0.0}, {"rental_uris": {"ios": "https://dc.lft.to/lastmile_qr_scan", "android": "https://dc.lft.to/lastmile_qr_scan"}, "type": "electric_scooter", "name": "31de5464dedac2fb2275c05b6746457a", "is_reserved": 0, "lon": -77.0456885, "is_disabled": 0, "fusion_lat": 0.0, "lat": 38.920689333333335, "bike_id": "31de5464dedac2fb2275c05b6746457a", "fusion_lon": 0.0}, {"rental_uris": {"ios": "https://dc.lft.to/lastmile_qr_scan", "android": "https://dc.lft.to/lastmile_qr_scan"}, "type": "electric_scooter", "name": "8e03d57dd3b0a7b90b055945709338d3", "is_reserved": 0, "lon": -77.03665066666667, "is_disabled": 0, "fusion_lat": 0.0, "lat": 38.921214666666664, "bike_id": "8e03d57dd3b0a7b90b055945709338d3", "fusion_lon": 0.0}, {"rental_uris": {"ios": "https://dc.lft.to/lastmile_qr_scan", "android": "https://dc.lft.to/lastmile_qr_scan"}, "type": "electric_scooter", "name": "b2f7d6154f621cfa4614fb6b245ad266", "is_reserved": 0, "lon": -77.04178, "is_disabled": 0, "fusion_lat": 0.0, "lat": 38.916091, "bike_id": "b2f7d6154f621cfa4614fb6b245ad266", "fusion_lon": 0.0}, {"rental_uris": {"ios": "https://dc.lft.to/lastmile_qr_scan", "android": "https://dc.lft.to/lastmile_qr_scan"}, "type": "electric_scooter", "name": "9a3bcc3319af3bd9206ad7a8295a2b69", "is_reserved": 0, "lon": -77.0422125, "is_disabled": 0, "fusion_lat": 0.0, "lat": 38.92129033333333, "bike_id": "9a3bcc3319af3bd9206ad7a8295a2b69", "fusion_lon": 0.0}, {"rental_uris": {"ios": "https://dc.lft.to/lastmile_qr_scan", "android": "https://dc.lft.to/lastmile_qr_scan"}, "type": "electric_scooter", "name": "cd23b918fe603ab9c393dc75569ec630", "is_reserved": 0, "lon": -77.0334715, "is_disabled": 0, "fusion_lat": 0.0, "lat": 38.93048816666666, "bike_id": "cd23b918fe603ab9c393dc75569ec630", "fusion_lon": 0.0}, {"rental_uris": {"ios": "https://dc.lft.to/lastmile_qr_scan", "android": "https://dc.lft.to/lastmile_qr_scan"}, "type": "electric_scooter", "name": "f81a6458be1761897c00e7ef55bb9ebf", "is_reserved": 0, "lon": -77.005721, "is_disabled": 0, "fusion_lat": 0.0, "lat": 38.878499833333336, "bike_id": "f81a6458be1761897c00e7ef55bb9ebf", "fusion_lon": 0.0}, {"rental_uris": {"ios": "https://dc.lft.to/lastmile_qr_scan", "android": "https://dc.lft.to/lastmile_qr_scan"}, "type": "electric_scooter", "name": "46e43bb4ab6ec9bcad7c35f4fe6913a5", "is_reserved": 0, "lon": -77.03803733333334, "is_disabled": 0, "fusion_lat": 0.0, "lat": 38.9141675, "bike_id": "46e43bb4ab6ec9bcad7c35f4fe6913a5", "fusion_lon": 0.0}, {"rental_uris": {"ios": "https://dc.lft.to/lastmile_qr_scan", "android": "https://dc.lft.to/lastmile_qr_scan"}, "type": "electric_scooter", "name": "e7c8b581494e60528dcd88d61c53233b", "is_reserved": 0, "lon": -77.029754, "is_disabled": 0, "fusion_lat": 0.0, "lat": 38.9050515, "bike_id": "e7c8b581494e60528dcd88d61c53233b", "fusion_lon": 0.0}, {"rental_uris": {"ios": "https://dc.lft.to/lastmile_qr_scan", "android": "https://dc.lft.to/lastmile_qr_scan"}, "type": "electric_bike", "name": "d7cbae1319a1c52f37204651cda86e93", "is_reserved": 0, "lon": -76.9825075, "is_disabled": 0, "fusion_lat": 0.0, "lat": 38.952416, "bike_id": "d7cbae1319a1c52f37204651cda86e93", "fusion_lon": 0.0}, {"rental_uris": {"ios": "https://dc.lft.to/lastmile_qr_scan", "android": "https://dc.lft.to/lastmile_qr_scan"}, "type": "electric_bike", "name": "77d0534c94f4f7e3c65575c81e62a802", "is_reserved": 0, "lon": -76.98014833333333, "is_disabled": 0, "fusion_lat": 0.0, "lat": 38.853083833333336, "bike_id": "77d0534c94f4f7e3c65575c81e62a802", "fusion_lon": 0.0}, {"rental_uris": {"ios": "https://dc.lft.to/lastmile_qr_scan", "android": "https://dc.lft.to/lastmile_qr_scan"}, "type": "electric_scooter", "name": "494c951f847dff13e73673d5295a1a3b", "is_reserved": 0, "lon": -77.0408345, "is_disabled": 0, "fusion_lat": 0.0, "lat": 38.94790666666667, "bike_id": "494c951f847dff13e73673d5295a1a3b", "fusion_lon": 0.0}, {"rental_uris": {"ios": "https://dc.lft.to/lastmile_qr_scan", "android": "https://dc.lft.to/lastmile_qr_scan"}, "type": "electric_scooter", "name": "7313c9385eacaa4db9eabe4cc8f6b9fa", "is_reserved": 0, "lon": -76.98150733333334, "is_disabled": 0, "fusion_lat": 0.0, "lat": 38.89933766666667, "bike_id": "7313c9385eacaa4db9eabe4cc8f6b9fa", "fusion_lon": 0.0}, {"rental_uris": {"ios": "https://dc.lft.to/lastmile_qr_scan", "android": "https://dc.lft.to/lastmile_qr_scan"}, "type": "electric_scooter", "name": "0e6def7351be51ef1a14ff75fc5e38b2", "is_reserved": 0, "lon": -77.03197733333333, "is_disabled": 0, "fusion_lat": 0.0, "lat": 38.91560466666667, "bike_id": "0e6def7351be51ef1a14ff75fc5e38b2", "fusion_lon": 0.0}, {"rental_uris": {"ios": "https://dc.lft.to/lastmile_qr_scan", "android": "https://dc.lft.to/lastmile_qr_scan"}, "type": "electric_scooter", "name": "99e3af9983e7c1cfb157b83730951644", "is_reserved": 0, "lon": -77.0195865, "is_disabled": 0, "fusion_lat": 0.0, "lat": 38.92324333333333, "bike_id": "99e3af9983e7c1cfb157b83730951644", "fusion_lon": 0.0}, {"rental_uris": {"ios": "https://dc.lft.to/lastmile_qr_scan", "android": "https://dc.lft.to/lastmile_qr_scan"}, "type": "electric_scooter", "name": "4bee9c16cd9f556e117a3e78f9ee8367", "is_reserved": 0, "lon": -77.01181183333334, "is_disabled": 0, "fusion_lat": 0.0, "lat": 38.95151033333333, "bike_id": "4bee9c16cd9f556e117a3e78f9ee8367", "fusion_lon": 0.0}, {"rental_uris": {"ios": "https://dc.lft.to/lastmile_qr_scan", "android": "https://dc.lft.to/lastmile_qr_scan"}, "type": "electric_scooter", "name": "29e185b5c1fedf82bc9f58bc84f081b7", "is_reserved": 0, "lon": -77.026439, "is_disabled": 0, "fusion_lat": 0.0, "lat": 38.89616016666667, "bike_id": "29e185b5c1fedf82bc9f58bc84f081b7", "fusion_lon": 0.0}, {"rental_uris": {"ios": "https://dc.lft.to/lastmile_qr_scan", "android": "https://dc.lft.to/lastmile_qr_scan"}, "type": "electric_scooter", "name": "e083e463ba4878dfa59f7330e6ebd344", "is_reserved": 0, "lon": -77.00155083333334, "is_disabled": 0, "fusion_lat": 0.0, "lat": 38.821338833333336, "bike_id": "e083e463ba4878dfa59f7330e6ebd344", "fusion_lon": 0.0}, {"rental_uris": {"ios": "https://dc.lft.to/lastmile_qr_scan", "android": "https://dc.lft.to/lastmile_qr_scan"}, "type": "electric_scooter", "name": "a16dede075728f1ae77e9d7702deb1ba", "is_reserved": 0, "lon": -77.0756345, "is_disabled": 0, "fusion_lat": 0.0, "lat": 38.90639183333333, "bike_id": "a16dede075728f1ae77e9d7702deb1ba", "fusion_lon": 0.0}, {"rental_uris": {"ios": "https://dc.lft.to/lastmile_qr_scan", "android": "https://dc.lft.to/lastmile_qr_scan"}, "type": "electric_scooter", "name": "3970a47ad86048327223617d2375391c", "is_reserved": 0, "lon": -76.99948266666667, "is_disabled": 0, "fusion_lat": 0.0, "lat": 38.890849833333334, "bike_id": "3970a47ad86048327223617d2375391c", "fusion_lon": 0.0}, {"rental_uris": {"ios": "https://dc.lft.to/lastmile_qr_scan", "android": "https://dc.lft.to/lastmile_qr_scan"}, "type": "electric_scooter", "name": "706161ee69494fcd6776258d5862967e", "is_reserved": 0, "lon": -77.013432, "is_disabled": 0, "fusion_lat": 0.0, "lat": 38.919125333333334, "bike_id": "706161ee69494fcd6776258d5862967e", "fusion_lon": 0.0}, {"rental_uris": {"ios": "https://dc.lft.to/lastmile_qr_scan", "android": "https://dc.lft.to/lastmile_qr_scan"}, "type": "electric_scooter", "name": "d70cb579e7d3f6e669f3017c4b2570cb", "is_reserved": 0, "lon": -77.0348095, "is_disabled": 0, "fusion_lat": 0.0, "lat": 38.905668166666665, "bike_id": "d70cb579e7d3f6e669f3017c4b2570cb", "fusion_lon": 0.0}, {"rental_uris": {"ios": "https://dc.lft.to/lastmile_qr_scan", "android": "https://dc.lft.to/lastmile_qr_scan"}, "type": "electric_scooter", "name": "304ada7fdf797d127d8b42a7f9b14b6e", "is_reserved": 0, "lon": -77.07266266666667, "is_disabled": 0, "fusion_lat": 0.0, "lat": 38.934389333333336, "bike_id": "304ada7fdf797d127d8b42a7f9b14b6e", "fusion_lon": 0.0}, {"rental_uris": {"ios": "https://dc.lft.to/lastmile_qr_scan", "android": "https://dc.lft.to/lastmile_qr_scan"}, "type": "electric_bike", "name": "63e4647f89052764c59abd70325e1e05", "is_reserved": 0, "lon": -76.97543016666667, "is_disabled": 0, "fusion_lat": 0.0, "lat": 38.904244166666665, "bike_id": "63e4647f89052764c59abd70325e1e05", "fusion_lon": 0.0}, {"rental_uris": {"ios": "https://dc.lft.to/lastmile_qr_scan", "android": "https://dc.lft.to/lastmile_qr_scan"}, "type": "electric_scooter", "name": "5ad8927d763fbbf4982ff81b269d8483", "is_reserved": 0, "lon": -77.03283383333333, "is_disabled": 0, "fusion_lat": 0.0, "lat": 38.928985833333336, "bike_id": "5ad8927d763fbbf4982ff81b269d8483", "fusion_lon": 0.0}, {"rental_uris": {"ios": "https://dc.lft.to/lastmile_qr_scan", "android": "https://dc.lft.to/lastmile_qr_scan"}, "type": "electric_scooter", "name": "f72499cc8d56ac010b802b547cc11bd0", "is_reserved": 0, "lon": -77.05144833333334, "is_disabled": 0, "fusion_lat": 0.0, "lat": 38.9236025, "bike_id": "f72499cc8d56ac010b802b547cc11bd0", "fusion_lon": 0.0}, {"rental_uris": {"ios": "https://dc.lft.to/lastmile_qr_scan", "android": "https://dc.lft.to/lastmile_qr_scan"}, "type": "electric_bike", "name": "e618902d4ab586f7da1d1afd3c110e79", "is_reserved": 0, "lon": -77.01850516666667, "is_disabled": 0, "fusion_lat": 0.0, "lat": 38.931080333333334, "bike_id": "e618902d4ab586f7da1d1afd3c110e79", "fusion_lon": 0.0}, {"rental_uris": {"ios": "https://dc.lft.to/lastmile_qr_scan", "android": "https://dc.lft.to/lastmile_qr_scan"}, "type": "electric_scooter", "name": "1aea7e1d0644c047e31052c5f8fd31dc", "is_reserved": 0, "lon": -77.01950066666667, "is_disabled": 0, "fusion_lat": 0.0, "lat": 38.950470833333334, "bike_id": "1aea7e1d0644c047e31052c5f8fd31dc", "fusion_lon": 0.0}, {"rental_uris": {"ios": "https://dc.lft.to/lastmile_qr_scan", "android": "https://dc.lft.to/lastmile_qr_scan"}, "type": "electric_bike", "name": "592635803d89553edadd9f9d788c8a27", "is_reserved": 0, "lon": -76.95159566666666, "is_disabled": 0, "fusion_lat": 0.0, "lat": 39.08436316666667, "bike_id": "592635803d89553edadd9f9d788c8a27", "fusion_lon": 0.0}, {"rental_uris": {"ios": "https://dc.lft.to/lastmile_qr_scan", "android": "https://dc.lft.to/lastmile_qr_scan"}, "type": "electric_scooter", "name": "d7cc4ece83fef020826633e3dc67296d", "is_reserved": 0, "lon": -77.0202655, "is_disabled": 0, "fusion_lat": 0.0, "lat": 38.89439383333333, "bike_id": "d7cc4ece83fef020826633e3dc67296d", "fusion_lon": 0.0}, {"rental_uris": {"ios": "https://dc.lft.to/lastmile_qr_scan", "android": "https://dc.lft.to/lastmile_qr_scan"}, "type": "electric_scooter", "name": "4c3b2e71d9cf94ee44daf05076383405", "is_reserved": 0, "lon": -77.01755633333333, "is_disabled": 0, "fusion_lat": 0.0, "lat": 38.87687916666667, "bike_id": "4c3b2e71d9cf94ee44daf05076383405", "fusion_lon": 0.0}, {"rental_uris": {"ios": "https://dc.lft.to/lastmile_qr_scan", "android": "https://dc.lft.to/lastmile_qr_scan"}, "type": "electric_scooter", "name": "fc2be783337853a708f9e506d9552001", "is_reserved": 0, "lon": -77.0400575, "is_disabled": 0, "fusion_lat": 0.0, "lat": 38.9181995, "bike_id": "fc2be783337853a708f9e506d9552001", "fusion_lon": 0.0}, {"rental_uris": {"ios": "https://dc.lft.to/lastmile_qr_scan", "android": "https://dc.lft.to/lastmile_qr_scan"}, "type": "electric_scooter", "name": "bf8fd638707eec55e1884d0438836535", "is_reserved": 0, "lon": -77.02614566666666, "is_disabled": 0, "fusion_lat": 0.0, "lat": 38.916945, "bike_id": "bf8fd638707eec55e1884d0438836535", "fusion_lon": 0.0}, {"rental_uris": {"ios": "https://dc.lft.to/lastmile_qr_scan", "android": "https://dc.lft.to/lastmile_qr_scan"}, "type": "electric_scooter", "name": "8ff57ec89e934b2646f3e4a2c43fc1f9", "is_reserved": 0, "lon": -77.08401983333333, "is_disabled": 0, "fusion_lat": 0.0, "lat": 38.908040166666666, "bike_id": "8ff57ec89e934b2646f3e4a2c43fc1f9", "fusion_lon": 0.0}, {"rental_uris": {"ios": "https://dc.lft.to/lastmile_qr_scan", "android": "https://dc.lft.to/lastmile_qr_scan"}, "type": "electric_bike", "name": "5339730df445ff8dee0de0a2a4cf59b5", "is_reserved": 0, "lon": -76.94546383333333, "is_disabled": 0, "fusion_lat": 0.0, "lat": 38.983016666666664, "bike_id": "5339730df445ff8dee0de0a2a4cf59b5", "fusion_lon": 0.0}, {"rental_uris": {"ios": "https://dc.lft.to/lastmile_qr_scan", "android": "https://dc.lft.to/lastmile_qr_scan"}, "type": "electric_scooter", "name": "9adc254115380b52d0f1a4714d2e1c53", "is_reserved": 0, "lon": -77.03368083333334, "is_disabled": 0, "fusion_lat": 0.0, "lat": 38.89968483333333, "bike_id": "9adc254115380b52d0f1a4714d2e1c53", "fusion_lon": 0.0}, {"rental_uris": {"ios": "https://dc.lft.to/lastmile_qr_scan", "android": "https://dc.lft.to/lastmile_qr_scan"}, "type": "electric_bike", "name": "f0b0c90dafcbd08fd048c5089e291894", "is_reserved": 0, "lon": -77.00764116666667, "is_disabled": 0, "fusion_lat": 0.0, "lat": 38.99780633333334, "bike_id": "f0b0c90dafcbd08fd048c5089e291894", "fusion_lon": 0.0}, {"rental_uris": {"ios": "https://dc.lft.to/lastmile_qr_scan", "android": "https://dc.lft.to/lastmile_qr_scan"}, "type": "electric_scooter", "name": "77ae21151aecb59a1bf99bcbe9e2f4aa", "is_reserved": 0, "lon": -77.03895516666667, "is_disabled": 0, "fusion_lat": 0.0, "lat": 38.922402166666664, "bike_id": "77ae21151aecb59a1bf99bcbe9e2f4aa", "fusion_lon": 0.0}, {"rental_uris": {"ios": "https://dc.lft.to/lastmile_qr_scan", "android": "https://dc.lft.to/lastmile_qr_scan"}, "type": "electric_scooter", "name": "6f33cf0a8234e595a4680fb07a503f5f", "is_reserved": 0, "lon": -77.00338, "is_disabled": 0, "fusion_lat": 0.0, "lat": 38.877343833333335, "bike_id": "6f33cf0a8234e595a4680fb07a503f5f", "fusion_lon": 0.0}, {"rental_uris": {"ios": "https://dc.lft.to/lastmile_qr_scan", "android": "https://dc.lft.to/lastmile_qr_scan"}, "type": "electric_scooter", "name": "7e4171552407bbebbd952c4813db3352", "is_reserved": 0, "lon": -77.0395505, "is_disabled": 0, "fusion_lat": 0.0, "lat": 38.89825, "bike_id": "7e4171552407bbebbd952c4813db3352", "fusion_lon": 0.0}, {"rental_uris": {"ios": "https://dc.lft.to/lastmile_qr_scan", "android": "https://dc.lft.to/lastmile_qr_scan"}, "type": "electric_bike", "name": "cfe3ce5b19404c05332681ef3e9182db", "is_reserved": 0, "lon": -76.95244133333334, "is_disabled": 0, "fusion_lat": 0.0, "lat": 38.8846785, "bike_id": "cfe3ce5b19404c05332681ef3e9182db", "fusion_lon": 0.0}, {"rental_uris": {"ios": "https://dc.lft.to/lastmile_qr_scan", "android": "https://dc.lft.to/lastmile_qr_scan"}, "type": "electric_bike", "name": "3bbc54ca291d89138f6c803fc057c5fd", "is_reserved": 0, "lon": -77.05165116666667, "is_disabled": 0, "fusion_lat": 0.0, "lat": 38.83854133333333, "bike_id": "3bbc54ca291d89138f6c803fc057c5fd", "fusion_lon": 0.0}, {"rental_uris": {"ios": "https://dc.lft.to/lastmile_qr_scan", "android": "https://dc.lft.to/lastmile_qr_scan"}, "type": "electric_scooter", "name": "c001569d50d6920abf2f8775b6a52d9e", "is_reserved": 0, "lon": -77.0447595, "is_disabled": 0, "fusion_lat": 0.0, "lat": 38.9143765, "bike_id": "c001569d50d6920abf2f8775b6a52d9e", "fusion_lon": 0.0}, {"rental_uris": {"ios": "https://dc.lft.to/lastmile_qr_scan", "android": "https://dc.lft.to/lastmile_qr_scan"}, "type": "electric_bike", "name": "2cd2f9ca3df0af3b968eb12ae9d76a6e", "is_reserved": 0, "lon": -77.01690683333334, "is_disabled": 0, "fusion_lat": 0.0, "lat": 38.9752025, "bike_id": "2cd2f9ca3df0af3b968eb12ae9d76a6e", "fusion_lon": 0.0}, {"rental_uris": {"ios": "https://dc.lft.to/lastmile_qr_scan", "android": "https://dc.lft.to/lastmile_qr_scan"}, "type": "electric_scooter", "name": "b4e63cf6b86ddf7c411d46b44ec3e04d", "is_reserved": 0, "lon": -77.03435083333333, "is_disabled": 0, "fusion_lat": 0.0, "lat": 38.918035333333336, "bike_id": "b4e63cf6b86ddf7c411d46b44ec3e04d", "fusion_lon": 0.0}, {"rental_uris": {"ios": "https://dc.lft.to/lastmile_qr_scan", "android": "https://dc.lft.to/lastmile_qr_scan"}, "type": "electric_scooter", "name": "ad99336a1cf6f1fc8ca7a24c11aadb28", "is_reserved": 0, "lon": -77.04674333333334, "is_disabled": 0, "fusion_lat": 0.0, "lat": 38.90025816666667, "bike_id": "ad99336a1cf6f1fc8ca7a24c11aadb28", "fusion_lon": 0.0}, {"rental_uris": {"ios": "https://dc.lft.to/lastmile_qr_scan", "android": "https://dc.lft.to/lastmile_qr_scan"}, "type": "electric_scooter", "name": "a262686e4a3d727d9a3c7b18678485f3", "is_reserved": 0, "lon": -77.03133066666666, "is_disabled": 0, "fusion_lat": 0.0, "lat": 38.9237285, "bike_id": "a262686e4a3d727d9a3c7b18678485f3", "fusion_lon": 0.0}, {"rental_uris": {"ios": "https://dc.lft.to/lastmile_qr_scan", "android": "https://dc.lft.to/lastmile_qr_scan"}, "type": "electric_bike", "name": "b544113014cba2283448a7bb036bfc84", "is_reserved": 0, "lon": -77.05273666666666, "is_disabled": 0, "fusion_lat": 0.0, "lat": 38.940891, "bike_id": "b544113014cba2283448a7bb036bfc84", "fusion_lon": 0.0}, {"rental_uris": {"ios": "https://dc.lft.to/lastmile_qr_scan", "android": "https://dc.lft.to/lastmile_qr_scan"}, "type": "electric_scooter", "name": "c08d2c15a46ab74a6d7a5d1230902535", "is_reserved": 0, "lon": -77.03135583333334, "is_disabled": 0, "fusion_lat": 0.0, "lat": 38.923749666666666, "bike_id": "c08d2c15a46ab74a6d7a5d1230902535", "fusion_lon": 0.0}, {"rental_uris": {"ios": "https://dc.lft.to/lastmile_qr_scan", "android": "https://dc.lft.to/lastmile_qr_scan"}, "type": "electric_scooter", "name": "9d4c766ed09c762677713ab134b70761", "is_reserved": 0, "lon": -77.02836316666667, "is_disabled": 0, "fusion_lat": 0.0, "lat": 38.887312, "bike_id": "9d4c766ed09c762677713ab134b70761", "fusion_lon": 0.0}, {"rental_uris": {"ios": "https://dc.lft.to/lastmile_qr_scan", "android": "https://dc.lft.to/lastmile_qr_scan"}, "type": "electric_scooter", "name": "ee96c53b059d30118bf5b6a69d3f5d36", "is_reserved": 0, "lon": -77.014712, "is_disabled": 0, "fusion_lat": 0.0, "lat": 38.87933533333333, "bike_id": "ee96c53b059d30118bf5b6a69d3f5d36", "fusion_lon": 0.0}, {"rental_uris": {"ios": "https://dc.lft.to/lastmile_qr_scan", "android": "https://dc.lft.to/lastmile_qr_scan"}, "type": "electric_scooter", "name": "56cdfa437b5f45733fda8c98cc00fbcc", "is_reserved": 0, "lon": -77.03923333333333, "is_disabled": 0, "fusion_lat": 0.0, "lat": 38.92482733333333, "bike_id": "56cdfa437b5f45733fda8c98cc00fbcc", "fusion_lon": 0.0}, {"rental_uris": {"ios": "https://dc.lft.to/lastmile_qr_scan", "android": "https://dc.lft.to/lastmile_qr_scan"}, "type": "electric_scooter", "name": "d16edcc5ba49d107d302c2fcb1c569b5", "is_reserved": 0, "lon": -77.04347783333333, "is_disabled": 0, "fusion_lat": 0.0, "lat": 38.907326833333336, "bike_id": "d16edcc5ba49d107d302c2fcb1c569b5", "fusion_lon": 0.0}, {"rental_uris": {"ios": "https://dc.lft.to/lastmile_qr_scan", "android": "https://dc.lft.to/lastmile_qr_scan"}, "type": "electric_scooter", "name": "8dcee856f9f92ce3ffbd502dccd11e6a", "is_reserved": 0, "lon": -77.040465, "is_disabled": 0, "fusion_lat": 0.0, "lat": 38.90610083333333, "bike_id": "8dcee856f9f92ce3ffbd502dccd11e6a", "fusion_lon": 0.0}, {"rental_uris": {"ios": "https://dc.lft.to/lastmile_qr_scan", "android": "https://dc.lft.to/lastmile_qr_scan"}, "type": "electric_bike", "name": "1283c58134ae3c35002118ff73df6bc0", "is_reserved": 0, "lon": -77.07751416666666, "is_disabled": 0, "fusion_lat": 0.0, "lat": 38.84191283333333, "bike_id": "1283c58134ae3c35002118ff73df6bc0", "fusion_lon": 0.0}, {"rental_uris": {"ios": "https://dc.lft.to/lastmile_qr_scan", "android": "https://dc.lft.to/lastmile_qr_scan"}, "type": "electric_scooter", "name": "071d1448771aa633c364f8bea8b19106", "is_reserved": 0, "lon": -77.03455266666667, "is_disabled": 0, "fusion_lat": 0.0, "lat": 38.908003, "bike_id": "071d1448771aa633c364f8bea8b19106", "fusion_lon": 0.0}, {"rental_uris": {"ios": "https://dc.lft.to/lastmile_qr_scan", "android": "https://dc.lft.to/lastmile_qr_scan"}, "type": "electric_bike", "name": "177a7e282c95bf27f2efaa9859cf14b3", "is_reserved": 0, "lon": -76.97309866666667, "is_disabled": 0, "fusion_lat": 0.0, "lat": 38.917623, "bike_id": "177a7e282c95bf27f2efaa9859cf14b3", "fusion_lon": 0.0}, {"rental_uris": {"ios": "https://dc.lft.to/lastmile_qr_scan", "android": "https://dc.lft.to/lastmile_qr_scan"}, "type": "electric_scooter", "name": "c394dfb2f580d0d35b9843dcdf84b9d3", "is_reserved": 0, "lon": -77.04436933333334, "is_disabled": 0, "fusion_lat": 0.0, "lat": 38.901198, "bike_id": "c394dfb2f580d0d35b9843dcdf84b9d3", "fusion_lon": 0.0}, {"rental_uris": {"ios": "https://dc.lft.to/lastmile_qr_scan", "android": "https://dc.lft.to/lastmile_qr_scan"}, "type": "electric_scooter", "name": "39bf3101c4779788c7c049c3d0f91b69", "is_reserved": 0, "lon": -77.00529766666666, "is_disabled": 0, "fusion_lat": 0.0, "lat": 38.87927633333334, "bike_id": "39bf3101c4779788c7c049c3d0f91b69", "fusion_lon": 0.0}, {"rental_uris": {"ios": "https://dc.lft.to/lastmile_qr_scan", "android": "https://dc.lft.to/lastmile_qr_scan"}, "type": "electric_scooter", "name": "020614622c482df55c0d994bd631575b", "is_reserved": 0, "lon": -76.99964666666666, "is_disabled": 0, "fusion_lat": 0.0, "lat": 38.90853933333333, "bike_id": "020614622c482df55c0d994bd631575b", "fusion_lon": 0.0}, {"rental_uris": {"ios": "https://dc.lft.to/lastmile_qr_scan", "android": "https://dc.lft.to/lastmile_qr_scan"}, "type": "electric_bike", "name": "65acf38a438a6a2bf150548073c0fefd", "is_reserved": 0, "lon": -76.96089833333333, "is_disabled": 0, "fusion_lat": 0.0, "lat": 38.918571166666666, "bike_id": "65acf38a438a6a2bf150548073c0fefd", "fusion_lon": 0.0}, {"rental_uris": {"ios": "https://dc.lft.to/lastmile_qr_scan", "android": "https://dc.lft.to/lastmile_qr_scan"}, "type": "electric_scooter", "name": "3db828f6ac3372d8b553289930066594", "is_reserved": 0, "lon": -76.94901616666667, "is_disabled": 0, "fusion_lat": 0.0, "lat": 38.895217, "bike_id": "3db828f6ac3372d8b553289930066594", "fusion_lon": 0.0}, {"rental_uris": {"ios": "https://dc.lft.to/lastmile_qr_scan", "android": "https://dc.lft.to/lastmile_qr_scan"}, "type": "electric_scooter", "name": "69bc4a3be4c2bacb0fc5957ab972a09c", "is_reserved": 0, "lon": -76.96526683333333, "is_disabled": 0, "fusion_lat": 0.0, "lat": 38.87627333333333, "bike_id": "69bc4a3be4c2bacb0fc5957ab972a09c", "fusion_lon": 0.0}, {"rental_uris": {"ios": "https://dc.lft.to/lastmile_qr_scan", "android": "https://dc.lft.to/lastmile_qr_scan"}, "type": "electric_scooter", "name": "ec6af4be98e794c4c34fa3428dd2a1e5", "is_reserved": 0, "lon": -76.992535, "is_disabled": 0, "fusion_lat": 0.0, "lat": 38.94066133333333, "bike_id": "ec6af4be98e794c4c34fa3428dd2a1e5", "fusion_lon": 0.0}, {"rental_uris": {"ios": "https://dc.lft.to/lastmile_qr_scan", "android": "https://dc.lft.to/lastmile_qr_scan"}, "type": "electric_scooter", "name": "3b0c1d66d0b433159d70f538bea8468e", "is_reserved": 0, "lon": -77.04891783333333, "is_disabled": 0, "fusion_lat": 0.0, "lat": 38.907174166666664, "bike_id": "3b0c1d66d0b433159d70f538bea8468e", "fusion_lon": 0.0}, {"rental_uris": {"ios": "https://dc.lft.to/lastmile_qr_scan", "android": "https://dc.lft.to/lastmile_qr_scan"}, "type": "electric_scooter", "name": "4d2d154a91bf8b2e88e9037bc1d2858f", "is_reserved": 0, "lon": -77.02557683333333, "is_disabled": 0, "fusion_lat": 0.0, "lat": 38.95395833333333, "bike_id": "4d2d154a91bf8b2e88e9037bc1d2858f", "fusion_lon": 0.0}, {"rental_uris": {"ios": "https://dc.lft.to/lastmile_qr_scan", "android": "https://dc.lft.to/lastmile_qr_scan"}, "type": "electric_scooter", "name": "d867c947473e8fe79011c11941108bb2", "is_reserved": 0, "lon": -76.9949135, "is_disabled": 0, "fusion_lat": 0.0, "lat": 38.89964783333333, "bike_id": "d867c947473e8fe79011c11941108bb2", "fusion_lon": 0.0}, {"rental_uris": {"ios": "https://dc.lft.to/lastmile_qr_scan", "android": "https://dc.lft.to/lastmile_qr_scan"}, "type": "electric_bike", "name": "4fa643ff61622919ef30e0c2bfbe86cc", "is_reserved": 0, "lon": -76.999287, "is_disabled": 0, "fusion_lat": 0.0, "lat": 38.994655, "bike_id": "4fa643ff61622919ef30e0c2bfbe86cc", "fusion_lon": 0.0}, {"rental_uris": {"ios": "https://dc.lft.to/lastmile_qr_scan", "android": "https://dc.lft.to/lastmile_qr_scan"}, "type": "electric_scooter", "name": "3247d2c800fc8181abfe9115bf8d129e", "is_reserved": 0, "lon": -77.06405366666667, "is_disabled": 0, "fusion_lat": 0.0, "lat": 38.944833, "bike_id": "3247d2c800fc8181abfe9115bf8d129e", "fusion_lon": 0.0}, {"rental_uris": {"ios": "https://dc.lft.to/lastmile_qr_scan", "android": "https://dc.lft.to/lastmile_qr_scan"}, "type": "electric_scooter", "name": "15443c83815ea20113c2e24403ef6ad3", "is_reserved": 0, "lon": -77.03251816666666, "is_disabled": 0, "fusion_lat": 0.0, "lat": 38.904435, "bike_id": "15443c83815ea20113c2e24403ef6ad3", "fusion_lon": 0.0}, {"rental_uris": {"ios": "https://dc.lft.to/lastmile_qr_scan", "android": "https://dc.lft.to/lastmile_qr_scan"}, "type": "electric_scooter", "name": "140a56ceaf91178770e9115ec7929c41", "is_reserved": 0, "lon": -77.0460435, "is_disabled": 0, "fusion_lat": 0.0, "lat": 38.92332116666667, "bike_id": "140a56ceaf91178770e9115ec7929c41", "fusion_lon": 0.0}, {"rental_uris": {"ios": "https://dc.lft.to/lastmile_qr_scan", "android": "https://dc.lft.to/lastmile_qr_scan"}, "type": "electric_scooter", "name": "23194a243608b4f1396675efd911951b", "is_reserved": 0, "lon": -77.04755683333333, "is_disabled": 0, "fusion_lat": 0.0, "lat": 38.895888666666664, "bike_id": "23194a243608b4f1396675efd911951b", "fusion_lon": 0.0}, {"rental_uris": {"ios": "https://dc.lft.to/lastmile_qr_scan", "android": "https://dc.lft.to/lastmile_qr_scan"}, "type": "electric_scooter", "name": "8ca19485f45864f0dd25857fdae1d27d", "is_reserved": 0, "lon": -77.06603466666667, "is_disabled": 0, "fusion_lat": 0.0, "lat": 38.911075, "bike_id": "8ca19485f45864f0dd25857fdae1d27d", "fusion_lon": 0.0}, {"rental_uris": {"ios": "https://dc.lft.to/lastmile_qr_scan", "android": "https://dc.lft.to/lastmile_qr_scan"}, "type": "electric_scooter", "name": "5c92f647fc980c26d5232910c5c47456", "is_reserved": 0, "lon": -77.0174895, "is_disabled": 0, "fusion_lat": 0.0, "lat": 38.914157, "bike_id": "5c92f647fc980c26d5232910c5c47456", "fusion_lon": 0.0}, {"rental_uris": {"ios": "https://dc.lft.to/lastmile_qr_scan", "android": "https://dc.lft.to/lastmile_qr_scan"}, "type": "electric_scooter", "name": "3ea1426acc60c9e6441decf0a035986c", "is_reserved": 0, "lon": -77.036613, "is_disabled": 0, "fusion_lat": 0.0, "lat": 38.920991666666666, "bike_id": "3ea1426acc60c9e6441decf0a035986c", "fusion_lon": 0.0}, {"rental_uris": {"ios": "https://dc.lft.to/lastmile_qr_scan", "android": "https://dc.lft.to/lastmile_qr_scan"}, "type": "electric_bike", "name": "48515f9a7cc2d5dd9e8f42cbd49955bf", "is_reserved": 0, "lon": -77.0015735, "is_disabled": 0, "fusion_lat": 0.0, "lat": 38.94159783333333, "bike_id": "48515f9a7cc2d5dd9e8f42cbd49955bf", "fusion_lon": 0.0}, {"rental_uris": {"ios": "https://dc.lft.to/lastmile_qr_scan", "android": "https://dc.lft.to/lastmile_qr_scan"}, "type": "electric_scooter", "name": "1ab8d1119d443e33b8545c1d1a5b53be", "is_reserved": 0, "lon": -77.05812166666666, "is_disabled": 0, "fusion_lat": 0.0, "lat": 38.93519166666667, "bike_id": "1ab8d1119d443e33b8545c1d1a5b53be", "fusion_lon": 0.0}, {"rental_uris": {"ios": "https://dc.lft.to/lastmile_qr_scan", "android": "https://dc.lft.to/lastmile_qr_scan"}, "type": "electric_scooter", "name": "f249d0af4280c194fc2dc24f89b25c5d", "is_reserved": 0, "lon": -77.0338595, "is_disabled": 0, "fusion_lat": 0.0, "lat": 38.899762833333334, "bike_id": "f249d0af4280c194fc2dc24f89b25c5d", "fusion_lon": 0.0}, {"rental_uris": {"ios": "https://dc.lft.to/lastmile_qr_scan", "android": "https://dc.lft.to/lastmile_qr_scan"}, "type": "electric_scooter", "name": "f4dfe93e087c9c319300d49c32e5a7c4", "is_reserved": 0, "lon": -77.0330165, "is_disabled": 0, "fusion_lat": 0.0, "lat": 38.917178, "bike_id": "f4dfe93e087c9c319300d49c32e5a7c4", "fusion_lon": 0.0}, {"rental_uris": {"ios": "https://dc.lft.to/lastmile_qr_scan", "android": "https://dc.lft.to/lastmile_qr_scan"}, "type": "electric_scooter", "name": "2ad6c83610f0ac92a94dbe32d8ed2dce", "is_reserved": 0, "lon": -77.04818166666666, "is_disabled": 0, "fusion_lat": 0.0, "lat": 38.9203555, "bike_id": "2ad6c83610f0ac92a94dbe32d8ed2dce", "fusion_lon": 0.0}, {"rental_uris": {"ios": "https://dc.lft.to/lastmile_qr_scan", "android": "https://dc.lft.to/lastmile_qr_scan"}, "type": "electric_bike", "name": "b2dd663cc6b083b3bb45e19b9ea9e041", "is_reserved": 0, "lon": -77.03232216666666, "is_disabled": 0, "fusion_lat": 0.0, "lat": 38.96164516666666, "bike_id": "b2dd663cc6b083b3bb45e19b9ea9e041", "fusion_lon": 0.0}, {"rental_uris": {"ios": "https://dc.lft.to/lastmile_qr_scan", "android": "https://dc.lft.to/lastmile_qr_scan"}, "type": "electric_bike", "name": "a072f96c2e51bc299df0cb9443e07f06", "is_reserved": 0, "lon": -77.0077045, "is_disabled": 0, "fusion_lat": 0.0, "lat": 38.981255, "bike_id": "a072f96c2e51bc299df0cb9443e07f06", "fusion_lon": 0.0}, {"rental_uris": {"ios": "https://dc.lft.to/lastmile_qr_scan", "android": "https://dc.lft.to/lastmile_qr_scan"}, "type": "electric_scooter", "name": "1d88be4ec559841b98ca10ff5ba29395", "is_reserved": 0, "lon": -77.04807316666667, "is_disabled": 0, "fusion_lat": 0.0, "lat": 38.89951, "bike_id": "1d88be4ec559841b98ca10ff5ba29395", "fusion_lon": 0.0}, {"rental_uris": {"ios": "https://dc.lft.to/lastmile_qr_scan", "android": "https://dc.lft.to/lastmile_qr_scan"}, "type": "electric_scooter", "name": "c0d26353bfff30794a02e59273af5e81", "is_reserved": 0, "lon": -77.03159466666666, "is_disabled": 0, "fusion_lat": 0.0, "lat": 38.959303, "bike_id": "c0d26353bfff30794a02e59273af5e81", "fusion_lon": 0.0}, {"rental_uris": {"ios": "https://dc.lft.to/lastmile_qr_scan", "android": "https://dc.lft.to/lastmile_qr_scan"}, "type": "electric_scooter", "name": "b126f8f5af117d7432c2a721e4f5b464", "is_reserved": 0, "lon": -77.0190605, "is_disabled": 0, "fusion_lat": 0.0, "lat": 38.909503, "bike_id": "b126f8f5af117d7432c2a721e4f5b464", "fusion_lon": 0.0}, {"rental_uris": {"ios": "https://dc.lft.to/lastmile_qr_scan", "android": "https://dc.lft.to/lastmile_qr_scan"}, "type": "electric_scooter", "name": "ed5464ca1661f71695d509e7cf4f92ad", "is_reserved": 0, "lon": -76.9907445, "is_disabled": 0, "fusion_lat": 0.0, "lat": 38.90421083333333, "bike_id": "ed5464ca1661f71695d509e7cf4f92ad", "fusion_lon": 0.0}, {"rental_uris": {"ios": "https://dc.lft.to/lastmile_qr_scan", "android": "https://dc.lft.to/lastmile_qr_scan"}, "type": "electric_scooter", "name": "c26c32c391ba1d8f5480e27ae97972d3", "is_reserved": 0, "lon": -77.04384366666666, "is_disabled": 0, "fusion_lat": 0.0, "lat": 38.934218333333334, "bike_id": "c26c32c391ba1d8f5480e27ae97972d3", "fusion_lon": 0.0}, {"rental_uris": {"ios": "https://dc.lft.to/lastmile_qr_scan", "android": "https://dc.lft.to/lastmile_qr_scan"}, "type": "electric_scooter", "name": "5e2ac6aa83b4fa8de67a2fa17ef652bb", "is_reserved": 0, "lon": -77.01234716666667, "is_disabled": 0, "fusion_lat": 0.0, "lat": 38.915757666666664, "bike_id": "5e2ac6aa83b4fa8de67a2fa17ef652bb", "fusion_lon": 0.0}, {"rental_uris": {"ios": "https://dc.lft.to/lastmile_qr_scan", "android": "https://dc.lft.to/lastmile_qr_scan"}, "type": "electric_scooter", "name": "e85c4c02293de0d6453ca619bf519bd1", "is_reserved": 0, "lon": -76.9833585, "is_disabled": 0, "fusion_lat": 0.0, "lat": 38.900866666666666, "bike_id": "e85c4c02293de0d6453ca619bf519bd1", "fusion_lon": 0.0}, {"rental_uris": {"ios": "https://dc.lft.to/lastmile_qr_scan", "android": "https://dc.lft.to/lastmile_qr_scan"}, "type": "electric_scooter", "name": "225dfbd18b18fb89e50e496644bea750", "is_reserved": 0, "lon": -77.0188865, "is_disabled": 0, "fusion_lat": 0.0, "lat": 38.89749, "bike_id": "225dfbd18b18fb89e50e496644bea750", "fusion_lon": 0.0}, {"rental_uris": {"ios": "https://dc.lft.to/lastmile_qr_scan", "android": "https://dc.lft.to/lastmile_qr_scan"}, "type": "electric_bike", "name": "d609710317f3f67af22b47b5e38af342", "is_reserved": 0, "lon": -76.988866, "is_disabled": 0, "fusion_lat": 0.0, "lat": 38.921145333333335, "bike_id": "d609710317f3f67af22b47b5e38af342", "fusion_lon": 0.0}, {"rental_uris": {"ios": "https://dc.lft.to/lastmile_qr_scan", "android": "https://dc.lft.to/lastmile_qr_scan"}, "type": "electric_scooter", "name": "08dc53a1c99c879a38da4bd62bf9c736", "is_reserved": 0, "lon": -77.03668316666666, "is_disabled": 0, "fusion_lat": 0.0, "lat": 38.923886833333334, "bike_id": "08dc53a1c99c879a38da4bd62bf9c736", "fusion_lon": 0.0}, {"rental_uris": {"ios": "https://dc.lft.to/lastmile_qr_scan", "android": "https://dc.lft.to/lastmile_qr_scan"}, "type": "electric_scooter", "name": "9094d13f75a44cc8c253748e1fa1e3ce", "is_reserved": 0, "lon": -77.0305595, "is_disabled": 0, "fusion_lat": 0.0, "lat": 38.907207166666666, "bike_id": "9094d13f75a44cc8c253748e1fa1e3ce", "fusion_lon": 0.0}, {"rental_uris": {"ios": "https://dc.lft.to/lastmile_qr_scan", "android": "https://dc.lft.to/lastmile_qr_scan"}, "type": "electric_scooter", "name": "ddc1165b78577d87a4f94ae58c57b220", "is_reserved": 0, "lon": -77.040596, "is_disabled": 0, "fusion_lat": 0.0, "lat": 38.917668, "bike_id": "ddc1165b78577d87a4f94ae58c57b220", "fusion_lon": 0.0}, {"rental_uris": {"ios": "https://dc.lft.to/lastmile_qr_scan", "android": "https://dc.lft.to/lastmile_qr_scan"}, "type": "electric_scooter", "name": "0f3e69277ff7b03fb6633291403eddfd", "is_reserved": 0, "lon": -77.02412583333333, "is_disabled": 0, "fusion_lat": 0.0, "lat": 38.92707883333333, "bike_id": "0f3e69277ff7b03fb6633291403eddfd", "fusion_lon": 0.0}, {"rental_uris": {"ios": "https://dc.lft.to/lastmile_qr_scan", "android": "https://dc.lft.to/lastmile_qr_scan"}, "type": "electric_scooter", "name": "be375b5f3f4ec65be91ab9510c66f263", "is_reserved": 0, "lon": -77.02220166666666, "is_disabled": 0, "fusion_lat": 0.0, "lat": 38.92068233333333, "bike_id": "be375b5f3f4ec65be91ab9510c66f263", "fusion_lon": 0.0}, {"rental_uris": {"ios": "https://dc.lft.to/lastmile_qr_scan", "android": "https://dc.lft.to/lastmile_qr_scan"}, "type": "electric_scooter", "name": "76974dec81bf5fbf643e9066a27aec7f", "is_reserved": 0, "lon": -77.01856416666666, "is_disabled": 0, "fusion_lat": 0.0, "lat": 38.89960583333333, "bike_id": "76974dec81bf5fbf643e9066a27aec7f", "fusion_lon": 0.0}, {"rental_uris": {"ios": "https://dc.lft.to/lastmile_qr_scan", "android": "https://dc.lft.to/lastmile_qr_scan"}, "type": "electric_scooter", "name": "657b94741033a63d995aee3cf7c1d424", "is_reserved": 0, "lon": -77.0249195, "is_disabled": 0, "fusion_lat": 0.0, "lat": 38.904052666666665, "bike_id": "657b94741033a63d995aee3cf7c1d424", "fusion_lon": 0.0}, {"rental_uris": {"ios": "https://dc.lft.to/lastmile_qr_scan", "android": "https://dc.lft.to/lastmile_qr_scan"}, "type": "electric_scooter", "name": "e3bdaaaced9956bc8d5b03a73663347e", "is_reserved": 0, "lon": -77.0306565, "is_disabled": 0, "fusion_lat": 0.0, "lat": 38.9266815, "bike_id": "e3bdaaaced9956bc8d5b03a73663347e", "fusion_lon": 0.0}, {"rental_uris": {"ios": "https://dc.lft.to/lastmile_qr_scan", "android": "https://dc.lft.to/lastmile_qr_scan"}, "type": "electric_bike", "name": "88507b2770f12c337aae2f3f190bbe3f", "is_reserved": 0, "lon": -77.10673716666666, "is_disabled": 0, "fusion_lat": 0.0, "lat": 38.8553265, "bike_id": "88507b2770f12c337aae2f3f190bbe3f", "fusion_lon": 0.0}, {"rental_uris": {"ios": "https://dc.lft.to/lastmile_qr_scan", "android": "https://dc.lft.to/lastmile_qr_scan"}, "type": "electric_scooter", "name": "af2060a7632bc41537cd9e460dfc6ef4", "is_reserved": 0, "lon": -77.0487235, "is_disabled": 0, "fusion_lat": 0.0, "lat": 38.90571116666667, "bike_id": "af2060a7632bc41537cd9e460dfc6ef4", "fusion_lon": 0.0}, {"rental_uris": {"ios": "https://dc.lft.to/lastmile_qr_scan", "android": "https://dc.lft.to/lastmile_qr_scan"}, "type": "electric_scooter", "name": "239de38c116e20ae04439599cedcf929", "is_reserved": 0, "lon": -77.0374665, "is_disabled": 0, "fusion_lat": 0.0, "lat": 38.9290905, "bike_id": "239de38c116e20ae04439599cedcf929", "fusion_lon": 0.0}, {"rental_uris": {"ios": "https://dc.lft.to/lastmile_qr_scan", "android": "https://dc.lft.to/lastmile_qr_scan"}, "type": "electric_scooter", "name": "fcfb09da3d59cb3113fae4ca6ac68e9f", "is_reserved": 0, "lon": -77.042304, "is_disabled": 0, "fusion_lat": 0.0, "lat": 38.921384333333336, "bike_id": "fcfb09da3d59cb3113fae4ca6ac68e9f", "fusion_lon": 0.0}, {"rental_uris": {"ios": "https://dc.lft.to/lastmile_qr_scan", "android": "https://dc.lft.to/lastmile_qr_scan"}, "type": "electric_bike", "name": "a1fc0535fa750f99ad7fc4195a570461", "is_reserved": 0, "lon": -77.01918316666666, "is_disabled": 0, "fusion_lat": 0.0, "lat": 38.976409333333336, "bike_id": "a1fc0535fa750f99ad7fc4195a570461", "fusion_lon": 0.0}, {"rental_uris": {"ios": "https://dc.lft.to/lastmile_qr_scan", "android": "https://dc.lft.to/lastmile_qr_scan"}, "type": "electric_scooter", "name": "d4a052341564c175a2839228a2892a69", "is_reserved": 0, "lon": -77.06030583333333, "is_disabled": 0, "fusion_lat": 0.0, "lat": 38.938767666666664, "bike_id": "d4a052341564c175a2839228a2892a69", "fusion_lon": 0.0}, {"rental_uris": {"ios": "https://dc.lft.to/lastmile_qr_scan", "android": "https://dc.lft.to/lastmile_qr_scan"}, "type": "electric_bike", "name": "523d24cc2fdf2d5f9644bef7e90b6063", "is_reserved": 0, "lon": -77.07658616666667, "is_disabled": 0, "fusion_lat": 0.0, "lat": 38.80975433333333, "bike_id": "523d24cc2fdf2d5f9644bef7e90b6063", "fusion_lon": 0.0}, {"rental_uris": {"ios": "https://dc.lft.to/lastmile_qr_scan", "android": "https://dc.lft.to/lastmile_qr_scan"}, "type": "electric_scooter", "name": "d97d78d8368d088ff3e3cab0a44c07a5", "is_reserved": 0, "lon": -77.03260483333334, "is_disabled": 0, "fusion_lat": 0.0, "lat": 38.92543916666666, "bike_id": "d97d78d8368d088ff3e3cab0a44c07a5", "fusion_lon": 0.0}, {"rental_uris": {"ios": "https://dc.lft.to/lastmile_qr_scan", "android": "https://dc.lft.to/lastmile_qr_scan"}, "type": "electric_scooter", "name": "0e580af90bbf23e529be3d4bd36db33b", "is_reserved": 0, "lon": -77.01758933333333, "is_disabled": 0, "fusion_lat": 0.0, "lat": 38.876813, "bike_id": "0e580af90bbf23e529be3d4bd36db33b", "fusion_lon": 0.0}, {"rental_uris": {"ios": "https://dc.lft.to/lastmile_qr_scan", "android": "https://dc.lft.to/lastmile_qr_scan"}, "type": "electric_scooter", "name": "9770d73fb3487e9485b1b70f7f53803a", "is_reserved": 0, "lon": -77.04666916666666, "is_disabled": 0, "fusion_lat": 0.0, "lat": 38.91248683333333, "bike_id": "9770d73fb3487e9485b1b70f7f53803a", "fusion_lon": 0.0}, {"rental_uris": {"ios": "https://dc.lft.to/lastmile_qr_scan", "android": "https://dc.lft.to/lastmile_qr_scan"}, "type": "electric_bike", "name": "c4c06df41fa6919e2cbbdf0583e43de4", "is_reserved": 0, "lon": -77.02069216666666, "is_disabled": 0, "fusion_lat": 0.0, "lat": 38.9643865, "bike_id": "c4c06df41fa6919e2cbbdf0583e43de4", "fusion_lon": 0.0}, {"rental_uris": {"ios": "https://dc.lft.to/lastmile_qr_scan", "android": "https://dc.lft.to/lastmile_qr_scan"}, "type": "electric_scooter", "name": "ea21dc76e6da4b65cec2c2b3dbfb5633", "is_reserved": 0, "lon": -77.0450625, "is_disabled": 0, "fusion_lat": 0.0, "lat": 38.8922055, "bike_id": "ea21dc76e6da4b65cec2c2b3dbfb5633", "fusion_lon": 0.0}, {"rental_uris": {"ios": "https://dc.lft.to/lastmile_qr_scan", "android": "https://dc.lft.to/lastmile_qr_scan"}, "type": "electric_scooter", "name": "f1b857ae60448adc31d40420da43f1af", "is_reserved": 0, "lon": -76.94651766666667, "is_disabled": 0, "fusion_lat": 0.0, "lat": 38.89828166666667, "bike_id": "f1b857ae60448adc31d40420da43f1af", "fusion_lon": 0.0}, {"rental_uris": {"ios": "https://dc.lft.to/lastmile_qr_scan", "android": "https://dc.lft.to/lastmile_qr_scan"}, "type": "electric_scooter", "name": "ecf42245985caf1db891d1f193597ce8", "is_reserved": 0, "lon": -76.97719116666667, "is_disabled": 0, "fusion_lat": 0.0, "lat": 38.90056466666667, "bike_id": "ecf42245985caf1db891d1f193597ce8", "fusion_lon": 0.0}, {"rental_uris": {"ios": "https://dc.lft.to/lastmile_qr_scan", "android": "https://dc.lft.to/lastmile_qr_scan"}, "type": "electric_scooter", "name": "89ece5dfbcc549022a77ca5f932b73c3", "is_reserved": 0, "lon": -77.02228466666666, "is_disabled": 0, "fusion_lat": 0.0, "lat": 38.892214833333334, "bike_id": "89ece5dfbcc549022a77ca5f932b73c3", "fusion_lon": 0.0}, {"rental_uris": {"ios": "https://dc.lft.to/lastmile_qr_scan", "android": "https://dc.lft.to/lastmile_qr_scan"}, "type": "electric_scooter", "name": "1fce7787e6e18960ff7c5f2827ce9e2b", "is_reserved": 0, "lon": -76.99036016666666, "is_disabled": 0, "fusion_lat": 0.0, "lat": 38.88879816666667, "bike_id": "1fce7787e6e18960ff7c5f2827ce9e2b", "fusion_lon": 0.0}, {"rental_uris": {"ios": "https://dc.lft.to/lastmile_qr_scan", "android": "https://dc.lft.to/lastmile_qr_scan"}, "type": "electric_scooter", "name": "d7d7e52aa169aa934506e629adc0a755", "is_reserved": 0, "lon": -77.06096316666667, "is_disabled": 0, "fusion_lat": 0.0, "lat": 38.9399375, "bike_id": "d7d7e52aa169aa934506e629adc0a755", "fusion_lon": 0.0}, {"rental_uris": {"ios": "https://dc.lft.to/lastmile_qr_scan", "android": "https://dc.lft.to/lastmile_qr_scan"}, "type": "electric_scooter", "name": "5c12ad68d4302a059189e084021f847b", "is_reserved": 0, "lon": -76.97937466666667, "is_disabled": 0, "fusion_lat": 0.0, "lat": 38.90659566666667, "bike_id": "5c12ad68d4302a059189e084021f847b", "fusion_lon": 0.0}, {"rental_uris": {"ios": "https://dc.lft.to/lastmile_qr_scan", "android": "https://dc.lft.to/lastmile_qr_scan"}, "type": "electric_scooter", "name": "924683a841997c2b9efb87857db85585", "is_reserved": 0, "lon": -77.00908033333333, "is_disabled": 0, "fusion_lat": 0.0, "lat": 38.8988025, "bike_id": "924683a841997c2b9efb87857db85585", "fusion_lon": 0.0}, {"rental_uris": {"ios": "https://dc.lft.to/lastmile_qr_scan", "android": "https://dc.lft.to/lastmile_qr_scan"}, "type": "electric_scooter", "name": "10dcbc365977dcb516727838b8521be0", "is_reserved": 0, "lon": -77.0332895, "is_disabled": 0, "fusion_lat": 0.0, "lat": 38.919182666666664, "bike_id": "10dcbc365977dcb516727838b8521be0", "fusion_lon": 0.0}, {"rental_uris": {"ios": "https://dc.lft.to/lastmile_qr_scan", "android": "https://dc.lft.to/lastmile_qr_scan"}, "type": "electric_bike", "name": "853bf3d957dfa7e54450775c4f2b653f", "is_reserved": 0, "lon": -76.980942, "is_disabled": 0, "fusion_lat": 0.0, "lat": 38.9535445, "bike_id": "853bf3d957dfa7e54450775c4f2b653f", "fusion_lon": 0.0}, {"rental_uris": {"ios": "https://dc.lft.to/lastmile_qr_scan", "android": "https://dc.lft.to/lastmile_qr_scan"}, "type": "electric_bike", "name": "1486c8b71938e23bfd345ffb0b3a5284", "is_reserved": 0, "lon": -77.044984, "is_disabled": 0, "fusion_lat": 0.0, "lat": 38.9171995, "bike_id": "1486c8b71938e23bfd345ffb0b3a5284", "fusion_lon": 0.0}, {"rental_uris": {"ios": "https://dc.lft.to/lastmile_qr_scan", "android": "https://dc.lft.to/lastmile_qr_scan"}, "type": "electric_scooter", "name": "b4d023ab8e72cc677659b10d4a955d16", "is_reserved": 0, "lon": -77.03507966666666, "is_disabled": 0, "fusion_lat": 0.0, "lat": 38.92153916666667, "bike_id": "b4d023ab8e72cc677659b10d4a955d16", "fusion_lon": 0.0}, {"rental_uris": {"ios": "https://dc.lft.to/lastmile_qr_scan", "android": "https://dc.lft.to/lastmile_qr_scan"}, "type": "electric_bike", "name": "6c2575af03c331b7b6add7eed9d89817", "is_reserved": 0, "lon": -76.99546166666667, "is_disabled": 0, "fusion_lat": 0.0, "lat": 38.83159716666667, "bike_id": "6c2575af03c331b7b6add7eed9d89817", "fusion_lon": 0.0}, {"rental_uris": {"ios": "https://dc.lft.to/lastmile_qr_scan", "android": "https://dc.lft.to/lastmile_qr_scan"}, "type": "electric_scooter", "name": "f90079b063dde36763e5cd521b572a0f", "is_reserved": 0, "lon": -77.05792416666667, "is_disabled": 0, "fusion_lat": 0.0, "lat": 38.9050945, "bike_id": "f90079b063dde36763e5cd521b572a0f", "fusion_lon": 0.0}, {"rental_uris": {"ios": "https://dc.lft.to/lastmile_qr_scan", "android": "https://dc.lft.to/lastmile_qr_scan"}, "type": "electric_scooter", "name": "803bba5900c0eb675c7d954d7877103c", "is_reserved": 0, "lon": -77.04878466666666, "is_disabled": 0, "fusion_lat": 0.0, "lat": 38.900776666666665, "bike_id": "803bba5900c0eb675c7d954d7877103c", "fusion_lon": 0.0}, {"rental_uris": {"ios": "https://dc.lft.to/lastmile_qr_scan", "android": "https://dc.lft.to/lastmile_qr_scan"}, "type": "electric_scooter", "name": "8774ecb2d9aaf967202ffaf21dc6f1a5", "is_reserved": 0, "lon": -77.03291266666666, "is_disabled": 0, "fusion_lat": 0.0, "lat": 38.92840983333333, "bike_id": "8774ecb2d9aaf967202ffaf21dc6f1a5", "fusion_lon": 0.0}, {"rental_uris": {"ios": "https://dc.lft.to/lastmile_qr_scan", "android": "https://dc.lft.to/lastmile_qr_scan"}, "type": "electric_scooter", "name": "6d1a0bdce91901360972228c8c6d904e", "is_reserved": 0, "lon": -77.046951, "is_disabled": 0, "fusion_lat": 0.0, "lat": 38.8973845, "bike_id": "6d1a0bdce91901360972228c8c6d904e", "fusion_lon": 0.0}, {"rental_uris": {"ios": "https://dc.lft.to/lastmile_qr_scan", "android": "https://dc.lft.to/lastmile_qr_scan"}, "type": "electric_scooter", "name": "9e3ee31b496803cb8402c673d7d57f21", "is_reserved": 0, "lon": -77.02158916666667, "is_disabled": 0, "fusion_lat": 0.0, "lat": 38.887429, "bike_id": "9e3ee31b496803cb8402c673d7d57f21", "fusion_lon": 0.0}, {"rental_uris": {"ios": "https://dc.lft.to/lastmile_qr_scan", "android": "https://dc.lft.to/lastmile_qr_scan"}, "type": "electric_scooter", "name": "b0a574693b352f8aa2c0b772816dc477", "is_reserved": 0, "lon": -76.996391, "is_disabled": 0, "fusion_lat": 0.0, "lat": 38.8876595, "bike_id": "b0a574693b352f8aa2c0b772816dc477", "fusion_lon": 0.0}, {"rental_uris": {"ios": "https://dc.lft.to/lastmile_qr_scan", "android": "https://dc.lft.to/lastmile_qr_scan"}, "type": "electric_scooter", "name": "9ceca473d23c1fe15996fe0530db38d4", "is_reserved": 0, "lon": -76.99737316666666, "is_disabled": 0, "fusion_lat": 0.0, "lat": 38.900229833333334, "bike_id": "9ceca473d23c1fe15996fe0530db38d4", "fusion_lon": 0.0}, {"rental_uris": {"ios": "https://dc.lft.to/lastmile_qr_scan", "android": "https://dc.lft.to/lastmile_qr_scan"}, "type": "electric_scooter", "name": "4c4266b44c1e6b8424abfccb8c805258", "is_reserved": 0, "lon": -77.0610945, "is_disabled": 0, "fusion_lat": 0.0, "lat": 38.912838, "bike_id": "4c4266b44c1e6b8424abfccb8c805258", "fusion_lon": 0.0}, {"rental_uris": {"ios": "https://dc.lft.to/lastmile_qr_scan", "android": "https://dc.lft.to/lastmile_qr_scan"}, "type": "electric_scooter", "name": "dae0e77e8258a6562bd2905e37e1c1ba", "is_reserved": 0, "lon": -77.02091616666667, "is_disabled": 0, "fusion_lat": 0.0, "lat": 38.92907783333333, "bike_id": "dae0e77e8258a6562bd2905e37e1c1ba", "fusion_lon": 0.0}, {"rental_uris": {"ios": "https://dc.lft.to/lastmile_qr_scan", "android": "https://dc.lft.to/lastmile_qr_scan"}, "type": "electric_scooter", "name": "93386be39cae8a6ba47e3a23d38b8e06", "is_reserved": 0, "lon": -77.04050483333333, "is_disabled": 0, "fusion_lat": 0.0, "lat": 38.917875, "bike_id": "93386be39cae8a6ba47e3a23d38b8e06", "fusion_lon": 0.0}, {"rental_uris": {"ios": "https://dc.lft.to/lastmile_qr_scan", "android": "https://dc.lft.to/lastmile_qr_scan"}, "type": "electric_scooter", "name": "a0579250a98e9b3344d311c412116851", "is_reserved": 0, "lon": -77.00358483333333, "is_disabled": 0, "fusion_lat": 0.0, "lat": 38.876785, "bike_id": "a0579250a98e9b3344d311c412116851", "fusion_lon": 0.0}, {"rental_uris": {"ios": "https://dc.lft.to/lastmile_qr_scan", "android": "https://dc.lft.to/lastmile_qr_scan"}, "type": "electric_scooter", "name": "ca18b55415e0985baac4ab68fed25d94", "is_reserved": 0, "lon": -77.003485, "is_disabled": 0, "fusion_lat": 0.0, "lat": 38.87714, "bike_id": "ca18b55415e0985baac4ab68fed25d94", "fusion_lon": 0.0}, {"rental_uris": {"ios": "https://dc.lft.to/lastmile_qr_scan", "android": "https://dc.lft.to/lastmile_qr_scan"}, "type": "electric_scooter", "name": "0ca9dcd65a20bb0179ea1cd0ec0b5fa9", "is_reserved": 0, "lon": -77.01240183333333, "is_disabled": 0, "fusion_lat": 0.0, "lat": 38.88103783333333, "bike_id": "0ca9dcd65a20bb0179ea1cd0ec0b5fa9", "fusion_lon": 0.0}, {"rental_uris": {"ios": "https://dc.lft.to/lastmile_qr_scan", "android": "https://dc.lft.to/lastmile_qr_scan"}, "type": "electric_scooter", "name": "f509c153a280e3bd917e2207cbd901c3", "is_reserved": 0, "lon": -77.061257, "is_disabled": 0, "fusion_lat": 0.0, "lat": 38.9038395, "bike_id": "f509c153a280e3bd917e2207cbd901c3", "fusion_lon": 0.0}, {"rental_uris": {"ios": "https://dc.lft.to/lastmile_qr_scan", "android": "https://dc.lft.to/lastmile_qr_scan"}, "type": "electric_scooter", "name": "8ad99a102ff19a9e52c8f69c4acd92b0", "is_reserved": 0, "lon": -77.0319675, "is_disabled": 0, "fusion_lat": 0.0, "lat": 38.9097415, "bike_id": "8ad99a102ff19a9e52c8f69c4acd92b0", "fusion_lon": 0.0}, {"rental_uris": {"ios": "https://dc.lft.to/lastmile_qr_scan", "android": "https://dc.lft.to/lastmile_qr_scan"}, "type": "electric_scooter", "name": "28cdcbc9ce4698175f6dbd8cc144b9a7", "is_reserved": 0, "lon": -76.93723266666667, "is_disabled": 0, "fusion_lat": 0.0, "lat": 38.89034766666666, "bike_id": "28cdcbc9ce4698175f6dbd8cc144b9a7", "fusion_lon": 0.0}, {"rental_uris": {"ios": "https://dc.lft.to/lastmile_qr_scan", "android": "https://dc.lft.to/lastmile_qr_scan"}, "type": "electric_scooter", "name": "1b801eb102ea7fe53185451374e3fb0f", "is_reserved": 0, "lon": -77.002548, "is_disabled": 0, "fusion_lat": 0.0, "lat": 38.90260983333334, "bike_id": "1b801eb102ea7fe53185451374e3fb0f", "fusion_lon": 0.0}, {"rental_uris": {"ios": "https://dc.lft.to/lastmile_qr_scan", "android": "https://dc.lft.to/lastmile_qr_scan"}, "type": "electric_scooter", "name": "caec9b6c0ccf330a8539e55d34c14109", "is_reserved": 0, "lon": -77.0363715, "is_disabled": 0, "fusion_lat": 0.0, "lat": 38.91816766666667, "bike_id": "caec9b6c0ccf330a8539e55d34c14109", "fusion_lon": 0.0}, {"rental_uris": {"ios": "https://dc.lft.to/lastmile_qr_scan", "android": "https://dc.lft.to/lastmile_qr_scan"}, "type": "electric_bike", "name": "94a6f913bf4ea75edc8745ffd29c80d5", "is_reserved": 0, "lon": -77.08976583333333, "is_disabled": 0, "fusion_lat": 0.0, "lat": 38.91168316666667, "bike_id": "94a6f913bf4ea75edc8745ffd29c80d5", "fusion_lon": 0.0}, {"rental_uris": {"ios": "https://dc.lft.to/lastmile_qr_scan", "android": "https://dc.lft.to/lastmile_qr_scan"}, "type": "electric_scooter", "name": "0c43ef6dc2958a7cb964d12f0c1e418c", "is_reserved": 0, "lon": -77.02176433333334, "is_disabled": 0, "fusion_lat": 0.0, "lat": 38.91783983333333, "bike_id": "0c43ef6dc2958a7cb964d12f0c1e418c", "fusion_lon": 0.0}, {"rental_uris": {"ios": "https://dc.lft.to/lastmile_qr_scan", "android": "https://dc.lft.to/lastmile_qr_scan"}, "type": "electric_scooter", "name": "f15c52f037be6aea1876a4537132c23e", "is_reserved": 0, "lon": -77.03649366666667, "is_disabled": 0, "fusion_lat": 0.0, "lat": 38.90337183333333, "bike_id": "f15c52f037be6aea1876a4537132c23e", "fusion_lon": 0.0}, {"rental_uris": {"ios": "https://dc.lft.to/lastmile_qr_scan", "android": "https://dc.lft.to/lastmile_qr_scan"}, "type": "electric_scooter", "name": "af0f8a72bf4c63c9065ee9997f566709", "is_reserved": 0, "lon": -77.03871866666667, "is_disabled": 0, "fusion_lat": 0.0, "lat": 38.91559766666666, "bike_id": "af0f8a72bf4c63c9065ee9997f566709", "fusion_lon": 0.0}, {"rental_uris": {"ios": "https://dc.lft.to/lastmile_qr_scan", "android": "https://dc.lft.to/lastmile_qr_scan"}, "type": "electric_scooter", "name": "3e2048b7fcbe0ed9e23a5bc2297004af", "is_reserved": 0, "lon": -77.010854, "is_disabled": 0, "fusion_lat": 0.0, "lat": 38.90332333333333, "bike_id": "3e2048b7fcbe0ed9e23a5bc2297004af", "fusion_lon": 0.0}, {"rental_uris": {"ios": "https://dc.lft.to/lastmile_qr_scan", "android": "https://dc.lft.to/lastmile_qr_scan"}, "type": "electric_scooter", "name": "9bc543fcb7db4c6180e88575e8db8fc8", "is_reserved": 0, "lon": -77.0058695, "is_disabled": 0, "fusion_lat": 0.0, "lat": 38.9057765, "bike_id": "9bc543fcb7db4c6180e88575e8db8fc8", "fusion_lon": 0.0}, {"rental_uris": {"ios": "https://dc.lft.to/lastmile_qr_scan", "android": "https://dc.lft.to/lastmile_qr_scan"}, "type": "electric_scooter", "name": "5a0ccfe55b42479d66485126ba4f206f", "is_reserved": 0, "lon": -77.02381633333333, "is_disabled": 0, "fusion_lat": 0.0, "lat": 38.9084535, "bike_id": "5a0ccfe55b42479d66485126ba4f206f", "fusion_lon": 0.0}, {"rental_uris": {"ios": "https://dc.lft.to/lastmile_qr_scan", "android": "https://dc.lft.to/lastmile_qr_scan"}, "type": "electric_scooter", "name": "c96353627712b034c244b091ba899581", "is_reserved": 0, "lon": -77.0172815, "is_disabled": 0, "fusion_lat": 0.0, "lat": 38.887421, "bike_id": "c96353627712b034c244b091ba899581", "fusion_lon": 0.0}, {"rental_uris": {"ios": "https://dc.lft.to/lastmile_qr_scan", "android": "https://dc.lft.to/lastmile_qr_scan"}, "type": "electric_scooter", "name": "a9fecb9fcdadccb1e4befeab17244a2b", "is_reserved": 0, "lon": -77.02302333333333, "is_disabled": 0, "fusion_lat": 0.0, "lat": 38.89522733333333, "bike_id": "a9fecb9fcdadccb1e4befeab17244a2b", "fusion_lon": 0.0}, {"rental_uris": {"ios": "https://dc.lft.to/lastmile_qr_scan", "android": "https://dc.lft.to/lastmile_qr_scan"}, "type": "electric_scooter", "name": "69819522469a73214e6e713587dac759", "is_reserved": 0, "lon": -77.02233483333333, "is_disabled": 0, "fusion_lat": 0.0, "lat": 38.892204166666666, "bike_id": "69819522469a73214e6e713587dac759", "fusion_lon": 0.0}, {"rental_uris": {"ios": "https://dc.lft.to/lastmile_qr_scan", "android": "https://dc.lft.to/lastmile_qr_scan"}, "type": "electric_scooter", "name": "347e954abdca63bbe68f454454b9d1ef", "is_reserved": 0, "lon": -77.01761166666667, "is_disabled": 0, "fusion_lat": 0.0, "lat": 38.87692416666667, "bike_id": "347e954abdca63bbe68f454454b9d1ef", "fusion_lon": 0.0}, {"rental_uris": {"ios": "https://dc.lft.to/lastmile_qr_scan", "android": "https://dc.lft.to/lastmile_qr_scan"}, "type": "electric_scooter", "name": "35a9fe7ffc8448232c46582036ff5738", "is_reserved": 0, "lon": -77.04465966666666, "is_disabled": 0, "fusion_lat": 0.0, "lat": 38.90366616666667, "bike_id": "35a9fe7ffc8448232c46582036ff5738", "fusion_lon": 0.0}, {"rental_uris": {"ios": "https://dc.lft.to/lastmile_qr_scan", "android": "https://dc.lft.to/lastmile_qr_scan"}, "type": "electric_scooter", "name": "7198c8f1942a80c1242061f46dcbd0f9", "is_reserved": 0, "lon": -76.9883825, "is_disabled": 0, "fusion_lat": 0.0, "lat": 38.84289283333333, "bike_id": "7198c8f1942a80c1242061f46dcbd0f9", "fusion_lon": 0.0}, {"rental_uris": {"ios": "https://dc.lft.to/lastmile_qr_scan", "android": "https://dc.lft.to/lastmile_qr_scan"}, "type": "electric_bike", "name": "a59ab868fd68332b58ab4499347c0d2a", "is_reserved": 0, "lon": -77.07131016666666, "is_disabled": 0, "fusion_lat": 0.0, "lat": 38.8899485, "bike_id": "a59ab868fd68332b58ab4499347c0d2a", "fusion_lon": 0.0}, {"rental_uris": {"ios": "https://dc.lft.to/lastmile_qr_scan", "android": "https://dc.lft.to/lastmile_qr_scan"}, "type": "electric_bike", "name": "6668e86dc25d048f0fa2752147c0ca09", "is_reserved": 0, "lon": -76.96263783333333, "is_disabled": 0, "fusion_lat": 0.0, "lat": 38.96784183333333, "bike_id": "6668e86dc25d048f0fa2752147c0ca09", "fusion_lon": 0.0}, {"rental_uris": {"ios": "https://dc.lft.to/lastmile_qr_scan", "android": "https://dc.lft.to/lastmile_qr_scan"}, "type": "electric_scooter", "name": "596affa294b8f3452d30da2520beb2be", "is_reserved": 0, "lon": -76.99627833333334, "is_disabled": 0, "fusion_lat": 0.0, "lat": 38.889595, "bike_id": "596affa294b8f3452d30da2520beb2be", "fusion_lon": 0.0}, {"rental_uris": {"ios": "https://dc.lft.to/lastmile_qr_scan", "android": "https://dc.lft.to/lastmile_qr_scan"}, "type": "electric_scooter", "name": "2db369e650f7102f6e4e2379ed2c7229", "is_reserved": 0, "lon": -77.025958, "is_disabled": 0, "fusion_lat": 0.0, "lat": 38.958170833333334, "bike_id": "2db369e650f7102f6e4e2379ed2c7229", "fusion_lon": 0.0}, {"rental_uris": {"ios": "https://dc.lft.to/lastmile_qr_scan", "android": "https://dc.lft.to/lastmile_qr_scan"}, "type": "electric_bike", "name": "569d9431dc35c65e6bb976cfe229a55c", "is_reserved": 0, "lon": -77.03625966666667, "is_disabled": 0, "fusion_lat": 0.0, "lat": 38.97297316666667, "bike_id": "569d9431dc35c65e6bb976cfe229a55c", "fusion_lon": 0.0}, {"rental_uris": {"ios": "https://dc.lft.to/lastmile_qr_scan", "android": "https://dc.lft.to/lastmile_qr_scan"}, "type": "electric_scooter", "name": "1a9b83472dfff889e307722fe966d74b", "is_reserved": 0, "lon": -77.043434, "is_disabled": 0, "fusion_lat": 0.0, "lat": 38.907332, "bike_id": "1a9b83472dfff889e307722fe966d74b", "fusion_lon": 0.0}, {"rental_uris": {"ios": "https://dc.lft.to/lastmile_qr_scan", "android": "https://dc.lft.to/lastmile_qr_scan"}, "type": "electric_bike", "name": "a5e48473ff51c247eaf16bdb96cdb5fd", "is_reserved": 0, "lon": -77.10212816666666, "is_disabled": 0, "fusion_lat": 0.0, "lat": 38.91997533333333, "bike_id": "a5e48473ff51c247eaf16bdb96cdb5fd", "fusion_lon": 0.0}, {"rental_uris": {"ios": "https://dc.lft.to/lastmile_qr_scan", "android": "https://dc.lft.to/lastmile_qr_scan"}, "type": "electric_scooter", "name": "6dc80d8fefda67d2043f73518d1522d4", "is_reserved": 0, "lon": -77.031738, "is_disabled": 0, "fusion_lat": 0.0, "lat": 38.91332583333333, "bike_id": "6dc80d8fefda67d2043f73518d1522d4", "fusion_lon": 0.0}, {"rental_uris": {"ios": "https://dc.lft.to/lastmile_qr_scan", "android": "https://dc.lft.to/lastmile_qr_scan"}, "type": "electric_bike", "name": "cd4f1659b496b73d613b8dd496b8c6f6", "is_reserved": 0, "lon": -76.98688916666667, "is_disabled": 0, "fusion_lat": 0.0, "lat": 38.944738, "bike_id": "cd4f1659b496b73d613b8dd496b8c6f6", "fusion_lon": 0.0}, {"rental_uris": {"ios": "https://dc.lft.to/lastmile_qr_scan", "android": "https://dc.lft.to/lastmile_qr_scan"}, "type": "electric_bike", "name": "69d3cafe2fc0fe443b05620a4d5ac151", "is_reserved": 0, "lon": -77.00401616666667, "is_disabled": 0, "fusion_lat": 0.0, "lat": 38.92116733333334, "bike_id": "69d3cafe2fc0fe443b05620a4d5ac151", "fusion_lon": 0.0}, {"rental_uris": {"ios": "https://dc.lft.to/lastmile_qr_scan", "android": "https://dc.lft.to/lastmile_qr_scan"}, "type": "electric_bike", "name": "69f8f0f8700cee4de8ca6c0adf5ed2dd", "is_reserved": 0, "lon": -76.9805795, "is_disabled": 0, "fusion_lat": 0.0, "lat": 38.972475333333335, "bike_id": "69f8f0f8700cee4de8ca6c0adf5ed2dd", "fusion_lon": 0.0}, {"rental_uris": {"ios": "https://dc.lft.to/lastmile_qr_scan", "android": "https://dc.lft.to/lastmile_qr_scan"}, "type": "electric_scooter", "name": "4eec9ab54cbf5bf2a6528fba4c817575", "is_reserved": 0, "lon": -77.00652766666667, "is_disabled": 0, "fusion_lat": 0.0, "lat": 38.9124725, "bike_id": "4eec9ab54cbf5bf2a6528fba4c817575", "fusion_lon": 0.0}, {"rental_uris": {"ios": "https://dc.lft.to/lastmile_qr_scan", "android": "https://dc.lft.to/lastmile_qr_scan"}, "type": "electric_scooter", "name": "61dbb7d82996933269ff98748a643dcb", "is_reserved": 0, "lon": -77.02405083333333, "is_disabled": 0, "fusion_lat": 0.0, "lat": 38.94505483333333, "bike_id": "61dbb7d82996933269ff98748a643dcb", "fusion_lon": 0.0}, {"rental_uris": {"ios": "https://dc.lft.to/lastmile_qr_scan", "android": "https://dc.lft.to/lastmile_qr_scan"}, "type": "electric_bike", "name": "b4a84e3b0c8b6dcce881aed7128630a4", "is_reserved": 0, "lon": -77.0241675, "is_disabled": 0, "fusion_lat": 0.0, "lat": 38.949078666666665, "bike_id": "b4a84e3b0c8b6dcce881aed7128630a4", "fusion_lon": 0.0}, {"rental_uris": {"ios": "https://dc.lft.to/lastmile_qr_scan", "android": "https://dc.lft.to/lastmile_qr_scan"}, "type": "electric_scooter", "name": "072e1e6cd5b172254770fd97a5cf21cc", "is_reserved": 0, "lon": -77.00483233333334, "is_disabled": 0, "fusion_lat": 0.0, "lat": 38.8745765, "bike_id": "072e1e6cd5b172254770fd97a5cf21cc", "fusion_lon": 0.0}, {"rental_uris": {"ios": "https://dc.lft.to/lastmile_qr_scan", "android": "https://dc.lft.to/lastmile_qr_scan"}, "type": "electric_scooter", "name": "130c50d8ea3f10beba29aacc07c3e042", "is_reserved": 0, "lon": -77.01902166666666, "is_disabled": 0, "fusion_lat": 0.0, "lat": 38.87464166666667, "bike_id": "130c50d8ea3f10beba29aacc07c3e042", "fusion_lon": 0.0}, {"rental_uris": {"ios": "https://dc.lft.to/lastmile_qr_scan", "android": "https://dc.lft.to/lastmile_qr_scan"}, "type": "electric_scooter", "name": "bdaec68adbc0a5ace6e3eea6969fe73f", "is_reserved": 0, "lon": -77.042715, "is_disabled": 0, "fusion_lat": 0.0, "lat": 38.91038533333333, "bike_id": "bdaec68adbc0a5ace6e3eea6969fe73f", "fusion_lon": 0.0}, {"rental_uris": {"ios": "https://dc.lft.to/lastmile_qr_scan", "android": "https://dc.lft.to/lastmile_qr_scan"}, "type": "electric_scooter", "name": "e9b49ca6c39e9ef148c172a3b659409c", "is_reserved": 0, "lon": -77.036841, "is_disabled": 0, "fusion_lat": 0.0, "lat": 38.93929116666666, "bike_id": "e9b49ca6c39e9ef148c172a3b659409c", "fusion_lon": 0.0}, {"rental_uris": {"ios": "https://dc.lft.to/lastmile_qr_scan", "android": "https://dc.lft.to/lastmile_qr_scan"}, "type": "electric_scooter", "name": "807c629cb48275ed71e4922543c26973", "is_reserved": 0, "lon": -77.03993533333333, "is_disabled": 0, "fusion_lat": 0.0, "lat": 38.9340085, "bike_id": "807c629cb48275ed71e4922543c26973", "fusion_lon": 0.0}, {"rental_uris": {"ios": "https://dc.lft.to/lastmile_qr_scan", "android": "https://dc.lft.to/lastmile_qr_scan"}, "type": "electric_scooter", "name": "250424dff3f57fd606bbd94f6e5a4f0c", "is_reserved": 0, "lon": -77.02422366666667, "is_disabled": 0, "fusion_lat": 0.0, "lat": 38.915649, "bike_id": "250424dff3f57fd606bbd94f6e5a4f0c", "fusion_lon": 0.0}, {"rental_uris": {"ios": "https://dc.lft.to/lastmile_qr_scan", "android": "https://dc.lft.to/lastmile_qr_scan"}, "type": "electric_scooter", "name": "d42c6285937878f0977e062e140cdcd4", "is_reserved": 0, "lon": -77.0437975, "is_disabled": 0, "fusion_lat": 0.0, "lat": 38.931534166666665, "bike_id": "d42c6285937878f0977e062e140cdcd4", "fusion_lon": 0.0}, {"rental_uris": {"ios": "https://dc.lft.to/lastmile_qr_scan", "android": "https://dc.lft.to/lastmile_qr_scan"}, "type": "electric_scooter", "name": "993bed8525b825a14639f0001b19cb70", "is_reserved": 0, "lon": -77.05638816666666, "is_disabled": 0, "fusion_lat": 0.0, "lat": 38.93594566666667, "bike_id": "993bed8525b825a14639f0001b19cb70", "fusion_lon": 0.0}, {"rental_uris": {"ios": "https://dc.lft.to/lastmile_qr_scan", "android": "https://dc.lft.to/lastmile_qr_scan"}, "type": "electric_scooter", "name": "6d646507c415b3d3275e8efdb4f040d8", "is_reserved": 0, "lon": -77.04689683333334, "is_disabled": 0, "fusion_lat": 0.0, "lat": 38.897348, "bike_id": "6d646507c415b3d3275e8efdb4f040d8", "fusion_lon": 0.0}, {"rental_uris": {"ios": "https://dc.lft.to/lastmile_qr_scan", "android": "https://dc.lft.to/lastmile_qr_scan"}, "type": "electric_scooter", "name": "fec92de11eed9682bbca140acba8204b", "is_reserved": 0, "lon": -77.02820316666667, "is_disabled": 0, "fusion_lat": 0.0, "lat": 38.89225666666667, "bike_id": "fec92de11eed9682bbca140acba8204b", "fusion_lon": 0.0}, {"rental_uris": {"ios": "https://dc.lft.to/lastmile_qr_scan", "android": "https://dc.lft.to/lastmile_qr_scan"}, "type": "electric_scooter", "name": "ab6395c3abc66bb1ca56d9f0959211e7", "is_reserved": 0, "lon": -77.03264783333333, "is_disabled": 0, "fusion_lat": 0.0, "lat": 38.910430833333336, "bike_id": "ab6395c3abc66bb1ca56d9f0959211e7", "fusion_lon": 0.0}, {"rental_uris": {"ios": "https://dc.lft.to/lastmile_qr_scan", "android": "https://dc.lft.to/lastmile_qr_scan"}, "type": "electric_scooter", "name": "326bc662ae19fe05bb683f269f5f4412", "is_reserved": 0, "lon": -77.01201533333334, "is_disabled": 0, "fusion_lat": 0.0, "lat": 38.90031116666667, "bike_id": "326bc662ae19fe05bb683f269f5f4412", "fusion_lon": 0.0}, {"rental_uris": {"ios": "https://dc.lft.to/lastmile_qr_scan", "android": "https://dc.lft.to/lastmile_qr_scan"}, "type": "electric_scooter", "name": "2abee9106af935af3fe3aac6436a15cb", "is_reserved": 0, "lon": -77.03279233333333, "is_disabled": 0, "fusion_lat": 0.0, "lat": 38.919991, "bike_id": "2abee9106af935af3fe3aac6436a15cb", "fusion_lon": 0.0}, {"rental_uris": {"ios": "https://dc.lft.to/lastmile_qr_scan", "android": "https://dc.lft.to/lastmile_qr_scan"}, "type": "electric_scooter", "name": "4014931415b56accf962bc55baaa1df6", "is_reserved": 0, "lon": -77.03906866666667, "is_disabled": 0, "fusion_lat": 0.0, "lat": 38.91421916666667, "bike_id": "4014931415b56accf962bc55baaa1df6", "fusion_lon": 0.0}, {"rental_uris": {"ios": "https://dc.lft.to/lastmile_qr_scan", "android": "https://dc.lft.to/lastmile_qr_scan"}, "type": "electric_scooter", "name": "827009a504b3aab0a2565b23d7802415", "is_reserved": 0, "lon": -77.04520633333334, "is_disabled": 0, "fusion_lat": 0.0, "lat": 38.91917516666667, "bike_id": "827009a504b3aab0a2565b23d7802415", "fusion_lon": 0.0}, {"rental_uris": {"ios": "https://dc.lft.to/lastmile_qr_scan", "android": "https://dc.lft.to/lastmile_qr_scan"}, "type": "electric_scooter", "name": "78cb75823972e414ce46e3d4d36700f8", "is_reserved": 0, "lon": -77.03632433333334, "is_disabled": 0, "fusion_lat": 0.0, "lat": 38.9259385, "bike_id": "78cb75823972e414ce46e3d4d36700f8", "fusion_lon": 0.0}, {"rental_uris": {"ios": "https://dc.lft.to/lastmile_qr_scan", "android": "https://dc.lft.to/lastmile_qr_scan"}, "type": "electric_scooter", "name": "af20b29627eeb5653079d3178f78d8ba", "is_reserved": 0, "lon": -77.07241883333333, "is_disabled": 0, "fusion_lat": 0.0, "lat": 38.93446, "bike_id": "af20b29627eeb5653079d3178f78d8ba", "fusion_lon": 0.0}, {"rental_uris": {"ios": "https://dc.lft.to/lastmile_qr_scan", "android": "https://dc.lft.to/lastmile_qr_scan"}, "type": "electric_bike", "name": "90acdca1fe2c970b2252ac5370a46df2", "is_reserved": 0, "lon": -77.065285, "is_disabled": 0, "fusion_lat": 0.0, "lat": 38.99227366666667, "bike_id": "90acdca1fe2c970b2252ac5370a46df2", "fusion_lon": 0.0}, {"rental_uris": {"ios": "https://dc.lft.to/lastmile_qr_scan", "android": "https://dc.lft.to/lastmile_qr_scan"}, "type": "electric_scooter", "name": "58d3b5c52baaffc74f622874af08e41b", "is_reserved": 0, "lon": -77.05506583333333, "is_disabled": 0, "fusion_lat": 0.0, "lat": 38.9284015, "bike_id": "58d3b5c52baaffc74f622874af08e41b", "fusion_lon": 0.0}, {"rental_uris": {"ios": "https://dc.lft.to/lastmile_qr_scan", "android": "https://dc.lft.to/lastmile_qr_scan"}, "type": "electric_bike", "name": "2a12ed7aa508fe8f166083bddc5e6037", "is_reserved": 0, "lon": -77.03277883333334, "is_disabled": 0, "fusion_lat": 0.0, "lat": 38.940910833333334, "bike_id": "2a12ed7aa508fe8f166083bddc5e6037", "fusion_lon": 0.0}, {"rental_uris": {"ios": "https://dc.lft.to/lastmile_qr_scan", "android": "https://dc.lft.to/lastmile_qr_scan"}, "type": "electric_scooter", "name": "1dff8efac24cc8edde7d8775ff189b9a", "is_reserved": 0, "lon": -77.0259825, "is_disabled": 0, "fusion_lat": 0.0, "lat": 38.946072, "bike_id": "1dff8efac24cc8edde7d8775ff189b9a", "fusion_lon": 0.0}, {"rental_uris": {"ios": "https://dc.lft.to/lastmile_qr_scan", "android": "https://dc.lft.to/lastmile_qr_scan"}, "type": "electric_scooter", "name": "77e1effc36fe4aad3c9ae782b214781d", "is_reserved": 0, "lon": -77.0156505, "is_disabled": 0, "fusion_lat": 0.0, "lat": 38.876335166666664, "bike_id": "77e1effc36fe4aad3c9ae782b214781d", "fusion_lon": 0.0}, {"rental_uris": {"ios": "https://dc.lft.to/lastmile_qr_scan", "android": "https://dc.lft.to/lastmile_qr_scan"}, "type": "electric_bike", "name": "58f18ee13be7dc2f0ae05fa1ecabdec2", "is_reserved": 0, "lon": -77.21666283333333, "is_disabled": 0, "fusion_lat": 0.0, "lat": 38.895039, "bike_id": "58f18ee13be7dc2f0ae05fa1ecabdec2", "fusion_lon": 0.0}, {"rental_uris": {"ios": "https://dc.lft.to/lastmile_qr_scan", "android": "https://dc.lft.to/lastmile_qr_scan"}, "type": "electric_scooter", "name": "2f6ec4aec03d0eed772963d63cec6549", "is_reserved": 0, "lon": -77.01513, "is_disabled": 0, "fusion_lat": 0.0, "lat": 38.90975016666667, "bike_id": "2f6ec4aec03d0eed772963d63cec6549", "fusion_lon": 0.0}, {"rental_uris": {"ios": "https://dc.lft.to/lastmile_qr_scan", "android": "https://dc.lft.to/lastmile_qr_scan"}, "type": "electric_scooter", "name": "30cf5d35347e7d053a0a20c58d7e0b84", "is_reserved": 0, "lon": -77.0153045, "is_disabled": 0, "fusion_lat": 0.0, "lat": 38.902703, "bike_id": "30cf5d35347e7d053a0a20c58d7e0b84", "fusion_lon": 0.0}, {"rental_uris": {"ios": "https://dc.lft.to/lastmile_qr_scan", "android": "https://dc.lft.to/lastmile_qr_scan"}, "type": "electric_scooter", "name": "1c32da0a80217c460acd1e9e3d95a0fe", "is_reserved": 0, "lon": -77.04129, "is_disabled": 0, "fusion_lat": 0.0, "lat": 38.933865, "bike_id": "1c32da0a80217c460acd1e9e3d95a0fe", "fusion_lon": 0.0}, {"rental_uris": {"ios": "https://dc.lft.to/lastmile_qr_scan", "android": "https://dc.lft.to/lastmile_qr_scan"}, "type": "electric_bike", "name": "bb62b8d6160c501e544cde691784df68", "is_reserved": 0, "lon": -77.09723766666667, "is_disabled": 0, "fusion_lat": 0.0, "lat": 38.80740566666667, "bike_id": "bb62b8d6160c501e544cde691784df68", "fusion_lon": 0.0}, {"rental_uris": {"ios": "https://dc.lft.to/lastmile_qr_scan", "android": "https://dc.lft.to/lastmile_qr_scan"}, "type": "electric_scooter", "name": "a074477fdbdd9afc60e12f855a8374b9", "is_reserved": 0, "lon": -77.0387, "is_disabled": 0, "fusion_lat": 0.0, "lat": 38.912664, "bike_id": "a074477fdbdd9afc60e12f855a8374b9", "fusion_lon": 0.0}, {"rental_uris": {"ios": "https://dc.lft.to/lastmile_qr_scan", "android": "https://dc.lft.to/lastmile_qr_scan"}, "type": "electric_scooter", "name": "22f567a45d22f2cc7b9e9acfb98f190c", "is_reserved": 0, "lon": -77.00591066666667, "is_disabled": 0, "fusion_lat": 0.0, "lat": 38.900361833333335, "bike_id": "22f567a45d22f2cc7b9e9acfb98f190c", "fusion_lon": 0.0}, {"rental_uris": {"ios": "https://dc.lft.to/lastmile_qr_scan", "android": "https://dc.lft.to/lastmile_qr_scan"}, "type": "electric_scooter", "name": "ca2dd1d0f25f563b4539b9a390bfb728", "is_reserved": 0, "lon": -77.046786, "is_disabled": 0, "fusion_lat": 0.0, "lat": 38.907191, "bike_id": "ca2dd1d0f25f563b4539b9a390bfb728", "fusion_lon": 0.0}, {"rental_uris": {"ios": "https://dc.lft.to/lastmile_qr_scan", "android": "https://dc.lft.to/lastmile_qr_scan"}, "type": "electric_scooter", "name": "8f6846dfc680a2b997623b16425720c7", "is_reserved": 0, "lon": -76.99033850000001, "is_disabled": 0, "fusion_lat": 0.0, "lat": 38.8887495, "bike_id": "8f6846dfc680a2b997623b16425720c7", "fusion_lon": 0.0}, {"rental_uris": {"ios": "https://dc.lft.to/lastmile_qr_scan", "android": "https://dc.lft.to/lastmile_qr_scan"}, "type": "electric_scooter", "name": "8059974a33cafab741d89c5daaf64a6a", "is_reserved": 0, "lon": -77.068054, "is_disabled": 0, "fusion_lat": 0.0, "lat": 38.905215, "bike_id": "8059974a33cafab741d89c5daaf64a6a", "fusion_lon": 0.0}, {"rental_uris": {"ios": "https://dc.lft.to/lastmile_qr_scan", "android": "https://dc.lft.to/lastmile_qr_scan"}, "type": "electric_scooter", "name": "dc6548ca1c033ffc41f33be4c7e4f9c8", "is_reserved": 0, "lon": -77.07202183333334, "is_disabled": 0, "fusion_lat": 0.0, "lat": 38.912594, "bike_id": "dc6548ca1c033ffc41f33be4c7e4f9c8", "fusion_lon": 0.0}, {"rental_uris": {"ios": "https://dc.lft.to/lastmile_qr_scan", "android": "https://dc.lft.to/lastmile_qr_scan"}, "type": "electric_scooter", "name": "8c4bafbc13d5bcc3bfa728a35a7ce0f9", "is_reserved": 0, "lon": -77.00483383333334, "is_disabled": 0, "fusion_lat": 0.0, "lat": 38.87458933333333, "bike_id": "8c4bafbc13d5bcc3bfa728a35a7ce0f9", "fusion_lon": 0.0}, {"rental_uris": {"ios": "https://dc.lft.to/lastmile_qr_scan", "android": "https://dc.lft.to/lastmile_qr_scan"}, "type": "electric_scooter", "name": "191c68def0d46f11c4223ea50f92e33a", "is_reserved": 0, "lon": -77.023448, "is_disabled": 0, "fusion_lat": 0.0, "lat": 38.88133716666667, "bike_id": "191c68def0d46f11c4223ea50f92e33a", "fusion_lon": 0.0}, {"rental_uris": {"ios": "https://dc.lft.to/lastmile_qr_scan", "android": "https://dc.lft.to/lastmile_qr_scan"}, "type": "electric_scooter", "name": "681fb0b4b837918ba52d17755d2c5d23", "is_reserved": 0, "lon": -77.00406033333333, "is_disabled": 0, "fusion_lat": 0.0, "lat": 38.874725833333336, "bike_id": "681fb0b4b837918ba52d17755d2c5d23", "fusion_lon": 0.0}, {"rental_uris": {"ios": "https://dc.lft.to/lastmile_qr_scan", "android": "https://dc.lft.to/lastmile_qr_scan"}, "type": "electric_scooter", "name": "7365913f431ed4e2d039e050be9d1f9e", "is_reserved": 0, "lon": -77.01640483333334, "is_disabled": 0, "fusion_lat": 0.0, "lat": 38.91586683333333, "bike_id": "7365913f431ed4e2d039e050be9d1f9e", "fusion_lon": 0.0}, {"rental_uris": {"ios": "https://dc.lft.to/lastmile_qr_scan", "android": "https://dc.lft.to/lastmile_qr_scan"}, "type": "electric_scooter", "name": "40f9f47db671e3d7c475bef1e67aaa44", "is_reserved": 0, "lon": -77.04121166666667, "is_disabled": 0, "fusion_lat": 0.0, "lat": 38.9211465, "bike_id": "40f9f47db671e3d7c475bef1e67aaa44", "fusion_lon": 0.0}, {"rental_uris": {"ios": "https://dc.lft.to/lastmile_qr_scan", "android": "https://dc.lft.to/lastmile_qr_scan"}, "type": "electric_scooter", "name": "ff27df0c19c7ac16d3b7f4236c57ffed", "is_reserved": 0, "lon": -77.04612133333333, "is_disabled": 0, "fusion_lat": 0.0, "lat": 38.90141166666667, "bike_id": "ff27df0c19c7ac16d3b7f4236c57ffed", "fusion_lon": 0.0}, {"rental_uris": {"ios": "https://dc.lft.to/lastmile_qr_scan", "android": "https://dc.lft.to/lastmile_qr_scan"}, "type": "electric_scooter", "name": "2bd6cf5188d7a1c164c20c3ed07d22bd", "is_reserved": 0, "lon": -76.998701, "is_disabled": 0, "fusion_lat": 0.0, "lat": 38.900279166666664, "bike_id": "2bd6cf5188d7a1c164c20c3ed07d22bd", "fusion_lon": 0.0}, {"rental_uris": {"ios": "https://dc.lft.to/lastmile_qr_scan", "android": "https://dc.lft.to/lastmile_qr_scan"}, "type": "electric_scooter", "name": "00e198ee3f627f1078779740907e908b", "is_reserved": 0, "lon": -77.02403633333333, "is_disabled": 0, "fusion_lat": 0.0, "lat": 38.938155, "bike_id": "00e198ee3f627f1078779740907e908b", "fusion_lon": 0.0}, {"rental_uris": {"ios": "https://dc.lft.to/lastmile_qr_scan", "android": "https://dc.lft.to/lastmile_qr_scan"}, "type": "electric_scooter", "name": "00745ac76311baa6b174c87853b6cecb", "is_reserved": 0, "lon": -76.99860566666666, "is_disabled": 0, "fusion_lat": 0.0, "lat": 38.90029883333333, "bike_id": "00745ac76311baa6b174c87853b6cecb", "fusion_lon": 0.0}, {"rental_uris": {"ios": "https://dc.lft.to/lastmile_qr_scan", "android": "https://dc.lft.to/lastmile_qr_scan"}, "type": "electric_scooter", "name": "3452d13edfb64d57dd77755d47ad643b", "is_reserved": 0, "lon": -77.06486983333333, "is_disabled": 0, "fusion_lat": 0.0, "lat": 38.92697833333333, "bike_id": "3452d13edfb64d57dd77755d47ad643b", "fusion_lon": 0.0}, {"rental_uris": {"ios": "https://dc.lft.to/lastmile_qr_scan", "android": "https://dc.lft.to/lastmile_qr_scan"}, "type": "electric_scooter", "name": "4e4435a4d816ba72dff6c223fe63aaf7", "is_reserved": 0, "lon": -76.9938255, "is_disabled": 0, "fusion_lat": 0.0, "lat": 38.893342, "bike_id": "4e4435a4d816ba72dff6c223fe63aaf7", "fusion_lon": 0.0}, {"rental_uris": {"ios": "https://dc.lft.to/lastmile_qr_scan", "android": "https://dc.lft.to/lastmile_qr_scan"}, "type": "electric_scooter", "name": "a54e6e61ea63ce519e05dbcd9d15517c", "is_reserved": 0, "lon": -77.02683983333333, "is_disabled": 0, "fusion_lat": 0.0, "lat": 38.9248635, "bike_id": "a54e6e61ea63ce519e05dbcd9d15517c", "fusion_lon": 0.0}, {"rental_uris": {"ios": "https://dc.lft.to/lastmile_qr_scan", "android": "https://dc.lft.to/lastmile_qr_scan"}, "type": "electric_scooter", "name": "9d38f499177ae4b22e14b9dd940fb2db", "is_reserved": 0, "lon": -77.045263, "is_disabled": 0, "fusion_lat": 0.0, "lat": 38.9110535, "bike_id": "9d38f499177ae4b22e14b9dd940fb2db", "fusion_lon": 0.0}, {"rental_uris": {"ios": "https://dc.lft.to/lastmile_qr_scan", "android": "https://dc.lft.to/lastmile_qr_scan"}, "type": "electric_scooter", "name": "5686f821c131b8355322e096e0baca79", "is_reserved": 0, "lon": -76.98454516666666, "is_disabled": 0, "fusion_lat": 0.0, "lat": 38.90016216666667, "bike_id": "5686f821c131b8355322e096e0baca79", "fusion_lon": 0.0}, {"rental_uris": {"ios": "https://dc.lft.to/lastmile_qr_scan", "android": "https://dc.lft.to/lastmile_qr_scan"}, "type": "electric_scooter", "name": "827c0ef73967f1369cfa90c55c12f415", "is_reserved": 0, "lon": -77.0247725, "is_disabled": 0, "fusion_lat": 0.0, "lat": 38.918159, "bike_id": "827c0ef73967f1369cfa90c55c12f415", "fusion_lon": 0.0}, {"rental_uris": {"ios": "https://dc.lft.to/lastmile_qr_scan", "android": "https://dc.lft.to/lastmile_qr_scan"}, "type": "electric_scooter", "name": "5f792890262a0a9b1c8b6c8b9a45bf6c", "is_reserved": 0, "lon": -76.991573, "is_disabled": 0, "fusion_lat": 0.0, "lat": 38.888101166666665, "bike_id": "5f792890262a0a9b1c8b6c8b9a45bf6c", "fusion_lon": 0.0}, {"rental_uris": {"ios": "https://dc.lft.to/lastmile_qr_scan", "android": "https://dc.lft.to/lastmile_qr_scan"}, "type": "electric_scooter", "name": "63ac9e8187650f9bc7516b4709384294", "is_reserved": 0, "lon": -77.01976366666666, "is_disabled": 0, "fusion_lat": 0.0, "lat": 38.922498166666664, "bike_id": "63ac9e8187650f9bc7516b4709384294", "fusion_lon": 0.0}, {"rental_uris": {"ios": "https://dc.lft.to/lastmile_qr_scan", "android": "https://dc.lft.to/lastmile_qr_scan"}, "type": "electric_scooter", "name": "c5776f6f7d520f529493d8b7c411f2ca", "is_reserved": 0, "lon": -77.042319, "is_disabled": 0, "fusion_lat": 0.0, "lat": 38.9110635, "bike_id": "c5776f6f7d520f529493d8b7c411f2ca", "fusion_lon": 0.0}, {"rental_uris": {"ios": "https://dc.lft.to/lastmile_qr_scan", "android": "https://dc.lft.to/lastmile_qr_scan"}, "type": "electric_scooter", "name": "bb5e04a8bf365a94b7e6de3e4f18438b", "is_reserved": 0, "lon": -77.000512, "is_disabled": 0, "fusion_lat": 0.0, "lat": 38.874230833333336, "bike_id": "bb5e04a8bf365a94b7e6de3e4f18438b", "fusion_lon": 0.0}, {"rental_uris": {"ios": "https://dc.lft.to/lastmile_qr_scan", "android": "https://dc.lft.to/lastmile_qr_scan"}, "type": "electric_scooter", "name": "bc229f9ce9a0da9e1a67b88346d61c27", "is_reserved": 0, "lon": -77.02846516666666, "is_disabled": 0, "fusion_lat": 0.0, "lat": 38.9044045, "bike_id": "bc229f9ce9a0da9e1a67b88346d61c27", "fusion_lon": 0.0}, {"rental_uris": {"ios": "https://dc.lft.to/lastmile_qr_scan", "android": "https://dc.lft.to/lastmile_qr_scan"}, "type": "electric_scooter", "name": "99ae001c7f8933b0b100fd58d4955b1d", "is_reserved": 0, "lon": -77.0175175, "is_disabled": 0, "fusion_lat": 0.0, "lat": 38.880055, "bike_id": "99ae001c7f8933b0b100fd58d4955b1d", "fusion_lon": 0.0}, {"rental_uris": {"ios": "https://dc.lft.to/lastmile_qr_scan", "android": "https://dc.lft.to/lastmile_qr_scan"}, "type": "electric_scooter", "name": "aa99cc2e925a5ff8409bf7de96b9fe1b", "is_reserved": 0, "lon": -77.06146766666667, "is_disabled": 0, "fusion_lat": 0.0, "lat": 38.91296666666667, "bike_id": "aa99cc2e925a5ff8409bf7de96b9fe1b", "fusion_lon": 0.0}, {"rental_uris": {"ios": "https://dc.lft.to/lastmile_qr_scan", "android": "https://dc.lft.to/lastmile_qr_scan"}, "type": "electric_scooter", "name": "cb18c090e9eba8799a37bc31ce5a99ab", "is_reserved": 0, "lon": -77.03796566666666, "is_disabled": 0, "fusion_lat": 0.0, "lat": 38.925330333333335, "bike_id": "cb18c090e9eba8799a37bc31ce5a99ab", "fusion_lon": 0.0}, {"rental_uris": {"ios": "https://dc.lft.to/lastmile_qr_scan", "android": "https://dc.lft.to/lastmile_qr_scan"}, "type": "electric_scooter", "name": "637c02909c288113a0b6ea944dc27164", "is_reserved": 0, "lon": -76.96529883333334, "is_disabled": 0, "fusion_lat": 0.0, "lat": 38.87627766666667, "bike_id": "637c02909c288113a0b6ea944dc27164", "fusion_lon": 0.0}, {"rental_uris": {"ios": "https://dc.lft.to/lastmile_qr_scan", "android": "https://dc.lft.to/lastmile_qr_scan"}, "type": "electric_scooter", "name": "cbc72e97a0492d464fbef75380699234", "is_reserved": 0, "lon": -77.00110633333334, "is_disabled": 0, "fusion_lat": 0.0, "lat": 38.902453333333334, "bike_id": "cbc72e97a0492d464fbef75380699234", "fusion_lon": 0.0}, {"rental_uris": {"ios": "https://dc.lft.to/lastmile_qr_scan", "android": "https://dc.lft.to/lastmile_qr_scan"}, "type": "electric_scooter", "name": "e4b193f0a0cb8d1091ce0376ad5922e5", "is_reserved": 0, "lon": -77.03863783333334, "is_disabled": 0, "fusion_lat": 0.0, "lat": 38.90806033333333, "bike_id": "e4b193f0a0cb8d1091ce0376ad5922e5", "fusion_lon": 0.0}, {"rental_uris": {"ios": "https://dc.lft.to/lastmile_qr_scan", "android": "https://dc.lft.to/lastmile_qr_scan"}, "type": "electric_scooter", "name": "90368b35de12896099fdcc6ad187a7cf", "is_reserved": 0, "lon": -77.0161645, "is_disabled": 0, "fusion_lat": 0.0, "lat": 38.9060605, "bike_id": "90368b35de12896099fdcc6ad187a7cf", "fusion_lon": 0.0}, {"rental_uris": {"ios": "https://dc.lft.to/lastmile_qr_scan", "android": "https://dc.lft.to/lastmile_qr_scan"}, "type": "electric_scooter", "name": "896d19fd21cc91061c34b1905dbb917b", "is_reserved": 0, "lon": -77.03184016666667, "is_disabled": 0, "fusion_lat": 0.0, "lat": 38.9182685, "bike_id": "896d19fd21cc91061c34b1905dbb917b", "fusion_lon": 0.0}, {"rental_uris": {"ios": "https://dc.lft.to/lastmile_qr_scan", "android": "https://dc.lft.to/lastmile_qr_scan"}, "type": "electric_scooter", "name": "cbcb6abeedaeeefd7b0019d904b06838", "is_reserved": 0, "lon": -76.99214283333333, "is_disabled": 0, "fusion_lat": 0.0, "lat": 38.889724, "bike_id": "cbcb6abeedaeeefd7b0019d904b06838", "fusion_lon": 0.0}, {"rental_uris": {"ios": "https://dc.lft.to/lastmile_qr_scan", "android": "https://dc.lft.to/lastmile_qr_scan"}, "type": "electric_scooter", "name": "64acae946705c9816a6a0662d9d8a679", "is_reserved": 0, "lon": -76.99474866666667, "is_disabled": 0, "fusion_lat": 0.0, "lat": 38.8621015, "bike_id": "64acae946705c9816a6a0662d9d8a679", "fusion_lon": 0.0}, {"rental_uris": {"ios": "https://dc.lft.to/lastmile_qr_scan", "android": "https://dc.lft.to/lastmile_qr_scan"}, "type": "electric_scooter", "name": "8ddfcf822d2f1874e4830e523211f7f0", "is_reserved": 0, "lon": -77.03447566666667, "is_disabled": 0, "fusion_lat": 0.0, "lat": 38.90735866666667, "bike_id": "8ddfcf822d2f1874e4830e523211f7f0", "fusion_lon": 0.0}, {"rental_uris": {"ios": "https://dc.lft.to/lastmile_qr_scan", "android": "https://dc.lft.to/lastmile_qr_scan"}, "type": "electric_scooter", "name": "c38884c4a9cd291c5f865c087d1704d2", "is_reserved": 0, "lon": -76.99003283333333, "is_disabled": 0, "fusion_lat": 0.0, "lat": 38.86427466666667, "bike_id": "c38884c4a9cd291c5f865c087d1704d2", "fusion_lon": 0.0}, {"rental_uris": {"ios": "https://dc.lft.to/lastmile_qr_scan", "android": "https://dc.lft.to/lastmile_qr_scan"}, "type": "electric_bike", "name": "55295b0c0f0f8a4ec334080ffc6b6bd5", "is_reserved": 0, "lon": -76.977037, "is_disabled": 0, "fusion_lat": 0.0, "lat": 38.822052, "bike_id": "55295b0c0f0f8a4ec334080ffc6b6bd5", "fusion_lon": 0.0}, {"rental_uris": {"ios": "https://dc.lft.to/lastmile_qr_scan", "android": "https://dc.lft.to/lastmile_qr_scan"}, "type": "electric_scooter", "name": "e00c29cada72527f9451e19e06afde25", "is_reserved": 0, "lon": -77.03857233333333, "is_disabled": 0, "fusion_lat": 0.0, "lat": 38.9247595, "bike_id": "e00c29cada72527f9451e19e06afde25", "fusion_lon": 0.0}, {"rental_uris": {"ios": "https://dc.lft.to/lastmile_qr_scan", "android": "https://dc.lft.to/lastmile_qr_scan"}, "type": "electric_scooter", "name": "5c0fe61fb79f575ab9d82ca56180eb75", "is_reserved": 0, "lon": -77.03821266666667, "is_disabled": 0, "fusion_lat": 0.0, "lat": 38.930596333333334, "bike_id": "5c0fe61fb79f575ab9d82ca56180eb75", "fusion_lon": 0.0}, {"rental_uris": {"ios": "https://dc.lft.to/lastmile_qr_scan", "android": "https://dc.lft.to/lastmile_qr_scan"}, "type": "electric_scooter", "name": "f07286d28a857dc2df9863f71cd43994", "is_reserved": 0, "lon": -76.9374285, "is_disabled": 0, "fusion_lat": 0.0, "lat": 38.89014483333333, "bike_id": "f07286d28a857dc2df9863f71cd43994", "fusion_lon": 0.0}, {"rental_uris": {"ios": "https://dc.lft.to/lastmile_qr_scan", "android": "https://dc.lft.to/lastmile_qr_scan"}, "type": "electric_bike", "name": "7fcdaa9d55fbd491f81c41772f544159", "is_reserved": 0, "lon": -77.083173, "is_disabled": 0, "fusion_lat": 0.0, "lat": 38.8544105, "bike_id": "7fcdaa9d55fbd491f81c41772f544159", "fusion_lon": 0.0}, {"rental_uris": {"ios": "https://dc.lft.to/lastmile_qr_scan", "android": "https://dc.lft.to/lastmile_qr_scan"}, "type": "electric_scooter", "name": "a64b4303a9c8dec46f01f059097ed97a", "is_reserved": 0, "lon": -76.96544583333333, "is_disabled": 0, "fusion_lat": 0.0, "lat": 38.878856166666665, "bike_id": "a64b4303a9c8dec46f01f059097ed97a", "fusion_lon": 0.0}, {"rental_uris": {"ios": "https://dc.lft.to/lastmile_qr_scan", "android": "https://dc.lft.to/lastmile_qr_scan"}, "type": "electric_scooter", "name": "ed8e7799bd40af6e2fca3e3c6e63c7a2", "is_reserved": 0, "lon": -77.022968, "is_disabled": 0, "fusion_lat": 0.0, "lat": 38.89856983333333, "bike_id": "ed8e7799bd40af6e2fca3e3c6e63c7a2", "fusion_lon": 0.0},