{"data": {"bikes": [{"fusion_lat": 0.0, "type": "electric_scooter", "name": "9182c6b42d2731fdfab072c7bf64d163", "fusion_lon": 0.0, "bike_id": "9182c6b42d2731fdfab072c7bf64d163", "is_reserved": 0, "rental_uris": {"android": "https://dc.lft.to/lastmile_qr_scan", "ios": "https://dc.lft.to/lastmile_qr_scan"}, "lat": 38.883658833333335, "is_disabled": 0, "lon": -76.9950545}, {"fusion_lat": 0.0, "type": "electric_scooter", "name": "0a5963075eb5a402813e147c084df9f3", "fusion_lon": 0.0, "bike_id": "0a5963075eb5a402813e147c084df9f3", "is_reserved": 0, "rental_uris": {"android": "https://dc.lft.to/lastmile_qr_scan", "ios": "https://dc.lft.to/lastmile_qr_scan"}, "lat": 38.92246266666667, "is_disabled": 0, "lon": -77.00919633333334}, {"fusion_lat": 0.0, "type": "electric_scooter", "name": "6894fa1b78314a98d8625a3e51b27ab5", "fusion_lon": 0.0, "bike_id": "6894fa1b78314a98d8625a3e51b27ab5", "is_reserved": 0, "rental_uris": {"android": "https://dc.lft.to/lastmile_qr_scan", "ios": "https://dc.lft.to/lastmile_qr_scan"}, "lat": 38.86415366666667, "is_disabled": 0, "lon": -77.0121475}, {"fusion_lat": 0.0, "type": "electric_scooter", "name": "a6bb1f805b4259910d745c3267df22d4", "fusion_lon": 0.0, "bike_id": "a6bb1f805b4259910d745c3267df22d4", "is_reserved": 0, "rental_uris": {"android": "https://dc.lft.to/lastmile_qr_scan", "ios": "https://dc.lft.to/lastmile_qr_scan"}, "lat": 38.873612, "is_disabled": 0, "lon": -77.00614216666666}, {"fusion_lat": 0.0, "type": "electric_scooter", "name": "3b25f2fe9fb666f9ef3737d595e35601", "fusion_lon": 0.0, "bike_id": "3b25f2fe9fb666f9ef3737d595e35601", "is_reserved": 0, "rental_uris": {"android": "https://dc.lft.to/lastmile_qr_scan", "ios": "https://dc.lft.to/lastmile_qr_scan"}, "lat": 38.915622666666664, "is_disabled": 0, "lon": -77.025833}, {"fusion_lat": 0.0, "type": "electric_scooter", "name": "25e84fee1967797737927783427f4548", "fusion_lon": 0.0, "bike_id": "25e84fee1967797737927783427f4548", "is_reserved": 0, "rental_uris": {"android": "https://dc.lft.to/lastmile_qr_scan", "ios": "https://dc.lft.to/lastmile_qr_scan"}, "lat": 38.91280883333334, "is_disabled": 0, "lon": -77.02246916666667}, {"fusion_lat": 0.0, "type": "electric_scooter", "name": "69e6c6e6af9d33c3a11d78b5d0253272", "fusion_lon": 0.0, "bike_id": "69e6c6e6af9d33c3a11d78b5d0253272", "is_reserved": 0, "rental_uris": {"android": "https://dc.lft.to/lastmile_qr_scan", "ios": "https://dc.lft.to/lastmile_qr_scan"}, "lat": 38.906068833333336, "is_disabled": 0, "lon": -77.03976966666667}, {"fusion_lat": 0.0, "type": "electric_scooter", "name": "e1a100185550e285eb8f981aec922623", "fusion_lon": 0.0, "bike_id": "e1a100185550e285eb8f981aec922623", "is_reserved": 0, "rental_uris": {"android": "https://dc.lft.to/lastmile_qr_scan", "ios": "https://dc.lft.to/lastmile_qr_scan"}, "lat": 38.941999333333335, "is_disabled": 0, "lon": -77.02502}, {"fusion_lat": 0.0, "type": "electric_scooter", "name": "710aa4259d88f669d019bb089a2df9e8", "fusion_lon": 0.0, "bike_id": "710aa4259d88f669d019bb089a2df9e8", "is_reserved": 0, "rental_uris": {"android": "https://dc.lft.to/lastmile_qr_scan", "ios": "https://dc.lft.to/lastmile_qr_scan"}, "lat": 38.92919216666667, "is_disabled": 0, "lon": -77.0373715}, {"fusion_lat": 0.0, "type": "electric_scooter", "name": "c2776a4c9232e6520c51e317b7ab3bc4", "fusion_lon": 0.0, "bike_id": "c2776a4c9232e6520c51e317b7ab3bc4", "is_reserved": 0, "rental_uris": {"android": "https://dc.lft.to/lastmile_qr_scan", "ios": "https://dc.lft.to/lastmile_qr_scan"}, "lat": 38.892209, "is_disabled": 0, "lon": -77.04374233333333}, {"fusion_lat": 0.0, "type": "electric_bike", "name": "bfa9cf83e78d97225cf8ef4c7a944210", "fusion_lon": 0.0, "bike_id": "bfa9cf83e78d97225cf8ef4c7a944210", "is_reserved": 0, "rental_uris": {"android": "https://dc.lft.to/lastmile_qr_scan", "ios": "https://dc.lft.to/lastmile_qr_scan"}, "lat": 38.8651925, "is_disabled": 0, "lon": -76.97335266666667}, {"fusion_lat": 0.0, "type": "electric_bike", "name": "961b37839d8ba820523d50f9fd11037d", "fusion_lon": 0.0, "bike_id": "961b37839d8ba820523d50f9fd11037d", "is_reserved": 0, "rental_uris": {"android": "https://dc.lft.to/lastmile_qr_scan", "ios": "https://dc.lft.to/lastmile_qr_scan"}, "lat": 38.962211, "is_disabled": 0, "lon": -76.93495316666667}, {"fusion_lat": 0.0, "type": "electric_scooter", "name": "1b998f21bd5f91b8419cd6c707f6c4f1", "fusion_lon": 0.0, "bike_id": "1b998f21bd5f91b8419cd6c707f6c4f1", "is_reserved": 0, "rental_uris": {"android": "https://dc.lft.to/lastmile_qr_scan", "ios": "https://dc.lft.to/lastmile_qr_scan"}, "lat": 38.932759833333336, "is_disabled": 0, "lon": -77.03282833333333}, {"fusion_lat": 0.0, "type": "electric_scooter", "name": "dbc9c7bc8fe94f01faf006d3a1147360", "fusion_lon": 0.0, "bike_id": "dbc9c7bc8fe94f01faf006d3a1147360", "is_reserved": 0, "rental_uris": {"android": "https://dc.lft.to/lastmile_qr_scan", "ios": "https://dc.lft.to/lastmile_qr_scan"}, "lat": 38.9072575, "is_disabled": 0, "lon": -77.04231566666667}, {"fusion_lat": 0.0, "type": "electric_scooter", "name": "974ceb5de4946e47177a8d71f8cb72f7", "fusion_lon": 0.0, "bike_id": "974ceb5de4946e47177a8d71f8cb72f7", "is_reserved": 0, "rental_uris": {"android": "https://dc.lft.to/lastmile_qr_scan", "ios": "https://dc.lft.to/lastmile_qr_scan"}, "lat": 38.96034783333333, "is_disabled": 0, "lon": -77.0855485}, {"fusion_lat": 0.0, "type": "electric_scooter", "name": "43a80d0e7780c1d0458b8428329f7fcb", "fusion_lon": 0.0, "bike_id": "43a80d0e7780c1d0458b8428329f7fcb", "is_reserved": 0, "rental_uris": {"android": "https://dc.lft.to/lastmile_qr_scan", "ios": "https://dc.lft.to/lastmile_qr_scan"}, "lat": 38.90530066666667, "is_disabled": 0, "lon": -77.0464405}, {"fusion_lat": 0.0, "type": "electric_scooter", "name": "97f1b94b00aa58d6f40f1fd9d2e5a797", "fusion_lon": 0.0, "bike_id": "97f1b94b00aa58d6f40f1fd9d2e5a797", "is_reserved": 0, "rental_uris": {"android": "https://dc.lft.to/lastmile_qr_scan", "ios": "https://dc.lft.to/lastmile_qr_scan"}, "lat": 38.90899433333333, "is_disabled": 0, "lon": -77.018914}, {"fusion_lat": 0.0, "type": "electric_scooter", "name": "486c1539b98a9fd81119f7a0839a3ccb", "fusion_lon": 0.0, "bike_id": "486c1539b98a9fd81119f7a0839a3ccb", "is_reserved": 0, "rental_uris": {"android": "https://dc.lft.to/lastmile_qr_scan", "ios": "https://dc.lft.to/lastmile_qr_scan"}, "lat": 38.9027385, "is_disabled": 0, "lon": -77.0532865}, {"fusion_lat": 0.0, "type": "electric_scooter", "name": "4394d41713c0d55c93ec48e136b9a732", "fusion_lon": 0.0, "bike_id": "4394d41713c0d55c93ec48e136b9a732", "is_reserved": 0, "rental_uris": {"android": "https://dc.lft.to/lastmile_qr_scan", "ios": "https://dc.lft.to/lastmile_qr_scan"}, "lat": 38.92261766666667, "is_disabled": 0, "lon": -77.04303416666667}, {"fusion_lat": 0.0, "type": "electric_scooter", "name": "17f34a103fbee80a5b6a562cb7c4db6c", "fusion_lon": 0.0, "bike_id": "17f34a103fbee80a5b6a562cb7c4db6c", "is_reserved": 0, "rental_uris": {"android": "https://dc.lft.to/lastmile_qr_scan", "ios": "https://dc.lft.to/lastmile_qr_scan"}, "lat": 38.90046866666667, "is_disabled": 0, "lon": -77.04334666666666}, {"fusion_lat": 0.0, "type": "electric_bike", "name": "208c7edbb80ca4583b2499737fbd5845", "fusion_lon": 0.0, "bike_id": "208c7edbb80ca4583b2499737fbd5845", "is_reserved": 0, "rental_uris": {"android": "https://dc.lft.to/lastmile_qr_scan", "ios": "https://dc.lft.to/lastmile_qr_scan"}, "lat": 38.86583666666667, "is_disabled": 0, "lon": -77.0476105}, {"fusion_lat": 0.0, "type": "electric_scooter", "name": "ee37dd295c85927670c2f3b89f007a6a", "fusion_lon": 0.0, "bike_id": "ee37dd295c85927670c2f3b89f007a6a", "is_reserved": 0, "rental_uris": {"android": "https://dc.lft.to/lastmile_qr_scan", "ios": "https://dc.lft.to/lastmile_qr_scan"}, "lat": 38.87463233333333, "is_disabled": 0, "lon": -77.00873866666667}, {"fusion_lat": 0.0, "type": "electric_scooter", "name": "6bdc3aac0720d5d73f7b5978eb98a3f0", "fusion_lon": 0.0, "bike_id": "6bdc3aac0720d5d73f7b5978eb98a3f0", "is_reserved": 0, "rental_uris": {"android": "https://dc.lft.to/lastmile_qr_scan", "ios": "https://dc.lft.to/lastmile_qr_scan"}, "lat": 38.939601, "is_disabled": 0, "lon": -77.0724505}, {"fusion_lat": 0.0, "type": "electric_scooter", "name": "0e338d3fc6b769ccfb78205e4846c5eb", "fusion_lon": 0.0, "bike_id": "0e338d3fc6b769ccfb78205e4846c5eb", "is_reserved": 0, "rental_uris": {"android": "https://dc.lft.to/lastmile_qr_scan", "ios": "https://dc.lft.to/lastmile_qr_scan"}, "lat": 38.865025, "is_disabled": 0, "lon": -76.99002716666666}, {"fusion_lat": 0.0, "type": "electric_scooter", "name": "1bc068c5f84c9151b1df0eb1848c3250", "fusion_lon": 0.0, "bike_id": "1bc068c5f84c9151b1df0eb1848c3250", "is_reserved": 0, "rental_uris": {"android": "https://dc.lft.to/lastmile_qr_scan", "ios": "https://dc.lft.to/lastmile_qr_scan"}, "lat": 38.939198833333336, "is_disabled": 0, "lon": -77.02480066666666}, {"fusion_lat": 0.0, "type": "electric_scooter", "name": "f4456b3f9d78861edfbb4ed704d627e1", "fusion_lon": 0.0, "bike_id": "f4456b3f9d78861edfbb4ed704d627e1", "is_reserved": 0, "rental_uris": {"android": "https://dc.lft.to/lastmile_qr_scan", "ios": "https://dc.lft.to/lastmile_qr_scan"}, "lat": 38.88747, "is_disabled": 0, "lon": -77.02735716666666}, {"fusion_lat": 0.0, "type": "electric_scooter", "name": "cf41dcb1aba7cf9c75de1f4e02c33e3a", "fusion_lon": 0.0, "bike_id": "cf41dcb1aba7cf9c75de1f4e02c33e3a", "is_reserved": 0, "rental_uris": {"android": "https://dc.lft.to/lastmile_qr_scan", "ios": "https://dc.lft.to/lastmile_qr_scan"}, "lat": 38.919131, "is_disabled": 0, "lon": -77.04463233333334}, {"fusion_lat": 0.0, "type": "electric_scooter", "name": "c7e4a2f653fb90d64fad8b8b63e463bb", "fusion_lon": 0.0, "bike_id": "c7e4a2f653fb90d64fad8b8b63e463bb", "is_reserved": 0, "rental_uris": {"android": "https://dc.lft.to/lastmile_qr_scan", "ios": "https://dc.lft.to/lastmile_qr_scan"}, "lat": 38.922378333333334, "is_disabled": 0, "lon": -77.07313183333333}, {"fusion_lat": 0.0, "type": "electric_scooter", "name": "2c20c982cd372e02c87994bf4a8ae700", "fusion_lon": 0.0, "bike_id": "2c20c982cd372e02c87994bf4a8ae700", "is_reserved": 0, "rental_uris": {"android": "https://dc.lft.to/lastmile_qr_scan", "ios": "https://dc.lft.to/lastmile_qr_scan"}, "lat": 38.90350633333333, "is_disabled": 0, "lon": -77.0611485}, {"fusion_lat": 0.0, "type": "electric_scooter", "name": "eb76ad3bf6d1416e62b33fcf28681190", "fusion_lon": 0.0, "bike_id": "eb76ad3bf6d1416e62b33fcf28681190", "is_reserved": 0, "rental_uris": {"android": "https://dc.lft.to/lastmile_qr_scan", "ios": "https://dc.lft.to/lastmile_qr_scan"}, "lat": 38.93608833333333, "is_disabled": 0, "lon": -77.02917033333334}, {"fusion_lat": 0.0, "type": "electric_scooter", "name": "727bb9e07d0adab7e6fe2ccfdfe7588e", "fusion_lon": 0.0, "bike_id": "727bb9e07d0adab7e6fe2ccfdfe7588e", "is_reserved": 0, "rental_uris": {"android": "https://dc.lft.to/lastmile_qr_scan", "ios": "https://dc.lft.to/lastmile_qr_scan"}, "lat": 38.902929666666665, "is_disabled": 0, "lon": -77.03351983333333}, {"fusion_lat": 0.0, "type": "electric_scooter", "name": "2ab5dce3c8a28d1e494dcc6cb14a8df0", "fusion_lon": 0.0, "bike_id": "2ab5dce3c8a28d1e494dcc6cb14a8df0", "is_reserved": 0, "rental_uris": {"android": "https://dc.lft.to/lastmile_qr_scan", "ios": "https://dc.lft.to/lastmile_qr_scan"}, "lat": 38.90160216666666, "is_disabled": 0, "lon": -77.02297833333333}, {"fusion_lat": 0.0, "type": "electric_scooter", "name": "8d852c89454ff7554b0e9f92aa040154", "fusion_lon": 0.0, "bike_id": "8d852c89454ff7554b0e9f92aa040154", "is_reserved": 0, "rental_uris": {"android": "https://dc.lft.to/lastmile_qr_scan", "ios": "https://dc.lft.to/lastmile_qr_scan"}, "lat": 38.9411675, "is_disabled": 0, "lon": -77.01540016666667}, {"fusion_lat": 0.0, "type": "electric_scooter", "name": "206962b31544e497552019fcf052a099", "fusion_lon": 0.0, "bike_id": "206962b31544e497552019fcf052a099", "is_reserved": 0, "rental_uris": {"android": "https://dc.lft.to/lastmile_qr_scan", "ios": "https://dc.lft.to/lastmile_qr_scan"}, "lat": 38.891948666666664, "is_disabled": 0, "lon": -77.02623633333333}, {"fusion_lat": 0.0, "type": "electric_scooter", "name": "0722e9323f5c0616253a6d1e0ee7c51a", "fusion_lon": 0.0, "bike_id": "0722e9323f5c0616253a6d1e0ee7c51a", "is_reserved": 0, "rental_uris": {"android": "https://dc.lft.to/lastmile_qr_scan", "ios": "https://dc.lft.to/lastmile_qr_scan"}, "lat": 38.91822283333333, "is_disabled": 0, "lon": -77.03014983333334}, {"fusion_lat": 0.0, "type": "electric_scooter", "name": "77498890865646cad9a5b684e7f7e2bd", "fusion_lon": 0.0, "bike_id": "77498890865646cad9a5b684e7f7e2bd", "is_reserved": 0, "rental_uris": {"android": "https://dc.lft.to/lastmile_qr_scan", "ios": "https://dc.lft.to/lastmile_qr_scan"}, "lat": 38.914901, "is_disabled": 0, "lon": -77.01853916666667}, {"fusion_lat": 0.0, "type": "electric_scooter", "name": "5f684d89160325f192fe04eace332376", "fusion_lon": 0.0, "bike_id": "5f684d89160325f192fe04eace332376", "is_reserved": 0, "rental_uris": {"android": "https://dc.lft.to/lastmile_qr_scan", "ios": "https://dc.lft.to/lastmile_qr_scan"}, "lat": 38.836996666666664, "is_disabled": 0, "lon": -77.005692}, {"fusion_lat": 0.0, "type": "electric_scooter", "name": "6207d3373d0bd50a49a907899dd01bc0", "fusion_lon": 0.0, "bike_id": "6207d3373d0bd50a49a907899dd01bc0", "is_reserved": 0, "rental_uris": {"android": "https://dc.lft.to/lastmile_qr_scan", "ios": "https://dc.lft.to/lastmile_qr_scan"}, "lat": 38.844248666666665, "is_disabled": 0, "lon": -76.99777516666667}, {"fusion_lat": 0.0, "type": "electric_bike", "name": "1c51c4cdbd27b8fbda438659e0574f26", "fusion_lon": 0.0, "bike_id": "1c51c4cdbd27b8fbda438659e0574f26", "is_reserved": 0, "rental_uris": {"android": "https://dc.lft.to/lastmile_qr_scan", "ios": "https://dc.lft.to/lastmile_qr_scan"}, "lat": 38.904418666666665, "is_disabled": 0, "lon": -77.031821}, {"fusion_lat": 0.0, "type": "electric_scooter", "name": "b91d00ce8443370379e34d1844936eed", "fusion_lon": 0.0, "bike_id": "b91d00ce8443370379e34d1844936eed", "is_reserved": 0, "rental_uris": {"android": "https://dc.lft.to/lastmile_qr_scan", "ios": "https://dc.lft.to/lastmile_qr_scan"}, "lat": 38.90577316666667, "is_disabled": 0, "lon": -77.03479233333333}, {"fusion_lat": 0.0, "type": "electric_scooter", "name": "2ae34b24d4ffbc61d8547b0ce68cb6d4", "fusion_lon": 0.0, "bike_id": "2ae34b24d4ffbc61d8547b0ce68cb6d4", "is_reserved": 0, "rental_uris": {"android": "https://dc.lft.to/lastmile_qr_scan", "ios": "https://dc.lft.to/lastmile_qr_scan"}, "lat": 38.89307516666667, "is_disabled": 0, "lon": -76.9291645}, {"fusion_lat": 0.0, "type": "electric_scooter", "name": "816ab9a622da96363f5812b7daafae12", "fusion_lon": 0.0, "bike_id": "816ab9a622da96363f5812b7daafae12", "is_reserved": 0, "rental_uris": {"android": "https://dc.lft.to/lastmile_qr_scan", "ios": "https://dc.lft.to/lastmile_qr_scan"}, "lat": 38.86505733333333, "is_disabled": 0, "lon": -76.990021}, {"fusion_lat": 0.0, "type": "electric_scooter", "name": "cb2fb62ca771ae5e3ce5bbdbee6a1ddd", "fusion_lon": 0.0, "bike_id": "cb2fb62ca771ae5e3ce5bbdbee6a1ddd", "is_reserved": 0, "rental_uris": {"android": "https://dc.lft.to/lastmile_qr_scan", "ios": "https://dc.lft.to/lastmile_qr_scan"}, "lat": 38.926635833333336, "is_disabled": 0, "lon": -77.02284283333333}, {"fusion_lat": 0.0, "type": "electric_scooter", "name": "e037d3c9290258e6ff76ec100262374f", "fusion_lon": 0.0, "bike_id": "e037d3c9290258e6ff76ec100262374f", "is_reserved": 0, "rental_uris": {"android": "https://dc.lft.to/lastmile_qr_scan", "ios": "https://dc.lft.to/lastmile_qr_scan"}, "lat": 38.927411, "is_disabled": 0, "lon": -77.022637}, {"fusion_lat": 0.0, "type": "electric_scooter", "name": "df50f3307fc8a23a6bb3204e2654947d", "fusion_lon": 0.0, "bike_id": "df50f3307fc8a23a6bb3204e2654947d", "is_reserved": 0, "rental_uris": {"android": "https://dc.lft.to/lastmile_qr_scan", "ios": "https://dc.lft.to/lastmile_qr_scan"}, "lat": 38.8981725, "is_disabled": 0, "lon": -77.03322716666666}, {"fusion_lat": 0.0, "type": "electric_scooter", "name": "10ca39596f881d0c6bef99f841fa9615", "fusion_lon": 0.0, "bike_id": "10ca39596f881d0c6bef99f841fa9615", "is_reserved": 0, "rental_uris": {"android": "https://dc.lft.to/lastmile_qr_scan", "ios": "https://dc.lft.to/lastmile_qr_scan"}, "lat": 38.89549483333333, "is_disabled": 0, "lon": -77.00920583333334}, {"fusion_lat": 0.0, "type": "electric_bike", "name": "2f8343b02dde238ca2cf4d8b8fa06689", "fusion_lon": 0.0, "bike_id": "2f8343b02dde238ca2cf4d8b8fa06689", "is_reserved": 0, "rental_uris": {"android": "https://dc.lft.to/lastmile_qr_scan", "ios": "https://dc.lft.to/lastmile_qr_scan"}, "lat": 38.812028833333336, "is_disabled": 0, "lon": -77.10837266666667}, {"fusion_lat": 0.0, "type": "electric_scooter", "name": "62b966c05670c84c22562debdfa67f9e", "fusion_lon": 0.0, "bike_id": "62b966c05670c84c22562debdfa67f9e", "is_reserved": 0, "rental_uris": {"android": "https://dc.lft.to/lastmile_qr_scan", "ios": "https://dc.lft.to/lastmile_qr_scan"}, "lat": 38.90221, "is_disabled": 0, "lon": -77.02347683333333}, {"fusion_lat": 0.0, "type": "electric_scooter", "name": "d3e49f72cef3552fa042a394c539bb63", "fusion_lon": 0.0, "bike_id": "d3e49f72cef3552fa042a394c539bb63", "is_reserved": 0, "rental_uris": {"android": "https://dc.lft.to/lastmile_qr_scan", "ios": "https://dc.lft.to/lastmile_qr_scan"}, "lat": 38.8717495, "is_disabled": 0, "lon": -77.00627733333333}, {"fusion_lat": 0.0, "type": "electric_scooter", "name": "f433692be93510c4204fe0c4036bfecc", "fusion_lon": 0.0, "bike_id": "f433692be93510c4204fe0c4036bfecc", "is_reserved": 0, "rental_uris": {"android": "https://dc.lft.to/lastmile_qr_scan", "ios": "https://dc.lft.to/lastmile_qr_scan"}, "lat": 38.903738833333335, "is_disabled": 0, "lon": -77.04200516666667}, {"fusion_lat": 0.0, "type": "electric_scooter", "name": "1746361761e89dd0a03b473dcd60624d", "fusion_lon": 0.0, "bike_id": "1746361761e89dd0a03b473dcd60624d", "is_reserved": 0, "rental_uris": {"android": "https://dc.lft.to/lastmile_qr_scan", "ios": "https://dc.lft.to/lastmile_qr_scan"}, "lat": 38.92342683333333, "is_disabled": 0, "lon": -77.035144}, {"fusion_lat": 0.0, "type": "electric_bike", "name": "0bffd1cb175b89c05c3fe7190bd79733", "fusion_lon": 0.0, "bike_id": "0bffd1cb175b89c05c3fe7190bd79733", "is_reserved": 0, "rental_uris": {"android": "https://dc.lft.to/lastmile_qr_scan", "ios": "https://dc.lft.to/lastmile_qr_scan"}, "lat": 38.85422066666667, "is_disabled": 0, "lon": -77.12078216666667}, {"fusion_lat": 0.0, "type": "electric_scooter", "name": "b1b99a3c6e8f626577371a7504e12904", "fusion_lon": 0.0, "bike_id": "b1b99a3c6e8f626577371a7504e12904", "is_reserved": 0, "rental_uris": {"android": "https://dc.lft.to/lastmile_qr_scan", "ios": "https://dc.lft.to/lastmile_qr_scan"}, "lat": 38.90509566666667, "is_disabled": 0, "lon": -76.9942775}, {"fusion_lat": 0.0, "type": "electric_scooter", "name": "e293723ac404651b3be3c8662f922cc0", "fusion_lon": 0.0, "bike_id": "e293723ac404651b3be3c8662f922cc0", "is_reserved": 0, "rental_uris": {"android": "https://dc.lft.to/lastmile_qr_scan", "ios": "https://dc.lft.to/lastmile_qr_scan"}, "lat": 38.89730933333333, "is_disabled": 0, "lon": -77.00333533333334}, {"fusion_lat": 0.0, "type": "electric_scooter", "name": "e25edacbd74d9ae5089c06d9fa906e3a", "fusion_lon": 0.0, "bike_id": "e25edacbd74d9ae5089c06d9fa906e3a", "is_reserved": 0, "rental_uris": {"android": "https://dc.lft.to/lastmile_qr_scan", "ios": "https://dc.lft.to/lastmile_qr_scan"}, "lat": 38.899173166666664, "is_disabled": 0, "lon": -76.9337965}, {"fusion_lat": 0.0, "type": "electric_scooter", "name": "501b873bc2f7d67206667f250201d39e", "fusion_lon": 0.0, "bike_id": "501b873bc2f7d67206667f250201d39e", "is_reserved": 0, "rental_uris": {"android": "https://dc.lft.to/lastmile_qr_scan", "ios": "https://dc.lft.to/lastmile_qr_scan"}, "lat": 38.89231, "is_disabled": 0, "lon": -77.02800033333334}, {"fusion_lat": 0.0, "type": "electric_scooter", "name": "bf45ce1c5b7b3c4a6e83e7013af86428", "fusion_lon": 0.0, "bike_id": "bf45ce1c5b7b3c4a6e83e7013af86428", "is_reserved": 0, "rental_uris": {"android": "https://dc.lft.to/lastmile_qr_scan", "ios": "https://dc.lft.to/lastmile_qr_scan"}, "lat": 38.92196416666667, "is_disabled": 0, "lon": -77.073046}, {"fusion_lat": 0.0, "type": "electric_scooter", "name": "85d4079af9bf2e67f636a85b8dec9a07", "fusion_lon": 0.0, "bike_id": "85d4079af9bf2e67f636a85b8dec9a07", "is_reserved": 0, "rental_uris": {"android": "https://dc.lft.to/lastmile_qr_scan", "ios": "https://dc.lft.to/lastmile_qr_scan"}, "lat": 38.902537, "is_disabled": 0, "lon": -77.0264725}, {"fusion_lat": 0.0, "type": "electric_scooter", "name": "4d33c817f50dee849f3caa4d1a431e75", "fusion_lon": 0.0, "bike_id": "4d33c817f50dee849f3caa4d1a431e75", "is_reserved": 0, "rental_uris": {"android": "https://dc.lft.to/lastmile_qr_scan", "ios": "https://dc.lft.to/lastmile_qr_scan"}, "lat": 38.9122925, "is_disabled": 0, "lon": -77.02275633333333}, {"fusion_lat": 0.0, "type": "electric_scooter", "name": "4e27ad1df55ff783d1f593c58690c941", "fusion_lon": 0.0, "bike_id": "4e27ad1df55ff783d1f593c58690c941", "is_reserved": 0, "rental_uris": {"android": "https://dc.lft.to/lastmile_qr_scan", "ios": "https://dc.lft.to/lastmile_qr_scan"}, "lat": 38.896053333333334, "is_disabled": 0, "lon": -77.05438133333334}, {"fusion_lat": 0.0, "type": "electric_bike", "name": "100d9bdf046dbd4fa4a7bb61188b37e1", "fusion_lon": 0.0, "bike_id": "100d9bdf046dbd4fa4a7bb61188b37e1", "is_reserved": 0, "rental_uris": {"android": "https://dc.lft.to/lastmile_qr_scan", "ios": "https://dc.lft.to/lastmile_qr_scan"}, "lat": 38.89352216666666, "is_disabled": 0, "lon": -77.1874}, {"fusion_lat": 0.0, "type": "electric_scooter", "name": "1758e2cbc9eaa1d4b0d7bd367018beac", "fusion_lon": 0.0, "bike_id": "1758e2cbc9eaa1d4b0d7bd367018beac", "is_reserved": 0, "rental_uris": {"android": "https://dc.lft.to/lastmile_qr_scan", "ios": "https://dc.lft.to/lastmile_qr_scan"}, "lat": 38.8922195, "is_disabled": 0, "lon": -77.04504466666667}, {"fusion_lat": 0.0, "type": "electric_scooter", "name": "8b2effd130cf6858e3fa2110a1e6bb6b", "fusion_lon": 0.0, "bike_id": "8b2effd130cf6858e3fa2110a1e6bb6b", "is_reserved": 0, "rental_uris": {"android": "https://dc.lft.to/lastmile_qr_scan", "ios": "https://dc.lft.to/lastmile_qr_scan"}, "lat": 38.911753833333336, "is_disabled": 0, "lon": -77.04917016666667}, {"fusion_lat": 0.0, "type": "electric_scooter", "name": "e323f04c936308598030e0f2006da5af", "fusion_lon": 0.0, "bike_id": "e323f04c936308598030e0f2006da5af", "is_reserved": 0, "rental_uris": {"android": "https://dc.lft.to/lastmile_qr_scan", "ios": "https://dc.lft.to/lastmile_qr_scan"}, "lat": 38.9050375, "is_disabled": 0, "lon": -76.9792695}, {"fusion_lat": 0.0, "type": "electric_scooter", "name": "699ec2f3afac71b9775ea1becdf8eb09", "fusion_lon": 0.0, "bike_id": "699ec2f3afac71b9775ea1becdf8eb09", "is_reserved": 0, "rental_uris": {"android": "https://dc.lft.to/lastmile_qr_scan", "ios": "https://dc.lft.to/lastmile_qr_scan"}, "lat": 38.905548333333336, "is_disabled": 0, "lon": -76.97390083333333}, {"fusion_lat": 0.0, "type": "electric_scooter", "name": "3c3d0fc251b8850437fb72b8f30d5ca0", "fusion_lon": 0.0, "bike_id": "3c3d0fc251b8850437fb72b8f30d5ca0", "is_reserved": 0, "rental_uris": {"android": "https://dc.lft.to/lastmile_qr_scan", "ios": "https://dc.lft.to/lastmile_qr_scan"}, "lat": 38.92361966666667, "is_disabled": 0, "lon": -77.05049083333333}, {"fusion_lat": 0.0, "type": "electric_scooter", "name": "a14a871270cf21bc848f630bbde91118", "fusion_lon": 0.0, "bike_id": "a14a871270cf21bc848f630bbde91118", "is_reserved": 0, "rental_uris": {"android": "https://dc.lft.to/lastmile_qr_scan", "ios": "https://dc.lft.to/lastmile_qr_scan"}, "lat": 38.893229833333336, "is_disabled": 0, "lon": -76.94381433333334}, {"fusion_lat": 0.0, "type": "electric_scooter", "name": "095799ee17ed51dfbff45ce1d8e57de9", "fusion_lon": 0.0, "bike_id": "095799ee17ed51dfbff45ce1d8e57de9", "is_reserved": 0, "rental_uris": {"android": "https://dc.lft.to/lastmile_qr_scan", "ios": "https://dc.lft.to/lastmile_qr_scan"}, "lat": 38.90369466666667, "is_disabled": 0, "lon": -77.03677283333333}, {"fusion_lat": 0.0, "type": "electric_scooter", "name": "701ab98b52b97bed6af0e3cd72f33192", "fusion_lon": 0.0, "bike_id": "701ab98b52b97bed6af0e3cd72f33192", "is_reserved": 0, "rental_uris": {"android": "https://dc.lft.to/lastmile_qr_scan", "ios": "https://dc.lft.to/lastmile_qr_scan"}, "lat": 38.898938, "is_disabled": 0, "lon": -77.0434185}, {"fusion_lat": 0.0, "type": "electric_scooter", "name": "80e892edd4045e18a8b55e7327e11fc5", "fusion_lon": 0.0, "bike_id": "80e892edd4045e18a8b55e7327e11fc5", "is_reserved": 0, "rental_uris": {"android": "https://dc.lft.to/lastmile_qr_scan", "ios": "https://dc.lft.to/lastmile_qr_scan"}, "lat": 38.9058655, "is_disabled": 0, "lon": -77.04354933333333}, {"fusion_lat": 0.0, "type": "electric_bike", "name": "76f373d542eae44186b430e56822126b", "fusion_lon": 0.0, "bike_id": "76f373d542eae44186b430e56822126b", "is_reserved": 0, "rental_uris": {"android": "https://dc.lft.to/lastmile_qr_scan", "ios": "https://dc.lft.to/lastmile_qr_scan"}, "lat": 38.888713833333334, "is_disabled": 0, "lon": -77.0817655}, {"fusion_lat": 0.0, "type": "electric_scooter", "name": "45c53895399f9290350a1302a98758ec", "fusion_lon": 0.0, "bike_id": "45c53895399f9290350a1302a98758ec", "is_reserved": 0, "rental_uris": {"android": "https://dc.lft.to/lastmile_qr_scan", "ios": "https://dc.lft.to/lastmile_qr_scan"}, "lat": 38.95334733333333, "is_disabled": 0, "lon": -76.99969}, {"fusion_lat": 0.0, "type": "electric_scooter", "name": "54e2a45e9f105139d11e3ff346a1de83", "fusion_lon": 0.0, "bike_id": "54e2a45e9f105139d11e3ff346a1de83", "is_reserved": 0, "rental_uris": {"android": "https://dc.lft.to/lastmile_qr_scan", "ios": "https://dc.lft.to/lastmile_qr_scan"}, "lat": 38.876975, "is_disabled": 0, "lon": -77.00313533333333}, {"fusion_lat": 0.0, "type": "electric_scooter", "name": "2f5ee925e35bed4d02a48eccc174cfe2", "fusion_lon": 0.0, "bike_id": "2f5ee925e35bed4d02a48eccc174cfe2", "is_reserved": 0, "rental_uris": {"android": "https://dc.lft.to/lastmile_qr_scan", "ios": "https://dc.lft.to/lastmile_qr_scan"}, "lat": 38.91612, "is_disabled": 0, "lon": -77.03190516666666}, {"fusion_lat": 0.0, "type": "electric_scooter", "name": "348af08b7bc3f08f3751b77ea1856fc8", "fusion_lon": 0.0, "bike_id": "348af08b7bc3f08f3751b77ea1856fc8", "is_reserved": 0, "rental_uris": {"android": "https://dc.lft.to/lastmile_qr_scan", "ios": "https://dc.lft.to/lastmile_qr_scan"}, "lat": 38.90782466666667, "is_disabled": 0, "lon": -77.03855916666667}, {"fusion_lat": 0.0, "type": "electric_scooter", "name": "11c5d71ad2aee9310efd0bef2e6ef1f7", "fusion_lon": 0.0, "bike_id": "11c5d71ad2aee9310efd0bef2e6ef1f7", "is_reserved": 0, "rental_uris": {"android": "https://dc.lft.to/lastmile_qr_scan", "ios": "https://dc.lft.to/lastmile_qr_scan"}, "lat": 38.9336485, "is_disabled": 0, "lon": -77.05732966666666}, {"fusion_lat": 0.0, "type": "electric_scooter", "name": "818c748e050737ff509e0919af07b3f8", "fusion_lon": 0.0, "bike_id": "818c748e050737ff509e0919af07b3f8", "is_reserved": 0, "rental_uris": {"android": "https://dc.lft.to/lastmile_qr_scan", "ios": "https://dc.lft.to/lastmile_qr_scan"}, "lat": 38.90242166666667, "is_disabled": 0, "lon": -77.02685866666667}, {"fusion_lat": 0.0, "type": "electric_scooter", "name": "1ff803b536b8aa93dd03aa806aede583", "fusion_lon": 0.0, "bike_id": "1ff803b536b8aa93dd03aa806aede583", "is_reserved": 0, "rental_uris": {"android": "https://dc.lft.to/lastmile_qr_scan", "ios": "https://dc.lft.to/lastmile_qr_scan"}, "lat": 38.90359733333333, "is_disabled": 0, "lon": -77.03916033333333}, {"fusion_lat": 0.0, "type": "electric_scooter", "name": "4ad514dd079521346737b164c1f3e132", "fusion_lon": 0.0, "bike_id": "4ad514dd079521346737b164c1f3e132", "is_reserved": 0, "rental_uris": {"android": "https://dc.lft.to/lastmile_qr_scan", "ios": "https://dc.lft.to/lastmile_qr_scan"}, "lat": 38.912925666666666, "is_disabled": 0, "lon": -77.04549866666666}, {"fusion_lat": 0.0, "type": "electric_scooter", "name": "205b1c0faf7b669f425096109561b98d", "fusion_lon": 0.0, "bike_id": "205b1c0faf7b669f425096109561b98d", "is_reserved": 0, "rental_uris": {"android": "https://dc.lft.to/lastmile_qr_scan", "ios": "https://dc.lft.to/lastmile_qr_scan"}, "lat": 38.87691216666666, "is_disabled": 0, "lon": -77.0041325}, {"fusion_lat": 0.0, "type": "electric_scooter", "name": "da17fd3b5c2e70dbc678a8c09ba3dd30", "fusion_lon": 0.0, "bike_id": "da17fd3b5c2e70dbc678a8c09ba3dd30", "is_reserved": 0, "rental_uris": {"android": "https://dc.lft.to/lastmile_qr_scan", "ios": "https://dc.lft.to/lastmile_qr_scan"}, "lat": 38.90236633333333, "is_disabled": 0, "lon": -77.04397966666667}, {"fusion_lat": 0.0, "type": "electric_scooter", "name": "dc449def6e87c5756d09900e8c6f83fb", "fusion_lon": 0.0, "bike_id": "dc449def6e87c5756d09900e8c6f83fb", "is_reserved": 0, "rental_uris": {"android": "https://dc.lft.to/lastmile_qr_scan", "ios": "https://dc.lft.to/lastmile_qr_scan"}, "lat": 38.90955, "is_disabled": 0, "lon": -77.05482483333333}, {"fusion_lat": 0.0, "type": "electric_scooter", "name": "d776c1442a035794984461270656351b", "fusion_lon": 0.0, "bike_id": "d776c1442a035794984461270656351b", "is_reserved": 0, "rental_uris": {"android": "https://dc.lft.to/lastmile_qr_scan", "ios": "https://dc.lft.to/lastmile_qr_scan"}, "lat": 38.916714, "is_disabled": 0, "lon": -77.02713833333334}, {"fusion_lat": 0.0, "type": "electric_bike", "name": "9388c4abf79a51ee5438f588daa05ba6", "fusion_lon": 0.0, "bike_id": "9388c4abf79a51ee5438f588daa05ba6", "is_reserved": 0, "rental_uris": {"android": "https://dc.lft.to/lastmile_qr_scan", "ios": "https://dc.lft.to/lastmile_qr_scan"}, "lat": 38.902728, "is_disabled": 0, "lon": -76.92924883333333}, {"fusion_lat": 0.0, "type": "electric_scooter", "name": "f3820610b41434ee8024b1f385690e9d", "fusion_lon": 0.0, "bike_id": "f3820610b41434ee8024b1f385690e9d", "is_reserved": 0, "rental_uris": {"android": "https://dc.lft.to/lastmile_qr_scan", "ios": "https://dc.lft.to/lastmile_qr_scan"}, "lat": 38.892228, "is_disabled": 0, "lon": -77.04377516666666}, {"fusion_lat": 0.0, "type": "electric_scooter", "name": "366d4b2c49bd11a713e96a3e2501555e", "fusion_lon": 0.0, "bike_id": "366d4b2c49bd11a713e96a3e2501555e", "is_reserved": 0, "rental_uris": {"android": "https://dc.lft.to/lastmile_qr_scan", "ios": "https://dc.lft.to/lastmile_qr_scan"}, "lat": 38.876805166666664, "is_disabled": 0, "lon": -76.99825033333333}, {"fusion_lat": 0.0, "type": "electric_scooter", "name": "60035bf39cc7efa831a96e48fc4f4679", "fusion_lon": 0.0, "bike_id": "60035bf39cc7efa831a96e48fc4f4679", "is_reserved": 0, "rental_uris": {"android": "https://dc.lft.to/lastmile_qr_scan", "ios": "https://dc.lft.to/lastmile_qr_scan"}, "lat": 38.909540166666666, "is_disabled": 0, "lon": -77.00809916666667}, {"fusion_lat": 0.0, "type": "electric_scooter", "name": "df792bd9c9825a284a3383f349521cfa", "fusion_lon": 0.0, "bike_id": "df792bd9c9825a284a3383f349521cfa", "is_reserved": 0, "rental_uris": {"android": "https://dc.lft.to/lastmile_qr_scan", "ios": "https://dc.lft.to/lastmile_qr_scan"}, "lat": 38.90042583333334, "is_disabled": 0, "lon": -77.02966233333333}, {"fusion_lat": 0.0, "type": "electric_scooter", "name": "4785026432720d55aa98a6f90294b321", "fusion_lon": 0.0, "bike_id": "4785026432720d55aa98a6f90294b321", "is_reserved": 0, "rental_uris": {"android": "https://dc.lft.to/lastmile_qr_scan", "ios": "https://dc.lft.to/lastmile_qr_scan"}, "lat": 38.918434500000004, "is_disabled": 0, "lon": -77.044946}, {"fusion_lat": 0.0, "type": "electric_bike", "name": "0908fc42ddcb8786af7078deb6400891", "fusion_lon": 0.0, "bike_id": "0908fc42ddcb8786af7078deb6400891", "is_reserved": 0, "rental_uris": {"android": "https://dc.lft.to/lastmile_qr_scan", "ios": "https://dc.lft.to/lastmile_qr_scan"}, "lat": 39.042348833333335, "is_disabled": 0, "lon": -76.99735316666667}, {"fusion_lat": 0.0, "type": "electric_scooter", "name": "10b23cc806a88a75ff9c71be2a569f28", "fusion_lon": 0.0, "bike_id": "10b23cc806a88a75ff9c71be2a569f28", "is_reserved": 0, "rental_uris": {"android": "https://dc.lft.to/lastmile_qr_scan", "ios": "https://dc.lft.to/lastmile_qr_scan"}, "lat": 38.916313, "is_disabled": 0, "lon": -77.03139666666667}, {"fusion_lat": 0.0, "type": "electric_scooter", "name": "9cc2cc08387d3bfc0807634fc6b539bd", "fusion_lon": 0.0, "bike_id": "9cc2cc08387d3bfc0807634fc6b539bd", "is_reserved": 0, "rental_uris": {"android": "https://dc.lft.to/lastmile_qr_scan", "ios": "https://dc.lft.to/lastmile_qr_scan"}, "lat": 38.89427583333333, "is_disabled": 0, "lon": -76.91118283333333}, {"fusion_lat": 0.0, "type": "electric_scooter", "name": "16c61f3a7b34dc0b4607da14b5532f84", "fusion_lon": 0.0, "bike_id": "16c61f3a7b34dc0b4607da14b5532f84", "is_reserved": 0, "rental_uris": {"android": "https://dc.lft.to/lastmile_qr_scan", "ios": "https://dc.lft.to/lastmile_qr_scan"}, "lat": 38.94179416666667, "is_disabled": 0, "lon": -77.02531283333333}, {"fusion_lat": 0.0, "type": "electric_scooter", "name": "21779084527bab58a2a4a818d19fa384", "fusion_lon": 0.0, "bike_id": "21779084527bab58a2a4a818d19fa384", "is_reserved": 0, "rental_uris": {"android": "https://dc.lft.to/lastmile_qr_scan", "ios": "https://dc.lft.to/lastmile_qr_scan"}, "lat": 38.912834333333336, "is_disabled": 0, "lon": -77.03205516666667}, {"fusion_lat": 0.0, "type": "electric_scooter", "name": "203df3025ac9af87ba24ce1480a53312", "fusion_lon": 0.0, "bike_id": "203df3025ac9af87ba24ce1480a53312", "is_reserved": 0, "rental_uris": {"android": "https://dc.lft.to/lastmile_qr_scan", "ios": "https://dc.lft.to/lastmile_qr_scan"}, "lat": 38.864183, "is_disabled": 0, "lon": -76.99136383333334}, {"fusion_lat": 0.0, "type": "electric_scooter", "name": "60e63ba692b46d3e3242d176bef32135", "fusion_lon": 0.0, "bike_id": "60e63ba692b46d3e3242d176bef32135", "is_reserved": 0, "rental_uris": {"android": "https://dc.lft.to/lastmile_qr_scan", "ios": "https://dc.lft.to/lastmile_qr_scan"}, "lat": 38.892219833333336, "is_disabled": 0, "lon": -77.03165016666667}, {"fusion_lat": 0.0, "type": "electric_scooter", "name": "4481972c7ddcf5e12943e93f2ebc62e4", "fusion_lon": 0.0, "bike_id": "4481972c7ddcf5e12943e93f2ebc62e4", "is_reserved": 0, "rental_uris": {"android": "https://dc.lft.to/lastmile_qr_scan", "ios": "https://dc.lft.to/lastmile_qr_scan"}, "lat": 38.92150633333333, "is_disabled": 0, "lon": -77.03503766666667}, {"fusion_lat": 0.0, "type": "electric_scooter", "name": "10637e4161b747b47f62c018ce3033fe", "fusion_lon": 0.0, "bike_id": "10637e4161b747b47f62c018ce3033fe", "is_reserved": 0, "rental_uris": {"android": "https://dc.lft.to/lastmile_qr_scan", "ios": "https://dc.lft.to/lastmile_qr_scan"}, "lat": 38.9377355, "is_disabled": 0, "lon": -77.03260883333333}, {"fusion_lat": 0.0, "type": "electric_scooter", "name": "6416c6609abb16ba81bf8cc7433fb4f7", "fusion_lon": 0.0, "bike_id": "6416c6609abb16ba81bf8cc7433fb4f7", "is_reserved": 0, "rental_uris": {"android": "https://dc.lft.to/lastmile_qr_scan", "ios": "https://dc.lft.to/lastmile_qr_scan"}, "lat": 38.918393333333334, "is_disabled": 0, "lon": -77.05946566666667}, {"fusion_lat": 0.0, "type": "electric_scooter", "name": "6840ccee4cf427b43e3f55ba0ebf4a23", "fusion_lon": 0.0, "bike_id": "6840ccee4cf427b43e3f55ba0ebf4a23", "is_reserved": 0, "rental_uris": {"android": "https://dc.lft.to/lastmile_qr_scan", "ios": "https://dc.lft.to/lastmile_qr_scan"}, "lat": 38.952035333333335, "is_disabled": 0, "lon": -77.0273085}, {"fusion_lat": 0.0, "type": "electric_scooter", "name": "ca8a9e9b917daa1a6b2f1fe906bbd57c", "fusion_lon": 0.0, "bike_id": "ca8a9e9b917daa1a6b2f1fe906bbd57c", "is_reserved": 0, "rental_uris": {"android": "https://dc.lft.to/lastmile_qr_scan", "ios": "https://dc.lft.to/lastmile_qr_scan"}, "lat": 38.887333166666664, "is_disabled": 0, "lon": -77.02577833333334}, {"fusion_lat": 0.0, "type": "electric_scooter", "name": "d48f2eb2a70014ff07d859fd04d8ab93", "fusion_lon": 0.0, "bike_id": "d48f2eb2a70014ff07d859fd04d8ab93", "is_reserved": 0, "rental_uris": {"android": "https://dc.lft.to/lastmile_qr_scan", "ios": "https://dc.lft.to/lastmile_qr_scan"}, "lat": 38.9285785, "is_disabled": 0, "lon": -77.0328815}, {"fusion_lat": 0.0, "type": "electric_bike", "name": "10cb887a1c46a88e769cff908ff5fdd7", "fusion_lon": 0.0, "bike_id": "10cb887a1c46a88e769cff908ff5fdd7", "is_reserved": 0, "rental_uris": {"android": "https://dc.lft.to/lastmile_qr_scan", "ios": "https://dc.lft.to/lastmile_qr_scan"}, "lat": 38.955634333333336, "is_disabled": 0, "lon": -77.06917933333334}, {"fusion_lat": 0.0, "type": "electric_scooter", "name": "fdc3fd98e0712ed7a1c5792cf169ebca", "fusion_lon": 0.0, "bike_id": "fdc3fd98e0712ed7a1c5792cf169ebca", "is_reserved": 0, "rental_uris": {"android": "https://dc.lft.to/lastmile_qr_scan", "ios": "https://dc.lft.to/lastmile_qr_scan"}, "lat": 38.924174666666666, "is_disabled": 0, "lon": -77.02297066666667}, {"fusion_lat": 0.0, "type": "electric_bike", "name": "ff36a24e5cb982d8e0a65bb1f3a2f5ee", "fusion_lon": 0.0, "bike_id": "ff36a24e5cb982d8e0a65bb1f3a2f5ee", "is_reserved": 0, "rental_uris": {"android": "https://dc.lft.to/lastmile_qr_scan", "ios": "https://dc.lft.to/lastmile_qr_scan"}, "lat": 38.9133625, "is_disabled": 0, "lon": -77.0385485}, {"fusion_lat": 0.0, "type": "electric_scooter", "name": "8ff9c0b1c027c60256fe362d2653fa87", "fusion_lon": 0.0, "bike_id": "8ff9c0b1c027c60256fe362d2653fa87", "is_reserved": 0, "rental_uris": {"android": "https://dc.lft.to/lastmile_qr_scan", "ios": "https://dc.lft.to/lastmile_qr_scan"}, "lat": 38.89229483333333, "is_disabled": 0, "lon": -77.05005666666666}, {"fusion_lat": 0.0, "type": "electric_scooter", "name": "1e0257c0d120eceebed82a9238650e9c", "fusion_lon": 0.0, "bike_id": "1e0257c0d120eceebed82a9238650e9c", "is_reserved": 0, "rental_uris": {"android": "https://dc.lft.to/lastmile_qr_scan", "ios": "https://dc.lft.to/lastmile_qr_scan"}, "lat": 38.89843283333333, "is_disabled": 0, "lon": -76.9463785}, {"fusion_lat": 0.0, "type": "electric_scooter", "name": "b257617702fe22aa83d5e0e00bace1d3", "fusion_lon": 0.0, "bike_id": "b257617702fe22aa83d5e0e00bace1d3", "is_reserved": 0, "rental_uris": {"android": "https://dc.lft.to/lastmile_qr_scan", "ios": "https://dc.lft.to/lastmile_qr_scan"}, "lat": 38.905151333333336, "is_disabled": 0, "lon": -77.06889783333334}, {"fusion_lat": 0.0, "type": "electric_scooter", "name": "16e38222bc829675497f391098dc96f1", "fusion_lon": 0.0, "bike_id": "16e38222bc829675497f391098dc96f1", "is_reserved": 0, "rental_uris": {"android": "https://dc.lft.to/lastmile_qr_scan", "ios": "https://dc.lft.to/lastmile_qr_scan"}, "lat": 38.90420183333333, "is_disabled": 0, "lon": -77.04658433333333}, {"fusion_lat": 0.0, "type": "electric_scooter", "name": "4b2d61a9d8714befbd385ab1e58c23b1", "fusion_lon": 0.0, "bike_id": "4b2d61a9d8714befbd385ab1e58c23b1", "is_reserved": 0, "rental_uris": {"android": "https://dc.lft.to/lastmile_qr_scan", "ios": "https://dc.lft.to/lastmile_qr_scan"}, "lat": 38.93341616666667, "is_disabled": 0, "lon": -77.03280166666667}, {"fusion_lat": 0.0, "type": "electric_scooter", "name": "6fc1e5d1c639e846ee50d6d8444c7450", "fusion_lon": 0.0, "bike_id": "6fc1e5d1c639e846ee50d6d8444c7450", "is_reserved": 0, "rental_uris": {"android": "https://dc.lft.to/lastmile_qr_scan", "ios": "https://dc.lft.to/lastmile_qr_scan"}, "lat": 38.901138, "is_disabled": 0, "lon": -77.04984983333334}, {"fusion_lat": 0.0, "type": "electric_scooter", "name": "e6ef963f391e58728377d09afe13f979", "fusion_lon": 0.0, "bike_id": "e6ef963f391e58728377d09afe13f979", "is_reserved": 0, "rental_uris": {"android": "https://dc.lft.to/lastmile_qr_scan", "ios": "https://dc.lft.to/lastmile_qr_scan"}, "lat": 38.917976833333334, "is_disabled": 0, "lon": -77.02708683333333}, {"fusion_lat": 0.0, "type": "electric_scooter", "name": "9296d44d8003494e737f7a158094ed92", "fusion_lon": 0.0, "bike_id": "9296d44d8003494e737f7a158094ed92", "is_reserved": 0, "rental_uris": {"android": "https://dc.lft.to/lastmile_qr_scan", "ios": "https://dc.lft.to/lastmile_qr_scan"}, "lat": 38.909567833333334, "is_disabled": 0, "lon": -77.04619}, {"fusion_lat": 0.0, "type": "electric_scooter", "name": "666dbeb180d732b399c562de4c06df85", "fusion_lon": 0.0, "bike_id": "666dbeb180d732b399c562de4c06df85", "is_reserved": 0, "rental_uris": {"android": "https://dc.lft.to/lastmile_qr_scan", "ios": "https://dc.lft.to/lastmile_qr_scan"}, "lat": 38.90120533333333, "is_disabled": 0, "lon": -77.02216366666667}, {"fusion_lat": 0.0, "type": "electric_scooter", "name": "965c8e8e2142d47bbeec82952f70ef5b", "fusion_lon": 0.0, "bike_id": "965c8e8e2142d47bbeec82952f70ef5b", "is_reserved": 0, "rental_uris": {"android": "https://dc.lft.to/lastmile_qr_scan", "ios": "https://dc.lft.to/lastmile_qr_scan"}, "lat": 38.907804666666664, "is_disabled": 0, "lon": -77.0725155}, {"fusion_lat": 0.0, "type": "electric_scooter", "name": "aa3611fe03e118d0d1588effaab491ef", "fusion_lon": 0.0, "bike_id": "aa3611fe03e118d0d1588effaab491ef", "is_reserved": 0, "rental_uris": {"android": "https://dc.lft.to/lastmile_qr_scan", "ios": "https://dc.lft.to/lastmile_qr_scan"}, "lat": 38.92810583333333, "is_disabled": 0, "lon": -77.01399033333334}, {"fusion_lat": 0.0, "type": "electric_scooter", "name": "a9c1081e4fd664f3c45ebcf246730a24", "fusion_lon": 0.0, "bike_id": "a9c1081e4fd664f3c45ebcf246730a24", "is_reserved": 0, "rental_uris": {"android": "https://dc.lft.to/lastmile_qr_scan", "ios": "https://dc.lft.to/lastmile_qr_scan"}, "lat": 38.90165983333333, "is_disabled": 0, "lon": -77.06004183333333}, {"fusion_lat": 0.0, "type": "electric_scooter", "name": "88910c56f7857d82962082f0c47a3fff", "fusion_lon": 0.0, "bike_id": "88910c56f7857d82962082f0c47a3fff", "is_reserved": 0, "rental_uris": {"android": "https://dc.lft.to/lastmile_qr_scan", "ios": "https://dc.lft.to/lastmile_qr_scan"}, "lat": 38.91901983333333, "is_disabled": 0, "lon": -77.02093283333333}, {"fusion_lat": 0.0, "type": "electric_bike", "name": "2bba52719d7f9ff4acaaa2a706c3a5e3", "fusion_lon": 0.0, "bike_id": "2bba52719d7f9ff4acaaa2a706c3a5e3", "is_reserved": 0, "rental_uris": {"android": "https://dc.lft.to/lastmile_qr_scan", "ios": "https://dc.lft.to/lastmile_qr_scan"}, "lat": 38.87279433333333, "is_disabled": 0, "lon": -77.2333225}, {"fusion_lat": 0.0, "type": "electric_scooter", "name": "d5776c17acee57011790105d34722801", "fusion_lon": 0.0, "bike_id": "d5776c17acee57011790105d34722801", "is_reserved": 0, "rental_uris": {"android": "https://dc.lft.to/lastmile_qr_scan", "ios": "https://dc.lft.to/lastmile_qr_scan"}, "lat": 38.88263666666667, "is_disabled": 0, "lon": -76.99029683333333}, {"fusion_lat": 0.0, "type": "electric_scooter", "name": "210ad826b606a8986163fb341b19d17f", "fusion_lon": 0.0, "bike_id": "210ad826b606a8986163fb341b19d17f", "is_reserved": 0, "rental_uris": {"android": "https://dc.lft.to/lastmile_qr_scan", "ios": "https://dc.lft.to/lastmile_qr_scan"}, "lat": 38.891695, "is_disabled": 0, "lon": -77.015652}, {"fusion_lat": 0.0, "type": "electric_scooter", "name": "a6a42452305e601b81528935ac0c5368", "fusion_lon": 0.0, "bike_id": "a6a42452305e601b81528935ac0c5368", "is_reserved": 0, "rental_uris": {"android": "https://dc.lft.to/lastmile_qr_scan", "ios": "https://dc.lft.to/lastmile_qr_scan"}, "lat": 38.92844616666667, "is_disabled": 0, "lon": -77.03263966666667}, {"fusion_lat": 0.0, "type": "electric_bike", "name": "9e6fcdafc7ad8690f732525b4187a3ce", "fusion_lon": 0.0, "bike_id": "9e6fcdafc7ad8690f732525b4187a3ce", "is_reserved": 0, "rental_uris": {"android": "https://dc.lft.to/lastmile_qr_scan", "ios": "https://dc.lft.to/lastmile_qr_scan"}, "lat": 39.0563465, "is_disabled": 0, "lon": -77.1252515}, {"fusion_lat": 0.0, "type": "electric_scooter", "name": "7280ea53b76e896084b68dbaf59c0cc9", "fusion_lon": 0.0, "bike_id": "7280ea53b76e896084b68dbaf59c0cc9", "is_reserved": 0, "rental_uris": {"android": "https://dc.lft.to/lastmile_qr_scan", "ios": "https://dc.lft.to/lastmile_qr_scan"}, "lat": 38.89503083333334, "is_disabled": 0, "lon": -76.934737}, {"fusion_lat": 0.0, "type": "electric_scooter", "name": "fbeec829bf777dbe253cdea5d924dc0e", "fusion_lon": 0.0, "bike_id": "fbeec829bf777dbe253cdea5d924dc0e", "is_reserved": 0, "rental_uris": {"android": "https://dc.lft.to/lastmile_qr_scan", "ios": "https://dc.lft.to/lastmile_qr_scan"}, "lat": 38.91889166666667, "is_disabled": 0, "lon": -77.02974716666667}, {"fusion_lat": 0.0, "type": "electric_scooter", "name": "e5a55009de33930a8b8b2692fcc5b4ac", "fusion_lon": 0.0, "bike_id": "e5a55009de33930a8b8b2692fcc5b4ac", "is_reserved": 0, "rental_uris": {"android": "https://dc.lft.to/lastmile_qr_scan", "ios": "https://dc.lft.to/lastmile_qr_scan"}, "lat": 38.90112716666667, "is_disabled": 0, "lon": -77.04989466666666}, {"fusion_lat": 0.0, "type": "electric_scooter", "name": "04714cc464ffd215cd5acb99cae21603", "fusion_lon": 0.0, "bike_id": "04714cc464ffd215cd5acb99cae21603", "is_reserved": 0, "rental_uris": {"android": "https://dc.lft.to/lastmile_qr_scan", "ios": "https://dc.lft.to/lastmile_qr_scan"}, "lat": 38.945118666666666, "is_disabled": 0, "lon": -77.07452566666667}, {"fusion_lat": 0.0, "type": "electric_scooter", "name": "17a42dabba312978368c6fbceb75d02c", "fusion_lon": 0.0, "bike_id": "17a42dabba312978368c6fbceb75d02c", "is_reserved": 0, "rental_uris": {"android": "https://dc.lft.to/lastmile_qr_scan", "ios": "https://dc.lft.to/lastmile_qr_scan"}, "lat": 38.90331883333333, "is_disabled": 0, "lon": -77.0332765}, {"fusion_lat": 0.0, "type": "electric_scooter", "name": "d78e2b32ef5e42e45dac10847e94d956", "fusion_lon": 0.0, "bike_id": "d78e2b32ef5e42e45dac10847e94d956", "is_reserved": 0, "rental_uris": {"android": "https://dc.lft.to/lastmile_qr_scan", "ios": "https://dc.lft.to/lastmile_qr_scan"}, "lat": 38.8431485, "is_disabled": 0, "lon": -76.999334}, {"fusion_lat": 0.0, "type": "electric_scooter", "name": "655347acac043730c7d6238419c5fdf5", "fusion_lon": 0.0, "bike_id": "655347acac043730c7d6238419c5fdf5", "is_reserved": 0, "rental_uris": {"android": "https://dc.lft.to/lastmile_qr_scan", "ios": "https://dc.lft.to/lastmile_qr_scan"}, "lat": 38.905184166666665, "is_disabled": 0, "lon": -77.03850583333333}, {"fusion_lat": 0.0, "type": "electric_scooter", "name": "5af6422ace7529ea2dad0272d159097d", "fusion_lon": 0.0, "bike_id": "5af6422ace7529ea2dad0272d159097d", "is_reserved": 0, "rental_uris": {"android": "https://dc.lft.to/lastmile_qr_scan", "ios": "https://dc.lft.to/lastmile_qr_scan"}, "lat": 38.897214, "is_disabled": 0, "lon": -77.02734683333334}, {"fusion_lat": 0.0, "type": "electric_scooter", "name": "af7825a6fec4759ee3dc6f22097ca60c", "fusion_lon": 0.0, "bike_id": "af7825a6fec4759ee3dc6f22097ca60c", "is_reserved": 0, "rental_uris": {"android": "https://dc.lft.to/lastmile_qr_scan", "ios": "https://dc.lft.to/lastmile_qr_scan"}, "lat": 38.950620666666666, "is_disabled": 0, "lon": -77.08012083333334}, {"fusion_lat": 0.0, "type": "electric_scooter", "name": "42a0d784d486681d84d77a9dd3df2174", "fusion_lon": 0.0, "bike_id": "42a0d784d486681d84d77a9dd3df2174", "is_reserved": 0, "rental_uris": {"android": "https://dc.lft.to/lastmile_qr_scan", "ios": "https://dc.lft.to/lastmile_qr_scan"}, "lat": 38.89278266666667, "is_disabled": 0, "lon": -77.04868983333333}, {"fusion_lat": 0.0, "type": "electric_scooter", "name": "9034c13016e930c02a6a2f5795500418", "fusion_lon": 0.0, "bike_id": "9034c13016e930c02a6a2f5795500418", "is_reserved": 0, "rental_uris": {"android": "https://dc.lft.to/lastmile_qr_scan", "ios": "https://dc.lft.to/lastmile_qr_scan"}, "lat": 38.89231433333333, "is_disabled": 0, "lon": -77.03185883333333}, {"fusion_lat": 0.0, "type": "electric_bike", "name": "c095cab697832bf0441c26478114d7cb", "fusion_lon": 0.0, "bike_id": "c095cab697832bf0441c26478114d7cb", "is_reserved": 0, "rental_uris": {"android": "https://dc.lft.to/lastmile_qr_scan", "ios": "https://dc.lft.to/lastmile_qr_scan"}, "lat": 38.920430833333334, "is_disabled": 0, "lon": -76.99904866666667}, {"fusion_lat": 0.0, "type": "electric_scooter", "name": "3a5a9e11945c8b70b6b20e18c8b9e461", "fusion_lon": 0.0, "bike_id": "3a5a9e11945c8b70b6b20e18c8b9e461", "is_reserved": 0, "rental_uris": {"android": "https://dc.lft.to/lastmile_qr_scan", "ios": "https://dc.lft.to/lastmile_qr_scan"}, "lat": 38.9317195, "is_disabled": 0, "lon": -77.07098666666667}, {"fusion_lat": 0.0, "type": "electric_scooter", "name": "fa177034ae0b97095bc34a31e0d3113b", "fusion_lon": 0.0, "bike_id": "fa177034ae0b97095bc34a31e0d3113b", "is_reserved": 0, "rental_uris": {"android": "https://dc.lft.to/lastmile_qr_scan", "ios": "https://dc.lft.to/lastmile_qr_scan"}, "lat": 38.900867833333336, "is_disabled": 0, "lon": -76.9302145}, {"fusion_lat": 0.0, "type": "electric_scooter", "name": "6ddf4cac1b3457afa828e77112489e21", "fusion_lon": 0.0, "bike_id": "6ddf4cac1b3457afa828e77112489e21", "is_reserved": 0, "rental_uris": {"android": "https://dc.lft.to/lastmile_qr_scan", "ios": "https://dc.lft.to/lastmile_qr_scan"}, "lat": 38.94429083333333, "is_disabled": 0, "lon": -77.026043}, {"fusion_lat": 0.0, "type": "electric_scooter", "name": "820324787d742bf7235820bacbf4c420", "fusion_lon": 0.0, "bike_id": "820324787d742bf7235820bacbf4c420", "is_reserved": 0, "rental_uris": {"android": "https://dc.lft.to/lastmile_qr_scan", "ios": "https://dc.lft.to/lastmile_qr_scan"}, "lat": 38.89195816666667, "is_disabled": 0, "lon": -77.0262325}, {"fusion_lat": 0.0, "type": "electric_scooter", "name": "633b78ea7c8fbb922505396575c7c7b4", "fusion_lon": 0.0, "bike_id": "633b78ea7c8fbb922505396575c7c7b4", "is_reserved": 0, "rental_uris": {"android": "https://dc.lft.to/lastmile_qr_scan", "ios": "https://dc.lft.to/lastmile_qr_scan"}, "lat": 38.87204066666666, "is_disabled": 0, "lon": -76.97835566666667}, {"fusion_lat": 0.0, "type": "electric_scooter", "name": "492a2185a11378b21cb66413fc0b991e", "fusion_lon": 0.0, "bike_id": "492a2185a11378b21cb66413fc0b991e", "is_reserved": 0, "rental_uris": {"android": "https://dc.lft.to/lastmile_qr_scan", "ios": "https://dc.lft.to/lastmile_qr_scan"}, "lat": 38.88484116666667, "is_disabled": 0, "lon": -76.926209}, {"fusion_lat": 0.0, "type": "electric_scooter", "name": "8bd0c6cbaa0071690f56c0e6f786319d", "fusion_lon": 0.0, "bike_id": "8bd0c6cbaa0071690f56c0e6f786319d", "is_reserved": 0, "rental_uris": {"android": "https://dc.lft.to/lastmile_qr_scan", "ios": "https://dc.lft.to/lastmile_qr_scan"}, "lat": 38.855384666666666, "is_disabled": 0, "lon": -76.98417316666666}, {"fusion_lat": 0.0, "type": "electric_bike", "name": "e791be45f186889357afae64a6958160", "fusion_lon": 0.0, "bike_id": "e791be45f186889357afae64a6958160", "is_reserved": 0, "rental_uris": {"android": "https://dc.lft.to/lastmile_qr_scan", "ios": "https://dc.lft.to/lastmile_qr_scan"}, "lat": 38.912625166666665, "is_disabled": 0, "lon": -77.074662}, {"fusion_lat": 0.0, "type": "electric_scooter", "name": "38a4801fb2bb4f233f8f79404c8c9150", "fusion_lon": 0.0, "bike_id": "38a4801fb2bb4f233f8f79404c8c9150", "is_reserved": 0, "rental_uris": {"android": "https://dc.lft.to/lastmile_qr_scan", "ios": "https://dc.lft.to/lastmile_qr_scan"}, "lat": 38.906201833333334, "is_disabled": 0, "lon": -77.03959116666667}, {"fusion_lat": 0.0, "type": "electric_scooter", "name": "2ab3049f5967891986846978a58c49b1", "fusion_lon": 0.0, "bike_id": "2ab3049f5967891986846978a58c49b1", "is_reserved": 0, "rental_uris": {"android": "https://dc.lft.to/lastmile_qr_scan", "ios": "https://dc.lft.to/lastmile_qr_scan"}, "lat": 38.91186033333334, "is_disabled": 0, "lon": -77.044578}, {"fusion_lat": 0.0, "type": "electric_scooter", "name": "74286e0c6643f1c67f5f89d662172203", "fusion_lon": 0.0, "bike_id": "74286e0c6643f1c67f5f89d662172203", "is_reserved": 0, "rental_uris": {"android": "https://dc.lft.to/lastmile_qr_scan", "ios": "https://dc.lft.to/lastmile_qr_scan"}, "lat": 38.90743916666667, "is_disabled": 0, "lon": -77.04155716666666}, {"fusion_lat": 0.0, "type": "electric_scooter", "name": "4aa41269b98a5b957788f7a8b6121120", "fusion_lon": 0.0, "bike_id": "4aa41269b98a5b957788f7a8b6121120", "is_reserved": 0, "rental_uris": {"android": "https://dc.lft.to/lastmile_qr_scan", "ios": "https://dc.lft.to/lastmile_qr_scan"}, "lat": 38.89730083333333, "is_disabled": 0, "lon": -77.00928583333334}, {"fusion_lat": 0.0, "type": "electric_scooter", "name": "82f29c1d8fc9e0bb1a3a08e87ea156ec", "fusion_lon": 0.0, "bike_id": "82f29c1d8fc9e0bb1a3a08e87ea156ec", "is_reserved": 0, "rental_uris": {"android": "https://dc.lft.to/lastmile_qr_scan", "ios": "https://dc.lft.to/lastmile_qr_scan"}, "lat": 38.8922525, "is_disabled": 0, "lon": -77.00220883333333}, {"fusion_lat": 0.0, "type": "electric_scooter", "name": "b9d58a81274d61cba0cc094d0ffc0242", "fusion_lon": 0.0, "bike_id": "b9d58a81274d61cba0cc094d0ffc0242", "is_reserved": 0, "rental_uris": {"android": "https://dc.lft.to/lastmile_qr_scan", "ios": "https://dc.lft.to/lastmile_qr_scan"}, "lat": 38.916802833333335, "is_disabled": 0, "lon": -77.03204833333334}, {"fusion_lat": 0.0, "type": "electric_bike", "name": "e85958fe57f0dff4634244b2f09a77e5", "fusion_lon": 0.0, "bike_id": "e85958fe57f0dff4634244b2f09a77e5", "is_reserved": 0, "rental_uris": {"android": "https://dc.lft.to/lastmile_qr_scan", "ios": "https://dc.lft.to/lastmile_qr_scan"}, "lat": 38.8840505, "is_disabled": 0, "lon": -76.96058266666667}, {"fusion_lat": 0.0, "type": "electric_scooter", "name": "559286204616ebc8287524bcf6baac85", "fusion_lon": 0.0, "bike_id": "559286204616ebc8287524bcf6baac85", "is_reserved": 0, "rental_uris": {"android": "https://dc.lft.to/lastmile_qr_scan", "ios": "https://dc.lft.to/lastmile_qr_scan"}, "lat": 38.9045295, "is_disabled": 0, "lon": -77.04492133333333}, {"fusion_lat": 0.0, "type": "electric_scooter", "name": "574ae39a05cb36aba8fdcf3063856ea0", "fusion_lon": 0.0, "bike_id": "574ae39a05cb36aba8fdcf3063856ea0", "is_reserved": 0, "rental_uris": {"android": "https://dc.lft.to/lastmile_qr_scan", "ios": "https://dc.lft.to/lastmile_qr_scan"}, "lat": 38.916488666666666, "is_disabled": 0, "lon": -77.02183183333334}, {"fusion_lat": 0.0, "type": "electric_scooter", "name": "63856082b9a7d4156ce7ee2cbd53b848", "fusion_lon": 0.0, "bike_id": "63856082b9a7d4156ce7ee2cbd53b848", "is_reserved": 0, "rental_uris": {"android": "https://dc.lft.to/lastmile_qr_scan", "ios": "https://dc.lft.to/lastmile_qr_scan"}, "lat": 38.9055495, "is_disabled": 0, "lon": -77.0502205}, {"fusion_lat": 0.0, "type": "electric_scooter", "name": "2528320fa682ee1ef78f24128a61117f", "fusion_lon": 0.0, "bike_id": "2528320fa682ee1ef78f24128a61117f", "is_reserved": 0, "rental_uris": {"android": "https://dc.lft.to/lastmile_qr_scan", "ios": "https://dc.lft.to/lastmile_qr_scan"}, "lat": 38.906675166666666, "is_disabled": 0, "lon": -77.038699}, {"fusion_lat": 0.0, "type": "electric_scooter", "name": "e0767d591cb965e34299b725730876ce", "fusion_lon": 0.0, "bike_id": "e0767d591cb965e34299b725730876ce", "is_reserved": 0, "rental_uris": {"android": "https://dc.lft.to/lastmile_qr_scan", "ios": "https://dc.lft.to/lastmile_qr_scan"}, "lat": 38.9168155, "is_disabled": 0, "lon": -77.02402316666667}, {"fusion_lat": 0.0, "type": "electric_scooter", "name": "07bb4facd6014f499caae997f41d9bd8", "fusion_lon": 0.0, "bike_id": "07bb4facd6014f499caae997f41d9bd8", "is_reserved": 0, "rental_uris": {"android": "https://dc.lft.to/lastmile_qr_scan", "ios": "https://dc.lft.to/lastmile_qr_scan"}, "lat": 38.918960166666665, "is_disabled": 0, "lon": -77.0363875}, {"fusion_lat": 0.0, "type": "electric_scooter", "name": "3c50626c1dbf8985f227e80b4c6e2673", "fusion_lon": 0.0, "bike_id": "3c50626c1dbf8985f227e80b4c6e2673", "is_reserved": 0, "rental_uris": {"android": "https://dc.lft.to/lastmile_qr_scan", "ios": "https://dc.lft.to/lastmile_qr_scan"}, "lat": 38.873643, "is_disabled": 0, "lon": -76.970083}, {"fusion_lat": 0.0, "type": "electric_scooter", "name": "af41c85f9cdc97a50e55d1dea4e2b48c", "fusion_lon": 0.0, "bike_id": "af41c85f9cdc97a50e55d1dea4e2b48c", "is_reserved": 0, "rental_uris": {"android": "https://dc.lft.to/lastmile_qr_scan", "ios": "https://dc.lft.to/lastmile_qr_scan"}, "lat": 38.959337833333336, "is_disabled": 0, "lon": -77.03123866666667}, {"fusion_lat": 0.0, "type": "electric_scooter", "name": "63c88a11a439eeff2b2238f15935b451", "fusion_lon": 0.0, "bike_id": "63c88a11a439eeff2b2238f15935b451", "is_reserved": 0, "rental_uris": {"android": "https://dc.lft.to/lastmile_qr_scan", "ios": "https://dc.lft.to/lastmile_qr_scan"}, "lat": 38.94293866666667, "is_disabled": 0, "lon": -77.02170733333334}, {"fusion_lat": 0.0, "type": "electric_scooter", "name": "f6e1a615943331cdb28b397c41613518", "fusion_lon": 0.0, "bike_id": "f6e1a615943331cdb28b397c41613518", "is_reserved": 0, "rental_uris": {"android": "https://dc.lft.to/lastmile_qr_scan", "ios": "https://dc.lft.to/lastmile_qr_scan"}, "lat": 38.91277, "is_disabled": 0, "lon": -77.02245683333334}, {"fusion_lat": 0.0, "type": "electric_scooter", "name": "ebb5adbc72dbf668faaed2b294b33e99", "fusion_lon": 0.0, "bike_id": "ebb5adbc72dbf668faaed2b294b33e99", "is_reserved": 0, "rental_uris": {"android": "https://dc.lft.to/lastmile_qr_scan", "ios": "https://dc.lft.to/lastmile_qr_scan"}, "lat": 38.90572316666667, "is_disabled": 0, "lon": -77.0392995}, {"fusion_lat": 0.0, "type": "electric_scooter", "name": "0e0ce0b1d9a8c81ddb6e658a1a842ff5", "fusion_lon": 0.0, "bike_id": "0e0ce0b1d9a8c81ddb6e658a1a842ff5", "is_reserved": 0, "rental_uris": {"android": "https://dc.lft.to/lastmile_qr_scan", "ios": "https://dc.lft.to/lastmile_qr_scan"}, "lat": 38.92704483333333, "is_disabled": 0, "lon": -77.02412833333334}, {"fusion_lat": 0.0, "type": "electric_scooter", "name": "05f9dcfde554e1fd6dc09fb3e3572f95", "fusion_lon": 0.0, "bike_id": "05f9dcfde554e1fd6dc09fb3e3572f95", "is_reserved": 0, "rental_uris": {"android": "https://dc.lft.to/lastmile_qr_scan", "ios": "https://dc.lft.to/lastmile_qr_scan"}, "lat": 38.9065325, "is_disabled": 0, "lon": -77.05147033333333}, {"fusion_lat": 0.0, "type": "electric_scooter", "name": "54516dfd6c2f03f804807baab81ff115", "fusion_lon": 0.0, "bike_id": "54516dfd6c2f03f804807baab81ff115", "is_reserved": 0, "rental_uris": {"android": "https://dc.lft.to/lastmile_qr_scan", "ios": "https://dc.lft.to/lastmile_qr_scan"}, "lat": 38.92876833333333, "is_disabled": 0, "lon": -77.03302016666666}, {"fusion_lat": 0.0, "type": "electric_scooter", "name": "6312f067c634a544307f3203b396a80f", "fusion_lon": 0.0, "bike_id": "6312f067c634a544307f3203b396a80f", "is_reserved": 0, "rental_uris": {"android": "https://dc.lft.to/lastmile_qr_scan", "ios": "https://dc.lft.to/lastmile_qr_scan"}, "lat": 38.90762616666667, "is_disabled": 0, "lon": -77.00090016666667}, {"fusion_lat": 0.0, "type": "electric_scooter", "name": "92e54d5b35ba2f09d97aeace11eedee2", "fusion_lon": 0.0, "bike_id": "92e54d5b35ba2f09d97aeace11eedee2", "is_reserved": 0, "rental_uris": {"android": "https://dc.lft.to/lastmile_qr_scan", "ios": "https://dc.lft.to/lastmile_qr_scan"}, "lat": 38.871743, "is_disabled": 0, "lon": -77.00622016666667}, {"fusion_lat": 0.0, "type": "electric_bike", "name": "d6c3f396dbc5e567adaf2febddf63b81", "fusion_lon": 0.0, "bike_id": "d6c3f396dbc5e567adaf2febddf63b81", "is_reserved": 0, "rental_uris": {"android": "https://dc.lft.to/lastmile_qr_scan", "ios": "https://dc.lft.to/lastmile_qr_scan"}, "lat": 38.84612933333333, "is_disabled": 0, "lon": -76.96909116666667}, {"fusion_lat": 0.0, "type": "electric_scooter", "name": "29e5410b3399aa9b1126e205f102a334", "fusion_lon": 0.0, "bike_id": "29e5410b3399aa9b1126e205f102a334", "is_reserved": 0, "rental_uris": {"android": "https://dc.lft.to/lastmile_qr_scan", "ios": "https://dc.lft.to/lastmile_qr_scan"}, "lat": 38.89976583333333, "is_disabled": 0, "lon": -77.033626}, {"fusion_lat": 0.0, "type": "electric_bike", "name": "586018717026643a3bb161289a5f6ce1", "fusion_lon": 0.0, "bike_id": "586018717026643a3bb161289a5f6ce1", "is_reserved": 0, "rental_uris": {"android": "https://dc.lft.to/lastmile_qr_scan", "ios": "https://dc.lft.to/lastmile_qr_scan"}, "lat": 38.909719, "is_disabled": 0, "lon": -77.044216}, {"fusion_lat": 0.0, "type": "electric_scooter", "name": "dac4870f270e96f7c76744b4aacfe13f", "fusion_lon": 0.0, "bike_id": "dac4870f270e96f7c76744b4aacfe13f", "is_reserved": 0, "rental_uris": {"android": "https://dc.lft.to/lastmile_qr_scan", "ios": "https://dc.lft.to/lastmile_qr_scan"}, "lat": 38.907151666666664, "is_disabled": 0, "lon": -77.0504225}, {"fusion_lat": 0.0, "type": "electric_scooter", "name": "535a5eceb071e9efb4c6c6037cfdf936", "fusion_lon": 0.0, "bike_id": "535a5eceb071e9efb4c6c6037cfdf936", "is_reserved": 0, "rental_uris": {"android": "https://dc.lft.to/lastmile_qr_scan", "ios": "https://dc.lft.to/lastmile_qr_scan"}, "lat": 38.914554333333335, "is_disabled": 0, "lon": -77.01521833333334}, {"fusion_lat": 0.0, "type": "electric_scooter", "name": "4927fe1490cfe8573c933bfa39302df5", "fusion_lon": 0.0, "bike_id": "4927fe1490cfe8573c933bfa39302df5", "is_reserved": 0, "rental_uris": {"android": "https://dc.lft.to/lastmile_qr_scan", "ios": "https://dc.lft.to/lastmile_qr_scan"}, "lat": 38.8939005, "is_disabled": 0, "lon": -77.02252333333334}, {"fusion_lat": 0.0, "type": "electric_scooter", "name": "bd816543fc3a079a88ec316956b2c8b6", "fusion_lon": 0.0, "bike_id": "bd816543fc3a079a88ec316956b2c8b6", "is_reserved": 0, "rental_uris": {"android": "https://dc.lft.to/lastmile_qr_scan", "ios": "https://dc.lft.to/lastmile_qr_scan"}, "lat": 38.88364516666667, "is_disabled": 0, "lon": -76.94153383333334}, {"fusion_lat": 0.0, "type": "electric_scooter", "name": "dc1db5812bd0f8110d256bfffa6ef0d8", "fusion_lon": 0.0, "bike_id": "dc1db5812bd0f8110d256bfffa6ef0d8", "is_reserved": 0, "rental_uris": {"android": "https://dc.lft.to/lastmile_qr_scan", "ios": "https://dc.lft.to/lastmile_qr_scan"}, "lat": 38.89101933333333, "is_disabled": 0, "lon": -77.00339566666666}, {"fusion_lat": 0.0, "type": "electric_scooter", "name": "a8b370177cde0a35fdf9e815a799711c", "fusion_lon": 0.0, "bike_id": "a8b370177cde0a35fdf9e815a799711c", "is_reserved": 0, "rental_uris": {"android": "https://dc.lft.to/lastmile_qr_scan", "ios": "https://dc.lft.to/lastmile_qr_scan"}, "lat": 38.90292016666667, "is_disabled": 0, "lon": -77.04492516666667}, {"fusion_lat": 0.0, "type": "electric_scooter", "name": "9e69e4f752488ec13a45ec5bd6a65b2f", "fusion_lon": 0.0, "bike_id": "9e69e4f752488ec13a45ec5bd6a65b2f", "is_reserved": 0, "rental_uris": {"android": "https://dc.lft.to/lastmile_qr_scan", "ios": "https://dc.lft.to/lastmile_qr_scan"}, "lat": 38.9143615, "is_disabled": 0, "lon": -77.00457033333333}, {"fusion_lat": 0.0, "type": "electric_scooter", "name": "ab230e812e2c3e0e27c1d1e11a5088f2", "fusion_lon": 0.0, "bike_id": "ab230e812e2c3e0e27c1d1e11a5088f2", "is_reserved": 0, "rental_uris": {"android": "https://dc.lft.to/lastmile_qr_scan", "ios": "https://dc.lft.to/lastmile_qr_scan"}, "lat": 38.900938833333335, "is_disabled": 0, "lon": -77.04883333333333}, {"fusion_lat": 0.0, "type": "electric_scooter", "name": "bc14770c64d2cc17b7c17cffa0546efc", "fusion_lon": 0.0, "bike_id": "bc14770c64d2cc17b7c17cffa0546efc", "is_reserved": 0, "rental_uris": {"android": "https://dc.lft.to/lastmile_qr_scan", "ios": "https://dc.lft.to/lastmile_qr_scan"}, "lat": 38.94315266666667, "is_disabled": 0, "lon": -77.0172375}, {"fusion_lat": 0.0, "type": "electric_scooter", "name": "3c57aecb165403aff2069552d5e5802a", "fusion_lon": 0.0, "bike_id": "3c57aecb165403aff2069552d5e5802a", "is_reserved": 0, "rental_uris": {"android": "https://dc.lft.to/lastmile_qr_scan", "ios": "https://dc.lft.to/lastmile_qr_scan"}, "lat": 38.900640333333335, "is_disabled": 0, "lon": -77.04532833333333}, {"fusion_lat": 0.0, "type": "electric_scooter", "name": "d815baf888342b23865b88c81ea07fc6", "fusion_lon": 0.0, "bike_id": "d815baf888342b23865b88c81ea07fc6", "is_reserved": 0, "rental_uris": {"android": "https://dc.lft.to/lastmile_qr_scan", "ios": "https://dc.lft.to/lastmile_qr_scan"}, "lat": 38.90438416666667, "is_disabled": 0, "lon": -77.04349166666667}, {"fusion_lat": 0.0, "type": "electric_scooter", "name": "b42441a64b6b16b4c624402e647c02e7", "fusion_lon": 0.0, "bike_id": "b42441a64b6b16b4c624402e647c02e7", "is_reserved": 0, "rental_uris": {"android": "https://dc.lft.to/lastmile_qr_scan", "ios": "https://dc.lft.to/lastmile_qr_scan"}, "lat": 38.90636116666667, "is_disabled": 0, "lon": -77.06904}, {"fusion_lat": 0.0, "type": "electric_scooter", "name": "587679dac4a84bf461f4a9974ea3248f", "fusion_lon": 0.0, "bike_id": "587679dac4a84bf461f4a9974ea3248f", "is_reserved": 0, "rental_uris": {"android": "https://dc.lft.to/lastmile_qr_scan", "ios": "https://dc.lft.to/lastmile_qr_scan"}, "lat": 38.899339, "is_disabled": 0, "lon": -77.0145445}, {"fusion_lat": 0.0, "type": "electric_scooter", "name": "df4149f4beadf993ca906cc84e0f51db", "fusion_lon": 0.0, "bike_id": "df4149f4beadf993ca906cc84e0f51db", "is_reserved": 0, "rental_uris": {"android": "https://dc.lft.to/lastmile_qr_scan", "ios": "https://dc.lft.to/lastmile_qr_scan"}, "lat": 38.9171425, "is_disabled": 0, "lon": -77.03343583333333}, {"fusion_lat": 0.0, "type": "electric_scooter", "name": "13a94dfa116c78329ec092a19e96ec95", "fusion_lon": 0.0, "bike_id": "13a94dfa116c78329ec092a19e96ec95", "is_reserved": 0, "rental_uris": {"android": "https://dc.lft.to/lastmile_qr_scan", "ios": "https://dc.lft.to/lastmile_qr_scan"}, "lat": 38.89850283333333, "is_disabled": 0, "lon": -76.99030033333334}, {"fusion_lat": 0.0, "type": "electric_scooter", "name": "4c4d4f7cb4cf38fa1320f07f1af9f67f", "fusion_lon": 0.0, "bike_id": "4c4d4f7cb4cf38fa1320f07f1af9f67f", "is_reserved": 0, "rental_uris": {"android": "https://dc.lft.to/lastmile_qr_scan", "ios": "https://dc.lft.to/lastmile_qr_scan"}, "lat": 38.915982, "is_disabled": 0, "lon": -77.03517116666667}, {"fusion_lat": 0.0, "type": "electric_scooter", "name": "5d3a604e2a5a53947e36d57e1565dd18", "fusion_lon": 0.0, "bike_id": "5d3a604e2a5a53947e36d57e1565dd18", "is_reserved": 0, "rental_uris": {"android": "https://dc.lft.to/lastmile_qr_scan", "ios": "https://dc.lft.to/lastmile_qr_scan"}, "lat": 38.93421283333333, "is_disabled": 0, "lon": -77.044057}, {"fusion_lat": 0.0, "type": "electric_scooter", "name": "87ebacad802e954cff4872d9f7457fc2", "fusion_lon": 0.0, "bike_id": "87ebacad802e954cff4872d9f7457fc2", "is_reserved": 0, "rental_uris": {"android": "https://dc.lft.to/lastmile_qr_scan", "ios": "https://dc.lft.to/lastmile_qr_scan"}, "lat": 38.9206885, "is_disabled": 0, "lon": -77.036645}, {"fusion_lat": 0.0, "type": "electric_scooter", "name": "1cd24c01cd0426b143d5af95a5b43c16", "fusion_lon": 0.0, "bike_id": "1cd24c01cd0426b143d5af95a5b43c16", "is_reserved": 0, "rental_uris": {"android": "https://dc.lft.to/lastmile_qr_scan", "ios": "https://dc.lft.to/lastmile_qr_scan"}, "lat": 38.90632933333333, "is_disabled": 0, "lon": -77.05138116666667}, {"fusion_lat": 0.0, "type": "electric_scooter", "name": "a886e66737adc0a766408472af8a0761", "fusion_lon": 0.0, "bike_id": "a886e66737adc0a766408472af8a0761", "is_reserved": 0, "rental_uris": {"android": "https://dc.lft.to/lastmile_qr_scan", "ios": "https://dc.lft.to/lastmile_qr_scan"}, "lat": 38.91266, "is_disabled": 0, "lon": -77.0287595}, {"fusion_lat": 0.0, "type": "electric_scooter", "name": "4d88e96e99977e550debe5316653dde4", "fusion_lon": 0.0, "bike_id": "4d88e96e99977e550debe5316653dde4", "is_reserved": 0, "rental_uris": {"android": "https://dc.lft.to/lastmile_qr_scan", "ios": "https://dc.lft.to/lastmile_qr_scan"}, "lat": 38.92913933333333, "is_disabled": 0, "lon": -77.021906}, {"fusion_lat": 0.0, "type": "electric_scooter", "name": "b9a67e541a59850a57f32aadd9242927", "fusion_lon": 0.0, "bike_id": "b9a67e541a59850a57f32aadd9242927", "is_reserved": 0, "rental_uris": {"android": "https://dc.lft.to/lastmile_qr_scan", "ios": "https://dc.lft.to/lastmile_qr_scan"}, "lat": 38.905159833333336, "is_disabled": 0, "lon": -77.038483}, {"fusion_lat": 0.0, "type": "electric_scooter", "name": "bdd075fd9d50c40920f1ec586e6752ec", "fusion_lon": 0.0, "bike_id": "bdd075fd9d50c40920f1ec586e6752ec", "is_reserved": 0, "rental_uris": {"android": "https://dc.lft.to/lastmile_qr_scan", "ios": "https://dc.lft.to/lastmile_qr_scan"}, "lat": 38.919683, "is_disabled": 0, "lon": -77.01806583333334}, {"fusion_lat": 0.0, "type": "electric_scooter", "name": "27d9b253416b86d931a524bbb0623c9f", "fusion_lon": 0.0, "bike_id": "27d9b253416b86d931a524bbb0623c9f", "is_reserved": 0, "rental_uris": {"android": "https://dc.lft.to/lastmile_qr_scan", "ios": "https://dc.lft.to/lastmile_qr_scan"}, "lat": 38.896097833333336, "is_disabled": 0, "lon": -77.04467483333333}, {"fusion_lat": 0.0, "type": "electric_scooter", "name": "c593b0bee429b704f78f1918b51a60cd", "fusion_lon": 0.0, "bike_id": "c593b0bee429b704f78f1918b51a60cd", "is_reserved": 0, "rental_uris": {"android": "https://dc.lft.to/lastmile_qr_scan", "ios": "https://dc.lft.to/lastmile_qr_scan"}, "lat": 38.89966716666667, "is_disabled": 0, "lon": -77.03069183333334}, {"fusion_lat": 0.0, "type": "electric_scooter", "name": "e49d86885505c0bf47ff411cbbae2cf7", "fusion_lon": 0.0, "bike_id": "e49d86885505c0bf47ff411cbbae2cf7", "is_reserved": 0, "rental_uris": {"android": "https://dc.lft.to/lastmile_qr_scan", "ios": "https://dc.lft.to/lastmile_qr_scan"}, "lat": 38.893546, "is_disabled": 0, "lon": -77.0033495}, {"fusion_lat": 0.0, "type": "electric_scooter", "name": "e783635e815cddcc94fd5575186dcab7", "fusion_lon": 0.0, "bike_id": "e783635e815cddcc94fd5575186dcab7", "is_reserved": 0, "rental_uris": {"android": "https://dc.lft.to/lastmile_qr_scan", "ios": "https://dc.lft.to/lastmile_qr_scan"}, "lat": 38.883644833333335, "is_disabled": 0, "lon": -76.99504266666666}, {"fusion_lat": 0.0, "type": "electric_scooter", "name": "1c05b733c17114beaa05708a7d3220f2", "fusion_lon": 0.0, "bike_id": "1c05b733c17114beaa05708a7d3220f2", "is_reserved": 0, "rental_uris": {"android": "https://dc.lft.to/lastmile_qr_scan", "ios": "https://dc.lft.to/lastmile_qr_scan"}, "lat": 38.8991485, "is_disabled": 0, "lon": -76.93371583333334}, {"fusion_lat": 0.0, "type": "electric_scooter", "name": "5f118e825930f88b4400e56393b9dc60", "fusion_lon": 0.0, "bike_id": "5f118e825930f88b4400e56393b9dc60", "is_reserved": 0, "rental_uris": {"android": "https://dc.lft.to/lastmile_qr_scan", "ios": "https://dc.lft.to/lastmile_qr_scan"}, "lat": 38.922306166666665, "is_disabled": 0, "lon": -77.034224}, {"fusion_lat": 0.0, "type": "electric_scooter", "name": "b12bd9e4cff47e1bc8dad8cf4c47ea59", "fusion_lon": 0.0, "bike_id": "b12bd9e4cff47e1bc8dad8cf4c47ea59", "is_reserved": 0, "rental_uris": {"android": "https://dc.lft.to/lastmile_qr_scan", "ios": "https://dc.lft.to/lastmile_qr_scan"}, "lat": 38.8922375, "is_disabled": 0, "lon": -77.04685816666667}, {"fusion_lat": 0.0, "type": "electric_bike", "name": "15252c71a2818e462d7d7fb981593a65", "fusion_lon": 0.0, "bike_id": "15252c71a2818e462d7d7fb981593a65", "is_reserved": 0, "rental_uris": {"android": "https://dc.lft.to/lastmile_qr_scan", "ios": "https://dc.lft.to/lastmile_qr_scan"}, "lat": 38.877305666666665, "is_disabled": 0, "lon": -76.98106033333333}, {"fusion_lat": 0.0, "type": "electric_scooter", "name": "d65a9e7bfd53e3e092a142a21b5fbdef", "fusion_lon": 0.0, "bike_id": "d65a9e7bfd53e3e092a142a21b5fbdef", "is_reserved": 0, "rental_uris": {"android": "https://dc.lft.to/lastmile_qr_scan", "ios": "https://dc.lft.to/lastmile_qr_scan"}, "lat": 38.923025333333335, "is_disabled": 0, "lon": -77.04458833333334}, {"fusion_lat": 0.0, "type": "electric_scooter", "name": "55d0acf7b36a0f278ea4e0860bf627dc", "fusion_lon": 0.0, "bike_id": "55d0acf7b36a0f278ea4e0860bf627dc", "is_reserved": 0, "rental_uris": {"android": "https://dc.lft.to/lastmile_qr_scan", "ios": "https://dc.lft.to/lastmile_qr_scan"}, "lat": 38.91949266666666, "is_disabled": 0, "lon": -77.01898283333334}, {"fusion_lat": 0.0, "type": "electric_scooter", "name": "ddd638f9a4da4ae8f4a3b12bbb4fe91e", "fusion_lon": 0.0, "bike_id": "ddd638f9a4da4ae8f4a3b12bbb4fe91e", "is_reserved": 0, "rental_uris": {"android": "https://dc.lft.to/lastmile_qr_scan", "ios": "https://dc.lft.to/lastmile_qr_scan"}, "lat": 38.92037233333333, "is_disabled": 0, "lon": -77.0121875}, {"fusion_lat": 0.0, "type": "electric_scooter", "name": "6389416b1b77b0b7302b9213eaf27ab9", "fusion_lon": 0.0, "bike_id": "6389416b1b77b0b7302b9213eaf27ab9", "is_reserved": 0, "rental_uris": {"android": "https://dc.lft.to/lastmile_qr_scan", "ios": "https://dc.lft.to/lastmile_qr_scan"}, "lat": 38.948974666666665, "is_disabled": 0, "lon": -77.00648133333333}, {"fusion_lat": 0.0, "type": "electric_scooter", "name": "ccee6b5858d886e70b90bde9c936df78", "fusion_lon": 0.0, "bike_id": "ccee6b5858d886e70b90bde9c936df78", "is_reserved": 0, "rental_uris": {"android": "https://dc.lft.to/lastmile_qr_scan", "ios": "https://dc.lft.to/lastmile_qr_scan"}, "lat": 38.874678, "is_disabled": 0, "lon": -77.00956183333334}, {"fusion_lat": 0.0, "type": "electric_scooter", "name": "e1cbf8e9fc95e0428da9da0d32955918", "fusion_lon": 0.0, "bike_id": "e1cbf8e9fc95e0428da9da0d32955918", "is_reserved": 0, "rental_uris": {"android": "https://dc.lft.to/lastmile_qr_scan", "ios": "https://dc.lft.to/lastmile_qr_scan"}, "lat": 38.905275833333334, "is_disabled": 0, "lon": -77.06422883333333}, {"fusion_lat": 0.0, "type": "electric_scooter", "name": "a44e159a608250d02c5cfac47f3c310e", "fusion_lon": 0.0, "bike_id": "a44e159a608250d02c5cfac47f3c310e", "is_reserved": 0, "rental_uris": {"android": "https://dc.lft.to/lastmile_qr_scan", "ios": "https://dc.lft.to/lastmile_qr_scan"}, "lat": 38.86061316666667, "is_disabled": 0, "lon": -76.98423383333333}, {"fusion_lat": 0.0, "type": "electric_scooter", "name": "a6c3b741c8729cb5911f0ecd323f2277", "fusion_lon": 0.0, "bike_id": "a6c3b741c8729cb5911f0ecd323f2277", "is_reserved": 0, "rental_uris": {"android": "https://dc.lft.to/lastmile_qr_scan", "ios": "https://dc.lft.to/lastmile_qr_scan"}, "lat": 38.93458016666666, "is_disabled": 0, "lon": -77.05784983333334}, {"fusion_lat": 0.0, "type": "electric_scooter", "name": "6eea59aae683d2bc730e321a21aa0429", "fusion_lon": 0.0, "bike_id": "6eea59aae683d2bc730e321a21aa0429", "is_reserved": 0, "rental_uris": {"android": "https://dc.lft.to/lastmile_qr_scan", "ios": "https://dc.lft.to/lastmile_qr_scan"}, "lat": 38.90449516666666, "is_disabled": 0, "lon": -77.03229483333334}, {"fusion_lat": 0.0, "type": "electric_scooter", "name": "7ec36aae8a89e9ab9760aae384d15f9f", "fusion_lon": 0.0, "bike_id": "7ec36aae8a89e9ab9760aae384d15f9f", "is_reserved": 0, "rental_uris": {"android": "https://dc.lft.to/lastmile_qr_scan", "ios": "https://dc.lft.to/lastmile_qr_scan"}, "lat": 38.918536833333334, "is_disabled": 0, "lon": -77.0254835}, {"fusion_lat": 0.0, "type": "electric_scooter", "name": "dade3d14aead36a31ee1d8f163c748ec", "fusion_lon": 0.0, "bike_id": "dade3d14aead36a31ee1d8f163c748ec", "is_reserved": 0, "rental_uris": {"android": "https://dc.lft.to/lastmile_qr_scan", "ios": "https://dc.lft.to/lastmile_qr_scan"}, "lat": 38.898460666666665, "is_disabled": 0, "lon": -76.94639416666666}, {"fusion_lat": 0.0, "type": "electric_scooter", "name": "154e3d6c250505d776a62129784973e6", "fusion_lon": 0.0, "bike_id": "154e3d6c250505d776a62129784973e6", "is_reserved": 0, "rental_uris": {"android": "https://dc.lft.to/lastmile_qr_scan", "ios": "https://dc.lft.to/lastmile_qr_scan"}, "lat": 38.8804855, "is_disabled": 0, "lon": -77.01999633333334}, {"fusion_lat": 0.0, "type": "electric_scooter", "name": "8540e0953025ddea2a0d7ab317e2664c", "fusion_lon": 0.0, "bike_id": "8540e0953025ddea2a0d7ab317e2664c", "is_reserved": 0, "rental_uris": {"android": "https://dc.lft.to/lastmile_qr_scan", "ios": "https://dc.lft.to/lastmile_qr_scan"}, "lat": 38.92291083333333, "is_disabled": 0, "lon": -77.0211345}, {"fusion_lat": 0.0, "type": "electric_scooter", "name": "1fc6f607eff2a45d4f76c50ff7615b48", "fusion_lon": 0.0, "bike_id": "1fc6f607eff2a45d4f76c50ff7615b48", "is_reserved": 0, "rental_uris": {"android": "https://dc.lft.to/lastmile_qr_scan", "ios": "https://dc.lft.to/lastmile_qr_scan"}, "lat": 38.9077265, "is_disabled": 0, "lon": -77.06334566666666}, {"fusion_lat": 0.0, "type": "electric_scooter", "name": "5e8199ed141199ada3608f971d1cd06a", "fusion_lon": 0.0, "bike_id": "5e8199ed141199ada3608f971d1cd06a", "is_reserved": 0, "rental_uris": {"android": "https://dc.lft.to/lastmile_qr_scan", "ios": "https://dc.lft.to/lastmile_qr_scan"}, "lat": 38.90721283333333, "is_disabled": 0, "lon": -77.04176016666666}, {"fusion_lat": 0.0, "type": "electric_bike", "name": "7cbf004d1d47f6afb0c44dd85db7f26e", "fusion_lon": 0.0, "bike_id": "7cbf004d1d47f6afb0c44dd85db7f26e", "is_reserved": 0, "rental_uris": {"android": "https://dc.lft.to/lastmile_qr_scan", "ios": "https://dc.lft.to/lastmile_qr_scan"}, "lat": 39.0343215, "is_disabled": 0, "lon": -77.040908}, {"fusion_lat": 0.0, "type": "electric_scooter", "name": "f4acccbf656d4f45ea2f0e33b1dfc8be", "fusion_lon": 0.0, "bike_id": "f4acccbf656d4f45ea2f0e33b1dfc8be", "is_reserved": 0, "rental_uris": {"android": "https://dc.lft.to/lastmile_qr_scan", "ios": "https://dc.lft.to/lastmile_qr_scan"}, "lat": 38.92151783333333, "is_disabled": 0, "lon": -77.03367316666667}, {"fusion_lat": 0.0, "type": "electric_scooter", "name": "6c8dc9d687ecc81fa00f8a8828bd6729", "fusion_lon": 0.0, "bike_id": "6c8dc9d687ecc81fa00f8a8828bd6729", "is_reserved": 0, "rental_uris": {"android": "https://dc.lft.to/lastmile_qr_scan", "ios": "https://dc.lft.to/lastmile_qr_scan"}, "lat": 38.920561166666666, "is_disabled": 0, "lon": -77.01683616666666}, {"fusion_lat": 0.0, "type": "electric_scooter", "name": "60979d361ff3a1a440dda51274e86609", "fusion_lon": 0.0, "bike_id": "60979d361ff3a1a440dda51274e86609", "is_reserved": 0, "rental_uris": {"android": "https://dc.lft.to/lastmile_qr_scan", "ios": "https://dc.lft.to/lastmile_qr_scan"}, "lat": 38.90481466666667, "is_disabled": 0, "lon": -77.00208416666666}, {"fusion_lat": 0.0, "type": "electric_bike", "name": "14b5e52cf97b0f751c49c170a1d823f6", "fusion_lon": 0.0, "bike_id": "14b5e52cf97b0f751c49c170a1d823f6", "is_reserved": 0, "rental_uris": {"android": "https://dc.lft.to/lastmile_qr_scan", "ios": "https://dc.lft.to/lastmile_qr_scan"}, "lat": 39.05494616666667, "is_disabled": 0, "lon": -77.1178595}, {"fusion_lat": 0.0, "type": "electric_scooter", "name": "4e308e9aa87f33bfcf07dac975b28500", "fusion_lon": 0.0, "bike_id": "4e308e9aa87f33bfcf07dac975b28500", "is_reserved": 0, "rental_uris": {"android": "https://dc.lft.to/lastmile_qr_scan", "ios": "https://dc.lft.to/lastmile_qr_scan"}, "lat": 38.92299883333333, "is_disabled": 0, "lon": -77.042662}, {"fusion_lat": 0.0, "type": "electric_scooter", "name": "57886e8d13ca2a3d9df334105bf74106", "fusion_lon": 0.0, "bike_id": "57886e8d13ca2a3d9df334105bf74106", "is_reserved": 0, "rental_uris": {"android": "https://dc.lft.to/lastmile_qr_scan", "ios": "https://dc.lft.to/lastmile_qr_scan"}, "lat": 38.87965583333333, "is_disabled": 0, "lon": -76.98743683333333}, {"fusion_lat": 0.0, "type": "electric_bike", "name": "45b47413944b5f73d51b15a49b22692d", "fusion_lon": 0.0, "bike_id": "45b47413944b5f73d51b15a49b22692d", "is_reserved": 0, "rental_uris": {"android": "https://dc.lft.to/lastmile_qr_scan", "ios": "https://dc.lft.to/lastmile_qr_scan"}, "lat": 38.9629925, "is_disabled": 0, "lon": -77.01109033333333}, {"fusion_lat": 0.0, "type": "electric_bike", "name": "93a0598f29403e56c88282a37fb423e0", "fusion_lon": 0.0, "bike_id": "93a0598f29403e56c88282a37fb423e0", "is_reserved": 0, "rental_uris": {"android": "https://dc.lft.to/lastmile_qr_scan", "ios": "https://dc.lft.to/lastmile_qr_scan"}, "lat": 38.88335883333333, "is_disabled": 0, "lon": -77.06563133333333}, {"fusion_lat": 0.0, "type": "electric_scooter", "name": "cfc74ccc835041a3d8f194e23087a82f", "fusion_lon": 0.0, "bike_id": "cfc74ccc835041a3d8f194e23087a82f", "is_reserved": 0, "rental_uris": {"android": "https://dc.lft.to/lastmile_qr_scan", "ios": "https://dc.lft.to/lastmile_qr_scan"}, "lat": 38.91437966666667, "is_disabled": 0, "lon": -77.01732066666666}, {"fusion_lat": 0.0, "type": "electric_bike", "name": "fbf4af15a1ccd18c58cf348cebb7d1f7", "fusion_lon": 0.0, "bike_id": "fbf4af15a1ccd18c58cf348cebb7d1f7", "is_reserved": 0, "rental_uris": {"android": "https://dc.lft.to/lastmile_qr_scan", "ios": "https://dc.lft.to/lastmile_qr_scan"}, "lat": 38.86043133333333, "is_disabled": 0, "lon": -77.095592}, {"fusion_lat": 0.0, "type": "electric_scooter", "name": "711f5fcecd250b701b8b553545bb4252", "fusion_lon": 0.0, "bike_id": "711f5fcecd250b701b8b553545bb4252", "is_reserved": 0, "rental_uris": {"android": "https://dc.lft.to/lastmile_qr_scan", "ios": "https://dc.lft.to/lastmile_qr_scan"}, "lat": 38.9038785, "is_disabled": 0, "lon": -77.038434}, {"fusion_lat": 0.0, "type": "electric_scooter", "name": "d5715605d854ea0265217ff6d1f21330", "fusion_lon": 0.0, "bike_id": "d5715605d854ea0265217ff6d1f21330", "is_reserved": 0, "rental_uris": {"android": "https://dc.lft.to/lastmile_qr_scan", "ios": "https://dc.lft.to/lastmile_qr_scan"}, "lat": 38.930349166666666, "is_disabled": 0, "lon": -77.01301116666667}, {"fusion_lat": 0.0, "type": "electric_bike", "name": "2d7d872ee3ed64de9670d6c65fd5cd33", "fusion_lon": 0.0, "bike_id": "2d7d872ee3ed64de9670d6c65fd5cd33", "is_reserved": 0, "rental_uris": {"android": "https://dc.lft.to/lastmile_qr_scan", "ios": "https://dc.lft.to/lastmile_qr_scan"}, "lat": 38.89817083333333, "is_disabled": 0, "lon": -77.0060235}, {"fusion_lat": 0.0, "type": "electric_scooter", "name": "8882da85c679fa616310db22c1a6a33c", "fusion_lon": 0.0, "bike_id": "8882da85c679fa616310db22c1a6a33c", "is_reserved": 0, "rental_uris": {"android": "https://dc.lft.to/lastmile_qr_scan", "ios": "https://dc.lft.to/lastmile_qr_scan"}, "lat": 38.92817383333333, "is_disabled": 0, "lon": -77.0552405}, {"fusion_lat": 0.0, "type": "electric_scooter", "name": "99a860e97e05484b14ec04d630ba4d65", "fusion_lon": 0.0, "bike_id": "99a860e97e05484b14ec04d630ba4d65", "is_reserved": 0, "rental_uris": {"android": "https://dc.lft.to/lastmile_qr_scan", "ios": "https://dc.lft.to/lastmile_qr_scan"}, "lat": 38.887168, "is_disabled": 0, "lon": -77.0219495}, {"fusion_lat": 0.0, "type": "electric_scooter", "name": "6e95bc62b439fe0e589c8dca9b0b52d7", "fusion_lon": 0.0, "bike_id": "6e95bc62b439fe0e589c8dca9b0b52d7", "is_reserved": 0, "rental_uris": {"android": "https://dc.lft.to/lastmile_qr_scan", "ios": "https://dc.lft.to/lastmile_qr_scan"}, "lat": 38.89221116666667, "is_disabled": 0, "lon": -77.022186}, {"fusion_lat": 0.0, "type": "electric_scooter", "name": "a8c7ac1fa96db260735417d98dea42f7", "fusion_lon": 0.0, "bike_id": "a8c7ac1fa96db260735417d98dea42f7", "is_reserved": 0, "rental_uris": {"android": "https://dc.lft.to/lastmile_qr_scan", "ios": "https://dc.lft.to/lastmile_qr_scan"}, "lat": 38.913272, "is_disabled": 0, "lon": -77.04534066666666}, {"fusion_lat": 0.0, "type": "electric_scooter", "name": "c7b60eb5bc647fb2aeeb004eaad2b722", "fusion_lon": 0.0, "bike_id": "c7b60eb5bc647fb2aeeb004eaad2b722", "is_reserved": 0, "rental_uris": {"android": "https://dc.lft.to/lastmile_qr_scan", "ios": "https://dc.lft.to/lastmile_qr_scan"}, "lat": 38.892186833333334, "is_disabled": 0, "lon": -77.04503933333334}, {"fusion_lat": 0.0, "type": "electric_scooter", "name": "bfed61deee2f1e3b1782e48809599f50", "fusion_lon": 0.0, "bike_id": "bfed61deee2f1e3b1782e48809599f50", "is_reserved": 0, "rental_uris": {"android": "https://dc.lft.to/lastmile_qr_scan", "ios": "https://dc.lft.to/lastmile_qr_scan"}, "lat": 38.919992, "is_disabled": 0, "lon": -77.02129016666666}, {"fusion_lat": 0.0, "type": "electric_scooter", "name": "0161822ffcf6ad90018431a9368e3c21", "fusion_lon": 0.0, "bike_id": "0161822ffcf6ad90018431a9368e3c21", "is_reserved": 0, "rental_uris": {"android": "https://dc.lft.to/lastmile_qr_scan", "ios": "https://dc.lft.to/lastmile_qr_scan"}, "lat": 38.8993205, "is_disabled": 0, "lon": -77.0400075}, {"fusion_lat": 0.0, "type": "electric_scooter", "name": "aee4cf491343b54227334a4917ea9495", "fusion_lon": 0.0, "bike_id": "aee4cf491343b54227334a4917ea9495", "is_reserved": 0, "rental_uris": {"android": "https://dc.lft.to/lastmile_qr_scan", "ios": "https://dc.lft.to/lastmile_qr_scan"}, "lat": 38.88987633333333, "is_disabled": 0, "lon": -76.98333016666666}, {"fusion_lat": 0.0, "type": "electric_scooter", "name": "09c372a2c8112f77d895dcfee41858e3", "fusion_lon": 0.0, "bike_id": "09c372a2c8112f77d895dcfee41858e3", "is_reserved": 0, "rental_uris": {"android": "https://dc.lft.to/lastmile_qr_scan", "ios": "https://dc.lft.to/lastmile_qr_scan"}, "lat": 38.92985516666667, "is_disabled": 0, "lon": -77.0347055}, {"fusion_lat": 0.0, "type": "electric_scooter", "name": "ebe68cc46fb0307be24f23fcfcc2eebb", "fusion_lon": 0.0, "bike_id": "ebe68cc46fb0307be24f23fcfcc2eebb", "is_reserved": 0, "rental_uris": {"android": "https://dc.lft.to/lastmile_qr_scan", "ios": "https://dc.lft.to/lastmile_qr_scan"}, "lat": 38.90014266666667, "is_disabled": 0, "lon": -77.04506933333333}, {"fusion_lat": 0.0, "type": "electric_scooter", "name": "2ae10f777bdab04fc4d9593aa413823e", "fusion_lon": 0.0, "bike_id": "2ae10f777bdab04fc4d9593aa413823e", "is_reserved": 0, "rental_uris": {"android": "https://dc.lft.to/lastmile_qr_scan", "ios": "https://dc.lft.to/lastmile_qr_scan"}, "lat": 38.921187, "is_disabled": 0, "lon": -77.046867}, {"fusion_lat": 0.0, "type": "electric_scooter", "name": "e257bf63162281e83a1100fea9ebeb10", "fusion_lon": 0.0, "bike_id": "e257bf63162281e83a1100fea9ebeb10", "is_reserved": 0, "rental_uris": {"android": "https://dc.lft.to/lastmile_qr_scan", "ios": "https://dc.lft.to/lastmile_qr_scan"}, "lat": 38.9019895, "is_disabled": 0, "lon": -77.021656}, {"fusion_lat": 0.0, "type": "electric_scooter", "name": "b646e71bb80ac45eab6e9956df59fc2b", "fusion_lon": 0.0, "bike_id": "b646e71bb80ac45eab6e9956df59fc2b", "is_reserved": 0, "rental_uris": {"android": "https://dc.lft.to/lastmile_qr_scan", "ios": "https://dc.lft.to/lastmile_qr_scan"}, "lat": 38.887187, "is_disabled": 0, "lon": -77.02202266666667}, {"fusion_lat": 0.0, "type": "electric_bike", "name": "a08383a76bc1df3ed30794580cfef432", "fusion_lon": 0.0, "bike_id": "a08383a76bc1df3ed30794580cfef432", "is_reserved": 0, "rental_uris": {"android": "https://dc.lft.to/lastmile_qr_scan", "ios": "https://dc.lft.to/lastmile_qr_scan"}, "lat": 38.96813183333333, "is_disabled": 0, "lon": -77.07226883333334}, {"fusion_lat": 0.0, "type": "electric_scooter", "name": "749d10a8ba7fb1e0b70afadbd1ee4353", "fusion_lon": 0.0, "bike_id": "749d10a8ba7fb1e0b70afadbd1ee4353", "is_reserved": 0, "rental_uris": {"android": "https://dc.lft.to/lastmile_qr_scan", "ios": "https://dc.lft.to/lastmile_qr_scan"}, "lat": 38.91458183333334, "is_disabled": 0, "lon": -77.01890866666666}, {"fusion_lat": 0.0, "type": "electric_scooter", "name": "1d5c6b05bdc182f3850ec48d280ecb6f", "fusion_lon": 0.0, "bike_id": "1d5c6b05bdc182f3850ec48d280ecb6f", "is_reserved": 0, "rental_uris": {"android": "https://dc.lft.to/lastmile_qr_scan", "ios": "https://dc.lft.to/lastmile_qr_scan"}, "lat": 38.91606183333333, "is_disabled": 0, "lon": -77.0238745}, {"fusion_lat": 0.0, "type": "electric_bike", "name": "0645b2e083c12724df5e7dd7b21089ac", "fusion_lon": 0.0, "bike_id": "0645b2e083c12724df5e7dd7b21089ac", "is_reserved": 0, "rental_uris": {"android": "https://dc.lft.to/lastmile_qr_scan", "ios": "https://dc.lft.to/lastmile_qr_scan"}, "lat": 38.949222, "is_disabled": 0, "lon": -77.00798266666666}, {"fusion_lat": 0.0, "type": "electric_scooter", "name": "e2f5fe208a3af530429150499ed7320a", "fusion_lon": 0.0, "bike_id": "e2f5fe208a3af530429150499ed7320a", "is_reserved": 0, "rental_uris": {"android": "https://dc.lft.to/lastmile_qr_scan", "ios": "https://dc.lft.to/lastmile_qr_scan"}, "lat": 38.904414833333334, "is_disabled": 0, "lon": -76.98492033333333}, {"fusion_lat": 0.0, "type": "electric_scooter", "name": "a438f00e74fa1793343ea26aa1614dfa", "fusion_lon": 0.0, "bike_id": "a438f00e74fa1793343ea26aa1614dfa", "is_reserved": 0, "rental_uris": {"android": "https://dc.lft.to/lastmile_qr_scan", "ios": "https://dc.lft.to/lastmile_qr_scan"}, "lat": 38.9031175, "is_disabled": 0, "lon": -77.02361266666666}, {"fusion_lat": 0.0, "type": "electric_scooter", "name": "6e6d874f41b47017be7ac29393b32496", "fusion_lon": 0.0, "bike_id": "6e6d874f41b47017be7ac29393b32496", "is_reserved": 0, "rental_uris": {"android": "https://dc.lft.to/lastmile_qr_scan", "ios": "https://dc.lft.to/lastmile_qr_scan"}, "lat": 38.907825, "is_disabled": 0, "lon": -77.038584}, {"fusion_lat": 0.0, "type": "electric_bike", "name": "2257107ae97d410ec12bb49559a275bb", "fusion_lon": 0.0, "bike_id": "2257107ae97d410ec12bb49559a275bb", "is_reserved": 0, "rental_uris": {"android": "https://dc.lft.to/lastmile_qr_scan", "ios": "https://dc.lft.to/lastmile_qr_scan"}, "lat": 38.9187045, "is_disabled": 0, "lon": -76.96083683333333}, {"fusion_lat": 0.0, "type": "electric_scooter", "name": "c6c1cda6d514de39215221714a675e47", "fusion_lon": 0.0, "bike_id": "c6c1cda6d514de39215221714a675e47", "is_reserved": 0, "rental_uris": {"android": "https://dc.lft.to/lastmile_qr_scan", "ios": "https://dc.lft.to/lastmile_qr_scan"}, "lat": 38.9069915, "is_disabled": 0, "lon": -77.03594033333333}, {"fusion_lat": 0.0, "type": "electric_scooter", "name": "6e0610ac101a3bbeebbb1311003b662f", "fusion_lon": 0.0, "bike_id": "6e0610ac101a3bbeebbb1311003b662f", "is_reserved": 0, "rental_uris": {"android": "https://dc.lft.to/lastmile_qr_scan", "ios": "https://dc.lft.to/lastmile_qr_scan"}, "lat": 38.8960615, "is_disabled": 0, "lon": -77.05036533333333}, {"fusion_lat": 0.0, "type": "electric_scooter", "name": "0c508b456416bac82ae31bf2dc2208fa", "fusion_lon": 0.0, "bike_id": "0c508b456416bac82ae31bf2dc2208fa", "is_reserved": 0, "rental_uris": {"android": "https://dc.lft.to/lastmile_qr_scan", "ios": "https://dc.lft.to/lastmile_qr_scan"}, "lat": 38.92220783333333, "is_disabled": 0, "lon": -77.04246916666666}, {"fusion_lat": 0.0, "type": "electric_scooter", "name": "66601f2711b07fefcdbf3f139db97c38", "fusion_lon": 0.0, "bike_id": "66601f2711b07fefcdbf3f139db97c38", "is_reserved": 0, "rental_uris": {"android": "https://dc.lft.to/lastmile_qr_scan", "ios": "https://dc.lft.to/lastmile_qr_scan"}, "lat": 38.917168, "is_disabled": 0, "lon": -77.041571}, {"fusion_lat": 0.0, "type": "electric_scooter", "name": "bd5011960f5d716ca66519b98cee8c5f", "fusion_lon": 0.0, "bike_id": "bd5011960f5d716ca66519b98cee8c5f", "is_reserved": 0, "rental_uris": {"android": "https://dc.lft.to/lastmile_qr_scan", "ios": "https://dc.lft.to/lastmile_qr_scan"}, "lat": 38.92827, "is_disabled": 0, "lon": -77.021555}, {"fusion_lat": 0.0, "type": "electric_scooter", "name": "0221772814b1992b4922f4baff9835a2", "fusion_lon": 0.0, "bike_id": "0221772814b1992b4922f4baff9835a2", "is_reserved": 0, "rental_uris": {"android": "https://dc.lft.to/lastmile_qr_scan", "ios": "https://dc.lft.to/lastmile_qr_scan"}, "lat": 38.90396883333333, "is_disabled": 0, "lon": -77.038449}, {"fusion_lat": 0.0, "type": "electric_scooter", "name": "b8791e681cfc3db9aed30205f240ce28", "fusion_lon": 0.0, "bike_id": "b8791e681cfc3db9aed30205f240ce28", "is_reserved": 0, "rental_uris": {"android": "https://dc.lft.to/lastmile_qr_scan", "ios": "https://dc.lft.to/lastmile_qr_scan"}, "lat": 38.90466983333334, "is_disabled": 0, "lon": -76.980408}, {"fusion_lat": 0.0, "type": "electric_scooter", "name": "eb1fe1ca801a3df89e464821ebc79dcd", "fusion_lon": 0.0, "bike_id": "eb1fe1ca801a3df89e464821ebc79dcd", "is_reserved": 0, "rental_uris": {"android": "https://dc.lft.to/lastmile_qr_scan", "ios": "https://dc.lft.to/lastmile_qr_scan"}, "lat": 38.8990385, "is_disabled": 0, "lon": -76.93352}, {"fusion_lat": 0.0, "type": "electric_scooter", "name": "7efaff687306a3dbd3d1071284918f51", "fusion_lon": 0.0, "bike_id": "7efaff687306a3dbd3d1071284918f51", "is_reserved": 0, "rental_uris": {"android": "https://dc.lft.to/lastmile_qr_scan", "ios": "https://dc.lft.to/lastmile_qr_scan"}, "lat": 38.9034925, "is_disabled": 0, "lon": -77.03302083333334}, {"fusion_lat": 0.0, "type": "electric_scooter", "name": "1402dd3eca751415b625a85b2decddef", "fusion_lon": 0.0, "bike_id": "1402dd3eca751415b625a85b2decddef", "is_reserved": 0, "rental_uris": {"android": "https://dc.lft.to/lastmile_qr_scan", "ios": "https://dc.lft.to/lastmile_qr_scan"}, "lat": 38.9058, "is_disabled": 0, "lon": -77.0258815}, {"fusion_lat": 0.0, "type": "electric_scooter", "name": "004bb73e277d48e4538d4107d5a5a1f5", "fusion_lon": 0.0, "bike_id": "004bb73e277d48e4538d4107d5a5a1f5", "is_reserved": 0, "rental_uris": {"android": "https://dc.lft.to/lastmile_qr_scan", "ios": "https://dc.lft.to/lastmile_qr_scan"}, "lat": 38.89234833333333, "is_disabled": 0, "lon": -77.02383733333333}, {"fusion_lat": 0.0, "type": "electric_scooter", "name": "ca574ccea98fc60fff47d113bfb76731", "fusion_lon": 0.0, "bike_id": "ca574ccea98fc60fff47d113bfb76731", "is_reserved": 0, "rental_uris": {"android": "https://dc.lft.to/lastmile_qr_scan", "ios": "https://dc.lft.to/lastmile_qr_scan"}, "lat": 38.910983333333334, "is_disabled": 0, "lon": -77.04485216666667}, {"fusion_lat": 0.0, "type": "electric_scooter", "name": "0ae832dc4316453065e232cdd26c2750", "fusion_lon": 0.0, "bike_id": "0ae832dc4316453065e232cdd26c2750", "is_reserved": 0, "rental_uris": {"android": "https://dc.lft.to/lastmile_qr_scan", "ios": "https://dc.lft.to/lastmile_qr_scan"}, "lat": 38.900199666666666, "is_disabled": 0, "lon": -77.043522}, {"fusion_lat": 0.0, "type": "electric_scooter", "name": "6a5d2d97d9fc0f293ea78cf232c30a87", "fusion_lon": 0.0, "bike_id": "6a5d2d97d9fc0f293ea78cf232c30a87", "is_reserved": 0, "rental_uris": {"android": "https://dc.lft.to/lastmile_qr_scan", "ios": "https://dc.lft.to/lastmile_qr_scan"}, "lat": 38.90361583333333, "is_disabled": 0, "lon": -77.031699}, {"fusion_lat": 0.0, "type": "electric_scooter", "name": "9c2ed43c6ce2ae4693c15958053902e5", "fusion_lon": 0.0, "bike_id": "9c2ed43c6ce2ae4693c15958053902e5", "is_reserved": 0, "rental_uris": {"android": "https://dc.lft.to/lastmile_qr_scan", "ios": "https://dc.lft.to/lastmile_qr_scan"}, "lat": 38.893262666666665, "is_disabled": 0, "lon": -77.04675283333333}, {"fusion_lat": 0.0, "type": "electric_scooter", "name": "c646b370d13acad9e64b9a2efe98ef6f", "fusion_lon": 0.0, "bike_id": "c646b370d13acad9e64b9a2efe98ef6f", "is_reserved": 0, "rental_uris": {"android": "https://dc.lft.to/lastmile_qr_scan", "ios": "https://dc.lft.to/lastmile_qr_scan"}, "lat": 38.899914, "is_disabled": 0, "lon": -77.001238}, {"fusion_lat": 0.0, "type": "electric_scooter", "name": "1f033e4182c79d595b898b2c5cfd48ae", "fusion_lon": 0.0, "bike_id": "1f033e4182c79d595b898b2c5cfd48ae", "is_reserved": 0, "rental_uris": {"android": "https://dc.lft.to/lastmile_qr_scan", "ios": "https://dc.lft.to/lastmile_qr_scan"}, "lat": 38.883220666666666, "is_disabled": 0, "lon": -77.017386}, {"fusion_lat": 0.0, "type": "electric_scooter", "name": "c355e84910b198bfeb3e4a751ee1ada0", "fusion_lon": 0.0, "bike_id": "c355e84910b198bfeb3e4a751ee1ada0", "is_reserved": 0, "rental_uris": {"android": "https://dc.lft.to/lastmile_qr_scan", "ios": "https://dc.lft.to/lastmile_qr_scan"}, "lat": 38.93963883333333, "is_disabled": 0, "lon": -77.02499183333333}, {"fusion_lat": 0.0, "type": "electric_scooter", "name": "158f9fd0bce09c332da13832f9b2e546", "fusion_lon": 0.0, "bike_id": "158f9fd0bce09c332da13832f9b2e546", "is_reserved": 0, "rental_uris": {"android": "https://dc.lft.to/lastmile_qr_scan", "ios": "https://dc.lft.to/lastmile_qr_scan"}, "lat": 38.996028333333335, "is_disabled": 0, "lon": -77.03219733333333}, {"fusion_lat": 0.0, "type": "electric_scooter", "name": "fd3c6c7ece88e94d3c10481eb02ccbe9", "fusion_lon": 0.0, "bike_id": "fd3c6c7ece88e94d3c10481eb02ccbe9", "is_reserved": 0, "rental_uris": {"android": "https://dc.lft.to/lastmile_qr_scan", "ios": "https://dc.lft.to/lastmile_qr_scan"}, "lat": 38.86236233333333, "is_disabled": 0, "lon": -76.99482533333334}, {"fusion_lat": 0.0, "type": "electric_scooter", "name": "ae0fe81388fed7be7a0176bb27f3481a", "fusion_lon": 0.0, "bike_id": "ae0fe81388fed7be7a0176bb27f3481a", "is_reserved": 0, "rental_uris": {"android": "https://dc.lft.to/lastmile_qr_scan", "ios": "https://dc.lft.to/lastmile_qr_scan"}, "lat": 38.8936825, "is_disabled": 0, "lon": -76.94998916666667}, {"fusion_lat": 0.0, "type": "electric_scooter", "name": "91202e131023768bd38d619e405bcf92", "fusion_lon": 0.0, "bike_id": "91202e131023768bd38d619e405bcf92", "is_reserved": 0, "rental_uris": {"android": "https://dc.lft.to/lastmile_qr_scan", "ios": "https://dc.lft.to/lastmile_qr_scan"}, "lat": 38.899752, "is_disabled": 0, "lon": -77.04510816666667}, {"fusion_lat": 0.0, "type": "electric_scooter", "name": "18d82c32c1b1c5892243915ab2a87b28", "fusion_lon": 0.0, "bike_id": "18d82c32c1b1c5892243915ab2a87b28", "is_reserved": 0, "rental_uris": {"android": "https://dc.lft.to/lastmile_qr_scan", "ios": "https://dc.lft.to/lastmile_qr_scan"}, "lat": 38.9008425, "is_disabled": 0, "lon": -77.046822}, {"fusion_lat": 0.0, "type": "electric_bike", "name": "03ea7a17d53c7b22fd17654bdbe779e1", "fusion_lon": 0.0, "bike_id": "03ea7a17d53c7b22fd17654bdbe779e1", "is_reserved": 0, "rental_uris": {"android": "https://dc.lft.to/lastmile_qr_scan", "ios": "https://dc.lft.to/lastmile_qr_scan"}, "lat": 38.82914683333333, "is_disabled": 0, "lon": -76.9978065}, {"fusion_lat": 0.0, "type": "electric_scooter", "name": "fcaf24f146c82354e04f2aeb7657b6fc", "fusion_lon": 0.0, "bike_id": "fcaf24f146c82354e04f2aeb7657b6fc", "is_reserved": 0, "rental_uris": {"android": "https://dc.lft.to/lastmile_qr_scan", "ios": "https://dc.lft.to/lastmile_qr_scan"}, "lat": 38.92109633333333, "is_disabled": 0, "lon": -77.0205115}, {"fusion_lat": 0.0, "type": "electric_scooter", "name": "a06498d90c547ac903719b841b98bc5b", "fusion_lon": 0.0, "bike_id": "a06498d90c547ac903719b841b98bc5b", "is_reserved": 0, "rental_uris": {"android": "https://dc.lft.to/lastmile_qr_scan", "ios": "https://dc.lft.to/lastmile_qr_scan"}, "lat": 38.900296833333336, "is_disabled": 0, "lon": -77.01205066666667}, {"fusion_lat": 0.0, "type": "electric_scooter", "name": "d054ede7afb3bc529947535368ffb203", "fusion_lon": 0.0, "bike_id": "d054ede7afb3bc529947535368ffb203", "is_reserved": 0, "rental_uris": {"android": "https://dc.lft.to/lastmile_qr_scan", "ios": "https://dc.lft.to/lastmile_qr_scan"}, "lat": 38.89895116666667, "is_disabled": 0, "lon": -77.039312}, {"fusion_lat": 0.0, "type": "electric_scooter", "name": "2992f7c47c79a518233514e603581ba4", "fusion_lon": 0.0, "bike_id": "2992f7c47c79a518233514e603581ba4", "is_reserved": 0, "rental_uris": {"android": "https://dc.lft.to/lastmile_qr_scan", "ios": "https://dc.lft.to/lastmile_qr_scan"}, "lat": 38.90430533333333, "is_disabled": 0, "lon": -77.05317066666667}, {"fusion_lat": 0.0, "type": "electric_scooter", "name": "669481ec63063da316ca4a945d639b72", "fusion_lon": 0.0, "bike_id": "669481ec63063da316ca4a945d639b72", "is_reserved": 0, "rental_uris": {"android": "https://dc.lft.to/lastmile_qr_scan", "ios": "https://dc.lft.to/lastmile_qr_scan"}, "lat": 38.92105083333333, "is_disabled": 0, "lon": -77.07189316666667}, {"fusion_lat": 0.0, "type": "electric_scooter", "name": "68c7e2df2f5e1eff5f71cbb45982a888", "fusion_lon": 0.0, "bike_id": "68c7e2df2f5e1eff5f71cbb45982a888", "is_reserved": 0, "rental_uris": {"android": "https://dc.lft.to/lastmile_qr_scan", "ios": "https://dc.lft.to/lastmile_qr_scan"}, "lat": 38.93880166666667, "is_disabled": 0, "lon": -77.02481933333334}, {"fusion_lat": 0.0, "type": "electric_scooter", "name": "45fae5164e8c1f83d0e88bdd6c051d09", "fusion_lon": 0.0, "bike_id": "45fae5164e8c1f83d0e88bdd6c051d09", "is_reserved": 0, "rental_uris": {"android": "https://dc.lft.to/lastmile_qr_scan", "ios": "https://dc.lft.to/lastmile_qr_scan"}, "lat": 38.91927283333333, "is_disabled": 0, "lon": -77.0415765}, {"fusion_lat": 0.0, "type": "electric_scooter", "name": "5cd0ef7517301cdaaaf2bb11a619a6b0", "fusion_lon": 0.0, "bike_id": "5cd0ef7517301cdaaaf2bb11a619a6b0", "is_reserved": 0, "rental_uris": {"android": "https://dc.lft.to/lastmile_qr_scan", "ios": "https://dc.lft.to/lastmile_qr_scan"}, "lat": 38.90781883333333, "is_disabled": 0, "lon": -77.0380455},