{"data": {"bikes": [{"is_disabled": 0, "fusion_lon": 0.0, "fusion_lat": 0.0, "lat": 38.901954333333336, "type": "electric_scooter", "lon": -77.039543, "bike_id": "d4d65aef3722c042f7dd4267615ff313", "rental_uris": {"android": "https://dc.lft.to/lastmile_qr_scan", "ios": "https://dc.lft.to/lastmile_qr_scan"}, "name": "d4d65aef3722c042f7dd4267615ff313", "is_reserved": 0}, {"is_disabled": 0, "fusion_lon": 0.0, "fusion_lat": 0.0, "lat": 38.9226315, "type": "electric_bike", "lon": -77.0771845, "bike_id": "ab5f638b9b841a7d0591ba34cddd2f25", "rental_uris": {"android": "https://dc.lft.to/lastmile_qr_scan", "ios": "https://dc.lft.to/lastmile_qr_scan"}, "name": "ab5f638b9b841a7d0591ba34cddd2f25", "is_reserved": 0}, {"is_disabled": 0, "fusion_lon": 0.0, "fusion_lat": 0.0, "lat": 38.90178266666667, "type": "electric_scooter", "lon": -77.02493883333334, "bike_id": "f6efda4d75b4f8f8c35193664a5b1736", "rental_uris": {"android": "https://dc.lft.to/lastmile_qr_scan", "ios": "https://dc.lft.to/lastmile_qr_scan"}, "name": "f6efda4d75b4f8f8c35193664a5b1736", "is_reserved": 0}, {"is_disabled": 0, "fusion_lon": 0.0, "fusion_lat": 0.0, "lat": 38.90535933333334, "type": "electric_scooter", "lon": -77.0471235, "bike_id": "b5d1f0bc37d49c90f47119d7d7218415", "rental_uris": {"android": "https://dc.lft.to/lastmile_qr_scan", "ios": "https://dc.lft.to/lastmile_qr_scan"}, "name": "b5d1f0bc37d49c90f47119d7d7218415", "is_reserved": 0}, {"is_disabled": 0, "fusion_lon": 0.0, "fusion_lat": 0.0, "lat": 38.912697333333334, "type": "electric_scooter", "lon": -77.008312, "bike_id": "9b17b7308b62949ee2c7610e1bcef953", "rental_uris": {"android": "https://dc.lft.to/lastmile_qr_scan", "ios": "https://dc.lft.to/lastmile_qr_scan"}, "name": "9b17b7308b62949ee2c7610e1bcef953", "is_reserved": 0}, {"is_disabled": 0, "fusion_lon": 0.0, "fusion_lat": 0.0, "lat": 38.906865833333335, "type": "electric_scooter", "lon": -77.02694166666667, "bike_id": "ac8ed1a8114b190c1431f73ee00a317c", "rental_uris": {"android": "https://dc.lft.to/lastmile_qr_scan", "ios": "https://dc.lft.to/lastmile_qr_scan"}, "name": "ac8ed1a8114b190c1431f73ee00a317c", "is_reserved": 0}, {"is_disabled": 0, "fusion_lon": 0.0, "fusion_lat": 0.0, "lat": 38.84517733333333, "type": "electric_bike", "lon": -77.07794466666667, "bike_id": "be2530ed53393a361ed0cc91d865e558", "rental_uris": {"android": "https://dc.lft.to/lastmile_qr_scan", "ios": "https://dc.lft.to/lastmile_qr_scan"}, "name": "be2530ed53393a361ed0cc91d865e558", "is_reserved": 0}, {"is_disabled": 0, "fusion_lon": 0.0, "fusion_lat": 0.0, "lat": 38.908399333333335, "type": "electric_scooter", "lon": -76.99700116666666, "bike_id": "51d575661237250039bc26dc6090251b", "rental_uris": {"android": "https://dc.lft.to/lastmile_qr_scan", "ios": "https://dc.lft.to/lastmile_qr_scan"}, "name": "51d575661237250039bc26dc6090251b", "is_reserved": 0}, {"is_disabled": 0, "fusion_lon": 0.0, "fusion_lat": 0.0, "lat": 38.91682983333333, "type": "electric_scooter", "lon": -77.02713466666667, "bike_id": "0f1e0db2690b6ef70209e3f1aae2d305", "rental_uris": {"android": "https://dc.lft.to/lastmile_qr_scan", "ios": "https://dc.lft.to/lastmile_qr_scan"}, "name": "0f1e0db2690b6ef70209e3f1aae2d305", "is_reserved": 0}, {"is_disabled": 0, "fusion_lon": 0.0, "fusion_lat": 0.0, "lat": 38.8925155, "type": "electric_scooter", "lon": -76.99850833333333, "bike_id": "51d214254d59d0936fb2ed21bdc04910", "rental_uris": {"android": "https://dc.lft.to/lastmile_qr_scan", "ios": "https://dc.lft.to/lastmile_qr_scan"}, "name": "51d214254d59d0936fb2ed21bdc04910", "is_reserved": 0}, {"is_disabled": 0, "fusion_lon": 0.0, "fusion_lat": 0.0, "lat": 38.902996333333334, "type": "electric_scooter", "lon": -77.05072733333333, "bike_id": "fb0129e9aaaaa1cd6cb92e9785d9fdc9", "rental_uris": {"android": "https://dc.lft.to/lastmile_qr_scan", "ios": "https://dc.lft.to/lastmile_qr_scan"}, "name": "fb0129e9aaaaa1cd6cb92e9785d9fdc9", "is_reserved": 0}, {"is_disabled": 0, "fusion_lon": 0.0, "fusion_lat": 0.0, "lat": 38.92691266666667, "type": "electric_scooter", "lon": -77.03775816666666, "bike_id": "290030f794cbb0d029db9aa8d1103d9b", "rental_uris": {"android": "https://dc.lft.to/lastmile_qr_scan", "ios": "https://dc.lft.to/lastmile_qr_scan"}, "name": "290030f794cbb0d029db9aa8d1103d9b", "is_reserved": 0}, {"is_disabled": 0, "fusion_lon": 0.0, "fusion_lat": 0.0, "lat": 38.936027, "type": "electric_scooter", "lon": -77.05860433333334, "bike_id": "298e6328e317f28a753c772e026b0394", "rental_uris": {"android": "https://dc.lft.to/lastmile_qr_scan", "ios": "https://dc.lft.to/lastmile_qr_scan"}, "name": "298e6328e317f28a753c772e026b0394", "is_reserved": 0}, {"is_disabled": 0, "fusion_lon": 0.0, "fusion_lat": 0.0, "lat": 38.897644666666665, "type": "electric_scooter", "lon": -77.051243, "bike_id": "2b9f8a4725b7b783cee0549dbb507a9e", "rental_uris": {"android": "https://dc.lft.to/lastmile_qr_scan", "ios": "https://dc.lft.to/lastmile_qr_scan"}, "name": "2b9f8a4725b7b783cee0549dbb507a9e", "is_reserved": 0}, {"is_disabled": 0, "fusion_lon": 0.0, "fusion_lat": 0.0, "lat": 38.94497666666667, "type": "electric_bike", "lon": -77.00673966666666, "bike_id": "a1c2190daee4420d215d4b6cf257a735", "rental_uris": {"android": "https://dc.lft.to/lastmile_qr_scan", "ios": "https://dc.lft.to/lastmile_qr_scan"}, "name": "a1c2190daee4420d215d4b6cf257a735", "is_reserved": 0}, {"is_disabled": 0, "fusion_lon": 0.0, "fusion_lat": 0.0, "lat": 38.900316, "type": "electric_scooter", "lon": -76.99169333333333, "bike_id": "8c199937a1ffbb7fa37545053527742d", "rental_uris": {"android": "https://dc.lft.to/lastmile_qr_scan", "ios": "https://dc.lft.to/lastmile_qr_scan"}, "name": "8c199937a1ffbb7fa37545053527742d", "is_reserved": 0}, {"is_disabled": 0, "fusion_lon": 0.0, "fusion_lat": 0.0, "lat": 38.91114533333333, "type": "electric_scooter", "lon": -77.04498583333333, "bike_id": "2652fcc6940de061eedfe0286ba52733", "rental_uris": {"android": "https://dc.lft.to/lastmile_qr_scan", "ios": "https://dc.lft.to/lastmile_qr_scan"}, "name": "2652fcc6940de061eedfe0286ba52733", "is_reserved": 0}, {"is_disabled": 0, "fusion_lon": 0.0, "fusion_lat": 0.0, "lat": 38.914221, "type": "electric_scooter", "lon": -77.014198, "bike_id": "99d84806b448e7d9cf7c3fd31115e9ac", "rental_uris": {"android": "https://dc.lft.to/lastmile_qr_scan", "ios": "https://dc.lft.to/lastmile_qr_scan"}, "name": "99d84806b448e7d9cf7c3fd31115e9ac", "is_reserved": 0}, {"is_disabled": 0, "fusion_lon": 0.0, "fusion_lat": 0.0, "lat": 38.916973166666665, "type": "electric_scooter", "lon": -77.0064695, "bike_id": "b0631613f406afd37e2c47509fe09d57", "rental_uris": {"android": "https://dc.lft.to/lastmile_qr_scan", "ios": "https://dc.lft.to/lastmile_qr_scan"}, "name": "b0631613f406afd37e2c47509fe09d57", "is_reserved": 0}, {"is_disabled": 0, "fusion_lon": 0.0, "fusion_lat": 0.0, "lat": 38.90576633333333, "type": "electric_scooter", "lon": -77.02600733333334, "bike_id": "a15deaad757b290efce4aa44450a3170", "rental_uris": {"android": "https://dc.lft.to/lastmile_qr_scan", "ios": "https://dc.lft.to/lastmile_qr_scan"}, "name": "a15deaad757b290efce4aa44450a3170", "is_reserved": 0}, {"is_disabled": 0, "fusion_lon": 0.0, "fusion_lat": 0.0, "lat": 38.865974666666666, "type": "electric_bike", "lon": -76.93217866666667, "bike_id": "14b87a70a988b43f1da94966654646e0", "rental_uris": {"android": "https://dc.lft.to/lastmile_qr_scan", "ios": "https://dc.lft.to/lastmile_qr_scan"}, "name": "14b87a70a988b43f1da94966654646e0", "is_reserved": 0}, {"is_disabled": 0, "fusion_lon": 0.0, "fusion_lat": 0.0, "lat": 38.8520465, "type": "electric_bike", "lon": -77.12762816666667, "bike_id": "ce472cdd592a61b4e2ed1ec592c0bda4", "rental_uris": {"android": "https://dc.lft.to/lastmile_qr_scan", "ios": "https://dc.lft.to/lastmile_qr_scan"}, "name": "ce472cdd592a61b4e2ed1ec592c0bda4", "is_reserved": 0}, {"is_disabled": 0, "fusion_lon": 0.0, "fusion_lat": 0.0, "lat": 38.94978166666667, "type": "electric_scooter", "lon": -77.067635, "bike_id": "fadf8e9c31d72c3381b30ae7375b478d", "rental_uris": {"android": "https://dc.lft.to/lastmile_qr_scan", "ios": "https://dc.lft.to/lastmile_qr_scan"}, "name": "fadf8e9c31d72c3381b30ae7375b478d", "is_reserved": 0}, {"is_disabled": 0, "fusion_lon": 0.0, "fusion_lat": 0.0, "lat": 38.933214666666665, "type": "electric_scooter", "lon": -77.02927666666666, "bike_id": "b635ff6f7a05bc20d23732d780068ea7", "rental_uris": {"android": "https://dc.lft.to/lastmile_qr_scan", "ios": "https://dc.lft.to/lastmile_qr_scan"}, "name": "b635ff6f7a05bc20d23732d780068ea7", "is_reserved": 0}, {"is_disabled": 0, "fusion_lon": 0.0, "fusion_lat": 0.0, "lat": 38.9683335, "type": "electric_scooter", "lon": -77.015127, "bike_id": "5232347cf47d33e7e384bcfb45e7d92d", "rental_uris": {"android": "https://dc.lft.to/lastmile_qr_scan", "ios": "https://dc.lft.to/lastmile_qr_scan"}, "name": "5232347cf47d33e7e384bcfb45e7d92d", "is_reserved": 0}, {"is_disabled": 0, "fusion_lon": 0.0, "fusion_lat": 0.0, "lat": 38.91631266666667, "type": "electric_scooter", "lon": -77.02390833333334, "bike_id": "ff42b353d74e60bd3b65313293f347ba", "rental_uris": {"android": "https://dc.lft.to/lastmile_qr_scan", "ios": "https://dc.lft.to/lastmile_qr_scan"}, "name": "ff42b353d74e60bd3b65313293f347ba", "is_reserved": 0}, {"is_disabled": 0, "fusion_lon": 0.0, "fusion_lat": 0.0, "lat": 38.924083, "type": "electric_scooter", "lon": -77.05167983333334, "bike_id": "1285d3b2ba933a522362aa6f22719245", "rental_uris": {"android": "https://dc.lft.to/lastmile_qr_scan", "ios": "https://dc.lft.to/lastmile_qr_scan"}, "name": "1285d3b2ba933a522362aa6f22719245", "is_reserved": 0}, {"is_disabled": 0, "fusion_lon": 0.0, "fusion_lat": 0.0, "lat": 39.00007866666667, "type": "electric_bike", "lon": -76.91799483333334, "bike_id": "f27ff199b000e325471eb530e11c8a57", "rental_uris": {"android": "https://dc.lft.to/lastmile_qr_scan", "ios": "https://dc.lft.to/lastmile_qr_scan"}, "name": "f27ff199b000e325471eb530e11c8a57", "is_reserved": 0}, {"is_disabled": 0, "fusion_lon": 0.0, "fusion_lat": 0.0, "lat": 38.9354175, "type": "electric_scooter", "lon": -77.0206895, "bike_id": "624fa79a996f8a52ccfb457ac922cc61", "rental_uris": {"android": "https://dc.lft.to/lastmile_qr_scan", "ios": "https://dc.lft.to/lastmile_qr_scan"}, "name": "624fa79a996f8a52ccfb457ac922cc61", "is_reserved": 0}, {"is_disabled": 0, "fusion_lon": 0.0, "fusion_lat": 0.0, "lat": 38.919227166666666, "type": "electric_scooter", "lon": -77.0239115, "bike_id": "e53160c1616326bbc047f48adbabb848", "rental_uris": {"android": "https://dc.lft.to/lastmile_qr_scan", "ios": "https://dc.lft.to/lastmile_qr_scan"}, "name": "e53160c1616326bbc047f48adbabb848", "is_reserved": 0}, {"is_disabled": 0, "fusion_lon": 0.0, "fusion_lat": 0.0, "lat": 38.924599666666666, "type": "electric_scooter", "lon": -76.99894116666667, "bike_id": "14aa2bfe98c6aa1a424211d9b7f0fd4d", "rental_uris": {"android": "https://dc.lft.to/lastmile_qr_scan", "ios": "https://dc.lft.to/lastmile_qr_scan"}, "name": "14aa2bfe98c6aa1a424211d9b7f0fd4d", "is_reserved": 0}, {"is_disabled": 0, "fusion_lon": 0.0, "fusion_lat": 0.0, "lat": 38.9419885, "type": "electric_scooter", "lon": -77.02576133333334, "bike_id": "a444b20c07410eefcc71f390008d93c0", "rental_uris": {"android": "https://dc.lft.to/lastmile_qr_scan", "ios": "https://dc.lft.to/lastmile_qr_scan"}, "name": "a444b20c07410eefcc71f390008d93c0", "is_reserved": 0}, {"is_disabled": 0, "fusion_lon": 0.0, "fusion_lat": 0.0, "lat": 38.914158, "type": "electric_scooter", "lon": -77.04325416666667, "bike_id": "f64735ebe0d0ab5ec86d602a79d2e55d", "rental_uris": {"android": "https://dc.lft.to/lastmile_qr_scan", "ios": "https://dc.lft.to/lastmile_qr_scan"}, "name": "f64735ebe0d0ab5ec86d602a79d2e55d", "is_reserved": 0}, {"is_disabled": 0, "fusion_lon": 0.0, "fusion_lat": 0.0, "lat": 38.89544133333333, "type": "electric_scooter", "lon": -77.01095216666667, "bike_id": "2f1fb8b4137e304c6decb1ab5489ca01", "rental_uris": {"android": "https://dc.lft.to/lastmile_qr_scan", "ios": "https://dc.lft.to/lastmile_qr_scan"}, "name": "2f1fb8b4137e304c6decb1ab5489ca01", "is_reserved": 0}, {"is_disabled": 0, "fusion_lon": 0.0, "fusion_lat": 0.0, "lat": 38.9173415, "type": "electric_scooter", "lon": -77.03642816666667, "bike_id": "dd8ae846ec0205448ce41e24e3792808", "rental_uris": {"android": "https://dc.lft.to/lastmile_qr_scan", "ios": "https://dc.lft.to/lastmile_qr_scan"}, "name": "dd8ae846ec0205448ce41e24e3792808", "is_reserved": 0}, {"is_disabled": 0, "fusion_lon": 0.0, "fusion_lat": 0.0, "lat": 38.86848883333333, "type": "electric_bike", "lon": -77.09727266666667, "bike_id": "27936856c6ae45546362ec149b7dd5f5", "rental_uris": {"android": "https://dc.lft.to/lastmile_qr_scan", "ios": "https://dc.lft.to/lastmile_qr_scan"}, "name": "27936856c6ae45546362ec149b7dd5f5", "is_reserved": 0}, {"is_disabled": 0, "fusion_lon": 0.0, "fusion_lat": 0.0, "lat": 38.890472333333335, "type": "electric_scooter", "lon": -77.00143866666667, "bike_id": "4a2c577bec3a556798e5defbb8777e73", "rental_uris": {"android": "https://dc.lft.to/lastmile_qr_scan", "ios": "https://dc.lft.to/lastmile_qr_scan"}, "name": "4a2c577bec3a556798e5defbb8777e73", "is_reserved": 0}, {"is_disabled": 0, "fusion_lon": 0.0, "fusion_lat": 0.0, "lat": 38.91638, "type": "electric_scooter", "lon": -77.034588, "bike_id": "4955a59ddec2853bfff86ac70d1c5ec4", "rental_uris": {"android": "https://dc.lft.to/lastmile_qr_scan", "ios": "https://dc.lft.to/lastmile_qr_scan"}, "name": "4955a59ddec2853bfff86ac70d1c5ec4", "is_reserved": 0}, {"is_disabled": 0, "fusion_lon": 0.0, "fusion_lat": 0.0, "lat": 38.90474433333333, "type": "electric_scooter", "lon": -77.03785633333334, "bike_id": "7b537792cda1b4c2a9a646e8cdb9a5de", "rental_uris": {"android": "https://dc.lft.to/lastmile_qr_scan", "ios": "https://dc.lft.to/lastmile_qr_scan"}, "name": "7b537792cda1b4c2a9a646e8cdb9a5de", "is_reserved": 0}, {"is_disabled": 0, "fusion_lon": 0.0, "fusion_lat": 0.0, "lat": 38.90132716666667, "type": "electric_scooter", "lon": -77.0305015, "bike_id": "8654024d5358dc0d2140b3f6d8ab581d", "rental_uris": {"android": "https://dc.lft.to/lastmile_qr_scan", "ios": "https://dc.lft.to/lastmile_qr_scan"}, "name": "8654024d5358dc0d2140b3f6d8ab581d", "is_reserved": 0}, {"is_disabled": 0, "fusion_lon": 0.0, "fusion_lat": 0.0, "lat": 38.918570333333335, "type": "electric_bike", "lon": -76.96090066666666, "bike_id": "369546815465932f83f47352c86a2a5c", "rental_uris": {"android": "https://dc.lft.to/lastmile_qr_scan", "ios": "https://dc.lft.to/lastmile_qr_scan"}, "name": "369546815465932f83f47352c86a2a5c", "is_reserved": 0}, {"is_disabled": 0, "fusion_lon": 0.0, "fusion_lat": 0.0, "lat": 38.882510333333336, "type": "electric_scooter", "lon": -77.0034515, "bike_id": "82803d07865fe25400c5a3a15718c76b", "rental_uris": {"android": "https://dc.lft.to/lastmile_qr_scan", "ios": "https://dc.lft.to/lastmile_qr_scan"}, "name": "82803d07865fe25400c5a3a15718c76b", "is_reserved": 0}, {"is_disabled": 0, "fusion_lon": 0.0, "fusion_lat": 0.0, "lat": 38.83346516666667, "type": "electric_bike", "lon": -76.9655445, "bike_id": "bc52a65ced14718a6348f6a85808243a", "rental_uris": {"android": "https://dc.lft.to/lastmile_qr_scan", "ios": "https://dc.lft.to/lastmile_qr_scan"}, "name": "bc52a65ced14718a6348f6a85808243a", "is_reserved": 0}, {"is_disabled": 0, "fusion_lon": 0.0, "fusion_lat": 0.0, "lat": 38.906693833333335, "type": "electric_scooter", "lon": -77.02706366666666, "bike_id": "a1b10b61b9e56f5894de9cfa804221a1", "rental_uris": {"android": "https://dc.lft.to/lastmile_qr_scan", "ios": "https://dc.lft.to/lastmile_qr_scan"}, "name": "a1b10b61b9e56f5894de9cfa804221a1", "is_reserved": 0}, {"is_disabled": 0, "fusion_lon": 0.0, "fusion_lat": 0.0, "lat": 38.920017333333334, "type": "electric_bike", "lon": -77.071844, "bike_id": "ba0d7afbe2c1f6f2894e9201e6ef19ca", "rental_uris": {"android": "https://dc.lft.to/lastmile_qr_scan", "ios": "https://dc.lft.to/lastmile_qr_scan"}, "name": "ba0d7afbe2c1f6f2894e9201e6ef19ca", "is_reserved": 0}, {"is_disabled": 0, "fusion_lon": 0.0, "fusion_lat": 0.0, "lat": 38.844291, "type": "electric_scooter", "lon": -76.99777433333334, "bike_id": "89be0df6c310fd67285ada19bec42b09", "rental_uris": {"android": "https://dc.lft.to/lastmile_qr_scan", "ios": "https://dc.lft.to/lastmile_qr_scan"}, "name": "89be0df6c310fd67285ada19bec42b09", "is_reserved": 0}, {"is_disabled": 0, "fusion_lon": 0.0, "fusion_lat": 0.0, "lat": 38.912994166666664, "type": "electric_scooter", "lon": -77.04662283333333, "bike_id": "a3f7ac0d2dc3fbb41c311478011d3eab", "rental_uris": {"android": "https://dc.lft.to/lastmile_qr_scan", "ios": "https://dc.lft.to/lastmile_qr_scan"}, "name": "a3f7ac0d2dc3fbb41c311478011d3eab", "is_reserved": 0}, {"is_disabled": 0, "fusion_lon": 0.0, "fusion_lat": 0.0, "lat": 38.89358, "type": "electric_scooter", "lon": -77.02177433333334, "bike_id": "027220a975ac42e40af7e23d2aae8a8a", "rental_uris": {"android": "https://dc.lft.to/lastmile_qr_scan", "ios": "https://dc.lft.to/lastmile_qr_scan"}, "name": "027220a975ac42e40af7e23d2aae8a8a", "is_reserved": 0}, {"is_disabled": 0, "fusion_lon": 0.0, "fusion_lat": 0.0, "lat": 38.895025, "type": "electric_scooter", "lon": -76.94877283333334, "bike_id": "d46547ea82e14c14517441c37f16244d", "rental_uris": {"android": "https://dc.lft.to/lastmile_qr_scan", "ios": "https://dc.lft.to/lastmile_qr_scan"}, "name": "d46547ea82e14c14517441c37f16244d", "is_reserved": 0}, {"is_disabled": 0, "fusion_lon": 0.0, "fusion_lat": 0.0, "lat": 38.9461195, "type": "electric_scooter", "lon": -77.03465133333333, "bike_id": "1e6175ed1dd2c213d8ee2dd2faf2b241", "rental_uris": {"android": "https://dc.lft.to/lastmile_qr_scan", "ios": "https://dc.lft.to/lastmile_qr_scan"}, "name": "1e6175ed1dd2c213d8ee2dd2faf2b241", "is_reserved": 0}, {"is_disabled": 0, "fusion_lon": 0.0, "fusion_lat": 0.0, "lat": 38.929709, "type": "electric_scooter", "lon": -77.04113333333333, "bike_id": "95e992ac5a27880f682fdeac1658fa79", "rental_uris": {"android": "https://dc.lft.to/lastmile_qr_scan", "ios": "https://dc.lft.to/lastmile_qr_scan"}, "name": "95e992ac5a27880f682fdeac1658fa79", "is_reserved": 0}, {"is_disabled": 0, "fusion_lon": 0.0, "fusion_lat": 0.0, "lat": 38.9049125, "type": "electric_scooter", "lon": -77.0295105, "bike_id": "bd5a985ea3bcffdc31101bbc3965905e", "rental_uris": {"android": "https://dc.lft.to/lastmile_qr_scan", "ios": "https://dc.lft.to/lastmile_qr_scan"}, "name": "bd5a985ea3bcffdc31101bbc3965905e", "is_reserved": 0}, {"is_disabled": 0, "fusion_lon": 0.0, "fusion_lat": 0.0, "lat": 38.91556816666667, "type": "electric_scooter", "lon": -77.019971, "bike_id": "3f9d052136286100e6cf636c32399460", "rental_uris": {"android": "https://dc.lft.to/lastmile_qr_scan", "ios": "https://dc.lft.to/lastmile_qr_scan"}, "name": "3f9d052136286100e6cf636c32399460", "is_reserved": 0}, {"is_disabled": 0, "fusion_lon": 0.0, "fusion_lat": 0.0, "lat": 38.92640083333333, "type": "electric_scooter", "lon": -77.04266583333333, "bike_id": "f946e585b49883b785a2dc4f20a08568", "rental_uris": {"android": "https://dc.lft.to/lastmile_qr_scan", "ios": "https://dc.lft.to/lastmile_qr_scan"}, "name": "f946e585b49883b785a2dc4f20a08568", "is_reserved": 0}, {"is_disabled": 0, "fusion_lon": 0.0, "fusion_lat": 0.0, "lat": 38.90470966666667, "type": "electric_scooter", "lon": -76.992111, "bike_id": "d9b617fc128aafc5a6b90272247818cd", "rental_uris": {"android": "https://dc.lft.to/lastmile_qr_scan", "ios": "https://dc.lft.to/lastmile_qr_scan"}, "name": "d9b617fc128aafc5a6b90272247818cd", "is_reserved": 0}, {"is_disabled": 0, "fusion_lon": 0.0, "fusion_lat": 0.0, "lat": 38.93539216666667, "type": "electric_scooter", "lon": -77.03425566666667, "bike_id": "ed21ddcaf57061043dc1d8092b8f185a", "rental_uris": {"android": "https://dc.lft.to/lastmile_qr_scan", "ios": "https://dc.lft.to/lastmile_qr_scan"}, "name": "ed21ddcaf57061043dc1d8092b8f185a", "is_reserved": 0}, {"is_disabled": 0, "fusion_lon": 0.0, "fusion_lat": 0.0, "lat": 38.930454833333336, "type": "electric_scooter", "lon": -76.99627883333334, "bike_id": "b87bfc163f5e986de39cf55443c5b4e8", "rental_uris": {"android": "https://dc.lft.to/lastmile_qr_scan", "ios": "https://dc.lft.to/lastmile_qr_scan"}, "name": "b87bfc163f5e986de39cf55443c5b4e8", "is_reserved": 0}, {"is_disabled": 0, "fusion_lon": 0.0, "fusion_lat": 0.0, "lat": 38.922607166666666, "type": "electric_scooter", "lon": -77.0713185, "bike_id": "381ef3bab0092400a15ac7830343105c", "rental_uris": {"android": "https://dc.lft.to/lastmile_qr_scan", "ios": "https://dc.lft.to/lastmile_qr_scan"}, "name": "381ef3bab0092400a15ac7830343105c", "is_reserved": 0}, {"is_disabled": 0, "fusion_lon": 0.0, "fusion_lat": 0.0, "lat": 38.911527666666665, "type": "electric_scooter", "lon": -76.98502416666666, "bike_id": "b9279e21a17c8e813ddb3110fa276c54", "rental_uris": {"android": "https://dc.lft.to/lastmile_qr_scan", "ios": "https://dc.lft.to/lastmile_qr_scan"}, "name": "b9279e21a17c8e813ddb3110fa276c54", "is_reserved": 0}, {"is_disabled": 0, "fusion_lon": 0.0, "fusion_lat": 0.0, "lat": 38.872907, "type": "electric_scooter", "lon": -77.00984266666667, "bike_id": "269a8c37a182eaa04b184189882ae6a6", "rental_uris": {"android": "https://dc.lft.to/lastmile_qr_scan", "ios": "https://dc.lft.to/lastmile_qr_scan"}, "name": "269a8c37a182eaa04b184189882ae6a6", "is_reserved": 0}, {"is_disabled": 0, "fusion_lon": 0.0, "fusion_lat": 0.0, "lat": 38.909996166666666, "type": "electric_scooter", "lon": -77.03724366666667, "bike_id": "37bd5b5642c15ad9e0669e3ec68c5692", "rental_uris": {"android": "https://dc.lft.to/lastmile_qr_scan", "ios": "https://dc.lft.to/lastmile_qr_scan"}, "name": "37bd5b5642c15ad9e0669e3ec68c5692", "is_reserved": 0}, {"is_disabled": 0, "fusion_lon": 0.0, "fusion_lat": 0.0, "lat": 38.90395916666667, "type": "electric_scooter", "lon": -77.01728266666667, "bike_id": "6510a160dc5ff48cb77444f389410485", "rental_uris": {"android": "https://dc.lft.to/lastmile_qr_scan", "ios": "https://dc.lft.to/lastmile_qr_scan"}, "name": "6510a160dc5ff48cb77444f389410485", "is_reserved": 0}, {"is_disabled": 0, "fusion_lon": 0.0, "fusion_lat": 0.0, "lat": 38.921555166666664, "type": "electric_scooter", "lon": -77.03397816666667, "bike_id": "ec0961983c2bd81d7905fcd62a77e192", "rental_uris": {"android": "https://dc.lft.to/lastmile_qr_scan", "ios": "https://dc.lft.to/lastmile_qr_scan"}, "name": "ec0961983c2bd81d7905fcd62a77e192", "is_reserved": 0}, {"is_disabled": 0, "fusion_lon": 0.0, "fusion_lat": 0.0, "lat": 38.902747, "type": "electric_scooter", "lon": -77.05333666666667, "bike_id": "e01581ae8908de1119d894b5275f0d7e", "rental_uris": {"android": "https://dc.lft.to/lastmile_qr_scan", "ios": "https://dc.lft.to/lastmile_qr_scan"}, "name": "e01581ae8908de1119d894b5275f0d7e", "is_reserved": 0}, {"is_disabled": 0, "fusion_lon": 0.0, "fusion_lat": 0.0, "lat": 38.911347166666665, "type": "electric_scooter", "lon": -77.059331, "bike_id": "efc723d194e2e4d0224763c2a1cfcb9f", "rental_uris": {"android": "https://dc.lft.to/lastmile_qr_scan", "ios": "https://dc.lft.to/lastmile_qr_scan"}, "name": "efc723d194e2e4d0224763c2a1cfcb9f", "is_reserved": 0}, {"is_disabled": 0, "fusion_lon": 0.0, "fusion_lat": 0.0, "lat": 38.884707166666665, "type": "electric_scooter", "lon": -76.9298195, "bike_id": "096afe3be33c39e5d3b953326e257b9f", "rental_uris": {"android": "https://dc.lft.to/lastmile_qr_scan", "ios": "https://dc.lft.to/lastmile_qr_scan"}, "name": "096afe3be33c39e5d3b953326e257b9f", "is_reserved": 0}, {"is_disabled": 0, "fusion_lon": 0.0, "fusion_lat": 0.0, "lat": 38.89646616666667, "type": "electric_scooter", "lon": -77.01204133333333, "bike_id": "1f0b7eb83ddbd00395dd91bf78b8383d", "rental_uris": {"android": "https://dc.lft.to/lastmile_qr_scan", "ios": "https://dc.lft.to/lastmile_qr_scan"}, "name": "1f0b7eb83ddbd00395dd91bf78b8383d", "is_reserved": 0}, {"is_disabled": 0, "fusion_lon": 0.0, "fusion_lat": 0.0, "lat": 38.89913716666667, "type": "electric_scooter", "lon": -77.03930583333333, "bike_id": "3475f37821fcfd8b550904fd43f8ad1c", "rental_uris": {"android": "https://dc.lft.to/lastmile_qr_scan", "ios": "https://dc.lft.to/lastmile_qr_scan"}, "name": "3475f37821fcfd8b550904fd43f8ad1c", "is_reserved": 0}, {"is_disabled": 0, "fusion_lon": 0.0, "fusion_lat": 0.0, "lat": 38.9141725, "type": "electric_scooter", "lon": -77.03581466666667, "bike_id": "b865c391debcd652996fe258dbb89ae4", "rental_uris": {"android": "https://dc.lft.to/lastmile_qr_scan", "ios": "https://dc.lft.to/lastmile_qr_scan"}, "name": "b865c391debcd652996fe258dbb89ae4", "is_reserved": 0}, {"is_disabled": 0, "fusion_lon": 0.0, "fusion_lat": 0.0, "lat": 38.9309965, "type": "electric_scooter", "lon": -77.02469866666667, "bike_id": "3870350ff5e17e1b5768f43e61393dd0", "rental_uris": {"android": "https://dc.lft.to/lastmile_qr_scan", "ios": "https://dc.lft.to/lastmile_qr_scan"}, "name": "3870350ff5e17e1b5768f43e61393dd0", "is_reserved": 0}, {"is_disabled": 0, "fusion_lon": 0.0, "fusion_lat": 0.0, "lat": 38.9058115, "type": "electric_scooter", "lon": -77.05116633333333, "bike_id": "192d9b6269a5ef504c7661212165f686", "rental_uris": {"android": "https://dc.lft.to/lastmile_qr_scan", "ios": "https://dc.lft.to/lastmile_qr_scan"}, "name": "192d9b6269a5ef504c7661212165f686", "is_reserved": 0}, {"is_disabled": 0, "fusion_lon": 0.0, "fusion_lat": 0.0, "lat": 38.935482, "type": "electric_scooter", "lon": -77.0580725, "bike_id": "57ff5772e3745606ed7be4cb33a9148f", "rental_uris": {"android": "https://dc.lft.to/lastmile_qr_scan", "ios": "https://dc.lft.to/lastmile_qr_scan"}, "name": "57ff5772e3745606ed7be4cb33a9148f", "is_reserved": 0}, {"is_disabled": 0, "fusion_lon": 0.0, "fusion_lat": 0.0, "lat": 38.877771833333334, "type": "electric_scooter", "lon": -77.01437633333333, "bike_id": "febb53f36e6761b64b568847e81cab3f", "rental_uris": {"android": "https://dc.lft.to/lastmile_qr_scan", "ios": "https://dc.lft.to/lastmile_qr_scan"}, "name": "febb53f36e6761b64b568847e81cab3f", "is_reserved": 0}, {"is_disabled": 0, "fusion_lon": 0.0, "fusion_lat": 0.0, "lat": 38.89843483333333, "type": "electric_scooter", "lon": -77.0074445, "bike_id": "56834877f3f1b2ee522548c533f3471c", "rental_uris": {"android": "https://dc.lft.to/lastmile_qr_scan", "ios": "https://dc.lft.to/lastmile_qr_scan"}, "name": "56834877f3f1b2ee522548c533f3471c", "is_reserved": 0}, {"is_disabled": 0, "fusion_lon": 0.0, "fusion_lat": 0.0, "lat": 38.90389233333333, "type": "electric_scooter", "lon": -77.03436616666667, "bike_id": "1b6d851bc05e0b26c2dd518b84a34562", "rental_uris": {"android": "https://dc.lft.to/lastmile_qr_scan", "ios": "https://dc.lft.to/lastmile_qr_scan"}, "name": "1b6d851bc05e0b26c2dd518b84a34562", "is_reserved": 0}, {"is_disabled": 0, "fusion_lon": 0.0, "fusion_lat": 0.0, "lat": 38.926376833333336, "type": "electric_bike", "lon": -77.03333383333333, "bike_id": "f646877fa348b5f8467165c27895a121", "rental_uris": {"android": "https://dc.lft.to/lastmile_qr_scan", "ios": "https://dc.lft.to/lastmile_qr_scan"}, "name": "f646877fa348b5f8467165c27895a121", "is_reserved": 0}, {"is_disabled": 0, "fusion_lon": 0.0, "fusion_lat": 0.0, "lat": 38.84891316666667, "type": "electric_scooter", "lon": -77.005159, "bike_id": "c1c703d279eea311059a8362d307e515", "rental_uris": {"android": "https://dc.lft.to/lastmile_qr_scan", "ios": "https://dc.lft.to/lastmile_qr_scan"}, "name": "c1c703d279eea311059a8362d307e515", "is_reserved": 0}, {"is_disabled": 0, "fusion_lon": 0.0, "fusion_lat": 0.0, "lat": 38.98143866666667, "type": "electric_bike", "lon": -77.00774766666666, "bike_id": "d90e5817dd27275a41f57bc82fd60d5d", "rental_uris": {"android": "https://dc.lft.to/lastmile_qr_scan", "ios": "https://dc.lft.to/lastmile_qr_scan"}, "name": "d90e5817dd27275a41f57bc82fd60d5d", "is_reserved": 0}, {"is_disabled": 0, "fusion_lon": 0.0, "fusion_lat": 0.0, "lat": 38.86357133333333, "type": "electric_scooter", "lon": -76.990592, "bike_id": "cdd3ebb62b7f878a6808e119939b88cc", "rental_uris": {"android": "https://dc.lft.to/lastmile_qr_scan", "ios": "https://dc.lft.to/lastmile_qr_scan"}, "name": "cdd3ebb62b7f878a6808e119939b88cc", "is_reserved": 0}, {"is_disabled": 0, "fusion_lon": 0.0, "fusion_lat": 0.0, "lat": 38.907039166666664, "type": "electric_scooter", "lon": -77.02699133333333, "bike_id": "c849927ef6a207f6d8d2128dc4a07000", "rental_uris": {"android": "https://dc.lft.to/lastmile_qr_scan", "ios": "https://dc.lft.to/lastmile_qr_scan"}, "name": "c849927ef6a207f6d8d2128dc4a07000", "is_reserved": 0}, {"is_disabled": 0, "fusion_lon": 0.0, "fusion_lat": 0.0, "lat": 38.917734333333335, "type": "electric_scooter", "lon": -77.0234185, "bike_id": "373962a327819eeacf007fcece7d1b2f", "rental_uris": {"android": "https://dc.lft.to/lastmile_qr_scan", "ios": "https://dc.lft.to/lastmile_qr_scan"}, "name": "373962a327819eeacf007fcece7d1b2f", "is_reserved": 0}, {"is_disabled": 0, "fusion_lon": 0.0, "fusion_lat": 0.0, "lat": 38.93397916666667, "type": "electric_scooter", "lon": -77.027338, "bike_id": "5d4f62ab25809d63663e0a595cc4523a", "rental_uris": {"android": "https://dc.lft.to/lastmile_qr_scan", "ios": "https://dc.lft.to/lastmile_qr_scan"}, "name": "5d4f62ab25809d63663e0a595cc4523a", "is_reserved": 0}, {"is_disabled": 0, "fusion_lon": 0.0, "fusion_lat": 0.0, "lat": 38.88501816666667, "type": "electric_scooter", "lon": -77.02230733333333, "bike_id": "033f6b653a92a76d93db99d82eeb7e6f", "rental_uris": {"android": "https://dc.lft.to/lastmile_qr_scan", "ios": "https://dc.lft.to/lastmile_qr_scan"}, "name": "033f6b653a92a76d93db99d82eeb7e6f", "is_reserved": 0}, {"is_disabled": 0, "fusion_lon": 0.0, "fusion_lat": 0.0, "lat": 38.9005315, "type": "electric_scooter", "lon": -77.03441133333334, "bike_id": "5f3953f81c1d6001af956abc27ac8dfb", "rental_uris": {"android": "https://dc.lft.to/lastmile_qr_scan", "ios": "https://dc.lft.to/lastmile_qr_scan"}, "name": "5f3953f81c1d6001af956abc27ac8dfb", "is_reserved": 0}, {"is_disabled": 0, "fusion_lon": 0.0, "fusion_lat": 0.0, "lat": 38.902464333333334, "type": "electric_bike", "lon": -76.97018433333334, "bike_id": "a913faa9a5bd4c356b1f112ae0fc448d", "rental_uris": {"android": "https://dc.lft.to/lastmile_qr_scan", "ios": "https://dc.lft.to/lastmile_qr_scan"}, "name": "a913faa9a5bd4c356b1f112ae0fc448d", "is_reserved": 0}, {"is_disabled": 0, "fusion_lon": 0.0, "fusion_lat": 0.0, "lat": 38.895329833333335, "type": "electric_scooter", "lon": -77.02818983333333, "bike_id": "c41d90e77d8cd237ac661683ae0198e7", "rental_uris": {"android": "https://dc.lft.to/lastmile_qr_scan", "ios": "https://dc.lft.to/lastmile_qr_scan"}, "name": "c41d90e77d8cd237ac661683ae0198e7", "is_reserved": 0}, {"is_disabled": 0, "fusion_lon": 0.0, "fusion_lat": 0.0, "lat": 38.97050133333333, "type": "electric_bike", "lon": -77.03082283333333, "bike_id": "ad3bd3ea7052e85ce713e66c94b3745b", "rental_uris": {"android": "https://dc.lft.to/lastmile_qr_scan", "ios": "https://dc.lft.to/lastmile_qr_scan"}, "name": "ad3bd3ea7052e85ce713e66c94b3745b", "is_reserved": 0}, {"is_disabled": 0, "fusion_lon": 0.0, "fusion_lat": 0.0, "lat": 38.92873866666667, "type": "electric_scooter", "lon": -77.03444166666667, "bike_id": "446b2aa279a2db94a849ee1779583cbf", "rental_uris": {"android": "https://dc.lft.to/lastmile_qr_scan", "ios": "https://dc.lft.to/lastmile_qr_scan"}, "name": "446b2aa279a2db94a849ee1779583cbf", "is_reserved": 0}, {"is_disabled": 0, "fusion_lon": 0.0, "fusion_lat": 0.0, "lat": 38.848463, "type": "electric_bike", "lon": -77.080499, "bike_id": "d45026a63cd1cf0dd184859b9574c61c", "rental_uris": {"android": "https://dc.lft.to/lastmile_qr_scan", "ios": "https://dc.lft.to/lastmile_qr_scan"}, "name": "d45026a63cd1cf0dd184859b9574c61c", "is_reserved": 0}, {"is_disabled": 0, "fusion_lon": 0.0, "fusion_lat": 0.0, "lat": 38.9056485, "type": "electric_scooter", "lon": -77.0271045, "bike_id": "e5127299f55307b80e9253d2b84f1447", "rental_uris": {"android": "https://dc.lft.to/lastmile_qr_scan", "ios": "https://dc.lft.to/lastmile_qr_scan"}, "name": "e5127299f55307b80e9253d2b84f1447", "is_reserved": 0}, {"is_disabled": 0, "fusion_lon": 0.0, "fusion_lat": 0.0, "lat": 38.930506666666666, "type": "electric_scooter", "lon": -77.02650183333333, "bike_id": "bbc90564174a897729502d1f7fd1b728", "rental_uris": {"android": "https://dc.lft.to/lastmile_qr_scan", "ios": "https://dc.lft.to/lastmile_qr_scan"}, "name": "bbc90564174a897729502d1f7fd1b728", "is_reserved": 0}, {"is_disabled": 0, "fusion_lon": 0.0, "fusion_lat": 0.0, "lat": 38.92995633333334, "type": "electric_scooter", "lon": -77.02183433333333, "bike_id": "2e37a412900beb4a0b604c43c5eaec38", "rental_uris": {"android": "https://dc.lft.to/lastmile_qr_scan", "ios": "https://dc.lft.to/lastmile_qr_scan"}, "name": "2e37a412900beb4a0b604c43c5eaec38", "is_reserved": 0}, {"is_disabled": 0, "fusion_lon": 0.0, "fusion_lat": 0.0, "lat": 38.944937833333334, "type": "electric_bike", "lon": -76.98661566666667, "bike_id": "927fbf0456e0b7d973963340e41fe78c", "rental_uris": {"android": "https://dc.lft.to/lastmile_qr_scan", "ios": "https://dc.lft.to/lastmile_qr_scan"}, "name": "927fbf0456e0b7d973963340e41fe78c", "is_reserved": 0}, {"is_disabled": 0, "fusion_lon": 0.0, "fusion_lat": 0.0, "lat": 38.914037666666665, "type": "electric_scooter", "lon": -77.0032845, "bike_id": "846135aebcbad721b6577a0c616ee549", "rental_uris": {"android": "https://dc.lft.to/lastmile_qr_scan", "ios": "https://dc.lft.to/lastmile_qr_scan"}, "name": "846135aebcbad721b6577a0c616ee549", "is_reserved": 0}, {"is_disabled": 0, "fusion_lon": 0.0, "fusion_lat": 0.0, "lat": 38.93054383333333, "type": "electric_scooter", "lon": -77.02806683333333, "bike_id": "2b6699cd1f503d2f30b14df7fb3b8b3f", "rental_uris": {"android": "https://dc.lft.to/lastmile_qr_scan", "ios": "https://dc.lft.to/lastmile_qr_scan"}, "name": "2b6699cd1f503d2f30b14df7fb3b8b3f", "is_reserved": 0}, {"is_disabled": 0, "fusion_lon": 0.0, "fusion_lat": 0.0, "lat": 38.917936166666664, "type": "electric_scooter", "lon": -77.04291183333333, "bike_id": "147e4226ac2e8888ab1252ee45e83d94", "rental_uris": {"android": "https://dc.lft.to/lastmile_qr_scan", "ios": "https://dc.lft.to/lastmile_qr_scan"}, "name": "147e4226ac2e8888ab1252ee45e83d94", "is_reserved": 0}, {"is_disabled": 0, "fusion_lon": 0.0, "fusion_lat": 0.0, "lat": 38.88578066666667, "type": "electric_scooter", "lon": -76.91910616666667, "bike_id": "685eebe24357d40ff44a3172fb9b9a11", "rental_uris": {"android": "https://dc.lft.to/lastmile_qr_scan", "ios": "https://dc.lft.to/lastmile_qr_scan"}, "name": "685eebe24357d40ff44a3172fb9b9a11", "is_reserved": 0}, {"is_disabled": 0, "fusion_lon": 0.0, "fusion_lat": 0.0, "lat": 38.916661, "type": "electric_scooter", "lon": -77.038493, "bike_id": "4c31a75c328c8d1603adad519b4eb0e2", "rental_uris": {"android": "https://dc.lft.to/lastmile_qr_scan", "ios": "https://dc.lft.to/lastmile_qr_scan"}, "name": "4c31a75c328c8d1603adad519b4eb0e2", "is_reserved": 0}, {"is_disabled": 0, "fusion_lon": 0.0, "fusion_lat": 0.0, "lat": 38.90845233333334, "type": "electric_scooter", "lon": -77.02688283333333, "bike_id": "967bab305f691d77026ab7bf8d4e9655", "rental_uris": {"android": "https://dc.lft.to/lastmile_qr_scan", "ios": "https://dc.lft.to/lastmile_qr_scan"}, "name": "967bab305f691d77026ab7bf8d4e9655", "is_reserved": 0}, {"is_disabled": 0, "fusion_lon": 0.0, "fusion_lat": 0.0, "lat": 38.936335666666665, "type": "electric_scooter", "lon": -77.02465766666667, "bike_id": "1084b4ae60b068ee941b0e1bef62e0f1", "rental_uris": {"android": "https://dc.lft.to/lastmile_qr_scan", "ios": "https://dc.lft.to/lastmile_qr_scan"}, "name": "1084b4ae60b068ee941b0e1bef62e0f1", "is_reserved": 0}, {"is_disabled": 0, "fusion_lon": 0.0, "fusion_lat": 0.0, "lat": 38.845094833333334, "type": "electric_bike", "lon": -76.97216966666667, "bike_id": "4566131234fe4d78350c1f032144819a", "rental_uris": {"android": "https://dc.lft.to/lastmile_qr_scan", "ios": "https://dc.lft.to/lastmile_qr_scan"}, "name": "4566131234fe4d78350c1f032144819a", "is_reserved": 0}, {"is_disabled": 0, "fusion_lon": 0.0, "fusion_lat": 0.0, "lat": 38.91657516666667, "type": "electric_scooter", "lon": -77.028002, "bike_id": "82a3d8f033939d61621cb1e95ad78c06", "rental_uris": {"android": "https://dc.lft.to/lastmile_qr_scan", "ios": "https://dc.lft.to/lastmile_qr_scan"}, "name": "82a3d8f033939d61621cb1e95ad78c06", "is_reserved": 0}, {"is_disabled": 0, "fusion_lon": 0.0, "fusion_lat": 0.0, "lat": 38.90716183333333, "type": "electric_scooter", "lon": -77.027157, "bike_id": "6f92d68b6fde2da141a918d82485b59d", "rental_uris": {"android": "https://dc.lft.to/lastmile_qr_scan", "ios": "https://dc.lft.to/lastmile_qr_scan"}, "name": "6f92d68b6fde2da141a918d82485b59d", "is_reserved": 0}, {"is_disabled": 0, "fusion_lon": 0.0, "fusion_lat": 0.0, "lat": 38.91926866666667, "type": "electric_scooter", "lon": -77.03391266666667, "bike_id": "00d9aba6cff0b6491774f7daa5e78ed6", "rental_uris": {"android": "https://dc.lft.to/lastmile_qr_scan", "ios": "https://dc.lft.to/lastmile_qr_scan"}, "name": "00d9aba6cff0b6491774f7daa5e78ed6", "is_reserved": 0}, {"is_disabled": 0, "fusion_lon": 0.0, "fusion_lat": 0.0, "lat": 38.903671333333335, "type": "electric_scooter", "lon": -77.01623966666666, "bike_id": "26fa98d7a1f9a3a7dfd400aec67e9c8e", "rental_uris": {"android": "https://dc.lft.to/lastmile_qr_scan", "ios": "https://dc.lft.to/lastmile_qr_scan"}, "name": "26fa98d7a1f9a3a7dfd400aec67e9c8e", "is_reserved": 0}, {"is_disabled": 0, "fusion_lon": 0.0, "fusion_lat": 0.0, "lat": 38.972642, "type": "electric_bike", "lon": -76.991711, "bike_id": "f205bef3d466d663b0ab25b19f5dbe2f", "rental_uris": {"android": "https://dc.lft.to/lastmile_qr_scan", "ios": "https://dc.lft.to/lastmile_qr_scan"}, "name": "f205bef3d466d663b0ab25b19f5dbe2f", "is_reserved": 0}, {"is_disabled": 0, "fusion_lon": 0.0, "fusion_lat": 0.0, "lat": 38.8952165, "type": "electric_scooter", "lon": -77.01083316666667, "bike_id": "8e0ebe1afff8ed9d3253e93ad2735171", "rental_uris": {"android": "https://dc.lft.to/lastmile_qr_scan", "ios": "https://dc.lft.to/lastmile_qr_scan"}, "name": "8e0ebe1afff8ed9d3253e93ad2735171", "is_reserved": 0}, {"is_disabled": 0, "fusion_lon": 0.0, "fusion_lat": 0.0, "lat": 38.839424, "type": "electric_bike", "lon": -77.07903816666666, "bike_id": "6f553ff21ccf97421a5db825a8630553", "rental_uris": {"android": "https://dc.lft.to/lastmile_qr_scan", "ios": "https://dc.lft.to/lastmile_qr_scan"}, "name": "6f553ff21ccf97421a5db825a8630553", "is_reserved": 0}, {"is_disabled": 0, "fusion_lon": 0.0, "fusion_lat": 0.0, "lat": 38.89739316666667, "type": "electric_scooter", "lon": -77.00998983333334, "bike_id": "42a9b5336f411ca2222a4133ef233712", "rental_uris": {"android": "https://dc.lft.to/lastmile_qr_scan", "ios": "https://dc.lft.to/lastmile_qr_scan"}, "name": "42a9b5336f411ca2222a4133ef233712", "is_reserved": 0}, {"is_disabled": 0, "fusion_lon": 0.0, "fusion_lat": 0.0, "lat": 38.917717, "type": "electric_scooter", "lon": -77.04749716666667, "bike_id": "754ef893492ee55019317618fe43e7c2", "rental_uris": {"android": "https://dc.lft.to/lastmile_qr_scan", "ios": "https://dc.lft.to/lastmile_qr_scan"}, "name": "754ef893492ee55019317618fe43e7c2", "is_reserved": 0}, {"is_disabled": 0, "fusion_lon": 0.0, "fusion_lat": 0.0, "lat": 38.93471733333333, "type": "electric_scooter", "lon": -77.06881316666667, "bike_id": "abd28bed42ed930929a644257e3d907c", "rental_uris": {"android": "https://dc.lft.to/lastmile_qr_scan", "ios": "https://dc.lft.to/lastmile_qr_scan"}, "name": "abd28bed42ed930929a644257e3d907c", "is_reserved": 0}, {"is_disabled": 0, "fusion_lon": 0.0, "fusion_lat": 0.0, "lat": 38.894256166666665, "type": "electric_scooter", "lon": -77.0109075, "bike_id": "4371c5041305d186e305a70b9b0bc93d", "rental_uris": {"android": "https://dc.lft.to/lastmile_qr_scan", "ios": "https://dc.lft.to/lastmile_qr_scan"}, "name": "4371c5041305d186e305a70b9b0bc93d", "is_reserved": 0}, {"is_disabled": 0, "fusion_lon": 0.0, "fusion_lat": 0.0, "lat": 38.89733916666667, "type": "electric_scooter", "lon": -77.04807466666666, "bike_id": "0c205900c49e440574e46a2ed456bff2", "rental_uris": {"android": "https://dc.lft.to/lastmile_qr_scan", "ios": "https://dc.lft.to/lastmile_qr_scan"}, "name": "0c205900c49e440574e46a2ed456bff2", "is_reserved": 0}, {"is_disabled": 0, "fusion_lon": 0.0, "fusion_lat": 0.0, "lat": 38.911519166666665, "type": "electric_scooter", "lon": -77.087894, "bike_id": "6cfa678ef422b68309707fa701b410ee", "rental_uris": {"android": "https://dc.lft.to/lastmile_qr_scan", "ios": "https://dc.lft.to/lastmile_qr_scan"}, "name": "6cfa678ef422b68309707fa701b410ee", "is_reserved": 0}, {"is_disabled": 0, "fusion_lon": 0.0, "fusion_lat": 0.0, "lat": 38.880651, "type": "electric_scooter", "lon": -77.016698, "bike_id": "a2a343541d2d8dbbc93c0d80374e6322", "rental_uris": {"android": "https://dc.lft.to/lastmile_qr_scan", "ios": "https://dc.lft.to/lastmile_qr_scan"}, "name": "a2a343541d2d8dbbc93c0d80374e6322", "is_reserved": 0}, {"is_disabled": 0, "fusion_lon": 0.0, "fusion_lat": 0.0, "lat": 38.902680833333335, "type": "electric_scooter", "lon": -77.03838816666666, "bike_id": "8664ec7314a8d86a3ede386d34d390d3", "rental_uris": {"android": "https://dc.lft.to/lastmile_qr_scan", "ios": "https://dc.lft.to/lastmile_qr_scan"}, "name": "8664ec7314a8d86a3ede386d34d390d3", "is_reserved": 0}, {"is_disabled": 0, "fusion_lon": 0.0, "fusion_lat": 0.0, "lat": 38.8584015, "type": "electric_bike", "lon": -76.99283833333334, "bike_id": "f8951327bc56873637948a4e967bdb13", "rental_uris": {"android": "https://dc.lft.to/lastmile_qr_scan", "ios": "https://dc.lft.to/lastmile_qr_scan"}, "name": "f8951327bc56873637948a4e967bdb13", "is_reserved": 0}, {"is_disabled": 0, "fusion_lon": 0.0, "fusion_lat": 0.0, "lat": 38.879873, "type": "electric_bike", "lon": -76.91597066666667, "bike_id": "ccdcd75b0551d42aa84b8448ed7538e0", "rental_uris": {"android": "https://dc.lft.to/lastmile_qr_scan", "ios": "https://dc.lft.to/lastmile_qr_scan"}, "name": "ccdcd75b0551d42aa84b8448ed7538e0", "is_reserved": 0}, {"is_disabled": 0, "fusion_lon": 0.0, "fusion_lat": 0.0, "lat": 38.873085833333334, "type": "electric_bike", "lon": -76.971028, "bike_id": "f88c41fb919c710f4e80b61bb40379e4", "rental_uris": {"android": "https://dc.lft.to/lastmile_qr_scan", "ios": "https://dc.lft.to/lastmile_qr_scan"}, "name": "f88c41fb919c710f4e80b61bb40379e4", "is_reserved": 0}, {"is_disabled": 0, "fusion_lon": 0.0, "fusion_lat": 0.0, "lat": 38.918186666666664, "type": "electric_scooter", "lon": -77.03255816666666, "bike_id": "79cd196d46459b11070e69ba0b9f7153", "rental_uris": {"android": "https://dc.lft.to/lastmile_qr_scan", "ios": "https://dc.lft.to/lastmile_qr_scan"}, "name": "79cd196d46459b11070e69ba0b9f7153", "is_reserved": 0}, {"is_disabled": 0, "fusion_lon": 0.0, "fusion_lat": 0.0, "lat": 38.9665315, "type": "electric_bike", "lon": -76.93023266666667, "bike_id": "6aac7a684d336d5efc5f30f0af2ad799", "rental_uris": {"android": "https://dc.lft.to/lastmile_qr_scan", "ios": "https://dc.lft.to/lastmile_qr_scan"}, "name": "6aac7a684d336d5efc5f30f0af2ad799", "is_reserved": 0}, {"is_disabled": 0, "fusion_lon": 0.0, "fusion_lat": 0.0, "lat": 38.965075666666664, "type": "electric_scooter", "lon": -77.02480833333334, "bike_id": "8093d6b0f7a5d0cfd6ab543746044b35", "rental_uris": {"android": "https://dc.lft.to/lastmile_qr_scan", "ios": "https://dc.lft.to/lastmile_qr_scan"}, "name": "8093d6b0f7a5d0cfd6ab543746044b35", "is_reserved": 0}, {"is_disabled": 0, "fusion_lon": 0.0, "fusion_lat": 0.0, "lat": 38.9537945, "type": "electric_scooter", "lon": -77.02557016666667, "bike_id": "0aa60b76bdfdd365cf59d915380fbf5c", "rental_uris": {"android": "https://dc.lft.to/lastmile_qr_scan", "ios": "https://dc.lft.to/lastmile_qr_scan"}, "name": "0aa60b76bdfdd365cf59d915380fbf5c", "is_reserved": 0}, {"is_disabled": 0, "fusion_lon": 0.0, "fusion_lat": 0.0, "lat": 38.930065, "type": "electric_scooter", "lon": -77.07839966666667, "bike_id": "7e4f5d57e0eb86d9428dd997f195276f", "rental_uris": {"android": "https://dc.lft.to/lastmile_qr_scan", "ios": "https://dc.lft.to/lastmile_qr_scan"}, "name": "7e4f5d57e0eb86d9428dd997f195276f", "is_reserved": 0}, {"is_disabled": 0, "fusion_lon": 0.0, "fusion_lat": 0.0, "lat": 38.924170833333335, "type": "electric_scooter", "lon": -77.04161166666667, "bike_id": "a6337e511f0332cc9d8163941b312ab1", "rental_uris": {"android": "https://dc.lft.to/lastmile_qr_scan", "ios": "https://dc.lft.to/lastmile_qr_scan"}, "name": "a6337e511f0332cc9d8163941b312ab1", "is_reserved": 0}, {"is_disabled": 0, "fusion_lon": 0.0, "fusion_lat": 0.0, "lat": 38.90729683333333, "type": "electric_scooter", "lon": -77.03846533333333, "bike_id": "98cf5312c588a89e3522699dbbcfcedd", "rental_uris": {"android": "https://dc.lft.to/lastmile_qr_scan", "ios": "https://dc.lft.to/lastmile_qr_scan"}, "name": "98cf5312c588a89e3522699dbbcfcedd", "is_reserved": 0}, {"is_disabled": 0, "fusion_lon": 0.0, "fusion_lat": 0.0, "lat": 38.91180083333333, "type": "electric_scooter", "lon": -77.00439916666667, "bike_id": "8400b8638bc2e6dc8d623204fb359183", "rental_uris": {"android": "https://dc.lft.to/lastmile_qr_scan", "ios": "https://dc.lft.to/lastmile_qr_scan"}, "name": "8400b8638bc2e6dc8d623204fb359183", "is_reserved": 0}, {"is_disabled": 0, "fusion_lon": 0.0, "fusion_lat": 0.0, "lat": 38.933736333333336, "type": "electric_scooter", "lon": -77.05733533333333, "bike_id": "d4f4cf7e7df7df6464f497e98f072d7a", "rental_uris": {"android": "https://dc.lft.to/lastmile_qr_scan", "ios": "https://dc.lft.to/lastmile_qr_scan"}, "name": "d4f4cf7e7df7df6464f497e98f072d7a", "is_reserved": 0}, {"is_disabled": 0, "fusion_lon": 0.0, "fusion_lat": 0.0, "lat": 38.90363, "type": "electric_scooter", "lon": -77.05017516666666, "bike_id": "4ed4389915f31618e8186e8f97d03499", "rental_uris": {"android": "https://dc.lft.to/lastmile_qr_scan", "ios": "https://dc.lft.to/lastmile_qr_scan"}, "name": "4ed4389915f31618e8186e8f97d03499", "is_reserved": 0}, {"is_disabled": 0, "fusion_lon": 0.0, "fusion_lat": 0.0, "lat": 38.9099335, "type": "electric_scooter", "lon": -77.032085, "bike_id": "388387fe4f2584c9d4a4494bcd038b86", "rental_uris": {"android": "https://dc.lft.to/lastmile_qr_scan", "ios": "https://dc.lft.to/lastmile_qr_scan"}, "name": "388387fe4f2584c9d4a4494bcd038b86", "is_reserved": 0}, {"is_disabled": 0, "fusion_lon": 0.0, "fusion_lat": 0.0, "lat": 38.91633066666667, "type": "electric_bike", "lon": -77.0135555, "bike_id": "2f888d33f5a7c913f9c963770b734ab6", "rental_uris": {"android": "https://dc.lft.to/lastmile_qr_scan", "ios": "https://dc.lft.to/lastmile_qr_scan"}, "name": "2f888d33f5a7c913f9c963770b734ab6", "is_reserved": 0}, {"is_disabled": 0, "fusion_lon": 0.0, "fusion_lat": 0.0, "lat": 38.908363666666666, "type": "electric_scooter", "lon": -77.00225433333334, "bike_id": "7bf7a9aa0b256e8d6c73d62e8db8dee9", "rental_uris": {"android": "https://dc.lft.to/lastmile_qr_scan", "ios": "https://dc.lft.to/lastmile_qr_scan"}, "name": "7bf7a9aa0b256e8d6c73d62e8db8dee9", "is_reserved": 0}, {"is_disabled": 0, "fusion_lon": 0.0, "fusion_lat": 0.0, "lat": 38.9225145, "type": "electric_scooter", "lon": -77.03080733333333, "bike_id": "a26bfdc28d24b754d84350e0459f5a7a", "rental_uris": {"android": "https://dc.lft.to/lastmile_qr_scan", "ios": "https://dc.lft.to/lastmile_qr_scan"}, "name": "a26bfdc28d24b754d84350e0459f5a7a", "is_reserved": 0}, {"is_disabled": 0, "fusion_lon": 0.0, "fusion_lat": 0.0, "lat": 38.91622433333333, "type": "electric_scooter", "lon": -77.04595066666667, "bike_id": "bb74d959ba8b096a7e03118f3b9ccaac", "rental_uris": {"android": "https://dc.lft.to/lastmile_qr_scan", "ios": "https://dc.lft.to/lastmile_qr_scan"}, "name": "bb74d959ba8b096a7e03118f3b9ccaac", "is_reserved": 0}, {"is_disabled": 0, "fusion_lon": 0.0, "fusion_lat": 0.0, "lat": 38.90267633333333, "type": "electric_scooter", "lon": -77.03437933333333, "bike_id": "e9c6faf8f42907ea7835956cae393895", "rental_uris": {"android": "https://dc.lft.to/lastmile_qr_scan", "ios": "https://dc.lft.to/lastmile_qr_scan"}, "name": "e9c6faf8f42907ea7835956cae393895", "is_reserved": 0}, {"is_disabled": 0, "fusion_lon": 0.0, "fusion_lat": 0.0, "lat": 38.892224166666665, "type": "electric_scooter", "lon": -77.03335433333334, "bike_id": "6fde9915c04e4de7e027d688a9ed7aeb", "rental_uris": {"android": "https://dc.lft.to/lastmile_qr_scan", "ios": "https://dc.lft.to/lastmile_qr_scan"}, "name": "6fde9915c04e4de7e027d688a9ed7aeb", "is_reserved": 0}, {"is_disabled": 0, "fusion_lon": 0.0, "fusion_lat": 0.0, "lat": 38.919108666666666, "type": "electric_scooter", "lon": -77.02382033333333, "bike_id": "c5d5640fe62a1b45efec06ec71f39ed2", "rental_uris": {"android": "https://dc.lft.to/lastmile_qr_scan", "ios": "https://dc.lft.to/lastmile_qr_scan"}, "name": "c5d5640fe62a1b45efec06ec71f39ed2", "is_reserved": 0}, {"is_disabled": 0, "fusion_lon": 0.0, "fusion_lat": 0.0, "lat": 38.897797833333335, "type": "electric_scooter", "lon": -77.02490566666667, "bike_id": "e13bfee62a86661ddca58ff8df21855c", "rental_uris": {"android": "https://dc.lft.to/lastmile_qr_scan", "ios": "https://dc.lft.to/lastmile_qr_scan"}, "name": "e13bfee62a86661ddca58ff8df21855c", "is_reserved": 0}, {"is_disabled": 0, "fusion_lon": 0.0, "fusion_lat": 0.0, "lat": 38.95693983333334, "type": "electric_scooter", "lon": -77.02403283333334, "bike_id": "423a0b9a03103cdc1bbee7ef1ff58717", "rental_uris": {"android": "https://dc.lft.to/lastmile_qr_scan", "ios": "https://dc.lft.to/lastmile_qr_scan"}, "name": "423a0b9a03103cdc1bbee7ef1ff58717", "is_reserved": 0}, {"is_disabled": 0, "fusion_lon": 0.0, "fusion_lat": 0.0, "lat": 38.9074815, "type": "electric_scooter", "lon": -77.00750733333334, "bike_id": "f067b0c85047158828669ace85e29f3e", "rental_uris": {"android": "https://dc.lft.to/lastmile_qr_scan", "ios": "https://dc.lft.to/lastmile_qr_scan"}, "name": "f067b0c85047158828669ace85e29f3e", "is_reserved": 0}, {"is_disabled": 0, "fusion_lon": 0.0, "fusion_lat": 0.0, "lat": 38.929211333333335, "type": "electric_scooter", "lon": -77.03183033333333, "bike_id": "dc78476d5f93b8c6599d75d43ea9517e", "rental_uris": {"android": "https://dc.lft.to/lastmile_qr_scan", "ios": "https://dc.lft.to/lastmile_qr_scan"}, "name": "dc78476d5f93b8c6599d75d43ea9517e", "is_reserved": 0}, {"is_disabled": 0, "fusion_lon": 0.0, "fusion_lat": 0.0, "lat": 38.918155666666664, "type": "electric_scooter", "lon": -77.0380685, "bike_id": "eaa569bee77d049c3cebd9c49826e60f", "rental_uris": {"android": "https://dc.lft.to/lastmile_qr_scan", "ios": "https://dc.lft.to/lastmile_qr_scan"}, "name": "eaa569bee77d049c3cebd9c49826e60f", "is_reserved": 0}, {"is_disabled": 0, "fusion_lon": 0.0, "fusion_lat": 0.0, "lat": 38.87676716666667, "type": "electric_bike", "lon": -77.01464833333333, "bike_id": "a7c90628105acd30e665b69d1c1a34ec", "rental_uris": {"android": "https://dc.lft.to/lastmile_qr_scan", "ios": "https://dc.lft.to/lastmile_qr_scan"}, "name": "a7c90628105acd30e665b69d1c1a34ec", "is_reserved": 0}, {"is_disabled": 0, "fusion_lon": 0.0, "fusion_lat": 0.0, "lat": 38.90512966666667, "type": "electric_scooter", "lon": -77.0435175, "bike_id": "de67c9441a51e01dcf1a803b151e63e5", "rental_uris": {"android": "https://dc.lft.to/lastmile_qr_scan", "ios": "https://dc.lft.to/lastmile_qr_scan"}, "name": "de67c9441a51e01dcf1a803b151e63e5", "is_reserved": 0}, {"is_disabled": 0, "fusion_lon": 0.0, "fusion_lat": 0.0, "lat": 38.94179966666667, "type": "electric_scooter", "lon": -77.03654366666666, "bike_id": "365dfc8fc0f512473af8c2a3a981722a", "rental_uris": {"android": "https://dc.lft.to/lastmile_qr_scan", "ios": "https://dc.lft.to/lastmile_qr_scan"}, "name": "365dfc8fc0f512473af8c2a3a981722a", "is_reserved": 0}, {"is_disabled": 0, "fusion_lon": 0.0, "fusion_lat": 0.0, "lat": 38.8965865, "type": "electric_scooter", "lon": -77.0433575, "bike_id": "04291018b9351d8feaa374402e456a5d", "rental_uris": {"android": "https://dc.lft.to/lastmile_qr_scan", "ios": "https://dc.lft.to/lastmile_qr_scan"}, "name": "04291018b9351d8feaa374402e456a5d", "is_reserved": 0}, {"is_disabled": 0, "fusion_lon": 0.0, "fusion_lat": 0.0, "lat": 38.92901616666666, "type": "electric_scooter", "lon": -77.02404416666667, "bike_id": "42434f64d0411492912201941c0fcbc7", "rental_uris": {"android": "https://dc.lft.to/lastmile_qr_scan", "ios": "https://dc.lft.to/lastmile_qr_scan"}, "name": "42434f64d0411492912201941c0fcbc7", "is_reserved": 0}, {"is_disabled": 0, "fusion_lon": 0.0, "fusion_lat": 0.0, "lat": 38.925320166666666, "type": "electric_scooter", "lon": -77.073291, "bike_id": "52f9887cbcc0f76e606ae1e515b47b75", "rental_uris": {"android": "https://dc.lft.to/lastmile_qr_scan", "ios": "https://dc.lft.to/lastmile_qr_scan"}, "name": "52f9887cbcc0f76e606ae1e515b47b75", "is_reserved": 0}, {"is_disabled": 0, "fusion_lon": 0.0, "fusion_lat": 0.0, "lat": 38.8979635, "type": "electric_scooter", "lon": -76.93052766666666, "bike_id": "778940be435b6c8aa20cb94fbf4f9df2", "rental_uris": {"android": "https://dc.lft.to/lastmile_qr_scan", "ios": "https://dc.lft.to/lastmile_qr_scan"}, "name": "778940be435b6c8aa20cb94fbf4f9df2", "is_reserved": 0}, {"is_disabled": 0, "fusion_lon": 0.0, "fusion_lat": 0.0, "lat": 38.8673615, "type": "electric_scooter", "lon": -76.98850916666666, "bike_id": "45086e3ce40a30a8f8c9cfe4ffea9cea", "rental_uris": {"android": "https://dc.lft.to/lastmile_qr_scan", "ios": "https://dc.lft.to/lastmile_qr_scan"}, "name": "45086e3ce40a30a8f8c9cfe4ffea9cea", "is_reserved": 0}, {"is_disabled": 0, "fusion_lon": 0.0, "fusion_lat": 0.0, "lat": 38.926585333333335, "type": "electric_scooter", "lon": -77.02302933333333, "bike_id": "dcfc552a4f7553dcec56f71109fd4ac7", "rental_uris": {"android": "https://dc.lft.to/lastmile_qr_scan", "ios": "https://dc.lft.to/lastmile_qr_scan"}, "name": "dcfc552a4f7553dcec56f71109fd4ac7", "is_reserved": 0}, {"is_disabled": 0, "fusion_lon": 0.0, "fusion_lat": 0.0, "lat": 38.9498345, "type": "electric_scooter", "lon": -77.02703866666667, "bike_id": "15fd47924ae1ad7a72c9bb836f58b8f8", "rental_uris": {"android": "https://dc.lft.to/lastmile_qr_scan", "ios": "https://dc.lft.to/lastmile_qr_scan"}, "name": "15fd47924ae1ad7a72c9bb836f58b8f8", "is_reserved": 0}, {"is_disabled": 0, "fusion_lon": 0.0, "fusion_lat": 0.0, "lat": 38.831574, "type": "electric_bike", "lon": -76.99694583333333, "bike_id": "2cd09bfab5811479284c8d820811bfcb", "rental_uris": {"android": "https://dc.lft.to/lastmile_qr_scan", "ios": "https://dc.lft.to/lastmile_qr_scan"}, "name": "2cd09bfab5811479284c8d820811bfcb", "is_reserved": 0}, {"is_disabled": 0, "fusion_lon": 0.0, "fusion_lat": 0.0, "lat": 38.988202666666666, "type": "electric_bike", "lon": -77.02658566666666, "bike_id": "c499e55a179b346f315b3d1fa74c6be3", "rental_uris": {"android": "https://dc.lft.to/lastmile_qr_scan", "ios": "https://dc.lft.to/lastmile_qr_scan"}, "name": "c499e55a179b346f315b3d1fa74c6be3", "is_reserved": 0}, {"is_disabled": 0, "fusion_lon": 0.0, "fusion_lat": 0.0, "lat": 38.94245433333333, "type": "electric_scooter", "lon": -77.021705, "bike_id": "fe9ab188cda71693879451cab0e12b11", "rental_uris": {"android": "https://dc.lft.to/lastmile_qr_scan", "ios": "https://dc.lft.to/lastmile_qr_scan"}, "name": "fe9ab188cda71693879451cab0e12b11", "is_reserved": 0}, {"is_disabled": 0, "fusion_lon": 0.0, "fusion_lat": 0.0, "lat": 38.883892333333336, "type": "electric_scooter", "lon": -77.017307, "bike_id": "f35755e2794ac0817401e7bbff399e08", "rental_uris": {"android": "https://dc.lft.to/lastmile_qr_scan", "ios": "https://dc.lft.to/lastmile_qr_scan"}, "name": "f35755e2794ac0817401e7bbff399e08", "is_reserved": 0}, {"is_disabled": 0, "fusion_lon": 0.0, "fusion_lat": 0.0, "lat": 38.9349545, "type": "electric_scooter", "lon": -77.02605616666666, "bike_id": "595a82a967cf79b982dd3665dbfe48aa", "rental_uris": {"android": "https://dc.lft.to/lastmile_qr_scan", "ios": "https://dc.lft.to/lastmile_qr_scan"}, "name": "595a82a967cf79b982dd3665dbfe48aa", "is_reserved": 0}, {"is_disabled": 0, "fusion_lon": 0.0, "fusion_lat": 0.0, "lat": 38.9280005, "type": "electric_scooter", "lon": -77.014153, "bike_id": "eba015160467ebd3c6b3773134633b2b", "rental_uris": {"android": "https://dc.lft.to/lastmile_qr_scan", "ios": "https://dc.lft.to/lastmile_qr_scan"}, "name": "eba015160467ebd3c6b3773134633b2b", "is_reserved": 0}, {"is_disabled": 0, "fusion_lon": 0.0, "fusion_lat": 0.0, "lat": 38.92372366666667, "type": "electric_scooter", "lon": -77.02820383333334, "bike_id": "05503962442a55c93e5b16d7c57ad612", "rental_uris": {"android": "https://dc.lft.to/lastmile_qr_scan", "ios": "https://dc.lft.to/lastmile_qr_scan"}, "name": "05503962442a55c93e5b16d7c57ad612", "is_reserved": 0}, {"is_disabled": 0, "fusion_lon": 0.0, "fusion_lat": 0.0, "lat": 38.92324, "type": "electric_scooter", "lon": -77.04522366666667, "bike_id": "1cd216fc6bfa3fab86e2ea9845ab8a35", "rental_uris": {"android": "https://dc.lft.to/lastmile_qr_scan", "ios": "https://dc.lft.to/lastmile_qr_scan"}, "name": "1cd216fc6bfa3fab86e2ea9845ab8a35", "is_reserved": 0}, {"is_disabled": 0, "fusion_lon": 0.0, "fusion_lat": 0.0, "lat": 38.85913933333333, "type": "electric_scooter", "lon": -76.98781516666666, "bike_id": "be09c634071cdf58ebf43289e444849d", "rental_uris": {"android": "https://dc.lft.to/lastmile_qr_scan", "ios": "https://dc.lft.to/lastmile_qr_scan"}, "name": "be09c634071cdf58ebf43289e444849d", "is_reserved": 0}, {"is_disabled": 0, "fusion_lon": 0.0, "fusion_lat": 0.0, "lat": 38.926071666666665, "type": "electric_scooter", "lon": -77.02158116666666, "bike_id": "afb33efd8c0e3feb3f31aa8e53d4f016", "rental_uris": {"android": "https://dc.lft.to/lastmile_qr_scan", "ios": "https://dc.lft.to/lastmile_qr_scan"}, "name": "afb33efd8c0e3feb3f31aa8e53d4f016", "is_reserved": 0}, {"is_disabled": 0, "fusion_lon": 0.0, "fusion_lat": 0.0, "lat": 38.89392766666667, "type": "electric_scooter", "lon": -76.949951, "bike_id": "a61714c480c67caa82ceb482ba3ad152", "rental_uris": {"android": "https://dc.lft.to/lastmile_qr_scan", "ios": "https://dc.lft.to/lastmile_qr_scan"}, "name": "a61714c480c67caa82ceb482ba3ad152", "is_reserved": 0}, {"is_disabled": 0, "fusion_lon": 0.0, "fusion_lat": 0.0, "lat": 38.91199366666667, "type": "electric_scooter", "lon": -77.03711183333333, "bike_id": "43a83434bec18a4070972299df2e8172", "rental_uris": {"android": "https://dc.lft.to/lastmile_qr_scan", "ios": "https://dc.lft.to/lastmile_qr_scan"}, "name": "43a83434bec18a4070972299df2e8172", "is_reserved": 0}, {"is_disabled": 0, "fusion_lon": 0.0, "fusion_lat": 0.0, "lat": 38.90333483333333, "type": "electric_scooter", "lon": -76.9759225, "bike_id": "88650ab309e46a166ab5032e00976cb7", "rental_uris": {"android": "https://dc.lft.to/lastmile_qr_scan", "ios": "https://dc.lft.to/lastmile_qr_scan"}, "name": "88650ab309e46a166ab5032e00976cb7", "is_reserved": 0}, {"is_disabled": 0, "fusion_lon": 0.0, "fusion_lat": 0.0, "lat": 38.9052795, "type": "electric_scooter", "lon": -77.06787583333333, "bike_id": "e3d4c0fbb1d14f28c70fc0eea527f6b6", "rental_uris": {"android": "https://dc.lft.to/lastmile_qr_scan", "ios": "https://dc.lft.to/lastmile_qr_scan"}, "name": "e3d4c0fbb1d14f28c70fc0eea527f6b6", "is_reserved": 0}, {"is_disabled": 0, "fusion_lon": 0.0, "fusion_lat": 0.0, "lat": 38.90557183333333, "type": "electric_scooter", "lon": -77.04339016666667, "bike_id": "20b10e1a4b1be0dbd9f3ffcbc625caac", "rental_uris": {"android": "https://dc.lft.to/lastmile_qr_scan", "ios": "https://dc.lft.to/lastmile_qr_scan"}, "name": "20b10e1a4b1be0dbd9f3ffcbc625caac", "is_reserved": 0}, {"is_disabled": 0, "fusion_lon": 0.0, "fusion_lat": 0.0, "lat": 38.918318666666664, "type": "electric_scooter", "lon": -77.03171616666667, "bike_id": "5b40123fd6cac0215636224f8e15a286", "rental_uris": {"android": "https://dc.lft.to/lastmile_qr_scan", "ios": "https://dc.lft.to/lastmile_qr_scan"}, "name": "5b40123fd6cac0215636224f8e15a286", "is_reserved": 0}, {"is_disabled": 0, "fusion_lon": 0.0, "fusion_lat": 0.0, "lat": 38.91418133333333, "type": "electric_scooter", "lon": -77.02568183333334, "bike_id": "d0092a1d2802e1bf1583c7ba8395dd05", "rental_uris": {"android": "https://dc.lft.to/lastmile_qr_scan", "ios": "https://dc.lft.to/lastmile_qr_scan"}, "name": "d0092a1d2802e1bf1583c7ba8395dd05", "is_reserved": 0}, {"is_disabled": 0, "fusion_lon": 0.0, "fusion_lat": 0.0, "lat": 38.99456633333333, "type": "electric_bike", "lon": -76.90817333333334, "bike_id": "8a9f05dbac03c178c7523ef6dd2d1452", "rental_uris": {"android": "https://dc.lft.to/lastmile_qr_scan", "ios": "https://dc.lft.to/lastmile_qr_scan"}, "name": "8a9f05dbac03c178c7523ef6dd2d1452", "is_reserved": 0}, {"is_disabled": 0, "fusion_lon": 0.0, "fusion_lat": 0.0, "lat": 38.904430833333336, "type": "electric_scooter", "lon": -77.048267, "bike_id": "fafdff04a51a7cf20f477d9fd85de198", "rental_uris": {"android": "https://dc.lft.to/lastmile_qr_scan", "ios": "https://dc.lft.to/lastmile_qr_scan"}, "name": "fafdff04a51a7cf20f477d9fd85de198", "is_reserved": 0}, {"is_disabled": 0, "fusion_lon": 0.0, "fusion_lat": 0.0, "lat": 38.868906333333335, "type": "electric_scooter", "lon": -76.98312416666667, "bike_id": "3b4cfe3b13d9e5baff76d46bc37dd288", "rental_uris": {"android": "https://dc.lft.to/lastmile_qr_scan", "ios": "https://dc.lft.to/lastmile_qr_scan"}, "name": "3b4cfe3b13d9e5baff76d46bc37dd288", "is_reserved": 0}, {"is_disabled": 0, "fusion_lon": 0.0, "fusion_lat": 0.0, "lat": 38.92566383333333, "type": "electric_scooter", "lon": -77.022824, "bike_id": "1ffb0ef4a8851e0997102059bbc44746", "rental_uris": {"android": "https://dc.lft.to/lastmile_qr_scan", "ios": "https://dc.lft.to/lastmile_qr_scan"}, "name": "1ffb0ef4a8851e0997102059bbc44746", "is_reserved": 0}, {"is_disabled": 0, "fusion_lon": 0.0, "fusion_lat": 0.0, "lat": 38.88378483333334, "type": "electric_scooter", "lon": -76.985666, "bike_id": "97010215761605d67570f70c374051a7", "rental_uris": {"android": "https://dc.lft.to/lastmile_qr_scan", "ios": "https://dc.lft.to/lastmile_qr_scan"}, "name": "97010215761605d67570f70c374051a7", "is_reserved": 0}, {"is_disabled": 0, "fusion_lon": 0.0, "fusion_lat": 0.0, "lat": 38.859895333333334, "type": "electric_bike", "lon": -76.97052333333333, "bike_id": "00d660326d83d3d0c46490a44e27edd6", "rental_uris": {"android": "https://dc.lft.to/lastmile_qr_scan", "ios": "https://dc.lft.to/lastmile_qr_scan"}, "name": "00d660326d83d3d0c46490a44e27edd6", "is_reserved": 0}, {"is_disabled": 0, "fusion_lon": 0.0, "fusion_lat": 0.0, "lat": 38.896236333333334, "type": "electric_scooter", "lon": -76.95638783333334, "bike_id": "2da6fe4e5f540cd157773e4eb179cad2", "rental_uris": {"android": "https://dc.lft.to/lastmile_qr_scan", "ios": "https://dc.lft.to/lastmile_qr_scan"}, "name": "2da6fe4e5f540cd157773e4eb179cad2", "is_reserved": 0}, {"is_disabled": 0, "fusion_lon": 0.0, "fusion_lat": 0.0, "lat": 38.93190583333333, "type": "electric_bike", "lon": -77.2293855, "bike_id": "d0580840a7642f7cf8c7b8060727add3", "rental_uris": {"android": "https://dc.lft.to/lastmile_qr_scan", "ios": "https://dc.lft.to/lastmile_qr_scan"}, "name": "d0580840a7642f7cf8c7b8060727add3", "is_reserved": 0}, {"is_disabled": 0, "fusion_lon": 0.0, "fusion_lat": 0.0, "lat": 38.950765, "type": "electric_scooter", "lon": -77.02876783333333, "bike_id": "7caee14549f236fc7999b19f67f04a2e", "rental_uris": {"android": "https://dc.lft.to/lastmile_qr_scan", "ios": "https://dc.lft.to/lastmile_qr_scan"}, "name": "7caee14549f236fc7999b19f67f04a2e", "is_reserved": 0}, {"is_disabled": 0, "fusion_lon": 0.0, "fusion_lat": 0.0, "lat": 38.9175805, "type": "electric_scooter", "lon": -77.036062, "bike_id": "f93f787defebe826ad5916187ff74814", "rental_uris": {"android": "https://dc.lft.to/lastmile_qr_scan", "ios": "https://dc.lft.to/lastmile_qr_scan"}, "name": "f93f787defebe826ad5916187ff74814", "is_reserved": 0}, {"is_disabled": 0, "fusion_lon": 0.0, "fusion_lat": 0.0, "lat": 38.91881033333333, "type": "electric_scooter", "lon": -77.01594933333334, "bike_id": "379c3a2c5767a609888e20b83e668baf", "rental_uris": {"android": "https://dc.lft.to/lastmile_qr_scan", "ios": "https://dc.lft.to/lastmile_qr_scan"}, "name": "379c3a2c5767a609888e20b83e668baf", "is_reserved": 0}, {"is_disabled": 0, "fusion_lon": 0.0, "fusion_lat": 0.0, "lat": 38.920578666666664, "type": "electric_scooter", "lon": -76.99875833333333, "bike_id": "789539d1ea0fd7212c6b0196032f237d", "rental_uris": {"android": "https://dc.lft.to/lastmile_qr_scan", "ios": "https://dc.lft.to/lastmile_qr_scan"}, "name": "789539d1ea0fd7212c6b0196032f237d", "is_reserved": 0}, {"is_disabled": 0, "fusion_lon": 0.0, "fusion_lat": 0.0, "lat": 38.883736166666665, "type": "electric_scooter", "lon": -76.926458, "bike_id": "91e79243426611a7345fe60d3dcbf65b", "rental_uris": {"android": "https://dc.lft.to/lastmile_qr_scan", "ios": "https://dc.lft.to/lastmile_qr_scan"}, "name": "91e79243426611a7345fe60d3dcbf65b", "is_reserved": 0}, {"is_disabled": 0, "fusion_lon": 0.0, "fusion_lat": 0.0, "lat": 38.9925505, "type": "electric_bike", "lon": -77.0499605, "bike_id": "76bdfbee6f9540821556cabd2fe75745", "rental_uris": {"android": "https://dc.lft.to/lastmile_qr_scan", "ios": "https://dc.lft.to/lastmile_qr_scan"}, "name": "76bdfbee6f9540821556cabd2fe75745", "is_reserved": 0}, {"is_disabled": 0, "fusion_lon": 0.0, "fusion_lat": 0.0, "lat": 38.914763666666666, "type": "electric_bike", "lon": -77.00927616666667, "bike_id": "bebb2f0aeb0ae046fc870f4d5bcf2027", "rental_uris": {"android": "https://dc.lft.to/lastmile_qr_scan", "ios": "https://dc.lft.to/lastmile_qr_scan"}, "name": "bebb2f0aeb0ae046fc870f4d5bcf2027", "is_reserved": 0}, {"is_disabled": 0, "fusion_lon": 0.0, "fusion_lat": 0.0, "lat": 38.9127755, "type": "electric_scooter", "lon": -77.03852483333333, "bike_id": "03ee18f877e7828a0792ac9d071f5f47", "rental_uris": {"android": "https://dc.lft.to/lastmile_qr_scan", "ios": "https://dc.lft.to/lastmile_qr_scan"}, "name": "03ee18f877e7828a0792ac9d071f5f47", "is_reserved": 0}, {"is_disabled": 0, "fusion_lon": 0.0, "fusion_lat": 0.0, "lat": 38.897257333333336, "type": "electric_scooter", "lon": -77.02691583333333, "bike_id": "9f136cfedfc0f0d503acbcaa8d770dd5", "rental_uris": {"android": "https://dc.lft.to/lastmile_qr_scan", "ios": "https://dc.lft.to/lastmile_qr_scan"}, "name": "9f136cfedfc0f0d503acbcaa8d770dd5", "is_reserved": 0}, {"is_disabled": 0, "fusion_lon": 0.0, "fusion_lat": 0.0, "lat": 38.91151416666666, "type": "electric_scooter", "lon": -77.04139883333333, "bike_id": "a02b3f6de74384c7d8e105ccd9d19599", "rental_uris": {"android": "https://dc.lft.to/lastmile_qr_scan", "ios": "https://dc.lft.to/lastmile_qr_scan"}, "name": "a02b3f6de74384c7d8e105ccd9d19599", "is_reserved": 0}, {"is_disabled": 0, "fusion_lon": 0.0, "fusion_lat": 0.0, "lat": 38.9013255, "type": "electric_scooter", "lon": -77.02289383333333, "bike_id": "a60e82ca0120dbc65ae137cd989ebed4", "rental_uris": {"android": "https://dc.lft.to/lastmile_qr_scan", "ios": "https://dc.lft.to/lastmile_qr_scan"}, "name": "a60e82ca0120dbc65ae137cd989ebed4", "is_reserved": 0}, {"is_disabled": 0, "fusion_lon": 0.0, "fusion_lat": 0.0, "lat": 38.89625733333333, "type": "electric_scooter", "lon": -77.00919333333333, "bike_id": "6ef7aed9e8f35efb538ac12f6bde9c6a", "rental_uris": {"android": "https://dc.lft.to/lastmile_qr_scan", "ios": "https://dc.lft.to/lastmile_qr_scan"}, "name": "6ef7aed9e8f35efb538ac12f6bde9c6a", "is_reserved": 0}, {"is_disabled": 0, "fusion_lon": 0.0, "fusion_lat": 0.0, "lat": 38.90685583333333, "type": "electric_scooter", "lon": -76.98005833333333, "bike_id": "a35aafee390aa1813302d18528993450", "rental_uris": {"android": "https://dc.lft.to/lastmile_qr_scan", "ios": "https://dc.lft.to/lastmile_qr_scan"}, "name": "a35aafee390aa1813302d18528993450", "is_reserved": 0}, {"is_disabled": 0, "fusion_lon": 0.0, "fusion_lat": 0.0, "lat": 38.91041533333333, "type": "electric_scooter", "lon": -77.04008783333333, "bike_id": "b901461e101cfabc85008d5f1412e0f2", "rental_uris": {"android": "https://dc.lft.to/lastmile_qr_scan", "ios": "https://dc.lft.to/lastmile_qr_scan"}, "name": "b901461e101cfabc85008d5f1412e0f2", "is_reserved": 0}, {"is_disabled": 0, "fusion_lon": 0.0, "fusion_lat": 0.0, "lat": 38.9420305, "type": "electric_scooter", "lon": -77.02590616666667, "bike_id": "e76a92346bf19455ecb3a5771e211d6a", "rental_uris": {"android": "https://dc.lft.to/lastmile_qr_scan", "ios": "https://dc.lft.to/lastmile_qr_scan"}, "name": "e76a92346bf19455ecb3a5771e211d6a", "is_reserved": 0}, {"is_disabled": 0, "fusion_lon": 0.0, "fusion_lat": 0.0, "lat": 38.935566333333334, "type": "electric_scooter", "lon": -77.05425716666667, "bike_id": "06f0e22fdfe2ee8a82a58a6f59518831", "rental_uris": {"android": "https://dc.lft.to/lastmile_qr_scan", "ios": "https://dc.lft.to/lastmile_qr_scan"}, "name": "06f0e22fdfe2ee8a82a58a6f59518831", "is_reserved": 0}, {"is_disabled": 0, "fusion_lon": 0.0, "fusion_lat": 0.0, "lat": 38.8580905, "type": "electric_scooter", "lon": -76.9865535, "bike_id": "d479b0cf345fe74c386ff0348c5779fb", "rental_uris": {"android": "https://dc.lft.to/lastmile_qr_scan", "ios": "https://dc.lft.to/lastmile_qr_scan"}, "name": "d479b0cf345fe74c386ff0348c5779fb", "is_reserved": 0}, {"is_disabled": 0, "fusion_lon": 0.0, "fusion_lat": 0.0, "lat": 38.961011, "type": "electric_scooter", "lon": -77.06898933333333, "bike_id": "a678599b6adbe56946ae62bbae93fab8", "rental_uris": {"android": "https://dc.lft.to/lastmile_qr_scan", "ios": "https://dc.lft.to/lastmile_qr_scan"}, "name": "a678599b6adbe56946ae62bbae93fab8", "is_reserved": 0}, {"is_disabled": 0, "fusion_lon": 0.0, "fusion_lat": 0.0, "lat": 38.90876933333333, "type": "electric_scooter", "lon": -77.03541133333333, "bike_id": "d8e6f732863213e24b49b9c06ca268d5", "rental_uris": {"android": "https://dc.lft.to/lastmile_qr_scan", "ios": "https://dc.lft.to/lastmile_qr_scan"}, "name": "d8e6f732863213e24b49b9c06ca268d5", "is_reserved": 0}, {"is_disabled": 0, "fusion_lon": 0.0, "fusion_lat": 0.0, "lat": 38.911866333333336, "type": "electric_scooter", "lon": -77.03509116666666, "bike_id": "c0d5afebb191860dfdc1bd9f31f0f0cf", "rental_uris": {"android": "https://dc.lft.to/lastmile_qr_scan", "ios": "https://dc.lft.to/lastmile_qr_scan"}, "name": "c0d5afebb191860dfdc1bd9f31f0f0cf", "is_reserved": 0}, {"is_disabled": 0, "fusion_lon": 0.0, "fusion_lat": 0.0, "lat": 38.93403583333333, "type": "electric_scooter", "lon": -77.03257616666667, "bike_id": "85d20ab592f948e775d406b3ecc1e92d", "rental_uris": {"android": "https://dc.lft.to/lastmile_qr_scan", "ios": "https://dc.lft.to/lastmile_qr_scan"}, "name": "85d20ab592f948e775d406b3ecc1e92d", "is_reserved": 0}, {"is_disabled": 0, "fusion_lon": 0.0, "fusion_lat": 0.0, "lat": 38.8652205, "type": "electric_scooter", "lon": -76.989651, "bike_id": "511bf0b01bccba9fc980a960dc9102d1", "rental_uris": {"android": "https://dc.lft.to/lastmile_qr_scan", "ios": "https://dc.lft.to/lastmile_qr_scan"}, "name": "511bf0b01bccba9fc980a960dc9102d1", "is_reserved": 0}, {"is_disabled": 0, "fusion_lon": 0.0, "fusion_lat": 0.0, "lat": 38.91607416666667, "type": "electric_scooter", "lon": -77.03127866666667, "bike_id": "8ea222cb284e5fc7e99b3d154a1c0d81", "rental_uris": {"android": "https://dc.lft.to/lastmile_qr_scan", "ios": "https://dc.lft.to/lastmile_qr_scan"}, "name": "8ea222cb284e5fc7e99b3d154a1c0d81", "is_reserved": 0}, {"is_disabled": 0, "fusion_lon": 0.0, "fusion_lat": 0.0, "lat": 38.903482833333335, "type": "electric_scooter", "lon": -77.01611583333333, "bike_id": "70b349ab3d6c334bb52423776ba011b6", "rental_uris": {"android": "https://dc.lft.to/lastmile_qr_scan", "ios": "https://dc.lft.to/lastmile_qr_scan"}, "name": "70b349ab3d6c334bb52423776ba011b6", "is_reserved": 0}, {"is_disabled": 0, "fusion_lon": 0.0, "fusion_lat": 0.0, "lat": 38.92969433333333, "type": "electric_scooter", "lon": -77.0207045, "bike_id": "7c48ef4969310ebbf369b9271ce14409", "rental_uris": {"android": "https://dc.lft.to/lastmile_qr_scan", "ios": "https://dc.lft.to/lastmile_qr_scan"}, "name": "7c48ef4969310ebbf369b9271ce14409", "is_reserved": 0}, {"is_disabled": 0, "fusion_lon": 0.0, "fusion_lat": 0.0, "lat": 38.934779, "type": "electric_scooter", "lon": -77.03577333333334, "bike_id": "95ac34a123e693de462304663872dedc", "rental_uris": {"android": "https://dc.lft.to/lastmile_qr_scan", "ios": "https://dc.lft.to/lastmile_qr_scan"}, "name": "95ac34a123e693de462304663872dedc", "is_reserved": 0}, {"is_disabled": 0, "fusion_lon": 0.0, "fusion_lat": 0.0, "lat": 38.94575716666667, "type": "electric_bike", "lon": -76.98773316666667, "bike_id": "7ea449295f7b29b7812c730232563772", "rental_uris": {"android": "https://dc.lft.to/lastmile_qr_scan", "ios": "https://dc.lft.to/lastmile_qr_scan"}, "name": "7ea449295f7b29b7812c730232563772", "is_reserved": 0}, {"is_disabled": 0, "fusion_lon": 0.0, "fusion_lat": 0.0, "lat": 38.93643133333333, "type": "electric_bike", "lon": -76.95455866666667, "bike_id": "143b8715a474bb0bb220c55c28a795d0", "rental_uris": {"android": "https://dc.lft.to/lastmile_qr_scan", "ios": "https://dc.lft.to/lastmile_qr_scan"}, "name": "143b8715a474bb0bb220c55c28a795d0", "is_reserved": 0}, {"is_disabled": 0, "fusion_lon": 0.0, "fusion_lat": 0.0, "lat": 38.8900295, "type": "electric_scooter", "lon": -77.04890533333334, "bike_id": "4860562dd6baafda68bfb6726a074d9a", "rental_uris": {"android": "https://dc.lft.to/lastmile_qr_scan", "ios": "https://dc.lft.to/lastmile_qr_scan"}, "name": "4860562dd6baafda68bfb6726a074d9a", "is_reserved": 0}, {"is_disabled": 0, "fusion_lon": 0.0, "fusion_lat": 0.0, "lat": 38.962838833333336, "type": "electric_bike", "lon": -77.02875316666666, "bike_id": "30d975076719782bd75f2389b2652a60", "rental_uris": {"android": "https://dc.lft.to/lastmile_qr_scan", "ios": "https://dc.lft.to/lastmile_qr_scan"}, "name": "30d975076719782bd75f2389b2652a60", "is_reserved": 0}, {"is_disabled": 0, "fusion_lon": 0.0, "fusion_lat": 0.0, "lat": 38.9105515, "type": "electric_scooter", "lon": -77.054443, "bike_id": "bf3ee8411cfb31d93005c1d11148559f", "rental_uris": {"android": "https://dc.lft.to/lastmile_qr_scan", "ios": "https://dc.lft.to/lastmile_qr_scan"}, "name": "bf3ee8411cfb31d93005c1d11148559f", "is_reserved": 0}, {"is_disabled": 0, "fusion_lon": 0.0, "fusion_lat": 0.0, "lat": 38.904742666666664, "type": "electric_scooter", "lon": -77.03566216666667, "bike_id": "50bc5562b803e1e8d3c50e49c1845612", "rental_uris": {"android": "https://dc.lft.to/lastmile_qr_scan", "ios": "https://dc.lft.to/lastmile_qr_scan"}, "name": "50bc5562b803e1e8d3c50e49c1845612", "is_reserved": 0}, {"is_disabled": 0, "fusion_lon": 0.0, "fusion_lat": 0.0, "lat": 38.934617333333335, "type": "electric_scooter", "lon": -77.03005966666667, "bike_id": "9d5c4cab63e0f40df2383b584a2e33ac", "rental_uris": {"android": "https://dc.lft.to/lastmile_qr_scan", "ios": "https://dc.lft.to/lastmile_qr_scan"}, "name": "9d5c4cab63e0f40df2383b584a2e33ac", "is_reserved": 0}, {"is_disabled": 0, "fusion_lon": 0.0, "fusion_lat": 0.0, "lat": 38.901689166666664, "type": "electric_scooter", "lon": -77.02492333333333, "bike_id": "28cf417f42093f3749021d293de26627", "rental_uris": {"android": "https://dc.lft.to/lastmile_qr_scan", "ios": "https://dc.lft.to/lastmile_qr_scan"}, "name": "28cf417f42093f3749021d293de26627", "is_reserved": 0}, {"is_disabled": 0, "fusion_lon": 0.0, "fusion_lat": 0.0, "lat": 38.897605166666665, "type": "electric_scooter", "lon": -77.0296545, "bike_id": "6deaa730cf121005298c8719e6fc1e59", "rental_uris": {"android": "https://dc.lft.to/lastmile_qr_scan", "ios": "https://dc.lft.to/lastmile_qr_scan"}, "name": "6deaa730cf121005298c8719e6fc1e59", "is_reserved": 0}, {"is_disabled": 0, "fusion_lon": 0.0, "fusion_lat": 0.0, "lat": 38.8239055, "type": "electric_scooter", "lon": -77.00699816666666, "bike_id": "05001752c182c9b23905024d4b4ecb73", "rental_uris": {"android": "https://dc.lft.to/lastmile_qr_scan", "ios": "https://dc.lft.to/lastmile_qr_scan"}, "name": "05001752c182c9b23905024d4b4ecb73", "is_reserved": 0}, {"is_disabled": 0, "fusion_lon": 0.0, "fusion_lat": 0.0, "lat": 38.923112833333334, "type": "electric_scooter", "lon": -77.0418075, "bike_id": "bd1008fe698dabf564ce357a564e3799", "rental_uris": {"android": "https://dc.lft.to/lastmile_qr_scan", "ios": "https://dc.lft.to/lastmile_qr_scan"}, "name": "bd1008fe698dabf564ce357a564e3799", "is_reserved": 0}, {"is_disabled": 0, "fusion_lon": 0.0, "fusion_lat": 0.0, "lat": 38.88631983333333, "type": "electric_scooter", "lon": -76.9985325, "bike_id": "53e3b8248d70afbc2eea99048998ad36", "rental_uris": {"android": "https://dc.lft.to/lastmile_qr_scan", "ios": "https://dc.lft.to/lastmile_qr_scan"}, "name": "53e3b8248d70afbc2eea99048998ad36", "is_reserved": 0}, {"is_disabled": 0, "fusion_lon": 0.0, "fusion_lat": 0.0, "lat": 39.099441666666664, "type": "electric_bike", "lon": -77.18788433333333, "bike_id": "d9ffc6102d59ecd9b23640b97db114d6", "rental_uris": {"android": "https://dc.lft.to/lastmile_qr_scan", "ios": "https://dc.lft.to/lastmile_qr_scan"}, "name": "d9ffc6102d59ecd9b23640b97db114d6", "is_reserved": 0}, {"is_disabled": 0, "fusion_lon": 0.0, "fusion_lat": 0.0, "lat": 38.83814983333333, "type": "electric_scooter", "lon": -77.00431666666667, "bike_id": "cb1b727b561ba07479fd379beebf4879", "rental_uris": {"android": "https://dc.lft.to/lastmile_qr_scan", "ios": "https://dc.lft.to/lastmile_qr_scan"}, "name": "cb1b727b561ba07479fd379beebf4879", "is_reserved": 0}, {"is_disabled": 0, "fusion_lon": 0.0, "fusion_lat": 0.0, "lat": 38.946649, "type": "electric_scooter", "lon": -77.06530316666667, "bike_id": "0978cbed2d89a3dafa34583aea174590", "rental_uris": {"android": "https://dc.lft.to/lastmile_qr_scan", "ios": "https://dc.lft.to/lastmile_qr_scan"}, "name": "0978cbed2d89a3dafa34583aea174590", "is_reserved": 0}, {"is_disabled": 0, "fusion_lon": 0.0, "fusion_lat": 0.0, "lat": 38.9350285, "type": "electric_bike", "lon": -76.949577, "bike_id": "47457324b9f96808da7b99cc8723873e", "rental_uris": {"android": "https://dc.lft.to/lastmile_qr_scan", "ios": "https://dc.lft.to/lastmile_qr_scan"}, "name": "47457324b9f96808da7b99cc8723873e", "is_reserved": 0}, {"is_disabled": 0, "fusion_lon": 0.0, "fusion_lat": 0.0, "lat": 38.842935, "type": "electric_scooter", "lon": -76.99949266666667, "bike_id": "b5f8993f2072f6acd038241ca28d9581", "rental_uris": {"android": "https://dc.lft.to/lastmile_qr_scan", "ios": "https://dc.lft.to/lastmile_qr_scan"}, "name": "b5f8993f2072f6acd038241ca28d9581", "is_reserved": 0}, {"is_disabled": 0, "fusion_lon": 0.0, "fusion_lat": 0.0, "lat": 38.89741733333334, "type": "electric_scooter", "lon": -77.02820733333333, "bike_id": "c976ccb74ccab7bfc0152883ab14d3d0", "rental_uris": {"android": "https://dc.lft.to/lastmile_qr_scan", "ios": "https://dc.lft.to/lastmile_qr_scan"}, "name": "c976ccb74ccab7bfc0152883ab14d3d0", "is_reserved": 0}, {"is_disabled": 0, "fusion_lon": 0.0, "fusion_lat": 0.0, "lat": 38.895183333333335, "type": "electric_scooter", "lon": -77.01087183333334, "bike_id": "ef1bbbb6dd0b3aafc02b2e6fcd956c2a", "rental_uris": {"android": "https://dc.lft.to/lastmile_qr_scan", "ios": "https://dc.lft.to/lastmile_qr_scan"}, "name": "ef1bbbb6dd0b3aafc02b2e6fcd956c2a", "is_reserved": 0}, {"is_disabled": 0, "fusion_lon": 0.0, "fusion_lat": 0.0, "lat": 38.90796133333333, "type": "electric_scooter", "lon": -77.04984933333333, "bike_id": "46534c051b7de858f382e352ddc08f53", "rental_uris": {"android": "https://dc.lft.to/lastmile_qr_scan", "ios": "https://dc.lft.to/lastmile_qr_scan"}, "name": "46534c051b7de858f382e352ddc08f53", "is_reserved": 0}, {"is_disabled": 0, "fusion_lon": 0.0, "fusion_lat": 0.0, "lat": 38.921594166666665, "type": "electric_scooter", "lon": -77.03380233333333, "bike_id": "562adcda68318065ff2bc0bf608e327d", "rental_uris": {"android": "https://dc.lft.to/lastmile_qr_scan", "ios": "https://dc.lft.to/lastmile_qr_scan"}, "name": "562adcda68318065ff2bc0bf608e327d", "is_reserved": 0}, {"is_disabled": 0, "fusion_lon": 0.0, "fusion_lat": 0.0, "lat": 38.8946625, "type": "electric_scooter", "lon": -76.99485816666666, "bike_id": "60e4b76d7bc4256c5e735b2e1269f27c", "rental_uris": {"android": "https://dc.lft.to/lastmile_qr_scan", "ios": "https://dc.lft.to/lastmile_qr_scan"}, "name": "60e4b76d7bc4256c5e735b2e1269f27c", "is_reserved": 0}, {"is_disabled": 0, "fusion_lon": 0.0, "fusion_lat": 0.0, "lat": 38.89193216666666, "type": "electric_scooter", "lon": -76.9883315, "bike_id": "7184b58efb449daf38de585c7e651ee4", "rental_uris": {"android": "https://dc.lft.to/lastmile_qr_scan", "ios": "https://dc.lft.to/lastmile_qr_scan"}, "name": "7184b58efb449daf38de585c7e651ee4", "is_reserved": 0}, {"is_disabled": 0, "fusion_lon": 0.0, "fusion_lat": 0.0, "lat": 38.9000135, "type": "electric_scooter", "lon": -77.0260175, "bike_id": "d34055083de2bf1f91f62364dcce770e", "rental_uris": {"android": "https://dc.lft.to/lastmile_qr_scan", "ios": "https://dc.lft.to/lastmile_qr_scan"}, "name": "d34055083de2bf1f91f62364dcce770e", "is_reserved": 0}, {"is_disabled": 0, "fusion_lon": 0.0, "fusion_lat": 0.0, "lat": 38.935115333333336, "type": "electric_scooter", "lon": -77.02415983333333, "bike_id": "84bf75b509498e88927f1dc15816d481", "rental_uris": {"android": "https://dc.lft.to/lastmile_qr_scan", "ios": "https://dc.lft.to/lastmile_qr_scan"}, "name": "84bf75b509498e88927f1dc15816d481", "is_reserved": 0}, {"is_disabled": 0, "fusion_lon": 0.0, "fusion_lat": 0.0, "lat": 38.90514866666667, "type": "electric_scooter", "lon": -77.03188316666666, "bike_id": "75cabedda62d136b34f698ec11553278", "rental_uris": {"android": "https://dc.lft.to/lastmile_qr_scan", "ios": "https://dc.lft.to/lastmile_qr_scan"}, "name": "75cabedda62d136b34f698ec11553278", "is_reserved": 0}, {"is_disabled": 0, "fusion_lon": 0.0, "fusion_lat": 0.0, "lat": 38.91328333333333, "type": "electric_scooter", "lon": -77.03254866666667, "bike_id": "e3bf62e43eb64313e9b668bcd1cfce84", "rental_uris": {"android": "https://dc.lft.to/lastmile_qr_scan", "ios": "https://dc.lft.to/lastmile_qr_scan"}, "name": "e3bf62e43eb64313e9b668bcd1cfce84", "is_reserved": 0}, {"is_disabled": 0, "fusion_lon": 0.0, "fusion_lat": 0.0, "lat": 38.90557533333333, "type": "electric_scooter", "lon": -77.03391466666666, "bike_id": "76d2a9801ffcd017293019de7fe68fa1", "rental_uris": {"android": "https://dc.lft.to/lastmile_qr_scan", "ios": "https://dc.lft.to/lastmile_qr_scan"}, "name": "76d2a9801ffcd017293019de7fe68fa1", "is_reserved": 0}, {"is_disabled": 0, "fusion_lon": 0.0, "fusion_lat": 0.0, "lat": 38.88621583333333, "type": "electric_scooter", "lon": -77.02194266666666, "bike_id": "25fe0e467c4b27882ba70a60100802a2", "rental_uris": {"android": "https://dc.lft.to/lastmile_qr_scan", "ios": "https://dc.lft.to/lastmile_qr_scan"}, "name": "25fe0e467c4b27882ba70a60100802a2", "is_reserved": 0}, {"is_disabled": 0, "fusion_lon": 0.0, "fusion_lat": 0.0, "lat": 38.89827233333333, "type": "electric_scooter", "lon": -76.94655916666666, "bike_id": "c38edd3c02e5b4c8eb924f5b4f2228ac", "rental_uris": {"android": "https://dc.lft.to/lastmile_qr_scan", "ios": "https://dc.lft.to/lastmile_qr_scan"}, "name": "c38edd3c02e5b4c8eb924f5b4f2228ac", "is_reserved": 0}, {"is_disabled": 0, "fusion_lon": 0.0, "fusion_lat": 0.0, "lat": 38.90272083333333, "type": "electric_scooter", "lon": -77.0343375, "bike_id": "7444489f701314ace67ac27c8c40c101", "rental_uris": {"android": "https://dc.lft.to/lastmile_qr_scan", "ios": "https://dc.lft.to/lastmile_qr_scan"}, "name": "7444489f701314ace67ac27c8c40c101", "is_reserved": 0}, {"is_disabled": 0, "fusion_lon": 0.0, "fusion_lat": 0.0, "lat": 38.91052466666667, "type": "electric_scooter", "lon": -77.022873, "bike_id": "1b40461413e819cd5d1dd4676d6871c2", "rental_uris": {"android": "https://dc.lft.to/lastmile_qr_scan", "ios": "https://dc.lft.to/lastmile_qr_scan"}, "name": "1b40461413e819cd5d1dd4676d6871c2", "is_reserved": 0}, {"is_disabled": 0, "fusion_lon": 0.0, "fusion_lat": 0.0, "lat": 38.924618833333334, "type": "electric_scooter", "lon": -77.0296665, "bike_id": "bdd3c1d5c555a0915e8f69536abeed2c", "rental_uris": {"android": "https://dc.lft.to/lastmile_qr_scan", "ios": "https://dc.lft.to/lastmile_qr_scan"}, "name": "bdd3c1d5c555a0915e8f69536abeed2c", "is_reserved": 0}, {"is_disabled": 0, "fusion_lon": 0.0, "fusion_lat": 0.0, "lat": 38.9170625, "type": "electric_scooter", "lon": -77.03308283333334, "bike_id": "92177852416b1abce8fcc968dec1437e", "rental_uris": {"android": "https://dc.lft.to/lastmile_qr_scan", "ios": "https://dc.lft.to/lastmile_qr_scan"}, "name": "92177852416b1abce8fcc968dec1437e", "is_reserved": 0}, {"is_disabled": 0, "fusion_lon": 0.0, "fusion_lat": 0.0, "lat": 38.90383966666667, "type": "electric_scooter", "lon": -76.990002, "bike_id": "77681fa93d39c4e30faf57d54e877683", "rental_uris": {"android": "https://dc.lft.to/lastmile_qr_scan", "ios": "https://dc.lft.to/lastmile_qr_scan"}, "name": "77681fa93d39c4e30faf57d54e877683", "is_reserved": 0}, {"is_disabled": 0, "fusion_lon": 0.0, "fusion_lat": 0.0, "lat": 38.946234, "type": "electric_bike", "lon": -76.93413516666666, "bike_id": "8674cd3912bae6e67457571cb85bbe39", "rental_uris": {"android": "https://dc.lft.to/lastmile_qr_scan", "ios": "https://dc.lft.to/lastmile_qr_scan"}, "name": "8674cd3912bae6e67457571cb85bbe39", "is_reserved": 0}, {"is_disabled": 0, "fusion_lon": 0.0, "fusion_lat": 0.0, "lat": 38.95195316666667, "type": "electric_scooter", "lon": -77.026064, "bike_id": "0c20ccfa2cb9b95fe691dd4c32f4739b", "rental_uris": {"android": "https://dc.lft.to/lastmile_qr_scan", "ios": "https://dc.lft.to/lastmile_qr_scan"}, "name": "0c20ccfa2cb9b95fe691dd4c32f4739b", "is_reserved": 0}, {"is_disabled": 0, "fusion_lon": 0.0, "fusion_lat": 0.0, "lat": 38.881403, "type": "electric_bike", "lon": -77.01673283333334, "bike_id": "cb7f6b52bb544f16007a2fedc252b9bc", "rental_uris": {"android": "https://dc.lft.to/lastmile_qr_scan", "ios": "https://dc.lft.to/lastmile_qr_scan"}, "name": "cb7f6b52bb544f16007a2fedc252b9bc", "is_reserved": 0}, {"is_disabled": 0, "fusion_lon": 0.0, "fusion_lat": 0.0, "lat": 38.9280855, "type": "electric_scooter", "lon": -77.03626116666666, "bike_id": "221e5c59073bc4012c70214879004484", "rental_uris": {"android": "https://dc.lft.to/lastmile_qr_scan", "ios": "https://dc.lft.to/lastmile_qr_scan"}, "name": "221e5c59073bc4012c70214879004484", "is_reserved": 0}, {"is_disabled": 0, "fusion_lon": 0.0, "fusion_lat": 0.0, "lat": 38.86954566666667, "type": "electric_scooter", "lon": -76.97595283333334, "bike_id": "03675fd36040865069b141ad52c154b2", "rental_uris": {"android": "https://dc.lft.to/lastmile_qr_scan", "ios": "https://dc.lft.to/lastmile_qr_scan"}, "name": "03675fd36040865069b141ad52c154b2", "is_reserved": 0}, {"is_disabled": 0, "fusion_lon": 0.0, "fusion_lat": 0.0, "lat": 38.92460616666666, "type": "electric_scooter", "lon": -77.02159633333333, "bike_id": "445f07d688e7b7949f82c075bdd232d5", "rental_uris": {"android": "https://dc.lft.to/lastmile_qr_scan", "ios": "https://dc.lft.to/lastmile_qr_scan"}, "name": "445f07d688e7b7949f82c075bdd232d5", "is_reserved": 0}, {"is_disabled": 0, "fusion_lon": 0.0, "fusion_lat": 0.0, "lat": 38.905115333333335, "type": "electric_scooter", "lon": -77.02972, "bike_id": "c8c83f539b2c45a7e3dab1b3013bffd8", "rental_uris": {"android": "https://dc.lft.to/lastmile_qr_scan", "ios": "https://dc.lft.to/lastmile_qr_scan"}, "name": "c8c83f539b2c45a7e3dab1b3013bffd8", "is_reserved": 0}, {"is_disabled": 0, "fusion_lon": 0.0, "fusion_lat": 0.0, "lat": 38.8847175, "type": "electric_scooter", "lon": -76.95224683333333, "bike_id": "7a2127d0f498b0405db9d68139278260", "rental_uris": {"android": "https://dc.lft.to/lastmile_qr_scan", "ios": "https://dc.lft.to/lastmile_qr_scan"}, "name": "7a2127d0f498b0405db9d68139278260", "is_reserved": 0}, {"is_disabled": 0, "fusion_lon": 0.0, "fusion_lat": 0.0, "lat": 38.926689833333334, "type": "electric_scooter", "lon": -77.103128, "bike_id": "c74ecb3df4f7d6b7700e5de8c9fb4901", "rental_uris": {"android": "https://dc.lft.to/lastmile_qr_scan", "ios": "https://dc.lft.to/lastmile_qr_scan"}, "name": "c74ecb3df4f7d6b7700e5de8c9fb4901", "is_reserved": 0}, {"is_disabled": 0, "fusion_lon": 0.0, "fusion_lat": 0.0, "lat": 38.912316833333335, "type": "electric_scooter", "lon": -76.9844015, "bike_id": "a6f612c570f1b49be1103ebe2256c545", "rental_uris": {"android": "https://dc.lft.to/lastmile_qr_scan", "ios": "https://dc.lft.to/lastmile_qr_scan"}, "name": "a6f612c570f1b49be1103ebe2256c545", "is_reserved": 0}, {"is_disabled": 0, "fusion_lon": 0.0, "fusion_lat": 0.0, "lat": 38.94706583333333, "type": "electric_scooter", "lon": -77.01944716666667, "bike_id": "d1a735bf95a4e9171908392ac24d2249", "rental_uris": {"android": "https://dc.lft.to/lastmile_qr_scan", "ios": "https://dc.lft.to/lastmile_qr_scan"}, "name": "d1a735bf95a4e9171908392ac24d2249", "is_reserved": 0}, {"is_disabled": 0, "fusion_lon": 0.0, "fusion_lat": 0.0, "lat": 38.90611033333333, "type": "electric_scooter", "lon": -77.05722833333333, "bike_id": "42806b33a5b5ed7a7ba7216dbb466c8e", "rental_uris": {"android": "https://dc.lft.to/lastmile_qr_scan", "ios": "https://dc.lft.to/lastmile_qr_scan"}, "name": "42806b33a5b5ed7a7ba7216dbb466c8e", "is_reserved": 0}, {"is_disabled": 0, "fusion_lon": 0.0, "fusion_lat": 0.0, "lat": 38.9195495, "type": "electric_scooter", "lon": -77.02709, "bike_id": "15a02548b59425026595c89311359c59", "rental_uris": {"android": "https://dc.lft.to/lastmile_qr_scan", "ios": "https://dc.lft.to/lastmile_qr_scan"}, "name": "15a02548b59425026595c89311359c59", "is_reserved": 0}, {"is_disabled": 0, "fusion_lon": 0.0, "fusion_lat": 0.0, "lat": 38.92169066666666, "type": "electric_scooter", "lon": -77.05528866666667, "bike_id": "8237b1fe8791df1a5d1903878a507173", "rental_uris": {"android": "https://dc.lft.to/lastmile_qr_scan", "ios": "https://dc.lft.to/lastmile_qr_scan"}, "name": "8237b1fe8791df1a5d1903878a507173", "is_reserved": 0}, {"is_disabled": 0, "fusion_lon": 0.0, "fusion_lat": 0.0, "lat": 38.9239555, "type": "electric_scooter", "lon": -77.02961616666667, "bike_id": "e1645a4aa7f4db89222b5e1071dd7a5a", "rental_uris": {"android": "https://dc.lft.to/lastmile_qr_scan", "ios": "https://dc.lft.to/lastmile_qr_scan"}, "name": "e1645a4aa7f4db89222b5e1071dd7a5a", "is_reserved": 0}, {"is_disabled": 0, "fusion_lon": 0.0, "fusion_lat": 0.0, "lat": 38.922346, "type": "electric_scooter", "lon": -76.975341, "bike_id": "56091fe85f6a2d2cac79028b854ed685", "rental_uris": {"android": "https://dc.lft.to/lastmile_qr_scan", "ios": "https://dc.lft.to/lastmile_qr_scan"}, "name": "56091fe85f6a2d2cac79028b854ed685", "is_reserved": 0}, {"is_disabled": 0, "fusion_lon": 0.0, "fusion_lat": 0.0, "lat": 38.91079883333333, "type": "electric_scooter", "lon": -77.01513516666667, "bike_id": "246bc8f0ab05fad480cc2d8126844a37", "rental_uris": {"android": "https://dc.lft.to/lastmile_qr_scan", "ios": "https://dc.lft.to/lastmile_qr_scan"}, "name": "246bc8f0ab05fad480cc2d8126844a37", "is_reserved": 0}, {"is_disabled": 0, "fusion_lon": 0.0, "fusion_lat": 0.0, "lat": 38.964504166666664, "type": "electric_bike", "lon": -76.977245, "bike_id": "d872d47518d7219be9971c3a5bc3dc3c", "rental_uris": {"android": "https://dc.lft.to/lastmile_qr_scan", "ios": "https://dc.lft.to/lastmile_qr_scan"}, "name": "d872d47518d7219be9971c3a5bc3dc3c", "is_reserved": 0}, {"is_disabled": 0, "fusion_lon": 0.0, "fusion_lat": 0.0, "lat": 38.865953833333336, "type": "electric_bike", "lon": -76.97449, "bike_id": "3fd3a1c0b91523f490801297c97957d2", "rental_uris": {"android": "https://dc.lft.to/lastmile_qr_scan", "ios": "https://dc.lft.to/lastmile_qr_scan"}, "name": "3fd3a1c0b91523f490801297c97957d2", "is_reserved": 0}, {"is_disabled": 0, "fusion_lon": 0.0, "fusion_lat": 0.0, "lat": 38.85850966666667, "type": "electric_bike", "lon": -77.09751616666667, "bike_id": "a402c47b2526d43c70d3c217dcf46f85", "rental_uris": {"android": "https://dc.lft.to/lastmile_qr_scan", "ios": "https://dc.lft.to/lastmile_qr_scan"}, "name": "a402c47b2526d43c70d3c217dcf46f85", "is_reserved": 0}, {"is_disabled": 0, "fusion_lon": 0.0, "fusion_lat": 0.0, "lat": 39.02999333333333, "type": "electric_bike", "lon": -77.10651933333334, "bike_id": "93f2f720d653f8d5e7aa30f7b90a8d3e", "rental_uris": {"android": "https://dc.lft.to/lastmile_qr_scan", "ios": "https://dc.lft.to/lastmile_qr_scan"}, "name": "93f2f720d653f8d5e7aa30f7b90a8d3e", "is_reserved": 0}, {"is_disabled": 0, "fusion_lon": 0.0, "fusion_lat": 0.0, "lat": 38.84294633333333, "type": "electric_scooter", "lon": -76.99946483333333, "bike_id": "732a58bc5fe842a28cb66f10d180a2fe", "rental_uris": {"android": "https://dc.lft.to/lastmile_qr_scan", "ios": "https://dc.lft.to/lastmile_qr_scan"}, "name": "732a58bc5fe842a28cb66f10d180a2fe", "is_reserved": 0}, {"is_disabled": 0, "fusion_lon": 0.0, "fusion_lat": 0.0, "lat": 38.920433833333334, "type": "electric_scooter", "lon": -77.0312565, "bike_id": "548e971343e118b2223c1c43f12e92f2", "rental_uris": {"android": "https://dc.lft.to/lastmile_qr_scan", "ios": "https://dc.lft.to/lastmile_qr_scan"}, "name": "548e971343e118b2223c1c43f12e92f2", "is_reserved": 0}, {"is_disabled": 0, "fusion_lon": 0.0, "fusion_lat": 0.0, "lat": 38.88744966666667, "type": "electric_scooter", "lon": -77.01607933333334, "bike_id": "22c66c42bc768eaed9652d97880d24ca", "rental_uris": {"android": "https://dc.lft.to/lastmile_qr_scan", "ios": "https://dc.lft.to/lastmile_qr_scan"}, "name": "22c66c42bc768eaed9652d97880d24ca", "is_reserved": 0}, {"is_disabled": 0, "fusion_lon": 0.0, "fusion_lat": 0.0, "lat": 38.94052966666667, "type": "electric_scooter", "lon": -77.024957, "bike_id": "4fbff6e8d5e1b53cd2eae530ab0bdcdc", "rental_uris": {"android": "https://dc.lft.to/lastmile_qr_scan", "ios": "https://dc.lft.to/lastmile_qr_scan"}, "name": "4fbff6e8d5e1b53cd2eae530ab0bdcdc", "is_reserved": 0}, {"is_disabled": 0, "fusion_lon": 0.0, "fusion_lat": 0.0, "lat": 38.89959183333333, "type": "electric_scooter", "lon": -77.05199466666667, "bike_id": "62aaf23baafc9e3f828cbc1b309a7843", "rental_uris": {"android": "https://dc.lft.to/lastmile_qr_scan", "ios": "https://dc.lft.to/lastmile_qr_scan"}, "name": "62aaf23baafc9e3f828cbc1b309a7843", "is_reserved": 0}, {"is_disabled": 0, "fusion_lon": 0.0, "fusion_lat": 0.0, "lat": 38.942764, "type": "electric_scooter", "lon": -77.03258333333333, "bike_id": "5ac5be50dfaf4090bd8b8afc5ad16b56", "rental_uris": {"android": "https://dc.lft.to/lastmile_qr_scan", "ios": "https://dc.lft.to/lastmile_qr_scan"}, "name": "5ac5be50dfaf4090bd8b8afc5ad16b56", "is_reserved": 0}, {"is_disabled": 0, "fusion_lon": 0.0, "fusion_lat": 0.0, "lat": 38.899103333333336, "type": "electric_scooter", "lon": -76.93389616666667, "bike_id": "1105beedf42a0f9cd5f36b94ec7dba71", "rental_uris": {"android": "https://dc.lft.to/lastmile_qr_scan", "ios": "https://dc.lft.to/lastmile_qr_scan"}, "name": "1105beedf42a0f9cd5f36b94ec7dba71", "is_reserved": 0}, {"is_disabled": 0, "fusion_lon": 0.0, "fusion_lat": 0.0, "lat": 38.9289055, "type": "electric_scooter", "lon": -77.02308983333333, "bike_id": "d2d7e581e1ad1bff304fb2de8b1a42bc", "rental_uris": {"android": "https://dc.lft.to/lastmile_qr_scan", "ios": "https://dc.lft.to/lastmile_qr_scan"}, "name": "d2d7e581e1ad1bff304fb2de8b1a42bc", "is_reserved": 0}, {"is_disabled": 0, "fusion_lon": 0.0, "fusion_lat": 0.0, "lat": 38.934186833333335, "type": "electric_bike", "lon": -77.0250885, "bike_id": "5d29023f5733b01d4411fcc22f590bf2", "rental_uris": {"android": "https://dc.lft.to/lastmile_qr_scan", "ios": "https://dc.lft.to/lastmile_qr_scan"}, "name": "5d29023f5733b01d4411fcc22f590bf2", "is_reserved": 0}, {"is_disabled": 0, "fusion_lon": 0.0, "fusion_lat": 0.0, "lat": 39.0078905, "type": "electric_bike", "lon": -76.99564916666667, "bike_id": "e7b84a4310aa188de39ae6b5ef617e0d", "rental_uris": {"android": "https://dc.lft.to/lastmile_qr_scan", "ios": "https://dc.lft.to/lastmile_qr_scan"}, "name": "e7b84a4310aa188de39ae6b5ef617e0d", "is_reserved": 0}, {"is_disabled": 0, "fusion_lon": 0.0, "fusion_lat": 0.0, "lat": 38.9051565, "type": "electric_scooter", "lon": -76.98253333333334, "bike_id": "66e430f58674d1bd50bda44f0da8ac97", "rental_uris": {"android": "https://dc.lft.to/lastmile_qr_scan", "ios": "https://dc.lft.to/lastmile_qr_scan"}, "name": "66e430f58674d1bd50bda44f0da8ac97", "is_reserved": 0}, {"is_disabled": 0, "fusion_lon": 0.0, "fusion_lat": 0.0, "lat": 38.92329, "type": "electric_scooter", "lon": -77.03579066666667, "bike_id": "d16d7e72eb42c9eb7a01fbfa1d3485d9", "rental_uris": {"android": "https://dc.lft.to/lastmile_qr_scan", "ios": "https://dc.lft.to/lastmile_qr_scan"}, "name": "d16d7e72eb42c9eb7a01fbfa1d3485d9", "is_reserved": 0}, {"is_disabled": 0, "fusion_lon": 0.0, "fusion_lat": 0.0, "lat": 38.834309166666664, "type": "electric_bike", "lon": -77.10348833333333, "bike_id": "bb1cb07c8dad7584df77207dbec7ce28", "rental_uris": {"android": "https://dc.lft.to/lastmile_qr_scan", "ios": "https://dc.lft.to/lastmile_qr_scan"}, "name": "bb1cb07c8dad7584df77207dbec7ce28", "is_reserved": 0}, {"is_disabled": 0, "fusion_lon": 0.0, "fusion_lat": 0.0, "lat": 38.916600833333334, "type": "electric_scooter", "lon": -77.03850683333333, "bike_id": "a3d0aca539cce83beee7ef53a32748bd", "rental_uris": {"android": "https://dc.lft.to/lastmile_qr_scan", "ios": "https://dc.lft.to/lastmile_qr_scan"}, "name": "a3d0aca539cce83beee7ef53a32748bd", "is_reserved": 0}, {"is_disabled": 0, "fusion_lon": 0.0, "fusion_lat": 0.0, "lat": 38.90534783333333, "type": "electric_scooter", "lon": -77.005372, "bike_id": "7d1958334910564b0986ff5589021be0", "rental_uris": {"android": "https://dc.lft.to/lastmile_qr_scan", "ios": "https://dc.lft.to/lastmile_qr_scan"}, "name": "7d1958334910564b0986ff5589021be0", "is_reserved": 0}, {"is_disabled": 0, "fusion_lon": 0.0, "fusion_lat": 0.0, "lat": 38.906408166666665, "type": "electric_scooter", "lon": -77.04520283333333, "bike_id": "af94f0163f47d936620698c84eda05fe", "rental_uris": {"android": "https://dc.lft.to/lastmile_qr_scan", "ios": "https://dc.lft.to/lastmile_qr_scan"}, "name": "af94f0163f47d936620698c84eda05fe", "is_reserved": 0}, {"is_disabled": 0, "fusion_lon": 0.0, "fusion_lat": 0.0, "lat": 38.919260333333334, "type": "electric_scooter", "lon": -77.03105516666666, "bike_id": "50c26c518ce44c9b4a13ce7e0b3e4461", "rental_uris": {"android": "https://dc.lft.to/lastmile_qr_scan", "ios": "https://dc.lft.to/lastmile_qr_scan"}, "name": "50c26c518ce44c9b4a13ce7e0b3e4461", "is_reserved": 0}, {"is_disabled": 0, "fusion_lon": 0.0, "fusion_lat": 0.0, "lat": 38.890041833333335, "type": "electric_scooter", "lon": -77.048992, "bike_id": "c7edbbbd8c240d4d2afc78109b8b4349", "rental_uris": {"android": "https://dc.lft.to/lastmile_qr_scan", "ios": "https://dc.lft.to/lastmile_qr_scan"}, "name": "c7edbbbd8c240d4d2afc78109b8b4349", "is_reserved": 0}, {"is_disabled": 0, "fusion_lon": 0.0, "fusion_lat": 0.0, "lat": 38.94129983333333, "type": "electric_scooter", "lon": -77.0182135, "bike_id": "6d3e1228e5602914f0263fa8c5ff3762", "rental_uris": {"android": "https://dc.lft.to/lastmile_qr_scan", "ios": "https://dc.lft.to/lastmile_qr_scan"}, "name": "6d3e1228e5602914f0263fa8c5ff3762", "is_reserved": 0}, {"is_disabled": 0, "fusion_lon": 0.0, "fusion_lat": 0.0, "lat": 38.860566, "type": "electric_scooter", "lon": -76.98509666666666, "bike_id": "e87ba5bec7773dfe2d3fc5e9ebc4f613", "rental_uris": {"android": "https://dc.lft.to/lastmile_qr_scan", "ios": "https://dc.lft.to/lastmile_qr_scan"}, "name": "e87ba5bec7773dfe2d3fc5e9ebc4f613", "is_reserved": 0}, {"is_disabled": 0, "fusion_lon": 0.0, "fusion_lat": 0.0, "lat": 38.900650666666664, "type": "electric_scooter", "lon": -77.01290366666667, "bike_id": "bfc0a89bd00521f04dd43932cb0838c8", "rental_uris": {"android": "https://dc.lft.to/lastmile_qr_scan", "ios": "https://dc.lft.to/lastmile_qr_scan"}, "name": "bfc0a89bd00521f04dd43932cb0838c8", "is_reserved": 0}, {"is_disabled": 0, "fusion_lon": 0.0, "fusion_lat": 0.0, "lat": 38.894765, "type": "electric_scooter", "lon": -76.93305616666666, "bike_id": "94ed6ea2ba8c9ab08278d691d3697531", "rental_uris": {"android": "https://dc.lft.to/lastmile_qr_scan", "ios": "https://dc.lft.to/lastmile_qr_scan"}, "name": "94ed6ea2ba8c9ab08278d691d3697531", "is_reserved": 0}, {"is_disabled": 0, "fusion_lon": 0.0, "fusion_lat": 0.0, "lat": 38.931289666666665, "type": "electric_scooter", "lon": -77.01989466666667, "bike_id": "aeed1567a963587349294fcac6cbbdb0", "rental_uris": {"android": "https://dc.lft.to/lastmile_qr_scan", "ios": "https://dc.lft.to/lastmile_qr_scan"}, "name": "aeed1567a963587349294fcac6cbbdb0", "is_reserved": 0},