{"data": {"bikes": [{"name": "dee88caf701fef5a2dad3f1cf0ea2edc", "lon": -77.031233, "lat": 38.910291666666666, "type": "electric_scooter", "fusion_lon": 0.0, "is_reserved": 0, "bike_id": "dee88caf701fef5a2dad3f1cf0ea2edc", "fusion_lat": 0.0, "is_disabled": 0, "rental_uris": {"ios": "https://dc.lft.to/lastmile_qr_scan", "android": "https://dc.lft.to/lastmile_qr_scan"}}, {"name": "9d643acc33ec771ebb9ebfce667cf3e5", "lon": -77.03433266666667, "lat": 38.9039345, "type": "electric_scooter", "fusion_lon": 0.0, "is_reserved": 0, "bike_id": "9d643acc33ec771ebb9ebfce667cf3e5", "fusion_lat": 0.0, "is_disabled": 0, "rental_uris": {"ios": "https://dc.lft.to/lastmile_qr_scan", "android": "https://dc.lft.to/lastmile_qr_scan"}}, {"name": "78e9bd048b76f910782d5bf5708e042d", "lon": -77.02289433333333, "lat": 38.9106935, "type": "electric_scooter", "fusion_lon": 0.0, "is_reserved": 0, "bike_id": "78e9bd048b76f910782d5bf5708e042d", "fusion_lat": 0.0, "is_disabled": 0, "rental_uris": {"ios": "https://dc.lft.to/lastmile_qr_scan", "android": "https://dc.lft.to/lastmile_qr_scan"}}, {"name": "84bce199f7321873558b285f8b1ce9cd", "lon": -77.02658633333333, "lat": 38.89724283333334, "type": "electric_scooter", "fusion_lon": 0.0, "is_reserved": 0, "bike_id": "84bce199f7321873558b285f8b1ce9cd", "fusion_lat": 0.0, "is_disabled": 0, "rental_uris": {"ios": "https://dc.lft.to/lastmile_qr_scan", "android": "https://dc.lft.to/lastmile_qr_scan"}}, {"name": "8b8b0dea5d35b4cfccc1abfb394784ca", "lon": -77.02078483333334, "lat": 38.927068166666665, "type": "electric_scooter", "fusion_lon": 0.0, "is_reserved": 0, "bike_id": "8b8b0dea5d35b4cfccc1abfb394784ca", "fusion_lat": 0.0, "is_disabled": 0, "rental_uris": {"ios": "https://dc.lft.to/lastmile_qr_scan", "android": "https://dc.lft.to/lastmile_qr_scan"}}, {"name": "8c364b73c1d0c98445e58d59ebad636e", "lon": -77.0272275, "lat": 38.94957, "type": "electric_scooter", "fusion_lon": 0.0, "is_reserved": 0, "bike_id": "8c364b73c1d0c98445e58d59ebad636e", "fusion_lat": 0.0, "is_disabled": 0, "rental_uris": {"ios": "https://dc.lft.to/lastmile_qr_scan", "android": "https://dc.lft.to/lastmile_qr_scan"}}, {"name": "28a5a89a09d8f58c1d7b0d2198be3262", "lon": -77.008858, "lat": 38.9025615, "type": "electric_scooter", "fusion_lon": 0.0, "is_reserved": 0, "bike_id": "28a5a89a09d8f58c1d7b0d2198be3262", "fusion_lat": 0.0, "is_disabled": 0, "rental_uris": {"ios": "https://dc.lft.to/lastmile_qr_scan", "android": "https://dc.lft.to/lastmile_qr_scan"}}, {"name": "64715a83f274cc6489cdcc271130d244", "lon": -77.04487916666666, "lat": 38.911858333333335, "type": "electric_scooter", "fusion_lon": 0.0, "is_reserved": 0, "bike_id": "64715a83f274cc6489cdcc271130d244", "fusion_lat": 0.0, "is_disabled": 0, "rental_uris": {"ios": "https://dc.lft.to/lastmile_qr_scan", "android": "https://dc.lft.to/lastmile_qr_scan"}}, {"name": "6362aa809715a8fa13f30a8bd7fc152e", "lon": -77.024317, "lat": 38.938028833333334, "type": "electric_scooter", "fusion_lon": 0.0, "is_reserved": 0, "bike_id": "6362aa809715a8fa13f30a8bd7fc152e", "fusion_lat": 0.0, "is_disabled": 0, "rental_uris": {"ios": "https://dc.lft.to/lastmile_qr_scan", "android": "https://dc.lft.to/lastmile_qr_scan"}}, {"name": "bee9afe06217f0e6b7a861e01ad3c89e", "lon": -76.9361585, "lat": 38.886768833333335, "type": "electric_scooter", "fusion_lon": 0.0, "is_reserved": 0, "bike_id": "bee9afe06217f0e6b7a861e01ad3c89e", "fusion_lat": 0.0, "is_disabled": 0, "rental_uris": {"ios": "https://dc.lft.to/lastmile_qr_scan", "android": "https://dc.lft.to/lastmile_qr_scan"}}, {"name": "8d5a33c39833cd9d7b82d2247ad5c17d", "lon": -76.99772783333333, "lat": 38.90901516666667, "type": "electric_scooter", "fusion_lon": 0.0, "is_reserved": 0, "bike_id": "8d5a33c39833cd9d7b82d2247ad5c17d", "fusion_lat": 0.0, "is_disabled": 0, "rental_uris": {"ios": "https://dc.lft.to/lastmile_qr_scan", "android": "https://dc.lft.to/lastmile_qr_scan"}}, {"name": "80edf57af067efba827f9921c7a21a7d", "lon": -77.03285183333334, "lat": 38.938781, "type": "electric_scooter", "fusion_lon": 0.0, "is_reserved": 0, "bike_id": "80edf57af067efba827f9921c7a21a7d", "fusion_lat": 0.0, "is_disabled": 0, "rental_uris": {"ios": "https://dc.lft.to/lastmile_qr_scan", "android": "https://dc.lft.to/lastmile_qr_scan"}}, {"name": "a11003c8ed63174b9db0fb1d66f8045d", "lon": -77.03668683333333, "lat": 38.927256, "type": "electric_scooter", "fusion_lon": 0.0, "is_reserved": 0, "bike_id": "a11003c8ed63174b9db0fb1d66f8045d", "fusion_lat": 0.0, "is_disabled": 0, "rental_uris": {"ios": "https://dc.lft.to/lastmile_qr_scan", "android": "https://dc.lft.to/lastmile_qr_scan"}}, {"name": "0eabaafe2af72caec7c52f7fb3fbba16", "lon": -77.03801633333333, "lat": 38.925037, "type": "electric_scooter", "fusion_lon": 0.0, "is_reserved": 0, "bike_id": "0eabaafe2af72caec7c52f7fb3fbba16", "fusion_lat": 0.0, "is_disabled": 0, "rental_uris": {"ios": "https://dc.lft.to/lastmile_qr_scan", "android": "https://dc.lft.to/lastmile_qr_scan"}}, {"name": "c495d17e33fa950fb662a5784f690c99", "lon": -77.041715, "lat": 38.9173035, "type": "electric_scooter", "fusion_lon": 0.0, "is_reserved": 0, "bike_id": "c495d17e33fa950fb662a5784f690c99", "fusion_lat": 0.0, "is_disabled": 0, "rental_uris": {"ios": "https://dc.lft.to/lastmile_qr_scan", "android": "https://dc.lft.to/lastmile_qr_scan"}}, {"name": "39d906b4f52e53279a0e49c1e7912164", "lon": -77.03185616666667, "lat": 38.9123845, "type": "electric_scooter", "fusion_lon": 0.0, "is_reserved": 0, "bike_id": "39d906b4f52e53279a0e49c1e7912164", "fusion_lat": 0.0, "is_disabled": 0, "rental_uris": {"ios": "https://dc.lft.to/lastmile_qr_scan", "android": "https://dc.lft.to/lastmile_qr_scan"}}, {"name": "c0dcbbab612ec0773437c2d670629cc2", "lon": -77.04330916666666, "lat": 38.89221716666667, "type": "electric_scooter", "fusion_lon": 0.0, "is_reserved": 0, "bike_id": "c0dcbbab612ec0773437c2d670629cc2", "fusion_lat": 0.0, "is_disabled": 0, "rental_uris": {"ios": "https://dc.lft.to/lastmile_qr_scan", "android": "https://dc.lft.to/lastmile_qr_scan"}}, {"name": "e91f2052ea959b7183011a12a970c5d2", "lon": -77.02178716666667, "lat": 38.89974266666667, "type": "electric_scooter", "fusion_lon": 0.0, "is_reserved": 0, "bike_id": "e91f2052ea959b7183011a12a970c5d2", "fusion_lat": 0.0, "is_disabled": 0, "rental_uris": {"ios": "https://dc.lft.to/lastmile_qr_scan", "android": "https://dc.lft.to/lastmile_qr_scan"}}, {"name": "64bf891d00ef986e7bd82ef22fd42561", "lon": -76.99939366666666, "lat": 38.90757833333333, "type": "electric_scooter", "fusion_lon": 0.0, "is_reserved": 0, "bike_id": "64bf891d00ef986e7bd82ef22fd42561", "fusion_lat": 0.0, "is_disabled": 0, "rental_uris": {"ios": "https://dc.lft.to/lastmile_qr_scan", "android": "https://dc.lft.to/lastmile_qr_scan"}}, {"name": "74b84e267414e724a428e1d6f8cf9666", "lon": -76.99953583333334, "lat": 38.922829166666666, "type": "electric_scooter", "fusion_lon": 0.0, "is_reserved": 0, "bike_id": "74b84e267414e724a428e1d6f8cf9666", "fusion_lat": 0.0, "is_disabled": 0, "rental_uris": {"ios": "https://dc.lft.to/lastmile_qr_scan", "android": "https://dc.lft.to/lastmile_qr_scan"}}, {"name": "a9bdbdfe769ac00d1775f30bef1c246d", "lon": -77.0153425, "lat": 38.88409733333334, "type": "electric_scooter", "fusion_lon": 0.0, "is_reserved": 0, "bike_id": "a9bdbdfe769ac00d1775f30bef1c246d", "fusion_lat": 0.0, "is_disabled": 0, "rental_uris": {"ios": "https://dc.lft.to/lastmile_qr_scan", "android": "https://dc.lft.to/lastmile_qr_scan"}}, {"name": "fefeeffb0a7ee87bd0bcae4ad34f9a05", "lon": -77.02962016666666, "lat": 38.92335683333334, "type": "electric_scooter", "fusion_lon": 0.0, "is_reserved": 0, "bike_id": "fefeeffb0a7ee87bd0bcae4ad34f9a05", "fusion_lat": 0.0, "is_disabled": 0, "rental_uris": {"ios": "https://dc.lft.to/lastmile_qr_scan", "android": "https://dc.lft.to/lastmile_qr_scan"}}, {"name": "f5b9cbaca63dc95ff860dc46c7e2661d", "lon": -77.07703383333333, "lat": 38.8408885, "type": "electric_bike", "fusion_lon": 0.0, "is_reserved": 0, "bike_id": "f5b9cbaca63dc95ff860dc46c7e2661d", "fusion_lat": 0.0, "is_disabled": 0, "rental_uris": {"ios": "https://dc.lft.to/lastmile_qr_scan", "android": "https://dc.lft.to/lastmile_qr_scan"}}, {"name": "1daee1a69b091d52bbf5e254823a3ab5", "lon": -77.03099166666667, "lat": 38.907563833333334, "type": "electric_scooter", "fusion_lon": 0.0, "is_reserved": 0, "bike_id": "1daee1a69b091d52bbf5e254823a3ab5", "fusion_lat": 0.0, "is_disabled": 0, "rental_uris": {"ios": "https://dc.lft.to/lastmile_qr_scan", "android": "https://dc.lft.to/lastmile_qr_scan"}}, {"name": "eae4dbfa7def623ca8cabcd735830c1a", "lon": -76.93362233333333, "lat": 38.89915766666667, "type": "electric_scooter", "fusion_lon": 0.0, "is_reserved": 0, "bike_id": "eae4dbfa7def623ca8cabcd735830c1a", "fusion_lat": 0.0, "is_disabled": 0, "rental_uris": {"ios": "https://dc.lft.to/lastmile_qr_scan", "android": "https://dc.lft.to/lastmile_qr_scan"}}, {"name": "8523e43923007d93b40cc44541c4035c", "lon": -77.041375, "lat": 38.80498683333333, "type": "electric_bike", "fusion_lon": 0.0, "is_reserved": 0, "bike_id": "8523e43923007d93b40cc44541c4035c", "fusion_lat": 0.0, "is_disabled": 0, "rental_uris": {"ios": "https://dc.lft.to/lastmile_qr_scan", "android": "https://dc.lft.to/lastmile_qr_scan"}}, {"name": "79b6a2308f004b0debc72fd359823665", "lon": -77.02303716666667, "lat": 38.91544716666667, "type": "electric_scooter", "fusion_lon": 0.0, "is_reserved": 0, "bike_id": "79b6a2308f004b0debc72fd359823665", "fusion_lat": 0.0, "is_disabled": 0, "rental_uris": {"ios": "https://dc.lft.to/lastmile_qr_scan", "android": "https://dc.lft.to/lastmile_qr_scan"}}, {"name": "1dd79751e0689724d383d4db725c3ac1", "lon": -77.00375883333334, "lat": 38.90739466666667, "type": "electric_scooter", "fusion_lon": 0.0, "is_reserved": 0, "bike_id": "1dd79751e0689724d383d4db725c3ac1", "fusion_lat": 0.0, "is_disabled": 0, "rental_uris": {"ios": "https://dc.lft.to/lastmile_qr_scan", "android": "https://dc.lft.to/lastmile_qr_scan"}}, {"name": "6910b3bde1e01ae770acab7d3e018a69", "lon": -77.02286583333333, "lat": 38.91681066666666, "type": "electric_scooter", "fusion_lon": 0.0, "is_reserved": 0, "bike_id": "6910b3bde1e01ae770acab7d3e018a69", "fusion_lat": 0.0, "is_disabled": 0, "rental_uris": {"ios": "https://dc.lft.to/lastmile_qr_scan", "android": "https://dc.lft.to/lastmile_qr_scan"}}, {"name": "0886a6724a85a4cf627e939cd572f7bc", "lon": -77.0073865, "lat": 38.898339666666665, "type": "electric_scooter", "fusion_lon": 0.0, "is_reserved": 0, "bike_id": "0886a6724a85a4cf627e939cd572f7bc", "fusion_lat": 0.0, "is_disabled": 0, "rental_uris": {"ios": "https://dc.lft.to/lastmile_qr_scan", "android": "https://dc.lft.to/lastmile_qr_scan"}}, {"name": "84af355c51993fb63eaed1e331481b95", "lon": -76.95098016666667, "lat": 38.88447216666667, "type": "electric_scooter", "fusion_lon": 0.0, "is_reserved": 0, "bike_id": "84af355c51993fb63eaed1e331481b95", "fusion_lat": 0.0, "is_disabled": 0, "rental_uris": {"ios": "https://dc.lft.to/lastmile_qr_scan", "android": "https://dc.lft.to/lastmile_qr_scan"}}, {"name": "1f5614d5d5e759c8e808ddd1367a3cde", "lon": -77.0179815, "lat": 38.92024166666667, "type": "electric_scooter", "fusion_lon": 0.0, "is_reserved": 0, "bike_id": "1f5614d5d5e759c8e808ddd1367a3cde", "fusion_lat": 0.0, "is_disabled": 0, "rental_uris": {"ios": "https://dc.lft.to/lastmile_qr_scan", "android": "https://dc.lft.to/lastmile_qr_scan"}}, {"name": "ca7a3973e2b84aa0b06de9102ecdd355", "lon": -77.03554933333334, "lat": 38.90830616666667, "type": "electric_scooter", "fusion_lon": 0.0, "is_reserved": 0, "bike_id": "ca7a3973e2b84aa0b06de9102ecdd355", "fusion_lat": 0.0, "is_disabled": 0, "rental_uris": {"ios": "https://dc.lft.to/lastmile_qr_scan", "android": "https://dc.lft.to/lastmile_qr_scan"}}, {"name": "d15b46bd71a0ae3d3f158d0153b08f84", "lon": -77.01207366666667, "lat": 38.87093483333334, "type": "electric_bike", "fusion_lon": 0.0, "is_reserved": 0, "bike_id": "d15b46bd71a0ae3d3f158d0153b08f84", "fusion_lat": 0.0, "is_disabled": 0, "rental_uris": {"ios": "https://dc.lft.to/lastmile_qr_scan", "android": "https://dc.lft.to/lastmile_qr_scan"}}, {"name": "cb0c9518b42b6470e3cd7ec6b1376b6b", "lon": -77.013704, "lat": 38.8870185, "type": "electric_scooter", "fusion_lon": 0.0, "is_reserved": 0, "bike_id": "cb0c9518b42b6470e3cd7ec6b1376b6b", "fusion_lat": 0.0, "is_disabled": 0, "rental_uris": {"ios": "https://dc.lft.to/lastmile_qr_scan", "android": "https://dc.lft.to/lastmile_qr_scan"}}, {"name": "1a33dce873ed2ff0753da84b1e9fa934", "lon": -77.0020535, "lat": 38.81934566666666, "type": "electric_bike", "fusion_lon": 0.0, "is_reserved": 0, "bike_id": "1a33dce873ed2ff0753da84b1e9fa934", "fusion_lat": 0.0, "is_disabled": 0, "rental_uris": {"ios": "https://dc.lft.to/lastmile_qr_scan", "android": "https://dc.lft.to/lastmile_qr_scan"}}, {"name": "5f6758ad8f64963cf5261032e3302f96", "lon": -77.04363133333334, "lat": 38.908007833333336, "type": "electric_scooter", "fusion_lon": 0.0, "is_reserved": 0, "bike_id": "5f6758ad8f64963cf5261032e3302f96", "fusion_lat": 0.0, "is_disabled": 0, "rental_uris": {"ios": "https://dc.lft.to/lastmile_qr_scan", "android": "https://dc.lft.to/lastmile_qr_scan"}}, {"name": "8f3f2758e5093ff12e736260c090a906", "lon": -77.0422645, "lat": 38.92174116666666, "type": "electric_scooter", "fusion_lon": 0.0, "is_reserved": 0, "bike_id": "8f3f2758e5093ff12e736260c090a906", "fusion_lat": 0.0, "is_disabled": 0, "rental_uris": {"ios": "https://dc.lft.to/lastmile_qr_scan", "android": "https://dc.lft.to/lastmile_qr_scan"}}, {"name": "46f7669aa355368b65403e77d527da2d", "lon": -77.02769566666667, "lat": 38.95422133333334, "type": "electric_scooter", "fusion_lon": 0.0, "is_reserved": 0, "bike_id": "46f7669aa355368b65403e77d527da2d", "fusion_lat": 0.0, "is_disabled": 0, "rental_uris": {"ios": "https://dc.lft.to/lastmile_qr_scan", "android": "https://dc.lft.to/lastmile_qr_scan"}}, {"name": "6ae8f38637d0e97327d7bfd2eec801af", "lon": -77.01664466666666, "lat": 38.88127883333333, "type": "electric_scooter", "fusion_lon": 0.0, "is_reserved": 0, "bike_id": "6ae8f38637d0e97327d7bfd2eec801af", "fusion_lat": 0.0, "is_disabled": 0, "rental_uris": {"ios": "https://dc.lft.to/lastmile_qr_scan", "android": "https://dc.lft.to/lastmile_qr_scan"}}, {"name": "64a791d962541a08280655b37c776979", "lon": -76.99628583333333, "lat": 38.900366166666664, "type": "electric_scooter", "fusion_lon": 0.0, "is_reserved": 0, "bike_id": "64a791d962541a08280655b37c776979", "fusion_lat": 0.0, "is_disabled": 0, "rental_uris": {"ios": "https://dc.lft.to/lastmile_qr_scan", "android": "https://dc.lft.to/lastmile_qr_scan"}}, {"name": "6c2800c02f511642d3f95991b11f42a4", "lon": -76.93351416666667, "lat": 38.89921366666667, "type": "electric_scooter", "fusion_lon": 0.0, "is_reserved": 0, "bike_id": "6c2800c02f511642d3f95991b11f42a4", "fusion_lat": 0.0, "is_disabled": 0, "rental_uris": {"ios": "https://dc.lft.to/lastmile_qr_scan", "android": "https://dc.lft.to/lastmile_qr_scan"}}, {"name": "28b813387c052a0effb0917f03540447", "lon": -77.01643716666666, "lat": 38.91842366666667, "type": "electric_scooter", "fusion_lon": 0.0, "is_reserved": 0, "bike_id": "28b813387c052a0effb0917f03540447", "fusion_lat": 0.0, "is_disabled": 0, "rental_uris": {"ios": "https://dc.lft.to/lastmile_qr_scan", "android": "https://dc.lft.to/lastmile_qr_scan"}}, {"name": "72f34338c1c30c1cc042e050308efca9", "lon": -77.0199865, "lat": 38.966288, "type": "electric_scooter", "fusion_lon": 0.0, "is_reserved": 0, "bike_id": "72f34338c1c30c1cc042e050308efca9", "fusion_lat": 0.0, "is_disabled": 0, "rental_uris": {"ios": "https://dc.lft.to/lastmile_qr_scan", "android": "https://dc.lft.to/lastmile_qr_scan"}}, {"name": "2bb0f08b4b9b0e6547b385cbc432498a", "lon": -77.00052816666667, "lat": 38.88118383333333, "type": "electric_scooter", "fusion_lon": 0.0, "is_reserved": 0, "bike_id": "2bb0f08b4b9b0e6547b385cbc432498a", "fusion_lat": 0.0, "is_disabled": 0, "rental_uris": {"ios": "https://dc.lft.to/lastmile_qr_scan", "android": "https://dc.lft.to/lastmile_qr_scan"}}, {"name": "fc63de32363cb18a67b30fbe585a16aa", "lon": -76.97913766666667, "lat": 38.8634685, "type": "electric_scooter", "fusion_lon": 0.0, "is_reserved": 0, "bike_id": "fc63de32363cb18a67b30fbe585a16aa", "fusion_lat": 0.0, "is_disabled": 0, "rental_uris": {"ios": "https://dc.lft.to/lastmile_qr_scan", "android": "https://dc.lft.to/lastmile_qr_scan"}}, {"name": "e3d779ff6bb5a08de090d51aa30234b2", "lon": -77.0323465, "lat": 38.8968015, "type": "electric_scooter", "fusion_lon": 0.0, "is_reserved": 0, "bike_id": "e3d779ff6bb5a08de090d51aa30234b2", "fusion_lat": 0.0, "is_disabled": 0, "rental_uris": {"ios": "https://dc.lft.to/lastmile_qr_scan", "android": "https://dc.lft.to/lastmile_qr_scan"}}, {"name": "d6f259eefdb4d6a57dae971b62d460a3", "lon": -77.05004966666667, "lat": 38.892336, "type": "electric_scooter", "fusion_lon": 0.0, "is_reserved": 0, "bike_id": "d6f259eefdb4d6a57dae971b62d460a3", "fusion_lat": 0.0, "is_disabled": 0, "rental_uris": {"ios": "https://dc.lft.to/lastmile_qr_scan", "android": "https://dc.lft.to/lastmile_qr_scan"}}, {"name": "001deffdf7c0e1cf01b8fe62b8e3c316", "lon": -77.01342766666667, "lat": 38.899118, "type": "electric_scooter", "fusion_lon": 0.0, "is_reserved": 0, "bike_id": "001deffdf7c0e1cf01b8fe62b8e3c316", "fusion_lat": 0.0, "is_disabled": 0, "rental_uris": {"ios": "https://dc.lft.to/lastmile_qr_scan", "android": "https://dc.lft.to/lastmile_qr_scan"}}, {"name": "7fb38e5ff03558de6cb9c4744624dcf9", "lon": -77.04573566666667, "lat": 38.91769133333333, "type": "electric_scooter", "fusion_lon": 0.0, "is_reserved": 0, "bike_id": "7fb38e5ff03558de6cb9c4744624dcf9", "fusion_lat": 0.0, "is_disabled": 0, "rental_uris": {"ios": "https://dc.lft.to/lastmile_qr_scan", "android": "https://dc.lft.to/lastmile_qr_scan"}}, {"name": "ccd379425e957f1e6f5b045fc58bf6ad", "lon": -77.024697, "lat": 38.932962833333335, "type": "electric_scooter", "fusion_lon": 0.0, "is_reserved": 0, "bike_id": "ccd379425e957f1e6f5b045fc58bf6ad", "fusion_lat": 0.0, "is_disabled": 0, "rental_uris": {"ios": "https://dc.lft.to/lastmile_qr_scan", "android": "https://dc.lft.to/lastmile_qr_scan"}}, {"name": "019a112c511d516ca26e09b3cec8804d", "lon": -77.0628625, "lat": 38.905370833333336, "type": "electric_bike", "fusion_lon": 0.0, "is_reserved": 0, "bike_id": "019a112c511d516ca26e09b3cec8804d", "fusion_lat": 0.0, "is_disabled": 0, "rental_uris": {"ios": "https://dc.lft.to/lastmile_qr_scan", "android": "https://dc.lft.to/lastmile_qr_scan"}}, {"name": "82b135b4f7f6c25b79453bf89a5ca3ce", "lon": -77.04156283333333, "lat": 38.91953816666667, "type": "electric_scooter", "fusion_lon": 0.0, "is_reserved": 0, "bike_id": "82b135b4f7f6c25b79453bf89a5ca3ce", "fusion_lat": 0.0, "is_disabled": 0, "rental_uris": {"ios": "https://dc.lft.to/lastmile_qr_scan", "android": "https://dc.lft.to/lastmile_qr_scan"}}, {"name": "eb2384ee26fbbe08c0c9bd2ca3bd2005", "lon": -77.04106266666666, "lat": 38.928004666666666, "type": "electric_scooter", "fusion_lon": 0.0, "is_reserved": 0, "bike_id": "eb2384ee26fbbe08c0c9bd2ca3bd2005", "fusion_lat": 0.0, "is_disabled": 0, "rental_uris": {"ios": "https://dc.lft.to/lastmile_qr_scan", "android": "https://dc.lft.to/lastmile_qr_scan"}}, {"name": "48257b4490463e2fa1d24dfe6c80de00", "lon": -77.00911433333333, "lat": 38.89571216666667, "type": "electric_scooter", "fusion_lon": 0.0, "is_reserved": 0, "bike_id": "48257b4490463e2fa1d24dfe6c80de00", "fusion_lat": 0.0, "is_disabled": 0, "rental_uris": {"ios": "https://dc.lft.to/lastmile_qr_scan", "android": "https://dc.lft.to/lastmile_qr_scan"}}, {"name": "75bca62adc089c2af06e5e77601d832d", "lon": -77.04477916666667, "lat": 38.90865933333333, "type": "electric_scooter", "fusion_lon": 0.0, "is_reserved": 0, "bike_id": "75bca62adc089c2af06e5e77601d832d", "fusion_lat": 0.0, "is_disabled": 0, "rental_uris": {"ios": "https://dc.lft.to/lastmile_qr_scan", "android": "https://dc.lft.to/lastmile_qr_scan"}}, {"name": "cfc90c09e077c15cfee77bf6d425986b", "lon": -77.03351966666666, "lat": 38.90725883333333, "type": "electric_scooter", "fusion_lon": 0.0, "is_reserved": 0, "bike_id": "cfc90c09e077c15cfee77bf6d425986b", "fusion_lat": 0.0, "is_disabled": 0, "rental_uris": {"ios": "https://dc.lft.to/lastmile_qr_scan", "android": "https://dc.lft.to/lastmile_qr_scan"}}, {"name": "eb304272686c307ae77a35b0ac7f886d", "lon": -77.03663516666667, "lat": 38.9124435, "type": "electric_scooter", "fusion_lon": 0.0, "is_reserved": 0, "bike_id": "eb304272686c307ae77a35b0ac7f886d", "fusion_lat": 0.0, "is_disabled": 0, "rental_uris": {"ios": "https://dc.lft.to/lastmile_qr_scan", "android": "https://dc.lft.to/lastmile_qr_scan"}}, {"name": "b76cdd8f09aa54d012629465e2afa58e", "lon": -77.02411283333333, "lat": 38.896313666666664, "type": "electric_scooter", "fusion_lon": 0.0, "is_reserved": 0, "bike_id": "b76cdd8f09aa54d012629465e2afa58e", "fusion_lat": 0.0, "is_disabled": 0, "rental_uris": {"ios": "https://dc.lft.to/lastmile_qr_scan", "android": "https://dc.lft.to/lastmile_qr_scan"}}, {"name": "fb358fe2c24ae1d43f529bb8d0be7233", "lon": -77.02143283333334, "lat": 38.9249105, "type": "electric_scooter", "fusion_lon": 0.0, "is_reserved": 0, "bike_id": "fb358fe2c24ae1d43f529bb8d0be7233", "fusion_lat": 0.0, "is_disabled": 0, "rental_uris": {"ios": "https://dc.lft.to/lastmile_qr_scan", "android": "https://dc.lft.to/lastmile_qr_scan"}}, {"name": "7bb22ef4af0bf5bf01583e0a50207781", "lon": -77.02346616666667, "lat": 38.90860083333333, "type": "electric_scooter", "fusion_lon": 0.0, "is_reserved": 0, "bike_id": "7bb22ef4af0bf5bf01583e0a50207781", "fusion_lat": 0.0, "is_disabled": 0, "rental_uris": {"ios": "https://dc.lft.to/lastmile_qr_scan", "android": "https://dc.lft.to/lastmile_qr_scan"}}, {"name": "56cb0761df9036b4b2e9dd835e18245c", "lon": -77.02447083333334, "lat": 38.923454, "type": "electric_scooter", "fusion_lon": 0.0, "is_reserved": 0, "bike_id": "56cb0761df9036b4b2e9dd835e18245c", "fusion_lat": 0.0, "is_disabled": 0, "rental_uris": {"ios": "https://dc.lft.to/lastmile_qr_scan", "android": "https://dc.lft.to/lastmile_qr_scan"}}, {"name": "acc184ccf42c68d0399753c37e6f7c68", "lon": -77.02329616666667, "lat": 38.93601066666667, "type": "electric_scooter", "fusion_lon": 0.0, "is_reserved": 0, "bike_id": "acc184ccf42c68d0399753c37e6f7c68", "fusion_lat": 0.0, "is_disabled": 0, "rental_uris": {"ios": "https://dc.lft.to/lastmile_qr_scan", "android": "https://dc.lft.to/lastmile_qr_scan"}}, {"name": "cf31937218d93ae91230720741b0b602", "lon": -77.02911283333333, "lat": 38.898543833333335, "type": "electric_scooter", "fusion_lon": 0.0, "is_reserved": 0, "bike_id": "cf31937218d93ae91230720741b0b602", "fusion_lat": 0.0, "is_disabled": 0, "rental_uris": {"ios": "https://dc.lft.to/lastmile_qr_scan", "android": "https://dc.lft.to/lastmile_qr_scan"}}, {"name": "e057333c5222dd41433098228a9e5351", "lon": -77.024043, "lat": 38.89253683333333, "type": "electric_scooter", "fusion_lon": 0.0, "is_reserved": 0, "bike_id": "e057333c5222dd41433098228a9e5351", "fusion_lat": 0.0, "is_disabled": 0, "rental_uris": {"ios": "https://dc.lft.to/lastmile_qr_scan", "android": "https://dc.lft.to/lastmile_qr_scan"}}, {"name": "697628d5ecacb8290ca987ccc5e7f119", "lon": -76.99381166666667, "lat": 38.9064095, "type": "electric_scooter", "fusion_lon": 0.0, "is_reserved": 0, "bike_id": "697628d5ecacb8290ca987ccc5e7f119", "fusion_lat": 0.0, "is_disabled": 0, "rental_uris": {"ios": "https://dc.lft.to/lastmile_qr_scan", "android": "https://dc.lft.to/lastmile_qr_scan"}}, {"name": "a8998f1aa452a2a3b9ab7854c1b9eff1", "lon": -77.11852183333333, "lat": 38.877313, "type": "electric_bike", "fusion_lon": 0.0, "is_reserved": 0, "bike_id": "a8998f1aa452a2a3b9ab7854c1b9eff1", "fusion_lat": 0.0, "is_disabled": 0, "rental_uris": {"ios": "https://dc.lft.to/lastmile_qr_scan", "android": "https://dc.lft.to/lastmile_qr_scan"}}, {"name": "ae6c5a31589da37c9b3da59648ab8b70", "lon": -76.93547366666667, "lat": 38.951831, "type": "electric_bike", "fusion_lon": 0.0, "is_reserved": 0, "bike_id": "ae6c5a31589da37c9b3da59648ab8b70", "fusion_lat": 0.0, "is_disabled": 0, "rental_uris": {"ios": "https://dc.lft.to/lastmile_qr_scan", "android": "https://dc.lft.to/lastmile_qr_scan"}}, {"name": "202441da5151719b076039a1390b5b2a", "lon": -77.046887, "lat": 38.89223883333333, "type": "electric_scooter", "fusion_lon": 0.0, "is_reserved": 0, "bike_id": "202441da5151719b076039a1390b5b2a", "fusion_lat": 0.0, "is_disabled": 0, "rental_uris": {"ios": "https://dc.lft.to/lastmile_qr_scan", "android": "https://dc.lft.to/lastmile_qr_scan"}}, {"name": "1726dcf7dc117b144ac879a0a2646eef", "lon": -77.01354016666667, "lat": 38.86969066666666, "type": "electric_scooter", "fusion_lon": 0.0, "is_reserved": 0, "bike_id": "1726dcf7dc117b144ac879a0a2646eef", "fusion_lat": 0.0, "is_disabled": 0, "rental_uris": {"ios": "https://dc.lft.to/lastmile_qr_scan", "android": "https://dc.lft.to/lastmile_qr_scan"}}, {"name": "623dfc769c82cec87448c3483be934fe", "lon": -77.0236565, "lat": 38.90217283333333, "type": "electric_scooter", "fusion_lon": 0.0, "is_reserved": 0, "bike_id": "623dfc769c82cec87448c3483be934fe", "fusion_lat": 0.0, "is_disabled": 0, "rental_uris": {"ios": "https://dc.lft.to/lastmile_qr_scan", "android": "https://dc.lft.to/lastmile_qr_scan"}}, {"name": "e46d3e3cedd934bf411d0cff7a956f9a", "lon": -77.00761566666667, "lat": 38.9267275, "type": "electric_scooter", "fusion_lon": 0.0, "is_reserved": 0, "bike_id": "e46d3e3cedd934bf411d0cff7a956f9a", "fusion_lat": 0.0, "is_disabled": 0, "rental_uris": {"ios": "https://dc.lft.to/lastmile_qr_scan", "android": "https://dc.lft.to/lastmile_qr_scan"}}, {"name": "bab748c9668987927551fe608ba9aa75", "lon": -76.998712, "lat": 38.90028083333333, "type": "electric_scooter", "fusion_lon": 0.0, "is_reserved": 0, "bike_id": "bab748c9668987927551fe608ba9aa75", "fusion_lat": 0.0, "is_disabled": 0, "rental_uris": {"ios": "https://dc.lft.to/lastmile_qr_scan", "android": "https://dc.lft.to/lastmile_qr_scan"}}, {"name": "295d054fec2d3f1144ce56ebe82483ec", "lon": -77.02490616666667, "lat": 38.938638833333336, "type": "electric_scooter", "fusion_lon": 0.0, "is_reserved": 0, "bike_id": "295d054fec2d3f1144ce56ebe82483ec", "fusion_lat": 0.0, "is_disabled": 0, "rental_uris": {"ios": "https://dc.lft.to/lastmile_qr_scan", "android": "https://dc.lft.to/lastmile_qr_scan"}}, {"name": "0f8ce4bbaa814fbb916c440f7e9b1c52", "lon": -77.02434883333333, "lat": 38.936228, "type": "electric_scooter", "fusion_lon": 0.0, "is_reserved": 0, "bike_id": "0f8ce4bbaa814fbb916c440f7e9b1c52", "fusion_lat": 0.0, "is_disabled": 0, "rental_uris": {"ios": "https://dc.lft.to/lastmile_qr_scan", "android": "https://dc.lft.to/lastmile_qr_scan"}}, {"name": "a80bfa3976d800734dbcbd0ca2ee5dfa", "lon": -77.03371816666667, "lat": 38.920397, "type": "electric_scooter", "fusion_lon": 0.0, "is_reserved": 0, "bike_id": "a80bfa3976d800734dbcbd0ca2ee5dfa", "fusion_lat": 0.0, "is_disabled": 0, "rental_uris": {"ios": "https://dc.lft.to/lastmile_qr_scan", "android": "https://dc.lft.to/lastmile_qr_scan"}}, {"name": "7596cb20b491e5c1c82303cab47529ab", "lon": -77.04487733333333, "lat": 38.90899183333333, "type": "electric_scooter", "fusion_lon": 0.0, "is_reserved": 0, "bike_id": "7596cb20b491e5c1c82303cab47529ab", "fusion_lat": 0.0, "is_disabled": 0, "rental_uris": {"ios": "https://dc.lft.to/lastmile_qr_scan", "android": "https://dc.lft.to/lastmile_qr_scan"}}, {"name": "23f348636604a6040b819b13b782fc81", "lon": -77.0012625, "lat": 38.87795666666667, "type": "electric_scooter", "fusion_lon": 0.0, "is_reserved": 0, "bike_id": "23f348636604a6040b819b13b782fc81", "fusion_lat": 0.0, "is_disabled": 0, "rental_uris": {"ios": "https://dc.lft.to/lastmile_qr_scan", "android": "https://dc.lft.to/lastmile_qr_scan"}}, {"name": "d841450eea2765765e59d439dc37dce1", "lon": -76.93734033333334, "lat": 38.89016083333333, "type": "electric_scooter", "fusion_lon": 0.0, "is_reserved": 0, "bike_id": "d841450eea2765765e59d439dc37dce1", "fusion_lat": 0.0, "is_disabled": 0, "rental_uris": {"ios": "https://dc.lft.to/lastmile_qr_scan", "android": "https://dc.lft.to/lastmile_qr_scan"}}, {"name": "c29646d2d0dc31e8ea34cf473663b88f", "lon": -76.9935455, "lat": 38.8450475, "type": "electric_bike", "fusion_lon": 0.0, "is_reserved": 0, "bike_id": "c29646d2d0dc31e8ea34cf473663b88f", "fusion_lat": 0.0, "is_disabled": 0, "rental_uris": {"ios": "https://dc.lft.to/lastmile_qr_scan", "android": "https://dc.lft.to/lastmile_qr_scan"}}, {"name": "e0e72e23ae844b36743de5225882e57d", "lon": -76.998368, "lat": 38.88322866666667, "type": "electric_scooter", "fusion_lon": 0.0, "is_reserved": 0, "bike_id": "e0e72e23ae844b36743de5225882e57d", "fusion_lat": 0.0, "is_disabled": 0, "rental_uris": {"ios": "https://dc.lft.to/lastmile_qr_scan", "android": "https://dc.lft.to/lastmile_qr_scan"}}, {"name": "3c4c9b402ad067ba9f8fc429a7aae43b", "lon": -77.03465866666667, "lat": 38.90568, "type": "electric_scooter", "fusion_lon": 0.0, "is_reserved": 0, "bike_id": "3c4c9b402ad067ba9f8fc429a7aae43b", "fusion_lat": 0.0, "is_disabled": 0, "rental_uris": {"ios": "https://dc.lft.to/lastmile_qr_scan", "android": "https://dc.lft.to/lastmile_qr_scan"}}, {"name": "deb4459ac474c5ce57499d56e5384b91", "lon": -77.026972, "lat": 38.899697833333335, "type": "electric_scooter", "fusion_lon": 0.0, "is_reserved": 0, "bike_id": "deb4459ac474c5ce57499d56e5384b91", "fusion_lat": 0.0, "is_disabled": 0, "rental_uris": {"ios": "https://dc.lft.to/lastmile_qr_scan", "android": "https://dc.lft.to/lastmile_qr_scan"}}, {"name": "3735a4da6959d054c00809fce0c7c420", "lon": -77.0306515, "lat": 38.927277, "type": "electric_scooter", "fusion_lon": 0.0, "is_reserved": 0, "bike_id": "3735a4da6959d054c00809fce0c7c420", "fusion_lat": 0.0, "is_disabled": 0, "rental_uris": {"ios": "https://dc.lft.to/lastmile_qr_scan", "android": "https://dc.lft.to/lastmile_qr_scan"}}, {"name": "62b3c69937b979bb8b39606688c84777", "lon": -77.027991, "lat": 38.954095, "type": "electric_scooter", "fusion_lon": 0.0, "is_reserved": 0, "bike_id": "62b3c69937b979bb8b39606688c84777", "fusion_lat": 0.0, "is_disabled": 0, "rental_uris": {"ios": "https://dc.lft.to/lastmile_qr_scan", "android": "https://dc.lft.to/lastmile_qr_scan"}}, {"name": "b8cc0a8573e56471fc71bb2bbf79a90d", "lon": -77.03545883333334, "lat": 38.9271, "type": "electric_scooter", "fusion_lon": 0.0, "is_reserved": 0, "bike_id": "b8cc0a8573e56471fc71bb2bbf79a90d", "fusion_lat": 0.0, "is_disabled": 0, "rental_uris": {"ios": "https://dc.lft.to/lastmile_qr_scan", "android": "https://dc.lft.to/lastmile_qr_scan"}}, {"name": "f76de2b986367346a4f1136c0e151f6d", "lon": -77.04362133333333, "lat": 38.90437383333333, "type": "electric_scooter", "fusion_lon": 0.0, "is_reserved": 0, "bike_id": "f76de2b986367346a4f1136c0e151f6d", "fusion_lat": 0.0, "is_disabled": 0, "rental_uris": {"ios": "https://dc.lft.to/lastmile_qr_scan", "android": "https://dc.lft.to/lastmile_qr_scan"}}, {"name": "87e3b2615a055fc2afadb743d989f1d1", "lon": -77.04245833333333, "lat": 38.92221966666666, "type": "electric_scooter", "fusion_lon": 0.0, "is_reserved": 0, "bike_id": "87e3b2615a055fc2afadb743d989f1d1", "fusion_lat": 0.0, "is_disabled": 0, "rental_uris": {"ios": "https://dc.lft.to/lastmile_qr_scan", "android": "https://dc.lft.to/lastmile_qr_scan"}}, {"name": "fccc5afd969ac5a18e98baaf8d096934", "lon": -77.02077783333333, "lat": 38.92719266666667, "type": "electric_scooter", "fusion_lon": 0.0, "is_reserved": 0, "bike_id": "fccc5afd969ac5a18e98baaf8d096934", "fusion_lat": 0.0, "is_disabled": 0, "rental_uris": {"ios": "https://dc.lft.to/lastmile_qr_scan", "android": "https://dc.lft.to/lastmile_qr_scan"}}, {"name": "375b8748f3ad8b172a5d4a6a7de17467", "lon": -77.05241333333333, "lat": 38.9235845, "type": "electric_scooter", "fusion_lon": 0.0, "is_reserved": 0, "bike_id": "375b8748f3ad8b172a5d4a6a7de17467", "fusion_lat": 0.0, "is_disabled": 0, "rental_uris": {"ios": "https://dc.lft.to/lastmile_qr_scan", "android": "https://dc.lft.to/lastmile_qr_scan"}}, {"name": "bdba1fa74ef22a45be097ddc9c716b6b", "lon": -76.98363716666667, "lat": 38.91544666666667, "type": "electric_scooter", "fusion_lon": 0.0, "is_reserved": 0, "bike_id": "bdba1fa74ef22a45be097ddc9c716b6b", "fusion_lat": 0.0, "is_disabled": 0, "rental_uris": {"ios": "https://dc.lft.to/lastmile_qr_scan", "android": "https://dc.lft.to/lastmile_qr_scan"}}, {"name": "784abda08f90e81a248be0777123ed09", "lon": -77.03321283333334, "lat": 38.9015585, "type": "electric_scooter", "fusion_lon": 0.0, "is_reserved": 0, "bike_id": "784abda08f90e81a248be0777123ed09", "fusion_lat": 0.0, "is_disabled": 0, "rental_uris": {"ios": "https://dc.lft.to/lastmile_qr_scan", "android": "https://dc.lft.to/lastmile_qr_scan"}}, {"name": "ece410de9e793d2f4fa8c402bb9a6f19", "lon": -77.0217405, "lat": 38.91554633333333, "type": "electric_scooter", "fusion_lon": 0.0, "is_reserved": 0, "bike_id": "ece410de9e793d2f4fa8c402bb9a6f19", "fusion_lat": 0.0, "is_disabled": 0, "rental_uris": {"ios": "https://dc.lft.to/lastmile_qr_scan", "android": "https://dc.lft.to/lastmile_qr_scan"}}, {"name": "9dad6b4d02981f8874b9d7f02ca39455", "lon": -77.01106716666666, "lat": 38.963095333333335, "type": "electric_bike", "fusion_lon": 0.0, "is_reserved": 0, "bike_id": "9dad6b4d02981f8874b9d7f02ca39455", "fusion_lat": 0.0, "is_disabled": 0, "rental_uris": {"ios": "https://dc.lft.to/lastmile_qr_scan", "android": "https://dc.lft.to/lastmile_qr_scan"}}, {"name": "f1cc5e2adff276f815058745bf6b41b7", "lon": -77.006982, "lat": 38.9525085, "type": "electric_scooter", "fusion_lon": 0.0, "is_reserved": 0, "bike_id": "f1cc5e2adff276f815058745bf6b41b7", "fusion_lat": 0.0, "is_disabled": 0, "rental_uris": {"ios": "https://dc.lft.to/lastmile_qr_scan", "android": "https://dc.lft.to/lastmile_qr_scan"}}, {"name": "4db1700a96978b03469ee1312804561a", "lon": -77.01414783333334, "lat": 38.928581333333334, "type": "electric_scooter", "fusion_lon": 0.0, "is_reserved": 0, "bike_id": "4db1700a96978b03469ee1312804561a", "fusion_lat": 0.0, "is_disabled": 0, "rental_uris": {"ios": "https://dc.lft.to/lastmile_qr_scan", "android": "https://dc.lft.to/lastmile_qr_scan"}}, {"name": "9d96566ccd26c011857e2d27ba452aa4", "lon": -77.02458983333334, "lat": 38.89995716666667, "type": "electric_scooter", "fusion_lon": 0.0, "is_reserved": 0, "bike_id": "9d96566ccd26c011857e2d27ba452aa4", "fusion_lat": 0.0, "is_disabled": 0, "rental_uris": {"ios": "https://dc.lft.to/lastmile_qr_scan", "android": "https://dc.lft.to/lastmile_qr_scan"}}, {"name": "8eb4605c96bf0e48ceba0b711144e451", "lon": -77.03090983333334, "lat": 38.9042355, "type": "electric_scooter", "fusion_lon": 0.0, "is_reserved": 0, "bike_id": "8eb4605c96bf0e48ceba0b711144e451", "fusion_lat": 0.0, "is_disabled": 0, "rental_uris": {"ios": "https://dc.lft.to/lastmile_qr_scan", "android": "https://dc.lft.to/lastmile_qr_scan"}}, {"name": "bf2ad9598e38254a0c4da30368981326", "lon": -77.03385366666667, "lat": 38.886563833333334, "type": "electric_scooter", "fusion_lon": 0.0, "is_reserved": 0, "bike_id": "bf2ad9598e38254a0c4da30368981326", "fusion_lat": 0.0, "is_disabled": 0, "rental_uris": {"ios": "https://dc.lft.to/lastmile_qr_scan", "android": "https://dc.lft.to/lastmile_qr_scan"}}, {"name": "86f99c631bc35516f63880805300448d", "lon": -77.02282766666667, "lat": 38.9096145, "type": "electric_scooter", "fusion_lon": 0.0, "is_reserved": 0, "bike_id": "86f99c631bc35516f63880805300448d", "fusion_lat": 0.0, "is_disabled": 0, "rental_uris": {"ios": "https://dc.lft.to/lastmile_qr_scan", "android": "https://dc.lft.to/lastmile_qr_scan"}}, {"name": "adb6d6e12cafd1e511e758364a98fb17", "lon": -76.999106, "lat": 38.948234666666664, "type": "electric_scooter", "fusion_lon": 0.0, "is_reserved": 0, "bike_id": "adb6d6e12cafd1e511e758364a98fb17", "fusion_lat": 0.0, "is_disabled": 0, "rental_uris": {"ios": "https://dc.lft.to/lastmile_qr_scan", "android": "https://dc.lft.to/lastmile_qr_scan"}}, {"name": "5a26ce65acfdf2c4657574bc4e022173", "lon": -77.07910066666666, "lat": 38.9480125, "type": "electric_scooter", "fusion_lon": 0.0, "is_reserved": 0, "bike_id": "5a26ce65acfdf2c4657574bc4e022173", "fusion_lat": 0.0, "is_disabled": 0, "rental_uris": {"ios": "https://dc.lft.to/lastmile_qr_scan", "android": "https://dc.lft.to/lastmile_qr_scan"}}, {"name": "c2ab0b2873ab46fb0ae1b94ce43fa3fb", "lon": -77.0602815, "lat": 38.90193716666667, "type": "electric_scooter", "fusion_lon": 0.0, "is_reserved": 0, "bike_id": "c2ab0b2873ab46fb0ae1b94ce43fa3fb", "fusion_lat": 0.0, "is_disabled": 0, "rental_uris": {"ios": "https://dc.lft.to/lastmile_qr_scan", "android": "https://dc.lft.to/lastmile_qr_scan"}}, {"name": "7150d16ca0e6f5ca8c1be1ebceae4289", "lon": -77.02714633333333, "lat": 38.924554, "type": "electric_scooter", "fusion_lon": 0.0, "is_reserved": 0, "bike_id": "7150d16ca0e6f5ca8c1be1ebceae4289", "fusion_lat": 0.0, "is_disabled": 0, "rental_uris": {"ios": "https://dc.lft.to/lastmile_qr_scan", "android": "https://dc.lft.to/lastmile_qr_scan"}}, {"name": "9ef3ccb37d451cc831ae144cdbe376b4", "lon": -77.03671083333333, "lat": 38.9272005, "type": "electric_scooter", "fusion_lon": 0.0, "is_reserved": 0, "bike_id": "9ef3ccb37d451cc831ae144cdbe376b4", "fusion_lat": 0.0, "is_disabled": 0, "rental_uris": {"ios": "https://dc.lft.to/lastmile_qr_scan", "android": "https://dc.lft.to/lastmile_qr_scan"}}, {"name": "ff87d689d1a1c997e8875449ad009901", "lon": -76.937561, "lat": 38.89049266666667, "type": "electric_scooter", "fusion_lon": 0.0, "is_reserved": 0, "bike_id": "ff87d689d1a1c997e8875449ad009901", "fusion_lat": 0.0, "is_disabled": 0, "rental_uris": {"ios": "https://dc.lft.to/lastmile_qr_scan", "android": "https://dc.lft.to/lastmile_qr_scan"}}, {"name": "b0f34531543a363d10dd1d1b8c1a0739", "lon": -77.02187683333334, "lat": 38.91979716666667, "type": "electric_scooter", "fusion_lon": 0.0, "is_reserved": 0, "bike_id": "b0f34531543a363d10dd1d1b8c1a0739", "fusion_lat": 0.0, "is_disabled": 0, "rental_uris": {"ios": "https://dc.lft.to/lastmile_qr_scan", "android": "https://dc.lft.to/lastmile_qr_scan"}}, {"name": "466a715827447efb845216e8a04b08e9", "lon": -77.0387785, "lat": 38.932605, "type": "electric_scooter", "fusion_lon": 0.0, "is_reserved": 0, "bike_id": "466a715827447efb845216e8a04b08e9", "fusion_lat": 0.0, "is_disabled": 0, "rental_uris": {"ios": "https://dc.lft.to/lastmile_qr_scan", "android": "https://dc.lft.to/lastmile_qr_scan"}}, {"name": "084ecc3e9d812bc07337b1f3be5635e8", "lon": -76.98768, "lat": 38.900210666666666, "type": "electric_scooter", "fusion_lon": 0.0, "is_reserved": 0, "bike_id": "084ecc3e9d812bc07337b1f3be5635e8", "fusion_lat": 0.0, "is_disabled": 0, "rental_uris": {"ios": "https://dc.lft.to/lastmile_qr_scan", "android": "https://dc.lft.to/lastmile_qr_scan"}}, {"name": "bc703c37b5c2abe8a4f79fd675ec721e", "lon": -76.99777933333333, "lat": 38.84430533333333, "type": "electric_scooter", "fusion_lon": 0.0, "is_reserved": 0, "bike_id": "bc703c37b5c2abe8a4f79fd675ec721e", "fusion_lat": 0.0, "is_disabled": 0, "rental_uris": {"ios": "https://dc.lft.to/lastmile_qr_scan", "android": "https://dc.lft.to/lastmile_qr_scan"}}, {"name": "72a80bc67d537ce1b68c9cd3c1eb3998", "lon": -77.0208515, "lat": 38.921332, "type": "electric_scooter", "fusion_lon": 0.0, "is_reserved": 0, "bike_id": "72a80bc67d537ce1b68c9cd3c1eb3998", "fusion_lat": 0.0, "is_disabled": 0, "rental_uris": {"ios": "https://dc.lft.to/lastmile_qr_scan", "android": "https://dc.lft.to/lastmile_qr_scan"}}, {"name": "4ff71444e887f11db8e308562af93bb4", "lon": -77.004997, "lat": 38.8968655, "type": "electric_scooter", "fusion_lon": 0.0, "is_reserved": 0, "bike_id": "4ff71444e887f11db8e308562af93bb4", "fusion_lat": 0.0, "is_disabled": 0, "rental_uris": {"ios": "https://dc.lft.to/lastmile_qr_scan", "android": "https://dc.lft.to/lastmile_qr_scan"}}, {"name": "e1c3a5ebca5c6c7b8d8b6ae13f0e6c37", "lon": -77.0730995, "lat": 38.864789, "type": "electric_bike", "fusion_lon": 0.0, "is_reserved": 0, "bike_id": "e1c3a5ebca5c6c7b8d8b6ae13f0e6c37", "fusion_lat": 0.0, "is_disabled": 0, "rental_uris": {"ios": "https://dc.lft.to/lastmile_qr_scan", "android": "https://dc.lft.to/lastmile_qr_scan"}}, {"name": "e422ae63ecd6510fbebe742946401572", "lon": -77.03282366666667, "lat": 38.932027833333336, "type": "electric_scooter", "fusion_lon": 0.0, "is_reserved": 0, "bike_id": "e422ae63ecd6510fbebe742946401572", "fusion_lat": 0.0, "is_disabled": 0, "rental_uris": {"ios": "https://dc.lft.to/lastmile_qr_scan", "android": "https://dc.lft.to/lastmile_qr_scan"}}, {"name": "e0733eb5cd93f4b7d1f7016936752e16", "lon": -76.9438315, "lat": 38.8932245, "type": "electric_scooter", "fusion_lon": 0.0, "is_reserved": 0, "bike_id": "e0733eb5cd93f4b7d1f7016936752e16", "fusion_lat": 0.0, "is_disabled": 0, "rental_uris": {"ios": "https://dc.lft.to/lastmile_qr_scan", "android": "https://dc.lft.to/lastmile_qr_scan"}}, {"name": "e01965444d82ada49aa7dd1bf1303220", "lon": -76.9782735, "lat": 38.843598166666666, "type": "electric_bike", "fusion_lon": 0.0, "is_reserved": 0, "bike_id": "e01965444d82ada49aa7dd1bf1303220", "fusion_lat": 0.0, "is_disabled": 0, "rental_uris": {"ios": "https://dc.lft.to/lastmile_qr_scan", "android": "https://dc.lft.to/lastmile_qr_scan"}}, {"name": "f3cbd74156b59c963f09de8fa4bd6d08", "lon": -76.94960216666666, "lat": 38.89438766666667, "type": "electric_scooter", "fusion_lon": 0.0, "is_reserved": 0, "bike_id": "f3cbd74156b59c963f09de8fa4bd6d08", "fusion_lat": 0.0, "is_disabled": 0, "rental_uris": {"ios": "https://dc.lft.to/lastmile_qr_scan", "android": "https://dc.lft.to/lastmile_qr_scan"}}, {"name": "f4c7fb8b2dd52d2c746daf6b669ab3d8", "lon": -77.02177683333333, "lat": 38.898809666666665, "type": "electric_scooter", "fusion_lon": 0.0, "is_reserved": 0, "bike_id": "f4c7fb8b2dd52d2c746daf6b669ab3d8", "fusion_lat": 0.0, "is_disabled": 0, "rental_uris": {"ios": "https://dc.lft.to/lastmile_qr_scan", "android": "https://dc.lft.to/lastmile_qr_scan"}}, {"name": "7bb20f4100045c33d5f853e4db2859ce", "lon": -77.043426, "lat": 38.9177745, "type": "electric_scooter", "fusion_lon": 0.0, "is_reserved": 0, "bike_id": "7bb20f4100045c33d5f853e4db2859ce", "fusion_lat": 0.0, "is_disabled": 0, "rental_uris": {"ios": "https://dc.lft.to/lastmile_qr_scan", "android": "https://dc.lft.to/lastmile_qr_scan"}}, {"name": "9edd6d2d6cedca59808a6bdaa5efde0a", "lon": -77.0123065, "lat": 38.93106816666667, "type": "electric_scooter", "fusion_lon": 0.0, "is_reserved": 0, "bike_id": "9edd6d2d6cedca59808a6bdaa5efde0a", "fusion_lat": 0.0, "is_disabled": 0, "rental_uris": {"ios": "https://dc.lft.to/lastmile_qr_scan", "android": "https://dc.lft.to/lastmile_qr_scan"}}, {"name": "ac996f90d8a2316ff903eb01f17269b0", "lon": -77.03219266666666, "lat": 38.896756, "type": "electric_scooter", "fusion_lon": 0.0, "is_reserved": 0, "bike_id": "ac996f90d8a2316ff903eb01f17269b0", "fusion_lat": 0.0, "is_disabled": 0, "rental_uris": {"ios": "https://dc.lft.to/lastmile_qr_scan", "android": "https://dc.lft.to/lastmile_qr_scan"}}, {"name": "0dcb00ae985cd0b4ef8dd10caea70971", "lon": -77.03854866666667, "lat": 38.91540616666666, "type": "electric_scooter", "fusion_lon": 0.0, "is_reserved": 0, "bike_id": "0dcb00ae985cd0b4ef8dd10caea70971", "fusion_lat": 0.0, "is_disabled": 0, "rental_uris": {"ios": "https://dc.lft.to/lastmile_qr_scan", "android": "https://dc.lft.to/lastmile_qr_scan"}}, {"name": "aa90d1e7dc3ed2e19e72d1cc73706d45", "lon": -77.00737816666667, "lat": 38.898448333333334, "type": "electric_scooter", "fusion_lon": 0.0, "is_reserved": 0, "bike_id": "aa90d1e7dc3ed2e19e72d1cc73706d45", "fusion_lat": 0.0, "is_disabled": 0, "rental_uris": {"ios": "https://dc.lft.to/lastmile_qr_scan", "android": "https://dc.lft.to/lastmile_qr_scan"}}, {"name": "7faf8b94e43d217305dc06091632555b", "lon": -77.0454645, "lat": 38.9340985, "type": "electric_scooter", "fusion_lon": 0.0, "is_reserved": 0, "bike_id": "7faf8b94e43d217305dc06091632555b", "fusion_lat": 0.0, "is_disabled": 0, "rental_uris": {"ios": "https://dc.lft.to/lastmile_qr_scan", "android": "https://dc.lft.to/lastmile_qr_scan"}}, {"name": "040d9c2590a20554e6117ddd39cfb613", "lon": -77.022937, "lat": 38.897152, "type": "electric_scooter", "fusion_lon": 0.0, "is_reserved": 0, "bike_id": "040d9c2590a20554e6117ddd39cfb613", "fusion_lat": 0.0, "is_disabled": 0, "rental_uris": {"ios": "https://dc.lft.to/lastmile_qr_scan", "android": "https://dc.lft.to/lastmile_qr_scan"}}, {"name": "6c08f350bfd3c6ea31a1dae2dd7cdef4", "lon": -77.04745983333333, "lat": 38.91657416666666, "type": "electric_scooter", "fusion_lon": 0.0, "is_reserved": 0, "bike_id": "6c08f350bfd3c6ea31a1dae2dd7cdef4", "fusion_lat": 0.0, "is_disabled": 0, "rental_uris": {"ios": "https://dc.lft.to/lastmile_qr_scan", "android": "https://dc.lft.to/lastmile_qr_scan"}}, {"name": "d8a088b7f367cdd2590afbdd381a5ac9", "lon": -77.04550816666666, "lat": 38.909608, "type": "electric_scooter", "fusion_lon": 0.0, "is_reserved": 0, "bike_id": "d8a088b7f367cdd2590afbdd381a5ac9", "fusion_lat": 0.0, "is_disabled": 0, "rental_uris": {"ios": "https://dc.lft.to/lastmile_qr_scan", "android": "https://dc.lft.to/lastmile_qr_scan"}}, {"name": "e80c8de963198f8ff939ecf75c44bf48", "lon": -77.03179816666666, "lat": 38.9130305, "type": "electric_scooter", "fusion_lon": 0.0, "is_reserved": 0, "bike_id": "e80c8de963198f8ff939ecf75c44bf48", "fusion_lat": 0.0, "is_disabled": 0, "rental_uris": {"ios": "https://dc.lft.to/lastmile_qr_scan", "android": "https://dc.lft.to/lastmile_qr_scan"}}, {"name": "f65c142618c07246c4b2855adebb6c9c", "lon": -77.01820033333334, "lat": 38.9236785, "type": "electric_scooter", "fusion_lon": 0.0, "is_reserved": 0, "bike_id": "f65c142618c07246c4b2855adebb6c9c", "fusion_lat": 0.0, "is_disabled": 0, "rental_uris": {"ios": "https://dc.lft.to/lastmile_qr_scan", "android": "https://dc.lft.to/lastmile_qr_scan"}}, {"name": "b1d00b492d5713cb83fc001c556a2f4a", "lon": -77.072713, "lat": 38.934788, "type": "electric_scooter", "fusion_lon": 0.0, "is_reserved": 0, "bike_id": "b1d00b492d5713cb83fc001c556a2f4a", "fusion_lat": 0.0, "is_disabled": 0, "rental_uris": {"ios": "https://dc.lft.to/lastmile_qr_scan", "android": "https://dc.lft.to/lastmile_qr_scan"}}, {"name": "e941fd746e9cba696c904f7d6e4c3e34", "lon": -77.00073683333333, "lat": 38.9004945, "type": "electric_scooter", "fusion_lon": 0.0, "is_reserved": 0, "bike_id": "e941fd746e9cba696c904f7d6e4c3e34", "fusion_lat": 0.0, "is_disabled": 0, "rental_uris": {"ios": "https://dc.lft.to/lastmile_qr_scan", "android": "https://dc.lft.to/lastmile_qr_scan"}}, {"name": "84fbdfc7b2b75eecb3c25a66b5464bad", "lon": -77.00026783333334, "lat": 38.87390033333333, "type": "electric_scooter", "fusion_lon": 0.0, "is_reserved": 0, "bike_id": "84fbdfc7b2b75eecb3c25a66b5464bad", "fusion_lat": 0.0, "is_disabled": 0, "rental_uris": {"ios": "https://dc.lft.to/lastmile_qr_scan", "android": "https://dc.lft.to/lastmile_qr_scan"}}, {"name": "d8ab48eb1391ae7cd142f2e9d45e6219", "lon": -77.03510416666667, "lat": 38.90075733333333, "type": "electric_scooter", "fusion_lon": 0.0, "is_reserved": 0, "bike_id": "d8ab48eb1391ae7cd142f2e9d45e6219", "fusion_lat": 0.0, "is_disabled": 0, "rental_uris": {"ios": "https://dc.lft.to/lastmile_qr_scan", "android": "https://dc.lft.to/lastmile_qr_scan"}}, {"name": "089f43009d7784b0e8e417323e040439", "lon": -77.03512566666667, "lat": 38.9620315, "type": "electric_bike", "fusion_lon": 0.0, "is_reserved": 0, "bike_id": "089f43009d7784b0e8e417323e040439", "fusion_lat": 0.0, "is_disabled": 0, "rental_uris": {"ios": "https://dc.lft.to/lastmile_qr_scan", "android": "https://dc.lft.to/lastmile_qr_scan"}}, {"name": "677576fee8a2f09db54fe343e7b9f1f6", "lon": -77.01805483333334, "lat": 38.91414233333333, "type": "electric_scooter", "fusion_lon": 0.0, "is_reserved": 0, "bike_id": "677576fee8a2f09db54fe343e7b9f1f6", "fusion_lat": 0.0, "is_disabled": 0, "rental_uris": {"ios": "https://dc.lft.to/lastmile_qr_scan", "android": "https://dc.lft.to/lastmile_qr_scan"}}, {"name": "c0fad238821df3075d93f9a85fdd5225", "lon": -77.07274983333333, "lat": 38.934841, "type": "electric_scooter", "fusion_lon": 0.0, "is_reserved": 0, "bike_id": "c0fad238821df3075d93f9a85fdd5225", "fusion_lat": 0.0, "is_disabled": 0, "rental_uris": {"ios": "https://dc.lft.to/lastmile_qr_scan", "android": "https://dc.lft.to/lastmile_qr_scan"}}, {"name": "50faec7f7c97826b7b94774aacae26f5", "lon": -77.0488405, "lat": 38.912341833333336, "type": "electric_scooter", "fusion_lon": 0.0, "is_reserved": 0, "bike_id": "50faec7f7c97826b7b94774aacae26f5", "fusion_lat": 0.0, "is_disabled": 0, "rental_uris": {"ios": "https://dc.lft.to/lastmile_qr_scan", "android": "https://dc.lft.to/lastmile_qr_scan"}}, {"name": "add2a84c9678dbcd30be9991d2179c8b", "lon": -77.0058335, "lat": 38.8755065, "type": "electric_scooter", "fusion_lon": 0.0, "is_reserved": 0, "bike_id": "add2a84c9678dbcd30be9991d2179c8b", "fusion_lat": 0.0, "is_disabled": 0, "rental_uris": {"ios": "https://dc.lft.to/lastmile_qr_scan", "android": "https://dc.lft.to/lastmile_qr_scan"}}, {"name": "ab0302850d703846b805adba7676fd96", "lon": -77.0239565, "lat": 38.91730783333333, "type": "electric_scooter", "fusion_lon": 0.0, "is_reserved": 0, "bike_id": "ab0302850d703846b805adba7676fd96", "fusion_lat": 0.0, "is_disabled": 0, "rental_uris": {"ios": "https://dc.lft.to/lastmile_qr_scan", "android": "https://dc.lft.to/lastmile_qr_scan"}}, {"name": "b7965ea02821753d5f7f8f796a6b4bbb", "lon": -77.04576033333333, "lat": 38.90267816666667, "type": "electric_scooter", "fusion_lon": 0.0, "is_reserved": 0, "bike_id": "b7965ea02821753d5f7f8f796a6b4bbb", "fusion_lat": 0.0, "is_disabled": 0, "rental_uris": {"ios": "https://dc.lft.to/lastmile_qr_scan", "android": "https://dc.lft.to/lastmile_qr_scan"}}, {"name": "574b75e13438e08d40805837758d3583", "lon": -77.02208483333334, "lat": 38.89614666666667, "type": "electric_scooter", "fusion_lon": 0.0, "is_reserved": 0, "bike_id": "574b75e13438e08d40805837758d3583", "fusion_lat": 0.0, "is_disabled": 0, "rental_uris": {"ios": "https://dc.lft.to/lastmile_qr_scan", "android": "https://dc.lft.to/lastmile_qr_scan"}}, {"name": "6cff8d7769eb3e7bf41b0c2e8efa22ae", "lon": -77.0433095, "lat": 38.89220866666667, "type": "electric_scooter", "fusion_lon": 0.0, "is_reserved": 0, "bike_id": "6cff8d7769eb3e7bf41b0c2e8efa22ae", "fusion_lat": 0.0, "is_disabled": 0, "rental_uris": {"ios": "https://dc.lft.to/lastmile_qr_scan", "android": "https://dc.lft.to/lastmile_qr_scan"}}, {"name": "ddd5a3c11cbf802b97b89d60c91efc75", "lon": -77.00134783333333, "lat": 38.8766625, "type": "electric_scooter", "fusion_lon": 0.0, "is_reserved": 0, "bike_id": "ddd5a3c11cbf802b97b89d60c91efc75", "fusion_lat": 0.0, "is_disabled": 0, "rental_uris": {"ios": "https://dc.lft.to/lastmile_qr_scan", "android": "https://dc.lft.to/lastmile_qr_scan"}}, {"name": "0aacf245e519c29d16760d765f92e40a", "lon": -77.03261866666666, "lat": 38.946278166666666, "type": "electric_scooter", "fusion_lon": 0.0, "is_reserved": 0, "bike_id": "0aacf245e519c29d16760d765f92e40a", "fusion_lat": 0.0, "is_disabled": 0, "rental_uris": {"ios": "https://dc.lft.to/lastmile_qr_scan", "android": "https://dc.lft.to/lastmile_qr_scan"}}, {"name": "d8f5eccb64cf3d068e4c672ec83a48d8", "lon": -76.933721, "lat": 38.8991495, "type": "electric_scooter", "fusion_lon": 0.0, "is_reserved": 0, "bike_id": "d8f5eccb64cf3d068e4c672ec83a48d8", "fusion_lat": 0.0, "is_disabled": 0, "rental_uris": {"ios": "https://dc.lft.to/lastmile_qr_scan", "android": "https://dc.lft.to/lastmile_qr_scan"}}, {"name": "7e230f84a88091b1467f103cd3eb9d29", "lon": -77.005811, "lat": 38.9020665, "type": "electric_scooter", "fusion_lon": 0.0, "is_reserved": 0, "bike_id": "7e230f84a88091b1467f103cd3eb9d29", "fusion_lat": 0.0, "is_disabled": 0, "rental_uris": {"ios": "https://dc.lft.to/lastmile_qr_scan", "android": "https://dc.lft.to/lastmile_qr_scan"}}, {"name": "9e960ea494432fcea8f7b5a37b55535f", "lon": -77.04273316666666, "lat": 38.923081, "type": "electric_scooter", "fusion_lon": 0.0, "is_reserved": 0, "bike_id": "9e960ea494432fcea8f7b5a37b55535f", "fusion_lat": 0.0, "is_disabled": 0, "rental_uris": {"ios": "https://dc.lft.to/lastmile_qr_scan", "android": "https://dc.lft.to/lastmile_qr_scan"}}, {"name": "4d1a28dc358ebba0ae5a801b27a6d961", "lon": -77.0151225, "lat": 38.910490833333334, "type": "electric_scooter", "fusion_lon": 0.0, "is_reserved": 0, "bike_id": "4d1a28dc358ebba0ae5a801b27a6d961", "fusion_lat": 0.0, "is_disabled": 0, "rental_uris": {"ios": "https://dc.lft.to/lastmile_qr_scan", "android": "https://dc.lft.to/lastmile_qr_scan"}}, {"name": "d9cc73e8049e9e917b2836427643e057", "lon": -77.04098983333333, "lat": 38.917765833333334, "type": "electric_scooter", "fusion_lon": 0.0, "is_reserved": 0, "bike_id": "d9cc73e8049e9e917b2836427643e057", "fusion_lat": 0.0, "is_disabled": 0, "rental_uris": {"ios": "https://dc.lft.to/lastmile_qr_scan", "android": "https://dc.lft.to/lastmile_qr_scan"}}, {"name": "134c2077965564d57af914cd2a1af301", "lon": -77.0082315, "lat": 38.897247166666666, "type": "electric_scooter", "fusion_lon": 0.0, "is_reserved": 0, "bike_id": "134c2077965564d57af914cd2a1af301", "fusion_lat": 0.0, "is_disabled": 0, "rental_uris": {"ios": "https://dc.lft.to/lastmile_qr_scan", "android": "https://dc.lft.to/lastmile_qr_scan"}}, {"name": "96e5cf8334cc4d24285bc5d251ed5b19", "lon": -76.98086633333334, "lat": 38.921094, "type": "electric_bike", "fusion_lon": 0.0, "is_reserved": 0, "bike_id": "96e5cf8334cc4d24285bc5d251ed5b19", "fusion_lat": 0.0, "is_disabled": 0, "rental_uris": {"ios": "https://dc.lft.to/lastmile_qr_scan", "android": "https://dc.lft.to/lastmile_qr_scan"}}, {"name": "9c132045e1f845627652f2c3fe0823f5", "lon": -77.0048575, "lat": 38.8747815, "type": "electric_scooter", "fusion_lon": 0.0, "is_reserved": 0, "bike_id": "9c132045e1f845627652f2c3fe0823f5", "fusion_lat": 0.0, "is_disabled": 0, "rental_uris": {"ios": "https://dc.lft.to/lastmile_qr_scan", "android": "https://dc.lft.to/lastmile_qr_scan"}}, {"name": "f3494ff8770844752995338ac7d66f09", "lon": -77.04372383333333, "lat": 38.902063166666665, "type": "electric_scooter", "fusion_lon": 0.0, "is_reserved": 0, "bike_id": "f3494ff8770844752995338ac7d66f09", "fusion_lat": 0.0, "is_disabled": 0, "rental_uris": {"ios": "https://dc.lft.to/lastmile_qr_scan", "android": "https://dc.lft.to/lastmile_qr_scan"}}, {"name": "5247934fd7556cf0eebc6cd12eaf3249", "lon": -76.90969916666667, "lat": 38.854246833333335, "type": "electric_bike", "fusion_lon": 0.0, "is_reserved": 0, "bike_id": "5247934fd7556cf0eebc6cd12eaf3249", "fusion_lat": 0.0, "is_disabled": 0, "rental_uris": {"ios": "https://dc.lft.to/lastmile_qr_scan", "android": "https://dc.lft.to/lastmile_qr_scan"}}, {"name": "933beb8ef98641a1d67124f4b57273cf", "lon": -77.0333255, "lat": 38.8983875, "type": "electric_scooter", "fusion_lon": 0.0, "is_reserved": 0, "bike_id": "933beb8ef98641a1d67124f4b57273cf", "fusion_lat": 0.0, "is_disabled": 0, "rental_uris": {"ios": "https://dc.lft.to/lastmile_qr_scan", "android": "https://dc.lft.to/lastmile_qr_scan"}}, {"name": "59c6afb541adecf752a9b0af2c5a1ae3", "lon": -77.03979566666666, "lat": 38.89887866666667, "type": "electric_scooter", "fusion_lon": 0.0, "is_reserved": 0, "bike_id": "59c6afb541adecf752a9b0af2c5a1ae3", "fusion_lat": 0.0, "is_disabled": 0, "rental_uris": {"ios": "https://dc.lft.to/lastmile_qr_scan", "android": "https://dc.lft.to/lastmile_qr_scan"}}, {"name": "0136159141ea81f98eb45b1242225622", "lon": -77.01670816666666, "lat": 38.881175999999996, "type": "electric_scooter", "fusion_lon": 0.0, "is_reserved": 0, "bike_id": "0136159141ea81f98eb45b1242225622", "fusion_lat": 0.0, "is_disabled": 0, "rental_uris": {"ios": "https://dc.lft.to/lastmile_qr_scan", "android": "https://dc.lft.to/lastmile_qr_scan"}}, {"name": "e5848af198a1761d7a86327217ba9a7a", "lon": -76.98430733333333, "lat": 38.85518416666667, "type": "electric_bike", "fusion_lon": 0.0, "is_reserved": 0, "bike_id": "e5848af198a1761d7a86327217ba9a7a", "fusion_lat": 0.0, "is_disabled": 0, "rental_uris": {"ios": "https://dc.lft.to/lastmile_qr_scan", "android": "https://dc.lft.to/lastmile_qr_scan"}}, {"name": "54de51ce62aaee53558c58f5bf1e277f", "lon": -77.068621, "lat": 38.80574766666667, "type": "electric_bike", "fusion_lon": 0.0, "is_reserved": 0, "bike_id": "54de51ce62aaee53558c58f5bf1e277f", "fusion_lat": 0.0, "is_disabled": 0, "rental_uris": {"ios": "https://dc.lft.to/lastmile_qr_scan", "android": "https://dc.lft.to/lastmile_qr_scan"}}, {"name": "2324ba573c98f432817649e58b252f0f", "lon": -77.0240915, "lat": 38.9162245, "type": "electric_scooter", "fusion_lon": 0.0, "is_reserved": 0, "bike_id": "2324ba573c98f432817649e58b252f0f", "fusion_lat": 0.0, "is_disabled": 0, "rental_uris": {"ios": "https://dc.lft.to/lastmile_qr_scan", "android": "https://dc.lft.to/lastmile_qr_scan"}}, {"name": "f9c40f5a618ee4e992b29b6e932eb4aa", "lon": -77.0463365, "lat": 38.91947066666667, "type": "electric_scooter", "fusion_lon": 0.0, "is_reserved": 0, "bike_id": "f9c40f5a618ee4e992b29b6e932eb4aa", "fusion_lat": 0.0, "is_disabled": 0, "rental_uris": {"ios": "https://dc.lft.to/lastmile_qr_scan", "android": "https://dc.lft.to/lastmile_qr_scan"}}, {"name": "bd713206fa230c08aa36315bfc1fe18c", "lon": -76.93736983333334, "lat": 38.8901935, "type": "electric_scooter", "fusion_lon": 0.0, "is_reserved": 0, "bike_id": "bd713206fa230c08aa36315bfc1fe18c", "fusion_lat": 0.0, "is_disabled": 0, "rental_uris": {"ios": "https://dc.lft.to/lastmile_qr_scan", "android": "https://dc.lft.to/lastmile_qr_scan"}}, {"name": "2e22a1ac3879a3cf9299e0a1e7e1e8b1", "lon": -77.06334283333334, "lat": 38.944199833333336, "type": "electric_scooter", "fusion_lon": 0.0, "is_reserved": 0, "bike_id": "2e22a1ac3879a3cf9299e0a1e7e1e8b1", "fusion_lat": 0.0, "is_disabled": 0, "rental_uris": {"ios": "https://dc.lft.to/lastmile_qr_scan", "android": "https://dc.lft.to/lastmile_qr_scan"}}, {"name": "e1618aab6f4b321a7e5b2764bcfffd6d", "lon": -77.04314366666667, "lat": 38.928807, "type": "electric_bike", "fusion_lon": 0.0, "is_reserved": 0, "bike_id": "e1618aab6f4b321a7e5b2764bcfffd6d", "fusion_lat": 0.0, "is_disabled": 0, "rental_uris": {"ios": "https://dc.lft.to/lastmile_qr_scan", "android": "https://dc.lft.to/lastmile_qr_scan"}}, {"name": "d88575eeef2185799e67f53ce5af1e05", "lon": -76.99257716666666, "lat": 38.862433833333334, "type": "electric_scooter", "fusion_lon": 0.0, "is_reserved": 0, "bike_id": "d88575eeef2185799e67f53ce5af1e05", "fusion_lat": 0.0, "is_disabled": 0, "rental_uris": {"ios": "https://dc.lft.to/lastmile_qr_scan", "android": "https://dc.lft.to/lastmile_qr_scan"}}, {"name": "fd14cc1dd526213b2f1e3588b0a947b7", "lon": -77.010852, "lat": 38.89797216666667, "type": "electric_scooter", "fusion_lon": 0.0, "is_reserved": 0, "bike_id": "fd14cc1dd526213b2f1e3588b0a947b7", "fusion_lat": 0.0, "is_disabled": 0, "rental_uris": {"ios": "https://dc.lft.to/lastmile_qr_scan", "android": "https://dc.lft.to/lastmile_qr_scan"}}, {"name": "f4abf8a2009ebd220f50f3755c5617d1", "lon": -77.02728666666667, "lat": 38.94085233333333, "type": "electric_scooter", "fusion_lon": 0.0, "is_reserved": 0, "bike_id": "f4abf8a2009ebd220f50f3755c5617d1", "fusion_lat": 0.0, "is_disabled": 0, "rental_uris": {"ios": "https://dc.lft.to/lastmile_qr_scan", "android": "https://dc.lft.to/lastmile_qr_scan"}}, {"name": "e4f8b63b2fa2074b95a67be501422baf", "lon": -77.04481683333333, "lat": 38.90135083333333, "type": "electric_scooter", "fusion_lon": 0.0, "is_reserved": 0, "bike_id": "e4f8b63b2fa2074b95a67be501422baf", "fusion_lat": 0.0, "is_disabled": 0, "rental_uris": {"ios": "https://dc.lft.to/lastmile_qr_scan", "android": "https://dc.lft.to/lastmile_qr_scan"}}, {"name": "6a026cf9b47924e20ede1c9fe8d7e7c3", "lon": -77.045297, "lat": 38.902521, "type": "electric_scooter", "fusion_lon": 0.0, "is_reserved": 0, "bike_id": "6a026cf9b47924e20ede1c9fe8d7e7c3", "fusion_lat": 0.0, "is_disabled": 0, "rental_uris": {"ios": "https://dc.lft.to/lastmile_qr_scan", "android": "https://dc.lft.to/lastmile_qr_scan"}}, {"name": "5042aaeeb9d268f13cbe20d738b67506", "lon": -77.04128816666666, "lat": 38.910461, "type": "electric_bike", "fusion_lon": 0.0, "is_reserved": 0, "bike_id": "5042aaeeb9d268f13cbe20d738b67506", "fusion_lat": 0.0, "is_disabled": 0, "rental_uris": {"ios": "https://dc.lft.to/lastmile_qr_scan", "android": "https://dc.lft.to/lastmile_qr_scan"}}, {"name": "2aeb57b2750ce7c70aac4c8dbf1a2670", "lon": -77.0320535, "lat": 38.9216065, "type": "electric_scooter", "fusion_lon": 0.0, "is_reserved": 0, "bike_id": "2aeb57b2750ce7c70aac4c8dbf1a2670", "fusion_lat": 0.0, "is_disabled": 0, "rental_uris": {"ios": "https://dc.lft.to/lastmile_qr_scan", "android": "https://dc.lft.to/lastmile_qr_scan"}}, {"name": "78cf8331f64e71deee0423fcbee50b1a", "lon": -77.06360366666667, "lat": 38.944495, "type": "electric_scooter", "fusion_lon": 0.0, "is_reserved": 0, "bike_id": "78cf8331f64e71deee0423fcbee50b1a", "fusion_lat": 0.0, "is_disabled": 0, "rental_uris": {"ios": "https://dc.lft.to/lastmile_qr_scan", "android": "https://dc.lft.to/lastmile_qr_scan"}}, {"name": "96b1899b31dfaca993a40a399cfeb4da", "lon": -77.0227805, "lat": 38.918475666666666, "type": "electric_scooter", "fusion_lon": 0.0, "is_reserved": 0, "bike_id": "96b1899b31dfaca993a40a399cfeb4da", "fusion_lat": 0.0, "is_disabled": 0, "rental_uris": {"ios": "https://dc.lft.to/lastmile_qr_scan", "android": "https://dc.lft.to/lastmile_qr_scan"}}, {"name": "ca605a8db6d97c9d8a89b033aa395f3d", "lon": -77.03264183333333, "lat": 38.93969583333333, "type": "electric_scooter", "fusion_lon": 0.0, "is_reserved": 0, "bike_id": "ca605a8db6d97c9d8a89b033aa395f3d", "fusion_lat": 0.0, "is_disabled": 0, "rental_uris": {"ios": "https://dc.lft.to/lastmile_qr_scan", "android": "https://dc.lft.to/lastmile_qr_scan"}}, {"name": "6f734629b1015fd9eee63ae84b8e823c", "lon": -76.8954055, "lat": 38.9454805, "type": "electric_bike", "fusion_lon": 0.0, "is_reserved": 0, "bike_id": "6f734629b1015fd9eee63ae84b8e823c", "fusion_lat": 0.0, "is_disabled": 0, "rental_uris": {"ios": "https://dc.lft.to/lastmile_qr_scan", "android": "https://dc.lft.to/lastmile_qr_scan"}}, {"name": "88b426beefdd4bb6718139a96f2f7e6e", "lon": -77.12028616666667, "lat": 38.85510816666667, "type": "electric_bike", "fusion_lon": 0.0, "is_reserved": 0, "bike_id": "88b426beefdd4bb6718139a96f2f7e6e", "fusion_lat": 0.0, "is_disabled": 0, "rental_uris": {"ios": "https://dc.lft.to/lastmile_qr_scan", "android": "https://dc.lft.to/lastmile_qr_scan"}}, {"name": "1b22c14bc7e75fb6c4ee0a9e75ed040d", "lon": -77.02166933333334, "lat": 38.909645833333336, "type": "electric_scooter", "fusion_lon": 0.0, "is_reserved": 0, "bike_id": "1b22c14bc7e75fb6c4ee0a9e75ed040d", "fusion_lat": 0.0, "is_disabled": 0, "rental_uris": {"ios": "https://dc.lft.to/lastmile_qr_scan", "android": "https://dc.lft.to/lastmile_qr_scan"}}, {"name": "0cf130bf45c9b6b3890e4811542b6cee", "lon": -77.03663616666667, "lat": 38.912442166666665, "type": "electric_scooter", "fusion_lon": 0.0, "is_reserved": 0, "bike_id": "0cf130bf45c9b6b3890e4811542b6cee", "fusion_lat": 0.0, "is_disabled": 0, "rental_uris": {"ios": "https://dc.lft.to/lastmile_qr_scan", "android": "https://dc.lft.to/lastmile_qr_scan"}}, {"name": "797c20028aec938906f0b7c8927cd2a2", "lon": -77.04483166666667, "lat": 38.9186875, "type": "electric_scooter", "fusion_lon": 0.0, "is_reserved": 0, "bike_id": "797c20028aec938906f0b7c8927cd2a2", "fusion_lat": 0.0, "is_disabled": 0, "rental_uris": {"ios": "https://dc.lft.to/lastmile_qr_scan", "android": "https://dc.lft.to/lastmile_qr_scan"}}, {"name": "7cb98a471cbabe8c75d1d0e7fa6132b0", "lon": -77.00501966666667, "lat": 38.89686483333333, "type": "electric_scooter", "fusion_lon": 0.0, "is_reserved": 0, "bike_id": "7cb98a471cbabe8c75d1d0e7fa6132b0", "fusion_lat": 0.0, "is_disabled": 0, "rental_uris": {"ios": "https://dc.lft.to/lastmile_qr_scan", "android": "https://dc.lft.to/lastmile_qr_scan"}}, {"name": "a6e52593006ae3eeb535f8fb19ab4624", "lon": -77.01756683333333, "lat": 38.8768735, "type": "electric_scooter", "fusion_lon": 0.0, "is_reserved": 0, "bike_id": "a6e52593006ae3eeb535f8fb19ab4624", "fusion_lat": 0.0, "is_disabled": 0, "rental_uris": {"ios": "https://dc.lft.to/lastmile_qr_scan", "android": "https://dc.lft.to/lastmile_qr_scan"}}, {"name": "17e636f22cae0bf0382f7347d1e1288a", "lon": -77.03855233333333, "lat": 38.910160166666664, "type": "electric_scooter", "fusion_lon": 0.0, "is_reserved": 0, "bike_id": "17e636f22cae0bf0382f7347d1e1288a", "fusion_lat": 0.0, "is_disabled": 0, "rental_uris": {"ios": "https://dc.lft.to/lastmile_qr_scan", "android": "https://dc.lft.to/lastmile_qr_scan"}}, {"name": "057f7f8254444d21f0faf59d89558a09", "lon": -77.00206816666666, "lat": 38.8934625, "type": "electric_scooter", "fusion_lon": 0.0, "is_reserved": 0, "bike_id": "057f7f8254444d21f0faf59d89558a09", "fusion_lat": 0.0, "is_disabled": 0, "rental_uris": {"ios": "https://dc.lft.to/lastmile_qr_scan", "android": "https://dc.lft.to/lastmile_qr_scan"}}, {"name": "93c073370d57e2e131f02dd9524b7343", "lon": -77.04191716666666, "lat": 38.893573833333335, "type": "electric_scooter", "fusion_lon": 0.0, "is_reserved": 0, "bike_id": "93c073370d57e2e131f02dd9524b7343", "fusion_lat": 0.0, "is_disabled": 0, "rental_uris": {"ios": "https://dc.lft.to/lastmile_qr_scan", "android": "https://dc.lft.to/lastmile_qr_scan"}}, {"name": "04613645d0e93462e58febebccffdac5", "lon": -77.045169, "lat": 38.89215516666667, "type": "electric_scooter", "fusion_lon": 0.0, "is_reserved": 0, "bike_id": "04613645d0e93462e58febebccffdac5", "fusion_lat": 0.0, "is_disabled": 0, "rental_uris": {"ios": "https://dc.lft.to/lastmile_qr_scan", "android": "https://dc.lft.to/lastmile_qr_scan"}}, {"name": "36ffa196b78783bd13096bebb474ef24", "lon": -77.06192133333333, "lat": 38.905183, "type": "electric_scooter", "fusion_lon": 0.0, "is_reserved": 0, "bike_id": "36ffa196b78783bd13096bebb474ef24", "fusion_lat": 0.0, "is_disabled": 0, "rental_uris": {"ios": "https://dc.lft.to/lastmile_qr_scan", "android": "https://dc.lft.to/lastmile_qr_scan"}}, {"name": "a32c26b132986272c54a4b7d9af0fb1c", "lon": -77.03909083333333, "lat": 38.917607833333335, "type": "electric_scooter", "fusion_lon": 0.0, "is_reserved": 0, "bike_id": "a32c26b132986272c54a4b7d9af0fb1c", "fusion_lat": 0.0, "is_disabled": 0, "rental_uris": {"ios": "https://dc.lft.to/lastmile_qr_scan", "android": "https://dc.lft.to/lastmile_qr_scan"}}, {"name": "0d8be5bdb63a3ff344b5d2017ae51ec2", "lon": -76.941844, "lat": 38.897526666666664, "type": "electric_scooter", "fusion_lon": 0.0, "is_reserved": 0, "bike_id": "0d8be5bdb63a3ff344b5d2017ae51ec2", "fusion_lat": 0.0, "is_disabled": 0, "rental_uris": {"ios": "https://dc.lft.to/lastmile_qr_scan", "android": "https://dc.lft.to/lastmile_qr_scan"}}, {"name": "ee1ce331f2dae0ffeee2dbd1580cc061", "lon": -77.002118, "lat": 38.90053966666667, "type": "electric_scooter", "fusion_lon": 0.0, "is_reserved": 0, "bike_id": "ee1ce331f2dae0ffeee2dbd1580cc061", "fusion_lat": 0.0, "is_disabled": 0, "rental_uris": {"ios": "https://dc.lft.to/lastmile_qr_scan", "android": "https://dc.lft.to/lastmile_qr_scan"}}, {"name": "df56edab9b8344a70f70e7bd4968ddf6", "lon": -76.96492766666667, "lat": 38.875476666666664, "type": "electric_bike", "fusion_lon": 0.0, "is_reserved": 0, "bike_id": "df56edab9b8344a70f70e7bd4968ddf6", "fusion_lat": 0.0, "is_disabled": 0, "rental_uris": {"ios": "https://dc.lft.to/lastmile_qr_scan", "android": "https://dc.lft.to/lastmile_qr_scan"}}, {"name": "d7e21391179429686c0a7edebb2c2877", "lon": -77.17843033333334, "lat": 39.08853233333333, "type": "electric_bike", "fusion_lon": 0.0, "is_reserved": 0, "bike_id": "d7e21391179429686c0a7edebb2c2877", "fusion_lat": 0.0, "is_disabled": 0, "rental_uris": {"ios": "https://dc.lft.to/lastmile_qr_scan", "android": "https://dc.lft.to/lastmile_qr_scan"}}, {"name": "23ed4d1e3a3616e97418c178a128bdd9", "lon": -77.03266383333333, "lat": 38.935649, "type": "electric_scooter", "fusion_lon": 0.0, "is_reserved": 0, "bike_id": "23ed4d1e3a3616e97418c178a128bdd9", "fusion_lat": 0.0, "is_disabled": 0, "rental_uris": {"ios": "https://dc.lft.to/lastmile_qr_scan", "android": "https://dc.lft.to/lastmile_qr_scan"}}, {"name": "7dac335100b09158207e425d18c558ea", "lon": -76.991649, "lat": 38.898010166666666, "type": "electric_scooter", "fusion_lon": 0.0, "is_reserved": 0, "bike_id": "7dac335100b09158207e425d18c558ea", "fusion_lat": 0.0, "is_disabled": 0, "rental_uris": {"ios": "https://dc.lft.to/lastmile_qr_scan", "android": "https://dc.lft.to/lastmile_qr_scan"}}, {"name": "c2c14ecafffe467a6bd7bf0b28dc124a", "lon": -77.0346535, "lat": 38.90566116666667, "type": "electric_scooter", "fusion_lon": 0.0, "is_reserved": 0, "bike_id": "c2c14ecafffe467a6bd7bf0b28dc124a", "fusion_lat": 0.0, "is_disabled": 0, "rental_uris": {"ios": "https://dc.lft.to/lastmile_qr_scan", "android": "https://dc.lft.to/lastmile_qr_scan"}}, {"name": "c99d8aaf2b1cf03c52baff2e5ee6510f", "lon": -76.95641766666667, "lat": 38.895582, "type": "electric_scooter", "fusion_lon": 0.0, "is_reserved": 0, "bike_id": "c99d8aaf2b1cf03c52baff2e5ee6510f", "fusion_lat": 0.0, "is_disabled": 0, "rental_uris": {"ios": "https://dc.lft.to/lastmile_qr_scan", "android": "https://dc.lft.to/lastmile_qr_scan"}}, {"name": "2912232d95423da10376c0535136f6f7", "lon": -77.08632483333334, "lat": 38.88182716666667, "type": "electric_bike", "fusion_lon": 0.0, "is_reserved": 0, "bike_id": "2912232d95423da10376c0535136f6f7", "fusion_lat": 0.0, "is_disabled": 0, "rental_uris": {"ios": "https://dc.lft.to/lastmile_qr_scan", "android": "https://dc.lft.to/lastmile_qr_scan"}}, {"name": "15b680bc9303d206598c0b5ddcfae724", "lon": -77.032743, "lat": 38.93257583333333, "type": "electric_scooter", "fusion_lon": 0.0, "is_reserved": 0, "bike_id": "15b680bc9303d206598c0b5ddcfae724", "fusion_lat": 0.0, "is_disabled": 0, "rental_uris": {"ios": "https://dc.lft.to/lastmile_qr_scan", "android": "https://dc.lft.to/lastmile_qr_scan"}}, {"name": "0ddbe0c056ed1b6e0c69c92f47a86e14", "lon": -77.0220875, "lat": 38.89990683333333, "type": "electric_scooter", "fusion_lon": 0.0, "is_reserved": 0, "bike_id": "0ddbe0c056ed1b6e0c69c92f47a86e14", "fusion_lat": 0.0, "is_disabled": 0, "rental_uris": {"ios": "https://dc.lft.to/lastmile_qr_scan", "android": "https://dc.lft.to/lastmile_qr_scan"}}, {"name": "49eee80d4d30d8ad37d67ad964cc5f65", "lon": -77.03521133333334, "lat": 38.90663933333333, "type": "electric_scooter", "fusion_lon": 0.0, "is_reserved": 0, "bike_id": "49eee80d4d30d8ad37d67ad964cc5f65", "fusion_lat": 0.0, "is_disabled": 0, "rental_uris": {"ios": "https://dc.lft.to/lastmile_qr_scan", "android": "https://dc.lft.to/lastmile_qr_scan"}}, {"name": "bd023f8426644ab49a7e1a955c983551", "lon": -77.04346866666667, "lat": 38.917043166666666, "type": "electric_scooter", "fusion_lon": 0.0, "is_reserved": 0, "bike_id": "bd023f8426644ab49a7e1a955c983551", "fusion_lat": 0.0, "is_disabled": 0, "rental_uris": {"ios": "https://dc.lft.to/lastmile_qr_scan", "android": "https://dc.lft.to/lastmile_qr_scan"}}, {"name": "92befbca7402c8ebea014033a0e4535d", "lon": -77.0320805, "lat": 38.918068, "type": "electric_scooter", "fusion_lon": 0.0, "is_reserved": 0, "bike_id": "92befbca7402c8ebea014033a0e4535d", "fusion_lat": 0.0, "is_disabled": 0, "rental_uris": {"ios": "https://dc.lft.to/lastmile_qr_scan", "android": "https://dc.lft.to/lastmile_qr_scan"}}, {"name": "338aba50bdaa6557f9bb2b01711cbd10", "lon": -77.05309533333333, "lat": 38.8985125, "type": "electric_scooter", "fusion_lon": 0.0, "is_reserved": 0, "bike_id": "338aba50bdaa6557f9bb2b01711cbd10", "fusion_lat": 0.0, "is_disabled": 0, "rental_uris": {"ios": "https://dc.lft.to/lastmile_qr_scan", "android": "https://dc.lft.to/lastmile_qr_scan"}}, {"name": "885b3fbb3127d757bc90d0c2faa4d77b", "lon": -77.07618966666666, "lat": 38.912719833333334, "type": "electric_scooter", "fusion_lon": 0.0, "is_reserved": 0, "bike_id": "885b3fbb3127d757bc90d0c2faa4d77b", "fusion_lat": 0.0, "is_disabled": 0, "rental_uris": {"ios": "https://dc.lft.to/lastmile_qr_scan", "android": "https://dc.lft.to/lastmile_qr_scan"}}, {"name": "7204090bd66dbf0b215fee124e3900b6", "lon": -76.9954745, "lat": 38.862595666666664, "type": "electric_scooter", "fusion_lon": 0.0, "is_reserved": 0, "bike_id": "7204090bd66dbf0b215fee124e3900b6", "fusion_lat": 0.0, "is_disabled": 0, "rental_uris": {"ios": "https://dc.lft.to/lastmile_qr_scan", "android": "https://dc.lft.to/lastmile_qr_scan"}}, {"name": "dbe142999e09a40c5068f95055e0acc8", "lon": -77.02813333333333, "lat": 38.96075316666666, "type": "electric_scooter", "fusion_lon": 0.0, "is_reserved": 0, "bike_id": "dbe142999e09a40c5068f95055e0acc8", "fusion_lat": 0.0, "is_disabled": 0, "rental_uris": {"ios": "https://dc.lft.to/lastmile_qr_scan", "android": "https://dc.lft.to/lastmile_qr_scan"}}, {"name": "4ed688ea1a1393f96859549925d3cab2", "lon": -77.02121933333333, "lat": 38.935986, "type": "electric_bike", "fusion_lon": 0.0, "is_reserved": 0, "bike_id": "4ed688ea1a1393f96859549925d3cab2", "fusion_lat": 0.0, "is_disabled": 0, "rental_uris": {"ios": "https://dc.lft.to/lastmile_qr_scan", "android": "https://dc.lft.to/lastmile_qr_scan"}}, {"name": "7b0363e87250bfab50d27c81ed6d6b64", "lon": -77.003581, "lat": 38.90748083333333, "type": "electric_scooter", "fusion_lon": 0.0, "is_reserved": 0, "bike_id": "7b0363e87250bfab50d27c81ed6d6b64", "fusion_lat": 0.0, "is_disabled": 0, "rental_uris": {"ios": "https://dc.lft.to/lastmile_qr_scan", "android": "https://dc.lft.to/lastmile_qr_scan"}}, {"name": "c4b92a5ebb8c4e2d7fd84235d7949f15", "lon": -77.00636433333334, "lat": 38.90589933333333, "type": "electric_scooter", "fusion_lon": 0.0, "is_reserved": 0, "bike_id": "c4b92a5ebb8c4e2d7fd84235d7949f15", "fusion_lat": 0.0, "is_disabled": 0, "rental_uris": {"ios": "https://dc.lft.to/lastmile_qr_scan", "android": "https://dc.lft.to/lastmile_qr_scan"}}, {"name": "f7f6856fa2eca25bedbe2e61054c3d5f", "lon": -77.0436115, "lat": 38.898361, "type": "electric_scooter", "fusion_lon": 0.0, "is_reserved": 0, "bike_id": "f7f6856fa2eca25bedbe2e61054c3d5f", "fusion_lat": 0.0, "is_disabled": 0, "rental_uris": {"ios": "https://dc.lft.to/lastmile_qr_scan", "android": "https://dc.lft.to/lastmile_qr_scan"}}, {"name": "82e57c3125184cc1c722e76bc5599b31", "lon": -77.044038, "lat": 38.92031333333333, "type": "electric_scooter", "fusion_lon": 0.0, "is_reserved": 0, "bike_id": "82e57c3125184cc1c722e76bc5599b31", "fusion_lat": 0.0, "is_disabled": 0, "rental_uris": {"ios": "https://dc.lft.to/lastmile_qr_scan", "android": "https://dc.lft.to/lastmile_qr_scan"}}, {"name": "ab6b9e4e688de27e7df305fce96e3e22", "lon": -77.01551616666667, "lat": 38.9441515, "type": "electric_bike", "fusion_lon": 0.0, "is_reserved": 0, "bike_id": "ab6b9e4e688de27e7df305fce96e3e22", "fusion_lat": 0.0, "is_disabled": 0, "rental_uris": {"ios": "https://dc.lft.to/lastmile_qr_scan", "android": "https://dc.lft.to/lastmile_qr_scan"}}, {"name": "4d7d3b1ee0d76c5c29cd1ef76f833774", "lon": -76.98360583333333, "lat": 38.915496833333336, "type": "electric_scooter", "fusion_lon": 0.0, "is_reserved": 0, "bike_id": "4d7d3b1ee0d76c5c29cd1ef76f833774", "fusion_lat": 0.0, "is_disabled": 0, "rental_uris": {"ios": "https://dc.lft.to/lastmile_qr_scan", "android": "https://dc.lft.to/lastmile_qr_scan"}}, {"name": "73552f83102476547507149bb23e2fe1", "lon": -77.007608, "lat": 38.92677033333333, "type": "electric_scooter", "fusion_lon": 0.0, "is_reserved": 0, "bike_id": "73552f83102476547507149bb23e2fe1", "fusion_lat": 0.0, "is_disabled": 0, "rental_uris": {"ios": "https://dc.lft.to/lastmile_qr_scan", "android": "https://dc.lft.to/lastmile_qr_scan"}}, {"name": "581c915d1d3a9f376fa0cd164aa32c70", "lon": -77.12964666666667, "lat": 38.85219083333333, "type": "electric_bike", "fusion_lon": 0.0, "is_reserved": 0, "bike_id": "581c915d1d3a9f376fa0cd164aa32c70", "fusion_lat": 0.0, "is_disabled": 0, "rental_uris": {"ios": "https://dc.lft.to/lastmile_qr_scan", "android": "https://dc.lft.to/lastmile_qr_scan"}}, {"name": "25f2a70a2a32c363912c18276c4cac51", "lon": -77.01915966666667, "lat": 38.92366333333333, "type": "electric_scooter", "fusion_lon": 0.0, "is_reserved": 0, "bike_id": "25f2a70a2a32c363912c18276c4cac51", "fusion_lat": 0.0, "is_disabled": 0, "rental_uris": {"ios": "https://dc.lft.to/lastmile_qr_scan", "android": "https://dc.lft.to/lastmile_qr_scan"}}, {"name": "fc6d921396da85e4b71883292c29e783", "lon": -77.0279515, "lat": 38.930770833333334, "type": "electric_scooter", "fusion_lon": 0.0, "is_reserved": 0, "bike_id": "fc6d921396da85e4b71883292c29e783", "fusion_lat": 0.0, "is_disabled": 0, "rental_uris": {"ios": "https://dc.lft.to/lastmile_qr_scan", "android": "https://dc.lft.to/lastmile_qr_scan"}}, {"name": "eacf198a81d5892c7d38de28b7e22568", "lon": -77.04352783333333, "lat": 38.90773183333334, "type": "electric_scooter", "fusion_lon": 0.0, "is_reserved": 0, "bike_id": "eacf198a81d5892c7d38de28b7e22568", "fusion_lat": 0.0, "is_disabled": 0, "rental_uris": {"ios": "https://dc.lft.to/lastmile_qr_scan", "android": "https://dc.lft.to/lastmile_qr_scan"}}, {"name": "71fa0d4f1808fca0fc3391f705eb6c27", "lon": -77.08939133333334, "lat": 38.86262283333333, "type": "electric_bike", "fusion_lon": 0.0, "is_reserved": 0, "bike_id": "71fa0d4f1808fca0fc3391f705eb6c27", "fusion_lat": 0.0, "is_disabled": 0, "rental_uris": {"ios": "https://dc.lft.to/lastmile_qr_scan", "android": "https://dc.lft.to/lastmile_qr_scan"}}, {"name": "13fc4c2a01a070958b684b7e169fea8a", "lon": -77.03221066666667, "lat": 38.89998466666667, "type": "electric_scooter", "fusion_lon": 0.0, "is_reserved": 0, "bike_id": "13fc4c2a01a070958b684b7e169fea8a", "fusion_lat": 0.0, "is_disabled": 0, "rental_uris": {"ios": "https://dc.lft.to/lastmile_qr_scan", "android": "https://dc.lft.to/lastmile_qr_scan"}}, {"name": "541de3a98b19e2ba798dc3fb0b954ae6", "lon": -77.012224, "lat": 38.86413733333333, "type": "electric_scooter", "fusion_lon": 0.0, "is_reserved": 0, "bike_id": "541de3a98b19e2ba798dc3fb0b954ae6", "fusion_lat": 0.0, "is_disabled": 0, "rental_uris": {"ios": "https://dc.lft.to/lastmile_qr_scan", "android": "https://dc.lft.to/lastmile_qr_scan"}}, {"name": "ac5bf1aa76aac0ded5649d82026d3e27", "lon": -76.99869016666666, "lat": 38.900327, "type": "electric_scooter", "fusion_lon": 0.0, "is_reserved": 0, "bike_id": "ac5bf1aa76aac0ded5649d82026d3e27", "fusion_lat": 0.0, "is_disabled": 0, "rental_uris": {"ios": "https://dc.lft.to/lastmile_qr_scan", "android": "https://dc.lft.to/lastmile_qr_scan"}}, {"name": "760ffa22dc10d6c5d59655d1088a32c1", "lon": -76.9233385, "lat": 38.8710925, "type": "electric_bike", "fusion_lon": 0.0, "is_reserved": 0, "bike_id": "760ffa22dc10d6c5d59655d1088a32c1", "fusion_lat": 0.0, "is_disabled": 0, "rental_uris": {"ios": "https://dc.lft.to/lastmile_qr_scan", "android": "https://dc.lft.to/lastmile_qr_scan"}}, {"name": "ddbaa4c4ee5b910bc18fd12df2c83624", "lon": -77.02887683333333, "lat": 38.90421166666667, "type": "electric_scooter", "fusion_lon": 0.0, "is_reserved": 0, "bike_id": "ddbaa4c4ee5b910bc18fd12df2c83624", "fusion_lat": 0.0, "is_disabled": 0, "rental_uris": {"ios": "https://dc.lft.to/lastmile_qr_scan", "android": "https://dc.lft.to/lastmile_qr_scan"}}, {"name": "4ce9bfb8b03f695c05b7b9d8022c591a", "lon": -77.023848, "lat": 38.91741966666667, "type": "electric_scooter", "fusion_lon": 0.0, "is_reserved": 0, "bike_id": "4ce9bfb8b03f695c05b7b9d8022c591a", "fusion_lat": 0.0, "is_disabled": 0, "rental_uris": {"ios": "https://dc.lft.to/lastmile_qr_scan", "android": "https://dc.lft.to/lastmile_qr_scan"}}, {"name": "2f9b1779dc9fad0e3b318b259020b59c", "lon": -77.05801816666667, "lat": 38.901131, "type": "electric_bike", "fusion_lon": 0.0, "is_reserved": 0, "bike_id": "2f9b1779dc9fad0e3b318b259020b59c", "fusion_lat": 0.0, "is_disabled": 0, "rental_uris": {"ios": "https://dc.lft.to/lastmile_qr_scan", "android": "https://dc.lft.to/lastmile_qr_scan"}}, {"name": "f5618e6c947b058dc6d3c8fb554df5ef", "lon": -77.02174083333334, "lat": 38.9155405, "type": "electric_scooter", "fusion_lon": 0.0, "is_reserved": 0, "bike_id": "f5618e6c947b058dc6d3c8fb554df5ef", "fusion_lat": 0.0, "is_disabled": 0, "rental_uris": {"ios": "https://dc.lft.to/lastmile_qr_scan", "android": "https://dc.lft.to/lastmile_qr_scan"}}, {"name": "cbd63fa83b9d794790f2a2ee1d7dc913", "lon": -77.0335905, "lat": 38.9288805, "type": "electric_scooter", "fusion_lon": 0.0, "is_reserved": 0, "bike_id": "cbd63fa83b9d794790f2a2ee1d7dc913", "fusion_lat": 0.0, "is_disabled": 0, "rental_uris": {"ios": "https://dc.lft.to/lastmile_qr_scan", "android": "https://dc.lft.to/lastmile_qr_scan"}}, {"name": "592e9fe09e71c1d322d9f84f38877158", "lon": -77.05137433333333, "lat": 38.90713816666667, "type": "electric_scooter", "fusion_lon": 0.0, "is_reserved": 0, "bike_id": "592e9fe09e71c1d322d9f84f38877158", "fusion_lat": 0.0, "is_disabled": 0, "rental_uris": {"ios": "https://dc.lft.to/lastmile_qr_scan", "android": "https://dc.lft.to/lastmile_qr_scan"}}, {"name": "70455543c99fd54758935dbab3113b52", "lon": -76.99846866666667, "lat": 38.90003033333333, "type": "electric_scooter", "fusion_lon": 0.0, "is_reserved": 0, "bike_id": "70455543c99fd54758935dbab3113b52", "fusion_lat": 0.0, "is_disabled": 0, "rental_uris": {"ios": "https://dc.lft.to/lastmile_qr_scan", "android": "https://dc.lft.to/lastmile_qr_scan"}}, {"name": "5c58d112b76bffad4c83590e9a3fadd1", "lon": -77.00776716666667, "lat": 38.926714, "type": "electric_scooter", "fusion_lon": 0.0, "is_reserved": 0, "bike_id": "5c58d112b76bffad4c83590e9a3fadd1", "fusion_lat": 0.0, "is_disabled": 0, "rental_uris": {"ios": "https://dc.lft.to/lastmile_qr_scan", "android": "https://dc.lft.to/lastmile_qr_scan"}}, {"name": "76cb600b5a54fc7f36ca1db3698daf79", "lon": -77.0398005, "lat": 38.90366383333333, "type": "electric_scooter", "fusion_lon": 0.0, "is_reserved": 0, "bike_id": "76cb600b5a54fc7f36ca1db3698daf79", "fusion_lat": 0.0, "is_disabled": 0, "rental_uris": {"ios": "https://dc.lft.to/lastmile_qr_scan", "android": "https://dc.lft.to/lastmile_qr_scan"}}, {"name": "d4a0f60ab05a80df5fc55f3a34b1ccc0", "lon": -77.0280275, "lat": 38.932996, "type": "electric_scooter", "fusion_lon": 0.0, "is_reserved": 0, "bike_id": "d4a0f60ab05a80df5fc55f3a34b1ccc0", "fusion_lat": 0.0, "is_disabled": 0, "rental_uris": {"ios": "https://dc.lft.to/lastmile_qr_scan", "android": "https://dc.lft.to/lastmile_qr_scan"}}, {"name": "150385772693ce54c17234fb00ccad03", "lon": -77.02162083333333, "lat": 38.9260655, "type": "electric_scooter", "fusion_lon": 0.0, "is_reserved": 0, "bike_id": "150385772693ce54c17234fb00ccad03", "fusion_lat": 0.0, "is_disabled": 0, "rental_uris": {"ios": "https://dc.lft.to/lastmile_qr_scan", "android": "https://dc.lft.to/lastmile_qr_scan"}}, {"name": "95719ed93d893d999de2376fb4679c0a", "lon": -77.02493866666667, "lat": 38.941845, "type": "electric_scooter", "fusion_lon": 0.0, "is_reserved": 0, "bike_id": "95719ed93d893d999de2376fb4679c0a", "fusion_lat": 0.0, "is_disabled": 0, "rental_uris": {"ios": "https://dc.lft.to/lastmile_qr_scan", "android": "https://dc.lft.to/lastmile_qr_scan"}}, {"name": "038affd4156391fed0e35bc9abbaf87b", "lon": -77.005818, "lat": 38.90267766666667, "type": "electric_bike", "fusion_lon": 0.0, "is_reserved": 0, "bike_id": "038affd4156391fed0e35bc9abbaf87b", "fusion_lat": 0.0, "is_disabled": 0, "rental_uris": {"ios": "https://dc.lft.to/lastmile_qr_scan", "android": "https://dc.lft.to/lastmile_qr_scan"}}, {"name": "251397686929aa105c8883255d4b47e1", "lon": -76.944223, "lat": 38.96619716666667, "type": "electric_bike", "fusion_lon": 0.0, "is_reserved": 0, "bike_id": "251397686929aa105c8883255d4b47e1", "fusion_lat": 0.0, "is_disabled": 0, "rental_uris": {"ios": "https://dc.lft.to/lastmile_qr_scan", "android": "https://dc.lft.to/lastmile_qr_scan"}}, {"name": "64065b4b9b7839ee0d1f9579b76d182f", "lon": -76.967109, "lat": 38.847978499999996, "type": "electric_scooter", "fusion_lon": 0.0, "is_reserved": 0, "bike_id": "64065b4b9b7839ee0d1f9579b76d182f", "fusion_lat": 0.0, "is_disabled": 0, "rental_uris": {"ios": "https://dc.lft.to/lastmile_qr_scan", "android": "https://dc.lft.to/lastmile_qr_scan"}}, {"name": "1e3764815dfaa7c9f78432f411ed98d3", "lon": -76.98533816666666, "lat": 38.91449983333333, "type": "electric_scooter", "fusion_lon": 0.0, "is_reserved": 0, "bike_id": "1e3764815dfaa7c9f78432f411ed98d3", "fusion_lat": 0.0, "is_disabled": 0, "rental_uris": {"ios": "https://dc.lft.to/lastmile_qr_scan", "android": "https://dc.lft.to/lastmile_qr_scan"}}, {"name": "3eb2dfaca74ef36409934ecfdaa48723", "lon": -77.06369266666667, "lat": 38.905234166666666, "type": "electric_scooter", "fusion_lon": 0.0, "is_reserved": 0, "bike_id": "3eb2dfaca74ef36409934ecfdaa48723", "fusion_lat": 0.0, "is_disabled": 0, "rental_uris": {"ios": "https://dc.lft.to/lastmile_qr_scan", "android": "https://dc.lft.to/lastmile_qr_scan"}}, {"name": "4adc1baf804e9e2baa3de037e71a14f9", "lon": -76.98524066666667, "lat": 38.866681, "type": "electric_scooter", "fusion_lon": 0.0, "is_reserved": 0, "bike_id": "4adc1baf804e9e2baa3de037e71a14f9", "fusion_lat": 0.0, "is_disabled": 0, "rental_uris": {"ios": "https://dc.lft.to/lastmile_qr_scan", "android": "https://dc.lft.to/lastmile_qr_scan"}}, {"name": "67426564a820d46f3fb0c4715b65265e", "lon": -77.0450165, "lat": 38.900135166666665, "type": "electric_scooter", "fusion_lon": 0.0, "is_reserved": 0, "bike_id": "67426564a820d46f3fb0c4715b65265e", "fusion_lat": 0.0, "is_disabled": 0, "rental_uris": {"ios": "https://dc.lft.to/lastmile_qr_scan", "android": "https://dc.lft.to/lastmile_qr_scan"}}, {"name": "00d789d9defe48759f5c770c66feed51", "lon": -77.04473833333333, "lat": 38.9186505, "type": "electric_scooter", "fusion_lon": 0.0, "is_reserved": 0, "bike_id": "00d789d9defe48759f5c770c66feed51", "fusion_lat": 0.0, "is_disabled": 0, "rental_uris": {"ios": "https://dc.lft.to/lastmile_qr_scan", "android": "https://dc.lft.to/lastmile_qr_scan"}}, {"name": "493401335570cdddaefaf1e873860f59", "lon": -76.93542083333334, "lat": 38.95558166666667, "type": "electric_bike", "fusion_lon": 0.0, "is_reserved": 0, "bike_id": "493401335570cdddaefaf1e873860f59", "fusion_lat": 0.0, "is_disabled": 0, "rental_uris": {"ios": "https://dc.lft.to/lastmile_qr_scan", "android": "https://dc.lft.to/lastmile_qr_scan"}}, {"name": "37f749ce23dcb2da1514508c4d1bf3af", "lon": -76.9319765, "lat": 38.898786, "type": "electric_scooter", "fusion_lon": 0.0, "is_reserved": 0, "bike_id": "37f749ce23dcb2da1514508c4d1bf3af", "fusion_lat": 0.0, "is_disabled": 0, "rental_uris": {"ios": "https://dc.lft.to/lastmile_qr_scan", "android": "https://dc.lft.to/lastmile_qr_scan"}}, {"name": "6405eeee8ffc6dcc4c19155068a44535", "lon": -77.032594, "lat": 38.90262533333333, "type": "electric_scooter", "fusion_lon": 0.0, "is_reserved": 0, "bike_id": "6405eeee8ffc6dcc4c19155068a44535", "fusion_lat": 0.0, "is_disabled": 0, "rental_uris": {"ios": "https://dc.lft.to/lastmile_qr_scan", "android": "https://dc.lft.to/lastmile_qr_scan"}}, {"name": "9a6f49b16c9e2ec655fd0d87c5550734", "lon": -77.0514825, "lat": 38.905366666666666, "type": "electric_scooter", "fusion_lon": 0.0, "is_reserved": 0, "bike_id": "9a6f49b16c9e2ec655fd0d87c5550734", "fusion_lat": 0.0, "is_disabled": 0, "rental_uris": {"ios": "https://dc.lft.to/lastmile_qr_scan", "android": "https://dc.lft.to/lastmile_qr_scan"}}, {"name": "f642f0e0ff304045d6944fae15d58f44", "lon": -76.974815, "lat": 38.9034965, "type": "electric_scooter", "fusion_lon": 0.0, "is_reserved": 0, "bike_id": "f642f0e0ff304045d6944fae15d58f44", "fusion_lat": 0.0, "is_disabled": 0, "rental_uris": {"ios": "https://dc.lft.to/lastmile_qr_scan", "android": "https://dc.lft.to/lastmile_qr_scan"}}, {"name": "d3c8112b87eb6ea11011c853c3a89091", "lon": -77.00683266666667, "lat": 38.900078666666666, "type": "electric_scooter", "fusion_lon": 0.0, "is_reserved": 0, "bike_id": "d3c8112b87eb6ea11011c853c3a89091", "fusion_lat": 0.0, "is_disabled": 0, "rental_uris": {"ios": "https://dc.lft.to/lastmile_qr_scan", "android": "https://dc.lft.to/lastmile_qr_scan"}}, {"name": "b2b85ec8f366a2df92c3f52d592d9740", "lon": -77.026906, "lat": 38.90870433333333, "type": "electric_scooter", "fusion_lon": 0.0, "is_reserved": 0, "bike_id": "b2b85ec8f366a2df92c3f52d592d9740", "fusion_lat": 0.0, "is_disabled": 0, "rental_uris": {"ios": "https://dc.lft.to/lastmile_qr_scan", "android": "https://dc.lft.to/lastmile_qr_scan"}}, {"name": "ea26c6d07c60039ea0db18cb811fcc01", "lon": -77.0401375, "lat": 38.901075, "type": "electric_scooter", "fusion_lon": 0.0, "is_reserved": 0, "bike_id": "ea26c6d07c60039ea0db18cb811fcc01", "fusion_lat": 0.0, "is_disabled": 0, "rental_uris": {"ios": "https://dc.lft.to/lastmile_qr_scan", "android": "https://dc.lft.to/lastmile_qr_scan"}}, {"name": "0ad8d750267df651d1774e595c84403b", "lon": -77.040429, "lat": 38.9186095, "type": "electric_scooter", "fusion_lon": 0.0, "is_reserved": 0, "bike_id": "0ad8d750267df651d1774e595c84403b", "fusion_lat": 0.0, "is_disabled": 0, "rental_uris": {"ios": "https://dc.lft.to/lastmile_qr_scan", "android": "https://dc.lft.to/lastmile_qr_scan"}}, {"name": "bce2aee6bb1d9860c0c426bac704a83f", "lon": -77.02878333333334, "lat": 39.037503, "type": "electric_scooter", "fusion_lon": 0.0, "is_reserved": 0, "bike_id": "bce2aee6bb1d9860c0c426bac704a83f", "fusion_lat": 0.0, "is_disabled": 0, "rental_uris": {"ios": "https://dc.lft.to/lastmile_qr_scan", "android": "https://dc.lft.to/lastmile_qr_scan"}}, {"name": "9064e9400381aea96e4cd7e4fbc29dc7", "lon": -77.05810033333333, "lat": 38.93506933333333, "type": "electric_scooter", "fusion_lon": 0.0, "is_reserved": 0, "bike_id": "9064e9400381aea96e4cd7e4fbc29dc7", "fusion_lat": 0.0, "is_disabled": 0, "rental_uris": {"ios": "https://dc.lft.to/lastmile_qr_scan", "android": "https://dc.lft.to/lastmile_qr_scan"}}, {"name": "1ab7ae50d08af90a4dd472ed58ea7b83", "lon": -76.97427733333333, "lat": 38.90445883333334, "type": "electric_scooter", "fusion_lon": 0.0, "is_reserved": 0, "bike_id": "1ab7ae50d08af90a4dd472ed58ea7b83", "fusion_lat": 0.0, "is_disabled": 0, "rental_uris": {"ios": "https://dc.lft.to/lastmile_qr_scan", "android": "https://dc.lft.to/lastmile_qr_scan"}}, {"name": "5370dec6f31fa9ed1c7bedaed9332956", "lon": -77.0233695, "lat": 38.924745, "type": "electric_scooter", "fusion_lon": 0.0, "is_reserved": 0, "bike_id": "5370dec6f31fa9ed1c7bedaed9332956", "fusion_lat": 0.0, "is_disabled": 0, "rental_uris": {"ios": "https://dc.lft.to/lastmile_qr_scan", "android": "https://dc.lft.to/lastmile_qr_scan"}}, {"name": "bfe10b282e355c0d5c07de9e3afd1426", "lon": -76.98673333333333, "lat": 38.9097575, "type": "electric_scooter", "fusion_lon": 0.0, "is_reserved": 0, "bike_id": "bfe10b282e355c0d5c07de9e3afd1426", "fusion_lat": 0.0, "is_disabled": 0, "rental_uris": {"ios": "https://dc.lft.to/lastmile_qr_scan", "android": "https://dc.lft.to/lastmile_qr_scan"}}, {"name": "5f0033c7500a1e899c5dc77389ed333f", "lon": -77.027249, "lat": 38.91822, "type": "electric_scooter", "fusion_lon": 0.0, "is_reserved": 0, "bike_id": "5f0033c7500a1e899c5dc77389ed333f", "fusion_lat": 0.0, "is_disabled": 0, "rental_uris": {"ios": "https://dc.lft.to/lastmile_qr_scan", "android": "https://dc.lft.to/lastmile_qr_scan"}}, {"name": "c45f7d48d015efcbec8881979381ad80", "lon": -77.09487466666667, "lat": 39.0304675, "type": "electric_bike", "fusion_lon": 0.0, "is_reserved": 0, "bike_id": "c45f7d48d015efcbec8881979381ad80", "fusion_lat": 0.0, "is_disabled": 0, "rental_uris": {"ios": "https://dc.lft.to/lastmile_qr_scan", "android": "https://dc.lft.to/lastmile_qr_scan"}}, {"name": "afda9143f4875f35b0569639e5424506", "lon": -77.04801983333333, "lat": 38.89221383333334, "type": "electric_scooter", "fusion_lon": 0.0, "is_reserved": 0, "bike_id": "afda9143f4875f35b0569639e5424506", "fusion_lat": 0.0, "is_disabled": 0, "rental_uris": {"ios": "https://dc.lft.to/lastmile_qr_scan", "android": "https://dc.lft.to/lastmile_qr_scan"}}, {"name": "e76f41bb9b8e2a5257ca78d2c19d5d68", "lon": -77.02201283333333, "lat": 38.9095675, "type": "electric_scooter", "fusion_lon": 0.0, "is_reserved": 0, "bike_id": "e76f41bb9b8e2a5257ca78d2c19d5d68", "fusion_lat": 0.0, "is_disabled": 0, "rental_uris": {"ios": "https://dc.lft.to/lastmile_qr_scan", "android": "https://dc.lft.to/lastmile_qr_scan"}}, {"name": "9ceeae7321e44589c34e37d1d7abd46e", "lon": -77.023945, "lat": 38.896226666666664, "type": "electric_scooter", "fusion_lon": 0.0, "is_reserved": 0, "bike_id": "9ceeae7321e44589c34e37d1d7abd46e", "fusion_lat": 0.0, "is_disabled": 0, "rental_uris": {"ios": "https://dc.lft.to/lastmile_qr_scan", "android": "https://dc.lft.to/lastmile_qr_scan"}}, {"name": "fb125c39596acd757febf31ef4c9ac0e", "lon": -77.03209983333333, "lat": 38.91361466666667, "type": "electric_scooter", "fusion_lon": 0.0, "is_reserved": 0, "bike_id": "fb125c39596acd757febf31ef4c9ac0e", "fusion_lat": 0.0, "is_disabled": 0, "rental_uris": {"ios": "https://dc.lft.to/lastmile_qr_scan", "android": "https://dc.lft.to/lastmile_qr_scan"}}, {"name": "d8030880f4365005cb1e4cabc66abc9a", "lon": -77.01615516666666, "lat": 38.8996505, "type": "electric_scooter", "fusion_lon": 0.0, "is_reserved": 0, "bike_id": "d8030880f4365005cb1e4cabc66abc9a", "fusion_lat": 0.0, "is_disabled": 0, "rental_uris": {"ios": "https://dc.lft.to/lastmile_qr_scan", "android": "https://dc.lft.to/lastmile_qr_scan"}}, {"name": "97dd4fa6a742ef7f8996099645544216", "lon": -77.07552916666667, "lat": 38.910458166666665, "type": "electric_bike", "fusion_lon": 0.0, "is_reserved": 0, "bike_id": "97dd4fa6a742ef7f8996099645544216", "fusion_lat": 0.0, "is_disabled": 0, "rental_uris": {"ios": "https://dc.lft.to/lastmile_qr_scan", "android": "https://dc.lft.to/lastmile_qr_scan"}}, {"name": "c3108868394384efab99646b6cde34a1", "lon": -77.029659, "lat": 38.899390333333336, "type": "electric_scooter", "fusion_lon": 0.0, "is_reserved": 0, "bike_id": "c3108868394384efab99646b6cde34a1", "fusion_lat": 0.0, "is_disabled": 0, "rental_uris": {"ios": "https://dc.lft.to/lastmile_qr_scan", "android": "https://dc.lft.to/lastmile_qr_scan"}}, {"name": "f26ed70f713176716a527a77201eebca", "lon": -76.98888033333333, "lat": 38.8664795, "type": "electric_scooter", "fusion_lon": 0.0, "is_reserved": 0, "bike_id": "f26ed70f713176716a527a77201eebca", "fusion_lat": 0.0, "is_disabled": 0, "rental_uris": {"ios": "https://dc.lft.to/lastmile_qr_scan", "android": "https://dc.lft.to/lastmile_qr_scan"}}, {"name": "cef07180d6913d13e1e66504f50b81ce", "lon": -76.93759066666667, "lat": 38.890479666666664, "type": "electric_scooter", "fusion_lon": 0.0, "is_reserved": 0, "bike_id": "cef07180d6913d13e1e66504f50b81ce", "fusion_lat": 0.0, "is_disabled": 0, "rental_uris": {"ios": "https://dc.lft.to/lastmile_qr_scan", "android": "https://dc.lft.to/lastmile_qr_scan"}}, {"name": "33171282caed493186c4e1fa1659d685", "lon": -77.00871066666667, "lat": 38.899688166666664, "type": "electric_scooter", "fusion_lon": 0.0, "is_reserved": 0, "bike_id": "33171282caed493186c4e1fa1659d685", "fusion_lat": 0.0, "is_disabled": 0, "rental_uris": {"ios": "https://dc.lft.to/lastmile_qr_scan", "android": "https://dc.lft.to/lastmile_qr_scan"}}, {"name": "ae11e8f2c97e648986f3900f3c2b0b24", "lon": -77.04315783333334, "lat": 38.92657633333334, "type": "electric_scooter", "fusion_lon": 0.0, "is_reserved": 0, "bike_id": "ae11e8f2c97e648986f3900f3c2b0b24", "fusion_lat": 0.0, "is_disabled": 0, "rental_uris": {"ios": "https://dc.lft.to/lastmile_qr_scan", "android": "https://dc.lft.to/lastmile_qr_scan"}}, {"name": "7ade2a9483a0fde7ea86927c6d860219", "lon": -77.22577933333334, "lat": 38.92969733333334, "type": "electric_bike", "fusion_lon": 0.0, "is_reserved": 0, "bike_id": "7ade2a9483a0fde7ea86927c6d860219", "fusion_lat": 0.0, "is_disabled": 0, "rental_uris": {"ios": "https://dc.lft.to/lastmile_qr_scan", "android": "https://dc.lft.to/lastmile_qr_scan"}}, {"name": "203e4f81db46f8697e4c0197b8a8085c", "lon": -77.0407665, "lat": 38.91784, "type": "electric_scooter", "fusion_lon": 0.0, "is_reserved": 0, "bike_id": "203e4f81db46f8697e4c0197b8a8085c", "fusion_lat": 0.0, "is_disabled": 0, "rental_uris": {"ios": "https://dc.lft.to/lastmile_qr_scan", "android": "https://dc.lft.to/lastmile_qr_scan"}}, {"name": "4ffaee24603e91a029087a81222d93f7", "lon": -77.051249, "lat": 38.9234805, "type": "electric_scooter", "fusion_lon": 0.0, "is_reserved": 0, "bike_id": "4ffaee24603e91a029087a81222d93f7", "fusion_lat": 0.0, "is_disabled": 0, "rental_uris": {"ios": "https://dc.lft.to/lastmile_qr_scan", "android": "https://dc.lft.to/lastmile_qr_scan"}}, {"name": "4bae8b79cf1c5114974819be0f980fb9", "lon": -77.02294666666667, "lat": 38.918402, "type": "electric_scooter", "fusion_lon": 0.0, "is_reserved": 0, "bike_id": "4bae8b79cf1c5114974819be0f980fb9", "fusion_lat": 0.0, "is_disabled": 0, "rental_uris": {"ios": "https://dc.lft.to/lastmile_qr_scan", "android": "https://dc.lft.to/lastmile_qr_scan"}}, {"name": "8ba2689928df7c2e2e3022cb1e303494", "lon": -77.06146683333333, "lat": 38.9023775, "type": "electric_scooter", "fusion_lon": 0.0, "is_reserved": 0, "bike_id": "8ba2689928df7c2e2e3022cb1e303494", "fusion_lat": 0.0, "is_disabled": 0, "rental_uris": {"ios": "https://dc.lft.to/lastmile_qr_scan", "android": "https://dc.lft.to/lastmile_qr_scan"}}, {"name": "b61cde1c0c9050fdcb8c928aacf2fe30", "lon": -77.003692, "lat": 38.88257016666667, "type": "electric_scooter", "fusion_lon": 0.0, "is_reserved": 0, "bike_id": "b61cde1c0c9050fdcb8c928aacf2fe30", "fusion_lat": 0.0, "is_disabled": 0, "rental_uris": {"ios": "https://dc.lft.to/lastmile_qr_scan", "android": "https://dc.lft.to/lastmile_qr_scan"}}, {"name": "e25abbd46bde7bca708f5dd53893cb0b", "lon": -77.00779083333333, "lat": 38.902581166666664, "type": "electric_scooter", "fusion_lon": 0.0, "is_reserved": 0, "bike_id": "e25abbd46bde7bca708f5dd53893cb0b", "fusion_lat": 0.0, "is_disabled": 0, "rental_uris": {"ios": "https://dc.lft.to/lastmile_qr_scan", "android": "https://dc.lft.to/lastmile_qr_scan"}}, {"name": "0ed304c7a3c30bc97e1014a662eb5095", "lon": -76.9887595, "lat": 38.9002875, "type": "electric_scooter", "fusion_lon": 0.0, "is_reserved": 0, "bike_id": "0ed304c7a3c30bc97e1014a662eb5095", "fusion_lat": 0.0, "is_disabled": 0, "rental_uris": {"ios": "https://dc.lft.to/lastmile_qr_scan", "android": "https://dc.lft.to/lastmile_qr_scan"}}, {"name": "eec61b6026326abb318c6c0d7561916a", "lon": -77.04180816666667, "lat": 38.915536833333334, "type": "electric_scooter", "fusion_lon": 0.0, "is_reserved": 0, "bike_id": "eec61b6026326abb318c6c0d7561916a", "fusion_lat": 0.0, "is_disabled": 0, "rental_uris": {"ios": "https://dc.lft.to/lastmile_qr_scan", "android": "https://dc.lft.to/lastmile_qr_scan"}}, {"name": "8832665d9d989fe2594b1e2a50e6de8f", "lon": -77.0058765, "lat": 38.87654583333333, "type": "electric_scooter", "fusion_lon": 0.0, "is_reserved": 0, "bike_id": "8832665d9d989fe2594b1e2a50e6de8f", "fusion_lat": 0.0, "is_disabled": 0, "rental_uris": {"ios": "https://dc.lft.to/lastmile_qr_scan", "android": "https://dc.lft.to/lastmile_qr_scan"}}, {"name": "d830b1fcef033ab8635a22c1c519c393", "lon": -77.0020665, "lat": 38.81939933333334, "type": "electric_bike", "fusion_lon": 0.0, "is_reserved": 0, "bike_id": "d830b1fcef033ab8635a22c1c519c393", "fusion_lat": 0.0, "is_disabled": 0, "rental_uris": {"ios": "https://dc.lft.to/lastmile_qr_scan", "android": "https://dc.lft.to/lastmile_qr_scan"}}, {"name": "c04663aba57013c56759364337cb8f13", "lon": -77.11711233333334, "lat": 38.86746316666667, "type": "electric_bike", "fusion_lon": 0.0, "is_reserved": 0, "bike_id": "c04663aba57013c56759364337cb8f13", "fusion_lat": 0.0, "is_disabled": 0, "rental_uris": {"ios": "https://dc.lft.to/lastmile_qr_scan", "android": "https://dc.lft.to/lastmile_qr_scan"}}, {"name": "1f7a73baaa81992ef84b7de71be7fb53", "lon": -77.05049133333333, "lat": 38.900741333333336, "type": "electric_bike", "fusion_lon": 0.0, "is_reserved": 0, "bike_id": "1f7a73baaa81992ef84b7de71be7fb53", "fusion_lat": 0.0, "is_disabled": 0, "rental_uris": {"ios": "https://dc.lft.to/lastmile_qr_scan", "android": "https://dc.lft.to/lastmile_qr_scan"}}, {"name": "4349091205ccfab93149a5a6e8adca60", "lon": -77.05132116666667, "lat": 38.92360633333333, "type": "electric_scooter", "fusion_lon": 0.0, "is_reserved": 0, "bike_id": "4349091205ccfab93149a5a6e8adca60", "fusion_lat": 0.0, "is_disabled": 0, "rental_uris": {"ios": "https://dc.lft.to/lastmile_qr_scan", "android": "https://dc.lft.to/lastmile_qr_scan"}},