{"data": {"bikes": [{"type": "electric_scooter", "rental_uris": {"ios": "https://dc.lft.to/lastmile_qr_scan", "android": "https://dc.lft.to/lastmile_qr_scan"}, "lon": -77.04347983333334, "fusion_lon": 0.0, "is_disabled": 0, "lat": 38.913406333333334, "bike_id": "b12d90a74ce1367de44c0d1b84866eab", "name": "b12d90a74ce1367de44c0d1b84866eab", "is_reserved": 0, "fusion_lat": 0.0}, {"type": "electric_scooter", "rental_uris": {"ios": "https://dc.lft.to/lastmile_qr_scan", "android": "https://dc.lft.to/lastmile_qr_scan"}, "lon": -77.0770755, "fusion_lon": 0.0, "is_disabled": 0, "lat": 38.94386866666667, "bike_id": "8c90773419611404a1682db39699ea79", "name": "8c90773419611404a1682db39699ea79", "is_reserved": 0, "fusion_lat": 0.0}, {"type": "electric_scooter", "rental_uris": {"ios": "https://dc.lft.to/lastmile_qr_scan", "android": "https://dc.lft.to/lastmile_qr_scan"}, "lon": -76.998269, "fusion_lon": 0.0, "is_disabled": 0, "lat": 38.90018216666667, "bike_id": "57d9442f10ee8e5851085826a6fdfd78", "name": "57d9442f10ee8e5851085826a6fdfd78", "is_reserved": 0, "fusion_lat": 0.0}, {"type": "electric_scooter", "rental_uris": {"ios": "https://dc.lft.to/lastmile_qr_scan", "android": "https://dc.lft.to/lastmile_qr_scan"}, "lon": -77.04414333333334, "fusion_lon": 0.0, "is_disabled": 0, "lat": 38.92128666666667, "bike_id": "a15ba368cc69d650e4b9fd0c553222bb", "name": "a15ba368cc69d650e4b9fd0c553222bb", "is_reserved": 0, "fusion_lat": 0.0}, {"type": "electric_scooter", "rental_uris": {"ios": "https://dc.lft.to/lastmile_qr_scan", "android": "https://dc.lft.to/lastmile_qr_scan"}, "lon": -77.035088, "fusion_lon": 0.0, "is_disabled": 0, "lat": 38.921541166666664, "bike_id": "2b6eabd78d9135041114fbaa78dcbc52", "name": "2b6eabd78d9135041114fbaa78dcbc52", "is_reserved": 0, "fusion_lat": 0.0}, {"type": "electric_bike", "rental_uris": {"ios": "https://dc.lft.to/lastmile_qr_scan", "android": "https://dc.lft.to/lastmile_qr_scan"}, "lon": -77.04928783333334, "fusion_lon": 0.0, "is_disabled": 0, "lat": 39.02932883333333, "bike_id": "447eec3e4dad8eef3fb046ef52f192ea", "name": "447eec3e4dad8eef3fb046ef52f192ea", "is_reserved": 0, "fusion_lat": 0.0}, {"type": "electric_scooter", "rental_uris": {"ios": "https://dc.lft.to/lastmile_qr_scan", "android": "https://dc.lft.to/lastmile_qr_scan"}, "lon": -77.03867166666667, "fusion_lon": 0.0, "is_disabled": 0, "lat": 38.9097445, "bike_id": "db5d109ae55f53ce70fe48b19aa243c3", "name": "db5d109ae55f53ce70fe48b19aa243c3", "is_reserved": 0, "fusion_lat": 0.0}, {"type": "electric_scooter", "rental_uris": {"ios": "https://dc.lft.to/lastmile_qr_scan", "android": "https://dc.lft.to/lastmile_qr_scan"}, "lon": -77.03873033333333, "fusion_lon": 0.0, "is_disabled": 0, "lat": 38.902705166666664, "bike_id": "0f4464b7df0410abca3ac858030b4127", "name": "0f4464b7df0410abca3ac858030b4127", "is_reserved": 0, "fusion_lat": 0.0}, {"type": "electric_bike", "rental_uris": {"ios": "https://dc.lft.to/lastmile_qr_scan", "android": "https://dc.lft.to/lastmile_qr_scan"}, "lon": -77.03892366666666, "fusion_lon": 0.0, "is_disabled": 0, "lat": 38.92331716666666, "bike_id": "06d5fa25767a09816849526f7c3dcc3e", "name": "06d5fa25767a09816849526f7c3dcc3e", "is_reserved": 0, "fusion_lat": 0.0}, {"type": "electric_bike", "rental_uris": {"ios": "https://dc.lft.to/lastmile_qr_scan", "android": "https://dc.lft.to/lastmile_qr_scan"}, "lon": -77.0277345, "fusion_lon": 0.0, "is_disabled": 0, "lat": 38.92903166666667, "bike_id": "c63f580802b967566a9fbe3639c7fdf5", "name": "c63f580802b967566a9fbe3639c7fdf5", "is_reserved": 0, "fusion_lat": 0.0}, {"type": "electric_scooter", "rental_uris": {"ios": "https://dc.lft.to/lastmile_qr_scan", "android": "https://dc.lft.to/lastmile_qr_scan"}, "lon": -77.0269005, "fusion_lon": 0.0, "is_disabled": 0, "lat": 38.90604533333333, "bike_id": "802c2a1b8b769c5923f5c7f4e653cbf0", "name": "802c2a1b8b769c5923f5c7f4e653cbf0", "is_reserved": 0, "fusion_lat": 0.0}, {"type": "electric_scooter", "rental_uris": {"ios": "https://dc.lft.to/lastmile_qr_scan", "android": "https://dc.lft.to/lastmile_qr_scan"}, "lon": -77.02829216666666, "fusion_lon": 0.0, "is_disabled": 0, "lat": 38.93188116666666, "bike_id": "44bc981c2954fb696a8c92a42e7f3620", "name": "44bc981c2954fb696a8c92a42e7f3620", "is_reserved": 0, "fusion_lat": 0.0}, {"type": "electric_bike", "rental_uris": {"ios": "https://dc.lft.to/lastmile_qr_scan", "android": "https://dc.lft.to/lastmile_qr_scan"}, "lon": -77.02385566666666, "fusion_lon": 0.0, "is_disabled": 0, "lat": 38.96277533333333, "bike_id": "5e0ce1418e2c1026955174931bc0d766", "name": "5e0ce1418e2c1026955174931bc0d766", "is_reserved": 0, "fusion_lat": 0.0}, {"type": "electric_scooter", "rental_uris": {"ios": "https://dc.lft.to/lastmile_qr_scan", "android": "https://dc.lft.to/lastmile_qr_scan"}, "lon": -77.0415845, "fusion_lon": 0.0, "is_disabled": 0, "lat": 38.91213716666667, "bike_id": "87ae0268506703941f2e908156647fca", "name": "87ae0268506703941f2e908156647fca", "is_reserved": 0, "fusion_lat": 0.0}, {"type": "electric_bike", "rental_uris": {"ios": "https://dc.lft.to/lastmile_qr_scan", "android": "https://dc.lft.to/lastmile_qr_scan"}, "lon": -77.00797433333334, "fusion_lon": 0.0, "is_disabled": 0, "lat": 38.949142, "bike_id": "93c706d176c5901f7eb0c67fccdf68e7", "name": "93c706d176c5901f7eb0c67fccdf68e7", "is_reserved": 0, "fusion_lat": 0.0}, {"type": "electric_scooter", "rental_uris": {"ios": "https://dc.lft.to/lastmile_qr_scan", "android": "https://dc.lft.to/lastmile_qr_scan"}, "lon": -77.03804566666666, "fusion_lon": 0.0, "is_disabled": 0, "lat": 38.912688333333335, "bike_id": "7adc80eecf0acf609bdc709715487208", "name": "7adc80eecf0acf609bdc709715487208", "is_reserved": 0, "fusion_lat": 0.0}, {"type": "electric_scooter", "rental_uris": {"ios": "https://dc.lft.to/lastmile_qr_scan", "android": "https://dc.lft.to/lastmile_qr_scan"}, "lon": -77.03803433333333, "fusion_lon": 0.0, "is_disabled": 0, "lat": 38.920607333333336, "bike_id": "5748cf3d88931017ee3f7138f485bc40", "name": "5748cf3d88931017ee3f7138f485bc40", "is_reserved": 0, "fusion_lat": 0.0}, {"type": "electric_scooter", "rental_uris": {"ios": "https://dc.lft.to/lastmile_qr_scan", "android": "https://dc.lft.to/lastmile_qr_scan"}, "lon": -77.03151083333333, "fusion_lon": 0.0, "is_disabled": 0, "lat": 38.91564983333333, "bike_id": "fba8fe4bad21e5bfd0934735759a7fe0", "name": "fba8fe4bad21e5bfd0934735759a7fe0", "is_reserved": 0, "fusion_lat": 0.0}, {"type": "electric_scooter", "rental_uris": {"ios": "https://dc.lft.to/lastmile_qr_scan", "android": "https://dc.lft.to/lastmile_qr_scan"}, "lon": -77.03209766666667, "fusion_lon": 0.0, "is_disabled": 0, "lat": 38.91571716666667, "bike_id": "a4dfad47bfaee7dfb4d589065e581f1d", "name": "a4dfad47bfaee7dfb4d589065e581f1d", "is_reserved": 0, "fusion_lat": 0.0}, {"type": "electric_bike", "rental_uris": {"ios": "https://dc.lft.to/lastmile_qr_scan", "android": "https://dc.lft.to/lastmile_qr_scan"}, "lon": -77.11491183333334, "fusion_lon": 0.0, "is_disabled": 0, "lat": 39.069242, "bike_id": "7428997fc09bbe4accd61ee8ea1f003b", "name": "7428997fc09bbe4accd61ee8ea1f003b", "is_reserved": 0, "fusion_lat": 0.0}, {"type": "electric_scooter", "rental_uris": {"ios": "https://dc.lft.to/lastmile_qr_scan", "android": "https://dc.lft.to/lastmile_qr_scan"}, "lon": -77.032931, "fusion_lon": 0.0, "is_disabled": 0, "lat": 38.95644083333333, "bike_id": "ff86390799a4054908c57a989c7cb2a2", "name": "ff86390799a4054908c57a989c7cb2a2", "is_reserved": 0, "fusion_lat": 0.0}, {"type": "electric_scooter", "rental_uris": {"ios": "https://dc.lft.to/lastmile_qr_scan", "android": "https://dc.lft.to/lastmile_qr_scan"}, "lon": -77.05144, "fusion_lon": 0.0, "is_disabled": 0, "lat": 38.90582033333333, "bike_id": "41d4bb6930946766b37e30a1aed04c0a", "name": "41d4bb6930946766b37e30a1aed04c0a", "is_reserved": 0, "fusion_lat": 0.0}, {"type": "electric_scooter", "rental_uris": {"ios": "https://dc.lft.to/lastmile_qr_scan", "android": "https://dc.lft.to/lastmile_qr_scan"}, "lon": -77.024033, "fusion_lon": 0.0, "is_disabled": 0, "lat": 38.92897333333333, "bike_id": "64c6bc3f86622c2b1357bf589aa0c41c", "name": "64c6bc3f86622c2b1357bf589aa0c41c", "is_reserved": 0, "fusion_lat": 0.0}, {"type": "electric_bike", "rental_uris": {"ios": "https://dc.lft.to/lastmile_qr_scan", "android": "https://dc.lft.to/lastmile_qr_scan"}, "lon": -77.09960683333334, "fusion_lon": 0.0, "is_disabled": 0, "lat": 38.93358466666667, "bike_id": "7f77b4f6312cf2c7bb52869cb1beaab4", "name": "7f77b4f6312cf2c7bb52869cb1beaab4", "is_reserved": 0, "fusion_lat": 0.0}, {"type": "electric_scooter", "rental_uris": {"ios": "https://dc.lft.to/lastmile_qr_scan", "android": "https://dc.lft.to/lastmile_qr_scan"}, "lon": -77.04021183333333, "fusion_lon": 0.0, "is_disabled": 0, "lat": 38.9217875, "bike_id": "97e2b7f07c4b4e6f2cd8d4e4394379b9", "name": "97e2b7f07c4b4e6f2cd8d4e4394379b9", "is_reserved": 0, "fusion_lat": 0.0}, {"type": "electric_scooter", "rental_uris": {"ios": "https://dc.lft.to/lastmile_qr_scan", "android": "https://dc.lft.to/lastmile_qr_scan"}, "lon": -77.04162, "fusion_lon": 0.0, "is_disabled": 0, "lat": 38.92797133333333, "bike_id": "53bea3df5060a8d92e23fd4a7c4ef7b0", "name": "53bea3df5060a8d92e23fd4a7c4ef7b0", "is_reserved": 0, "fusion_lat": 0.0}, {"type": "electric_scooter", "rental_uris": {"ios": "https://dc.lft.to/lastmile_qr_scan", "android": "https://dc.lft.to/lastmile_qr_scan"}, "lon": -77.044215, "fusion_lon": 0.0, "is_disabled": 0, "lat": 38.9101155, "bike_id": "8150138e465167f2141630fd8272dacc", "name": "8150138e465167f2141630fd8272dacc", "is_reserved": 0, "fusion_lat": 0.0}, {"type": "electric_scooter", "rental_uris": {"ios": "https://dc.lft.to/lastmile_qr_scan", "android": "https://dc.lft.to/lastmile_qr_scan"}, "lon": -77.03162366666666, "fusion_lon": 0.0, "is_disabled": 0, "lat": 38.923715, "bike_id": "f8ad46178de69344ae97c2847edbf0c3", "name": "f8ad46178de69344ae97c2847edbf0c3", "is_reserved": 0, "fusion_lat": 0.0}, {"type": "electric_scooter", "rental_uris": {"ios": "https://dc.lft.to/lastmile_qr_scan", "android": "https://dc.lft.to/lastmile_qr_scan"}, "lon": -77.02951833333333, "fusion_lon": 0.0, "is_disabled": 0, "lat": 38.92251316666667, "bike_id": "e675ff1595aebf8d11ae7a259b867c38", "name": "e675ff1595aebf8d11ae7a259b867c38", "is_reserved": 0, "fusion_lat": 0.0}, {"type": "electric_scooter", "rental_uris": {"ios": "https://dc.lft.to/lastmile_qr_scan", "android": "https://dc.lft.to/lastmile_qr_scan"}, "lon": -77.03456266666667, "fusion_lon": 0.0, "is_disabled": 0, "lat": 38.93748216666667, "bike_id": "47846fd148389ab08e1d91e9d3aaf373", "name": "47846fd148389ab08e1d91e9d3aaf373", "is_reserved": 0, "fusion_lat": 0.0}, {"type": "electric_scooter", "rental_uris": {"ios": "https://dc.lft.to/lastmile_qr_scan", "android": "https://dc.lft.to/lastmile_qr_scan"}, "lon": -77.03431066666667, "fusion_lon": 0.0, "is_disabled": 0, "lat": 38.90976416666667, "bike_id": "a7bda511ef450e7c34c59f05fd7076a0", "name": "a7bda511ef450e7c34c59f05fd7076a0", "is_reserved": 0, "fusion_lat": 0.0}, {"type": "electric_scooter", "rental_uris": {"ios": "https://dc.lft.to/lastmile_qr_scan", "android": "https://dc.lft.to/lastmile_qr_scan"}, "lon": -77.0391985, "fusion_lon": 0.0, "is_disabled": 0, "lat": 38.9171555, "bike_id": "07487b99f215462cb7b12036156f378b", "name": "07487b99f215462cb7b12036156f378b", "is_reserved": 0, "fusion_lat": 0.0}, {"type": "electric_scooter", "rental_uris": {"ios": "https://dc.lft.to/lastmile_qr_scan", "android": "https://dc.lft.to/lastmile_qr_scan"}, "lon": -77.01410483333333, "fusion_lon": 0.0, "is_disabled": 0, "lat": 38.881192166666665, "bike_id": "1c194bafffbcf32a3d18d9851fc3a7bf", "name": "1c194bafffbcf32a3d18d9851fc3a7bf", "is_reserved": 0, "fusion_lat": 0.0}, {"type": "electric_scooter", "rental_uris": {"ios": "https://dc.lft.to/lastmile_qr_scan", "android": "https://dc.lft.to/lastmile_qr_scan"}, "lon": -77.0243285, "fusion_lon": 0.0, "is_disabled": 0, "lat": 38.918486333333334, "bike_id": "ec750259441894dbd9f6b20e8583b0cf", "name": "ec750259441894dbd9f6b20e8583b0cf", "is_reserved": 0, "fusion_lat": 0.0}, {"type": "electric_scooter", "rental_uris": {"ios": "https://dc.lft.to/lastmile_qr_scan", "android": "https://dc.lft.to/lastmile_qr_scan"}, "lon": -77.02958866666667, "fusion_lon": 0.0, "is_disabled": 0, "lat": 38.92333266666667, "bike_id": "10537d2e4790e73e2d780a036a1a1a68", "name": "10537d2e4790e73e2d780a036a1a1a68", "is_reserved": 0, "fusion_lat": 0.0}, {"type": "electric_scooter", "rental_uris": {"ios": "https://dc.lft.to/lastmile_qr_scan", "android": "https://dc.lft.to/lastmile_qr_scan"}, "lon": -77.04359316666667, "fusion_lon": 0.0, "is_disabled": 0, "lat": 38.9206595, "bike_id": "8402658cf3cb7a83f057f9348763ab5a", "name": "8402658cf3cb7a83f057f9348763ab5a", "is_reserved": 0, "fusion_lat": 0.0}, {"type": "electric_scooter", "rental_uris": {"ios": "https://dc.lft.to/lastmile_qr_scan", "android": "https://dc.lft.to/lastmile_qr_scan"}, "lon": -77.0316455, "fusion_lon": 0.0, "is_disabled": 0, "lat": 38.915566, "bike_id": "41320257c93998ab47b5eee68d16873a", "name": "41320257c93998ab47b5eee68d16873a", "is_reserved": 0, "fusion_lat": 0.0}, {"type": "electric_scooter", "rental_uris": {"ios": "https://dc.lft.to/lastmile_qr_scan", "android": "https://dc.lft.to/lastmile_qr_scan"}, "lon": -77.03483666666666, "fusion_lon": 0.0, "is_disabled": 0, "lat": 38.92479483333334, "bike_id": "9473519bc2cbee7730b18790fec612a9", "name": "9473519bc2cbee7730b18790fec612a9", "is_reserved": 0, "fusion_lat": 0.0}, {"type": "electric_scooter", "rental_uris": {"ios": "https://dc.lft.to/lastmile_qr_scan", "android": "https://dc.lft.to/lastmile_qr_scan"}, "lon": -76.98522416666667, "fusion_lon": 0.0, "is_disabled": 0, "lat": 38.866892166666666, "bike_id": "5bc3eab8b22dd0c9222c026ab1744695", "name": "5bc3eab8b22dd0c9222c026ab1744695", "is_reserved": 0, "fusion_lat": 0.0}, {"type": "electric_scooter", "rental_uris": {"ios": "https://dc.lft.to/lastmile_qr_scan", "android": "https://dc.lft.to/lastmile_qr_scan"}, "lon": -77.02979583333334, "fusion_lon": 0.0, "is_disabled": 0, "lat": 38.91563983333333, "bike_id": "e4151f9c100187676e81e0dd34fb90e2", "name": "e4151f9c100187676e81e0dd34fb90e2", "is_reserved": 0, "fusion_lat": 0.0}, {"type": "electric_scooter", "rental_uris": {"ios": "https://dc.lft.to/lastmile_qr_scan", "android": "https://dc.lft.to/lastmile_qr_scan"}, "lon": -77.03222766666667, "fusion_lon": 0.0, "is_disabled": 0, "lat": 38.8922195, "bike_id": "6ac6507770cf3e0a4febe8af4ff22514", "name": "6ac6507770cf3e0a4febe8af4ff22514", "is_reserved": 0, "fusion_lat": 0.0}, {"type": "electric_scooter", "rental_uris": {"ios": "https://dc.lft.to/lastmile_qr_scan", "android": "https://dc.lft.to/lastmile_qr_scan"}, "lon": -77.04353616666667, "fusion_lon": 0.0, "is_disabled": 0, "lat": 38.908188333333335, "bike_id": "b49530351b2930e2fe1122d672d691c7", "name": "b49530351b2930e2fe1122d672d691c7", "is_reserved": 0, "fusion_lat": 0.0}, {"type": "electric_scooter", "rental_uris": {"ios": "https://dc.lft.to/lastmile_qr_scan", "android": "https://dc.lft.to/lastmile_qr_scan"}, "lon": -77.022226, "fusion_lon": 0.0, "is_disabled": 0, "lat": 38.892218666666665, "bike_id": "7abfe4f39e508ff593d6d3783be45429", "name": "7abfe4f39e508ff593d6d3783be45429", "is_reserved": 0, "fusion_lat": 0.0}, {"type": "electric_bike", "rental_uris": {"ios": "https://dc.lft.to/lastmile_qr_scan", "android": "https://dc.lft.to/lastmile_qr_scan"}, "lon": -77.1172075, "fusion_lon": 0.0, "is_disabled": 0, "lat": 39.054581666666664, "bike_id": "1974d91b23ae93d4d46fdcd2285db1b9", "name": "1974d91b23ae93d4d46fdcd2285db1b9", "is_reserved": 0, "fusion_lat": 0.0}, {"type": "electric_scooter", "rental_uris": {"ios": "https://dc.lft.to/lastmile_qr_scan", "android": "https://dc.lft.to/lastmile_qr_scan"}, "lon": -77.00188933333334, "fusion_lon": 0.0, "is_disabled": 0, "lat": 38.900442166666664, "bike_id": "76a10ec7b9d097037005950757eaea14", "name": "76a10ec7b9d097037005950757eaea14", "is_reserved": 0, "fusion_lat": 0.0}, {"type": "electric_scooter", "rental_uris": {"ios": "https://dc.lft.to/lastmile_qr_scan", "android": "https://dc.lft.to/lastmile_qr_scan"}, "lon": -77.02837233333334, "fusion_lon": 0.0, "is_disabled": 0, "lat": 38.932804833333336, "bike_id": "8e677a6148abe8a515482dc01c2ace18", "name": "8e677a6148abe8a515482dc01c2ace18", "is_reserved": 0, "fusion_lat": 0.0}, {"type": "electric_scooter", "rental_uris": {"ios": "https://dc.lft.to/lastmile_qr_scan", "android": "https://dc.lft.to/lastmile_qr_scan"}, "lon": -77.0311965, "fusion_lon": 0.0, "is_disabled": 0, "lat": 38.920285166666666, "bike_id": "a268cb7c4af3c092253f7b42db481bb5", "name": "a268cb7c4af3c092253f7b42db481bb5", "is_reserved": 0, "fusion_lat": 0.0}, {"type": "electric_scooter", "rental_uris": {"ios": "https://dc.lft.to/lastmile_qr_scan", "android": "https://dc.lft.to/lastmile_qr_scan"}, "lon": -77.03910766666667, "fusion_lon": 0.0, "is_disabled": 0, "lat": 38.91818266666667, "bike_id": "f3746a53439e0cbd8c9c9eb95dd0212f", "name": "f3746a53439e0cbd8c9c9eb95dd0212f", "is_reserved": 0, "fusion_lat": 0.0}, {"type": "electric_scooter", "rental_uris": {"ios": "https://dc.lft.to/lastmile_qr_scan", "android": "https://dc.lft.to/lastmile_qr_scan"}, "lon": -77.07680216666667, "fusion_lon": 0.0, "is_disabled": 0, "lat": 38.942297833333335, "bike_id": "8c750a35d6e8743d5e2642ede7208158", "name": "8c750a35d6e8743d5e2642ede7208158", "is_reserved": 0, "fusion_lat": 0.0}, {"type": "electric_scooter", "rental_uris": {"ios": "https://dc.lft.to/lastmile_qr_scan", "android": "https://dc.lft.to/lastmile_qr_scan"}, "lon": -77.04441516666667, "fusion_lon": 0.0, "is_disabled": 0, "lat": 38.90991266666666, "bike_id": "e0b1fa7e996a745a6c2008c1abb249df", "name": "e0b1fa7e996a745a6c2008c1abb249df", "is_reserved": 0, "fusion_lat": 0.0}, {"type": "electric_scooter", "rental_uris": {"ios": "https://dc.lft.to/lastmile_qr_scan", "android": "https://dc.lft.to/lastmile_qr_scan"}, "lon": -77.02334083333334, "fusion_lon": 0.0, "is_disabled": 0, "lat": 38.91769166666667, "bike_id": "b901b609acf04318a4167979a913c163", "name": "b901b609acf04318a4167979a913c163", "is_reserved": 0, "fusion_lat": 0.0}, {"type": "electric_scooter", "rental_uris": {"ios": "https://dc.lft.to/lastmile_qr_scan", "android": "https://dc.lft.to/lastmile_qr_scan"}, "lon": -77.03182483333333, "fusion_lon": 0.0, "is_disabled": 0, "lat": 38.8923415, "bike_id": "2a0e1dde8c82c76f166c657368b0ed9c", "name": "2a0e1dde8c82c76f166c657368b0ed9c", "is_reserved": 0, "fusion_lat": 0.0}, {"type": "electric_scooter", "rental_uris": {"ios": "https://dc.lft.to/lastmile_qr_scan", "android": "https://dc.lft.to/lastmile_qr_scan"}, "lon": -77.03659366666666, "fusion_lon": 0.0, "is_disabled": 0, "lat": 38.920266, "bike_id": "a45944b1e2929293df8746e9ec1670ed", "name": "a45944b1e2929293df8746e9ec1670ed", "is_reserved": 0, "fusion_lat": 0.0}, {"type": "electric_scooter", "rental_uris": {"ios": "https://dc.lft.to/lastmile_qr_scan", "android": "https://dc.lft.to/lastmile_qr_scan"}, "lon": -77.04912483333334, "fusion_lon": 0.0, "is_disabled": 0, "lat": 38.90086983333333, "bike_id": "e284f0a39997820367c802fa68f171c4", "name": "e284f0a39997820367c802fa68f171c4", "is_reserved": 0, "fusion_lat": 0.0}, {"type": "electric_scooter", "rental_uris": {"ios": "https://dc.lft.to/lastmile_qr_scan", "android": "https://dc.lft.to/lastmile_qr_scan"}, "lon": -76.99029933333334, "fusion_lon": 0.0, "is_disabled": 0, "lat": 38.89146816666667, "bike_id": "de367cebd7bfe02092374eee24391bd9", "name": "de367cebd7bfe02092374eee24391bd9", "is_reserved": 0, "fusion_lat": 0.0}, {"type": "electric_scooter", "rental_uris": {"ios": "https://dc.lft.to/lastmile_qr_scan", "android": "https://dc.lft.to/lastmile_qr_scan"}, "lon": -77.04071666666667, "fusion_lon": 0.0, "is_disabled": 0, "lat": 38.91414183333333, "bike_id": "389b137e60e0e4ffbab5c96105211ede", "name": "389b137e60e0e4ffbab5c96105211ede", "is_reserved": 0, "fusion_lat": 0.0}, {"type": "electric_scooter", "rental_uris": {"ios": "https://dc.lft.to/lastmile_qr_scan", "android": "https://dc.lft.to/lastmile_qr_scan"}, "lon": -77.04682433333333, "fusion_lon": 0.0, "is_disabled": 0, "lat": 38.91585383333334, "bike_id": "c06c2917463b0c68b8a375ac7b78ee65", "name": "c06c2917463b0c68b8a375ac7b78ee65", "is_reserved": 0, "fusion_lat": 0.0}, {"type": "electric_scooter", "rental_uris": {"ios": "https://dc.lft.to/lastmile_qr_scan", "android": "https://dc.lft.to/lastmile_qr_scan"}, "lon": -77.04894533333334, "fusion_lon": 0.0, "is_disabled": 0, "lat": 38.89221633333333, "bike_id": "ef4b4ee9f50e104dd57136bbeb58bd7d", "name": "ef4b4ee9f50e104dd57136bbeb58bd7d", "is_reserved": 0, "fusion_lat": 0.0}, {"type": "electric_scooter", "rental_uris": {"ios": "https://dc.lft.to/lastmile_qr_scan", "android": "https://dc.lft.to/lastmile_qr_scan"}, "lon": -76.97949616666666, "fusion_lon": 0.0, "is_disabled": 0, "lat": 38.916967, "bike_id": "4f9a5834672d46eae2cfcc89a3c2ea8a", "name": "4f9a5834672d46eae2cfcc89a3c2ea8a", "is_reserved": 0, "fusion_lat": 0.0}, {"type": "electric_scooter", "rental_uris": {"ios": "https://dc.lft.to/lastmile_qr_scan", "android": "https://dc.lft.to/lastmile_qr_scan"}, "lon": -77.03443, "fusion_lon": 0.0, "is_disabled": 0, "lat": 38.90735183333334, "bike_id": "3bd3c44f91f83d3ed60cb7e9a18088c4", "name": "3bd3c44f91f83d3ed60cb7e9a18088c4", "is_reserved": 0, "fusion_lat": 0.0}, {"type": "electric_scooter", "rental_uris": {"ios": "https://dc.lft.to/lastmile_qr_scan", "android": "https://dc.lft.to/lastmile_qr_scan"}, "lon": -77.05084216666667, "fusion_lon": 0.0, "is_disabled": 0, "lat": 38.90419216666667, "bike_id": "53cd1c9a43d81f95374ef48a5c879ce8", "name": "53cd1c9a43d81f95374ef48a5c879ce8", "is_reserved": 0, "fusion_lat": 0.0}, {"type": "electric_bike", "rental_uris": {"ios": "https://dc.lft.to/lastmile_qr_scan", "android": "https://dc.lft.to/lastmile_qr_scan"}, "lon": -77.11060966666666, "fusion_lon": 0.0, "is_disabled": 0, "lat": 38.87093466666666, "bike_id": "8fa22057bbdcbfecbb276b99166769fe", "name": "8fa22057bbdcbfecbb276b99166769fe", "is_reserved": 0, "fusion_lat": 0.0}, {"type": "electric_scooter", "rental_uris": {"ios": "https://dc.lft.to/lastmile_qr_scan", "android": "https://dc.lft.to/lastmile_qr_scan"}, "lon": -77.03219666666666, "fusion_lon": 0.0, "is_disabled": 0, "lat": 38.909628, "bike_id": "b40bd6f14e81fd95ca25d5a2b577096f", "name": "b40bd6f14e81fd95ca25d5a2b577096f", "is_reserved": 0, "fusion_lat": 0.0}, {"type": "electric_scooter", "rental_uris": {"ios": "https://dc.lft.to/lastmile_qr_scan", "android": "https://dc.lft.to/lastmile_qr_scan"}, "lon": -77.0321295, "fusion_lon": 0.0, "is_disabled": 0, "lat": 38.91800166666667, "bike_id": "1cf55d90df72812470212509613770b0", "name": "1cf55d90df72812470212509613770b0", "is_reserved": 0, "fusion_lat": 0.0}, {"type": "electric_scooter", "rental_uris": {"ios": "https://dc.lft.to/lastmile_qr_scan", "android": "https://dc.lft.to/lastmile_qr_scan"}, "lon": -77.02606433333334, "fusion_lon": 0.0, "is_disabled": 0, "lat": 38.9012985, "bike_id": "1f42c1611d20488c3d4c0414ce0c1098", "name": "1f42c1611d20488c3d4c0414ce0c1098", "is_reserved": 0, "fusion_lat": 0.0}, {"type": "electric_scooter", "rental_uris": {"ios": "https://dc.lft.to/lastmile_qr_scan", "android": "https://dc.lft.to/lastmile_qr_scan"}, "lon": -77.03181133333334, "fusion_lon": 0.0, "is_disabled": 0, "lat": 38.919165, "bike_id": "83bb76503beca94d4c64f5ba847db55b", "name": "83bb76503beca94d4c64f5ba847db55b", "is_reserved": 0, "fusion_lat": 0.0}, {"type": "electric_scooter", "rental_uris": {"ios": "https://dc.lft.to/lastmile_qr_scan", "android": "https://dc.lft.to/lastmile_qr_scan"}, "lon": -76.999092, "fusion_lon": 0.0, "is_disabled": 0, "lat": 38.948187833333336, "bike_id": "4282dc20368219a42586fb305c6b2e04", "name": "4282dc20368219a42586fb305c6b2e04", "is_reserved": 0, "fusion_lat": 0.0}, {"type": "electric_scooter", "rental_uris": {"ios": "https://dc.lft.to/lastmile_qr_scan", "android": "https://dc.lft.to/lastmile_qr_scan"}, "lon": -77.01620683333333, "fusion_lon": 0.0, "is_disabled": 0, "lat": 38.916063, "bike_id": "965a3de4c9cc066dbf0a0fe8cbd3cc33", "name": "965a3de4c9cc066dbf0a0fe8cbd3cc33", "is_reserved": 0, "fusion_lat": 0.0}, {"type": "electric_bike", "rental_uris": {"ios": "https://dc.lft.to/lastmile_qr_scan", "android": "https://dc.lft.to/lastmile_qr_scan"}, "lon": -77.01282266666666, "fusion_lon": 0.0, "is_disabled": 0, "lat": 38.9566535, "bike_id": "008d0d156df6ccd5762f7c2515cadb72", "name": "008d0d156df6ccd5762f7c2515cadb72", "is_reserved": 0, "fusion_lat": 0.0}, {"type": "electric_scooter", "rental_uris": {"ios": "https://dc.lft.to/lastmile_qr_scan", "android": "https://dc.lft.to/lastmile_qr_scan"}, "lon": -77.05552983333334, "fusion_lon": 0.0, "is_disabled": 0, "lat": 38.9341865, "bike_id": "29c3ad1b3fc814e96ea296b3e5d4a8e5", "name": "29c3ad1b3fc814e96ea296b3e5d4a8e5", "is_reserved": 0, "fusion_lat": 0.0}, {"type": "electric_bike", "rental_uris": {"ios": "https://dc.lft.to/lastmile_qr_scan", "android": "https://dc.lft.to/lastmile_qr_scan"}, "lon": -77.049256, "fusion_lon": 0.0, "is_disabled": 0, "lat": 38.81343, "bike_id": "5794b2061db5738fe83ce87ed42048fd", "name": "5794b2061db5738fe83ce87ed42048fd", "is_reserved": 0, "fusion_lat": 0.0}, {"type": "electric_scooter", "rental_uris": {"ios": "https://dc.lft.to/lastmile_qr_scan", "android": "https://dc.lft.to/lastmile_qr_scan"}, "lon": -77.052365, "fusion_lon": 0.0, "is_disabled": 0, "lat": 38.92470866666667, "bike_id": "c6cc622263b50ad0b6b35dcb054ce6f8", "name": "c6cc622263b50ad0b6b35dcb054ce6f8", "is_reserved": 0, "fusion_lat": 0.0}, {"type": "electric_scooter", "rental_uris": {"ios": "https://dc.lft.to/lastmile_qr_scan", "android": "https://dc.lft.to/lastmile_qr_scan"}, "lon": -77.034901, "fusion_lon": 0.0, "is_disabled": 0, "lat": 38.91929316666667, "bike_id": "a2e8ac618f50d4a16ede5daf1b200475", "name": "a2e8ac618f50d4a16ede5daf1b200475", "is_reserved": 0, "fusion_lat": 0.0}, {"type": "electric_scooter", "rental_uris": {"ios": "https://dc.lft.to/lastmile_qr_scan", "android": "https://dc.lft.to/lastmile_qr_scan"}, "lon": -77.0316405, "fusion_lon": 0.0, "is_disabled": 0, "lat": 38.91557516666667, "bike_id": "09c3fa040a3dee8052e284f306603b00", "name": "09c3fa040a3dee8052e284f306603b00", "is_reserved": 0, "fusion_lat": 0.0}, {"type": "electric_scooter", "rental_uris": {"ios": "https://dc.lft.to/lastmile_qr_scan", "android": "https://dc.lft.to/lastmile_qr_scan"}, "lon": -77.05716433333333, "fusion_lon": 0.0, "is_disabled": 0, "lat": 38.9336675, "bike_id": "15d29716cc25740e0fed4bd50d5a40fc", "name": "15d29716cc25740e0fed4bd50d5a40fc", "is_reserved": 0, "fusion_lat": 0.0}, {"type": "electric_scooter", "rental_uris": {"ios": "https://dc.lft.to/lastmile_qr_scan", "android": "https://dc.lft.to/lastmile_qr_scan"}, "lon": -77.03673566666667, "fusion_lon": 0.0, "is_disabled": 0, "lat": 38.9180735, "bike_id": "12ba0874197bd9327e09c9f2e56fe708", "name": "12ba0874197bd9327e09c9f2e56fe708", "is_reserved": 0, "fusion_lat": 0.0}, {"type": "electric_scooter", "rental_uris": {"ios": "https://dc.lft.to/lastmile_qr_scan", "android": "https://dc.lft.to/lastmile_qr_scan"}, "lon": -77.02693366666666, "fusion_lon": 0.0, "is_disabled": 0, "lat": 38.911284, "bike_id": "cddf5e7020015327b6a2c1df6231b2ca", "name": "cddf5e7020015327b6a2c1df6231b2ca", "is_reserved": 0, "fusion_lat": 0.0}, {"type": "electric_scooter", "rental_uris": {"ios": "https://dc.lft.to/lastmile_qr_scan", "android": "https://dc.lft.to/lastmile_qr_scan"}, "lon": -77.03184183333333, "fusion_lon": 0.0, "is_disabled": 0, "lat": 38.916817333333334, "bike_id": "24e706c44c9410d763784c55f305ea86", "name": "24e706c44c9410d763784c55f305ea86", "is_reserved": 0, "fusion_lat": 0.0}, {"type": "electric_bike", "rental_uris": {"ios": "https://dc.lft.to/lastmile_qr_scan", "android": "https://dc.lft.to/lastmile_qr_scan"}, "lon": -76.987479, "fusion_lon": 0.0, "is_disabled": 0, "lat": 38.85800716666667, "bike_id": "4365450d97d9d3f8fee67c092911c7ee", "name": "4365450d97d9d3f8fee67c092911c7ee", "is_reserved": 0, "fusion_lat": 0.0}, {"type": "electric_scooter", "rental_uris": {"ios": "https://dc.lft.to/lastmile_qr_scan", "android": "https://dc.lft.to/lastmile_qr_scan"}, "lon": -77.0020245, "fusion_lon": 0.0, "is_disabled": 0, "lat": 38.90027216666667, "bike_id": "ab5c13191725778b1c428fdf71dc57cf", "name": "ab5c13191725778b1c428fdf71dc57cf", "is_reserved": 0, "fusion_lat": 0.0}, {"type": "electric_scooter", "rental_uris": {"ios": "https://dc.lft.to/lastmile_qr_scan", "android": "https://dc.lft.to/lastmile_qr_scan"}, "lon": -77.02764166666667, "fusion_lon": 0.0, "is_disabled": 0, "lat": 38.90729483333333, "bike_id": "5d021e127a19b21ba212950697e83a90", "name": "5d021e127a19b21ba212950697e83a90", "is_reserved": 0, "fusion_lat": 0.0}, {"type": "electric_scooter", "rental_uris": {"ios": "https://dc.lft.to/lastmile_qr_scan", "android": "https://dc.lft.to/lastmile_qr_scan"}, "lon": -77.06304633333333, "fusion_lon": 0.0, "is_disabled": 0, "lat": 38.903348, "bike_id": "c1f85a19ec04ac87c22ca4d1cf276f16", "name": "c1f85a19ec04ac87c22ca4d1cf276f16", "is_reserved": 0, "fusion_lat": 0.0}, {"type": "electric_scooter", "rental_uris": {"ios": "https://dc.lft.to/lastmile_qr_scan", "android": "https://dc.lft.to/lastmile_qr_scan"}, "lon": -77.00468533333333, "fusion_lon": 0.0, "is_disabled": 0, "lat": 38.9115385, "bike_id": "1f72d007ec3e4855eb93f5a823aec201", "name": "1f72d007ec3e4855eb93f5a823aec201", "is_reserved": 0, "fusion_lat": 0.0}, {"type": "electric_scooter", "rental_uris": {"ios": "https://dc.lft.to/lastmile_qr_scan", "android": "https://dc.lft.to/lastmile_qr_scan"}, "lon": -77.03657483333333, "fusion_lon": 0.0, "is_disabled": 0, "lat": 38.922998166666666, "bike_id": "c441cd1f114b1fdff829b6058cd104fc", "name": "c441cd1f114b1fdff829b6058cd104fc", "is_reserved": 0, "fusion_lat": 0.0}, {"type": "electric_scooter", "rental_uris": {"ios": "https://dc.lft.to/lastmile_qr_scan", "android": "https://dc.lft.to/lastmile_qr_scan"}, "lon": -77.0398495, "fusion_lon": 0.0, "is_disabled": 0, "lat": 38.89222, "bike_id": "e1501defbb892072144082d47456e375", "name": "e1501defbb892072144082d47456e375", "is_reserved": 0, "fusion_lat": 0.0}, {"type": "electric_scooter", "rental_uris": {"ios": "https://dc.lft.to/lastmile_qr_scan", "android": "https://dc.lft.to/lastmile_qr_scan"}, "lon": -77.04327516666666, "fusion_lon": 0.0, "is_disabled": 0, "lat": 38.89224733333333, "bike_id": "505a03d89faa2c6e91adc2f482e3db6b", "name": "505a03d89faa2c6e91adc2f482e3db6b", "is_reserved": 0, "fusion_lat": 0.0}, {"type": "electric_scooter", "rental_uris": {"ios": "https://dc.lft.to/lastmile_qr_scan", "android": "https://dc.lft.to/lastmile_qr_scan"}, "lon": -77.01721633333334, "fusion_lon": 0.0, "is_disabled": 0, "lat": 38.915854, "bike_id": "21e85d6a3cadc3c4a5e3f1777d96a952", "name": "21e85d6a3cadc3c4a5e3f1777d96a952", "is_reserved": 0, "fusion_lat": 0.0}, {"type": "electric_scooter", "rental_uris": {"ios": "https://dc.lft.to/lastmile_qr_scan", "android": "https://dc.lft.to/lastmile_qr_scan"}, "lon": -77.0417425, "fusion_lon": 0.0, "is_disabled": 0, "lat": 38.91801433333333, "bike_id": "4312616a1c8a2ef695ae974a45417c91", "name": "4312616a1c8a2ef695ae974a45417c91", "is_reserved": 0, "fusion_lat": 0.0}, {"type": "electric_scooter", "rental_uris": {"ios": "https://dc.lft.to/lastmile_qr_scan", "android": "https://dc.lft.to/lastmile_qr_scan"}, "lon": -77.02444133333333, "fusion_lon": 0.0, "is_disabled": 0, "lat": 38.9183605, "bike_id": "79a1677e9cc88c23d606578ec29a2e54", "name": "79a1677e9cc88c23d606578ec29a2e54", "is_reserved": 0, "fusion_lat": 0.0}, {"type": "electric_scooter", "rental_uris": {"ios": "https://dc.lft.to/lastmile_qr_scan", "android": "https://dc.lft.to/lastmile_qr_scan"}, "lon": -77.00407983333334, "fusion_lon": 0.0, "is_disabled": 0, "lat": 38.876698, "bike_id": "08c0bf85a9dd1e6f5ec09f78171d9b4f", "name": "08c0bf85a9dd1e6f5ec09f78171d9b4f", "is_reserved": 0, "fusion_lat": 0.0}, {"type": "electric_scooter", "rental_uris": {"ios": "https://dc.lft.to/lastmile_qr_scan", "android": "https://dc.lft.to/lastmile_qr_scan"}, "lon": -77.02709716666666, "fusion_lon": 0.0, "is_disabled": 0, "lat": 38.904413166666664, "bike_id": "d2029dcb217664dea2bc626ea7beabc9", "name": "d2029dcb217664dea2bc626ea7beabc9", "is_reserved": 0, "fusion_lat": 0.0}, {"type": "electric_scooter", "rental_uris": {"ios": "https://dc.lft.to/lastmile_qr_scan", "android": "https://dc.lft.to/lastmile_qr_scan"}, "lon": -77.03225466666666, "fusion_lon": 0.0, "is_disabled": 0, "lat": 38.90981383333333, "bike_id": "17c87eae9ff08b2102af88cb505c35ed", "name": "17c87eae9ff08b2102af88cb505c35ed", "is_reserved": 0, "fusion_lat": 0.0}, {"type": "electric_bike", "rental_uris": {"ios": "https://dc.lft.to/lastmile_qr_scan", "android": "https://dc.lft.to/lastmile_qr_scan"}, "lon": -76.971992, "fusion_lon": 0.0, "is_disabled": 0, "lat": 38.91775416666667, "bike_id": "ecb55b0d9e11695d193fe3faae0ef5ee", "name": "ecb55b0d9e11695d193fe3faae0ef5ee", "is_reserved": 0, "fusion_lat": 0.0}, {"type": "electric_scooter", "rental_uris": {"ios": "https://dc.lft.to/lastmile_qr_scan", "android": "https://dc.lft.to/lastmile_qr_scan"}, "lon": -77.039664, "fusion_lon": 0.0, "is_disabled": 0, "lat": 38.902714333333336, "bike_id": "be3e71f9ac4ef9b3770ed5c98728b330", "name": "be3e71f9ac4ef9b3770ed5c98728b330", "is_reserved": 0, "fusion_lat": 0.0}, {"type": "electric_scooter", "rental_uris": {"ios": "https://dc.lft.to/lastmile_qr_scan", "android": "https://dc.lft.to/lastmile_qr_scan"}, "lon": -77.0432895, "fusion_lon": 0.0, "is_disabled": 0, "lat": 38.892268333333334, "bike_id": "9c8c3c0e0c68592623df5ea2912e5bd8", "name": "9c8c3c0e0c68592623df5ea2912e5bd8", "is_reserved": 0, "fusion_lat": 0.0}, {"type": "electric_scooter", "rental_uris": {"ios": "https://dc.lft.to/lastmile_qr_scan", "android": "https://dc.lft.to/lastmile_qr_scan"}, "lon": -76.98218816666666, "fusion_lon": 0.0, "is_disabled": 0, "lat": 38.90198633333333, "bike_id": "bae16f1a18a0538bfc27ce1616dd806c", "name": "bae16f1a18a0538bfc27ce1616dd806c", "is_reserved": 0, "fusion_lat": 0.0}, {"type": "electric_scooter", "rental_uris": {"ios": "https://dc.lft.to/lastmile_qr_scan", "android": "https://dc.lft.to/lastmile_qr_scan"}, "lon": -77.03453666666667, "fusion_lon": 0.0, "is_disabled": 0, "lat": 38.918177, "bike_id": "7573fdd0e5bcfa5042cd40001a51d01a", "name": "7573fdd0e5bcfa5042cd40001a51d01a", "is_reserved": 0, "fusion_lat": 0.0}, {"type": "electric_scooter", "rental_uris": {"ios": "https://dc.lft.to/lastmile_qr_scan", "android": "https://dc.lft.to/lastmile_qr_scan"}, "lon": -77.0732915, "fusion_lon": 0.0, "is_disabled": 0, "lat": 38.933584333333336, "bike_id": "c09c0dbed7d62470ac389a2beb4988db", "name": "c09c0dbed7d62470ac389a2beb4988db", "is_reserved": 0, "fusion_lat": 0.0}, {"type": "electric_scooter", "rental_uris": {"ios": "https://dc.lft.to/lastmile_qr_scan", "android": "https://dc.lft.to/lastmile_qr_scan"}, "lon": -77.00065133333334, "fusion_lon": 0.0, "is_disabled": 0, "lat": 38.90571716666667, "bike_id": "8114968983654c8c114ed8ec7ee40daf", "name": "8114968983654c8c114ed8ec7ee40daf", "is_reserved": 0, "fusion_lat": 0.0}, {"type": "electric_scooter", "rental_uris": {"ios": "https://dc.lft.to/lastmile_qr_scan", "android": "https://dc.lft.to/lastmile_qr_scan"}, "lon": -77.05014783333333, "fusion_lon": 0.0, "is_disabled": 0, "lat": 38.9032585, "bike_id": "633984af7947a281f1b8ed43ff88167a", "name": "633984af7947a281f1b8ed43ff88167a", "is_reserved": 0, "fusion_lat": 0.0}, {"type": "electric_bike", "rental_uris": {"ios": "https://dc.lft.to/lastmile_qr_scan", "android": "https://dc.lft.to/lastmile_qr_scan"}, "lon": -77.03634333333333, "fusion_lon": 0.0, "is_disabled": 0, "lat": 38.932906, "bike_id": "f3e0f78b9616bf9aea6d5a34373eddec", "name": "f3e0f78b9616bf9aea6d5a34373eddec", "is_reserved": 0, "fusion_lat": 0.0}, {"type": "electric_scooter", "rental_uris": {"ios": "https://dc.lft.to/lastmile_qr_scan", "android": "https://dc.lft.to/lastmile_qr_scan"}, "lon": -76.9732855, "fusion_lon": 0.0, "is_disabled": 0, "lat": 38.9040985, "bike_id": "f436288277e32f542b210dca0c5fe606", "name": "f436288277e32f542b210dca0c5fe606", "is_reserved": 0, "fusion_lat": 0.0}, {"type": "electric_scooter", "rental_uris": {"ios": "https://dc.lft.to/lastmile_qr_scan", "android": "https://dc.lft.to/lastmile_qr_scan"}, "lon": -77.01077166666667, "fusion_lon": 0.0, "is_disabled": 0, "lat": 38.91633983333333, "bike_id": "6e764999eee32c5c741067913d20110a", "name": "6e764999eee32c5c741067913d20110a", "is_reserved": 0, "fusion_lat": 0.0}, {"type": "electric_bike", "rental_uris": {"ios": "https://dc.lft.to/lastmile_qr_scan", "android": "https://dc.lft.to/lastmile_qr_scan"}, "lon": -77.09486966666667, "fusion_lon": 0.0, "is_disabled": 0, "lat": 39.030480833333336, "bike_id": "d153d27812aed2fa8ba13f4c8c0eda5d", "name": "d153d27812aed2fa8ba13f4c8c0eda5d", "is_reserved": 0, "fusion_lat": 0.0}, {"type": "electric_scooter", "rental_uris": {"ios": "https://dc.lft.to/lastmile_qr_scan", "android": "https://dc.lft.to/lastmile_qr_scan"}, "lon": -77.03039483333333, "fusion_lon": 0.0, "is_disabled": 0, "lat": 38.8843645, "bike_id": "7f48267e3566db9b3ba88821639c04c6", "name": "7f48267e3566db9b3ba88821639c04c6", "is_reserved": 0, "fusion_lat": 0.0}, {"type": "electric_scooter", "rental_uris": {"ios": "https://dc.lft.to/lastmile_qr_scan", "android": "https://dc.lft.to/lastmile_qr_scan"}, "lon": -77.02083433333334, "fusion_lon": 0.0, "is_disabled": 0, "lat": 38.875742833333334, "bike_id": "f444e8487d11a22c6fb6417dac4ba5db", "name": "f444e8487d11a22c6fb6417dac4ba5db", "is_reserved": 0, "fusion_lat": 0.0}, {"type": "electric_scooter", "rental_uris": {"ios": "https://dc.lft.to/lastmile_qr_scan", "android": "https://dc.lft.to/lastmile_qr_scan"}, "lon": -77.0320685, "fusion_lon": 0.0, "is_disabled": 0, "lat": 38.9157415, "bike_id": "18c1a4b08b03b158d52a5eca9363b80e", "name": "18c1a4b08b03b158d52a5eca9363b80e", "is_reserved": 0, "fusion_lat": 0.0}, {"type": "electric_scooter", "rental_uris": {"ios": "https://dc.lft.to/lastmile_qr_scan", "android": "https://dc.lft.to/lastmile_qr_scan"}, "lon": -77.048851, "fusion_lon": 0.0, "is_disabled": 0, "lat": 38.91339166666667, "bike_id": "a9f519e33742c424572bba243a0363a7", "name": "a9f519e33742c424572bba243a0363a7", "is_reserved": 0, "fusion_lat": 0.0}, {"type": "electric_scooter", "rental_uris": {"ios": "https://dc.lft.to/lastmile_qr_scan", "android": "https://dc.lft.to/lastmile_qr_scan"}, "lon": -77.02975316666667, "fusion_lon": 0.0, "is_disabled": 0, "lat": 38.91683616666667, "bike_id": "f26b751a59d1ae670e6595c259d2956a", "name": "f26b751a59d1ae670e6595c259d2956a", "is_reserved": 0, "fusion_lat": 0.0}, {"type": "electric_scooter", "rental_uris": {"ios": "https://dc.lft.to/lastmile_qr_scan", "android": "https://dc.lft.to/lastmile_qr_scan"}, "lon": -77.04774233333333, "fusion_lon": 0.0, "is_disabled": 0, "lat": 38.902446, "bike_id": "6c7dc0d5760f97f1000f17d44bd5c5e7", "name": "6c7dc0d5760f97f1000f17d44bd5c5e7", "is_reserved": 0, "fusion_lat": 0.0}, {"type": "electric_scooter", "rental_uris": {"ios": "https://dc.lft.to/lastmile_qr_scan", "android": "https://dc.lft.to/lastmile_qr_scan"}, "lon": -77.04041033333333, "fusion_lon": 0.0, "is_disabled": 0, "lat": 38.9041575, "bike_id": "5b9592d3dc297bfb70c0c824fcf6677a", "name": "5b9592d3dc297bfb70c0c824fcf6677a", "is_reserved": 0, "fusion_lat": 0.0}, {"type": "electric_scooter", "rental_uris": {"ios": "https://dc.lft.to/lastmile_qr_scan", "android": "https://dc.lft.to/lastmile_qr_scan"}, "lon": -77.073021, "fusion_lon": 0.0, "is_disabled": 0, "lat": 38.92152266666667, "bike_id": "2f5c7bd278a65fe680e5568dc10c31ad", "name": "2f5c7bd278a65fe680e5568dc10c31ad", "is_reserved": 0, "fusion_lat": 0.0}, {"type": "electric_scooter", "rental_uris": {"ios": "https://dc.lft.to/lastmile_qr_scan", "android": "https://dc.lft.to/lastmile_qr_scan"}, "lon": -77.00121666666666, "fusion_lon": 0.0, "is_disabled": 0, "lat": 38.878045166666666, "bike_id": "97bd07a9933482274c6a18e501a9977f", "name": "97bd07a9933482274c6a18e501a9977f", "is_reserved": 0, "fusion_lat": 0.0}, {"type": "electric_scooter", "rental_uris": {"ios": "https://dc.lft.to/lastmile_qr_scan", "android": "https://dc.lft.to/lastmile_qr_scan"}, "lon": -76.972313, "fusion_lon": 0.0, "is_disabled": 0, "lat": 38.85452033333333, "bike_id": "72314c08befc7726fd897a2181b27726", "name": "72314c08befc7726fd897a2181b27726", "is_reserved": 0, "fusion_lat": 0.0}, {"type": "electric_scooter", "rental_uris": {"ios": "https://dc.lft.to/lastmile_qr_scan", "android": "https://dc.lft.to/lastmile_qr_scan"}, "lon": -77.063219, "fusion_lon": 0.0, "is_disabled": 0, "lat": 38.90280633333333, "bike_id": "8b8f38fe860449c82a338fcc990b3630", "name": "8b8f38fe860449c82a338fcc990b3630", "is_reserved": 0, "fusion_lat": 0.0}, {"type": "electric_scooter", "rental_uris": {"ios": "https://dc.lft.to/lastmile_qr_scan", "android": "https://dc.lft.to/lastmile_qr_scan"}, "lon": -76.95408283333333, "fusion_lon": 0.0, "is_disabled": 0, "lat": 38.890679666666664, "bike_id": "894c840a5fc44ff97c9ebfc55fb37c2e", "name": "894c840a5fc44ff97c9ebfc55fb37c2e", "is_reserved": 0, "fusion_lat": 0.0}, {"type": "electric_scooter", "rental_uris": {"ios": "https://dc.lft.to/lastmile_qr_scan", "android": "https://dc.lft.to/lastmile_qr_scan"}, "lon": -77.0296205, "fusion_lon": 0.0, "is_disabled": 0, "lat": 38.9259305, "bike_id": "9775195a5f8db9bc898893f41965e174", "name": "9775195a5f8db9bc898893f41965e174", "is_reserved": 0, "fusion_lat": 0.0}, {"type": "electric_scooter", "rental_uris": {"ios": "https://dc.lft.to/lastmile_qr_scan", "android": "https://dc.lft.to/lastmile_qr_scan"}, "lon": -77.04440766666667, "fusion_lon": 0.0, "is_disabled": 0, "lat": 38.912577166666665, "bike_id": "a9fa1de408b5a0b2b5e486876dc03eab", "name": "a9fa1de408b5a0b2b5e486876dc03eab", "is_reserved": 0, "fusion_lat": 0.0}, {"type": "electric_scooter", "rental_uris": {"ios": "https://dc.lft.to/lastmile_qr_scan", "android": "https://dc.lft.to/lastmile_qr_scan"}, "lon": -77.038575, "fusion_lon": 0.0, "is_disabled": 0, "lat": 38.86752283333333, "bike_id": "270b3e3931e1694831a47e2aa8a6626e", "name": "270b3e3931e1694831a47e2aa8a6626e", "is_reserved": 0, "fusion_lat": 0.0}, {"type": "electric_scooter", "rental_uris": {"ios": "https://dc.lft.to/lastmile_qr_scan", "android": "https://dc.lft.to/lastmile_qr_scan"}, "lon": -77.0060935, "fusion_lon": 0.0, "is_disabled": 0, "lat": 38.871838833333335, "bike_id": "19f8cd64cdf2a78ef84973e57c0f007e", "name": "19f8cd64cdf2a78ef84973e57c0f007e", "is_reserved": 0, "fusion_lat": 0.0}, {"type": "electric_bike", "rental_uris": {"ios": "https://dc.lft.to/lastmile_qr_scan", "android": "https://dc.lft.to/lastmile_qr_scan"}, "lon": -76.9783555, "fusion_lon": 0.0, "is_disabled": 0, "lat": 38.87073, "bike_id": "774356466ec5762855c78a181118a27a", "name": "774356466ec5762855c78a181118a27a", "is_reserved": 0, "fusion_lat": 0.0}, {"type": "electric_scooter", "rental_uris": {"ios": "https://dc.lft.to/lastmile_qr_scan", "android": "https://dc.lft.to/lastmile_qr_scan"}, "lon": -77.02600333333334, "fusion_lon": 0.0, "is_disabled": 0, "lat": 38.9169425, "bike_id": "bf98c8a8ebea72958dc1a43eca99199d", "name": "bf98c8a8ebea72958dc1a43eca99199d", "is_reserved": 0, "fusion_lat": 0.0}, {"type": "electric_scooter", "rental_uris": {"ios": "https://dc.lft.to/lastmile_qr_scan", "android": "https://dc.lft.to/lastmile_qr_scan"}, "lon": -76.98340083333333, "fusion_lon": 0.0, "is_disabled": 0, "lat": 38.90746083333333, "bike_id": "6f86ad7be8e81d1c2a522aea8f1d14d6", "name": "6f86ad7be8e81d1c2a522aea8f1d14d6", "is_reserved": 0, "fusion_lat": 0.0}, {"type": "electric_scooter", "rental_uris": {"ios": "https://dc.lft.to/lastmile_qr_scan", "android": "https://dc.lft.to/lastmile_qr_scan"}, "lon": -77.02228966666667, "fusion_lon": 0.0, "is_disabled": 0, "lat": 38.912573, "bike_id": "9fc96ed6424c47ddba561c0ce8859d8e", "name": "9fc96ed6424c47ddba561c0ce8859d8e", "is_reserved": 0, "fusion_lat": 0.0}, {"type": "electric_bike", "rental_uris": {"ios": "https://dc.lft.to/lastmile_qr_scan", "android": "https://dc.lft.to/lastmile_qr_scan"}, "lon": -76.9901575, "fusion_lon": 0.0, "is_disabled": 0, "lat": 38.95481683333333, "bike_id": "a260ba58719cd2be5d03ad37b744cfc8", "name": "a260ba58719cd2be5d03ad37b744cfc8", "is_reserved": 0, "fusion_lat": 0.0}, {"type": "electric_scooter", "rental_uris": {"ios": "https://dc.lft.to/lastmile_qr_scan", "android": "https://dc.lft.to/lastmile_qr_scan"}, "lon": -77.0342985, "fusion_lon": 0.0, "is_disabled": 0, "lat": 38.90727716666667, "bike_id": "b7215da5c9b104ac85ec74ae48d094cd", "name": "b7215da5c9b104ac85ec74ae48d094cd", "is_reserved": 0, "fusion_lat": 0.0}, {"type": "electric_bike", "rental_uris": {"ios": "https://dc.lft.to/lastmile_qr_scan", "android": "https://dc.lft.to/lastmile_qr_scan"}, "lon": -76.947949, "fusion_lon": 0.0, "is_disabled": 0, "lat": 38.894045166666665, "bike_id": "381dd81ee6816d2775b46681ec436500", "name": "381dd81ee6816d2775b46681ec436500", "is_reserved": 0, "fusion_lat": 0.0}, {"type": "electric_bike", "rental_uris": {"ios": "https://dc.lft.to/lastmile_qr_scan", "android": "https://dc.lft.to/lastmile_qr_scan"}, "lon": -77.0067685, "fusion_lon": 0.0, "is_disabled": 0, "lat": 38.94518633333333, "bike_id": "ba3545f5d2b8e8ca59e40d7599fe98cd", "name": "ba3545f5d2b8e8ca59e40d7599fe98cd", "is_reserved": 0, "fusion_lat": 0.0}, {"type": "electric_scooter", "rental_uris": {"ios": "https://dc.lft.to/lastmile_qr_scan", "android": "https://dc.lft.to/lastmile_qr_scan"}, "lon": -77.04390016666666, "fusion_lon": 0.0, "is_disabled": 0, "lat": 38.91073133333333, "bike_id": "d8d6301d92ff53eb5791f6e9e7611d6e", "name": "d8d6301d92ff53eb5791f6e9e7611d6e", "is_reserved": 0, "fusion_lat": 0.0}, {"type": "electric_bike", "rental_uris": {"ios": "https://dc.lft.to/lastmile_qr_scan", "android": "https://dc.lft.to/lastmile_qr_scan"}, "lon": -76.96260416666667, "fusion_lon": 0.0, "is_disabled": 0, "lat": 38.88246066666667, "bike_id": "f41d1d69b88ce0429b9ad5cb8ad29eb4", "name": "f41d1d69b88ce0429b9ad5cb8ad29eb4", "is_reserved": 0, "fusion_lat": 0.0}, {"type": "electric_scooter", "rental_uris": {"ios": "https://dc.lft.to/lastmile_qr_scan", "android": "https://dc.lft.to/lastmile_qr_scan"}, "lon": -77.0403345, "fusion_lon": 0.0, "is_disabled": 0, "lat": 38.930692, "bike_id": "af8429b0881e278d56b3e61c28590d4a", "name": "af8429b0881e278d56b3e61c28590d4a", "is_reserved": 0, "fusion_lat": 0.0}, {"type": "electric_scooter", "rental_uris": {"ios": "https://dc.lft.to/lastmile_qr_scan", "android": "https://dc.lft.to/lastmile_qr_scan"}, "lon": -77.02448316666667, "fusion_lon": 0.0, "is_disabled": 0, "lat": 38.918784333333335, "bike_id": "477b523d9873d15fe7630f0c989415c0", "name": "477b523d9873d15fe7630f0c989415c0", "is_reserved": 0, "fusion_lat": 0.0}, {"type": "electric_scooter", "rental_uris": {"ios": "https://dc.lft.to/lastmile_qr_scan", "android": "https://dc.lft.to/lastmile_qr_scan"}, "lon": -77.01034583333333, "fusion_lon": 0.0, "is_disabled": 0, "lat": 38.866608166666666, "bike_id": "872cafae79551a39b33f6c11bb5c8ebc", "name": "872cafae79551a39b33f6c11bb5c8ebc", "is_reserved": 0, "fusion_lat": 0.0}, {"type": "electric_scooter", "rental_uris": {"ios": "https://dc.lft.to/lastmile_qr_scan", "android": "https://dc.lft.to/lastmile_qr_scan"}, "lon": -77.02980216666667, "fusion_lon": 0.0, "is_disabled": 0, "lat": 38.90510883333334, "bike_id": "4c1627731ef3fb9c185ca5a409f3a445", "name": "4c1627731ef3fb9c185ca5a409f3a445", "is_reserved": 0, "fusion_lat": 0.0}, {"type": "electric_scooter", "rental_uris": {"ios": "https://dc.lft.to/lastmile_qr_scan", "android": "https://dc.lft.to/lastmile_qr_scan"}, "lon": -77.02299583333334, "fusion_lon": 0.0, "is_disabled": 0, "lat": 38.91616066666667, "bike_id": "8036369ee56e9884e5cd31c75a22e153", "name": "8036369ee56e9884e5cd31c75a22e153", "is_reserved": 0, "fusion_lat": 0.0}, {"type": "electric_scooter", "rental_uris": {"ios": "https://dc.lft.to/lastmile_qr_scan", "android": "https://dc.lft.to/lastmile_qr_scan"}, "lon": -76.9455195, "fusion_lon": 0.0, "is_disabled": 0, "lat": 38.864925166666666, "bike_id": "3c0ba073e1bdc0e975928ce75b694c81", "name": "3c0ba073e1bdc0e975928ce75b694c81", "is_reserved": 0, "fusion_lat": 0.0}, {"type": "electric_scooter", "rental_uris": {"ios": "https://dc.lft.to/lastmile_qr_scan", "android": "https://dc.lft.to/lastmile_qr_scan"}, "lon": -77.01981483333333, "fusion_lon": 0.0, "is_disabled": 0, "lat": 38.92934866666667, "bike_id": "ead95e9f0412721db135673e1febaa3c", "name": "ead95e9f0412721db135673e1febaa3c", "is_reserved": 0, "fusion_lat": 0.0}, {"type": "electric_scooter", "rental_uris": {"ios": "https://dc.lft.to/lastmile_qr_scan", "android": "https://dc.lft.to/lastmile_qr_scan"}, "lon": -76.98682216666667, "fusion_lon": 0.0, "is_disabled": 0, "lat": 38.86724866666667, "bike_id": "2d7769a52f05f09854c21c3f446507d1", "name": "2d7769a52f05f09854c21c3f446507d1", "is_reserved": 0, "fusion_lat": 0.0}, {"type": "electric_scooter", "rental_uris": {"ios": "https://dc.lft.to/lastmile_qr_scan", "android": "https://dc.lft.to/lastmile_qr_scan"}, "lon": -77.03372666666667, "fusion_lon": 0.0, "is_disabled": 0, "lat": 38.899203666666665, "bike_id": "32f85f97aafc6fb31a1f4f1a538037c7", "name": "32f85f97aafc6fb31a1f4f1a538037c7", "is_reserved": 0, "fusion_lat": 0.0}, {"type": "electric_scooter", "rental_uris": {"ios": "https://dc.lft.to/lastmile_qr_scan", "android": "https://dc.lft.to/lastmile_qr_scan"}, "lon": -77.035061, "fusion_lon": 0.0, "is_disabled": 0, "lat": 38.9215025, "bike_id": "724803fb47751e6e871dd00342925455", "name": "724803fb47751e6e871dd00342925455", "is_reserved": 0, "fusion_lat": 0.0}, {"type": "electric_scooter", "rental_uris": {"ios": "https://dc.lft.to/lastmile_qr_scan", "android": "https://dc.lft.to/lastmile_qr_scan"}, "lon": -77.00263816666667, "fusion_lon": 0.0, "is_disabled": 0, "lat": 38.90892016666667, "bike_id": "b23d814149dc2f237b12c19acc15ef8d", "name": "b23d814149dc2f237b12c19acc15ef8d", "is_reserved": 0, "fusion_lat": 0.0}, {"type": "electric_scooter", "rental_uris": {"ios": "https://dc.lft.to/lastmile_qr_scan", "android": "https://dc.lft.to/lastmile_qr_scan"}, "lon": -77.029797, "fusion_lon": 0.0, "is_disabled": 0, "lat": 38.9306395, "bike_id": "f896e4423a55a238e363e089d6071ea4", "name": "f896e4423a55a238e363e089d6071ea4", "is_reserved": 0, "fusion_lat": 0.0}, {"type": "electric_scooter", "rental_uris": {"ios": "https://dc.lft.to/lastmile_qr_scan", "android": "https://dc.lft.to/lastmile_qr_scan"}, "lon": -76.99496916666666, "fusion_lon": 0.0, "is_disabled": 0, "lat": 38.926632166666664, "bike_id": "4c6217a42fb14238b13d9944603afde0", "name": "4c6217a42fb14238b13d9944603afde0", "is_reserved": 0, "fusion_lat": 0.0}, {"type": "electric_scooter", "rental_uris": {"ios": "https://dc.lft.to/lastmile_qr_scan", "android": "https://dc.lft.to/lastmile_qr_scan"}, "lon": -77.01066483333334, "fusion_lon": 0.0, "is_disabled": 0, "lat": 38.9072795, "bike_id": "7c550d20ccfb1cbb7e783f5c1b5dad17", "name": "7c550d20ccfb1cbb7e783f5c1b5dad17", "is_reserved": 0, "fusion_lat": 0.0}, {"type": "electric_scooter", "rental_uris": {"ios": "https://dc.lft.to/lastmile_qr_scan", "android": "https://dc.lft.to/lastmile_qr_scan"}, "lon": -76.95412516666667, "fusion_lon": 0.0, "is_disabled": 0, "lat": 38.89005083333333, "bike_id": "cc86865456924ac859f81a7615c05bad", "name": "cc86865456924ac859f81a7615c05bad", "is_reserved": 0, "fusion_lat": 0.0}, {"type": "electric_scooter", "rental_uris": {"ios": "https://dc.lft.to/lastmile_qr_scan", "android": "https://dc.lft.to/lastmile_qr_scan"}, "lon": -77.04173433333334, "fusion_lon": 0.0, "is_disabled": 0, "lat": 38.915512, "bike_id": "4d593a9c248be2052e7b95e107b8b887", "name": "4d593a9c248be2052e7b95e107b8b887", "is_reserved": 0, "fusion_lat": 0.0}, {"type": "electric_scooter", "rental_uris": {"ios": "https://dc.lft.to/lastmile_qr_scan", "android": "https://dc.lft.to/lastmile_qr_scan"}, "lon": -77.04180166666667, "fusion_lon": 0.0, "is_disabled": 0, "lat": 38.90527633333333, "bike_id": "a14f3612b1df26736577ef1bbb9b0003", "name": "a14f3612b1df26736577ef1bbb9b0003", "is_reserved": 0, "fusion_lat": 0.0}, {"type": "electric_scooter", "rental_uris": {"ios": "https://dc.lft.to/lastmile_qr_scan", "android": "https://dc.lft.to/lastmile_qr_scan"}, "lon": -77.03674216666667, "fusion_lon": 0.0, "is_disabled": 0, "lat": 38.917107, "bike_id": "1d1df58669d5c03df6a13c0e827c3683", "name": "1d1df58669d5c03df6a13c0e827c3683", "is_reserved": 0, "fusion_lat": 0.0}, {"type": "electric_scooter", "rental_uris": {"ios": "https://dc.lft.to/lastmile_qr_scan", "android": "https://dc.lft.to/lastmile_qr_scan"}, "lon": -76.9868995, "fusion_lon": 0.0, "is_disabled": 0, "lat": 38.866239666666665, "bike_id": "e7bee8bd4cd51526173c15dcea3e5f1d", "name": "e7bee8bd4cd51526173c15dcea3e5f1d", "is_reserved": 0, "fusion_lat": 0.0}, {"type": "electric_scooter", "rental_uris": {"ios": "https://dc.lft.to/lastmile_qr_scan", "android": "https://dc.lft.to/lastmile_qr_scan"}, "lon": -77.02395666666666, "fusion_lon": 0.0, "is_disabled": 0, "lat": 38.95712483333333, "bike_id": "8f05270e186a567648221e82b4d02587", "name": "8f05270e186a567648221e82b4d02587", "is_reserved": 0, "fusion_lat": 0.0}, {"type": "electric_scooter", "rental_uris": {"ios": "https://dc.lft.to/lastmile_qr_scan", "android": "https://dc.lft.to/lastmile_qr_scan"}, "lon": -77.0386485, "fusion_lon": 0.0, "is_disabled": 0, "lat": 38.912396333333334, "bike_id": "8d47871728ea911430a474497919b706", "name": "8d47871728ea911430a474497919b706", "is_reserved": 0, "fusion_lat": 0.0}, {"type": "electric_scooter", "rental_uris": {"ios": "https://dc.lft.to/lastmile_qr_scan", "android": "https://dc.lft.to/lastmile_qr_scan"}, "lon": -77.028229, "fusion_lon": 0.0, "is_disabled": 0, "lat": 38.89934733333333, "bike_id": "2419da641b822213bca36d338ef87aaf", "name": "2419da641b822213bca36d338ef87aaf", "is_reserved": 0, "fusion_lat": 0.0}, {"type": "electric_scooter", "rental_uris": {"ios": "https://dc.lft.to/lastmile_qr_scan", "android": "https://dc.lft.to/lastmile_qr_scan"}, "lon": -77.04175683333334, "fusion_lon": 0.0, "is_disabled": 0, "lat": 38.905283833333336, "bike_id": "8aa943710f51fab33eb7b030a89ee43b", "name": "8aa943710f51fab33eb7b030a89ee43b", "is_reserved": 0, "fusion_lat": 0.0}, {"type": "electric_scooter", "rental_uris": {"ios": "https://dc.lft.to/lastmile_qr_scan", "android": "https://dc.lft.to/lastmile_qr_scan"}, "lon": -77.04320933333334, "fusion_lon": 0.0, "is_disabled": 0, "lat": 38.90531583333333, "bike_id": "5a11d5709977e652f007038f79da6db9", "name": "5a11d5709977e652f007038f79da6db9", "is_reserved": 0, "fusion_lat": 0.0}, {"type": "electric_bike", "rental_uris": {"ios": "https://dc.lft.to/lastmile_qr_scan", "android": "https://dc.lft.to/lastmile_qr_scan"}, "lon": -77.03596616666667, "fusion_lon": 0.0, "is_disabled": 0, "lat": 38.906922333333334, "bike_id": "66606370925375dee39859f7a5cd726c", "name": "66606370925375dee39859f7a5cd726c", "is_reserved": 0, "fusion_lat": 0.0}, {"type": "electric_scooter", "rental_uris": {"ios": "https://dc.lft.to/lastmile_qr_scan", "android": "https://dc.lft.to/lastmile_qr_scan"}, "lon": -77.0036765, "fusion_lon": 0.0, "is_disabled": 0, "lat": 38.8827125, "bike_id": "e104f6ca4bb2f59a58854c193792a943", "name": "e104f6ca4bb2f59a58854c193792a943", "is_reserved": 0, "fusion_lat": 0.0}, {"type": "electric_scooter", "rental_uris": {"ios": "https://dc.lft.to/lastmile_qr_scan", "android": "https://dc.lft.to/lastmile_qr_scan"}, "lon": -77.03660066666667, "fusion_lon": 0.0, "is_disabled": 0, "lat": 38.918608666666664, "bike_id": "63f7becc7bd41b333eec5d0a30fc7d97", "name": "63f7becc7bd41b333eec5d0a30fc7d97", "is_reserved": 0, "fusion_lat": 0.0}, {"type": "electric_bike", "rental_uris": {"ios": "https://dc.lft.to/lastmile_qr_scan", "android": "https://dc.lft.to/lastmile_qr_scan"}, "lon": -76.92499483333333, "fusion_lon": 0.0, "is_disabled": 0, "lat": 38.9999835, "bike_id": "3d5429298577f2b1281ff15ee5e66498", "name": "3d5429298577f2b1281ff15ee5e66498", "is_reserved": 0, "fusion_lat": 0.0}, {"type": "electric_scooter", "rental_uris": {"ios": "https://dc.lft.to/lastmile_qr_scan", "android": "https://dc.lft.to/lastmile_qr_scan"}, "lon": -77.03218133333333, "fusion_lon": 0.0, "is_disabled": 0, "lat": 38.9097765, "bike_id": "b400dbc4df038bf1b0ad350327fbbb31", "name": "b400dbc4df038bf1b0ad350327fbbb31", "is_reserved": 0, "fusion_lat": 0.0}, {"type": "electric_scooter", "rental_uris": {"ios": "https://dc.lft.to/lastmile_qr_scan", "android": "https://dc.lft.to/lastmile_qr_scan"}, "lon": -77.03132683333334, "fusion_lon": 0.0, "is_disabled": 0, "lat": 38.9181635, "bike_id": "deb97c165d27fc20a70a4444835fb8d4", "name": "deb97c165d27fc20a70a4444835fb8d4", "is_reserved": 0, "fusion_lat": 0.0}, {"type": "electric_scooter", "rental_uris": {"ios": "https://dc.lft.to/lastmile_qr_scan", "android": "https://dc.lft.to/lastmile_qr_scan"}, "lon": -77.0335045, "fusion_lon": 0.0, "is_disabled": 0, "lat": 38.89251266666667, "bike_id": "3df561b771570753a694c42ba7067bb4", "name": "3df561b771570753a694c42ba7067bb4", "is_reserved": 0, "fusion_lat": 0.0}, {"type": "electric_scooter", "rental_uris": {"ios": "https://dc.lft.to/lastmile_qr_scan", "android": "https://dc.lft.to/lastmile_qr_scan"}, "lon": -77.02795166666667, "fusion_lon": 0.0, "is_disabled": 0, "lat": 38.93085516666667, "bike_id": "75dd5b822badb76abd779b99be8da4fd", "name": "75dd5b822badb76abd779b99be8da4fd", "is_reserved": 0, "fusion_lat": 0.0}, {"type": "electric_scooter", "rental_uris": {"ios": "https://dc.lft.to/lastmile_qr_scan", "android": "https://dc.lft.to/lastmile_qr_scan"}, "lon": -77.059263, "fusion_lon": 0.0, "is_disabled": 0, "lat": 38.909461, "bike_id": "67731b7b8eab9a761f338bc816add262", "name": "67731b7b8eab9a761f338bc816add262", "is_reserved": 0, "fusion_lat": 0.0}, {"type": "electric_scooter", "rental_uris": {"ios": "https://dc.lft.to/lastmile_qr_scan", "android": "https://dc.lft.to/lastmile_qr_scan"}, "lon": -77.02031266666667, "fusion_lon": 0.0, "is_disabled": 0, "lat": 38.931916666666666, "bike_id": "d115abeb7f9284e4e44c027bac997e46", "name": "d115abeb7f9284e4e44c027bac997e46", "is_reserved": 0, "fusion_lat": 0.0}, {"type": "electric_scooter", "rental_uris": {"ios": "https://dc.lft.to/lastmile_qr_scan", "android": "https://dc.lft.to/lastmile_qr_scan"}, "lon": -77.03895766666666, "fusion_lon": 0.0, "is_disabled": 0, "lat": 38.906522, "bike_id": "5a7e528a5a64689aeb0edbda5cb03c8d", "name": "5a7e528a5a64689aeb0edbda5cb03c8d", "is_reserved": 0, "fusion_lat": 0.0}, {"type": "electric_bike", "rental_uris": {"ios": "https://dc.lft.to/lastmile_qr_scan", "android": "https://dc.lft.to/lastmile_qr_scan"}, "lon": -77.02087733333333, "fusion_lon": 0.0, "is_disabled": 0, "lat": 38.937176, "bike_id": "f13083c49e5b1d6d208a59237fcc83e1", "name": "f13083c49e5b1d6d208a59237fcc83e1", "is_reserved": 0, "fusion_lat": 0.0}, {"type": "electric_scooter", "rental_uris": {"ios": "https://dc.lft.to/lastmile_qr_scan", "android": "https://dc.lft.to/lastmile_qr_scan"}, "lon": -77.04476016666666, "fusion_lon": 0.0, "is_disabled": 0, "lat": 38.911171333333336, "bike_id": "f2ddee47a7b46daf8989c006f3ea95b3", "name": "f2ddee47a7b46daf8989c006f3ea95b3", "is_reserved": 0, "fusion_lat": 0.0}, {"type": "electric_scooter", "rental_uris": {"ios": "https://dc.lft.to/lastmile_qr_scan", "android": "https://dc.lft.to/lastmile_qr_scan"}, "lon": -76.96517383333334, "fusion_lon": 0.0, "is_disabled": 0, "lat": 38.876303, "bike_id": "3d888214f59bbe3056e6f258f7ca3dac", "name": "3d888214f59bbe3056e6f258f7ca3dac", "is_reserved": 0, "fusion_lat": 0.0}, {"type": "electric_bike", "rental_uris": {"ios": "https://dc.lft.to/lastmile_qr_scan", "android": "https://dc.lft.to/lastmile_qr_scan"}, "lon": -77.11797516666667, "fusion_lon": 0.0, "is_disabled": 0, "lat": 38.87379, "bike_id": "b78b4719ea6a4aa9d0f0a4069aff371c", "name": "b78b4719ea6a4aa9d0f0a4069aff371c", "is_reserved": 0, "fusion_lat": 0.0}, {"type": "electric_scooter", "rental_uris": {"ios": "https://dc.lft.to/lastmile_qr_scan", "android": "https://dc.lft.to/lastmile_qr_scan"}, "lon": -77.0450945, "fusion_lon": 0.0, "is_disabled": 0, "lat": 38.91564183333333, "bike_id": "64b88657bbdfd0656696176171a64b88", "name": "64b88657bbdfd0656696176171a64b88", "is_reserved": 0, "fusion_lat": 0.0}, {"type": "electric_scooter", "rental_uris": {"ios": "https://dc.lft.to/lastmile_qr_scan", "android": "https://dc.lft.to/lastmile_qr_scan"}, "lon": -76.93735283333334, "fusion_lon": 0.0, "is_disabled": 0, "lat": 38.890177, "bike_id": "b26b7163e42fbb441a6342b77c23bd54", "name": "b26b7163e42fbb441a6342b77c23bd54", "is_reserved": 0, "fusion_lat": 0.0}, {"type": "electric_scooter", "rental_uris": {"ios": "https://dc.lft.to/lastmile_qr_scan", "android": "https://dc.lft.to/lastmile_qr_scan"}, "lon": -76.96521783333333, "fusion_lon": 0.0, "is_disabled": 0, "lat": 38.876320166666666, "bike_id": "9ed9c93c739fd4631036421a7a19a40b", "name": "9ed9c93c739fd4631036421a7a19a40b", "is_reserved": 0, "fusion_lat": 0.0}, {"type": "electric_bike", "rental_uris": {"ios": "https://dc.lft.to/lastmile_qr_scan", "android": "https://dc.lft.to/lastmile_qr_scan"}, "lon": -77.02618483333333, "fusion_lon": 0.0, "is_disabled": 0, "lat": 38.96929633333333, "bike_id": "0d07cdd29580d09b7360fbde5b988adf", "name": "0d07cdd29580d09b7360fbde5b988adf", "is_reserved": 0, "fusion_lat": 0.0}, {"type": "electric_scooter", "rental_uris": {"ios": "https://dc.lft.to/lastmile_qr_scan", "android": "https://dc.lft.to/lastmile_qr_scan"}, "lon": -77.03199666666667, "fusion_lon": 0.0, "is_disabled": 0, "lat": 38.916222166666664, "bike_id": "77f8862d729fde047add40b216040763", "name": "77f8862d729fde047add40b216040763", "is_reserved": 0, "fusion_lat": 0.0}, {"type": "electric_scooter", "rental_uris": {"ios": "https://dc.lft.to/lastmile_qr_scan", "android": "https://dc.lft.to/lastmile_qr_scan"}, "lon": -77.0229235, "fusion_lon": 0.0, "is_disabled": 0, "lat": 38.91443683333333, "bike_id": "8dbb7c6f83ee11655af01e385ab2bb15", "name": "8dbb7c6f83ee11655af01e385ab2bb15", "is_reserved": 0, "fusion_lat": 0.0}, {"type": "electric_scooter", "rental_uris": {"ios": "https://dc.lft.to/lastmile_qr_scan", "android": "https://dc.lft.to/lastmile_qr_scan"}, "lon": -77.03657533333333, "fusion_lon": 0.0, "is_disabled": 0, "lat": 38.9225255, "bike_id": "a67fc241bf83eb96d939ac9d0ccc8b59", "name": "a67fc241bf83eb96d939ac9d0ccc8b59", "is_reserved": 0, "fusion_lat": 0.0}, {"type": "electric_scooter", "rental_uris": {"ios": "https://dc.lft.to/lastmile_qr_scan", "android": "https://dc.lft.to/lastmile_qr_scan"}, "lon": -77.049, "fusion_lon": 0.0, "is_disabled": 0, "lat": 38.89229016666667, "bike_id": "4c325209afdbe0a535a02cea4a840427", "name": "4c325209afdbe0a535a02cea4a840427", "is_reserved": 0, "fusion_lat": 0.0}, {"type": "electric_scooter", "rental_uris": {"ios": "https://dc.lft.to/lastmile_qr_scan", "android": "https://dc.lft.to/lastmile_qr_scan"}, "lon": -76.9801425, "fusion_lon": 0.0, "is_disabled": 0, "lat": 38.9010795, "bike_id": "1b4ce1c8ac81373f3dedeef7f70fb115", "name": "1b4ce1c8ac81373f3dedeef7f70fb115", "is_reserved": 0, "fusion_lat": 0.0}, {"type": "electric_bike", "rental_uris": {"ios": "https://dc.lft.to/lastmile_qr_scan", "android": "https://dc.lft.to/lastmile_qr_scan"}, "lon": -77.012082, "fusion_lon": 0.0, "is_disabled": 0, "lat": 38.87095166666667, "bike_id": "44836c226fef64d1288d8863549bb121", "name": "44836c226fef64d1288d8863549bb121", "is_reserved": 0, "fusion_lat": 0.0}, {"type": "electric_scooter", "rental_uris": {"ios": "https://dc.lft.to/lastmile_qr_scan", "android": "https://dc.lft.to/lastmile_qr_scan"}, "lon": -77.04005766666667, "fusion_lon": 0.0, "is_disabled": 0, "lat": 38.924300333333335, "bike_id": "1b4057db4d24b74722326786f8d285b8", "name": "1b4057db4d24b74722326786f8d285b8", "is_reserved": 0, "fusion_lat": 0.0}, {"type": "electric_scooter", "rental_uris": {"ios": "https://dc.lft.to/lastmile_qr_scan", "android": "https://dc.lft.to/lastmile_qr_scan"}, "lon": -77.05537816666667, "fusion_lon": 0.0, "is_disabled": 0, "lat": 38.900296, "bike_id": "93d6b8600e0ac59ec94e6a189692fbb4", "name": "93d6b8600e0ac59ec94e6a189692fbb4", "is_reserved": 0, "fusion_lat": 0.0}, {"type": "electric_scooter", "rental_uris": {"ios": "https://dc.lft.to/lastmile_qr_scan", "android": "https://dc.lft.to/lastmile_qr_scan"}, "lon": -77.02693433333333, "fusion_lon": 0.0, "is_disabled": 0, "lat": 38.925656000000004, "bike_id": "c78a903589ed38ad2a0fa23400b7434c", "name": "c78a903589ed38ad2a0fa23400b7434c", "is_reserved": 0, "fusion_lat": 0.0}, {"type": "electric_scooter", "rental_uris": {"ios": "https://dc.lft.to/lastmile_qr_scan", "android": "https://dc.lft.to/lastmile_qr_scan"}, "lon": -77.0321435, "fusion_lon": 0.0, "is_disabled": 0, "lat": 38.9185815, "bike_id": "dd461e896f42d76b5ab539b5e0603bf6", "name": "dd461e896f42d76b5ab539b5e0603bf6", "is_reserved": 0, "fusion_lat": 0.0}, {"type": "electric_scooter", "rental_uris": {"ios": "https://dc.lft.to/lastmile_qr_scan", "android": "https://dc.lft.to/lastmile_qr_scan"}, "lon": -77.00467566666667, "fusion_lon": 0.0, "is_disabled": 0, "lat": 38.87665783333333, "bike_id": "f2257c92e41458e0199dbcea9466e801", "name": "f2257c92e41458e0199dbcea9466e801", "is_reserved": 0, "fusion_lat": 0.0}, {"type": "electric_scooter", "rental_uris": {"ios": "https://dc.lft.to/lastmile_qr_scan", "android": "https://dc.lft.to/lastmile_qr_scan"}, "lon": -77.031783, "fusion_lon": 0.0, "is_disabled": 0, "lat": 38.909857, "bike_id": "949621c99ea327807fc8482bad382dc8", "name": "949621c99ea327807fc8482bad382dc8", "is_reserved": 0, "fusion_lat": 0.0}, {"type": "electric_bike", "rental_uris": {"ios": "https://dc.lft.to/lastmile_qr_scan", "android": "https://dc.lft.to/lastmile_qr_scan"}, "lon": -77.081183, "fusion_lon": 0.0, "is_disabled": 0, "lat": 38.806853, "bike_id": "43f62ee9d5675c01e6f9d5c42c3415c8", "name": "43f62ee9d5675c01e6f9d5c42c3415c8", "is_reserved": 0, "fusion_lat": 0.0}, {"type": "electric_scooter", "rental_uris": {"ios": "https://dc.lft.to/lastmile_qr_scan", "android": "https://dc.lft.to/lastmile_qr_scan"}, "lon": -77.03633716666667, "fusion_lon": 0.0, "is_disabled": 0, "lat": 38.913199666666664, "bike_id": "69ddb6d69dfda96e4f8862615342b20a", "name": "69ddb6d69dfda96e4f8862615342b20a", "is_reserved": 0, "fusion_lat": 0.0}, {"type": "electric_bike", "rental_uris": {"ios": "https://dc.lft.to/lastmile_qr_scan", "android": "https://dc.lft.to/lastmile_qr_scan"}, "lon": -76.91603683333334, "fusion_lon": 0.0, "is_disabled": 0, "lat": 38.87973233333334, "bike_id": "690f8277d21141da82dc0a3b49904976", "name": "690f8277d21141da82dc0a3b49904976", "is_reserved": 0, "fusion_lat": 0.0}, {"type": "electric_scooter", "rental_uris": {"ios": "https://dc.lft.to/lastmile_qr_scan", "android": "https://dc.lft.to/lastmile_qr_scan"}, "lon": -77.02337933333334, "fusion_lon": 0.0, "is_disabled": 0, "lat": 38.917841833333334, "bike_id": "c751a5177980e2a865a48e093ab50aa4", "name": "c751a5177980e2a865a48e093ab50aa4", "is_reserved": 0, "fusion_lat": 0.0}, {"type": "electric_scooter", "rental_uris": {"ios": "https://dc.lft.to/lastmile_qr_scan", "android": "https://dc.lft.to/lastmile_qr_scan"}, "lon": -77.07306433333333, "fusion_lon": 0.0, "is_disabled": 0, "lat": 38.92881833333333, "bike_id": "190f5e21c2aa055d0387a4ffde5dd29d", "name": "190f5e21c2aa055d0387a4ffde5dd29d", "is_reserved": 0, "fusion_lat": 0.0}, {"type": "electric_scooter", "rental_uris": {"ios": "https://dc.lft.to/lastmile_qr_scan", "android": "https://dc.lft.to/lastmile_qr_scan"}, "lon": -77.02847866666667, "fusion_lon": 0.0, "is_disabled": 0, "lat": 38.91705816666666, "bike_id": "bc8c3a4eeedb757711c48c925ad2081b", "name": "bc8c3a4eeedb757711c48c925ad2081b", "is_reserved": 0, "fusion_lat": 0.0}, {"type": "electric_scooter", "rental_uris": {"ios": "https://dc.lft.to/lastmile_qr_scan", "android": "https://dc.lft.to/lastmile_qr_scan"}, "lon": -77.0374575, "fusion_lon": 0.0, "is_disabled": 0, "lat": 38.91259816666667, "bike_id": "af3bb8135c6d9fdd3c7bb945c4a78f65", "name": "af3bb8135c6d9fdd3c7bb945c4a78f65", "is_reserved": 0, "fusion_lat": 0.0}, {"type": "electric_scooter", "rental_uris": {"ios": "https://dc.lft.to/lastmile_qr_scan", "android": "https://dc.lft.to/lastmile_qr_scan"}, "lon": -77.02338866666666, "fusion_lon": 0.0, "is_disabled": 0, "lat": 38.917787833333335, "bike_id": "16d71f320d6600ce079978b3ec738ca3", "name": "16d71f320d6600ce079978b3ec738ca3", "is_reserved": 0, "fusion_lat": 0.0}, {"type": "electric_scooter", "rental_uris": {"ios": "https://dc.lft.to/lastmile_qr_scan", "android": "https://dc.lft.to/lastmile_qr_scan"}, "lon": -77.031901, "fusion_lon": 0.0, "is_disabled": 0, "lat": 38.91745316666667, "bike_id": "04b2f41c447fa8af3e4eba91102cde09", "name": "04b2f41c447fa8af3e4eba91102cde09", "is_reserved": 0, "fusion_lat": 0.0}, {"type": "electric_scooter", "rental_uris": {"ios": "https://dc.lft.to/lastmile_qr_scan", "android": "https://dc.lft.to/lastmile_qr_scan"}, "lon": -76.98882083333334, "fusion_lon": 0.0, "is_disabled": 0, "lat": 38.866580666666664, "bike_id": "061fd7f5d042a9dd1b6a9c76a941fda2", "name": "061fd7f5d042a9dd1b6a9c76a941fda2", "is_reserved": 0, "fusion_lat": 0.0}, {"type": "electric_scooter", "rental_uris": {"ios": "https://dc.lft.to/lastmile_qr_scan", "android": "https://dc.lft.to/lastmile_qr_scan"}, "lon": -77.043481, "fusion_lon": 0.0, "is_disabled": 0, "lat": 38.9130445, "bike_id": "4fcb68544073c651ee739ce9002af3b9", "name": "4fcb68544073c651ee739ce9002af3b9", "is_reserved": 0, "fusion_lat": 0.0}, {"type": "electric_scooter", "rental_uris": {"ios": "https://dc.lft.to/lastmile_qr_scan", "android": "https://dc.lft.to/lastmile_qr_scan"}, "lon": -76.93348333333333, "fusion_lon": 0.0, "is_disabled": 0, "lat": 38.89907133333333, "bike_id": "cce1d69ea626903e14a80cdc96bd4c5f", "name": "cce1d69ea626903e14a80cdc96bd4c5f", "is_reserved": 0, "fusion_lat": 0.0}, {"type": "electric_scooter", "rental_uris": {"ios": "https://dc.lft.to/lastmile_qr_scan", "android": "https://dc.lft.to/lastmile_qr_scan"}, "lon": -77.03229516666667, "fusion_lon": 0.0, "is_disabled": 0, "lat": 38.923560333333334, "bike_id": "de308d4fc1bf4a6a9eec57d6e177826a", "name": "de308d4fc1bf4a6a9eec57d6e177826a", "is_reserved": 0, "fusion_lat": 0.0}, {"type": "electric_scooter", "rental_uris": {"ios": "https://dc.lft.to/lastmile_qr_scan", "android": "https://dc.lft.to/lastmile_qr_scan"}, "lon": -77.024968, "fusion_lon": 0.0, "is_disabled": 0, "lat": 38.9181015, "bike_id": "1a22c2037eb85c6b9dd18677c1341d35", "name": "1a22c2037eb85c6b9dd18677c1341d35", "is_reserved": 0, "fusion_lat": 0.0}, {"type": "electric_scooter", "rental_uris": {"ios": "https://dc.lft.to/lastmile_qr_scan", "android": "https://dc.lft.to/lastmile_qr_scan"}, "lon": -77.0243095, "fusion_lon": 0.0, "is_disabled": 0, "lat": 38.95624183333334, "bike_id": "0271de9ba8040e9e5843e807db5330f3", "name": "0271de9ba8040e9e5843e807db5330f3", "is_reserved": 0, "fusion_lat": 0.0}, {"type": "electric_scooter", "rental_uris": {"ios": "https://dc.lft.to/lastmile_qr_scan", "android": "https://dc.lft.to/lastmile_qr_scan"}, "lon": -77.0395475, "fusion_lon": 0.0, "is_disabled": 0, "lat": 38.89247866666667, "bike_id": "1964b00db4c5b841ea977f6244eea208", "name": "1964b00db4c5b841ea977f6244eea208", "is_reserved": 0, "fusion_lat": 0.0}, {"type": "electric_scooter", "rental_uris": {"ios": "https://dc.lft.to/lastmile_qr_scan", "android": "https://dc.lft.to/lastmile_qr_scan"}, "lon": -77.038798, "fusion_lon": 0.0, "is_disabled": 0, "lat": 38.90248883333334, "bike_id": "5487e3cce5862b5ba2e6dd1672d6e544", "name": "5487e3cce5862b5ba2e6dd1672d6e544", "is_reserved": 0, "fusion_lat": 0.0}, {"type": "electric_scooter", "rental_uris": {"ios": "https://dc.lft.to/lastmile_qr_scan", "android": "https://dc.lft.to/lastmile_qr_scan"}, "lon": -77.0436575, "fusion_lon": 0.0, "is_disabled": 0, "lat": 38.93322666666667, "bike_id": "c058dfb862f974ca1bc461226a55739a", "name": "c058dfb862f974ca1bc461226a55739a", "is_reserved": 0, "fusion_lat": 0.0}, {"type": "electric_scooter", "rental_uris": {"ios": "https://dc.lft.to/lastmile_qr_scan", "android": "https://dc.lft.to/lastmile_qr_scan"}, "lon": -77.0113395, "fusion_lon": 0.0, "is_disabled": 0, "lat": 38.88529883333333, "bike_id": "e0db1944ed272617c7036db02e836d65", "name": "e0db1944ed272617c7036db02e836d65", "is_reserved": 0, "fusion_lat": 0.0}, {"type": "electric_scooter", "rental_uris": {"ios": "https://dc.lft.to/lastmile_qr_scan", "android": "https://dc.lft.to/lastmile_qr_scan"}, "lon": -77.04229866666667, "fusion_lon": 0.0, "is_disabled": 0, "lat": 38.92176883333333, "bike_id": "57675f898286ec9473d72292b6aa398f", "name": "57675f898286ec9473d72292b6aa398f", "is_reserved": 0, "fusion_lat": 0.0}, {"type": "electric_scooter", "rental_uris": {"ios": "https://dc.lft.to/lastmile_qr_scan", "android": "https://dc.lft.to/lastmile_qr_scan"}, "lon": -77.03423816666667, "fusion_lon": 0.0, "is_disabled": 0, "lat": 38.93077983333333, "bike_id": "d7339361906c63f2fc38f43aa03ebc6c", "name": "d7339361906c63f2fc38f43aa03ebc6c", "is_reserved": 0, "fusion_lat": 0.0}, {"type": "electric_scooter", "rental_uris": {"ios": "https://dc.lft.to/lastmile_qr_scan", "android": "https://dc.lft.to/lastmile_qr_scan"}, "lon": -77.0298275, "fusion_lon": 0.0, "is_disabled": 0, "lat": 38.905111166666664, "bike_id": "0aeb33d0324a86e9fb590116fc041d3b", "name": "0aeb33d0324a86e9fb590116fc041d3b", "is_reserved": 0, "fusion_lat": 0.0}, {"type": "electric_scooter", "rental_uris": {"ios": "https://dc.lft.to/lastmile_qr_scan", "android": "https://dc.lft.to/lastmile_qr_scan"}, "lon": -76.98077166666667, "fusion_lon": 0.0, "is_disabled": 0, "lat": 38.919535333333336, "bike_id": "5deaa0ba940d04ce6fe9508fc3e02534", "name": "5deaa0ba940d04ce6fe9508fc3e02534", "is_reserved": 0, "fusion_lat": 0.0}, {"type": "electric_bike", "rental_uris": {"ios": "https://dc.lft.to/lastmile_qr_scan", "android": "https://dc.lft.to/lastmile_qr_scan"}, "lon": -77.03701366666667, "fusion_lon": 0.0, "is_disabled": 0, "lat": 38.93666016666667, "bike_id": "3d3ad126dda4e4368ee80525d0da796c", "name": "3d3ad126dda4e4368ee80525d0da796c", "is_reserved": 0, "fusion_lat": 0.0}, {"type": "electric_scooter", "rental_uris": {"ios": "https://dc.lft.to/lastmile_qr_scan", "android": "https://dc.lft.to/lastmile_qr_scan"}, "lon": -76.977058, "fusion_lon": 0.0, "is_disabled": 0, "lat": 38.9025365, "bike_id": "0bac2cb3c90545f64ace36b93fd8ff77", "name": "0bac2cb3c90545f64ace36b93fd8ff77", "is_reserved": 0, "fusion_lat": 0.0}, {"type": "electric_scooter", "rental_uris": {"ios": "https://dc.lft.to/lastmile_qr_scan", "android": "https://dc.lft.to/lastmile_qr_scan"}, "lon": -77.02722133333333, "fusion_lon": 0.0, "is_disabled": 0, "lat": 38.93251433333333, "bike_id": "f83f16caa18d3294406d6cc785737082", "name": "f83f16caa18d3294406d6cc785737082", "is_reserved": 0, "fusion_lat": 0.0}, {"type": "electric_bike", "rental_uris": {"ios": "https://dc.lft.to/lastmile_qr_scan", "android": "https://dc.lft.to/lastmile_qr_scan"}, "lon": -77.01018816666667, "fusion_lon": 0.0, "is_disabled": 0, "lat": 38.955944833333334, "bike_id": "0f74e29b1aff8e23dbfa558a07d42637", "name": "0f74e29b1aff8e23dbfa558a07d42637", "is_reserved": 0, "fusion_lat": 0.0}, {"type": "electric_scooter", "rental_uris": {"ios": "https://dc.lft.to/lastmile_qr_scan", "android": "https://dc.lft.to/lastmile_qr_scan"}, "lon": -77.04508566666667, "fusion_lon": 0.0, "is_disabled": 0, "lat": 38.91966433333333, "bike_id": "a397861d7654431a715d7a100ff33ae5", "name": "a397861d7654431a715d7a100ff33ae5", "is_reserved": 0, "fusion_lat": 0.0}, {"type": "electric_scooter", "rental_uris": {"ios": "https://dc.lft.to/lastmile_qr_scan", "android": "https://dc.lft.to/lastmile_qr_scan"}, "lon": -76.989861, "fusion_lon": 0.0, "is_disabled": 0, "lat": 38.864959, "bike_id": "39f9e3bcfd6b966beec07dac96ab5bbd", "name": "39f9e3bcfd6b966beec07dac96ab5bbd", "is_reserved": 0, "fusion_lat": 0.0}, {"type": "electric_scooter", "rental_uris": {"ios": "https://dc.lft.to/lastmile_qr_scan", "android": "https://dc.lft.to/lastmile_qr_scan"}, "lon": -77.00208683333334, "fusion_lon": 0.0, "is_disabled": 0, "lat": 38.920505666666664, "bike_id": "6f4228cfd546d2d0dd95ca8741f12425", "name": "6f4228cfd546d2d0dd95ca8741f12425", "is_reserved": 0, "fusion_lat": 0.0}, {"type": "electric_scooter", "rental_uris": {"ios": "https://dc.lft.to/lastmile_qr_scan", "android": "https://dc.lft.to/lastmile_qr_scan"}, "lon": -77.044723, "fusion_lon": 0.0, "is_disabled": 0, "lat": 38.909447, "bike_id": "7494863fea61b9282d36fa390515e99f", "name": "7494863fea61b9282d36fa390515e99f", "is_reserved": 0, "fusion_lat": 0.0}, {"type": "electric_bike", "rental_uris": {"ios": "https://dc.lft.to/lastmile_qr_scan", "android": "https://dc.lft.to/lastmile_qr_scan"}, "lon": -77.034277, "fusion_lon": 0.0, "is_disabled": 0, "lat": 38.96622, "bike_id": "d762a26e859ed49b24f9107aeab9d89b", "name": "d762a26e859ed49b24f9107aeab9d89b", "is_reserved": 0, "fusion_lat": 0.0}, {"type": "electric_scooter", "rental_uris": {"ios": "https://dc.lft.to/lastmile_qr_scan", "android": "https://dc.lft.to/lastmile_qr_scan"}, "lon": -77.0358025, "fusion_lon": 0.0, "is_disabled": 0, "lat": 38.93474833333333, "bike_id": "1ac97414e292757b78278af31182612b", "name": "1ac97414e292757b78278af31182612b", "is_reserved": 0, "fusion_lat": 0.0}, {"type": "electric_scooter", "rental_uris": {"ios": "https://dc.lft.to/lastmile_qr_scan", "android": "https://dc.lft.to/lastmile_qr_scan"}, "lon": -77.027835, "fusion_lon": 0.0, "is_disabled": 0, "lat": 38.897034833333336, "bike_id": "a262e08fb1ea6b969e172d4f2fef8bdd", "name": "a262e08fb1ea6b969e172d4f2fef8bdd", "is_reserved": 0, "fusion_lat": 0.0}, {"type": "electric_scooter", "rental_uris": {"ios": "https://dc.lft.to/lastmile_qr_scan", "android": "https://dc.lft.to/lastmile_qr_scan"}, "lon": -77.0523545, "fusion_lon": 0.0, "is_disabled": 0, "lat": 38.92467666666667, "bike_id": "c7975cd09d4d2d7e5583773adba6e575", "name": "c7975cd09d4d2d7e5583773adba6e575", "is_reserved": 0, "fusion_lat": 0.0}, {"type": "electric_bike", "rental_uris": {"ios": "https://dc.lft.to/lastmile_qr_scan", "android": "https://dc.lft.to/lastmile_qr_scan"}, "lon": -77.04974733333333, "fusion_lon": 0.0, "is_disabled": 0, "lat": 38.8322035, "bike_id": "f4a5397dd7f2f0ff811df0fbe6193145", "name": "f4a5397dd7f2f0ff811df0fbe6193145", "is_reserved": 0, "fusion_lat": 0.0}, {"type": "electric_scooter", "rental_uris": {"ios": "https://dc.lft.to/lastmile_qr_scan", "android": "https://dc.lft.to/lastmile_qr_scan"}, "lon": -77.022413, "fusion_lon": 0.0, "is_disabled": 0, "lat": 38.8786795, "bike_id": "2ec18220524b8a075c86b40a06df72d6", "name": "2ec18220524b8a075c86b40a06df72d6", "is_reserved": 0, "fusion_lat": 0.0}, {"type": "electric_scooter", "rental_uris": {"ios": "https://dc.lft.to/lastmile_qr_scan", "android": "https://dc.lft.to/lastmile_qr_scan"}, "lon": -77.02514516666666, "fusion_lon": 0.0, "is_disabled": 0, "lat": 38.919600833333334, "bike_id": "8406e98f2660bcac05e4a5703771ea5b", "name": "8406e98f2660bcac05e4a5703771ea5b", "is_reserved": 0, "fusion_lat": 0.0}, {"type": "electric_scooter", "rental_uris": {"ios": "https://dc.lft.to/lastmile_qr_scan", "android": "https://dc.lft.to/lastmile_qr_scan"}, "lon": -77.02837966666667, "fusion_lon": 0.0, "is_disabled": 0, "lat": 38.892292, "bike_id": "71a908b7c94239ed010bf8c3d4ef6be7", "name": "71a908b7c94239ed010bf8c3d4ef6be7", "is_reserved": 0, "fusion_lat": 0.0}, {"type": "electric_scooter", "rental_uris": {"ios": "https://dc.lft.to/lastmile_qr_scan", "android": "https://dc.lft.to/lastmile_qr_scan"}, "lon": -77.02601816666666, "fusion_lon": 0.0, "is_disabled": 0, "lat": 38.9169185, "bike_id": "0876d749109994cb9a127be6c98a6e1d", "name": "0876d749109994cb9a127be6c98a6e1d", "is_reserved": 0, "fusion_lat": 0.0}, {"type": "electric_scooter", "rental_uris": {"ios": "https://dc.lft.to/lastmile_qr_scan", "android": "https://dc.lft.to/lastmile_qr_scan"}, "lon": -76.99516733333333, "fusion_lon": 0.0, "is_disabled": 0, "lat": 38.86256366666667, "bike_id": "e12e541ec653453fb74054451e9f0c27", "name": "e12e541ec653453fb74054451e9f0c27", "is_reserved": 0, "fusion_lat": 0.0}, {"type": "electric_scooter", "rental_uris": {"ios": "https://dc.lft.to/lastmile_qr_scan", "android": "https://dc.lft.to/lastmile_qr_scan"}, "lon": -77.0318765, "fusion_lon": 0.0, "is_disabled": 0, "lat": 38.897642833333336, "bike_id": "f564ddce2124238b951e4352713eb897", "name": "f564ddce2124238b951e4352713eb897", "is_reserved": 0, "fusion_lat": 0.0}, {"type": "electric_scooter", "rental_uris": {"ios": "https://dc.lft.to/lastmile_qr_scan", "android": "https://dc.lft.to/lastmile_qr_scan"}, "lon": -77.03257516666666, "fusion_lon": 0.0, "is_disabled": 0, "lat": 38.92951166666667, "bike_id": "3fdcebe2d8510724452b5b52d2b048d5", "name": "3fdcebe2d8510724452b5b52d2b048d5", "is_reserved": 0, "fusion_lat": 0.0}, {"type": "electric_scooter", "rental_uris": {"ios": "https://dc.lft.to/lastmile_qr_scan", "android": "https://dc.lft.to/lastmile_qr_scan"}, "lon": -77.02088133333334, "fusion_lon": 0.0, "is_disabled": 0, "lat": 38.9311845, "bike_id": "870dfa6b37db925cb919f0fef84b62ad", "name": "870dfa6b37db925cb919f0fef84b62ad", "is_reserved": 0, "fusion_lat": 0.0}, {"type": "electric_bike", "rental_uris": {"ios": "https://dc.lft.to/lastmile_qr_scan", "android": "https://dc.lft.to/lastmile_qr_scan"}, "lon": -77.0534185, "fusion_lon": 0.0, "is_disabled": 0, "lat": 38.90231283333333, "bike_id": "5243b8aa40c3c163d0958af6fde636ac", "name": "5243b8aa40c3c163d0958af6fde636ac", "is_reserved": 0, "fusion_lat": 0.0}, {"type": "electric_scooter", "rental_uris": {"ios": "https://dc.lft.to/lastmile_qr_scan", "android": "https://dc.lft.to/lastmile_qr_scan"}, "lon": -77.04243033333333, "fusion_lon": 0.0, "is_disabled": 0, "lat": 38.922223333333335, "bike_id": "d683c60f21349b8d5324f3ed4a6b04c5", "name": "d683c60f21349b8d5324f3ed4a6b04c5", "is_reserved": 0, "fusion_lat": 0.0}, {"type": "electric_scooter", "rental_uris": {"ios": "https://dc.lft.to/lastmile_qr_scan", "android": "https://dc.lft.to/lastmile_qr_scan"}, "lon": -76.9872675, "fusion_lon": 0.0, "is_disabled": 0, "lat": 38.86714283333333, "bike_id": "834e5a6a2b38e5204409b3d79139e617", "name": "834e5a6a2b38e5204409b3d79139e617", "is_reserved": 0, "fusion_lat": 0.0}, {"type": "electric_scooter", "rental_uris": {"ios": "https://dc.lft.to/lastmile_qr_scan", "android": "https://dc.lft.to/lastmile_qr_scan"}, "lon": -77.03188883333333, "fusion_lon": 0.0, "is_disabled": 0, "lat": 38.9174585, "bike_id": "e10af75d5758541caa4b0844e23aaa06", "name": "e10af75d5758541caa4b0844e23aaa06", "is_reserved": 0, "fusion_lat": 0.0}, {"type": "electric_scooter", "rental_uris": {"ios": "https://dc.lft.to/lastmile_qr_scan", "android": "https://dc.lft.to/lastmile_qr_scan"}, "lon": -77.02658883333334, "fusion_lon": 0.0, "is_disabled": 0, "lat": 38.91708083333333, "bike_id": "762dae43de77820c69fe3737a74195c1", "name": "762dae43de77820c69fe3737a74195c1", "is_reserved": 0, "fusion_lat": 0.0}, {"type": "electric_scooter", "rental_uris": {"ios": "https://dc.lft.to/lastmile_qr_scan", "android": "https://dc.lft.to/lastmile_qr_scan"}, "lon": -77.00985416666667, "fusion_lon": 0.0, "is_disabled": 0, "lat": 38.872902333333336, "bike_id": "946a48fde948dc27d600f5e24e8d9f43", "name": "946a48fde948dc27d600f5e24e8d9f43", "is_reserved": 0, "fusion_lat": 0.0}, {"type": "electric_scooter", "rental_uris": {"ios": "https://dc.lft.to/lastmile_qr_scan", "android": "https://dc.lft.to/lastmile_qr_scan"}, "lon": -77.03624533333333, "fusion_lon": 0.0, "is_disabled": 0, "lat": 38.936855333333334, "bike_id": "db5a7e3852b3dbd95cef91b11efa0b14", "name": "db5a7e3852b3dbd95cef91b11efa0b14", "is_reserved": 0, "fusion_lat": 0.0}, {"type": "electric_scooter", "rental_uris": {"ios": "https://dc.lft.to/lastmile_qr_scan", "android": "https://dc.lft.to/lastmile_qr_scan"}, "lon": -77.0280185, "fusion_lon": 0.0, "is_disabled": 0, "lat": 38.9110415, "bike_id": "7a5e299cb71a4e227a3307336f68a4e0", "name": "7a5e299cb71a4e227a3307336f68a4e0", "is_reserved": 0, "fusion_lat": 0.0}, {"type": "electric_scooter", "rental_uris": {"ios": "https://dc.lft.to/lastmile_qr_scan", "android": "https://dc.lft.to/lastmile_qr_scan"}, "lon": -77.04189566666666, "fusion_lon": 0.0, "is_disabled": 0, "lat": 38.9205995, "bike_id": "fe2745d2b6af026165c7e59e5fbae7ea", "name": "fe2745d2b6af026165c7e59e5fbae7ea", "is_reserved": 0, "fusion_lat": 0.0}, {"type": "electric_scooter", "rental_uris": {"ios": "https://dc.lft.to/lastmile_qr_scan", "android": "https://dc.lft.to/lastmile_qr_scan"}, "lon": -77.037513, "fusion_lon": 0.0, "is_disabled": 0, "lat": 38.9359315, "bike_id": "ee9c9beb3276b2985e74768d89e90d64", "name": "ee9c9beb3276b2985e74768d89e90d64", "is_reserved": 0, "fusion_lat": 0.0}, {"type": "electric_scooter", "rental_uris": {"ios": "https://dc.lft.to/lastmile_qr_scan", "android": "https://dc.lft.to/lastmile_qr_scan"}, "lon": -77.03160466666667, "fusion_lon": 0.0, "is_disabled": 0, "lat": 38.9140285, "bike_id": "188c3883d6abfcd4c2cb9960cad43501", "name": "188c3883d6abfcd4c2cb9960cad43501", "is_reserved": 0, "fusion_lat": 0.0}, {"type": "electric_scooter", "rental_uris": {"ios": "https://dc.lft.to/lastmile_qr_scan", "android": "https://dc.lft.to/lastmile_qr_scan"}, "lon": -76.98410583333333, "fusion_lon": 0.0, "is_disabled": 0, "lat": 38.8633585, "bike_id": "31fea21fc59ef34b81b4d9a6d9dd46c6", "name": "31fea21fc59ef34b81b4d9a6d9dd46c6", "is_reserved": 0, "fusion_lat": 0.0}, {"type": "electric_scooter", "rental_uris": {"ios": "https://dc.lft.to/lastmile_qr_scan", "android": "https://dc.lft.to/lastmile_qr_scan"}, "lon": -76.93351616666666, "fusion_lon": 0.0, "is_disabled": 0, "lat": 38.89911333333333, "bike_id": "ccbe4257700c3fc7e9aee44eac11525b", "name": "ccbe4257700c3fc7e9aee44eac11525b", "is_reserved": 0, "fusion_lat": 0.0}, {"type": "electric_bike", "rental_uris": {"ios": "https://dc.lft.to/lastmile_qr_scan", "android": "https://dc.lft.to/lastmile_qr_scan"}, "lon": -76.97002783333333, "fusion_lon": 0.0, "is_disabled": 0, "lat": 38.863753333333335, "bike_id": "81d7ff247ae0c40768a07d2deff0f936", "name": "81d7ff247ae0c40768a07d2deff0f936", "is_reserved": 0, "fusion_lat": 0.0}, {"type": "electric_scooter", "rental_uris": {"ios": "https://dc.lft.to/lastmile_qr_scan", "android": "https://dc.lft.to/lastmile_qr_scan"}, "lon": -77.04441683333333, "fusion_lon": 0.0, "is_disabled": 0, "lat": 38.930247666666666, "bike_id": "d945fa75805d5d4c242409c198f76da2", "name": "d945fa75805d5d4c242409c198f76da2", "is_reserved": 0, "fusion_lat": 0.0}, {"type": "electric_scooter", "rental_uris": {"ios": "https://dc.lft.to/lastmile_qr_scan", "android": "https://dc.lft.to/lastmile_qr_scan"}, "lon": -77.04875066666666, "fusion_lon": 0.0, "is_disabled": 0, "lat": 38.909764833333334, "bike_id": "286b1e630de3185494f39417c90e36b3", "name": "286b1e630de3185494f39417c90e36b3", "is_reserved": 0, "fusion_lat": 0.0}, {"type": "electric_bike", "rental_uris": {"ios": "https://dc.lft.to/lastmile_qr_scan", "android": "https://dc.lft.to/lastmile_qr_scan"}, "lon": -77.00839816666667, "fusion_lon": 0.0, "is_disabled": 0, "lat": 38.82878933333333, "bike_id": "7af2a6220f10dd91ad48ebc500a5099a", "name": "7af2a6220f10dd91ad48ebc500a5099a", "is_reserved": 0, "fusion_lat": 0.0}, {"type": "electric_scooter", "rental_uris": {"ios": "https://dc.lft.to/lastmile_qr_scan", "android": "https://dc.lft.to/lastmile_qr_scan"}, "lon": -77.03209933333333, "fusion_lon": 0.0, "is_disabled": 0, "lat": 38.9137565, "bike_id": "510c3e411929c262b1eeef2ab0adfb44", "name": "510c3e411929c262b1eeef2ab0adfb44", "is_reserved": 0, "fusion_lat": 0.0}, {"type": "electric_scooter", "rental_uris": {"ios": "https://dc.lft.to/lastmile_qr_scan", "android": "https://dc.lft.to/lastmile_qr_scan"}, "lon": -77.00045316666667, "fusion_lon": 0.0, "is_disabled": 0, "lat": 38.92029183333333, "bike_id": "59f607139491465a18d9ef9118d7d272", "name": "59f607139491465a18d9ef9118d7d272", "is_reserved": 0, "fusion_lat": 0.0}, {"type": "electric_scooter", "rental_uris": {"ios": "https://dc.lft.to/lastmile_qr_scan", "android": "https://dc.lft.to/lastmile_qr_scan"}, "lon": -77.0427905, "fusion_lon": 0.0, "is_disabled": 0, "lat": 38.910374833333336, "bike_id": "302cead52e1e7c0a0f0fbafec4abf620", "name": "302cead52e1e7c0a0f0fbafec4abf620", "is_reserved": 0, "fusion_lat": 0.0}, {"type": "electric_scooter", "rental_uris": {"ios": "https://dc.lft.to/lastmile_qr_scan", "android": "https://dc.lft.to/lastmile_qr_scan"}, "lon": -77.0019785, "fusion_lon": 0.0, "is_disabled": 0, "lat": 38.9023875, "bike_id": "1bf2b41af05fcb0a59287e3cef0f5777", "name": "1bf2b41af05fcb0a59287e3cef0f5777", "is_reserved": 0, "fusion_lat": 0.0}, {"type": "electric_bike", "rental_uris": {"ios": "https://dc.lft.to/lastmile_qr_scan", "android": "https://dc.lft.to/lastmile_qr_scan"}, "lon": -76.99832966666666, "fusion_lon": 0.0, "is_disabled": 0, "lat": 38.899933, "bike_id": "f5f37a329e8ab1b7ada83cf5e4b65ef6", "name": "f5f37a329e8ab1b7ada83cf5e4b65ef6", "is_reserved": 0, "fusion_lat": 0.0}, {"type": "electric_scooter", "rental_uris": {"ios": "https://dc.lft.to/lastmile_qr_scan", "android": "https://dc.lft.to/lastmile_qr_scan"}, "lon": -77.048637, "fusion_lon": 0.0, "is_disabled": 0, "lat": 38.90961466666667, "bike_id": "9df8641ba778dbcfa5fbbc3fc1d307d6", "name": "9df8641ba778dbcfa5fbbc3fc1d307d6", "is_reserved": 0, "fusion_lat": 0.0}, {"type": "electric_scooter", "rental_uris": {"ios": "https://dc.lft.to/lastmile_qr_scan", "android": "https://dc.lft.to/lastmile_qr_scan"}, "lon": -77.03279483333333, "fusion_lon": 0.0, "is_disabled": 0, "lat": 38.89933933333333, "bike_id": "f83186ecfca597416d7b019121f63eb3", "name": "f83186ecfca597416d7b019121f63eb3", "is_reserved": 0, "fusion_lat": 0.0}, {"type": "electric_scooter", "rental_uris": {"ios": "https://dc.lft.to/lastmile_qr_scan", "android": "https://dc.lft.to/lastmile_qr_scan"}, "lon": -77.0318675, "fusion_lon": 0.0, "is_disabled": 0, "lat": 38.913320166666665, "bike_id": "c2169bbad8c00db7fed9666c9b55fbcc", "name": "c2169bbad8c00db7fed9666c9b55fbcc", "is_reserved": 0, "fusion_lat": 0.0}, {"type": "electric_scooter", "rental_uris": {"ios": "https://dc.lft.to/lastmile_qr_scan", "android": "https://dc.lft.to/lastmile_qr_scan"}, "lon": -77.01746583333333, "fusion_lon": 0.0, "is_disabled": 0, "lat": 38.920343833333334, "bike_id": "b2f96438fe6dd77c2f77855d24472d2f", "name": "b2f96438fe6dd77c2f77855d24472d2f", "is_reserved": 0, "fusion_lat": 0.0}, {"type": "electric_scooter", "rental_uris": {"ios": "https://dc.lft.to/lastmile_qr_scan", "android": "https://dc.lft.to/lastmile_qr_scan"}, "lon": -77.03209583333333, "fusion_lon": 0.0, "is_disabled": 0, "lat": 38.895727666666666, "bike_id": "1dbce1c1aef01a5047d54b64275782e4", "name": "1dbce1c1aef01a5047d54b64275782e4", "is_reserved": 0, "fusion_lat": 0.0}, {"type": "electric_scooter", "rental_uris": {"ios": "https://dc.lft.to/lastmile_qr_scan", "android": "https://dc.lft.to/lastmile_qr_scan"}, "lon": -77.010464, "fusion_lon": 0.0, "is_disabled": 0, "lat": 38.89585966666667, "bike_id": "408dfd838ff67a5747846599790edc79", "name": "408dfd838ff67a5747846599790edc79", "is_reserved": 0, "fusion_lat": 0.0}, {"type": "electric_scooter", "rental_uris": {"ios": "https://dc.lft.to/lastmile_qr_scan", "android": "https://dc.lft.to/lastmile_qr_scan"}, "lon": -76.93525216666667, "fusion_lon": 0.0, "is_disabled": 0, "lat": 38.878962333333334, "bike_id": "ca5fe97278cc19c1806027698e6bfe18", "name": "ca5fe97278cc19c1806027698e6bfe18", "is_reserved": 0, "fusion_lat": 0.0}, {"type": "electric_scooter", "rental_uris": {"ios": "https://dc.lft.to/lastmile_qr_scan", "android": "https://dc.lft.to/lastmile_qr_scan"}, "lon": -77.04199266666667, "fusion_lon": 0.0, "is_disabled": 0, "lat": 38.89221716666667, "bike_id": "5053b4c9c9d1ba389aa9288c812b47fe", "name": "5053b4c9c9d1ba389aa9288c812b47fe", "is_reserved": 0, "fusion_lat": 0.0}, {"type": "electric_scooter", "rental_uris": {"ios": "https://dc.lft.to/lastmile_qr_scan", "android": "https://dc.lft.to/lastmile_qr_scan"}, "lon": -77.06889233333334, "fusion_lon": 0.0, "is_disabled": 0, "lat": 38.904206, "bike_id": "33c61245303a20eca24eda6e55f5d7b6", "name": "33c61245303a20eca24eda6e55f5d7b6", "is_reserved": 0, "fusion_lat": 0.0}, {"type": "electric_scooter", "rental_uris": {"ios": "https://dc.lft.to/lastmile_qr_scan", "android": "https://dc.lft.to/lastmile_qr_scan"}, "lon": -77.05330116666667, "fusion_lon": 0.0, "is_disabled": 0, "lat": 38.923336, "bike_id": "45bf26752d20b8852b292a3b366b3708", "name": "45bf26752d20b8852b292a3b366b3708", "is_reserved": 0, "fusion_lat": 0.0}, {"type": "electric_scooter", "rental_uris": {"ios": "https://dc.lft.to/lastmile_qr_scan", "android": "https://dc.lft.to/lastmile_qr_scan"}, "lon": -77.03632166666667, "fusion_lon": 0.0, "is_disabled": 0, "lat": 38.920899666666664, "bike_id": "44d6c15be865448f263b79678c8060c8", "name": "44d6c15be865448f263b79678c8060c8", "is_reserved": 0, "fusion_lat": 0.0}, {"type": "electric_scooter", "rental_uris": {"ios": "https://dc.lft.to/lastmile_qr_scan", "android": "https://dc.lft.to/lastmile_qr_scan"}, "lon": -76.99390116666666, "fusion_lon": 0.0, "is_disabled": 0, "lat": 38.91013483333333, "bike_id": "484689586dd21f72b762164641a2a13f", "name": "484689586dd21f72b762164641a2a13f", "is_reserved": 0, "fusion_lat": 0.0}, {"type": "electric_scooter", "rental_uris": {"ios": "https://dc.lft.to/lastmile_qr_scan", "android": "https://dc.lft.to/lastmile_qr_scan"}, "lon": -77.0368285, "fusion_lon": 0.0, "is_disabled": 0, "lat": 38.919068833333334, "bike_id": "ddb30f50a1c4cdc334ba5c58c0d384d4", "name": "ddb30f50a1c4cdc334ba5c58c0d384d4", "is_reserved": 0, "fusion_lat": 0.0}, {"type": "electric_scooter", "rental_uris": {"ios": "https://dc.lft.to/lastmile_qr_scan", "android": "https://dc.lft.to/lastmile_qr_scan"}, "lon": -77.0049455, "fusion_lon": 0.0, "is_disabled": 0, "lat": 38.8782535, "bike_id": "36da93ca3c0566637a9512a19fa7abae", "name": "36da93ca3c0566637a9512a19fa7abae", "is_reserved": 0, "fusion_lat": 0.0}, {"type": "electric_scooter", "rental_uris": {"ios": "https://dc.lft.to/lastmile_qr_scan", "android": "https://dc.lft.to/lastmile_qr_scan"}, "lon": -77.02433783333333, "fusion_lon": 0.0, "is_disabled": 0, "lat": 38.902477833333336, "bike_id": "606fa4f47e9168bd7359d6cd8384d2c8", "name": "606fa4f47e9168bd7359d6cd8384d2c8", "is_reserved": 0, "fusion_lat": 0.0}, {"type": "electric_scooter", "rental_uris": {"ios": "https://dc.lft.to/lastmile_qr_scan", "android": "https://dc.lft.to/lastmile_qr_scan"}, "lon": -77.03346866666666, "fusion_lon": 0.0, "is_disabled": 0, "lat": 38.917154833333335, "bike_id": "d4bb1fd97bdc9aac341e12a6890898c9", "name": "d4bb1fd97bdc9aac341e12a6890898c9", "is_reserved": 0, "fusion_lat": 0.0}, {"type": "electric_bike", "rental_uris": {"ios": "https://dc.lft.to/lastmile_qr_scan", "android": "https://dc.lft.to/lastmile_qr_scan"}, "lon": -76.93616633333333, "fusion_lon": 0.0, "is_disabled": 0, "lat": 38.97067066666666, "bike_id": "14b8a58a7265e4bd66f7992df30287f0", "name": "14b8a58a7265e4bd66f7992df30287f0", "is_reserved": 0, "fusion_lat": 0.0}, {"type": "electric_scooter", "rental_uris": {"ios": "https://dc.lft.to/lastmile_qr_scan", "android": "https://dc.lft.to/lastmile_qr_scan"}, "lon": -77.024185, "fusion_lon": 0.0, "is_disabled": 0, "lat": 38.933608666666665, "bike_id": "d3aa49b2e84b4b8d4ff30bfab25c816d", "name": "d3aa49b2e84b4b8d4ff30bfab25c816d", "is_reserved": 0, "fusion_lat": 0.0}, {"type": "electric_scooter", "rental_uris": {"ios": "https://dc.lft.to/lastmile_qr_scan", "android": "https://dc.lft.to/lastmile_qr_scan"}, "lon": -77.004211, "fusion_lon": 0.0, "is_disabled": 0, "lat": 38.87653616666667, "bike_id": "afe1f126d12f9ba68c8eb7beb9fcb141", "name": "afe1f126d12f9ba68c8eb7beb9fcb141", "is_reserved": 0, "fusion_lat": 0.0}, {"type": "electric_scooter", "rental_uris": {"ios": "https://dc.lft.to/lastmile_qr_scan", "android": "https://dc.lft.to/lastmile_qr_scan"}, "lon": -77.03219816666666, "fusion_lon": 0.0, "is_disabled": 0, "lat": 38.919964666666665, "bike_id": "84f2b7f8e82bf2830ea5267f7a166102", "name": "84f2b7f8e82bf2830ea5267f7a166102", "is_reserved": 0, "fusion_lat": 0.0}, {"type": "electric_scooter", "rental_uris": {"ios": "https://dc.lft.to/lastmile_qr_scan", "android": "https://dc.lft.to/lastmile_qr_scan"}, "lon": -77.02590016666667, "fusion_lon": 0.0, "is_disabled": 0, "lat": 38.9040825, "bike_id": "ddc76d479e9d563d8639d628c3c3f8f4", "name": "ddc76d479e9d563d8639d628c3c3f8f4", "is_reserved": 0, "fusion_lat": 0.0}, {"type": "electric_bike", "rental_uris": {"ios": "https://dc.lft.to/lastmile_qr_scan", "android": "https://dc.lft.to/lastmile_qr_scan"}, "lon": -77.02821283333333, "fusion_lon": 0.0, "is_disabled": 0, "lat": 38.93141516666667, "bike_id": "094074c112c5d0b4eecf2b53723b6974", "name": "094074c112c5d0b4eecf2b53723b6974", "is_reserved": 0, "fusion_lat": 0.0}, {"type": "electric_scooter", "rental_uris": {"ios": "https://dc.lft.to/lastmile_qr_scan", "android": "https://dc.lft.to/lastmile_qr_scan"}, "lon": -77.05384983333333, "fusion_lon": 0.0, "is_disabled": 0, "lat": 38.91066266666667, "bike_id": "0035cd1330e3c416c4d9761bdeb99ff9", "name": "0035cd1330e3c416c4d9761bdeb99ff9", "is_reserved": 0, "fusion_lat": 0.0}, {"type": "electric_bike", "rental_uris": {"ios": "https://dc.lft.to/lastmile_qr_scan", "android": "https://dc.lft.to/lastmile_qr_scan"}, "lon": -76.98553116666666, "fusion_lon": 0.0, "is_disabled": 0, "lat": 38.8520755, "bike_id": "05ba98c8707faa2acaf44e75e456e9e1", "name": "05ba98c8707faa2acaf44e75e456e9e1", "is_reserved": 0, "fusion_lat": 0.0}, {"type": "electric_scooter", "rental_uris": {"ios": "https://dc.lft.to/lastmile_qr_scan", "android": "https://dc.lft.to/lastmile_qr_scan"}, "lon": -77.03262016666666, "fusion_lon": 0.0, "is_disabled": 0, "lat": 38.935211833333334, "bike_id": "7a48a1e9e54ebd5b03e7dcd6a53093c0", "name": "7a48a1e9e54ebd5b03e7dcd6a53093c0", "is_reserved": 0, "fusion_lat": 0.0}, {"type": "electric_scooter", "rental_uris": {"ios": "https://dc.lft.to/lastmile_qr_scan", "android": "https://dc.lft.to/lastmile_qr_scan"}, "lon": -77.05748616666666, "fusion_lon": 0.0, "is_disabled": 0, "lat": 38.9256935, "bike_id": "44c34f7f5a9dc96867cdfb8824b87c7d", "name": "44c34f7f5a9dc96867cdfb8824b87c7d", "is_reserved": 0, "fusion_lat": 0.0}, {"type": "electric_bike", "rental_uris": {"ios": "https://dc.lft.to/lastmile_qr_scan", "android": "https://dc.lft.to/lastmile_qr_scan"}, "lon": -76.90438633333333, "fusion_lon": 0.0, "is_disabled": 0, "lat": 38.89766483333333, "bike_id": "657b0db2919313cef91bc1d257ad96c8", "name": "657b0db2919313cef91bc1d257ad96c8", "is_reserved": 0, "fusion_lat": 0.0}, {"type": "electric_scooter", "rental_uris": {"ios": "https://dc.lft.to/lastmile_qr_scan", "android": "https://dc.lft.to/lastmile_qr_scan"}, "lon": -77.02178716666667, "fusion_lon": 0.0, "is_disabled": 0, "lat": 38.89302966666666, "bike_id": "062619ff8656e80e87ddbe627803ca1f", "name": "062619ff8656e80e87ddbe627803ca1f", "is_reserved": 0, "fusion_lat": 0.0}, {"type": "electric_scooter", "rental_uris": {"ios": "https://dc.lft.to/lastmile_qr_scan", "android": "https://dc.lft.to/lastmile_qr_scan"}, "lon": -77.031638, "fusion_lon": 0.0, "is_disabled": 0, "lat": 38.89222066666667, "bike_id": "b4506cfd20ea4970c12b747df974271e", "name": "b4506cfd20ea4970c12b747df974271e", "is_reserved": 0, "fusion_lat": 0.0}, {"type": "electric_scooter", "rental_uris": {"ios": "https://dc.lft.to/lastmile_qr_scan", "android": "https://dc.lft.to/lastmile_qr_scan"}, "lon": -77.01342616666666, "fusion_lon": 0.0, "is_disabled": 0, "lat": 38.919155333333336, "bike_id": "b6fe812e6dbdf4178307adceea13b9ee", "name": "b6fe812e6dbdf4178307adceea13b9ee", "is_reserved": 0, "fusion_lat": 0.0}, {"type": "electric_scooter", "rental_uris": {"ios": "https://dc.lft.to/lastmile_qr_scan", "android": "https://dc.lft.to/lastmile_qr_scan"}, "lon": -77.038442, "fusion_lon": 0.0, "is_disabled": 0, "lat": 38.9164205, "bike_id": "215dcc216d16a8229daf982f2a023569", "name": "215dcc216d16a8229daf982f2a023569", "is_reserved": 0, "fusion_lat": 0.0}, {"type": "electric_scooter", "rental_uris": {"ios": "https://dc.lft.to/lastmile_qr_scan", "android": "https://dc.lft.to/lastmile_qr_scan"},