{"data": {"bikes": [{"fusion_lon": 0.0, "bike_id": "866886d04fba066ea7f2227934398e8d", "lon": -77.0092315, "lat": 38.9134475, "is_disabled": 0, "name": "866886d04fba066ea7f2227934398e8d", "is_reserved": 0, "fusion_lat": 0.0, "type": "electric_scooter", "rental_uris": {"android": "https://dc.lft.to/lastmile_qr_scan", "ios": "https://dc.lft.to/lastmile_qr_scan"}}, {"fusion_lon": 0.0, "bike_id": "482ea321ff030e42e8eb5dba149d823f", "lon": -77.0416255, "lat": 38.89744483333333, "is_disabled": 0, "name": "482ea321ff030e42e8eb5dba149d823f", "is_reserved": 0, "fusion_lat": 0.0, "type": "electric_scooter", "rental_uris": {"android": "https://dc.lft.to/lastmile_qr_scan", "ios": "https://dc.lft.to/lastmile_qr_scan"}}, {"fusion_lon": 0.0, "bike_id": "ba25e5165e7ee45f9ff5d2ac07a3edee", "lon": -77.00289583333333, "lat": 38.89195183333333, "is_disabled": 0, "name": "ba25e5165e7ee45f9ff5d2ac07a3edee", "is_reserved": 0, "fusion_lat": 0.0, "type": "electric_scooter", "rental_uris": {"android": "https://dc.lft.to/lastmile_qr_scan", "ios": "https://dc.lft.to/lastmile_qr_scan"}}, {"fusion_lon": 0.0, "bike_id": "c8001eb50558004399050267bedfa1df", "lon": -77.00017466666667, "lat": 38.87395333333333, "is_disabled": 0, "name": "c8001eb50558004399050267bedfa1df", "is_reserved": 0, "fusion_lat": 0.0, "type": "electric_scooter", "rental_uris": {"android": "https://dc.lft.to/lastmile_qr_scan", "ios": "https://dc.lft.to/lastmile_qr_scan"}}, {"fusion_lon": 0.0, "bike_id": "fdde50bbba98a076f9beaccacd2cb321", "lon": -76.90187533333334, "lat": 39.001885, "is_disabled": 0, "name": "fdde50bbba98a076f9beaccacd2cb321", "is_reserved": 0, "fusion_lat": 0.0, "type": "electric_bike", "rental_uris": {"android": "https://dc.lft.to/lastmile_qr_scan", "ios": "https://dc.lft.to/lastmile_qr_scan"}}, {"fusion_lon": 0.0, "bike_id": "a266ed489f10f6a607d9d160aec4b153", "lon": -77.00331066666666, "lat": 38.893562833333334, "is_disabled": 0, "name": "a266ed489f10f6a607d9d160aec4b153", "is_reserved": 0, "fusion_lat": 0.0, "type": "electric_scooter", "rental_uris": {"android": "https://dc.lft.to/lastmile_qr_scan", "ios": "https://dc.lft.to/lastmile_qr_scan"}}, {"fusion_lon": 0.0, "bike_id": "5f769be20b8b9090d84fec579c66f9d8", "lon": -77.03443116666666, "lat": 38.921462166666664, "is_disabled": 0, "name": "5f769be20b8b9090d84fec579c66f9d8", "is_reserved": 0, "fusion_lat": 0.0, "type": "electric_scooter", "rental_uris": {"android": "https://dc.lft.to/lastmile_qr_scan", "ios": "https://dc.lft.to/lastmile_qr_scan"}}, {"fusion_lon": 0.0, "bike_id": "22122994727726ce81ed51c184681da5", "lon": -77.02195383333333, "lat": 38.89372066666667, "is_disabled": 0, "name": "22122994727726ce81ed51c184681da5", "is_reserved": 0, "fusion_lat": 0.0, "type": "electric_scooter", "rental_uris": {"android": "https://dc.lft.to/lastmile_qr_scan", "ios": "https://dc.lft.to/lastmile_qr_scan"}}, {"fusion_lon": 0.0, "bike_id": "dadd19833923824260ec6070df98d78e", "lon": -77.04155033333333, "lat": 38.91741016666667, "is_disabled": 0, "name": "dadd19833923824260ec6070df98d78e", "is_reserved": 0, "fusion_lat": 0.0, "type": "electric_scooter", "rental_uris": {"android": "https://dc.lft.to/lastmile_qr_scan", "ios": "https://dc.lft.to/lastmile_qr_scan"}}, {"fusion_lon": 0.0, "bike_id": "c484041fd0098824d819558daf170228", "lon": -77.11413083333333, "lat": 38.87319933333333, "is_disabled": 0, "name": "c484041fd0098824d819558daf170228", "is_reserved": 0, "fusion_lat": 0.0, "type": "electric_bike", "rental_uris": {"android": "https://dc.lft.to/lastmile_qr_scan", "ios": "https://dc.lft.to/lastmile_qr_scan"}}, {"fusion_lon": 0.0, "bike_id": "465a781f9cf2f678bc5a96e51d072f01", "lon": -77.02296383333334, "lat": 38.920594666666666, "is_disabled": 0, "name": "465a781f9cf2f678bc5a96e51d072f01", "is_reserved": 0, "fusion_lat": 0.0, "type": "electric_scooter", "rental_uris": {"android": "https://dc.lft.to/lastmile_qr_scan", "ios": "https://dc.lft.to/lastmile_qr_scan"}}, {"fusion_lon": 0.0, "bike_id": "3d1560eb9b76d7d2666407bc0049bd75", "lon": -77.05808433333333, "lat": 38.93460416666667, "is_disabled": 0, "name": "3d1560eb9b76d7d2666407bc0049bd75", "is_reserved": 0, "fusion_lat": 0.0, "type": "electric_scooter", "rental_uris": {"android": "https://dc.lft.to/lastmile_qr_scan", "ios": "https://dc.lft.to/lastmile_qr_scan"}}, {"fusion_lon": 0.0, "bike_id": "f5f5599b196dac4437f8a7125eeaf0b3", "lon": -77.04333283333334, "lat": 38.923195, "is_disabled": 0, "name": "f5f5599b196dac4437f8a7125eeaf0b3", "is_reserved": 0, "fusion_lat": 0.0, "type": "electric_scooter", "rental_uris": {"android": "https://dc.lft.to/lastmile_qr_scan", "ios": "https://dc.lft.to/lastmile_qr_scan"}}, {"fusion_lon": 0.0, "bike_id": "73f8c814e4b658eb3a7969b73d691d41", "lon": -77.031795, "lat": 38.919106666666664, "is_disabled": 0, "name": "73f8c814e4b658eb3a7969b73d691d41", "is_reserved": 0, "fusion_lat": 0.0, "type": "electric_scooter", "rental_uris": {"android": "https://dc.lft.to/lastmile_qr_scan", "ios": "https://dc.lft.to/lastmile_qr_scan"}}, {"fusion_lon": 0.0, "bike_id": "bea715921cee972baad17206909de921", "lon": -77.027639, "lat": 38.892211, "is_disabled": 0, "name": "bea715921cee972baad17206909de921", "is_reserved": 0, "fusion_lat": 0.0, "type": "electric_scooter", "rental_uris": {"android": "https://dc.lft.to/lastmile_qr_scan", "ios": "https://dc.lft.to/lastmile_qr_scan"}}, {"fusion_lon": 0.0, "bike_id": "75e5e70344e737c545f14f787d153b05", "lon": -77.00200633333333, "lat": 38.893443833333336, "is_disabled": 0, "name": "75e5e70344e737c545f14f787d153b05", "is_reserved": 0, "fusion_lat": 0.0, "type": "electric_scooter", "rental_uris": {"android": "https://dc.lft.to/lastmile_qr_scan", "ios": "https://dc.lft.to/lastmile_qr_scan"}}, {"fusion_lon": 0.0, "bike_id": "98099c0058e70653879fb3a1cc07ff6b", "lon": -76.97735516666667, "lat": 38.871453, "is_disabled": 0, "name": "98099c0058e70653879fb3a1cc07ff6b", "is_reserved": 0, "fusion_lat": 0.0, "type": "electric_scooter", "rental_uris": {"android": "https://dc.lft.to/lastmile_qr_scan", "ios": "https://dc.lft.to/lastmile_qr_scan"}}, {"fusion_lon": 0.0, "bike_id": "deb9d8248df350240364d78da829d647", "lon": -76.93393733333333, "lat": 38.8990335, "is_disabled": 0, "name": "deb9d8248df350240364d78da829d647", "is_reserved": 0, "fusion_lat": 0.0, "type": "electric_scooter", "rental_uris": {"android": "https://dc.lft.to/lastmile_qr_scan", "ios": "https://dc.lft.to/lastmile_qr_scan"}}, {"fusion_lon": 0.0, "bike_id": "140b0599067817af042e01fc79db6bb0", "lon": -77.05073266666666, "lat": 38.90084, "is_disabled": 0, "name": "140b0599067817af042e01fc79db6bb0", "is_reserved": 0, "fusion_lat": 0.0, "type": "electric_scooter", "rental_uris": {"android": "https://dc.lft.to/lastmile_qr_scan", "ios": "https://dc.lft.to/lastmile_qr_scan"}}, {"fusion_lon": 0.0, "bike_id": "5a24ecb36f7c6c7e12895fe476484042", "lon": -77.04150333333334, "lat": 38.918132, "is_disabled": 0, "name": "5a24ecb36f7c6c7e12895fe476484042", "is_reserved": 0, "fusion_lat": 0.0, "type": "electric_scooter", "rental_uris": {"android": "https://dc.lft.to/lastmile_qr_scan", "ios": "https://dc.lft.to/lastmile_qr_scan"}}, {"fusion_lon": 0.0, "bike_id": "aec2d7f854ec72d8775ece878ee8236f", "lon": -77.03206816666666, "lat": 38.8838895, "is_disabled": 0, "name": "aec2d7f854ec72d8775ece878ee8236f", "is_reserved": 0, "fusion_lat": 0.0, "type": "electric_scooter", "rental_uris": {"android": "https://dc.lft.to/lastmile_qr_scan", "ios": "https://dc.lft.to/lastmile_qr_scan"}}, {"fusion_lon": 0.0, "bike_id": "a67624dd02036a690db9143ecef0c878", "lon": -77.00204716666667, "lat": 38.88146233333333, "is_disabled": 0, "name": "a67624dd02036a690db9143ecef0c878", "is_reserved": 0, "fusion_lat": 0.0, "type": "electric_scooter", "rental_uris": {"android": "https://dc.lft.to/lastmile_qr_scan", "ios": "https://dc.lft.to/lastmile_qr_scan"}}, {"fusion_lon": 0.0, "bike_id": "ff7607d89fb2ac727d0bbb4a490f589d", "lon": -76.990965, "lat": 38.93275533333333, "is_disabled": 0, "name": "ff7607d89fb2ac727d0bbb4a490f589d", "is_reserved": 0, "fusion_lat": 0.0, "type": "electric_scooter", "rental_uris": {"android": "https://dc.lft.to/lastmile_qr_scan", "ios": "https://dc.lft.to/lastmile_qr_scan"}}, {"fusion_lon": 0.0, "bike_id": "0740389a2565eae8a80d70f21fee2e7f", "lon": -77.02572083333334, "lat": 38.91655816666667, "is_disabled": 0, "name": "0740389a2565eae8a80d70f21fee2e7f", "is_reserved": 0, "fusion_lat": 0.0, "type": "electric_scooter", "rental_uris": {"android": "https://dc.lft.to/lastmile_qr_scan", "ios": "https://dc.lft.to/lastmile_qr_scan"}}, {"fusion_lon": 0.0, "bike_id": "9f2430207464378ec7162cccb45794a9", "lon": -77.03247516666667, "lat": 38.902572166666666, "is_disabled": 0, "name": "9f2430207464378ec7162cccb45794a9", "is_reserved": 0, "fusion_lat": 0.0, "type": "electric_scooter", "rental_uris": {"android": "https://dc.lft.to/lastmile_qr_scan", "ios": "https://dc.lft.to/lastmile_qr_scan"}}, {"fusion_lon": 0.0, "bike_id": "17ba1f4e9bc21ba0bdd193a66cd7298e", "lon": -77.018045, "lat": 38.91400933333333, "is_disabled": 0, "name": "17ba1f4e9bc21ba0bdd193a66cd7298e", "is_reserved": 0, "fusion_lat": 0.0, "type": "electric_scooter", "rental_uris": {"android": "https://dc.lft.to/lastmile_qr_scan", "ios": "https://dc.lft.to/lastmile_qr_scan"}}, {"fusion_lon": 0.0, "bike_id": "5ba94afdb8b69bfb21156375fab24c8a", "lon": -76.9866475, "lat": 38.912399, "is_disabled": 0, "name": "5ba94afdb8b69bfb21156375fab24c8a", "is_reserved": 0, "fusion_lat": 0.0, "type": "electric_scooter", "rental_uris": {"android": "https://dc.lft.to/lastmile_qr_scan", "ios": "https://dc.lft.to/lastmile_qr_scan"}}, {"fusion_lon": 0.0, "bike_id": "2660ef3f9d7a31d74d7f57260f265566", "lon": -77.0231385, "lat": 38.93981466666666, "is_disabled": 0, "name": "2660ef3f9d7a31d74d7f57260f265566", "is_reserved": 0, "fusion_lat": 0.0, "type": "electric_scooter", "rental_uris": {"android": "https://dc.lft.to/lastmile_qr_scan", "ios": "https://dc.lft.to/lastmile_qr_scan"}}, {"fusion_lon": 0.0, "bike_id": "1e91e67367e2b2ab37e92d1ce485f200", "lon": -77.02572666666667, "lat": 38.890433, "is_disabled": 0, "name": "1e91e67367e2b2ab37e92d1ce485f200", "is_reserved": 0, "fusion_lat": 0.0, "type": "electric_scooter", "rental_uris": {"android": "https://dc.lft.to/lastmile_qr_scan", "ios": "https://dc.lft.to/lastmile_qr_scan"}}, {"fusion_lon": 0.0, "bike_id": "8099bd9c16f7f3075defea21bfc0b125", "lon": -76.93195933333334, "lat": 38.89850883333333, "is_disabled": 0, "name": "8099bd9c16f7f3075defea21bfc0b125", "is_reserved": 0, "fusion_lat": 0.0, "type": "electric_scooter", "rental_uris": {"android": "https://dc.lft.to/lastmile_qr_scan", "ios": "https://dc.lft.to/lastmile_qr_scan"}}, {"fusion_lon": 0.0, "bike_id": "60fd6b46cd11336dcecb6ee855ef8e01", "lon": -76.98620033333333, "lat": 38.90585266666667, "is_disabled": 0, "name": "60fd6b46cd11336dcecb6ee855ef8e01", "is_reserved": 0, "fusion_lat": 0.0, "type": "electric_scooter", "rental_uris": {"android": "https://dc.lft.to/lastmile_qr_scan", "ios": "https://dc.lft.to/lastmile_qr_scan"}}, {"fusion_lon": 0.0, "bike_id": "2a0a8a9f42dc58f2a8740bdf4b543446", "lon": -77.05421516666667, "lat": 38.985192166666664, "is_disabled": 0, "name": "2a0a8a9f42dc58f2a8740bdf4b543446", "is_reserved": 0, "fusion_lat": 0.0, "type": "electric_scooter", "rental_uris": {"android": "https://dc.lft.to/lastmile_qr_scan", "ios": "https://dc.lft.to/lastmile_qr_scan"}}, {"fusion_lon": 0.0, "bike_id": "2e4a5daf9e2bf2d4650a7c7fc1567c9b", "lon": -77.059326, "lat": 38.942961833333335, "is_disabled": 0, "name": "2e4a5daf9e2bf2d4650a7c7fc1567c9b", "is_reserved": 0, "fusion_lat": 0.0, "type": "electric_scooter", "rental_uris": {"android": "https://dc.lft.to/lastmile_qr_scan", "ios": "https://dc.lft.to/lastmile_qr_scan"}}, {"fusion_lon": 0.0, "bike_id": "d98cd4116aac2732d593dad2970c371e", "lon": -76.99017566666667, "lat": 38.86517416666667, "is_disabled": 0, "name": "d98cd4116aac2732d593dad2970c371e", "is_reserved": 0, "fusion_lat": 0.0, "type": "electric_scooter", "rental_uris": {"android": "https://dc.lft.to/lastmile_qr_scan", "ios": "https://dc.lft.to/lastmile_qr_scan"}}, {"fusion_lon": 0.0, "bike_id": "fa93562df0c4e58663fe6812dcba0f75", "lon": -77.06824666666667, "lat": 38.9180175, "is_disabled": 0, "name": "fa93562df0c4e58663fe6812dcba0f75", "is_reserved": 0, "fusion_lat": 0.0, "type": "electric_scooter", "rental_uris": {"android": "https://dc.lft.to/lastmile_qr_scan", "ios": "https://dc.lft.to/lastmile_qr_scan"}}, {"fusion_lon": 0.0, "bike_id": "a1fe71f5bd8e562718d335a2ed192b4a", "lon": -77.02998683333334, "lat": 38.899602, "is_disabled": 0, "name": "a1fe71f5bd8e562718d335a2ed192b4a", "is_reserved": 0, "fusion_lat": 0.0, "type": "electric_scooter", "rental_uris": {"android": "https://dc.lft.to/lastmile_qr_scan", "ios": "https://dc.lft.to/lastmile_qr_scan"}}, {"fusion_lon": 0.0, "bike_id": "900274a58a73493cce9a82e0e600161c", "lon": -76.92632683333333, "lat": 38.88620516666667, "is_disabled": 0, "name": "900274a58a73493cce9a82e0e600161c", "is_reserved": 0, "fusion_lat": 0.0, "type": "electric_scooter", "rental_uris": {"android": "https://dc.lft.to/lastmile_qr_scan", "ios": "https://dc.lft.to/lastmile_qr_scan"}}, {"fusion_lon": 0.0, "bike_id": "058fd11bd4427e9df6ba8a1ac6d12c10", "lon": -77.04121633333334, "lat": 38.93221583333333, "is_disabled": 0, "name": "058fd11bd4427e9df6ba8a1ac6d12c10", "is_reserved": 0, "fusion_lat": 0.0, "type": "electric_scooter", "rental_uris": {"android": "https://dc.lft.to/lastmile_qr_scan", "ios": "https://dc.lft.to/lastmile_qr_scan"}}, {"fusion_lon": 0.0, "bike_id": "35ff4c0638f1d59c5b5e633896c08284", "lon": -77.0413585, "lat": 38.921085833333336, "is_disabled": 0, "name": "35ff4c0638f1d59c5b5e633896c08284", "is_reserved": 0, "fusion_lat": 0.0, "type": "electric_scooter", "rental_uris": {"android": "https://dc.lft.to/lastmile_qr_scan", "ios": "https://dc.lft.to/lastmile_qr_scan"}}, {"fusion_lon": 0.0, "bike_id": "8bfa1a26ab57027c9a96bedb5abe27cc", "lon": -77.0352985, "lat": 38.9235795, "is_disabled": 0, "name": "8bfa1a26ab57027c9a96bedb5abe27cc", "is_reserved": 0, "fusion_lat": 0.0, "type": "electric_scooter", "rental_uris": {"android": "https://dc.lft.to/lastmile_qr_scan", "ios": "https://dc.lft.to/lastmile_qr_scan"}}, {"fusion_lon": 0.0, "bike_id": "6891c122368ee8061cefe2511f75da64", "lon": -77.0743795, "lat": 38.93584466666667, "is_disabled": 0, "name": "6891c122368ee8061cefe2511f75da64", "is_reserved": 0, "fusion_lat": 0.0, "type": "electric_scooter", "rental_uris": {"android": "https://dc.lft.to/lastmile_qr_scan", "ios": "https://dc.lft.to/lastmile_qr_scan"}}, {"fusion_lon": 0.0, "bike_id": "cb32081dacc32d2650c5ef3cfb9b5bc3", "lon": -77.01375966666667, "lat": 38.898471, "is_disabled": 0, "name": "cb32081dacc32d2650c5ef3cfb9b5bc3", "is_reserved": 0, "fusion_lat": 0.0, "type": "electric_scooter", "rental_uris": {"android": "https://dc.lft.to/lastmile_qr_scan", "ios": "https://dc.lft.to/lastmile_qr_scan"}}, {"fusion_lon": 0.0, "bike_id": "5668d53be104d859b18d187e04a9ca24", "lon": -77.072309, "lat": 38.9236315, "is_disabled": 0, "name": "5668d53be104d859b18d187e04a9ca24", "is_reserved": 0, "fusion_lat": 0.0, "type": "electric_scooter", "rental_uris": {"android": "https://dc.lft.to/lastmile_qr_scan", "ios": "https://dc.lft.to/lastmile_qr_scan"}}, {"fusion_lon": 0.0, "bike_id": "a89b0b87f43e62c67c9448b7d69eb1cd", "lon": -76.98546516666667, "lat": 38.905916, "is_disabled": 0, "name": "a89b0b87f43e62c67c9448b7d69eb1cd", "is_reserved": 0, "fusion_lat": 0.0, "type": "electric_scooter", "rental_uris": {"android": "https://dc.lft.to/lastmile_qr_scan", "ios": "https://dc.lft.to/lastmile_qr_scan"}}, {"fusion_lon": 0.0, "bike_id": "7659ce9ae01e7f4fcf1639c614b662ce", "lon": -77.026269, "lat": 38.896114833333336, "is_disabled": 0, "name": "7659ce9ae01e7f4fcf1639c614b662ce", "is_reserved": 0, "fusion_lat": 0.0, "type": "electric_scooter", "rental_uris": {"android": "https://dc.lft.to/lastmile_qr_scan", "ios": "https://dc.lft.to/lastmile_qr_scan"}}, {"fusion_lon": 0.0, "bike_id": "253e2a7c75d99352be85dfa868187925", "lon": -77.03475033333333, "lat": 38.92914183333333, "is_disabled": 0, "name": "253e2a7c75d99352be85dfa868187925", "is_reserved": 0, "fusion_lat": 0.0, "type": "electric_scooter", "rental_uris": {"android": "https://dc.lft.to/lastmile_qr_scan", "ios": "https://dc.lft.to/lastmile_qr_scan"}}, {"fusion_lon": 0.0, "bike_id": "61cbc01b4848e427f9af10a24bafd76b", "lon": -76.93520566666666, "lat": 38.8789775, "is_disabled": 0, "name": "61cbc01b4848e427f9af10a24bafd76b", "is_reserved": 0, "fusion_lat": 0.0, "type": "electric_scooter", "rental_uris": {"android": "https://dc.lft.to/lastmile_qr_scan", "ios": "https://dc.lft.to/lastmile_qr_scan"}}, {"fusion_lon": 0.0, "bike_id": "d9be10afbe7fa2744678ff7659bddde7", "lon": -77.04861233333334, "lat": 38.90476816666666, "is_disabled": 0, "name": "d9be10afbe7fa2744678ff7659bddde7", "is_reserved": 0, "fusion_lat": 0.0, "type": "electric_scooter", "rental_uris": {"android": "https://dc.lft.to/lastmile_qr_scan", "ios": "https://dc.lft.to/lastmile_qr_scan"}}, {"fusion_lon": 0.0, "bike_id": "aec6afaa196e6af535d3f752b122dd8a", "lon": -77.02525583333333, "lat": 38.96730066666667, "is_disabled": 0, "name": "aec6afaa196e6af535d3f752b122dd8a", "is_reserved": 0, "fusion_lat": 0.0, "type": "electric_scooter", "rental_uris": {"android": "https://dc.lft.to/lastmile_qr_scan", "ios": "https://dc.lft.to/lastmile_qr_scan"}}, {"fusion_lon": 0.0, "bike_id": "e03ce8180782151472b9158c15e38b13", "lon": -76.99508516666667, "lat": 38.880948833333335, "is_disabled": 0, "name": "e03ce8180782151472b9158c15e38b13", "is_reserved": 0, "fusion_lat": 0.0, "type": "electric_scooter", "rental_uris": {"android": "https://dc.lft.to/lastmile_qr_scan", "ios": "https://dc.lft.to/lastmile_qr_scan"}}, {"fusion_lon": 0.0, "bike_id": "274564511c02942dc839f64f2abad4fa", "lon": -77.00291316666667, "lat": 38.907166, "is_disabled": 0, "name": "274564511c02942dc839f64f2abad4fa", "is_reserved": 0, "fusion_lat": 0.0, "type": "electric_scooter", "rental_uris": {"android": "https://dc.lft.to/lastmile_qr_scan", "ios": "https://dc.lft.to/lastmile_qr_scan"}}, {"fusion_lon": 0.0, "bike_id": "e1b5a9794fe00f5477669a827049f02d", "lon": -76.99143566666666, "lat": 38.899724, "is_disabled": 0, "name": "e1b5a9794fe00f5477669a827049f02d", "is_reserved": 0, "fusion_lat": 0.0, "type": "electric_scooter", "rental_uris": {"android": "https://dc.lft.to/lastmile_qr_scan", "ios": "https://dc.lft.to/lastmile_qr_scan"}}, {"fusion_lon": 0.0, "bike_id": "e02ca123919d6957b88b1a6e1e7b49bf", "lon": -77.03279316666666, "lat": 38.897064666666665, "is_disabled": 0, "name": "e02ca123919d6957b88b1a6e1e7b49bf", "is_reserved": 0, "fusion_lat": 0.0, "type": "electric_scooter", "rental_uris": {"android": "https://dc.lft.to/lastmile_qr_scan", "ios": "https://dc.lft.to/lastmile_qr_scan"}}, {"fusion_lon": 0.0, "bike_id": "a1bf3669ca5f7721ade85a9798caf593", "lon": -77.019377, "lat": 38.923748833333335, "is_disabled": 0, "name": "a1bf3669ca5f7721ade85a9798caf593", "is_reserved": 0, "fusion_lat": 0.0, "type": "electric_scooter", "rental_uris": {"android": "https://dc.lft.to/lastmile_qr_scan", "ios": "https://dc.lft.to/lastmile_qr_scan"}}, {"fusion_lon": 0.0, "bike_id": "bde8e2ac4276b63df0d1c8e6bc6b1097", "lon": -77.03592216666667, "lat": 38.9081785, "is_disabled": 0, "name": "bde8e2ac4276b63df0d1c8e6bc6b1097", "is_reserved": 0, "fusion_lat": 0.0, "type": "electric_scooter", "rental_uris": {"android": "https://dc.lft.to/lastmile_qr_scan", "ios": "https://dc.lft.to/lastmile_qr_scan"}}, {"fusion_lon": 0.0, "bike_id": "c35d806c43d4f8cbd687caa049f14f19", "lon": -77.07151666666667, "lat": 38.908713166666665, "is_disabled": 0, "name": "c35d806c43d4f8cbd687caa049f14f19", "is_reserved": 0, "fusion_lat": 0.0, "type": "electric_scooter", "rental_uris": {"android": "https://dc.lft.to/lastmile_qr_scan", "ios": "https://dc.lft.to/lastmile_qr_scan"}}, {"fusion_lon": 0.0, "bike_id": "4bb7a0e98e5d0d2da44976f672da218b", "lon": -77.03464583333333, "lat": 38.91398133333333, "is_disabled": 0, "name": "4bb7a0e98e5d0d2da44976f672da218b", "is_reserved": 0, "fusion_lat": 0.0, "type": "electric_scooter", "rental_uris": {"android": "https://dc.lft.to/lastmile_qr_scan", "ios": "https://dc.lft.to/lastmile_qr_scan"}}, {"fusion_lon": 0.0, "bike_id": "3bff18158f57e2150321f72ea34d65d2", "lon": -77.23390333333333, "lat": 38.871741, "is_disabled": 0, "name": "3bff18158f57e2150321f72ea34d65d2", "is_reserved": 0, "fusion_lat": 0.0, "type": "electric_bike", "rental_uris": {"android": "https://dc.lft.to/lastmile_qr_scan", "ios": "https://dc.lft.to/lastmile_qr_scan"}}, {"fusion_lon": 0.0, "bike_id": "69db8520a1fe4fb1e11e7b86a89f6a16", "lon": -77.02137083333334, "lat": 38.924887166666664, "is_disabled": 0, "name": "69db8520a1fe4fb1e11e7b86a89f6a16", "is_reserved": 0, "fusion_lat": 0.0, "type": "electric_scooter", "rental_uris": {"android": "https://dc.lft.to/lastmile_qr_scan", "ios": "https://dc.lft.to/lastmile_qr_scan"}}, {"fusion_lon": 0.0, "bike_id": "13717e68274a3506fea5b220ddd54e75", "lon": -77.0323345, "lat": 38.91256033333333, "is_disabled": 0, "name": "13717e68274a3506fea5b220ddd54e75", "is_reserved": 0, "fusion_lat": 0.0, "type": "electric_scooter", "rental_uris": {"android": "https://dc.lft.to/lastmile_qr_scan", "ios": "https://dc.lft.to/lastmile_qr_scan"}}, {"fusion_lon": 0.0, "bike_id": "9617f826be18ec7d2ce79517c54e6b87", "lon": -77.03139566666667, "lat": 38.91265683333334, "is_disabled": 0, "name": "9617f826be18ec7d2ce79517c54e6b87", "is_reserved": 0, "fusion_lat": 0.0, "type": "electric_scooter", "rental_uris": {"android": "https://dc.lft.to/lastmile_qr_scan", "ios": "https://dc.lft.to/lastmile_qr_scan"}}, {"fusion_lon": 0.0, "bike_id": "8fe7480d822e9b958991c81608f62cf9", "lon": -77.09685516666667, "lat": 38.8073645, "is_disabled": 0, "name": "8fe7480d822e9b958991c81608f62cf9", "is_reserved": 0, "fusion_lat": 0.0, "type": "electric_bike", "rental_uris": {"android": "https://dc.lft.to/lastmile_qr_scan", "ios": "https://dc.lft.to/lastmile_qr_scan"}}, {"fusion_lon": 0.0, "bike_id": "48c68f66b6022ad2aab72b25403629fa", "lon": -77.01511333333333, "lat": 38.87278883333333, "is_disabled": 0, "name": "48c68f66b6022ad2aab72b25403629fa", "is_reserved": 0, "fusion_lat": 0.0, "type": "electric_scooter", "rental_uris": {"android": "https://dc.lft.to/lastmile_qr_scan", "ios": "https://dc.lft.to/lastmile_qr_scan"}}, {"fusion_lon": 0.0, "bike_id": "54db765265b55d2b5e6037538c212730", "lon": -77.02127366666667, "lat": 38.921242166666666, "is_disabled": 0, "name": "54db765265b55d2b5e6037538c212730", "is_reserved": 0, "fusion_lat": 0.0, "type": "electric_scooter", "rental_uris": {"android": "https://dc.lft.to/lastmile_qr_scan", "ios": "https://dc.lft.to/lastmile_qr_scan"}}, {"fusion_lon": 0.0, "bike_id": "ba4c94fb3b8470cf8d77a5607c53dd2f", "lon": -76.9923385, "lat": 38.90206033333333, "is_disabled": 0, "name": "ba4c94fb3b8470cf8d77a5607c53dd2f", "is_reserved": 0, "fusion_lat": 0.0, "type": "electric_scooter", "rental_uris": {"android": "https://dc.lft.to/lastmile_qr_scan", "ios": "https://dc.lft.to/lastmile_qr_scan"}}, {"fusion_lon": 0.0, "bike_id": "853d81265f554c07edf8bc5deab49888", "lon": -77.02588333333334, "lat": 38.96393466666667, "is_disabled": 0, "name": "853d81265f554c07edf8bc5deab49888", "is_reserved": 0, "fusion_lat": 0.0, "type": "electric_scooter", "rental_uris": {"android": "https://dc.lft.to/lastmile_qr_scan", "ios": "https://dc.lft.to/lastmile_qr_scan"}}, {"fusion_lon": 0.0, "bike_id": "05ee76773c337e01d4553a901292e756", "lon": -77.04611116666666, "lat": 38.89797633333333, "is_disabled": 0, "name": "05ee76773c337e01d4553a901292e756", "is_reserved": 0, "fusion_lat": 0.0, "type": "electric_scooter", "rental_uris": {"android": "https://dc.lft.to/lastmile_qr_scan", "ios": "https://dc.lft.to/lastmile_qr_scan"}}, {"fusion_lon": 0.0, "bike_id": "bbe66a9904ac37c340e6ee9d32595267", "lon": -77.06352283333334, "lat": 38.94447983333333, "is_disabled": 0, "name": "bbe66a9904ac37c340e6ee9d32595267", "is_reserved": 0, "fusion_lat": 0.0, "type": "electric_scooter", "rental_uris": {"android": "https://dc.lft.to/lastmile_qr_scan", "ios": "https://dc.lft.to/lastmile_qr_scan"}}, {"fusion_lon": 0.0, "bike_id": "89d96feeed6be345a99b9e252ceec918", "lon": -77.02297966666667, "lat": 38.917083833333336, "is_disabled": 0, "name": "89d96feeed6be345a99b9e252ceec918", "is_reserved": 0, "fusion_lat": 0.0, "type": "electric_scooter", "rental_uris": {"android": "https://dc.lft.to/lastmile_qr_scan", "ios": "https://dc.lft.to/lastmile_qr_scan"}}, {"fusion_lon": 0.0, "bike_id": "b99fbb0d457169adbb16d17e86b3074c", "lon": -77.00866733333334, "lat": 38.897430166666666, "is_disabled": 0, "name": "b99fbb0d457169adbb16d17e86b3074c", "is_reserved": 0, "fusion_lat": 0.0, "type": "electric_scooter", "rental_uris": {"android": "https://dc.lft.to/lastmile_qr_scan", "ios": "https://dc.lft.to/lastmile_qr_scan"}}, {"fusion_lon": 0.0, "bike_id": "750732cf9c9513254bb5afeb2477fed1", "lon": -76.9488295, "lat": 38.895052166666666, "is_disabled": 0, "name": "750732cf9c9513254bb5afeb2477fed1", "is_reserved": 0, "fusion_lat": 0.0, "type": "electric_scooter", "rental_uris": {"android": "https://dc.lft.to/lastmile_qr_scan", "ios": "https://dc.lft.to/lastmile_qr_scan"}}, {"fusion_lon": 0.0, "bike_id": "3cbfd450fc31fdb3fefdc5abfff62f33", "lon": -76.99279166666666, "lat": 38.90314583333333, "is_disabled": 0, "name": "3cbfd450fc31fdb3fefdc5abfff62f33", "is_reserved": 0, "fusion_lat": 0.0, "type": "electric_scooter", "rental_uris": {"android": "https://dc.lft.to/lastmile_qr_scan", "ios": "https://dc.lft.to/lastmile_qr_scan"}}, {"fusion_lon": 0.0, "bike_id": "993531db29f97c6905c33ebe2a32deab", "lon": -77.0296535, "lat": 38.89932533333333, "is_disabled": 0, "name": "993531db29f97c6905c33ebe2a32deab", "is_reserved": 0, "fusion_lat": 0.0, "type": "electric_scooter", "rental_uris": {"android": "https://dc.lft.to/lastmile_qr_scan", "ios": "https://dc.lft.to/lastmile_qr_scan"}}, {"fusion_lon": 0.0, "bike_id": "81a99685148ca71264164941ca884855", "lon": -77.01024583333333, "lat": 38.95878233333333, "is_disabled": 0, "name": "81a99685148ca71264164941ca884855", "is_reserved": 0, "fusion_lat": 0.0, "type": "electric_bike", "rental_uris": {"android": "https://dc.lft.to/lastmile_qr_scan", "ios": "https://dc.lft.to/lastmile_qr_scan"}}, {"fusion_lon": 0.0, "bike_id": "42708d9aeb337307ef861527113ac30e", "lon": -76.98148866666666, "lat": 38.925512499999996, "is_disabled": 0, "name": "42708d9aeb337307ef861527113ac30e", "is_reserved": 0, "fusion_lat": 0.0, "type": "electric_scooter", "rental_uris": {"android": "https://dc.lft.to/lastmile_qr_scan", "ios": "https://dc.lft.to/lastmile_qr_scan"}}, {"fusion_lon": 0.0, "bike_id": "16a2850eff4d6c932606cca61f5ead30", "lon": -76.93940416666666, "lat": 38.90864766666667, "is_disabled": 0, "name": "16a2850eff4d6c932606cca61f5ead30", "is_reserved": 0, "fusion_lat": 0.0, "type": "electric_scooter", "rental_uris": {"android": "https://dc.lft.to/lastmile_qr_scan", "ios": "https://dc.lft.to/lastmile_qr_scan"}}, {"fusion_lon": 0.0, "bike_id": "2b01625d595d78dc5ef15c11c0f77e63", "lon": -77.0194245, "lat": 38.919575333333334, "is_disabled": 0, "name": "2b01625d595d78dc5ef15c11c0f77e63", "is_reserved": 0, "fusion_lat": 0.0, "type": "electric_scooter", "rental_uris": {"android": "https://dc.lft.to/lastmile_qr_scan", "ios": "https://dc.lft.to/lastmile_qr_scan"}}, {"fusion_lon": 0.0, "bike_id": "5536d9ecc531a98989250c57edb1c88d", "lon": -77.022986, "lat": 38.926605, "is_disabled": 0, "name": "5536d9ecc531a98989250c57edb1c88d", "is_reserved": 0, "fusion_lat": 0.0, "type": "electric_scooter", "rental_uris": {"android": "https://dc.lft.to/lastmile_qr_scan", "ios": "https://dc.lft.to/lastmile_qr_scan"}}, {"fusion_lon": 0.0, "bike_id": "98dd4d10c8ce1a9fcb5239e44f319334", "lon": -77.02410766666667, "lat": 38.89228883333333, "is_disabled": 0, "name": "98dd4d10c8ce1a9fcb5239e44f319334", "is_reserved": 0, "fusion_lat": 0.0, "type": "electric_scooter", "rental_uris": {"android": "https://dc.lft.to/lastmile_qr_scan", "ios": "https://dc.lft.to/lastmile_qr_scan"}}, {"fusion_lon": 0.0, "bike_id": "464d465d2a878888f0ae276658ceabb3", "lon": -77.0234495, "lat": 38.944358, "is_disabled": 0, "name": "464d465d2a878888f0ae276658ceabb3", "is_reserved": 0, "fusion_lat": 0.0, "type": "electric_scooter", "rental_uris": {"android": "https://dc.lft.to/lastmile_qr_scan", "ios": "https://dc.lft.to/lastmile_qr_scan"}}, {"fusion_lon": 0.0, "bike_id": "804d99b3b966f2e208d68384155741a6", "lon": -77.03806766666666, "lat": 38.99673966666667, "is_disabled": 0, "name": "804d99b3b966f2e208d68384155741a6", "is_reserved": 0, "fusion_lat": 0.0, "type": "electric_bike", "rental_uris": {"android": "https://dc.lft.to/lastmile_qr_scan", "ios": "https://dc.lft.to/lastmile_qr_scan"}}, {"fusion_lon": 0.0, "bike_id": "15b8b03374485af06d3537ce812d8768", "lon": -77.05987183333333, "lat": 38.9271175, "is_disabled": 0, "name": "15b8b03374485af06d3537ce812d8768", "is_reserved": 0, "fusion_lat": 0.0, "type": "electric_scooter", "rental_uris": {"android": "https://dc.lft.to/lastmile_qr_scan", "ios": "https://dc.lft.to/lastmile_qr_scan"}}, {"fusion_lon": 0.0, "bike_id": "ad45c81f3889ae84cac92534ba2d8a35", "lon": -77.04193683333334, "lat": 38.89259633333333, "is_disabled": 0, "name": "ad45c81f3889ae84cac92534ba2d8a35", "is_reserved": 0, "fusion_lat": 0.0, "type": "electric_scooter", "rental_uris": {"android": "https://dc.lft.to/lastmile_qr_scan", "ios": "https://dc.lft.to/lastmile_qr_scan"}}, {"fusion_lon": 0.0, "bike_id": "2a90a8168ffad104a177b51058d8f696", "lon": -77.02381383333334, "lat": 38.91633133333333, "is_disabled": 0, "name": "2a90a8168ffad104a177b51058d8f696", "is_reserved": 0, "fusion_lat": 0.0, "type": "electric_scooter", "rental_uris": {"android": "https://dc.lft.to/lastmile_qr_scan", "ios": "https://dc.lft.to/lastmile_qr_scan"}}, {"fusion_lon": 0.0, "bike_id": "3dda65e9389320ce95cfa57c56e087d8", "lon": -77.03101483333333, "lat": 38.909552166666664, "is_disabled": 0, "name": "3dda65e9389320ce95cfa57c56e087d8", "is_reserved": 0, "fusion_lat": 0.0, "type": "electric_scooter", "rental_uris": {"android": "https://dc.lft.to/lastmile_qr_scan", "ios": "https://dc.lft.to/lastmile_qr_scan"}}, {"fusion_lon": 0.0, "bike_id": "a5abacf059340cfcaf0bf4979b6c04ec", "lon": -77.02474166666667, "lat": 38.938542, "is_disabled": 0, "name": "a5abacf059340cfcaf0bf4979b6c04ec", "is_reserved": 0, "fusion_lat": 0.0, "type": "electric_scooter", "rental_uris": {"android": "https://dc.lft.to/lastmile_qr_scan", "ios": "https://dc.lft.to/lastmile_qr_scan"}}, {"fusion_lon": 0.0, "bike_id": "96adc5d233a1d6886d99bcedcde7ce0d", "lon": -77.0533235, "lat": 38.9042495, "is_disabled": 0, "name": "96adc5d233a1d6886d99bcedcde7ce0d", "is_reserved": 0, "fusion_lat": 0.0, "type": "electric_scooter", "rental_uris": {"android": "https://dc.lft.to/lastmile_qr_scan", "ios": "https://dc.lft.to/lastmile_qr_scan"}}, {"fusion_lon": 0.0, "bike_id": "a748dbecb10a5ca5662d6ca6035020c7", "lon": -77.0308485, "lat": 38.9353585, "is_disabled": 0, "name": "a748dbecb10a5ca5662d6ca6035020c7", "is_reserved": 0, "fusion_lat": 0.0, "type": "electric_scooter", "rental_uris": {"android": "https://dc.lft.to/lastmile_qr_scan", "ios": "https://dc.lft.to/lastmile_qr_scan"}}, {"fusion_lon": 0.0, "bike_id": "b06b9cab312a9180457a561185339577", "lon": -77.02525166666666, "lat": 38.9207715, "is_disabled": 0, "name": "b06b9cab312a9180457a561185339577", "is_reserved": 0, "fusion_lat": 0.0, "type": "electric_scooter", "rental_uris": {"android": "https://dc.lft.to/lastmile_qr_scan", "ios": "https://dc.lft.to/lastmile_qr_scan"}}, {"fusion_lon": 0.0, "bike_id": "3347522e0d0ad723a0fa8c49c5ed5a91", "lon": -77.03165683333333, "lat": 38.92856, "is_disabled": 0, "name": "3347522e0d0ad723a0fa8c49c5ed5a91", "is_reserved": 0, "fusion_lat": 0.0, "type": "electric_scooter", "rental_uris": {"android": "https://dc.lft.to/lastmile_qr_scan", "ios": "https://dc.lft.to/lastmile_qr_scan"}}, {"fusion_lon": 0.0, "bike_id": "52e0afbe1e09e35a3f7fa85811b80c1c", "lon": -77.02338066666667, "lat": 38.941707666666666, "is_disabled": 0, "name": "52e0afbe1e09e35a3f7fa85811b80c1c", "is_reserved": 0, "fusion_lat": 0.0, "type": "electric_scooter", "rental_uris": {"android": "https://dc.lft.to/lastmile_qr_scan", "ios": "https://dc.lft.to/lastmile_qr_scan"}}, {"fusion_lon": 0.0, "bike_id": "049cde52523d69b18678d070ca23250d", "lon": -77.02582333333334, "lat": 38.914138, "is_disabled": 0, "name": "049cde52523d69b18678d070ca23250d", "is_reserved": 0, "fusion_lat": 0.0, "type": "electric_scooter", "rental_uris": {"android": "https://dc.lft.to/lastmile_qr_scan", "ios": "https://dc.lft.to/lastmile_qr_scan"}}, {"fusion_lon": 0.0, "bike_id": "9e17a8f19ff92c854e49027c16450738", "lon": -77.0274245, "lat": 38.89998083333333, "is_disabled": 0, "name": "9e17a8f19ff92c854e49027c16450738", "is_reserved": 0, "fusion_lat": 0.0, "type": "electric_scooter", "rental_uris": {"android": "https://dc.lft.to/lastmile_qr_scan", "ios": "https://dc.lft.to/lastmile_qr_scan"}}, {"fusion_lon": 0.0, "bike_id": "b818e9d02d98b02969524e524b5bf64e", "lon": -77.02504066666667, "lat": 38.91971616666667, "is_disabled": 0, "name": "b818e9d02d98b02969524e524b5bf64e", "is_reserved": 0, "fusion_lat": 0.0, "type": "electric_scooter", "rental_uris": {"android": "https://dc.lft.to/lastmile_qr_scan", "ios": "https://dc.lft.to/lastmile_qr_scan"}}, {"fusion_lon": 0.0, "bike_id": "f96186e5f468e46f7020fd903d63b98f", "lon": -77.03421833333333, "lat": 38.935460166666665, "is_disabled": 0, "name": "f96186e5f468e46f7020fd903d63b98f", "is_reserved": 0, "fusion_lat": 0.0, "type": "electric_scooter", "rental_uris": {"android": "https://dc.lft.to/lastmile_qr_scan", "ios": "https://dc.lft.to/lastmile_qr_scan"}}, {"fusion_lon": 0.0, "bike_id": "7a209025e93c075d164a0f9ec2b87e18", "lon": -77.0248755, "lat": 38.884557666666666, "is_disabled": 0, "name": "7a209025e93c075d164a0f9ec2b87e18", "is_reserved": 0, "fusion_lat": 0.0, "type": "electric_scooter", "rental_uris": {"android": "https://dc.lft.to/lastmile_qr_scan", "ios": "https://dc.lft.to/lastmile_qr_scan"}}, {"fusion_lon": 0.0, "bike_id": "98b958ed8b6428afe12f28361710e90a", "lon": -77.03441383333333, "lat": 38.91782366666666, "is_disabled": 0, "name": "98b958ed8b6428afe12f28361710e90a", "is_reserved": 0, "fusion_lat": 0.0, "type": "electric_scooter", "rental_uris": {"android": "https://dc.lft.to/lastmile_qr_scan", "ios": "https://dc.lft.to/lastmile_qr_scan"}}, {"fusion_lon": 0.0, "bike_id": "a350aaeae0cba9259c88b9ed581680fa", "lon": -77.03344283333334, "lat": 38.897307833333336, "is_disabled": 0, "name": "a350aaeae0cba9259c88b9ed581680fa", "is_reserved": 0, "fusion_lat": 0.0, "type": "electric_scooter", "rental_uris": {"android": "https://dc.lft.to/lastmile_qr_scan", "ios": "https://dc.lft.to/lastmile_qr_scan"}}, {"fusion_lon": 0.0, "bike_id": "fd058b7f78ca0d2be3487a525f50a83d", "lon": -77.03455766666667, "lat": 38.9055875, "is_disabled": 0, "name": "fd058b7f78ca0d2be3487a525f50a83d", "is_reserved": 0, "fusion_lat": 0.0, "type": "electric_scooter", "rental_uris": {"android": "https://dc.lft.to/lastmile_qr_scan", "ios": "https://dc.lft.to/lastmile_qr_scan"}}, {"fusion_lon": 0.0, "bike_id": "83d22c8c1c529e378c0095d620b99164", "lon": -76.99656316666666, "lat": 38.967791, "is_disabled": 0, "name": "83d22c8c1c529e378c0095d620b99164", "is_reserved": 0, "fusion_lat": 0.0, "type": "electric_bike", "rental_uris": {"android": "https://dc.lft.to/lastmile_qr_scan", "ios": "https://dc.lft.to/lastmile_qr_scan"}}, {"fusion_lon": 0.0, "bike_id": "9b70f0afc475a852e57457eafd5572d6", "lon": -77.03010133333333, "lat": 38.89558266666667, "is_disabled": 0, "name": "9b70f0afc475a852e57457eafd5572d6", "is_reserved": 0, "fusion_lat": 0.0, "type": "electric_scooter", "rental_uris": {"android": "https://dc.lft.to/lastmile_qr_scan", "ios": "https://dc.lft.to/lastmile_qr_scan"}}, {"fusion_lon": 0.0, "bike_id": "fa143e23004c095228595f55faca1368", "lon": -77.00210833333334, "lat": 38.901280166666666, "is_disabled": 0, "name": "fa143e23004c095228595f55faca1368", "is_reserved": 0, "fusion_lat": 0.0, "type": "electric_scooter", "rental_uris": {"android": "https://dc.lft.to/lastmile_qr_scan", "ios": "https://dc.lft.to/lastmile_qr_scan"}}, {"fusion_lon": 0.0, "bike_id": "dd49766a36802d4b1701000e360c157a", "lon": -77.015237, "lat": 38.887346, "is_disabled": 0, "name": "dd49766a36802d4b1701000e360c157a", "is_reserved": 0, "fusion_lat": 0.0, "type": "electric_scooter", "rental_uris": {"android": "https://dc.lft.to/lastmile_qr_scan", "ios": "https://dc.lft.to/lastmile_qr_scan"}}, {"fusion_lon": 0.0, "bike_id": "c096632d16c32df6b91e9f71a4b43895", "lon": -76.98419866666667, "lat": 38.899698666666666, "is_disabled": 0, "name": "c096632d16c32df6b91e9f71a4b43895", "is_reserved": 0, "fusion_lat": 0.0, "type": "electric_scooter", "rental_uris": {"android": "https://dc.lft.to/lastmile_qr_scan", "ios": "https://dc.lft.to/lastmile_qr_scan"}}, {"fusion_lon": 0.0, "bike_id": "8278ce853c3c1c79081d856306a831c5", "lon": -77.02634566666667, "lat": 38.936192166666665, "is_disabled": 0, "name": "8278ce853c3c1c79081d856306a831c5", "is_reserved": 0, "fusion_lat": 0.0, "type": "electric_bike", "rental_uris": {"android": "https://dc.lft.to/lastmile_qr_scan", "ios": "https://dc.lft.to/lastmile_qr_scan"}}, {"fusion_lon": 0.0, "bike_id": "9a2ea7a6f799afd465d7a0c54ddd1bac", "lon": -77.015039, "lat": 38.896771333333334, "is_disabled": 0, "name": "9a2ea7a6f799afd465d7a0c54ddd1bac", "is_reserved": 0, "fusion_lat": 0.0, "type": "electric_scooter", "rental_uris": {"android": "https://dc.lft.to/lastmile_qr_scan", "ios": "https://dc.lft.to/lastmile_qr_scan"}}, {"fusion_lon": 0.0, "bike_id": "635af6cb051f7d4ff5c4c8553e110686", "lon": -77.02592566666667, "lat": 38.90018166666667, "is_disabled": 0, "name": "635af6cb051f7d4ff5c4c8553e110686", "is_reserved": 0, "fusion_lat": 0.0, "type": "electric_scooter", "rental_uris": {"android": "https://dc.lft.to/lastmile_qr_scan", "ios": "https://dc.lft.to/lastmile_qr_scan"}}, {"fusion_lon": 0.0, "bike_id": "ea8bd5bfeeb56593733f6d428e8e0cd0", "lon": -77.03955766666667, "lat": 38.892417, "is_disabled": 0, "name": "ea8bd5bfeeb56593733f6d428e8e0cd0", "is_reserved": 0, "fusion_lat": 0.0, "type": "electric_scooter", "rental_uris": {"android": "https://dc.lft.to/lastmile_qr_scan", "ios": "https://dc.lft.to/lastmile_qr_scan"}}, {"fusion_lon": 0.0, "bike_id": "873b44dc6d4125034598e1bf79b1bf95", "lon": -77.010473, "lat": 38.87763366666667, "is_disabled": 0, "name": "873b44dc6d4125034598e1bf79b1bf95", "is_reserved": 0, "fusion_lat": 0.0, "type": "electric_bike", "rental_uris": {"android": "https://dc.lft.to/lastmile_qr_scan", "ios": "https://dc.lft.to/lastmile_qr_scan"}}, {"fusion_lon": 0.0, "bike_id": "a07ea330b296a0a036d37f26fc74445e", "lon": -76.93182683333333, "lat": 38.898746, "is_disabled": 0, "name": "a07ea330b296a0a036d37f26fc74445e", "is_reserved": 0, "fusion_lat": 0.0, "type": "electric_scooter", "rental_uris": {"android": "https://dc.lft.to/lastmile_qr_scan", "ios": "https://dc.lft.to/lastmile_qr_scan"}}, {"fusion_lon": 0.0, "bike_id": "fa0e435a3824b350ff9221155def49a0", "lon": -77.0281435, "lat": 38.92231616666667, "is_disabled": 0, "name": "fa0e435a3824b350ff9221155def49a0", "is_reserved": 0, "fusion_lat": 0.0, "type": "electric_scooter", "rental_uris": {"android": "https://dc.lft.to/lastmile_qr_scan", "ios": "https://dc.lft.to/lastmile_qr_scan"}}, {"fusion_lon": 0.0, "bike_id": "9f6101afc3d14f0ec2198c801b0360c2", "lon": -76.996091, "lat": 38.90138866666667, "is_disabled": 0, "name": "9f6101afc3d14f0ec2198c801b0360c2", "is_reserved": 0, "fusion_lat": 0.0, "type": "electric_scooter", "rental_uris": {"android": "https://dc.lft.to/lastmile_qr_scan", "ios": "https://dc.lft.to/lastmile_qr_scan"}}, {"fusion_lon": 0.0, "bike_id": "89558432e25a8d4023c5d4117ff53f65", "lon": -77.02537866666667, "lat": 38.89220133333333, "is_disabled": 0, "name": "89558432e25a8d4023c5d4117ff53f65", "is_reserved": 0, "fusion_lat": 0.0, "type": "electric_scooter", "rental_uris": {"android": "https://dc.lft.to/lastmile_qr_scan", "ios": "https://dc.lft.to/lastmile_qr_scan"}}, {"fusion_lon": 0.0, "bike_id": "ca20ba91fec15f2a1fcbddb174069292", "lon": -77.04414283333334, "lat": 38.91120033333333, "is_disabled": 0, "name": "ca20ba91fec15f2a1fcbddb174069292", "is_reserved": 0, "fusion_lat": 0.0, "type": "electric_scooter", "rental_uris": {"android": "https://dc.lft.to/lastmile_qr_scan", "ios": "https://dc.lft.to/lastmile_qr_scan"}}, {"fusion_lon": 0.0, "bike_id": "a81af2e76a2c90b87ca1c0c0623f589e", "lon": -77.04039183333333, "lat": 38.89898783333334, "is_disabled": 0, "name": "a81af2e76a2c90b87ca1c0c0623f589e", "is_reserved": 0, "fusion_lat": 0.0, "type": "electric_scooter", "rental_uris": {"android": "https://dc.lft.to/lastmile_qr_scan", "ios": "https://dc.lft.to/lastmile_qr_scan"}}, {"fusion_lon": 0.0, "bike_id": "053adcd2123894d5b1293f2eeefabc97", "lon": -77.02913766666667, "lat": 38.94439633333333, "is_disabled": 0, "name": "053adcd2123894d5b1293f2eeefabc97", "is_reserved": 0, "fusion_lat": 0.0, "type": "electric_scooter", "rental_uris": {"android": "https://dc.lft.to/lastmile_qr_scan", "ios": "https://dc.lft.to/lastmile_qr_scan"}}, {"fusion_lon": 0.0, "bike_id": "e71721a82eab5c621983a2011c1ef121", "lon": -77.06878116666667, "lat": 38.905152, "is_disabled": 0, "name": "e71721a82eab5c621983a2011c1ef121", "is_reserved": 0, "fusion_lat": 0.0, "type": "electric_scooter", "rental_uris": {"android": "https://dc.lft.to/lastmile_qr_scan", "ios": "https://dc.lft.to/lastmile_qr_scan"}}, {"fusion_lon": 0.0, "bike_id": "3ef806e7739f2728b1ef41b0be4651ea", "lon": -77.00883316666666, "lat": 38.909782, "is_disabled": 0, "name": "3ef806e7739f2728b1ef41b0be4651ea", "is_reserved": 0, "fusion_lat": 0.0, "type": "electric_scooter", "rental_uris": {"android": "https://dc.lft.to/lastmile_qr_scan", "ios": "https://dc.lft.to/lastmile_qr_scan"}}, {"fusion_lon": 0.0, "bike_id": "53f93ac4c621c842bbc6d71f3a70e7be", "lon": -77.0414205, "lat": 38.931414333333336, "is_disabled": 0, "name": "53f93ac4c621c842bbc6d71f3a70e7be", "is_reserved": 0, "fusion_lat": 0.0, "type": "electric_scooter", "rental_uris": {"android": "https://dc.lft.to/lastmile_qr_scan", "ios": "https://dc.lft.to/lastmile_qr_scan"}}, {"fusion_lon": 0.0, "bike_id": "c6b6a9605743e5eecfcde63bfa2eeb2e", "lon": -77.07242233333334, "lat": 38.907812, "is_disabled": 0, "name": "c6b6a9605743e5eecfcde63bfa2eeb2e", "is_reserved": 0, "fusion_lat": 0.0, "type": "electric_scooter", "rental_uris": {"android": "https://dc.lft.to/lastmile_qr_scan", "ios": "https://dc.lft.to/lastmile_qr_scan"}}, {"fusion_lon": 0.0, "bike_id": "67a3ae35ac138c554df000be9ffe2f23", "lon": -77.04377533333333, "lat": 38.92065766666666, "is_disabled": 0, "name": "67a3ae35ac138c554df000be9ffe2f23", "is_reserved": 0, "fusion_lat": 0.0, "type": "electric_scooter", "rental_uris": {"android": "https://dc.lft.to/lastmile_qr_scan", "ios": "https://dc.lft.to/lastmile_qr_scan"}}, {"fusion_lon": 0.0, "bike_id": "2d1995e5153d5ab055276d6c6e9f9d12", "lon": -77.0290365, "lat": 38.91687433333333, "is_disabled": 0, "name": "2d1995e5153d5ab055276d6c6e9f9d12", "is_reserved": 0, "fusion_lat": 0.0, "type": "electric_bike", "rental_uris": {"android": "https://dc.lft.to/lastmile_qr_scan", "ios": "https://dc.lft.to/lastmile_qr_scan"}}, {"fusion_lon": 0.0, "bike_id": "4a2ef35ecdce27d57ac119a0e90c6b84", "lon": -77.03204466666666, "lat": 38.899329, "is_disabled": 0, "name": "4a2ef35ecdce27d57ac119a0e90c6b84", "is_reserved": 0, "fusion_lat": 0.0, "type": "electric_scooter", "rental_uris": {"android": "https://dc.lft.to/lastmile_qr_scan", "ios": "https://dc.lft.to/lastmile_qr_scan"}}, {"fusion_lon": 0.0, "bike_id": "08bdb0a665880574a85336d7c55b6f19", "lon": -77.025155, "lat": 38.920936166666664, "is_disabled": 0, "name": "08bdb0a665880574a85336d7c55b6f19", "is_reserved": 0, "fusion_lat": 0.0, "type": "electric_scooter", "rental_uris": {"android": "https://dc.lft.to/lastmile_qr_scan", "ios": "https://dc.lft.to/lastmile_qr_scan"}}, {"fusion_lon": 0.0, "bike_id": "148b9e59638eed8b9e3f85eea0809afe", "lon": -77.02196633333334, "lat": 38.895671666666665, "is_disabled": 0, "name": "148b9e59638eed8b9e3f85eea0809afe", "is_reserved": 0, "fusion_lat": 0.0, "type": "electric_scooter", "rental_uris": {"android": "https://dc.lft.to/lastmile_qr_scan", "ios": "https://dc.lft.to/lastmile_qr_scan"}}, {"fusion_lon": 0.0, "bike_id": "a9ebeab33b51210a8e27091a85786569", "lon": -77.01766933333333, "lat": 38.87711316666667, "is_disabled": 0, "name": "a9ebeab33b51210a8e27091a85786569", "is_reserved": 0, "fusion_lat": 0.0, "type": "electric_scooter", "rental_uris": {"android": "https://dc.lft.to/lastmile_qr_scan", "ios": "https://dc.lft.to/lastmile_qr_scan"}}, {"fusion_lon": 0.0, "bike_id": "fcf0cc3e4d31940cb9450b80a3d58ed3", "lon": -77.04158066666666, "lat": 38.9159435, "is_disabled": 0, "name": "fcf0cc3e4d31940cb9450b80a3d58ed3", "is_reserved": 0, "fusion_lat": 0.0, "type": "electric_scooter", "rental_uris": {"android": "https://dc.lft.to/lastmile_qr_scan", "ios": "https://dc.lft.to/lastmile_qr_scan"}}, {"fusion_lon": 0.0, "bike_id": "2d792239bae2199e58a4b6b5cd6230d7", "lon": -76.99839616666667, "lat": 38.900087666666664, "is_disabled": 0, "name": "2d792239bae2199e58a4b6b5cd6230d7", "is_reserved": 0, "fusion_lat": 0.0, "type": "electric_scooter", "rental_uris": {"android": "https://dc.lft.to/lastmile_qr_scan", "ios": "https://dc.lft.to/lastmile_qr_scan"}}, {"fusion_lon": 0.0, "bike_id": "ddaeb0dbf464507f1bd1237afffc4944", "lon": -77.07694916666667, "lat": 38.922438166666666, "is_disabled": 0, "name": "ddaeb0dbf464507f1bd1237afffc4944", "is_reserved": 0, "fusion_lat": 0.0, "type": "electric_scooter", "rental_uris": {"android": "https://dc.lft.to/lastmile_qr_scan", "ios": "https://dc.lft.to/lastmile_qr_scan"}}, {"fusion_lon": 0.0, "bike_id": "12ce81a0ccf83e427ae0c98e90383978", "lon": -77.23410183333333, "lat": 38.87577816666666, "is_disabled": 0, "name": "12ce81a0ccf83e427ae0c98e90383978", "is_reserved": 0, "fusion_lat": 0.0, "type": "electric_bike", "rental_uris": {"android": "https://dc.lft.to/lastmile_qr_scan", "ios": "https://dc.lft.to/lastmile_qr_scan"}}, {"fusion_lon": 0.0, "bike_id": "79cfa666acb5f2052bc5688a012926c1", "lon": -77.0029555, "lat": 38.90589583333333, "is_disabled": 0, "name": "79cfa666acb5f2052bc5688a012926c1", "is_reserved": 0, "fusion_lat": 0.0, "type": "electric_scooter", "rental_uris": {"android": "https://dc.lft.to/lastmile_qr_scan", "ios": "https://dc.lft.to/lastmile_qr_scan"}}, {"fusion_lon": 0.0, "bike_id": "b821e8a5c3b45e7a6cd9d386a15217ea", "lon": -77.00331666666666, "lat": 38.893557, "is_disabled": 0, "name": "b821e8a5c3b45e7a6cd9d386a15217ea", "is_reserved": 0, "fusion_lat": 0.0, "type": "electric_scooter", "rental_uris": {"android": "https://dc.lft.to/lastmile_qr_scan", "ios": "https://dc.lft.to/lastmile_qr_scan"}}, {"fusion_lon": 0.0, "bike_id": "4477645295627c640eb48a839a7bdffd", "lon": -77.029836, "lat": 38.94049733333333, "is_disabled": 0, "name": "4477645295627c640eb48a839a7bdffd", "is_reserved": 0, "fusion_lat": 0.0, "type": "electric_scooter", "rental_uris": {"android": "https://dc.lft.to/lastmile_qr_scan", "ios": "https://dc.lft.to/lastmile_qr_scan"}}, {"fusion_lon": 0.0, "bike_id": "667d60b3799e71f1268f6956709a686d", "lon": -77.04303083333333, "lat": 38.92397183333333, "is_disabled": 0, "name": "667d60b3799e71f1268f6956709a686d", "is_reserved": 0, "fusion_lat": 0.0, "type": "electric_scooter", "rental_uris": {"android": "https://dc.lft.to/lastmile_qr_scan", "ios": "https://dc.lft.to/lastmile_qr_scan"}}, {"fusion_lon": 0.0, "bike_id": "733810acead0f6a34815b2c05ed51feb", "lon": -76.98979516666667, "lat": 38.89048866666667, "is_disabled": 0, "name": "733810acead0f6a34815b2c05ed51feb", "is_reserved": 0, "fusion_lat": 0.0, "type": "electric_scooter", "rental_uris": {"android": "https://dc.lft.to/lastmile_qr_scan", "ios": "https://dc.lft.to/lastmile_qr_scan"}}, {"fusion_lon": 0.0, "bike_id": "fb6bb1a4a7504d35829fa2a2463df1aa", "lon": -77.04080716666667, "lat": 38.903725, "is_disabled": 0, "name": "fb6bb1a4a7504d35829fa2a2463df1aa", "is_reserved": 0, "fusion_lat": 0.0, "type": "electric_scooter", "rental_uris": {"android": "https://dc.lft.to/lastmile_qr_scan", "ios": "https://dc.lft.to/lastmile_qr_scan"}}, {"fusion_lon": 0.0, "bike_id": "c7d7510eb3ca3eef386212b4b0c6107c", "lon": -76.94885133333334, "lat": 38.89532033333333, "is_disabled": 0, "name": "c7d7510eb3ca3eef386212b4b0c6107c", "is_reserved": 0, "fusion_lat": 0.0, "type": "electric_scooter", "rental_uris": {"android": "https://dc.lft.to/lastmile_qr_scan", "ios": "https://dc.lft.to/lastmile_qr_scan"}}, {"fusion_lon": 0.0, "bike_id": "52dd4de55cf8d9415ffe051335216049", "lon": -77.00713833333333, "lat": 38.88489716666667, "is_disabled": 0, "name": "52dd4de55cf8d9415ffe051335216049", "is_reserved": 0, "fusion_lat": 0.0, "type": "electric_scooter", "rental_uris": {"android": "https://dc.lft.to/lastmile_qr_scan", "ios": "https://dc.lft.to/lastmile_qr_scan"}}, {"fusion_lon": 0.0, "bike_id": "bbe357bdb6adadb0e4d7bd2357f7d0e6", "lon": -76.97901516666667, "lat": 38.888595, "is_disabled": 0, "name": "bbe357bdb6adadb0e4d7bd2357f7d0e6", "is_reserved": 0, "fusion_lat": 0.0, "type": "electric_scooter", "rental_uris": {"android": "https://dc.lft.to/lastmile_qr_scan", "ios": "https://dc.lft.to/lastmile_qr_scan"}}, {"fusion_lon": 0.0, "bike_id": "f8134f375a665e63f3395e06824fbd48", "lon": -77.00053283333334, "lat": 38.8788325, "is_disabled": 0, "name": "f8134f375a665e63f3395e06824fbd48", "is_reserved": 0, "fusion_lat": 0.0, "type": "electric_scooter", "rental_uris": {"android": "https://dc.lft.to/lastmile_qr_scan", "ios": "https://dc.lft.to/lastmile_qr_scan"}}, {"fusion_lon": 0.0, "bike_id": "decf09cc497d47ae215358efebc7f7d0", "lon": -77.0088585, "lat": 38.90977633333333, "is_disabled": 0, "name": "decf09cc497d47ae215358efebc7f7d0", "is_reserved": 0, "fusion_lat": 0.0, "type": "electric_scooter", "rental_uris": {"android": "https://dc.lft.to/lastmile_qr_scan", "ios": "https://dc.lft.to/lastmile_qr_scan"}}, {"fusion_lon": 0.0, "bike_id": "4934565da3345de2c9d53b68429b358f", "lon": -77.04021483333334, "lat": 38.9021765, "is_disabled": 0, "name": "4934565da3345de2c9d53b68429b358f", "is_reserved": 0, "fusion_lat": 0.0, "type": "electric_scooter", "rental_uris": {"android": "https://dc.lft.to/lastmile_qr_scan", "ios": "https://dc.lft.to/lastmile_qr_scan"}}, {"fusion_lon": 0.0, "bike_id": "a8a68965fb53027adaf7a879cfeda62a", "lon": -77.04421116666667, "lat": 38.909426, "is_disabled": 0, "name": "a8a68965fb53027adaf7a879cfeda62a", "is_reserved": 0, "fusion_lat": 0.0, "type": "electric_scooter", "rental_uris": {"android": "https://dc.lft.to/lastmile_qr_scan", "ios": "https://dc.lft.to/lastmile_qr_scan"}}, {"fusion_lon": 0.0, "bike_id": "c2ae62a0e60c0b32b13bce0f522148d9", "lon": -77.00606816666667, "lat": 38.906386833333336, "is_disabled": 0, "name": "c2ae62a0e60c0b32b13bce0f522148d9", "is_reserved": 0, "fusion_lat": 0.0, "type": "electric_scooter", "rental_uris": {"android": "https://dc.lft.to/lastmile_qr_scan", "ios": "https://dc.lft.to/lastmile_qr_scan"}}, {"fusion_lon": 0.0, "bike_id": "9b19712e44f2a4c178d6f514243b7806", "lon": -77.019526, "lat": 38.93194183333333, "is_disabled": 0, "name": "9b19712e44f2a4c178d6f514243b7806", "is_reserved": 0, "fusion_lat": 0.0, "type": "electric_scooter", "rental_uris": {"android": "https://dc.lft.to/lastmile_qr_scan", "ios": "https://dc.lft.to/lastmile_qr_scan"}}, {"fusion_lon": 0.0, "bike_id": "c0f8e72e276f3b7119a62e507ac74073", "lon": -77.04474516666667, "lat": 38.91539433333333, "is_disabled": 0, "name": "c0f8e72e276f3b7119a62e507ac74073", "is_reserved": 0, "fusion_lat": 0.0, "type": "electric_scooter", "rental_uris": {"android": "https://dc.lft.to/lastmile_qr_scan", "ios": "https://dc.lft.to/lastmile_qr_scan"}}, {"fusion_lon": 0.0, "bike_id": "4f05b82b0bf9176537544d8399afee70", "lon": -77.034075, "lat": 38.919182, "is_disabled": 0, "name": "4f05b82b0bf9176537544d8399afee70", "is_reserved": 0, "fusion_lat": 0.0, "type": "electric_scooter", "rental_uris": {"android": "https://dc.lft.to/lastmile_qr_scan", "ios": "https://dc.lft.to/lastmile_qr_scan"}}, {"fusion_lon": 0.0, "bike_id": "7d0d6be5ea1574ab889705fa4bf0aefd", "lon": -77.07178433333333, "lat": 38.9069055, "is_disabled": 0, "name": "7d0d6be5ea1574ab889705fa4bf0aefd", "is_reserved": 0, "fusion_lat": 0.0, "type": "electric_scooter", "rental_uris": {"android": "https://dc.lft.to/lastmile_qr_scan", "ios": "https://dc.lft.to/lastmile_qr_scan"}}, {"fusion_lon": 0.0, "bike_id": "be18da03b16beca2c6c91ea63c65af2b", "lon": -76.9870715, "lat": 38.90496433333333, "is_disabled": 0, "name": "be18da03b16beca2c6c91ea63c65af2b", "is_reserved": 0, "fusion_lat": 0.0, "type": "electric_scooter", "rental_uris": {"android": "https://dc.lft.to/lastmile_qr_scan", "ios": "https://dc.lft.to/lastmile_qr_scan"}}, {"fusion_lon": 0.0, "bike_id": "b97e77b9badca32c8ccbdfa6f655d344", "lon": -76.99449683333333, "lat": 38.908265166666666, "is_disabled": 0, "name": "b97e77b9badca32c8ccbdfa6f655d344", "is_reserved": 0, "fusion_lat": 0.0, "type": "electric_scooter", "rental_uris": {"android": "https://dc.lft.to/lastmile_qr_scan", "ios": "https://dc.lft.to/lastmile_qr_scan"}}, {"fusion_lon": 0.0, "bike_id": "559f734a58c0e708049734f1f1db650a", "lon": -77.0288265, "lat": 38.916366, "is_disabled": 0, "name": "559f734a58c0e708049734f1f1db650a", "is_reserved": 0, "fusion_lat": 0.0, "type": "electric_scooter", "rental_uris": {"android": "https://dc.lft.to/lastmile_qr_scan", "ios": "https://dc.lft.to/lastmile_qr_scan"}}, {"fusion_lon": 0.0, "bike_id": "96938775949475670bbd780d36045bc1", "lon": -77.041865, "lat": 38.9233455, "is_disabled": 0, "name": "96938775949475670bbd780d36045bc1", "is_reserved": 0, "fusion_lat": 0.0, "type": "electric_scooter", "rental_uris": {"android": "https://dc.lft.to/lastmile_qr_scan", "ios": "https://dc.lft.to/lastmile_qr_scan"}}, {"fusion_lon": 0.0, "bike_id": "af9936cff4930bddcd45d5ae1cbc1021", "lon": -77.00526583333334, "lat": 38.87934466666667, "is_disabled": 0, "name": "af9936cff4930bddcd45d5ae1cbc1021", "is_reserved": 0, "fusion_lat": 0.0, "type": "electric_scooter", "rental_uris": {"android": "https://dc.lft.to/lastmile_qr_scan", "ios": "https://dc.lft.to/lastmile_qr_scan"}}, {"fusion_lon": 0.0, "bike_id": "4cc02e092dae1df2c7949f683a7884a2", "lon": -77.048611, "lat": 38.900584, "is_disabled": 0, "name": "4cc02e092dae1df2c7949f683a7884a2", "is_reserved": 0, "fusion_lat": 0.0, "type": "electric_scooter", "rental_uris": {"android": "https://dc.lft.to/lastmile_qr_scan", "ios": "https://dc.lft.to/lastmile_qr_scan"}}, {"fusion_lon": 0.0, "bike_id": "9fceefad847d66f7b1b32ef6a1aac93a", "lon": -77.02088283333333, "lat": 38.921525, "is_disabled": 0, "name": "9fceefad847d66f7b1b32ef6a1aac93a", "is_reserved": 0, "fusion_lat": 0.0, "type": "electric_scooter", "rental_uris": {"android": "https://dc.lft.to/lastmile_qr_scan", "ios": "https://dc.lft.to/lastmile_qr_scan"}}, {"fusion_lon": 0.0, "bike_id": "d5d2bca15c79ceceb6f5cefff09c59db", "lon": -76.99620516666667, "lat": 38.877718, "is_disabled": 0, "name": "d5d2bca15c79ceceb6f5cefff09c59db", "is_reserved": 0, "fusion_lat": 0.0, "type": "electric_scooter", "rental_uris": {"android": "https://dc.lft.to/lastmile_qr_scan", "ios": "https://dc.lft.to/lastmile_qr_scan"}}, {"fusion_lon": 0.0, "bike_id": "88b2d5f818c9c6df31bd67b69740ef36", "lon": -77.00138733333333, "lat": 38.873721333333336, "is_disabled": 0, "name": "88b2d5f818c9c6df31bd67b69740ef36", "is_reserved": 0, "fusion_lat": 0.0, "type": "electric_scooter", "rental_uris": {"android": "https://dc.lft.to/lastmile_qr_scan", "ios": "https://dc.lft.to/lastmile_qr_scan"}}, {"fusion_lon": 0.0, "bike_id": "e9e27c711a9aa634462fbfb2e48d0cd7", "lon": -77.046526, "lat": 38.89220233333333, "is_disabled": 0, "name": "e9e27c711a9aa634462fbfb2e48d0cd7", "is_reserved": 0, "fusion_lat": 0.0, "type": "electric_scooter", "rental_uris": {"android": "https://dc.lft.to/lastmile_qr_scan", "ios": "https://dc.lft.to/lastmile_qr_scan"}}, {"fusion_lon": 0.0, "bike_id": "169e7a694645a7707a12f3d2c7cf3f0d", "lon": -77.0419415, "lat": 38.90570683333333, "is_disabled": 0, "name": "169e7a694645a7707a12f3d2c7cf3f0d", "is_reserved": 0, "fusion_lat": 0.0, "type": "electric_scooter", "rental_uris": {"android": "https://dc.lft.to/lastmile_qr_scan", "ios": "https://dc.lft.to/lastmile_qr_scan"}}, {"fusion_lon": 0.0, "bike_id": "47f53e5bcf594c839c44e334898cf084", "lon": -77.03834833333333, "lat": 38.9196855, "is_disabled": 0, "name": "47f53e5bcf594c839c44e334898cf084", "is_reserved": 0, "fusion_lat": 0.0, "type": "electric_scooter", "rental_uris": {"android": "https://dc.lft.to/lastmile_qr_scan", "ios": "https://dc.lft.to/lastmile_qr_scan"}}, {"fusion_lon": 0.0, "bike_id": "b58ee8f2337383088b358949a0d1affb", "lon": -77.02978033333333, "lat": 38.94347466666667, "is_disabled": 0, "name": "b58ee8f2337383088b358949a0d1affb", "is_reserved": 0, "fusion_lat": 0.0, "type": "electric_scooter", "rental_uris": {"android": "https://dc.lft.to/lastmile_qr_scan", "ios": "https://dc.lft.to/lastmile_qr_scan"}}, {"fusion_lon": 0.0, "bike_id": "fe80f0fb67a0512aa9dc9d367e0d3195", "lon": -77.01362983333334, "lat": 38.9132915, "is_disabled": 0, "name": "fe80f0fb67a0512aa9dc9d367e0d3195", "is_reserved": 0, "fusion_lat": 0.0, "type": "electric_scooter", "rental_uris": {"android": "https://dc.lft.to/lastmile_qr_scan", "ios": "https://dc.lft.to/lastmile_qr_scan"}}, {"fusion_lon": 0.0, "bike_id": "a3e64ca539518b155f4e3b362ada0d75", "lon": -77.041906, "lat": 38.905485, "is_disabled": 0, "name": "a3e64ca539518b155f4e3b362ada0d75", "is_reserved": 0, "fusion_lat": 0.0, "type": "electric_scooter", "rental_uris": {"android": "https://dc.lft.to/lastmile_qr_scan", "ios": "https://dc.lft.to/lastmile_qr_scan"}}, {"fusion_lon": 0.0, "bike_id": "f2da442e71a5d103b58c58824f680943", "lon": -77.041551, "lat": 38.92532166666667, "is_disabled": 0, "name": "f2da442e71a5d103b58c58824f680943", "is_reserved": 0, "fusion_lat": 0.0, "type": "electric_scooter", "rental_uris": {"android": "https://dc.lft.to/lastmile_qr_scan", "ios": "https://dc.lft.to/lastmile_qr_scan"}}, {"fusion_lon": 0.0, "bike_id": "7fbfe0050ffab6d6328208a36c7949d2", "lon": -77.01891883333333, "lat": 38.89743433333334, "is_disabled": 0, "name": "7fbfe0050ffab6d6328208a36c7949d2", "is_reserved": 0, "fusion_lat": 0.0, "type": "electric_scooter", "rental_uris": {"android": "https://dc.lft.to/lastmile_qr_scan", "ios": "https://dc.lft.to/lastmile_qr_scan"}}, {"fusion_lon": 0.0, "bike_id": "cbee407d0e4fe0c8588fba1a32ea4101", "lon": -77.02447933333333, "lat": 38.92349383333333, "is_disabled": 0, "name": "cbee407d0e4fe0c8588fba1a32ea4101", "is_reserved": 0, "fusion_lat": 0.0, "type": "electric_scooter", "rental_uris": {"android": "https://dc.lft.to/lastmile_qr_scan", "ios": "https://dc.lft.to/lastmile_qr_scan"}}, {"fusion_lon": 0.0, "bike_id": "3b32c50f98adde689c79ccb65aa32a5f", "lon": -77.0266665, "lat": 38.8961945, "is_disabled": 0, "name": "3b32c50f98adde689c79ccb65aa32a5f", "is_reserved": 0, "fusion_lat": 0.0, "type": "electric_scooter", "rental_uris": {"android": "https://dc.lft.to/lastmile_qr_scan", "ios": "https://dc.lft.to/lastmile_qr_scan"}}, {"fusion_lon": 0.0, "bike_id": "06fefdf0a5ab851d170f93f888626b88", "lon": -77.01157733333334, "lat": 38.96986366666667, "is_disabled": 0, "name": "06fefdf0a5ab851d170f93f888626b88", "is_reserved": 0, "fusion_lat": 0.0, "type": "electric_scooter", "rental_uris": {"android": "https://dc.lft.to/lastmile_qr_scan", "ios": "https://dc.lft.to/lastmile_qr_scan"}}, {"fusion_lon": 0.0, "bike_id": "f37397224733e914cde1e812dda5c129", "lon": -76.93216883333334, "lat": 38.8805325, "is_disabled": 0, "name": "f37397224733e914cde1e812dda5c129", "is_reserved": 0, "fusion_lat": 0.0, "type": "electric_scooter", "rental_uris": {"android": "https://dc.lft.to/lastmile_qr_scan", "ios": "https://dc.lft.to/lastmile_qr_scan"}}, {"fusion_lon": 0.0, "bike_id": "229ba163eb241ff999a7490633ecf089", "lon": -77.002121, "lat": 38.91103433333333, "is_disabled": 0, "name": "229ba163eb241ff999a7490633ecf089", "is_reserved": 0, "fusion_lat": 0.0, "type": "electric_scooter", "rental_uris": {"android": "https://dc.lft.to/lastmile_qr_scan", "ios": "https://dc.lft.to/lastmile_qr_scan"}}, {"fusion_lon": 0.0, "bike_id": "82a37234326d7934de1e7b87a5790558", "lon": -77.02594433333333, "lat": 38.900186833333336, "is_disabled": 0, "name": "82a37234326d7934de1e7b87a5790558", "is_reserved": 0, "fusion_lat": 0.0, "type": "electric_scooter", "rental_uris": {"android": "https://dc.lft.to/lastmile_qr_scan", "ios": "https://dc.lft.to/lastmile_qr_scan"}}, {"fusion_lon": 0.0, "bike_id": "74496b797b6ff97eeee2f5a384bb8739", "lon": -77.01902, "lat": 38.9217115, "is_disabled": 0, "name": "74496b797b6ff97eeee2f5a384bb8739", "is_reserved": 0, "fusion_lat": 0.0, "type": "electric_scooter", "rental_uris": {"android": "https://dc.lft.to/lastmile_qr_scan", "ios": "https://dc.lft.to/lastmile_qr_scan"}}, {"fusion_lon": 0.0, "bike_id": "69fde313c9c0df354e147394b9821f43", "lon": -77.02420383333333, "lat": 38.92138716666667, "is_disabled": 0, "name": "69fde313c9c0df354e147394b9821f43", "is_reserved": 0, "fusion_lat": 0.0, "type": "electric_scooter", "rental_uris": {"android": "https://dc.lft.to/lastmile_qr_scan", "ios": "https://dc.lft.to/lastmile_qr_scan"}}, {"fusion_lon": 0.0, "bike_id": "1f701da708d3e9b07b7253ec7bd4d2a0", "lon": -76.98236783333333, "lat": 38.908863333333336, "is_disabled": 0, "name": "1f701da708d3e9b07b7253ec7bd4d2a0", "is_reserved": 0, "fusion_lat": 0.0, "type": "electric_scooter", "rental_uris": {"android": "https://dc.lft.to/lastmile_qr_scan", "ios": "https://dc.lft.to/lastmile_qr_scan"}}, {"fusion_lon": 0.0, "bike_id": "84c9a72f7bdda5a1d8860c85ceae0672", "lon": -77.06000366666666, "lat": 38.927114833333334, "is_disabled": 0, "name": "84c9a72f7bdda5a1d8860c85ceae0672", "is_reserved": 0, "fusion_lat": 0.0, "type": "electric_scooter", "rental_uris": {"android": "https://dc.lft.to/lastmile_qr_scan", "ios": "https://dc.lft.to/lastmile_qr_scan"}}, {"fusion_lon": 0.0, "bike_id": "c32f078e09cc4317cc81a10af40aee34", "lon": -77.03975883333334, "lat": 38.902503333333335, "is_disabled": 0, "name": "c32f078e09cc4317cc81a10af40aee34", "is_reserved": 0, "fusion_lat": 0.0, "type": "electric_scooter", "rental_uris": {"android": "https://dc.lft.to/lastmile_qr_scan", "ios": "https://dc.lft.to/lastmile_qr_scan"}}, {"fusion_lon": 0.0, "bike_id": "83e03271d0cca98231a7ac9b8acd03ef", "lon": -77.03131316666666, "lat": 38.915538, "is_disabled": 0, "name": "83e03271d0cca98231a7ac9b8acd03ef", "is_reserved": 0, "fusion_lat": 0.0, "type": "electric_scooter", "rental_uris": {"android": "https://dc.lft.to/lastmile_qr_scan", "ios": "https://dc.lft.to/lastmile_qr_scan"}}, {"fusion_lon": 0.0, "bike_id": "ec7857877479b07562327945e930ffeb", "lon": -77.02300216666667, "lat": 38.91959583333333, "is_disabled": 0, "name": "ec7857877479b07562327945e930ffeb", "is_reserved": 0, "fusion_lat": 0.0, "type": "electric_scooter", "rental_uris": {"android": "https://dc.lft.to/lastmile_qr_scan", "ios": "https://dc.lft.to/lastmile_qr_scan"}}, {"fusion_lon": 0.0, "bike_id": "f5ca3820eb12c54be36d0a33d89731f0", "lon": -77.04072116666667, "lat": 38.92052066666667, "is_disabled": 0, "name": "f5ca3820eb12c54be36d0a33d89731f0", "is_reserved": 0, "fusion_lat": 0.0, "type": "electric_scooter", "rental_uris": {"android": "https://dc.lft.to/lastmile_qr_scan", "ios": "https://dc.lft.to/lastmile_qr_scan"}}, {"fusion_lon": 0.0, "bike_id": "fc64cc3972263f2cab420470611bf070", "lon": -76.98184266666667, "lat": 38.9850675, "is_disabled": 0, "name": "fc64cc3972263f2cab420470611bf070", "is_reserved": 0, "fusion_lat": 0.0, "type": "electric_bike", "rental_uris": {"android": "https://dc.lft.to/lastmile_qr_scan", "ios": "https://dc.lft.to/lastmile_qr_scan"}}, {"fusion_lon": 0.0, "bike_id": "65a683ad1cb496c15e55e3d2f283f315", "lon": -77.02313216666667, "lat": 38.92789033333333, "is_disabled": 0, "name": "65a683ad1cb496c15e55e3d2f283f315", "is_reserved": 0, "fusion_lat": 0.0, "type": "electric_scooter", "rental_uris": {"android": "https://dc.lft.to/lastmile_qr_scan", "ios": "https://dc.lft.to/lastmile_qr_scan"}}, {"fusion_lon": 0.0, "bike_id": "6de0b2463f47171620ff08924e90f460", "lon": -77.0005955, "lat": 38.887761166666664, "is_disabled": 0, "name": "6de0b2463f47171620ff08924e90f460", "is_reserved": 0, "fusion_lat": 0.0, "type": "electric_scooter", "rental_uris": {"android": "https://dc.lft.to/lastmile_qr_scan", "ios": "https://dc.lft.to/lastmile_qr_scan"}}, {"fusion_lon": 0.0, "bike_id": "f5275c124ed5442fcf455cf4e1fced8d", "lon": -77.0216405, "lat": 38.9261225, "is_disabled": 0, "name": "f5275c124ed5442fcf455cf4e1fced8d", "is_reserved": 0, "fusion_lat": 0.0, "type": "electric_scooter", "rental_uris": {"android": "https://dc.lft.to/lastmile_qr_scan", "ios": "https://dc.lft.to/lastmile_qr_scan"}}, {"fusion_lon": 0.0, "bike_id": "268933affcf684689690f86d78edf2cf", "lon": -76.98419383333334, "lat": 38.909984, "is_disabled": 0, "name": "268933affcf684689690f86d78edf2cf", "is_reserved": 0, "fusion_lat": 0.0, "type": "electric_bike", "rental_uris": {"android": "https://dc.lft.to/lastmile_qr_scan", "ios": "https://dc.lft.to/lastmile_qr_scan"}}, {"fusion_lon": 0.0, "bike_id": "aef62bd4588fac676a90dac35ca77476", "lon": -77.02300866666667, "lat": 38.920571, "is_disabled": 0, "name": "aef62bd4588fac676a90dac35ca77476", "is_reserved": 0, "fusion_lat": 0.0, "type": "electric_scooter", "rental_uris": {"android": "https://dc.lft.to/lastmile_qr_scan", "ios": "https://dc.lft.to/lastmile_qr_scan"}}, {"fusion_lon": 0.0, "bike_id": "d3342f21279a8976135cf574707cfed8", "lon": -77.020279, "lat": 38.924385666666666, "is_disabled": 0, "name": "d3342f21279a8976135cf574707cfed8", "is_reserved": 0, "fusion_lat": 0.0, "type": "electric_scooter", "rental_uris": {"android": "https://dc.lft.to/lastmile_qr_scan", "ios": "https://dc.lft.to/lastmile_qr_scan"}}, {"fusion_lon": 0.0, "bike_id": "5fd08b83207db71968071c2403851e53", "lon": -77.035202, "lat": 38.922413, "is_disabled": 0, "name": "5fd08b83207db71968071c2403851e53", "is_reserved": 0, "fusion_lat": 0.0, "type": "electric_scooter", "rental_uris": {"android": "https://dc.lft.to/lastmile_qr_scan", "ios": "https://dc.lft.to/lastmile_qr_scan"}}, {"fusion_lon": 0.0, "bike_id": "bcc59ce50d3e32e0095779d9779bbc41", "lon": -77.00169283333334, "lat": 38.940686, "is_disabled": 0, "name": "bcc59ce50d3e32e0095779d9779bbc41", "is_reserved": 0, "fusion_lat": 0.0, "type": "electric_scooter", "rental_uris": {"android": "https://dc.lft.to/lastmile_qr_scan", "ios": "https://dc.lft.to/lastmile_qr_scan"}}, {"fusion_lon": 0.0, "bike_id": "08b50888c84afe839edeca81ce2beeef", "lon": -76.99860316666667, "lat": 38.90253283333333, "is_disabled": 0, "name": "08b50888c84afe839edeca81ce2beeef", "is_reserved": 0, "fusion_lat": 0.0, "type": "electric_scooter", "rental_uris": {"android": "https://dc.lft.to/lastmile_qr_scan", "ios": "https://dc.lft.to/lastmile_qr_scan"}}, {"fusion_lon": 0.0, "bike_id": "b671d36232ea374fa470c6b5d3c82722", "lon": -77.03214366666667, "lat": 38.8985725, "is_disabled": 0, "name": "b671d36232ea374fa470c6b5d3c82722", "is_reserved": 0, "fusion_lat": 0.0, "type": "electric_scooter", "rental_uris": {"android": "https://dc.lft.to/lastmile_qr_scan", "ios": "https://dc.lft.to/lastmile_qr_scan"}}, {"fusion_lon": 0.0, "bike_id": "36b77fcd0c0ec5ac63cb249f8334a454", "lon": -77.05878933333334, "lat": 38.9356035, "is_disabled": 0, "name": "36b77fcd0c0ec5ac63cb249f8334a454", "is_reserved": 0, "fusion_lat": 0.0, "type": "electric_scooter", "rental_uris": {"android": "https://dc.lft.to/lastmile_qr_scan", "ios": "https://dc.lft.to/lastmile_qr_scan"}}, {"fusion_lon": 0.0, "bike_id": "0af0ed064f1cf0262bdcdba7c189054e", "lon": -77.022157, "lat": 38.88713583333333, "is_disabled": 0, "name": "0af0ed064f1cf0262bdcdba7c189054e", "is_reserved": 0, "fusion_lat": 0.0, "type": "electric_scooter", "rental_uris": {"android": "https://dc.lft.to/lastmile_qr_scan", "ios": "https://dc.lft.to/lastmile_qr_scan"}}, {"fusion_lon": 0.0, "bike_id": "94b6401774c8460d16f448c0435b440b", "lon": -76.98532483333334, "lat": 38.9148325, "is_disabled": 0, "name": "94b6401774c8460d16f448c0435b440b", "is_reserved": 0, "fusion_lat": 0.0, "type": "electric_scooter", "rental_uris": {"android": "https://dc.lft.to/lastmile_qr_scan", "ios": "https://dc.lft.to/lastmile_qr_scan"}}, {"fusion_lon": 0.0, "bike_id": "770d09552f35c13d671b241139c06f87", "lon": -77.02229666666666, "lat": 38.92478416666667, "is_disabled": 0, "name": "770d09552f35c13d671b241139c06f87", "is_reserved": 0, "fusion_lat": 0.0, "type": "electric_scooter", "rental_uris": {"android": "https://dc.lft.to/lastmile_qr_scan", "ios": "https://dc.lft.to/lastmile_qr_scan"}}, {"fusion_lon": 0.0, "bike_id": "978f14a2cc493f5f22339980de8b254d", "lon": -77.04603166666666, "lat": 38.915903666666665, "is_disabled": 0, "name": "978f14a2cc493f5f22339980de8b254d", "is_reserved": 0, "fusion_lat": 0.0, "type": "electric_scooter", "rental_uris": {"android": "https://dc.lft.to/lastmile_qr_scan", "ios": "https://dc.lft.to/lastmile_qr_scan"}}, {"fusion_lon": 0.0, "bike_id": "803bd410935d373d0c5d12113fa919b5", "lon": -77.00280933333333, "lat": 38.89195683333333, "is_disabled": 0, "name": "803bd410935d373d0c5d12113fa919b5", "is_reserved": 0, "fusion_lat": 0.0, "type": "electric_scooter", "rental_uris": {"android": "https://dc.lft.to/lastmile_qr_scan", "ios": "https://dc.lft.to/lastmile_qr_scan"}}, {"fusion_lon": 0.0, "bike_id": "590c6cc0d3db1aaa47924f49b328edd0", "lon": -77.02636366666667, "lat": 38.91102933333333, "is_disabled": 0, "name": "590c6cc0d3db1aaa47924f49b328edd0", "is_reserved": 0, "fusion_lat": 0.0, "type": "electric_scooter", "rental_uris": {"android": "https://dc.lft.to/lastmile_qr_scan", "ios": "https://dc.lft.to/lastmile_qr_scan"}}, {"fusion_lon": 0.0, "bike_id": "39594eb5e982ea8f0065c66851b1fca7", "lon": -77.03212583333334, "lat": 38.917166333333334, "is_disabled": 0, "name": "39594eb5e982ea8f0065c66851b1fca7", "is_reserved": 0, "fusion_lat": 0.0, "type": "electric_scooter", "rental_uris": {"android": "https://dc.lft.to/lastmile_qr_scan", "ios": "https://dc.lft.to/lastmile_qr_scan"}}, {"fusion_lon": 0.0, "bike_id": "76d0968ab34f3431be64d3c168246639", "lon": -77.04528483333333, "lat": 38.91830916666667, "is_disabled": 0, "name": "76d0968ab34f3431be64d3c168246639", "is_reserved": 0, "fusion_lat": 0.0, "type": "electric_scooter", "rental_uris": {"android": "https://dc.lft.to/lastmile_qr_scan", "ios": "https://dc.lft.to/lastmile_qr_scan"}}, {"fusion_lon": 0.0, "bike_id": "d1fe63dd1c69d3adb4addf5de6ff344d", "lon": -77.0500485, "lat": 38.8922795, "is_disabled": 0, "name": "d1fe63dd1c69d3adb4addf5de6ff344d", "is_reserved": 0, "fusion_lat": 0.0, "type": "electric_scooter", "rental_uris": {"android": "https://dc.lft.to/lastmile_qr_scan", "ios": "https://dc.lft.to/lastmile_qr_scan"}}, {"fusion_lon": 0.0, "bike_id": "6c88b2560410f4912a23922f287d00c0", "lon": -77.00583866666666, "lat": 38.87209283333333, "is_disabled": 0, "name": "6c88b2560410f4912a23922f287d00c0", "is_reserved": 0, "fusion_lat": 0.0, "type": "electric_scooter", "rental_uris": {"android": "https://dc.lft.to/lastmile_qr_scan", "ios": "https://dc.lft.to/lastmile_qr_scan"}}, {"fusion_lon": 0.0, "bike_id": "3c867d6832027725d87c0a6f0cebdd0b", "lon": -77.00176833333333, "lat": 38.888599166666665, "is_disabled": 0, "name": "3c867d6832027725d87c0a6f0cebdd0b", "is_reserved": 0, "fusion_lat": 0.0, "type": "electric_scooter", "rental_uris": {"android": "https://dc.lft.to/lastmile_qr_scan", "ios": "https://dc.lft.to/lastmile_qr_scan"}}, {"fusion_lon": 0.0, "bike_id": "2414e5498c2e6a9415d8a759b8db2fb2", "lon": -77.0033295, "lat": 38.893528, "is_disabled": 0, "name": "2414e5498c2e6a9415d8a759b8db2fb2", "is_reserved": 0, "fusion_lat": 0.0, "type": "electric_scooter", "rental_uris": {"android": "https://dc.lft.to/lastmile_qr_scan", "ios": "https://dc.lft.to/lastmile_qr_scan"}}, {"fusion_lon": 0.0, "bike_id": "92dfc38d4e16f44fa7a3c79801091d7a", "lon": -76.99729733333334, "lat": 38.89617616666666, "is_disabled": 0, "name": "92dfc38d4e16f44fa7a3c79801091d7a", "is_reserved": 0, "fusion_lat": 0.0, "type": "electric_scooter", "rental_uris": {"android": "https://dc.lft.to/lastmile_qr_scan", "ios": "https://dc.lft.to/lastmile_qr_scan"}}, {"fusion_lon": 0.0, "bike_id": "ed38f84834e36bd80ae3e2a73c558f1b", "lon": -77.023908, "lat": 38.898778, "is_disabled": 0, "name": "ed38f84834e36bd80ae3e2a73c558f1b", "is_reserved": 0, "fusion_lat": 0.0, "type": "electric_scooter", "rental_uris": {"android": "https://dc.lft.to/lastmile_qr_scan", "ios": "https://dc.lft.to/lastmile_qr_scan"}}, {"fusion_lon": 0.0, "bike_id": "52dbade5e24a76a9b66eb6a48117ca45", "lon": -77.03078833333333, "lat": 38.899565833333334, "is_disabled": 0, "name": "52dbade5e24a76a9b66eb6a48117ca45", "is_reserved": 0, "fusion_lat": 0.0, "type": "electric_scooter", "rental_uris": {"android": "https://dc.lft.to/lastmile_qr_scan", "ios": "https://dc.lft.to/lastmile_qr_scan"}}, {"fusion_lon": 0.0, "bike_id": "f260faef553a883a8c7a8b33a1bec5b4", "lon": -76.97330733333334, "lat": 38.904103166666665, "is_disabled": 0, "name": "f260faef553a883a8c7a8b33a1bec5b4", "is_reserved": 0, "fusion_lat": 0.0, "type": "electric_scooter", "rental_uris": {"android": "https://dc.lft.to/lastmile_qr_scan", "ios": "https://dc.lft.to/lastmile_qr_scan"}}, {"fusion_lon": 0.0, "bike_id": "09e9655cd49d1b7903a1b9766f7ccde7", "lon": -77.0197525, "lat": 38.9025575, "is_disabled": 0, "name": "09e9655cd49d1b7903a1b9766f7ccde7", "is_reserved": 0, "fusion_lat": 0.0, "type": "electric_scooter", "rental_uris": {"android": "https://dc.lft.to/lastmile_qr_scan", "ios": "https://dc.lft.to/lastmile_qr_scan"}}, {"fusion_lon": 0.0, "bike_id": "11c725c896ac21658eaf7b41ed8a1aa9", "lon": -76.99153433333333, "lat": 38.90036116666667, "is_disabled": 0, "name": "11c725c896ac21658eaf7b41ed8a1aa9", "is_reserved": 0, "fusion_lat": 0.0, "type": "electric_scooter", "rental_uris": {"android": "https://dc.lft.to/lastmile_qr_scan", "ios": "https://dc.lft.to/lastmile_qr_scan"}}, {"fusion_lon": 0.0, "bike_id": "7bb8154ad5589c59ce19a5b7bd9d760d", "lon": -77.002169, "lat": 38.87920716666667, "is_disabled": 0, "name": "7bb8154ad5589c59ce19a5b7bd9d760d", "is_reserved": 0, "fusion_lat": 0.0, "type": "electric_scooter", "rental_uris": {"android": "https://dc.lft.to/lastmile_qr_scan", "ios": "https://dc.lft.to/lastmile_qr_scan"}}, {"fusion_lon": 0.0, "bike_id": "a9e00ae39b34a9c3728f5c63d0acf026", "lon": -77.01991666666666, "lat": 38.937825333333336, "is_disabled": 0, "name": "a9e00ae39b34a9c3728f5c63d0acf026", "is_reserved": 0, "fusion_lat": 0.0, "type": "electric_scooter", "rental_uris": {"android": "https://dc.lft.to/lastmile_qr_scan", "ios": "https://dc.lft.to/lastmile_qr_scan"}}, {"fusion_lon": 0.0, "bike_id": "14cc0a1dd26345f7bf5fc5b1614f0f54", "lon": -77.04426333333333, "lat": 38.91538933333333, "is_disabled": 0, "name": "14cc0a1dd26345f7bf5fc5b1614f0f54", "is_reserved": 0, "fusion_lat": 0.0, "type": "electric_scooter", "rental_uris": {"android": "https://dc.lft.to/lastmile_qr_scan", "ios": "https://dc.lft.to/lastmile_qr_scan"}}, {"fusion_lon": 0.0, "bike_id": "06078e6780b2c6a470b785234a83a87d", "lon": -77.00924766666667, "lat": 38.911301, "is_disabled": 0, "name": "06078e6780b2c6a470b785234a83a87d", "is_reserved": 0, "fusion_lat": 0.0, "type": "electric_scooter", "rental_uris": {"android": "https://dc.lft.to/lastmile_qr_scan", "ios": "https://dc.lft.to/lastmile_qr_scan"}}, {"fusion_lon": 0.0, "bike_id": "821e3e336dbbf4405b9504e7f4cbb717", "lon": -76.98375166666666, "lat": 38.86027433333334, "is_disabled": 0, "name": "821e3e336dbbf4405b9504e7f4cbb717", "is_reserved": 0, "fusion_lat": 0.0, "type": "electric_scooter", "rental_uris": {"android": "https://dc.lft.to/lastmile_qr_scan", "ios": "https://dc.lft.to/lastmile_qr_scan"}}, {"fusion_lon": 0.0, "bike_id": "855c90531d945f34434e9c04764e63d2", "lon": -77.025304, "lat": 38.94837316666667, "is_disabled": 0, "name": "855c90531d945f34434e9c04764e63d2", "is_reserved": 0, "fusion_lat": 0.0, "type": "electric_scooter", "rental_uris": {"android": "https://dc.lft.to/lastmile_qr_scan", "ios": "https://dc.lft.to/lastmile_qr_scan"}}, {"fusion_lon": 0.0, "bike_id": "30efdf2c7c4d06d6e0bc2f7b0b82d777", "lon": -77.00658733333333, "lat": 38.912425999999996, "is_disabled": 0, "name": "30efdf2c7c4d06d6e0bc2f7b0b82d777", "is_reserved": 0, "fusion_lat": 0.0, "type": "electric_scooter", "rental_uris": {"android": "https://dc.lft.to/lastmile_qr_scan", "ios": "https://dc.lft.to/lastmile_qr_scan"}}, {"fusion_lon": 0.0, "bike_id": "c4f279691337d4cdc48fba574c3daea3", "lon": -77.02219566666666, "lat": 38.924768, "is_disabled": 0, "name": "c4f279691337d4cdc48fba574c3daea3", "is_reserved": 0, "fusion_lat": 0.0, "type": "electric_scooter", "rental_uris": {"android": "https://dc.lft.to/lastmile_qr_scan", "ios": "https://dc.lft.to/lastmile_qr_scan"}}, {"fusion_lon": 0.0, "bike_id": "2c98f27cd0d53043569704d56338b951", "lon": -76.95767166666667, "lat": 38.883532833333334, "is_disabled": 0, "name": "2c98f27cd0d53043569704d56338b951", "is_reserved": 0, "fusion_lat": 0.0, "type": "electric_scooter", "rental_uris": {"android": "https://dc.lft.to/lastmile_qr_scan", "ios": "https://dc.lft.to/lastmile_qr_scan"}}, {"fusion_lon": 0.0, "bike_id": "7df1a72a825d6440618b0e2ac78b6ba2", "lon": -77.03282766666666, "lat": 38.9293715, "is_disabled": 0, "name": "7df1a72a825d6440618b0e2ac78b6ba2", "is_reserved": 0, "fusion_lat": 0.0, "type": "electric_scooter", "rental_uris": {"android": "https://dc.lft.to/lastmile_qr_scan", "ios": "https://dc.lft.to/lastmile_qr_scan"}}, {"fusion_lon": 0.0, "bike_id": "63a0776629ee3864731087ea7d06b0b6", "lon": -77.04651916666667, "lat": 38.900178833333335, "is_disabled": 0, "name": "63a0776629ee3864731087ea7d06b0b6", "is_reserved": 0, "fusion_lat": 0.0, "type": "electric_scooter", "rental_uris": {"android": "https://dc.lft.to/lastmile_qr_scan", "ios": "https://dc.lft.to/lastmile_qr_scan"}}, {"fusion_lon": 0.0, "bike_id": "9876e943d30148a246a38c8034e16324", "lon": -77.00712533333333, "lat": 38.90719166666667, "is_disabled": 0, "name": "9876e943d30148a246a38c8034e16324", "is_reserved": 0, "fusion_lat": 0.0, "type": "electric_scooter", "rental_uris": {"android": "https://dc.lft.to/lastmile_qr_scan", "ios": "https://dc.lft.to/lastmile_qr_scan"}}, {"fusion_lon": 0.0, "bike_id": "df15ba01cbd8bc043bfee3b36862f85c", "lon": -77.0316925, "lat": 38.8921975, "is_disabled": 0, "name": "df15ba01cbd8bc043bfee3b36862f85c", "is_reserved": 0, "fusion_lat": 0.0, "type": "electric_scooter", "rental_uris": {"android": "https://dc.lft.to/lastmile_qr_scan", "ios": "https://dc.lft.to/lastmile_qr_scan"}}, {"fusion_lon": 0.0, "bike_id": "0ce7617741835d0651ef475a6649699e", "lon": -77.0270765, "lat": 38.898192333333334, "is_disabled": 0, "name": "0ce7617741835d0651ef475a6649699e", "is_reserved": 0, "fusion_lat": 0.0, "type": "electric_scooter", "rental_uris": {"android": "https://dc.lft.to/lastmile_qr_scan", "ios": "https://dc.lft.to/lastmile_qr_scan"}}, {"fusion_lon": 0.0, "bike_id": "ff13e65a538d8666959a59bf250db239", "lon": -77.02841233333334, "lat": 38.9448925, "is_disabled": 0, "name": "ff13e65a538d8666959a59bf250db239", "is_reserved": 0, "fusion_lat": 0.0, "type": "electric_scooter", "rental_uris": {"android": "https://dc.lft.to/lastmile_qr_scan", "ios": "https://dc.lft.to/lastmile_qr_scan"}}, {"fusion_lon": 0.0, "bike_id": "b264ad4c5303970dd97d926ea76a98bc", "lon": -77.0401355, "lat": 38.89833766666667, "is_disabled": 0, "name": "b264ad4c5303970dd97d926ea76a98bc", "is_reserved": 0, "fusion_lat": 0.0, "type": "electric_scooter", "rental_uris": {"android": "https://dc.lft.to/lastmile_qr_scan", "ios": "https://dc.lft.to/lastmile_qr_scan"}}, {"fusion_lon": 0.0, "bike_id": "49ee5211ea5e49735477b52566738dc7", "lon": -77.04051516666667, "lat": 38.907252, "is_disabled": 0, "name": "49ee5211ea5e49735477b52566738dc7", "is_reserved": 0, "fusion_lat": 0.0, "type": "electric_scooter", "rental_uris": {"android": "https://dc.lft.to/lastmile_qr_scan", "ios": "https://dc.lft.to/lastmile_qr_scan"}}, {"fusion_lon": 0.0, "bike_id": "4b31d653354fac88eea090ee2406ab86", "lon": -77.02404533333333, "lat": 38.92070916666667, "is_disabled": 0, "name": "4b31d653354fac88eea090ee2406ab86", "is_reserved": 0, "fusion_lat": 0.0, "type": "electric_scooter", "rental_uris": {"android": "https://dc.lft.to/lastmile_qr_scan", "ios": "https://dc.lft.to/lastmile_qr_scan"}}, {"fusion_lon": 0.0, "bike_id": "526ff1e8b2564a7368916d664c1e760f", "lon": -77.01229383333333, "lat": 38.95087083333333, "is_disabled": 0, "name": "526ff1e8b2564a7368916d664c1e760f", "is_reserved": 0, "fusion_lat": 0.0, "type": "electric_bike", "rental_uris": {"android": "https://dc.lft.to/lastmile_qr_scan", "ios": "https://dc.lft.to/lastmile_qr_scan"}}, {"fusion_lon": 0.0, "bike_id": "4e0129f84df01aa8d5c3809462e19300", "lon": -77.0723655, "lat": 38.939569666666664, "is_disabled": 0, "name": "4e0129f84df01aa8d5c3809462e19300", "is_reserved": 0, "fusion_lat": 0.0, "type": "electric_scooter", "rental_uris": {"android": "https://dc.lft.to/lastmile_qr_scan", "ios": "https://dc.lft.to/lastmile_qr_scan"}}, {"fusion_lon": 0.0, "bike_id": "df8aa009a3373b71d1f5102ab00468c7", "lon": -77.03891866666666, "lat": 38.9204205, "is_disabled": 0, "name": "df8aa009a3373b71d1f5102ab00468c7", "is_reserved": 0, "fusion_lat": 0.0, "type": "electric_scooter", "rental_uris": {"android": "https://dc.lft.to/lastmile_qr_scan", "ios": "https://dc.lft.to/lastmile_qr_scan"}}, {"fusion_lon": 0.0, "bike_id": "ac3bbfe169d5f6a416a66de9c14036fa", "lon": -76.98113816666667, "lat": 38.945716166666664, "is_disabled": 0, "name": "ac3bbfe169d5f6a416a66de9c14036fa", "is_reserved": 0, "fusion_lat": 0.0, "type": "electric_bike", "rental_uris": {"android": "https://dc.lft.to/lastmile_qr_scan", "ios": "https://dc.lft.to/lastmile_qr_scan"}}, {"fusion_lon": 0.0, "bike_id": "c1f368a73824bafd2b74635925b70d04", "lon": -77.063787, "lat": 38.906081, "is_disabled": 0, "name": "c1f368a73824bafd2b74635925b70d04", "is_reserved": 0, "fusion_lat": 0.0, "type": "electric_scooter", "rental_uris": {"android": "https://dc.lft.to/lastmile_qr_scan", "ios": "https://dc.lft.to/lastmile_qr_scan"}}, {"fusion_lon": 0.0, "bike_id": "8af8601178fb65684d158db22edcc407", "lon": -77.02160116666667, "lat": 38.926115333333335, "is_disabled": 0, "name": "8af8601178fb65684d158db22edcc407", "is_reserved": 0, "fusion_lat": 0.0, "type": "electric_scooter", "rental_uris": {"android": "https://dc.lft.to/lastmile_qr_scan", "ios": "https://dc.lft.to/lastmile_qr_scan"}}, {"fusion_lon": 0.0, "bike_id": "4edf3474d2ee8cc236f00e1c79f6ea3b", "lon": -76.97222166666667, "lat": 38.900302, "is_disabled": 0, "name": "4edf3474d2ee8cc236f00e1c79f6ea3b", "is_reserved": 0, "fusion_lat": 0.0, "type": "electric_bike", "rental_uris": {"android": "https://dc.lft.to/lastmile_qr_scan", "ios": "https://dc.lft.to/lastmile_qr_scan"}}, {"fusion_lon": 0.0, "bike_id": "5c07860bb4fa40cb57797fd9743a87d0", "lon": -77.00910566666667, "lat": 38.895560333333336, "is_disabled": 0, "name": "5c07860bb4fa40cb57797fd9743a87d0", "is_reserved": 0, "fusion_lat": 0.0, "type": "electric_scooter", "rental_uris": {"android": "https://dc.lft.to/lastmile_qr_scan", "ios": "https://dc.lft.to/lastmile_qr_scan"}}, {"fusion_lon": 0.0, "bike_id": "79b443682d1a33f81c70b3edfab62872", "lon": -77.0303155, "lat": 38.962768833333335, "is_disabled": 0, "name": "79b443682d1a33f81c70b3edfab62872", "is_reserved": 0, "fusion_lat": 0.0, "type": "electric_scooter", "rental_uris": {"android": "https://dc.lft.to/lastmile_qr_scan", "ios": "https://dc.lft.to/lastmile_qr_scan"}}, {"fusion_lon": 0.0, "bike_id": "19632a25b273d6d86a87affb10a32dda", "lon": -77.0456805, "lat": 38.91187716666666, "is_disabled": 0, "name": "19632a25b273d6d86a87affb10a32dda", "is_reserved": 0, "fusion_lat": 0.0, "type": "electric_scooter", "rental_uris": {"android": "https://dc.lft.to/lastmile_qr_scan", "ios": "https://dc.lft.to/lastmile_qr_scan"}}, {"fusion_lon": 0.0, "bike_id": "9bd7edb55621b50a88c00fa7914090fa", "lon": -77.0791195, "lat": 38.838279166666666, "is_disabled": 0, "name": "9bd7edb55621b50a88c00fa7914090fa", "is_reserved": 0, "fusion_lat": 0.0, "type": "electric_bike", "rental_uris": {"android": "https://dc.lft.to/lastmile_qr_scan", "ios": "https://dc.lft.to/lastmile_qr_scan"}}, {"fusion_lon": 0.0, "bike_id": "59031ed52bfe3f98a2442e09713c80cc", "lon": -77.23177066666666, "lat": 38.928924333333335, "is_disabled": 0, "name": "59031ed52bfe3f98a2442e09713c80cc", "is_reserved": 0, "fusion_lat": 0.0, "type": "electric_bike", "rental_uris": {"android": "https://dc.lft.to/lastmile_qr_scan", "ios": "https://dc.lft.to/lastmile_qr_scan"}}, {"fusion_lon": 0.0, "bike_id": "282d0cd13af0d55105626bb1f484333d", "lon": -77.04400966666667, "lat": 38.9110255, "is_disabled": 0, "name": "282d0cd13af0d55105626bb1f484333d", "is_reserved": 0, "fusion_lat": 0.0, "type": "electric_scooter", "rental_uris": {"android": "https://dc.lft.to/lastmile_qr_scan", "ios": "https://dc.lft.to/lastmile_qr_scan"}}, {"fusion_lon": 0.0, "bike_id": "7f954f0ccaa1d952e5f000128dd1a8d6", "lon": -77.02094566666666, "lat": 38.9326395, "is_disabled": 0, "name": "7f954f0ccaa1d952e5f000128dd1a8d6", "is_reserved": 0, "fusion_lat": 0.0, "type": "electric_scooter", "rental_uris": {"android": "https://dc.lft.to/lastmile_qr_scan", "ios": "https://dc.lft.to/lastmile_qr_scan"}}, {"fusion_lon": 0.0, "bike_id": "565d3f2ca815c48d74ce291e61229acd", "lon": -77.0193855, "lat": 38.92417316666667, "is_disabled": 0, "name": "565d3f2ca815c48d74ce291e61229acd", "is_reserved": 0, "fusion_lat": 0.0, "type": "electric_scooter", "rental_uris": {"android": "https://dc.lft.to/lastmile_qr_scan", "ios": "https://dc.lft.to/lastmile_qr_scan"}}, {"fusion_lon": 0.0, "bike_id": "d8a07f26bb355d4a6372f15a0aa03cfd", "lon": -77.031726, "lat": 38.8922185, "is_disabled": 0, "name": "d8a07f26bb355d4a6372f15a0aa03cfd", "is_reserved": 0, "fusion_lat": 0.0, "type": "electric_scooter", "rental_uris": {"android": "https://dc.lft.to/lastmile_qr_scan", "ios": "https://dc.lft.to/lastmile_qr_scan"}}, {"fusion_lon": 0.0, "bike_id": "672a3ad12674d1d42c6d92604029a732", "lon": -77.02035433333333, "lat": 38.92445083333333, "is_disabled": 0, "name": "672a3ad12674d1d42c6d92604029a732", "is_reserved": 0, "fusion_lat": 0.0, "type": "electric_scooter", "rental_uris": {"android": "https://dc.lft.to/lastmile_qr_scan", "ios": "https://dc.lft.to/lastmile_qr_scan"}}, {"fusion_lon": 0.0, "bike_id": "468a90f7261da900a1ca1c6ddf5566ca", "lon": -77.02280566666667, "lat": 38.915588, "is_disabled": 0, "name": "468a90f7261da900a1ca1c6ddf5566ca", "is_reserved": 0, "fusion_lat": 0.0, "type": "electric_scooter", "rental_uris": {"android": "https://dc.lft.to/lastmile_qr_scan", "ios": "https://dc.lft.to/lastmile_qr_scan"}}, {"fusion_lon": 0.0, "bike_id": "59c0137cd0e5492da7dcde4fd47d99b2", "lon": -77.04508883333334, "lat": 38.91605883333333, "is_disabled": 0, "name": "59c0137cd0e5492da7dcde4fd47d99b2", "is_reserved": 0, "fusion_lat": 0.0, "type": "electric_scooter", "rental_uris": {"android": "https://dc.lft.to/lastmile_qr_scan", "ios": "https://dc.lft.to/lastmile_qr_scan"}}, {"fusion_lon": 0.0, "bike_id": "932b0f56de5deead046df84fe2959d4a", "lon": -77.11307066666667, "lat": 38.83140266666667, "is_disabled": 0, "name": "932b0f56de5deead046df84fe2959d4a", "is_reserved": 0, "fusion_lat": 0.0, "type": "electric_bike", "rental_uris": {"android": "https://dc.lft.to/lastmile_qr_scan", "ios": "https://dc.lft.to/lastmile_qr_scan"}}, {"fusion_lon": 0.0, "bike_id": "0c63d9720df9a195169296625b4ee2b8", "lon": -77.0275855, "lat": 38.92766866666667, "is_disabled": 0, "name": "0c63d9720df9a195169296625b4ee2b8", "is_reserved": 0, "fusion_lat": 0.0, "type": "electric_scooter", "rental_uris": {"android": "https://dc.lft.to/lastmile_qr_scan", "ios": "https://dc.lft.to/lastmile_qr_scan"}}, {"fusion_lon": 0.0, "bike_id": "71b575b65b1acd01d1b64518e34de3b2", "lon": -77.00355866666666, "lat": 38.9109655, "is_disabled": 0, "name": "71b575b65b1acd01d1b64518e34de3b2", "is_reserved": 0, "fusion_lat": 0.0, "type": "electric_scooter", "rental_uris": {"android": "https://dc.lft.to/lastmile_qr_scan", "ios": "https://dc.lft.to/lastmile_qr_scan"}}, {"fusion_lon": 0.0, "bike_id": "a532b819f9d2d554a22b4c34462ecc8a", "lon": -77.01456416666667, "lat": 38.9581295, "is_disabled": 0, "name": "a532b819f9d2d554a22b4c34462ecc8a", "is_reserved": 0, "fusion_lat": 0.0, "type": "electric_scooter", "rental_uris": {"android": "https://dc.lft.to/lastmile_qr_scan", "ios": "https://dc.lft.to/lastmile_qr_scan"}}, {"fusion_lon": 0.0, "bike_id": "36a3eff62ce235e6a9b94516a17956d2", "lon": -77.01443983333333, "lat": 38.9096095, "is_disabled": 0, "name": "36a3eff62ce235e6a9b94516a17956d2", "is_reserved": 0, "fusion_lat": 0.0, "type": "electric_scooter", "rental_uris": {"android": "https://dc.lft.to/lastmile_qr_scan", "ios": "https://dc.lft.to/lastmile_qr_scan"}}, {"fusion_lon": 0.0, "bike_id": "934cbd27e14ad6eacb12b908f537e611", "lon": -77.05902616666667, "lat": 38.90340716666667, "is_disabled": 0, "name": "934cbd27e14ad6eacb12b908f537e611", "is_reserved": 0, "fusion_lat": 0.0, "type": "electric_scooter", "rental_uris": {"android": "https://dc.lft.to/lastmile_qr_scan", "ios": "https://dc.lft.to/lastmile_qr_scan"}}, {"fusion_lon": 0.0, "bike_id": "01159ce03ff76cc9454f9561f31e9ee8", "lon": -77.0433615, "lat": 38.901191, "is_disabled": 0, "name": "01159ce03ff76cc9454f9561f31e9ee8", "is_reserved": 0, "fusion_lat": 0.0, "type": "electric_scooter", "rental_uris": {"android": "https://dc.lft.to/lastmile_qr_scan", "ios": "https://dc.lft.to/lastmile_qr_scan"}}, {"fusion_lon": 0.0, "bike_id": "2377c977b7fce246edcf587bfbd2f5aa", "lon": -77.0214145, "lat": 38.92492516666667, "is_disabled": 0, "name": "2377c977b7fce246edcf587bfbd2f5aa", "is_reserved": 0, "fusion_lat": 0.0, "type": "electric_scooter", "rental_uris": {"android": "https://dc.lft.to/lastmile_qr_scan", "ios": "https://dc.lft.to/lastmile_qr_scan"}}, {"fusion_lon": 0.0, "bike_id": "6af9a6de138ab047845cb4bbd589f41c", "lon": -77.04864633333334, "lat": 38.9162345, "is_disabled": 0, "name": "6af9a6de138ab047845cb4bbd589f41c", "is_reserved": 0, "fusion_lat": 0.0, "type": "electric_scooter", "rental_uris": {"android": "https://dc.lft.to/lastmile_qr_scan", "ios": "https://dc.lft.to/lastmile_qr_scan"}}, {"fusion_lon": 0.0, "bike_id": "be54e15ac83cb1f565a521f456d68e43", "lon": -77.02321183333333, "lat": 38.927624333333334, "is_disabled": 0, "name": "be54e15ac83cb1f565a521f456d68e43", "is_reserved": 0, "fusion_lat": 0.0, "type": "electric_scooter", "rental_uris": {"android": "https://dc.lft.to/lastmile_qr_scan", "ios": "https://dc.lft.to/lastmile_qr_scan"}}, {"fusion_lon": 0.0, "bike_id": "f852355399362dc11926e2c129f68c46", "lon": -77.0440365, "lat": 38.9203905, "is_disabled": 0, "name": "f852355399362dc11926e2c129f68c46", "is_reserved": 0, "fusion_lat": 0.0, "type": "electric_scooter", "rental_uris": {"android": "https://dc.lft.to/lastmile_qr_scan", "ios": "https://dc.lft.to/lastmile_qr_scan"}}, {"fusion_lon": 0.0, "bike_id": "b53537007e31cd53cd3688085f6497e3", "lon": -77.042255, "lat": 38.92144233333333, "is_disabled": 0, "name": "b53537007e31cd53cd3688085f6497e3", "is_reserved": 0, "fusion_lat": 0.0, "type": "electric_scooter", "rental_uris": {"android": "https://dc.lft.to/lastmile_qr_scan", "ios": "https://dc.lft.to/lastmile_qr_scan"}}, {"fusion_lon": 0.0, "bike_id": "61e663120c83fa722cc0d756eb04ac1f", "lon": -77.02296816666667, "lat": 38.92061666666667, "is_disabled": 0, "name": "61e663120c83fa722cc0d756eb04ac1f", "is_reserved": 0, "fusion_lat": 0.0, "type": "electric_scooter", "rental_uris": {"android": "https://dc.lft.to/lastmile_qr_scan", "ios": "https://dc.lft.to/lastmile_qr_scan"}}, {"fusion_lon": 0.0, "bike_id": "e83f717db67c2e51be0aea26d309e2e8", "lon": -76.9808525, "lat": 38.894369166666664, "is_disabled": 0, "name": "e83f717db67c2e51be0aea26d309e2e8", "is_reserved": 0, "fusion_lat": 0.0, "type": "electric_scooter", "rental_uris": {"android": "https://dc.lft.to/lastmile_qr_scan", "ios": "https://dc.lft.to/lastmile_qr_scan"}}, {"fusion_lon": 0.0, "bike_id": "8805808858467da6b4a1a9bbcb5fcd1c", "lon": -77.05227516666666, "lat": 38.924711333333335, "is_disabled": 0, "name": "8805808858467da6b4a1a9bbcb5fcd1c", "is_reserved": 0, "fusion_lat": 0.0, "type": "electric_scooter", "rental_uris": {"android": "https://dc.lft.to/lastmile_qr_scan", "ios": "https://dc.lft.to/lastmile_qr_scan"}}, {"fusion_lon": 0.0, "bike_id": "11ae8bbe183c285aedfdda7902874fec", "lon": -77.05721133333333, "lat": 38.93135766666666, "is_disabled": 0, "name": "11ae8bbe183c285aedfdda7902874fec", "is_reserved": 0, "fusion_lat": 0.0, "type": "electric_scooter", "rental_uris": {"android": "https://dc.lft.to/lastmile_qr_scan", "ios": "https://dc.lft.to/lastmile_qr_scan"}}, {"fusion_lon": 0.0, "bike_id": "85d52871c828443504aa45082b078164", "lon": -77.02216483333333, "lat": 38.91638066666667, "is_disabled": 0, "name": "85d52871c828443504aa45082b078164", "is_reserved": 0, "fusion_lat": 0.0, "type": "electric_scooter", "rental_uris": {"android": "https://dc.lft.to/lastmile_qr_scan", "ios": "https://dc.lft.to/lastmile_qr_scan"}}, {"fusion_lon": 0.0, "bike_id": "f9c86e679977c443b563d7b3def7ef1f", "lon": -77.02003816666667, "lat": 38.923582333333336, "is_disabled": 0, "name": "f9c86e679977c443b563d7b3def7ef1f", "is_reserved": 0, "fusion_lat": 0.0, "type": "electric_scooter", "rental_uris": {"android": "https://dc.lft.to/lastmile_qr_scan", "ios": "https://dc.lft.to/lastmile_qr_scan"}}, {"fusion_lon": 0.0, "bike_id": "474a2155dd6ae4b0867e4d2e844f935b", "lon": -76.9258355, "lat": 38.89730516666667, "is_disabled": 0, "name": "474a2155dd6ae4b0867e4d2e844f935b", "is_reserved": 0, "fusion_lat": 0.0, "type": "electric_scooter", "rental_uris": {"android": "https://dc.lft.to/lastmile_qr_scan", "ios": "https://dc.lft.to/lastmile_qr_scan"}}, {"fusion_lon": 0.0, "bike_id": "a22cc451288b430f97aafbab326671c4", "lon": -77.00050566666667, "lat": 38.878834833333336, "is_disabled": 0, "name": "a22cc451288b430f97aafbab326671c4", "is_reserved": 0, "fusion_lat": 0.0, "type": "electric_scooter", "rental_uris": {"android": "https://dc.lft.to/lastmile_qr_scan", "ios": "https://dc.lft.to/lastmile_qr_scan"}}, {"fusion_lon": 0.0, "bike_id": "8a86a6f7d28a6e0a670cb6be782dd202", "lon": -77.01055716666667, "lat": 38.96633216666667, "is_disabled": 0, "name": "8a86a6f7d28a6e0a670cb6be782dd202", "is_reserved": 0, "fusion_lat": 0.0, "type": "electric_bike", "rental_uris": {"android": "https://dc.lft.to/lastmile_qr_scan", "ios": "https://dc.lft.to/lastmile_qr_scan"}}, {"fusion_lon": 0.0, "bike_id": "9a9755a29d3e9232c0f3dc6870dd6b9b", "lon": -77.025832, "lat": 38.92031883333333, "is_disabled": 0, "name": "9a9755a29d3e9232c0f3dc6870dd6b9b", "is_reserved": 0, "fusion_lat": 0.0, "type": "electric_scooter", "rental_uris": {"android": "https://dc.lft.to/lastmile_qr_scan", "ios": "https://dc.lft.to/lastmile_qr_scan"}}, {"fusion_lon": 0.0, "bike_id": "fd7537917e4cc847aa07bc2a6d39768f", "lon": -77.03812883333333, "lat": 38.93040033333333, "is_disabled": 0, "name": "fd7537917e4cc847aa07bc2a6d39768f", "is_reserved": 0, "fusion_lat": 0.0, "type": "electric_scooter", "rental_uris": {"android": "https://dc.lft.to/lastmile_qr_scan", "ios": "https://dc.lft.to/lastmile_qr_scan"}}, {"fusion_lon": 0.0, "bike_id": "23c39f3205404559440e3488b3cd6d60", "lon": -77.03122283333333, "lat": 38.920157833333334, "is_disabled": 0, "name": "23c39f3205404559440e3488b3cd6d60", "is_reserved": 0, "fusion_lat": 0.0, "type": "electric_scooter", "rental_uris": {"android": "https://dc.lft.to/lastmile_qr_scan", "ios": "https://dc.lft.to/lastmile_qr_scan"}}, {"fusion_lon": 0.0, "bike_id": "4de6cec2f5dea80ce0fac63ae61ec953", "lon": -77.02201416666666, "lat": 38.924714333333334, "is_disabled": 0, "name": "4de6cec2f5dea80ce0fac63ae61ec953", "is_reserved": 0, "fusion_lat": 0.0, "type": "electric_scooter", "rental_uris": {"android": "https://dc.lft.to/lastmile_qr_scan", "ios": "https://dc.lft.to/lastmile_qr_scan"}}, {"fusion_lon": 0.0, "bike_id": "b427a2980ad216e0a43980e87068f9b5", "lon": -76.96855833333333, "lat": 38.95539633333333, "is_disabled": 0, "name": "b427a2980ad216e0a43980e87068f9b5", "is_reserved": 0, "fusion_lat": 0.0, "type": "electric_bike", "rental_uris": {"android": "https://dc.lft.to/lastmile_qr_scan", "ios": "https://dc.lft.to/lastmile_qr_scan"}}, {"fusion_lon": 0.0, "bike_id": "aabcc2f2ba43099b7b3f62a3da2f0c69", "lon": -77.039577, "lat": 38.8924505, "is_disabled": 0, "name": "aabcc2f2ba43099b7b3f62a3da2f0c69", "is_reserved": 0, "fusion_lat": 0.0, "type": "electric_scooter", "rental_uris": {"android": "https://dc.lft.to/lastmile_qr_scan", "ios": "https://dc.lft.to/lastmile_qr_scan"}}, {"fusion_lon": 0.0, "bike_id": "6333174d2dd3956f181f53e83f7f6539", "lon": -77.0224175, "lat": 38.92430316666667, "is_disabled": 0, "name": "6333174d2dd3956f181f53e83f7f6539", "is_reserved": 0, "fusion_lat": 0.0, "type": "electric_scooter", "rental_uris": {"android": "https://dc.lft.to/lastmile_qr_scan", "ios": "https://dc.lft.to/lastmile_qr_scan"}}, {"fusion_lon": 0.0, "bike_id": "f9547f4c384474be5ce86e9e3908c31d", "lon": -76.99701583333334, "lat": 38.838642, "is_disabled": 0, "name": "f9547f4c384474be5ce86e9e3908c31d", "is_reserved": 0, "fusion_lat": 0.0, "type": "electric_bike", "rental_uris": {"android": "https://dc.lft.to/lastmile_qr_scan", "ios": "https://dc.lft.to/lastmile_qr_scan"}}, {"fusion_lon": 0.0, "bike_id": "522160295097739748bd24f60aa61dc4", "lon": -77.04154333333334, "lat": 38.91766533333333, "is_disabled": 0, "name": "522160295097739748bd24f60aa61dc4", "is_reserved": 0, "fusion_lat": 0.0, "type": "electric_scooter", "rental_uris": {"android": "https://dc.lft.to/lastmile_qr_scan", "ios": "https://dc.lft.to/lastmile_qr_scan"}}, {"fusion_lon": 0.0, "bike_id": "1734d378b8712f13609a17657582d3b9", "lon": -77.02968533333333, "lat": 38.9049945, "is_disabled": 0, "name": "1734d378b8712f13609a17657582d3b9", "is_reserved": 0, "fusion_lat": 0.0, "type": "electric_scooter", "rental_uris": {"android": "https://dc.lft.to/lastmile_qr_scan", "ios": "https://dc.lft.to/lastmile_qr_scan"}}, {"fusion_lon": 0.0, "bike_id": "87fe61acc7ab3d792948b6c93fde21fe", "lon": -77.09111666666666, "lat": 38.93106733333333, "is_disabled": 0, "name": "87fe61acc7ab3d792948b6c93fde21fe", "is_reserved": 0, "fusion_lat": 0.0, "type": "electric_scooter", "rental_uris": {"android": "https://dc.lft.to/lastmile_qr_scan", "ios": "https://dc.lft.to/lastmile_qr_scan"}}, {"fusion_lon": 0.0, "bike_id": "53815dc13e5baac943398361d2af3031", "lon": -77.0257855, "lat": 38.887383, "is_disabled": 0, "name": "53815dc13e5baac943398361d2af3031", "is_reserved": 0, "fusion_lat": 0.0, "type": "electric_scooter", "rental_uris": {"android": "https://dc.lft.to/lastmile_qr_scan", "ios": "https://dc.lft.to/lastmile_qr_scan"}}, {"fusion_lon": 0.0, "bike_id": "a0eb629d8f2586ecdfbde0ab014bf119", "lon": -77.0714685, "lat": 38.9067235, "is_disabled": 0, "name": "a0eb629d8f2586ecdfbde0ab014bf119", "is_reserved": 0, "fusion_lat": 0.0, "type": "electric_scooter", "rental_uris": {"android": "https://dc.lft.to/lastmile_qr_scan", "ios": "https://dc.lft.to/lastmile_qr_scan"}}, {"fusion_lon": 0.0, "bike_id": "ee9ed69cb90ac069a67bbba3cd59344b", "lon": -76.94664116666667, "lat": 38.89868533333333, "is_disabled": 0, "name": "ee9ed69cb90ac069a67bbba3cd59344b", "is_reserved": 0, "fusion_lat": 0.0, "type": "electric_scooter", "rental_uris": {"android": "https://dc.lft.to/lastmile_qr_scan", "ios": "https://dc.lft.to/lastmile_qr_scan"}}, {"fusion_lon": 0.0, "bike_id": "1df4bb0065291ced5e6168927f607bb0", "lon": -77.00210433333334, "lat": 38.90184766666667, "is_disabled": 0, "name": "1df4bb0065291ced5e6168927f607bb0", "is_reserved": 0, "fusion_lat": 0.0, "type": "electric_scooter", "rental_uris": {"android": "https://dc.lft.to/lastmile_qr_scan", "ios": "https://dc.lft.to/lastmile_qr_scan"}},