{"data": {"bikes": [{"rental_uris": {"android": "https://dc.lft.to/lastmile_qr_scan", "ios": "https://dc.lft.to/lastmile_qr_scan"}, "fusion_lat": 0.0, "is_reserved": 0, "lat": 38.89605933333333, "name": "a72793f46f1425fc21b0c43a1d26eceb", "bike_id": "a72793f46f1425fc21b0c43a1d26eceb", "is_disabled": 0, "fusion_lon": 0.0, "type": "electric_scooter", "lon": -77.03348183333334}, {"rental_uris": {"android": "https://dc.lft.to/lastmile_qr_scan", "ios": "https://dc.lft.to/lastmile_qr_scan"}, "fusion_lat": 0.0, "is_reserved": 0, "lat": 38.95933216666667, "name": "cb70b8886f8ec77db82fa0bf76cefa4e", "bike_id": "cb70b8886f8ec77db82fa0bf76cefa4e", "is_disabled": 0, "fusion_lon": 0.0, "type": "electric_scooter", "lon": -77.031216}, {"rental_uris": {"android": "https://dc.lft.to/lastmile_qr_scan", "ios": "https://dc.lft.to/lastmile_qr_scan"}, "fusion_lat": 0.0, "is_reserved": 0, "lat": 38.9335935, "name": "b917a785bbef812f675d2ececa49723f", "bike_id": "b917a785bbef812f675d2ececa49723f", "is_disabled": 0, "fusion_lon": 0.0, "type": "electric_scooter", "lon": -77.02374933333333}, {"rental_uris": {"android": "https://dc.lft.to/lastmile_qr_scan", "ios": "https://dc.lft.to/lastmile_qr_scan"}, "fusion_lat": 0.0, "is_reserved": 0, "lat": 38.900386166666664, "name": "7c8744c92e795379bb7aedb4c394a32f", "bike_id": "7c8744c92e795379bb7aedb4c394a32f", "is_disabled": 0, "fusion_lon": 0.0, "type": "electric_scooter", "lon": -77.04879266666667}, {"rental_uris": {"android": "https://dc.lft.to/lastmile_qr_scan", "ios": "https://dc.lft.to/lastmile_qr_scan"}, "fusion_lat": 0.0, "is_reserved": 0, "lat": 38.86526083333333, "name": "6bd5c3246f48ed175eea0fb373c8112b", "bike_id": "6bd5c3246f48ed175eea0fb373c8112b", "is_disabled": 0, "fusion_lon": 0.0, "type": "electric_scooter", "lon": -76.969051}, {"rental_uris": {"android": "https://dc.lft.to/lastmile_qr_scan", "ios": "https://dc.lft.to/lastmile_qr_scan"}, "fusion_lat": 0.0, "is_reserved": 0, "lat": 38.90718566666666, "name": "f2fccbabed1b8243b2ac3045d2f99232", "bike_id": "f2fccbabed1b8243b2ac3045d2f99232", "is_disabled": 0, "fusion_lon": 0.0, "type": "electric_scooter", "lon": -77.03889616666666}, {"rental_uris": {"android": "https://dc.lft.to/lastmile_qr_scan", "ios": "https://dc.lft.to/lastmile_qr_scan"}, "fusion_lat": 0.0, "is_reserved": 0, "lat": 38.9245865, "name": "a5aaf5ac7ceaa8fba408c140b2115259", "bike_id": "a5aaf5ac7ceaa8fba408c140b2115259", "is_disabled": 0, "fusion_lon": 0.0, "type": "electric_scooter", "lon": -77.02696933333333}, {"rental_uris": {"android": "https://dc.lft.to/lastmile_qr_scan", "ios": "https://dc.lft.to/lastmile_qr_scan"}, "fusion_lat": 0.0, "is_reserved": 0, "lat": 38.907312833333336, "name": "0d0991553dee5ce31fbb430f2ee7d230", "bike_id": "0d0991553dee5ce31fbb430f2ee7d230", "is_disabled": 0, "fusion_lon": 0.0, "type": "electric_scooter", "lon": -77.0501285}, {"rental_uris": {"android": "https://dc.lft.to/lastmile_qr_scan", "ios": "https://dc.lft.to/lastmile_qr_scan"}, "fusion_lat": 0.0, "is_reserved": 0, "lat": 38.8989705, "name": "93e757578fab1610dd2eb79dcf5ea517", "bike_id": "93e757578fab1610dd2eb79dcf5ea517", "is_disabled": 0, "fusion_lon": 0.0, "type": "electric_scooter", "lon": -76.97603566666666}, {"rental_uris": {"android": "https://dc.lft.to/lastmile_qr_scan", "ios": "https://dc.lft.to/lastmile_qr_scan"}, "fusion_lat": 0.0, "is_reserved": 0, "lat": 38.907798166666666, "name": "cd6470d643a5847f4d9c0dc71d00af35", "bike_id": "cd6470d643a5847f4d9c0dc71d00af35", "is_disabled": 0, "fusion_lon": 0.0, "type": "electric_scooter", "lon": -77.04509416666667}, {"rental_uris": {"android": "https://dc.lft.to/lastmile_qr_scan", "ios": "https://dc.lft.to/lastmile_qr_scan"}, "fusion_lat": 0.0, "is_reserved": 0, "lat": 38.91915, "name": "8bef51b4ff16d91b59d50a8a0d894538", "bike_id": "8bef51b4ff16d91b59d50a8a0d894538", "is_disabled": 0, "fusion_lon": 0.0, "type": "electric_scooter", "lon": -77.029472}, {"rental_uris": {"android": "https://dc.lft.to/lastmile_qr_scan", "ios": "https://dc.lft.to/lastmile_qr_scan"}, "fusion_lat": 0.0, "is_reserved": 0, "lat": 38.892234333333334, "name": "8ad339b7443e7563363ac8d8ba175d59", "bike_id": "8ad339b7443e7563363ac8d8ba175d59", "is_disabled": 0, "fusion_lon": 0.0, "type": "electric_scooter", "lon": -77.0334175}, {"rental_uris": {"android": "https://dc.lft.to/lastmile_qr_scan", "ios": "https://dc.lft.to/lastmile_qr_scan"}, "fusion_lat": 0.0, "is_reserved": 0, "lat": 38.923367666666664, "name": "72bd7ba202cf3bfd97b1c92d3cedb80e", "bike_id": "72bd7ba202cf3bfd97b1c92d3cedb80e", "is_disabled": 0, "fusion_lon": 0.0, "type": "electric_scooter", "lon": -77.03549166666667}, {"rental_uris": {"android": "https://dc.lft.to/lastmile_qr_scan", "ios": "https://dc.lft.to/lastmile_qr_scan"}, "fusion_lat": 0.0, "is_reserved": 0, "lat": 38.963975, "name": "69b5b1e14795be708447ed169a43c073", "bike_id": "69b5b1e14795be708447ed169a43c073", "is_disabled": 0, "fusion_lon": 0.0, "type": "electric_scooter", "lon": -77.02777016666667}, {"rental_uris": {"android": "https://dc.lft.to/lastmile_qr_scan", "ios": "https://dc.lft.to/lastmile_qr_scan"}, "fusion_lat": 0.0, "is_reserved": 0, "lat": 38.9196785, "name": "ddc6eea612527700223657b1f4da9880", "bike_id": "ddc6eea612527700223657b1f4da9880", "is_disabled": 0, "fusion_lon": 0.0, "type": "electric_scooter", "lon": -77.03854033333333}, {"rental_uris": {"android": "https://dc.lft.to/lastmile_qr_scan", "ios": "https://dc.lft.to/lastmile_qr_scan"}, "fusion_lat": 0.0, "is_reserved": 0, "lat": 38.916799166666664, "name": "3191085c451f2c5643ee6bee43a1ca7d", "bike_id": "3191085c451f2c5643ee6bee43a1ca7d", "is_disabled": 0, "fusion_lon": 0.0, "type": "electric_scooter", "lon": -77.046048}, {"rental_uris": {"android": "https://dc.lft.to/lastmile_qr_scan", "ios": "https://dc.lft.to/lastmile_qr_scan"}, "fusion_lat": 0.0, "is_reserved": 0, "lat": 38.93554066666667, "name": "2317cc7e1ee00e77db28fee2594d7e82", "bike_id": "2317cc7e1ee00e77db28fee2594d7e82", "is_disabled": 0, "fusion_lon": 0.0, "type": "electric_scooter", "lon": -77.034836}, {"rental_uris": {"android": "https://dc.lft.to/lastmile_qr_scan", "ios": "https://dc.lft.to/lastmile_qr_scan"}, "fusion_lat": 0.0, "is_reserved": 0, "lat": 38.94328483333334, "name": "f834664783808582581333d918777a85", "bike_id": "f834664783808582581333d918777a85", "is_disabled": 0, "fusion_lon": 0.0, "type": "electric_scooter", "lon": -77.0148935}, {"rental_uris": {"android": "https://dc.lft.to/lastmile_qr_scan", "ios": "https://dc.lft.to/lastmile_qr_scan"}, "fusion_lat": 0.0, "is_reserved": 0, "lat": 38.925819, "name": "00b7417074a7883e58fd958961cb6a1e", "bike_id": "00b7417074a7883e58fd958961cb6a1e", "is_disabled": 0, "fusion_lon": 0.0, "type": "electric_scooter", "lon": -77.02756566666666}, {"rental_uris": {"android": "https://dc.lft.to/lastmile_qr_scan", "ios": "https://dc.lft.to/lastmile_qr_scan"}, "fusion_lat": 0.0, "is_reserved": 0, "lat": 39.0746665, "name": "693c717603ae9cc40235a4abeaee873c", "bike_id": "693c717603ae9cc40235a4abeaee873c", "is_disabled": 0, "fusion_lon": 0.0, "type": "electric_bike", "lon": -77.115086}, {"rental_uris": {"android": "https://dc.lft.to/lastmile_qr_scan", "ios": "https://dc.lft.to/lastmile_qr_scan"}, "fusion_lat": 0.0, "is_reserved": 0, "lat": 38.896865, "name": "53e4b890dde1c2a5bad8d857aaba98d7", "bike_id": "53e4b890dde1c2a5bad8d857aaba98d7", "is_disabled": 0, "fusion_lon": 0.0, "type": "electric_scooter", "lon": -77.03344216666666}, {"rental_uris": {"android": "https://dc.lft.to/lastmile_qr_scan", "ios": "https://dc.lft.to/lastmile_qr_scan"}, "fusion_lat": 0.0, "is_reserved": 0, "lat": 38.90663266666667, "name": "314c53433022146364ca3d48d4037b89", "bike_id": "314c53433022146364ca3d48d4037b89", "is_disabled": 0, "fusion_lon": 0.0, "type": "electric_scooter", "lon": -77.02803633333333}, {"rental_uris": {"android": "https://dc.lft.to/lastmile_qr_scan", "ios": "https://dc.lft.to/lastmile_qr_scan"}, "fusion_lat": 0.0, "is_reserved": 0, "lat": 38.91553833333333, "name": "6271575167d855673cfeba894e691a7f", "bike_id": "6271575167d855673cfeba894e691a7f", "is_disabled": 0, "fusion_lon": 0.0, "type": "electric_scooter", "lon": -77.01411533333334}, {"rental_uris": {"android": "https://dc.lft.to/lastmile_qr_scan", "ios": "https://dc.lft.to/lastmile_qr_scan"}, "fusion_lat": 0.0, "is_reserved": 0, "lat": 38.89625566666667, "name": "28f84040849c3c2216e7b86a4ce12226", "bike_id": "28f84040849c3c2216e7b86a4ce12226", "is_disabled": 0, "fusion_lon": 0.0, "type": "electric_scooter", "lon": -77.04648766666666}, {"rental_uris": {"android": "https://dc.lft.to/lastmile_qr_scan", "ios": "https://dc.lft.to/lastmile_qr_scan"}, "fusion_lat": 0.0, "is_reserved": 0, "lat": 38.898300166666665, "name": "a65b12b7301c546556c9741ec44314d4", "bike_id": "a65b12b7301c546556c9741ec44314d4", "is_disabled": 0, "fusion_lon": 0.0, "type": "electric_scooter", "lon": -77.0460935}, {"rental_uris": {"android": "https://dc.lft.to/lastmile_qr_scan", "ios": "https://dc.lft.to/lastmile_qr_scan"}, "fusion_lat": 0.0, "is_reserved": 0, "lat": 38.921581333333336, "name": "4ba7a6b1dc6e1b98240ba6599113e006", "bike_id": "4ba7a6b1dc6e1b98240ba6599113e006", "is_disabled": 0, "fusion_lon": 0.0, "type": "electric_scooter", "lon": -77.034561}, {"rental_uris": {"android": "https://dc.lft.to/lastmile_qr_scan", "ios": "https://dc.lft.to/lastmile_qr_scan"}, "fusion_lat": 0.0, "is_reserved": 0, "lat": 38.923555666666665, "name": "08670a7f74d9338d9f2c15dc68541df7", "bike_id": "08670a7f74d9338d9f2c15dc68541df7", "is_disabled": 0, "fusion_lon": 0.0, "type": "electric_scooter", "lon": -77.03383716666667}, {"rental_uris": {"android": "https://dc.lft.to/lastmile_qr_scan", "ios": "https://dc.lft.to/lastmile_qr_scan"}, "fusion_lat": 0.0, "is_reserved": 0, "lat": 39.03819, "name": "ee268fdd4b4132e23d0ad801ec583069", "bike_id": "ee268fdd4b4132e23d0ad801ec583069", "is_disabled": 0, "fusion_lon": 0.0, "type": "electric_bike", "lon": -77.0422475}, {"rental_uris": {"android": "https://dc.lft.to/lastmile_qr_scan", "ios": "https://dc.lft.to/lastmile_qr_scan"}, "fusion_lat": 0.0, "is_reserved": 0, "lat": 38.924509, "name": "8c4c269f5228dbe3ba15d3dcb0e8dc0c", "bike_id": "8c4c269f5228dbe3ba15d3dcb0e8dc0c", "is_disabled": 0, "fusion_lon": 0.0, "type": "electric_scooter", "lon": -77.03400183333333}, {"rental_uris": {"android": "https://dc.lft.to/lastmile_qr_scan", "ios": "https://dc.lft.to/lastmile_qr_scan"}, "fusion_lat": 0.0, "is_reserved": 0, "lat": 38.93532066666667, "name": "f79142f1bf54278072df67864c36cd4b", "bike_id": "f79142f1bf54278072df67864c36cd4b", "is_disabled": 0, "fusion_lon": 0.0, "type": "electric_scooter", "lon": -77.02359483333333}, {"rental_uris": {"android": "https://dc.lft.to/lastmile_qr_scan", "ios": "https://dc.lft.to/lastmile_qr_scan"}, "fusion_lat": 0.0, "is_reserved": 0, "lat": 38.87630766666667, "name": "c2b04a05e35f67aa59cc8159929ab0ad", "bike_id": "c2b04a05e35f67aa59cc8159929ab0ad", "is_disabled": 0, "fusion_lon": 0.0, "type": "electric_scooter", "lon": -77.0027795}, {"rental_uris": {"android": "https://dc.lft.to/lastmile_qr_scan", "ios": "https://dc.lft.to/lastmile_qr_scan"}, "fusion_lat": 0.0, "is_reserved": 0, "lat": 38.8942155, "name": "79853b1fd67d44526270934589205463", "bike_id": "79853b1fd67d44526270934589205463", "is_disabled": 0, "fusion_lon": 0.0, "type": "electric_scooter", "lon": -76.9977035}, {"rental_uris": {"android": "https://dc.lft.to/lastmile_qr_scan", "ios": "https://dc.lft.to/lastmile_qr_scan"}, "fusion_lat": 0.0, "is_reserved": 0, "lat": 38.91260666666667, "name": "424fde5c33c37eace2f975bf4f8a89c4", "bike_id": "424fde5c33c37eace2f975bf4f8a89c4", "is_disabled": 0, "fusion_lon": 0.0, "type": "electric_scooter", "lon": -77.03804866666667}, {"rental_uris": {"android": "https://dc.lft.to/lastmile_qr_scan", "ios": "https://dc.lft.to/lastmile_qr_scan"}, "fusion_lat": 0.0, "is_reserved": 0, "lat": 38.917661833333334, "name": "e433e3c6bbce72f02be125db02d26ab3", "bike_id": "e433e3c6bbce72f02be125db02d26ab3", "is_disabled": 0, "fusion_lon": 0.0, "type": "electric_scooter", "lon": -77.01494133333334}, {"rental_uris": {"android": "https://dc.lft.to/lastmile_qr_scan", "ios": "https://dc.lft.to/lastmile_qr_scan"}, "fusion_lat": 0.0, "is_reserved": 0, "lat": 38.9024225, "name": "719901aa2671f7755b1d074aa876b809", "bike_id": "719901aa2671f7755b1d074aa876b809", "is_disabled": 0, "fusion_lon": 0.0, "type": "electric_scooter", "lon": -76.974134}, {"rental_uris": {"android": "https://dc.lft.to/lastmile_qr_scan", "ios": "https://dc.lft.to/lastmile_qr_scan"}, "fusion_lat": 0.0, "is_reserved": 0, "lat": 38.89222933333333, "name": "000e92c42d7d9e064e320175004f6076", "bike_id": "000e92c42d7d9e064e320175004f6076", "is_disabled": 0, "fusion_lon": 0.0, "type": "electric_scooter", "lon": -77.0436835}, {"rental_uris": {"android": "https://dc.lft.to/lastmile_qr_scan", "ios": "https://dc.lft.to/lastmile_qr_scan"}, "fusion_lat": 0.0, "is_reserved": 0, "lat": 38.924391, "name": "e0e0afe6bc045bcf8e75607638a1b2c6", "bike_id": "e0e0afe6bc045bcf8e75607638a1b2c6", "is_disabled": 0, "fusion_lon": 0.0, "type": "electric_scooter", "lon": -77.03404716666667}, {"rental_uris": {"android": "https://dc.lft.to/lastmile_qr_scan", "ios": "https://dc.lft.to/lastmile_qr_scan"}, "fusion_lat": 0.0, "is_reserved": 0, "lat": 38.882207, "name": "5b3c455a1b9ceff8026841e1417b7942", "bike_id": "5b3c455a1b9ceff8026841e1417b7942", "is_disabled": 0, "fusion_lon": 0.0, "type": "electric_scooter", "lon": -76.939046}, {"rental_uris": {"android": "https://dc.lft.to/lastmile_qr_scan", "ios": "https://dc.lft.to/lastmile_qr_scan"}, "fusion_lat": 0.0, "is_reserved": 0, "lat": 38.8831955, "name": "07ad0ffef1c1863535249b57b4961872", "bike_id": "07ad0ffef1c1863535249b57b4961872", "is_disabled": 0, "fusion_lon": 0.0, "type": "electric_bike", "lon": -76.91094066666666}, {"rental_uris": {"android": "https://dc.lft.to/lastmile_qr_scan", "ios": "https://dc.lft.to/lastmile_qr_scan"}, "fusion_lat": 0.0, "is_reserved": 0, "lat": 38.919594333333336, "name": "65a15ab7214bf93a0d994efc7747fe74", "bike_id": "65a15ab7214bf93a0d994efc7747fe74", "is_disabled": 0, "fusion_lon": 0.0, "type": "electric_scooter", "lon": -77.07871733333333}, {"rental_uris": {"android": "https://dc.lft.to/lastmile_qr_scan", "ios": "https://dc.lft.to/lastmile_qr_scan"}, "fusion_lat": 0.0, "is_reserved": 0, "lat": 38.891947333333334, "name": "ccdcb937824393d385636822a2eaa4e1", "bike_id": "ccdcb937824393d385636822a2eaa4e1", "is_disabled": 0, "fusion_lon": 0.0, "type": "electric_scooter", "lon": -77.0221975}, {"rental_uris": {"android": "https://dc.lft.to/lastmile_qr_scan", "ios": "https://dc.lft.to/lastmile_qr_scan"}, "fusion_lat": 0.0, "is_reserved": 0, "lat": 38.891786333333336, "name": "556ec32f9d197db7e5d1387dde90d46e", "bike_id": "556ec32f9d197db7e5d1387dde90d46e", "is_disabled": 0, "fusion_lon": 0.0, "type": "electric_scooter", "lon": -76.94257733333333}, {"rental_uris": {"android": "https://dc.lft.to/lastmile_qr_scan", "ios": "https://dc.lft.to/lastmile_qr_scan"}, "fusion_lat": 0.0, "is_reserved": 0, "lat": 38.921756, "name": "1ced7852d60fda1a49a249c5496a5cfa", "bike_id": "1ced7852d60fda1a49a249c5496a5cfa", "is_disabled": 0, "fusion_lon": 0.0, "type": "electric_scooter", "lon": -77.0266625}, {"rental_uris": {"android": "https://dc.lft.to/lastmile_qr_scan", "ios": "https://dc.lft.to/lastmile_qr_scan"}, "fusion_lat": 0.0, "is_reserved": 0, "lat": 38.9449615, "name": "91419942778345d2bff4ddf5063d37a9", "bike_id": "91419942778345d2bff4ddf5063d37a9", "is_disabled": 0, "fusion_lon": 0.0, "type": "electric_bike", "lon": -77.00509616666666}, {"rental_uris": {"android": "https://dc.lft.to/lastmile_qr_scan", "ios": "https://dc.lft.to/lastmile_qr_scan"}, "fusion_lat": 0.0, "is_reserved": 0, "lat": 38.894842833333335, "name": "a2899d8a327384949d8f50feaf6a4396", "bike_id": "a2899d8a327384949d8f50feaf6a4396", "is_disabled": 0, "fusion_lon": 0.0, "type": "electric_scooter", "lon": -76.995752}, {"rental_uris": {"android": "https://dc.lft.to/lastmile_qr_scan", "ios": "https://dc.lft.to/lastmile_qr_scan"}, "fusion_lat": 0.0, "is_reserved": 0, "lat": 38.864897, "name": "dafed7ff0ad693929bdfd40acf33b524", "bike_id": "dafed7ff0ad693929bdfd40acf33b524", "is_disabled": 0, "fusion_lon": 0.0, "type": "electric_scooter", "lon": -76.97749483333334}, {"rental_uris": {"android": "https://dc.lft.to/lastmile_qr_scan", "ios": "https://dc.lft.to/lastmile_qr_scan"}, "fusion_lat": 0.0, "is_reserved": 0, "lat": 38.89133566666667, "name": "fe34888625ef116bac665bdfd05b17be", "bike_id": "fe34888625ef116bac665bdfd05b17be", "is_disabled": 0, "fusion_lon": 0.0, "type": "electric_scooter", "lon": -76.999488}, {"rental_uris": {"android": "https://dc.lft.to/lastmile_qr_scan", "ios": "https://dc.lft.to/lastmile_qr_scan"}, "fusion_lat": 0.0, "is_reserved": 0, "lat": 38.919334166666665, "name": "54f958c84c418baaac10548ced73b7a8", "bike_id": "54f958c84c418baaac10548ced73b7a8", "is_disabled": 0, "fusion_lon": 0.0, "type": "electric_scooter", "lon": -77.02418816666666}, {"rental_uris": {"android": "https://dc.lft.to/lastmile_qr_scan", "ios": "https://dc.lft.to/lastmile_qr_scan"}, "fusion_lat": 0.0, "is_reserved": 0, "lat": 38.90579616666667, "name": "fdf05282f4fe4176e1ac9b8f397e197d", "bike_id": "fdf05282f4fe4176e1ac9b8f397e197d", "is_disabled": 0, "fusion_lon": 0.0, "type": "electric_scooter", "lon": -77.0397785}, {"rental_uris": {"android": "https://dc.lft.to/lastmile_qr_scan", "ios": "https://dc.lft.to/lastmile_qr_scan"}, "fusion_lat": 0.0, "is_reserved": 0, "lat": 38.893548833333334, "name": "b63c78cb6a27cfc04d081f3628629b11", "bike_id": "b63c78cb6a27cfc04d081f3628629b11", "is_disabled": 0, "fusion_lon": 0.0, "type": "electric_scooter", "lon": -77.017465}, {"rental_uris": {"android": "https://dc.lft.to/lastmile_qr_scan", "ios": "https://dc.lft.to/lastmile_qr_scan"}, "fusion_lat": 0.0, "is_reserved": 0, "lat": 38.9359005, "name": "e0785d371bbed65d153da6e3680040e3", "bike_id": "e0785d371bbed65d153da6e3680040e3", "is_disabled": 0, "fusion_lon": 0.0, "type": "electric_scooter", "lon": -77.03369316666667}, {"rental_uris": {"android": "https://dc.lft.to/lastmile_qr_scan", "ios": "https://dc.lft.to/lastmile_qr_scan"}, "fusion_lat": 0.0, "is_reserved": 0, "lat": 38.900409, "name": "24eccc5126283b25f99795dfaf817d65", "bike_id": "24eccc5126283b25f99795dfaf817d65", "is_disabled": 0, "fusion_lon": 0.0, "type": "electric_scooter", "lon": -76.98827433333334}, {"rental_uris": {"android": "https://dc.lft.to/lastmile_qr_scan", "ios": "https://dc.lft.to/lastmile_qr_scan"}, "fusion_lat": 0.0, "is_reserved": 0, "lat": 38.917595, "name": "a75f80611506e36b000d6f95b50c6b89", "bike_id": "a75f80611506e36b000d6f95b50c6b89", "is_disabled": 0, "fusion_lon": 0.0, "type": "electric_scooter", "lon": -77.028103}, {"rental_uris": {"android": "https://dc.lft.to/lastmile_qr_scan", "ios": "https://dc.lft.to/lastmile_qr_scan"}, "fusion_lat": 0.0, "is_reserved": 0, "lat": 38.92614116666667, "name": "a7eecf812e9afc144a3a21dfdc619fda", "bike_id": "a7eecf812e9afc144a3a21dfdc619fda", "is_disabled": 0, "fusion_lon": 0.0, "type": "electric_scooter", "lon": -77.02163133333333}, {"rental_uris": {"android": "https://dc.lft.to/lastmile_qr_scan", "ios": "https://dc.lft.to/lastmile_qr_scan"}, "fusion_lat": 0.0, "is_reserved": 0, "lat": 38.902442666666666, "name": "406723e9f1c82f49578de9eab47e93bc", "bike_id": "406723e9f1c82f49578de9eab47e93bc", "is_disabled": 0, "fusion_lon": 0.0, "type": "electric_scooter", "lon": -77.01746}, {"rental_uris": {"android": "https://dc.lft.to/lastmile_qr_scan", "ios": "https://dc.lft.to/lastmile_qr_scan"}, "fusion_lat": 0.0, "is_reserved": 0, "lat": 38.89919916666667, "name": "d9c99b796882166fc9016d07d8088b3a", "bike_id": "d9c99b796882166fc9016d07d8088b3a", "is_disabled": 0, "fusion_lon": 0.0, "type": "electric_scooter", "lon": -77.02677833333334}, {"rental_uris": {"android": "https://dc.lft.to/lastmile_qr_scan", "ios": "https://dc.lft.to/lastmile_qr_scan"}, "fusion_lat": 0.0, "is_reserved": 0, "lat": 38.920292833333335, "name": "400ab05fd61565c812f97e02fdd1ee8c", "bike_id": "400ab05fd61565c812f97e02fdd1ee8c", "is_disabled": 0, "fusion_lon": 0.0, "type": "electric_scooter", "lon": -77.01033316666667}, {"rental_uris": {"android": "https://dc.lft.to/lastmile_qr_scan", "ios": "https://dc.lft.to/lastmile_qr_scan"}, "fusion_lat": 0.0, "is_reserved": 0, "lat": 38.9261685, "name": "f79817dfd2bcc8b32c742dae032e15a7", "bike_id": "f79817dfd2bcc8b32c742dae032e15a7", "is_disabled": 0, "fusion_lon": 0.0, "type": "electric_scooter", "lon": -77.02213233333333}, {"rental_uris": {"android": "https://dc.lft.to/lastmile_qr_scan", "ios": "https://dc.lft.to/lastmile_qr_scan"}, "fusion_lat": 0.0, "is_reserved": 0, "lat": 38.921660833333334, "name": "c7fa958f4b413e9d0d483a927b0195c7", "bike_id": "c7fa958f4b413e9d0d483a927b0195c7", "is_disabled": 0, "fusion_lon": 0.0, "type": "electric_scooter", "lon": -77.01874883333333}, {"rental_uris": {"android": "https://dc.lft.to/lastmile_qr_scan", "ios": "https://dc.lft.to/lastmile_qr_scan"}, "fusion_lat": 0.0, "is_reserved": 0, "lat": 38.88715116666667, "name": "f8c54877af403fe2816e79c28eb61481", "bike_id": "f8c54877af403fe2816e79c28eb61481", "is_disabled": 0, "fusion_lon": 0.0, "type": "electric_scooter", "lon": -77.021782}, {"rental_uris": {"android": "https://dc.lft.to/lastmile_qr_scan", "ios": "https://dc.lft.to/lastmile_qr_scan"}, "fusion_lat": 0.0, "is_reserved": 0, "lat": 38.89738166666667, "name": "a71b0b4970dda57ed6d64a8529713a66", "bike_id": "a71b0b4970dda57ed6d64a8529713a66", "is_disabled": 0, "fusion_lon": 0.0, "type": "electric_scooter", "lon": -77.00726166666666}, {"rental_uris": {"android": "https://dc.lft.to/lastmile_qr_scan", "ios": "https://dc.lft.to/lastmile_qr_scan"}, "fusion_lat": 0.0, "is_reserved": 0, "lat": 38.92333033333333, "name": "bf08ae998b8b2d86909d8ab2ed58f045", "bike_id": "bf08ae998b8b2d86909d8ab2ed58f045", "is_disabled": 0, "fusion_lon": 0.0, "type": "electric_scooter", "lon": -77.03612533333333}, {"rental_uris": {"android": "https://dc.lft.to/lastmile_qr_scan", "ios": "https://dc.lft.to/lastmile_qr_scan"}, "fusion_lat": 0.0, "is_reserved": 0, "lat": 38.91815316666667, "name": "466e6615f0b740be25bc75c92abfaf42", "bike_id": "466e6615f0b740be25bc75c92abfaf42", "is_disabled": 0, "fusion_lon": 0.0, "type": "electric_scooter", "lon": -77.03167883333333}, {"rental_uris": {"android": "https://dc.lft.to/lastmile_qr_scan", "ios": "https://dc.lft.to/lastmile_qr_scan"}, "fusion_lat": 0.0, "is_reserved": 0, "lat": 38.93375, "name": "d8531efef1ab7721d10919c773f2f60f", "bike_id": "d8531efef1ab7721d10919c773f2f60f", "is_disabled": 0, "fusion_lon": 0.0, "type": "electric_scooter", "lon": -77.03249516666666}, {"rental_uris": {"android": "https://dc.lft.to/lastmile_qr_scan", "ios": "https://dc.lft.to/lastmile_qr_scan"}, "fusion_lat": 0.0, "is_reserved": 0, "lat": 38.90448033333333, "name": "59357bbe52334e0a696a4c1f11394035", "bike_id": "59357bbe52334e0a696a4c1f11394035", "is_disabled": 0, "fusion_lon": 0.0, "type": "electric_scooter", "lon": -77.060135}, {"rental_uris": {"android": "https://dc.lft.to/lastmile_qr_scan", "ios": "https://dc.lft.to/lastmile_qr_scan"}, "fusion_lat": 0.0, "is_reserved": 0, "lat": 38.94309783333333, "name": "de000a04412b2d62cca7741c1eb7fbca", "bike_id": "de000a04412b2d62cca7741c1eb7fbca", "is_disabled": 0, "fusion_lon": 0.0, "type": "electric_scooter", "lon": -77.021778}, {"rental_uris": {"android": "https://dc.lft.to/lastmile_qr_scan", "ios": "https://dc.lft.to/lastmile_qr_scan"}, "fusion_lat": 0.0, "is_reserved": 0, "lat": 38.92549533333333, "name": "c6219d5f8f8babf5db3dcf040cb60f35", "bike_id": "c6219d5f8f8babf5db3dcf040cb60f35", "is_disabled": 0, "fusion_lon": 0.0, "type": "electric_scooter", "lon": -77.0405965}, {"rental_uris": {"android": "https://dc.lft.to/lastmile_qr_scan", "ios": "https://dc.lft.to/lastmile_qr_scan"}, "fusion_lat": 0.0, "is_reserved": 0, "lat": 38.90126983333333, "name": "2ab84629aa876a1d3cd681f28d3f93e2", "bike_id": "2ab84629aa876a1d3cd681f28d3f93e2", "is_disabled": 0, "fusion_lon": 0.0, "type": "electric_scooter", "lon": -77.00320766666667}, {"rental_uris": {"android": "https://dc.lft.to/lastmile_qr_scan", "ios": "https://dc.lft.to/lastmile_qr_scan"}, "fusion_lat": 0.0, "is_reserved": 0, "lat": 38.878483833333334, "name": "0dc91beb9f4d48c99391028891ba6ab6", "bike_id": "0dc91beb9f4d48c99391028891ba6ab6", "is_disabled": 0, "fusion_lon": 0.0, "type": "electric_scooter", "lon": -76.98293233333334}, {"rental_uris": {"android": "https://dc.lft.to/lastmile_qr_scan", "ios": "https://dc.lft.to/lastmile_qr_scan"}, "fusion_lat": 0.0, "is_reserved": 0, "lat": 38.99677666666667, "name": "0a9c16f024e1d5efbaeccf23738f47bb", "bike_id": "0a9c16f024e1d5efbaeccf23738f47bb", "is_disabled": 0, "fusion_lon": 0.0, "type": "electric_bike", "lon": -77.03792016666667}, {"rental_uris": {"android": "https://dc.lft.to/lastmile_qr_scan", "ios": "https://dc.lft.to/lastmile_qr_scan"}, "fusion_lat": 0.0, "is_reserved": 0, "lat": 38.8936235, "name": "5a66afa34e8ae0a3f7e8c279dde186bb", "bike_id": "5a66afa34e8ae0a3f7e8c279dde186bb", "is_disabled": 0, "fusion_lon": 0.0, "type": "electric_scooter", "lon": -76.98640016666667}, {"rental_uris": {"android": "https://dc.lft.to/lastmile_qr_scan", "ios": "https://dc.lft.to/lastmile_qr_scan"}, "fusion_lat": 0.0, "is_reserved": 0, "lat": 38.9070335, "name": "fcd9219453844bd674882d33ad7b3b2a", "bike_id": "fcd9219453844bd674882d33ad7b3b2a", "is_disabled": 0, "fusion_lon": 0.0, "type": "electric_scooter", "lon": -77.01114166666666}, {"rental_uris": {"android": "https://dc.lft.to/lastmile_qr_scan", "ios": "https://dc.lft.to/lastmile_qr_scan"}, "fusion_lat": 0.0, "is_reserved": 0, "lat": 38.923921, "name": "58b98ee7d93756d281bb028eeb8dbd06", "bike_id": "58b98ee7d93756d281bb028eeb8dbd06", "is_disabled": 0, "fusion_lon": 0.0, "type": "electric_scooter", "lon": -77.02496166666667}, {"rental_uris": {"android": "https://dc.lft.to/lastmile_qr_scan", "ios": "https://dc.lft.to/lastmile_qr_scan"}, "fusion_lat": 0.0, "is_reserved": 0, "lat": 38.90575066666667, "name": "351d5e95c63f462d99e62300e6474bcc", "bike_id": "351d5e95c63f462d99e62300e6474bcc", "is_disabled": 0, "fusion_lon": 0.0, "type": "electric_scooter", "lon": -77.04530566666666}, {"rental_uris": {"android": "https://dc.lft.to/lastmile_qr_scan", "ios": "https://dc.lft.to/lastmile_qr_scan"}, "fusion_lat": 0.0, "is_reserved": 0, "lat": 38.93963733333333, "name": "de8d6737d17252b94487dc7d48d483a5", "bike_id": "de8d6737d17252b94487dc7d48d483a5", "is_disabled": 0, "fusion_lon": 0.0, "type": "electric_scooter", "lon": -77.02519583333333}, {"rental_uris": {"android": "https://dc.lft.to/lastmile_qr_scan", "ios": "https://dc.lft.to/lastmile_qr_scan"}, "fusion_lat": 0.0, "is_reserved": 0, "lat": 38.8867725, "name": "c10f8cbcfe3bc5bd4737a264c2f3cbd7", "bike_id": "c10f8cbcfe3bc5bd4737a264c2f3cbd7", "is_disabled": 0, "fusion_lon": 0.0, "type": "electric_scooter", "lon": -77.00200183333334}, {"rental_uris": {"android": "https://dc.lft.to/lastmile_qr_scan", "ios": "https://dc.lft.to/lastmile_qr_scan"}, "fusion_lat": 0.0, "is_reserved": 0, "lat": 38.9246585, "name": "a0d0515191a1dd832681c9ea201d7d92", "bike_id": "a0d0515191a1dd832681c9ea201d7d92", "is_disabled": 0, "fusion_lon": 0.0, "type": "electric_scooter", "lon": -77.02696533333334}, {"rental_uris": {"android": "https://dc.lft.to/lastmile_qr_scan", "ios": "https://dc.lft.to/lastmile_qr_scan"}, "fusion_lat": 0.0, "is_reserved": 0, "lat": 38.9171395, "name": "8d4a02457e239669fd2472a48556fc55", "bike_id": "8d4a02457e239669fd2472a48556fc55", "is_disabled": 0, "fusion_lon": 0.0, "type": "electric_scooter", "lon": -77.0346735}, {"rental_uris": {"android": "https://dc.lft.to/lastmile_qr_scan", "ios": "https://dc.lft.to/lastmile_qr_scan"}, "fusion_lat": 0.0, "is_reserved": 0, "lat": 38.9098745, "name": "c7af6a7bf2eefa2a30204d9b78d7a85a", "bike_id": "c7af6a7bf2eefa2a30204d9b78d7a85a", "is_disabled": 0, "fusion_lon": 0.0, "type": "electric_scooter", "lon": -77.02397066666667}, {"rental_uris": {"android": "https://dc.lft.to/lastmile_qr_scan", "ios": "https://dc.lft.to/lastmile_qr_scan"}, "fusion_lat": 0.0, "is_reserved": 0, "lat": 38.9250205, "name": "65da5e154b51771091426031939a45c0", "bike_id": "65da5e154b51771091426031939a45c0", "is_disabled": 0, "fusion_lon": 0.0, "type": "electric_scooter", "lon": -77.022784}, {"rental_uris": {"android": "https://dc.lft.to/lastmile_qr_scan", "ios": "https://dc.lft.to/lastmile_qr_scan"}, "fusion_lat": 0.0, "is_reserved": 0, "lat": 38.896267, "name": "2736d590db08e48b83e02fd8e859befc", "bike_id": "2736d590db08e48b83e02fd8e859befc", "is_disabled": 0, "fusion_lon": 0.0, "type": "electric_scooter", "lon": -76.99853533333334}, {"rental_uris": {"android": "https://dc.lft.to/lastmile_qr_scan", "ios": "https://dc.lft.to/lastmile_qr_scan"}, "fusion_lat": 0.0, "is_reserved": 0, "lat": 38.86871333333333, "name": "041e16b535a5a586a4ad174acd9fd3d8", "bike_id": "041e16b535a5a586a4ad174acd9fd3d8", "is_disabled": 0, "fusion_lon": 0.0, "type": "electric_scooter", "lon": -76.98659266666667}, {"rental_uris": {"android": "https://dc.lft.to/lastmile_qr_scan", "ios": "https://dc.lft.to/lastmile_qr_scan"}, "fusion_lat": 0.0, "is_reserved": 0, "lat": 38.919006, "name": "8990527c83d9c2c9d34a25703f0bf96a", "bike_id": "8990527c83d9c2c9d34a25703f0bf96a", "is_disabled": 0, "fusion_lon": 0.0, "type": "electric_scooter", "lon": -77.00344}, {"rental_uris": {"android": "https://dc.lft.to/lastmile_qr_scan", "ios": "https://dc.lft.to/lastmile_qr_scan"}, "fusion_lat": 0.0, "is_reserved": 0, "lat": 38.924558833333336, "name": "bb44c12a6c908606af6c85ccc51b8c52", "bike_id": "bb44c12a6c908606af6c85ccc51b8c52", "is_disabled": 0, "fusion_lon": 0.0, "type": "electric_scooter", "lon": -76.99911083333333}, {"rental_uris": {"android": "https://dc.lft.to/lastmile_qr_scan", "ios": "https://dc.lft.to/lastmile_qr_scan"}, "fusion_lat": 0.0, "is_reserved": 0, "lat": 38.875783166666665, "name": "192dbeb7959959c07f1e4ee221c265b2", "bike_id": "192dbeb7959959c07f1e4ee221c265b2", "is_disabled": 0, "fusion_lon": 0.0, "type": "electric_scooter", "lon": -77.019956}, {"rental_uris": {"android": "https://dc.lft.to/lastmile_qr_scan", "ios": "https://dc.lft.to/lastmile_qr_scan"}, "fusion_lat": 0.0, "is_reserved": 0, "lat": 38.91250516666667, "name": "f22cea2d3dbbb25778b39987127c28fe", "bike_id": "f22cea2d3dbbb25778b39987127c28fe", "is_disabled": 0, "fusion_lon": 0.0, "type": "electric_scooter", "lon": -77.0281165}, {"rental_uris": {"android": "https://dc.lft.to/lastmile_qr_scan", "ios": "https://dc.lft.to/lastmile_qr_scan"}, "fusion_lat": 0.0, "is_reserved": 0, "lat": 38.900344, "name": "74c39b8fda4b1c7f6b9be3e2fc05fa56", "bike_id": "74c39b8fda4b1c7f6b9be3e2fc05fa56", "is_disabled": 0, "fusion_lon": 0.0, "type": "electric_scooter", "lon": -76.99851983333333}, {"rental_uris": {"android": "https://dc.lft.to/lastmile_qr_scan", "ios": "https://dc.lft.to/lastmile_qr_scan"}, "fusion_lat": 0.0, "is_reserved": 0, "lat": 38.9233485, "name": "6c0f16779e76118a85f821f69ccfccb6", "bike_id": "6c0f16779e76118a85f821f69ccfccb6", "is_disabled": 0, "fusion_lon": 0.0, "type": "electric_scooter", "lon": -77.01899466666667}, {"rental_uris": {"android": "https://dc.lft.to/lastmile_qr_scan", "ios": "https://dc.lft.to/lastmile_qr_scan"}, "fusion_lat": 0.0, "is_reserved": 0, "lat": 38.99522733333333, "name": "89a6227b78022b0a501c4bd554ce60d3", "bike_id": "89a6227b78022b0a501c4bd554ce60d3", "is_disabled": 0, "fusion_lon": 0.0, "type": "electric_bike", "lon": -77.0378415}, {"rental_uris": {"android": "https://dc.lft.to/lastmile_qr_scan", "ios": "https://dc.lft.to/lastmile_qr_scan"}, "fusion_lat": 0.0, "is_reserved": 0, "lat": 38.918654833333335, "name": "211eb23ba8a1e797127d8826b1d7577c", "bike_id": "211eb23ba8a1e797127d8826b1d7577c", "is_disabled": 0, "fusion_lon": 0.0, "type": "electric_scooter", "lon": -77.035136}, {"rental_uris": {"android": "https://dc.lft.to/lastmile_qr_scan", "ios": "https://dc.lft.to/lastmile_qr_scan"}, "fusion_lat": 0.0, "is_reserved": 0, "lat": 38.90955, "name": "8e6f8fd13e63f087f07e28fc1ba359c3", "bike_id": "8e6f8fd13e63f087f07e28fc1ba359c3", "is_disabled": 0, "fusion_lon": 0.0, "type": "electric_scooter", "lon": -77.0411945}, {"rental_uris": {"android": "https://dc.lft.to/lastmile_qr_scan", "ios": "https://dc.lft.to/lastmile_qr_scan"}, "fusion_lat": 0.0, "is_reserved": 0, "lat": 38.9059655, "name": "88a4d0f903d504ae4a1594b755e913e6", "bike_id": "88a4d0f903d504ae4a1594b755e913e6", "is_disabled": 0, "fusion_lon": 0.0, "type": "electric_scooter", "lon": -77.00634933333333}, {"rental_uris": {"android": "https://dc.lft.to/lastmile_qr_scan", "ios": "https://dc.lft.to/lastmile_qr_scan"}, "fusion_lat": 0.0, "is_reserved": 0, "lat": 38.92571433333333, "name": "00478a9472324234c5fd0c63f2100fb3", "bike_id": "00478a9472324234c5fd0c63f2100fb3", "is_disabled": 0, "fusion_lon": 0.0, "type": "electric_scooter", "lon": -77.02687733333333}, {"rental_uris": {"android": "https://dc.lft.to/lastmile_qr_scan", "ios": "https://dc.lft.to/lastmile_qr_scan"}, "fusion_lat": 0.0, "is_reserved": 0, "lat": 38.8899155, "name": "833a44820cd76ce9ae8a1df19dc7383d", "bike_id": "833a44820cd76ce9ae8a1df19dc7383d", "is_disabled": 0, "fusion_lon": 0.0, "type": "electric_scooter", "lon": -76.98383866666667}, {"rental_uris": {"android": "https://dc.lft.to/lastmile_qr_scan", "ios": "https://dc.lft.to/lastmile_qr_scan"}, "fusion_lat": 0.0, "is_reserved": 0, "lat": 38.9063535, "name": "196cbced73e6fca1366df7dc8d181fe1", "bike_id": "196cbced73e6fca1366df7dc8d181fe1", "is_disabled": 0, "fusion_lon": 0.0, "type": "electric_scooter", "lon": -77.03900333333333}, {"rental_uris": {"android": "https://dc.lft.to/lastmile_qr_scan", "ios": "https://dc.lft.to/lastmile_qr_scan"}, "fusion_lat": 0.0, "is_reserved": 0, "lat": 38.92038983333333, "name": "4564a733bf24bb116020ad67cb9e9a42", "bike_id": "4564a733bf24bb116020ad67cb9e9a42", "is_disabled": 0, "fusion_lon": 0.0, "type": "electric_scooter", "lon": -77.02461466666666}, {"rental_uris": {"android": "https://dc.lft.to/lastmile_qr_scan", "ios": "https://dc.lft.to/lastmile_qr_scan"}, "fusion_lat": 0.0, "is_reserved": 0, "lat": 38.916344, "name": "829f4a92567d83600df096cbb628f0cf", "bike_id": "829f4a92567d83600df096cbb628f0cf", "is_disabled": 0, "fusion_lon": 0.0, "type": "electric_scooter", "lon": -77.01068383333333}, {"rental_uris": {"android": "https://dc.lft.to/lastmile_qr_scan", "ios": "https://dc.lft.to/lastmile_qr_scan"}, "fusion_lat": 0.0, "is_reserved": 0, "lat": 38.92471583333333, "name": "a33e35e672797c22ee0dba066a687155", "bike_id": "a33e35e672797c22ee0dba066a687155", "is_disabled": 0, "fusion_lon": 0.0, "type": "electric_scooter", "lon": -77.02111783333334}, {"rental_uris": {"android": "https://dc.lft.to/lastmile_qr_scan", "ios": "https://dc.lft.to/lastmile_qr_scan"}, "fusion_lat": 0.0, "is_reserved": 0, "lat": 38.904948, "name": "d0db5db963ad86547adf9173836a1407", "bike_id": "d0db5db963ad86547adf9173836a1407", "is_disabled": 0, "fusion_lon": 0.0, "type": "electric_scooter", "lon": -76.98031766666666}, {"rental_uris": {"android": "https://dc.lft.to/lastmile_qr_scan", "ios": "https://dc.lft.to/lastmile_qr_scan"}, "fusion_lat": 0.0, "is_reserved": 0, "lat": 38.9224625, "name": "ac678c20dc1417523c5395e2048a3bb7", "bike_id": "ac678c20dc1417523c5395e2048a3bb7", "is_disabled": 0, "fusion_lon": 0.0, "type": "electric_scooter", "lon": -77.03085316666666}, {"rental_uris": {"android": "https://dc.lft.to/lastmile_qr_scan", "ios": "https://dc.lft.to/lastmile_qr_scan"}, "fusion_lat": 0.0, "is_reserved": 0, "lat": 38.857726, "name": "45151377ec094b4d052d51e7dae13e2e", "bike_id": "45151377ec094b4d052d51e7dae13e2e", "is_disabled": 0, "fusion_lon": 0.0, "type": "electric_bike", "lon": -76.98752833333333}, {"rental_uris": {"android": "https://dc.lft.to/lastmile_qr_scan", "ios": "https://dc.lft.to/lastmile_qr_scan"}, "fusion_lat": 0.0, "is_reserved": 0, "lat": 38.830286666666666, "name": "675d6ed801cb29bcb66031fcbde92504", "bike_id": "675d6ed801cb29bcb66031fcbde92504", "is_disabled": 0, "fusion_lon": 0.0, "type": "electric_bike", "lon": -77.083763}, {"rental_uris": {"android": "https://dc.lft.to/lastmile_qr_scan", "ios": "https://dc.lft.to/lastmile_qr_scan"}, "fusion_lat": 0.0, "is_reserved": 0, "lat": 38.917069, "name": "1f210162021578c18f59a037701d9487", "bike_id": "1f210162021578c18f59a037701d9487", "is_disabled": 0, "fusion_lon": 0.0, "type": "electric_scooter", "lon": -77.02736683333333}, {"rental_uris": {"android": "https://dc.lft.to/lastmile_qr_scan", "ios": "https://dc.lft.to/lastmile_qr_scan"}, "fusion_lat": 0.0, "is_reserved": 0, "lat": 38.9260325, "name": "7ddf8b7950dbd370ae731e08dd6377b0", "bike_id": "7ddf8b7950dbd370ae731e08dd6377b0", "is_disabled": 0, "fusion_lon": 0.0, "type": "electric_scooter", "lon": -77.02150116666667}, {"rental_uris": {"android": "https://dc.lft.to/lastmile_qr_scan", "ios": "https://dc.lft.to/lastmile_qr_scan"}, "fusion_lat": 0.0, "is_reserved": 0, "lat": 38.912668333333336, "name": "61004452fefe2eef92061aa59bccd11d", "bike_id": "61004452fefe2eef92061aa59bccd11d", "is_disabled": 0, "fusion_lon": 0.0, "type": "electric_scooter", "lon": -77.00801433333334}, {"rental_uris": {"android": "https://dc.lft.to/lastmile_qr_scan", "ios": "https://dc.lft.to/lastmile_qr_scan"}, "fusion_lat": 0.0, "is_reserved": 0, "lat": 38.895366833333334, "name": "e56b2214fab61d8e638d0acf383d09f3", "bike_id": "e56b2214fab61d8e638d0acf383d09f3", "is_disabled": 0, "fusion_lon": 0.0, "type": "electric_scooter", "lon": -76.92774316666667}, {"rental_uris": {"android": "https://dc.lft.to/lastmile_qr_scan", "ios": "https://dc.lft.to/lastmile_qr_scan"}, "fusion_lat": 0.0, "is_reserved": 0, "lat": 38.924704, "name": "d6f856be7b37bd648cc669cd0e1f4b2f", "bike_id": "d6f856be7b37bd648cc669cd0e1f4b2f", "is_disabled": 0, "fusion_lon": 0.0, "type": "electric_scooter", "lon": -77.03731916666666}, {"rental_uris": {"android": "https://dc.lft.to/lastmile_qr_scan", "ios": "https://dc.lft.to/lastmile_qr_scan"}, "fusion_lat": 0.0, "is_reserved": 0, "lat": 38.94726383333333, "name": "b85f0fd431703e109fc2445cd483ea93", "bike_id": "b85f0fd431703e109fc2445cd483ea93", "is_disabled": 0, "fusion_lon": 0.0, "type": "electric_scooter", "lon": -77.03302116666667}, {"rental_uris": {"android": "https://dc.lft.to/lastmile_qr_scan", "ios": "https://dc.lft.to/lastmile_qr_scan"}, "fusion_lat": 0.0, "is_reserved": 0, "lat": 38.953921666666666, "name": "d80b071a8a2d053a5994ea16dccf672c", "bike_id": "d80b071a8a2d053a5994ea16dccf672c", "is_disabled": 0, "fusion_lon": 0.0, "type": "electric_scooter", "lon": -77.00646016666667}, {"rental_uris": {"android": "https://dc.lft.to/lastmile_qr_scan", "ios": "https://dc.lft.to/lastmile_qr_scan"}, "fusion_lat": 0.0, "is_reserved": 0, "lat": 38.9179425, "name": "7def47815c6b11fad381ec488ab9d8a7", "bike_id": "7def47815c6b11fad381ec488ab9d8a7", "is_disabled": 0, "fusion_lon": 0.0, "type": "electric_scooter", "lon": -77.03213133333334}, {"rental_uris": {"android": "https://dc.lft.to/lastmile_qr_scan", "ios": "https://dc.lft.to/lastmile_qr_scan"}, "fusion_lat": 0.0, "is_reserved": 0, "lat": 38.914138, "name": "4024dd6f3da542b58ae89d247e0bc045", "bike_id": "4024dd6f3da542b58ae89d247e0bc045", "is_disabled": 0, "fusion_lon": 0.0, "type": "electric_scooter", "lon": -77.0309745}, {"rental_uris": {"android": "https://dc.lft.to/lastmile_qr_scan", "ios": "https://dc.lft.to/lastmile_qr_scan"}, "fusion_lat": 0.0, "is_reserved": 0, "lat": 38.886735, "name": "032aba12ec1cc2f17ad55ad2175fb322", "bike_id": "032aba12ec1cc2f17ad55ad2175fb322", "is_disabled": 0, "fusion_lon": 0.0, "type": "electric_scooter", "lon": -77.03171633333334}, {"rental_uris": {"android": "https://dc.lft.to/lastmile_qr_scan", "ios": "https://dc.lft.to/lastmile_qr_scan"}, "fusion_lat": 0.0, "is_reserved": 0, "lat": 38.860171666666666, "name": "d414385173598d28c8031241f8f52deb", "bike_id": "d414385173598d28c8031241f8f52deb", "is_disabled": 0, "fusion_lon": 0.0, "type": "electric_scooter", "lon": -76.97000433333334}, {"rental_uris": {"android": "https://dc.lft.to/lastmile_qr_scan", "ios": "https://dc.lft.to/lastmile_qr_scan"}, "fusion_lat": 0.0, "is_reserved": 0, "lat": 38.904056833333335, "name": "08f6bf810f247f9fa3857d7c7a5bdcd2", "bike_id": "08f6bf810f247f9fa3857d7c7a5bdcd2", "is_disabled": 0, "fusion_lon": 0.0, "type": "electric_scooter", "lon": -76.973514}, {"rental_uris": {"android": "https://dc.lft.to/lastmile_qr_scan", "ios": "https://dc.lft.to/lastmile_qr_scan"}, "fusion_lat": 0.0, "is_reserved": 0, "lat": 38.908981, "name": "3852ee2478bd55110210f5dd03ede68a", "bike_id": "3852ee2478bd55110210f5dd03ede68a", "is_disabled": 0, "fusion_lon": 0.0, "type": "electric_scooter", "lon": -76.99867716666667}, {"rental_uris": {"android": "https://dc.lft.to/lastmile_qr_scan", "ios": "https://dc.lft.to/lastmile_qr_scan"}, "fusion_lat": 0.0, "is_reserved": 0, "lat": 38.96677566666666, "name": "f15d56cdc05af897e1de79a6d24b9552", "bike_id": "f15d56cdc05af897e1de79a6d24b9552", "is_disabled": 0, "fusion_lon": 0.0, "type": "electric_scooter", "lon": -77.03606616666667}, {"rental_uris": {"android": "https://dc.lft.to/lastmile_qr_scan", "ios": "https://dc.lft.to/lastmile_qr_scan"}, "fusion_lat": 0.0, "is_reserved": 0, "lat": 38.895488666666665, "name": "24e95beb6742bc7e30366f57e76b6265", "bike_id": "24e95beb6742bc7e30366f57e76b6265", "is_disabled": 0, "fusion_lon": 0.0, "type": "electric_scooter", "lon": -76.98338466666667}, {"rental_uris": {"android": "https://dc.lft.to/lastmile_qr_scan", "ios": "https://dc.lft.to/lastmile_qr_scan"}, "fusion_lat": 0.0, "is_reserved": 0, "lat": 38.91466033333333, "name": "080d1d1862d36bea97333ea8f2475ad6", "bike_id": "080d1d1862d36bea97333ea8f2475ad6", "is_disabled": 0, "fusion_lon": 0.0, "type": "electric_scooter", "lon": -77.04176966666667}, {"rental_uris": {"android": "https://dc.lft.to/lastmile_qr_scan", "ios": "https://dc.lft.to/lastmile_qr_scan"}, "fusion_lat": 0.0, "is_reserved": 0, "lat": 38.95184666666667, "name": "7b439a180cb7f4906d79994cd67769b5", "bike_id": "7b439a180cb7f4906d79994cd67769b5", "is_disabled": 0, "fusion_lon": 0.0, "type": "electric_scooter", "lon": -77.01264266666666}, {"rental_uris": {"android": "https://dc.lft.to/lastmile_qr_scan", "ios": "https://dc.lft.to/lastmile_qr_scan"}, "fusion_lat": 0.0, "is_reserved": 0, "lat": 38.928427166666665, "name": "2bc88871903f3228f6e2ed8369b24dad", "bike_id": "2bc88871903f3228f6e2ed8369b24dad", "is_disabled": 0, "fusion_lon": 0.0, "type": "electric_scooter", "lon": -77.02487916666666}, {"rental_uris": {"android": "https://dc.lft.to/lastmile_qr_scan", "ios": "https://dc.lft.to/lastmile_qr_scan"}, "fusion_lat": 0.0, "is_reserved": 0, "lat": 38.91537966666667, "name": "5280b3c31c01be0c3741420106ea6719", "bike_id": "5280b3c31c01be0c3741420106ea6719", "is_disabled": 0, "fusion_lon": 0.0, "type": "electric_scooter", "lon": -77.0200245}, {"rental_uris": {"android": "https://dc.lft.to/lastmile_qr_scan", "ios": "https://dc.lft.to/lastmile_qr_scan"}, "fusion_lat": 0.0, "is_reserved": 0, "lat": 38.94329616666667, "name": "6b76f3840d33c2347fd8dfa3a2cc7e18", "bike_id": "6b76f3840d33c2347fd8dfa3a2cc7e18", "is_disabled": 0, "fusion_lon": 0.0, "type": "electric_scooter", "lon": -77.015507}, {"rental_uris": {"android": "https://dc.lft.to/lastmile_qr_scan", "ios": "https://dc.lft.to/lastmile_qr_scan"}, "fusion_lat": 0.0, "is_reserved": 0, "lat": 38.93324283333333, "name": "e5284bc61d38a611211ac4fbd107fe81", "bike_id": "e5284bc61d38a611211ac4fbd107fe81", "is_disabled": 0, "fusion_lon": 0.0, "type": "electric_scooter", "lon": -77.037928}, {"rental_uris": {"android": "https://dc.lft.to/lastmile_qr_scan", "ios": "https://dc.lft.to/lastmile_qr_scan"}, "fusion_lat": 0.0, "is_reserved": 0, "lat": 38.89610116666667, "name": "ef029fdd8b076be83d17e2d99abec48f", "bike_id": "ef029fdd8b076be83d17e2d99abec48f", "is_disabled": 0, "fusion_lon": 0.0, "type": "electric_scooter", "lon": -76.97289066666667}, {"rental_uris": {"android": "https://dc.lft.to/lastmile_qr_scan", "ios": "https://dc.lft.to/lastmile_qr_scan"}, "fusion_lat": 0.0, "is_reserved": 0, "lat": 38.926409666666665, "name": "fe33240bfdadeffcba860e9f2f532b95", "bike_id": "fe33240bfdadeffcba860e9f2f532b95", "is_disabled": 0, "fusion_lon": 0.0, "type": "electric_scooter", "lon": -77.025075}, {"rental_uris": {"android": "https://dc.lft.to/lastmile_qr_scan", "ios": "https://dc.lft.to/lastmile_qr_scan"}, "fusion_lat": 0.0, "is_reserved": 0, "lat": 38.93497433333334, "name": "92b5b3a03f8cf93de7882c5eae6fba50", "bike_id": "92b5b3a03f8cf93de7882c5eae6fba50", "is_disabled": 0, "fusion_lon": 0.0, "type": "electric_scooter", "lon": -77.04461816666667}, {"rental_uris": {"android": "https://dc.lft.to/lastmile_qr_scan", "ios": "https://dc.lft.to/lastmile_qr_scan"}, "fusion_lat": 0.0, "is_reserved": 0, "lat": 38.9011165, "name": "b83fa9c708ea6e5f8ae827a0ecc40fa8", "bike_id": "b83fa9c708ea6e5f8ae827a0ecc40fa8", "is_disabled": 0, "fusion_lon": 0.0, "type": "electric_scooter", "lon": -77.04485216666667}, {"rental_uris": {"android": "https://dc.lft.to/lastmile_qr_scan", "ios": "https://dc.lft.to/lastmile_qr_scan"}, "fusion_lat": 0.0, "is_reserved": 0, "lat": 38.921397, "name": "4f4c6e46bae2120dbb590becede56d71", "bike_id": "4f4c6e46bae2120dbb590becede56d71", "is_disabled": 0, "fusion_lon": 0.0, "type": "electric_scooter", "lon": -77.04130783333333}, {"rental_uris": {"android": "https://dc.lft.to/lastmile_qr_scan", "ios": "https://dc.lft.to/lastmile_qr_scan"}, "fusion_lat": 0.0, "is_reserved": 0, "lat": 38.92298433333333, "name": "7e477c115a088e2d7669aaf72c8b3e9f", "bike_id": "7e477c115a088e2d7669aaf72c8b3e9f", "is_disabled": 0, "fusion_lon": 0.0, "type": "electric_scooter", "lon": -77.04202083333334}, {"rental_uris": {"android": "https://dc.lft.to/lastmile_qr_scan", "ios": "https://dc.lft.to/lastmile_qr_scan"}, "fusion_lat": 0.0, "is_reserved": 0, "lat": 38.898828, "name": "af8ad726aac02294f38a1416a5dab1d4", "bike_id": "af8ad726aac02294f38a1416a5dab1d4", "is_disabled": 0, "fusion_lon": 0.0, "type": "electric_scooter", "lon": -76.98838216666667}, {"rental_uris": {"android": "https://dc.lft.to/lastmile_qr_scan", "ios": "https://dc.lft.to/lastmile_qr_scan"}, "fusion_lat": 0.0, "is_reserved": 0, "lat": 38.92465333333333, "name": "c2774e0611867ce5ef99e09708745552", "bike_id": "c2774e0611867ce5ef99e09708745552", "is_disabled": 0, "fusion_lon": 0.0, "type": "electric_scooter", "lon": -77.026966}, {"rental_uris": {"android": "https://dc.lft.to/lastmile_qr_scan", "ios": "https://dc.lft.to/lastmile_qr_scan"}, "fusion_lat": 0.0, "is_reserved": 0, "lat": 38.989894, "name": "26e2b1f183e31f4e144c00a8dcbea0f1", "bike_id": "26e2b1f183e31f4e144c00a8dcbea0f1", "is_disabled": 0, "fusion_lon": 0.0, "type": "electric_scooter", "lon": -77.03365366666667}, {"rental_uris": {"android": "https://dc.lft.to/lastmile_qr_scan", "ios": "https://dc.lft.to/lastmile_qr_scan"}, "fusion_lat": 0.0, "is_reserved": 0, "lat": 38.89780833333333, "name": "b920a544d09b0543b12ac4a53180eb85", "bike_id": "b920a544d09b0543b12ac4a53180eb85", "is_disabled": 0, "fusion_lon": 0.0, "type": "electric_scooter", "lon": -76.99277666666667}, {"rental_uris": {"android": "https://dc.lft.to/lastmile_qr_scan", "ios": "https://dc.lft.to/lastmile_qr_scan"}, "fusion_lat": 0.0, "is_reserved": 0, "lat": 38.92107933333333, "name": "039e1839d8bd746ca40d9b1ae9ba803b", "bike_id": "039e1839d8bd746ca40d9b1ae9ba803b", "is_disabled": 0, "fusion_lon": 0.0, "type": "electric_scooter", "lon": -77.04193683333334}, {"rental_uris": {"android": "https://dc.lft.to/lastmile_qr_scan", "ios": "https://dc.lft.to/lastmile_qr_scan"}, "fusion_lat": 0.0, "is_reserved": 0, "lat": 38.887244833333334, "name": "bf9844d04a739570f4b845957d412281", "bike_id": "bf9844d04a739570f4b845957d412281", "is_disabled": 0, "fusion_lon": 0.0, "type": "electric_scooter", "lon": -76.99677683333333}, {"rental_uris": {"android": "https://dc.lft.to/lastmile_qr_scan", "ios": "https://dc.lft.to/lastmile_qr_scan"}, "fusion_lat": 0.0, "is_reserved": 0, "lat": 38.923682666666664, "name": "e5a17b4a4da76c1f28f2b5e5ec3cceaa", "bike_id": "e5a17b4a4da76c1f28f2b5e5ec3cceaa", "is_disabled": 0, "fusion_lon": 0.0, "type": "electric_scooter", "lon": -77.01953866666666}, {"rental_uris": {"android": "https://dc.lft.to/lastmile_qr_scan", "ios": "https://dc.lft.to/lastmile_qr_scan"}, "fusion_lat": 0.0, "is_reserved": 0, "lat": 38.8960665, "name": "3e7ee4a1f32b3fcc106f0ed7d9912a58", "bike_id": "3e7ee4a1f32b3fcc106f0ed7d9912a58", "is_disabled": 0, "fusion_lon": 0.0, "type": "electric_scooter", "lon": -77.02797766666667}, {"rental_uris": {"android": "https://dc.lft.to/lastmile_qr_scan", "ios": "https://dc.lft.to/lastmile_qr_scan"}, "fusion_lat": 0.0, "is_reserved": 0, "lat": 38.91778816666667, "name": "5f2fe6d596732186c0af19ece9fa27be", "bike_id": "5f2fe6d596732186c0af19ece9fa27be", "is_disabled": 0, "fusion_lon": 0.0, "type": "electric_scooter", "lon": -77.04407716666667}, {"rental_uris": {"android": "https://dc.lft.to/lastmile_qr_scan", "ios": "https://dc.lft.to/lastmile_qr_scan"}, "fusion_lat": 0.0, "is_reserved": 0, "lat": 38.89478833333333, "name": "515a81a691fe8d41c27031099fb1a534", "bike_id": "515a81a691fe8d41c27031099fb1a534", "is_disabled": 0, "fusion_lon": 0.0, "type": "electric_scooter", "lon": -77.0266075}, {"rental_uris": {"android": "https://dc.lft.to/lastmile_qr_scan", "ios": "https://dc.lft.to/lastmile_qr_scan"}, "fusion_lat": 0.0, "is_reserved": 0, "lat": 38.93352983333333, "name": "10941b4217f6ccaacd06446e45203471", "bike_id": "10941b4217f6ccaacd06446e45203471", "is_disabled": 0, "fusion_lon": 0.0, "type": "electric_scooter", "lon": -77.02560916666667}, {"rental_uris": {"android": "https://dc.lft.to/lastmile_qr_scan", "ios": "https://dc.lft.to/lastmile_qr_scan"}, "fusion_lat": 0.0, "is_reserved": 0, "lat": 38.914724666666665, "name": "6749352da093155bf852165f6e7e1649", "bike_id": "6749352da093155bf852165f6e7e1649", "is_disabled": 0, "fusion_lon": 0.0, "type": "electric_scooter", "lon": -77.0385225}, {"rental_uris": {"android": "https://dc.lft.to/lastmile_qr_scan", "ios": "https://dc.lft.to/lastmile_qr_scan"}, "fusion_lat": 0.0, "is_reserved": 0, "lat": 38.93497833333333, "name": "473d49ccace47c61cecca27f679aa929", "bike_id": "473d49ccace47c61cecca27f679aa929", "is_disabled": 0, "fusion_lon": 0.0, "type": "electric_scooter", "lon": -77.02003716666667}, {"rental_uris": {"android": "https://dc.lft.to/lastmile_qr_scan", "ios": "https://dc.lft.to/lastmile_qr_scan"}, "fusion_lat": 0.0, "is_reserved": 0, "lat": 38.91288316666667, "name": "a2536de0917d206ce59e3bad3445fab8", "bike_id": "a2536de0917d206ce59e3bad3445fab8", "is_disabled": 0, "fusion_lon": 0.0, "type": "electric_scooter", "lon": -77.02297483333334}, {"rental_uris": {"android": "https://dc.lft.to/lastmile_qr_scan", "ios": "https://dc.lft.to/lastmile_qr_scan"}, "fusion_lat": 0.0, "is_reserved": 0, "lat": 38.840306, "name": "69c383ef7c4188bc02dc670bd64b1742", "bike_id": "69c383ef7c4188bc02dc670bd64b1742", "is_disabled": 0, "fusion_lon": 0.0, "type": "electric_bike", "lon": -76.9762075}, {"rental_uris": {"android": "https://dc.lft.to/lastmile_qr_scan", "ios": "https://dc.lft.to/lastmile_qr_scan"}, "fusion_lat": 0.0, "is_reserved": 0, "lat": 38.9336205, "name": "6252b8cde181343b50341b9b78081a7c", "bike_id": "6252b8cde181343b50341b9b78081a7c", "is_disabled": 0, "fusion_lon": 0.0, "type": "electric_scooter", "lon": -77.05697983333333}, {"rental_uris": {"android": "https://dc.lft.to/lastmile_qr_scan", "ios": "https://dc.lft.to/lastmile_qr_scan"}, "fusion_lat": 0.0, "is_reserved": 0, "lat": 38.9147215, "name": "0433cc88a8a5d26a79cc95d36723938d", "bike_id": "0433cc88a8a5d26a79cc95d36723938d", "is_disabled": 0, "fusion_lon": 0.0, "type": "electric_scooter", "lon": -77.0321495}, {"rental_uris": {"android": "https://dc.lft.to/lastmile_qr_scan", "ios": "https://dc.lft.to/lastmile_qr_scan"}, "fusion_lat": 0.0, "is_reserved": 0, "lat": 38.926845, "name": "4ce0f34aef299368d93fb742c3cef494", "bike_id": "4ce0f34aef299368d93fb742c3cef494", "is_disabled": 0, "fusion_lon": 0.0, "type": "electric_scooter", "lon": -77.02255583333333}, {"rental_uris": {"android": "https://dc.lft.to/lastmile_qr_scan", "ios": "https://dc.lft.to/lastmile_qr_scan"}, "fusion_lat": 0.0, "is_reserved": 0, "lat": 38.92088733333333, "name": "4dd50b9b71437c75cebaaa5979c44c32", "bike_id": "4dd50b9b71437c75cebaaa5979c44c32", "is_disabled": 0, "fusion_lon": 0.0, "type": "electric_scooter", "lon": -77.02187466666666}, {"rental_uris": {"android": "https://dc.lft.to/lastmile_qr_scan", "ios": "https://dc.lft.to/lastmile_qr_scan"}, "fusion_lat": 0.0, "is_reserved": 0, "lat": 38.83810666666667, "name": "2a0426b825e24a3eaa4776ec8acb22e8", "bike_id": "2a0426b825e24a3eaa4776ec8acb22e8", "is_disabled": 0, "fusion_lon": 0.0, "type": "electric_bike", "lon": -77.095231}, {"rental_uris": {"android": "https://dc.lft.to/lastmile_qr_scan", "ios": "https://dc.lft.to/lastmile_qr_scan"}, "fusion_lat": 0.0, "is_reserved": 0, "lat": 38.906147, "name": "fc299d1602d270bb099a814b6afcdbb1", "bike_id": "fc299d1602d270bb099a814b6afcdbb1", "is_disabled": 0, "fusion_lon": 0.0, "type": "electric_scooter", "lon": -77.02594066666667}, {"rental_uris": {"android": "https://dc.lft.to/lastmile_qr_scan", "ios": "https://dc.lft.to/lastmile_qr_scan"}, "fusion_lat": 0.0, "is_reserved": 0, "lat": 38.89570416666667, "name": "f9f7aadc958e3e7b7dfc73d802466af5", "bike_id": "f9f7aadc958e3e7b7dfc73d802466af5", "is_disabled": 0, "fusion_lon": 0.0, "type": "electric_scooter", "lon": -77.022153}, {"rental_uris": {"android": "https://dc.lft.to/lastmile_qr_scan", "ios": "https://dc.lft.to/lastmile_qr_scan"}, "fusion_lat": 0.0, "is_reserved": 0, "lat": 38.932526333333335, "name": "b8bf93597d08c85c2dca8b2ee8f8abea", "bike_id": "b8bf93597d08c85c2dca8b2ee8f8abea", "is_disabled": 0, "fusion_lon": 0.0, "type": "electric_scooter", "lon": -77.03095466666667}, {"rental_uris": {"android": "https://dc.lft.to/lastmile_qr_scan", "ios": "https://dc.lft.to/lastmile_qr_scan"}, "fusion_lat": 0.0, "is_reserved": 0, "lat": 38.90060916666667, "name": "d468c4ca9b5a8feac6ece2f97015007a", "bike_id": "d468c4ca9b5a8feac6ece2f97015007a", "is_disabled": 0, "fusion_lon": 0.0, "type": "electric_scooter", "lon": -77.0480565}, {"rental_uris": {"android": "https://dc.lft.to/lastmile_qr_scan", "ios": "https://dc.lft.to/lastmile_qr_scan"}, "fusion_lat": 0.0, "is_reserved": 0, "lat": 38.917266, "name": "39f54fcd050b846011d9f4eace090398", "bike_id": "39f54fcd050b846011d9f4eace090398", "is_disabled": 0, "fusion_lon": 0.0, "type": "electric_scooter", "lon": -77.03336183333333}, {"rental_uris": {"android": "https://dc.lft.to/lastmile_qr_scan", "ios": "https://dc.lft.to/lastmile_qr_scan"}, "fusion_lat": 0.0, "is_reserved": 0, "lat": 38.918126666666666, "name": "65f7be0a4a668aa66807d261c3ac6d9d", "bike_id": "65f7be0a4a668aa66807d261c3ac6d9d", "is_disabled": 0, "fusion_lon": 0.0, "type": "electric_scooter", "lon": -77.03986166666667}, {"rental_uris": {"android": "https://dc.lft.to/lastmile_qr_scan", "ios": "https://dc.lft.to/lastmile_qr_scan"}, "fusion_lat": 0.0, "is_reserved": 0, "lat": 38.8973935, "name": "9e2b372c9a12a923458cd8cd39e1b6a2", "bike_id": "9e2b372c9a12a923458cd8cd39e1b6a2", "is_disabled": 0, "fusion_lon": 0.0, "type": "electric_scooter", "lon": -77.01669366666667}, {"rental_uris": {"android": "https://dc.lft.to/lastmile_qr_scan", "ios": "https://dc.lft.to/lastmile_qr_scan"}, "fusion_lat": 0.0, "is_reserved": 0, "lat": 38.893463833333335, "name": "0a5b4bf2855a514dee727ab0a4433355", "bike_id": "0a5b4bf2855a514dee727ab0a4433355", "is_disabled": 0, "fusion_lon": 0.0, "type": "electric_scooter", "lon": -76.99381733333334}, {"rental_uris": {"android": "https://dc.lft.to/lastmile_qr_scan", "ios": "https://dc.lft.to/lastmile_qr_scan"}, "fusion_lat": 0.0, "is_reserved": 0, "lat": 38.89847566666667, "name": "992ee239f08529c9c93caa07abefdc4f", "bike_id": "992ee239f08529c9c93caa07abefdc4f", "is_disabled": 0, "fusion_lon": 0.0, "type": "electric_bike", "lon": -76.9422635}, {"rental_uris": {"android": "https://dc.lft.to/lastmile_qr_scan", "ios": "https://dc.lft.to/lastmile_qr_scan"}, "fusion_lat": 0.0, "is_reserved": 0, "lat": 38.916071, "name": "c3f65d8dabb2370783c48af4568d612f", "bike_id": "c3f65d8dabb2370783c48af4568d612f", "is_disabled": 0, "fusion_lon": 0.0, "type": "electric_scooter", "lon": -77.023877}, {"rental_uris": {"android": "https://dc.lft.to/lastmile_qr_scan", "ios": "https://dc.lft.to/lastmile_qr_scan"}, "fusion_lat": 0.0, "is_reserved": 0, "lat": 38.89991716666667, "name": "125d13947f89e54feb769b1af6df6c26", "bike_id": "125d13947f89e54feb769b1af6df6c26", "is_disabled": 0, "fusion_lon": 0.0, "type": "electric_scooter", "lon": -77.02713}, {"rental_uris": {"android": "https://dc.lft.to/lastmile_qr_scan", "ios": "https://dc.lft.to/lastmile_qr_scan"}, "fusion_lat": 0.0, "is_reserved": 0, "lat": 38.8467165, "name": "05a472653ff5a3a8a4d58cd981c77c80", "bike_id": "05a472653ff5a3a8a4d58cd981c77c80", "is_disabled": 0, "fusion_lon": 0.0, "type": "electric_bike", "lon": -77.13920716666667}, {"rental_uris": {"android": "https://dc.lft.to/lastmile_qr_scan", "ios": "https://dc.lft.to/lastmile_qr_scan"}, "fusion_lat": 0.0, "is_reserved": 0, "lat": 38.911029666666664, "name": "b814ad7128f58601d75d390c559b12f7", "bike_id": "b814ad7128f58601d75d390c559b12f7", "is_disabled": 0, "fusion_lon": 0.0, "type": "electric_scooter", "lon": -77.044477}, {"rental_uris": {"android": "https://dc.lft.to/lastmile_qr_scan", "ios": "https://dc.lft.to/lastmile_qr_scan"}, "fusion_lat": 0.0, "is_reserved": 0, "lat": 38.917528, "name": "08dd16feabe129a9bda7431a36ef397a", "bike_id": "08dd16feabe129a9bda7431a36ef397a", "is_disabled": 0, "fusion_lon": 0.0, "type": "electric_scooter", "lon": -77.04766033333334}, {"rental_uris": {"android": "https://dc.lft.to/lastmile_qr_scan", "ios": "https://dc.lft.to/lastmile_qr_scan"}, "fusion_lat": 0.0, "is_reserved": 0, "lat": 38.89827583333334, "name": "6e9d97ece94c4a1b5a33fe62ae0202f8", "bike_id": "6e9d97ece94c4a1b5a33fe62ae0202f8", "is_disabled": 0, "fusion_lon": 0.0, "type": "electric_scooter", "lon": -77.04906216666667}, {"rental_uris": {"android": "https://dc.lft.to/lastmile_qr_scan", "ios": "https://dc.lft.to/lastmile_qr_scan"}, "fusion_lat": 0.0, "is_reserved": 0, "lat": 38.920834666666664, "name": "ba25f1b19ede3e0f373bbf146e11a559", "bike_id": "ba25f1b19ede3e0f373bbf146e11a559", "is_disabled": 0, "fusion_lon": 0.0, "type": "electric_scooter", "lon": -77.03562733333334}, {"rental_uris": {"android": "https://dc.lft.to/lastmile_qr_scan", "ios": "https://dc.lft.to/lastmile_qr_scan"}, "fusion_lat": 0.0, "is_reserved": 0, "lat": 38.930463, "name": "5f7deca63ac42ae3644e778795176f0e", "bike_id": "5f7deca63ac42ae3644e778795176f0e", "is_disabled": 0, "fusion_lon": 0.0, "type": "electric_scooter", "lon": -76.95836683333333}, {"rental_uris": {"android": "https://dc.lft.to/lastmile_qr_scan", "ios": "https://dc.lft.to/lastmile_qr_scan"}, "fusion_lat": 0.0, "is_reserved": 0, "lat": 38.9126415, "name": "2534ab6f474229b14b5a7e9665eec55b", "bike_id": "2534ab6f474229b14b5a7e9665eec55b", "is_disabled": 0, "fusion_lon": 0.0, "type": "electric_scooter", "lon": -77.04554116666667}, {"rental_uris": {"android": "https://dc.lft.to/lastmile_qr_scan", "ios": "https://dc.lft.to/lastmile_qr_scan"}, "fusion_lat": 0.0, "is_reserved": 0, "lat": 38.921394166666666, "name": "ddd9d8fe54f403e7fb2509920fab6fe6", "bike_id": "ddd9d8fe54f403e7fb2509920fab6fe6", "is_disabled": 0, "fusion_lon": 0.0, "type": "electric_scooter", "lon": -77.03657933333334}, {"rental_uris": {"android": "https://dc.lft.to/lastmile_qr_scan", "ios": "https://dc.lft.to/lastmile_qr_scan"}, "fusion_lat": 0.0, "is_reserved": 0, "lat": 38.876579166666666, "name": "4046c1ea1af302fa0b314ba7f5cf227b", "bike_id": "4046c1ea1af302fa0b314ba7f5cf227b", "is_disabled": 0, "fusion_lon": 0.0, "type": "electric_scooter", "lon": -76.99328366666667}, {"rental_uris": {"android": "https://dc.lft.to/lastmile_qr_scan", "ios": "https://dc.lft.to/lastmile_qr_scan"}, "fusion_lat": 0.0, "is_reserved": 0, "lat": 38.90412716666667, "name": "04a637ccb83fe2e89154196dd8af3a4f", "bike_id": "04a637ccb83fe2e89154196dd8af3a4f", "is_disabled": 0, "fusion_lon": 0.0, "type": "electric_scooter", "lon": -76.973294}, {"rental_uris": {"android": "https://dc.lft.to/lastmile_qr_scan", "ios": "https://dc.lft.to/lastmile_qr_scan"}, "fusion_lat": 0.0, "is_reserved": 0, "lat": 38.884047833333334, "name": "56f22d33b7efb5a4c532a1384712ac4f", "bike_id": "56f22d33b7efb5a4c532a1384712ac4f", "is_disabled": 0, "fusion_lon": 0.0, "type": "electric_scooter", "lon": -76.9303855}, {"rental_uris": {"android": "https://dc.lft.to/lastmile_qr_scan", "ios": "https://dc.lft.to/lastmile_qr_scan"}, "fusion_lat": 0.0, "is_reserved": 0, "lat": 38.898093333333335, "name": "a12ec4962f0191edb8ea061f2766301a", "bike_id": "a12ec4962f0191edb8ea061f2766301a", "is_disabled": 0, "fusion_lon": 0.0, "type": "electric_scooter", "lon": -77.05160516666666}, {"rental_uris": {"android": "https://dc.lft.to/lastmile_qr_scan", "ios": "https://dc.lft.to/lastmile_qr_scan"}, "fusion_lat": 0.0, "is_reserved": 0, "lat": 38.8972935, "name": "aebf257a97b41d3109f3329a1823a2a2", "bike_id": "aebf257a97b41d3109f3329a1823a2a2", "is_disabled": 0, "fusion_lon": 0.0, "type": "electric_scooter", "lon": -76.9469855}, {"rental_uris": {"android": "https://dc.lft.to/lastmile_qr_scan", "ios": "https://dc.lft.to/lastmile_qr_scan"}, "fusion_lat": 0.0, "is_reserved": 0, "lat": 38.936639166666666, "name": "0c52bca5f206fcc052b605d8842fad2b", "bike_id": "0c52bca5f206fcc052b605d8842fad2b", "is_disabled": 0, "fusion_lon": 0.0, "type": "electric_bike", "lon": -76.98990216666667}, {"rental_uris": {"android": "https://dc.lft.to/lastmile_qr_scan", "ios": "https://dc.lft.to/lastmile_qr_scan"}, "fusion_lat": 0.0, "is_reserved": 0, "lat": 38.89454166666667, "name": "53b2ae5a7d23b4dd78c39f82dff63d9a", "bike_id": "53b2ae5a7d23b4dd78c39f82dff63d9a", "is_disabled": 0, "fusion_lon": 0.0, "type": "electric_bike", "lon": -77.19132366666666}, {"rental_uris": {"android": "https://dc.lft.to/lastmile_qr_scan", "ios": "https://dc.lft.to/lastmile_qr_scan"}, "fusion_lat": 0.0, "is_reserved": 0, "lat": 38.9254775, "name": "a5e50292ba8b9ade2a54c39c8af037d6", "bike_id": "a5e50292ba8b9ade2a54c39c8af037d6", "is_disabled": 0, "fusion_lon": 0.0, "type": "electric_scooter", "lon": -77.03407633333333}, {"rental_uris": {"android": "https://dc.lft.to/lastmile_qr_scan", "ios": "https://dc.lft.to/lastmile_qr_scan"}, "fusion_lat": 0.0, "is_reserved": 0, "lat": 38.88300483333333, "name": "488dd988084fccf41fcd5f2aef46ffbd", "bike_id": "488dd988084fccf41fcd5f2aef46ffbd", "is_disabled": 0, "fusion_lon": 0.0, "type": "electric_scooter", "lon": -76.94853916666666}, {"rental_uris": {"android": "https://dc.lft.to/lastmile_qr_scan", "ios": "https://dc.lft.to/lastmile_qr_scan"}, "fusion_lat": 0.0, "is_reserved": 0, "lat": 38.90017266666667, "name": "48911f2c6d0346bdd6c654dfe616eb51", "bike_id": "48911f2c6d0346bdd6c654dfe616eb51", "is_disabled": 0, "fusion_lon": 0.0, "type": "electric_scooter", "lon": -76.996447}, {"rental_uris": {"android": "https://dc.lft.to/lastmile_qr_scan", "ios": "https://dc.lft.to/lastmile_qr_scan"}, "fusion_lat": 0.0, "is_reserved": 0, "lat": 38.90829816666667, "name": "ef3dffb9b898e52763723cdfb5d29f70", "bike_id": "ef3dffb9b898e52763723cdfb5d29f70", "is_disabled": 0, "fusion_lon": 0.0, "type": "electric_scooter", "lon": -77.033501}, {"rental_uris": {"android": "https://dc.lft.to/lastmile_qr_scan", "ios": "https://dc.lft.to/lastmile_qr_scan"}, "fusion_lat": 0.0, "is_reserved": 0, "lat": 38.949771166666665, "name": "60ffa4ed10bceba4041a65da23e26f67", "bike_id": "60ffa4ed10bceba4041a65da23e26f67", "is_disabled": 0, "fusion_lon": 0.0, "type": "electric_scooter", "lon": -77.0245375}, {"rental_uris": {"android": "https://dc.lft.to/lastmile_qr_scan", "ios": "https://dc.lft.to/lastmile_qr_scan"}, "fusion_lat": 0.0, "is_reserved": 0, "lat": 38.896747500000004, "name": "13c577562c481893d60e0f397b877f67", "bike_id": "13c577562c481893d60e0f397b877f67", "is_disabled": 0, "fusion_lon": 0.0, "type": "electric_scooter", "lon": -76.947391}, {"rental_uris": {"android": "https://dc.lft.to/lastmile_qr_scan", "ios": "https://dc.lft.to/lastmile_qr_scan"}, "fusion_lat": 0.0, "is_reserved": 0, "lat": 38.9056715, "name": "1fd9a66094756848e668f2df88259335", "bike_id": "1fd9a66094756848e668f2df88259335", "is_disabled": 0, "fusion_lon": 0.0, "type": "electric_scooter", "lon": -77.00679433333333}, {"rental_uris": {"android": "https://dc.lft.to/lastmile_qr_scan", "ios": "https://dc.lft.to/lastmile_qr_scan"}, "fusion_lat": 0.0, "is_reserved": 0, "lat": 38.9438185, "name": "df781ab41a780b6e6e6923f4c5f984e8", "bike_id": "df781ab41a780b6e6e6923f4c5f984e8", "is_disabled": 0, "fusion_lon": 0.0, "type": "electric_scooter", "lon": -77.06135533333334}, {"rental_uris": {"android": "https://dc.lft.to/lastmile_qr_scan", "ios": "https://dc.lft.to/lastmile_qr_scan"}, "fusion_lat": 0.0, "is_reserved": 0, "lat": 38.94200466666667, "name": "f1602d0080ddae91c91549c3d0ab1f0c", "bike_id": "f1602d0080ddae91c91549c3d0ab1f0c", "is_disabled": 0, "fusion_lon": 0.0, "type": "electric_scooter", "lon": -77.024753}, {"rental_uris": {"android": "https://dc.lft.to/lastmile_qr_scan", "ios": "https://dc.lft.to/lastmile_qr_scan"}, "fusion_lat": 0.0, "is_reserved": 0, "lat": 38.89449333333334, "name": "6d722bb7d39a881a5dfaea0d6ec87232", "bike_id": "6d722bb7d39a881a5dfaea0d6ec87232", "is_disabled": 0, "fusion_lon": 0.0, "type": "electric_scooter", "lon": -77.02668516666667}, {"rental_uris": {"android": "https://dc.lft.to/lastmile_qr_scan", "ios": "https://dc.lft.to/lastmile_qr_scan"}, "fusion_lat": 0.0, "is_reserved": 0, "lat": 38.9207975, "name": "535691a9a2727ecf74d26ec6a3622f60", "bike_id": "535691a9a2727ecf74d26ec6a3622f60", "is_disabled": 0, "fusion_lon": 0.0, "type": "electric_scooter", "lon": -77.02504416666666}, {"rental_uris": {"android": "https://dc.lft.to/lastmile_qr_scan", "ios": "https://dc.lft.to/lastmile_qr_scan"}, "fusion_lat": 0.0, "is_reserved": 0, "lat": 38.91857783333333, "name": "8cb8342037a27153de2a3e9e9595e782", "bike_id": "8cb8342037a27153de2a3e9e9595e782", "is_disabled": 0, "fusion_lon": 0.0, "type": "electric_scooter", "lon": -77.0134145}, {"rental_uris": {"android": "https://dc.lft.to/lastmile_qr_scan", "ios": "https://dc.lft.to/lastmile_qr_scan"}, "fusion_lat": 0.0, "is_reserved": 0, "lat": 38.882456166666664, "name": "fe6a9c937b802df3b14bc74981491e0a", "bike_id": "fe6a9c937b802df3b14bc74981491e0a", "is_disabled": 0, "fusion_lon": 0.0, "type": "electric_bike", "lon": -76.96263216666667}, {"rental_uris": {"android": "https://dc.lft.to/lastmile_qr_scan", "ios": "https://dc.lft.to/lastmile_qr_scan"}, "fusion_lat": 0.0, "is_reserved": 0, "lat": 38.9184835, "name": "b016a43b39c5f247611b32f80bb423a4", "bike_id": "b016a43b39c5f247611b32f80bb423a4", "is_disabled": 0, "fusion_lon": 0.0, "type": "electric_scooter", "lon": -76.96553466666667}, {"rental_uris": {"android": "https://dc.lft.to/lastmile_qr_scan", "ios": "https://dc.lft.to/lastmile_qr_scan"}, "fusion_lat": 0.0, "is_reserved": 0, "lat": 38.91571733333333, "name": "0f6c281a9e05dd712aaad732f1091613", "bike_id": "0f6c281a9e05dd712aaad732f1091613", "is_disabled": 0, "fusion_lon": 0.0, "type": "electric_scooter", "lon": -77.02286783333334}, {"rental_uris": {"android": "https://dc.lft.to/lastmile_qr_scan", "ios": "https://dc.lft.to/lastmile_qr_scan"}, "fusion_lat": 0.0, "is_reserved": 0, "lat": 38.966495, "name": "6431442b37d91cc7bb0d40139d65dac9", "bike_id": "6431442b37d91cc7bb0d40139d65dac9", "is_disabled": 0, "fusion_lon": 0.0, "type": "electric_scooter", "lon": -77.00890516666666}, {"rental_uris": {"android": "https://dc.lft.to/lastmile_qr_scan", "ios": "https://dc.lft.to/lastmile_qr_scan"}, "fusion_lat": 0.0, "is_reserved": 0, "lat": 38.931176666666666, "name": "cfaca325157e61d301812021af93f9cf", "bike_id": "cfaca325157e61d301812021af93f9cf", "is_disabled": 0, "fusion_lon": 0.0, "type": "electric_scooter", "lon": -77.030313}, {"rental_uris": {"android": "https://dc.lft.to/lastmile_qr_scan", "ios": "https://dc.lft.to/lastmile_qr_scan"}, "fusion_lat": 0.0, "is_reserved": 0, "lat": 38.89424366666667, "name": "fdfb02262d498545819177bb18c613bf", "bike_id": "fdfb02262d498545819177bb18c613bf", "is_disabled": 0, "fusion_lon": 0.0, "type": "electric_scooter", "lon": -76.99773566666667}, {"rental_uris": {"android": "https://dc.lft.to/lastmile_qr_scan", "ios": "https://dc.lft.to/lastmile_qr_scan"}, "fusion_lat": 0.0, "is_reserved": 0, "lat": 38.9163985, "name": "3fc5ac4ebec950f82d981c60c6d9afa2", "bike_id": "3fc5ac4ebec950f82d981c60c6d9afa2", "is_disabled": 0, "fusion_lon": 0.0, "type": "electric_scooter", "lon": -77.02102683333334}, {"rental_uris": {"android": "https://dc.lft.to/lastmile_qr_scan", "ios": "https://dc.lft.to/lastmile_qr_scan"}, "fusion_lat": 0.0, "is_reserved": 0, "lat": 38.908987333333336, "name": "29456097608029097913769b60bf6bc5", "bike_id": "29456097608029097913769b60bf6bc5", "is_disabled": 0, "fusion_lon": 0.0, "type": "electric_scooter", "lon": -77.0441905}, {"rental_uris": {"android": "https://dc.lft.to/lastmile_qr_scan", "ios": "https://dc.lft.to/lastmile_qr_scan"}, "fusion_lat": 0.0, "is_reserved": 0, "lat": 38.931053166666665, "name": "c2371c29cb19dc8a9573e37565496b92", "bike_id": "c2371c29cb19dc8a9573e37565496b92", "is_disabled": 0, "fusion_lon": 0.0, "type": "electric_scooter", "lon": -77.035054}, {"rental_uris": {"android": "https://dc.lft.to/lastmile_qr_scan", "ios": "https://dc.lft.to/lastmile_qr_scan"}, "fusion_lat": 0.0, "is_reserved": 0, "lat": 38.9148805, "name": "ddb950491da2d9cce66a561e917a52da", "bike_id": "ddb950491da2d9cce66a561e917a52da", "is_disabled": 0, "fusion_lon": 0.0, "type": "electric_scooter", "lon": -77.00218566666666}, {"rental_uris": {"android": "https://dc.lft.to/lastmile_qr_scan", "ios": "https://dc.lft.to/lastmile_qr_scan"}, "fusion_lat": 0.0, "is_reserved": 0, "lat": 38.8005285, "name": "9b2493753e5ea3e387519caadf7ea282", "bike_id": "9b2493753e5ea3e387519caadf7ea282", "is_disabled": 0, "fusion_lon": 0.0, "type": "electric_bike", "lon": -77.12837866666666}, {"rental_uris": {"android": "https://dc.lft.to/lastmile_qr_scan", "ios": "https://dc.lft.to/lastmile_qr_scan"}, "fusion_lat": 0.0, "is_reserved": 0, "lat": 38.900187833333334, "name": "b88f9c9e92e4a8469f6661558590da73", "bike_id": "b88f9c9e92e4a8469f6661558590da73", "is_disabled": 0, "fusion_lon": 0.0, "type": "electric_scooter", "lon": -77.01208016666666}, {"rental_uris": {"android": "https://dc.lft.to/lastmile_qr_scan", "ios": "https://dc.lft.to/lastmile_qr_scan"}, "fusion_lat": 0.0, "is_reserved": 0, "lat": 38.887634, "name": "524b3362249279b62c6b17f75d4d9a2d", "bike_id": "524b3362249279b62c6b17f75d4d9a2d", "is_disabled": 0, "fusion_lon": 0.0, "type": "electric_bike", "lon": -77.08923566666667}, {"rental_uris": {"android": "https://dc.lft.to/lastmile_qr_scan", "ios": "https://dc.lft.to/lastmile_qr_scan"}, "fusion_lat": 0.0, "is_reserved": 0, "lat": 38.90879533333333, "name": "fc084fb8281cc56b40758d9fd90d41e3", "bike_id": "fc084fb8281cc56b40758d9fd90d41e3", "is_disabled": 0, "fusion_lon": 0.0, "type": "electric_scooter", "lon": -77.03478816666667}, {"rental_uris": {"android": "https://dc.lft.to/lastmile_qr_scan", "ios": "https://dc.lft.to/lastmile_qr_scan"}, "fusion_lat": 0.0, "is_reserved": 0, "lat": 38.87920966666667, "name": "282d5a5bcd3f30e90391eb48f9294a4c", "bike_id": "282d5a5bcd3f30e90391eb48f9294a4c", "is_disabled": 0, "fusion_lon": 0.0, "type": "electric_scooter", "lon": -77.02159883333333}, {"rental_uris": {"android": "https://dc.lft.to/lastmile_qr_scan", "ios": "https://dc.lft.to/lastmile_qr_scan"}, "fusion_lat": 0.0, "is_reserved": 0, "lat": 38.8922145, "name": "cb26a93fca66ccd383ab288819b6dfd1", "bike_id": "cb26a93fca66ccd383ab288819b6dfd1", "is_disabled": 0, "fusion_lon": 0.0, "type": "electric_scooter", "lon": -77.04503783333334}, {"rental_uris": {"android": "https://dc.lft.to/lastmile_qr_scan", "ios": "https://dc.lft.to/lastmile_qr_scan"}, "fusion_lat": 0.0, "is_reserved": 0, "lat": 38.9142635, "name": "39b9e7c9b660b64a76bf607b1f5e6972", "bike_id": "39b9e7c9b660b64a76bf607b1f5e6972", "is_disabled": 0, "fusion_lon": 0.0, "type": "electric_scooter", "lon": -77.03203316666666}, {"rental_uris": {"android": "https://dc.lft.to/lastmile_qr_scan", "ios": "https://dc.lft.to/lastmile_qr_scan"}, "fusion_lat": 0.0, "is_reserved": 0, "lat": 38.898932333333335, "name": "58a7344991746d3fd56b8ffa4c3f7891", "bike_id": "58a7344991746d3fd56b8ffa4c3f7891", "is_disabled": 0, "fusion_lon": 0.0, "type": "electric_scooter", "lon": -76.98004016666667}, {"rental_uris": {"android": "https://dc.lft.to/lastmile_qr_scan", "ios": "https://dc.lft.to/lastmile_qr_scan"}, "fusion_lat": 0.0, "is_reserved": 0, "lat": 38.91101966666667, "name": "6d135504425fe2900c3bad4262f79eb1", "bike_id": "6d135504425fe2900c3bad4262f79eb1", "is_disabled": 0, "fusion_lon": 0.0, "type": "electric_scooter", "lon": -77.02181116666667}, {"rental_uris": {"android": "https://dc.lft.to/lastmile_qr_scan", "ios": "https://dc.lft.to/lastmile_qr_scan"}, "fusion_lat": 0.0, "is_reserved": 0, "lat": 38.9132445, "name": "7e16131f345fbf887cfcaac37b030a83", "bike_id": "7e16131f345fbf887cfcaac37b030a83", "is_disabled": 0, "fusion_lon": 0.0, "type": "electric_scooter", "lon": -77.01500316666667}, {"rental_uris": {"android": "https://dc.lft.to/lastmile_qr_scan", "ios": "https://dc.lft.to/lastmile_qr_scan"}, "fusion_lat": 0.0, "is_reserved": 0, "lat": 38.921649, "name": "3f19e13a22af3f275fe6d4f2016ce44b", "bike_id": "3f19e13a22af3f275fe6d4f2016ce44b", "is_disabled": 0, "fusion_lon": 0.0, "type": "electric_scooter", "lon": -77.020902}, {"rental_uris": {"android": "https://dc.lft.to/lastmile_qr_scan", "ios": "https://dc.lft.to/lastmile_qr_scan"}, "fusion_lat": 0.0, "is_reserved": 0, "lat": 38.9192325, "name": "7a4bed702254dc7756d117c6c19cd089", "bike_id": "7a4bed702254dc7756d117c6c19cd089", "is_disabled": 0, "fusion_lon": 0.0, "type": "electric_scooter", "lon": -77.07275483333333}, {"rental_uris": {"android": "https://dc.lft.to/lastmile_qr_scan", "ios": "https://dc.lft.to/lastmile_qr_scan"}, "fusion_lat": 0.0, "is_reserved": 0, "lat": 38.90726566666667, "name": "204b68312ff686159d79580bc2cee12c", "bike_id": "204b68312ff686159d79580bc2cee12c", "is_disabled": 0, "fusion_lon": 0.0, "type": "electric_scooter", "lon": -77.03271133333334}, {"rental_uris": {"android": "https://dc.lft.to/lastmile_qr_scan", "ios": "https://dc.lft.to/lastmile_qr_scan"}, "fusion_lat": 0.0, "is_reserved": 0, "lat": 38.92272283333333, "name": "072044994df22322a40f9a5989291be9", "bike_id": "072044994df22322a40f9a5989291be9", "is_disabled": 0, "fusion_lon": 0.0, "type": "electric_scooter", "lon": -76.99777816666666}, {"rental_uris": {"android": "https://dc.lft.to/lastmile_qr_scan", "ios": "https://dc.lft.to/lastmile_qr_scan"}, "fusion_lat": 0.0, "is_reserved": 0, "lat": 38.91451416666666, "name": "f208d506717cf95c4ad19b33fa3e1640", "bike_id": "f208d506717cf95c4ad19b33fa3e1640", "is_disabled": 0, "fusion_lon": 0.0, "type": "electric_bike", "lon": -76.97281983333333}, {"rental_uris": {"android": "https://dc.lft.to/lastmile_qr_scan", "ios": "https://dc.lft.to/lastmile_qr_scan"}, "fusion_lat": 0.0, "is_reserved": 0, "lat": 38.9438395, "name": "a2bb76660ae63ee505ddb9a1a9c4bf1a", "bike_id": "a2bb76660ae63ee505ddb9a1a9c4bf1a", "is_disabled": 0, "fusion_lon": 0.0, "type": "electric_bike", "lon": -77.02353833333333}, {"rental_uris": {"android": "https://dc.lft.to/lastmile_qr_scan", "ios": "https://dc.lft.to/lastmile_qr_scan"}, "fusion_lat": 0.0, "is_reserved": 0, "lat": 38.87765233333333, "name": "97215016a2a4b9e761d95d0066258a35", "bike_id": "97215016a2a4b9e761d95d0066258a35", "is_disabled": 0, "fusion_lon": 0.0, "type": "electric_scooter", "lon": -77.00327433333334}, {"rental_uris": {"android": "https://dc.lft.to/lastmile_qr_scan", "ios": "https://dc.lft.to/lastmile_qr_scan"}, "fusion_lat": 0.0, "is_reserved": 0, "lat": 38.90258683333333, "name": "aa1f59390294814a4b3e1a7ace984ab8", "bike_id": "aa1f59390294814a4b3e1a7ace984ab8", "is_disabled": 0, "fusion_lon": 0.0, "type": "electric_scooter", "lon": -77.03971883333334}, {"rental_uris": {"android": "https://dc.lft.to/lastmile_qr_scan", "ios": "https://dc.lft.to/lastmile_qr_scan"}, "fusion_lat": 0.0, "is_reserved": 0, "lat": 38.906422666666664, "name": "86df8db374a45ebe710c625605bbf489", "bike_id": "86df8db374a45ebe710c625605bbf489", "is_disabled": 0, "fusion_lon": 0.0, "type": "electric_scooter", "lon": -77.01429333333333}, {"rental_uris": {"android": "https://dc.lft.to/lastmile_qr_scan", "ios": "https://dc.lft.to/lastmile_qr_scan"}, "fusion_lat": 0.0, "is_reserved": 0, "lat": 38.93694083333333, "name": "49296a4ce3105f161b49f616b067a5a2", "bike_id": "49296a4ce3105f161b49f616b067a5a2", "is_disabled": 0, "fusion_lon": 0.0, "type": "electric_scooter", "lon": -77.027123}, {"rental_uris": {"android": "https://dc.lft.to/lastmile_qr_scan", "ios": "https://dc.lft.to/lastmile_qr_scan"}, "fusion_lat": 0.0, "is_reserved": 0, "lat": 38.9251875, "name": "4671fa1ac31279885dc668a674882a3a", "bike_id": "4671fa1ac31279885dc668a674882a3a", "is_disabled": 0, "fusion_lon": 0.0, "type": "electric_scooter", "lon": -77.05058333333334}, {"rental_uris": {"android": "https://dc.lft.to/lastmile_qr_scan", "ios": "https://dc.lft.to/lastmile_qr_scan"}, "fusion_lat": 0.0, "is_reserved": 0, "lat": 38.920627333333336, "name": "14c825149b428566371ce4307c4d27a2", "bike_id": "14c825149b428566371ce4307c4d27a2", "is_disabled": 0, "fusion_lon": 0.0, "type": "electric_scooter", "lon": -77.03287333333333}, {"rental_uris": {"android": "https://dc.lft.to/lastmile_qr_scan", "ios": "https://dc.lft.to/lastmile_qr_scan"}, "fusion_lat": 0.0, "is_reserved": 0, "lat": 38.930636, "name": "83becfcbee6a817feb79f17d68168185", "bike_id": "83becfcbee6a817feb79f17d68168185", "is_disabled": 0, "fusion_lon": 0.0, "type": "electric_scooter", "lon": -77.023244}, {"rental_uris": {"android": "https://dc.lft.to/lastmile_qr_scan", "ios": "https://dc.lft.to/lastmile_qr_scan"}, "fusion_lat": 0.0, "is_reserved": 0, "lat": 38.89355, "name": "ac6b9b2562b288b79cd1e77aa37dbe49", "bike_id": "ac6b9b2562b288b79cd1e77aa37dbe49", "is_disabled": 0, "fusion_lon": 0.0, "type": "electric_scooter", "lon": -77.00333216666667}, {"rental_uris": {"android": "https://dc.lft.to/lastmile_qr_scan", "ios": "https://dc.lft.to/lastmile_qr_scan"}, "fusion_lat": 0.0, "is_reserved": 0, "lat": 39.02118, "name": "f84dd03a97f32ab8ad0a07dda4e4c115", "bike_id": "f84dd03a97f32ab8ad0a07dda4e4c115", "is_disabled": 0, "fusion_lon": 0.0, "type": "electric_bike", "lon": -77.04499416666667}, {"rental_uris": {"android": "https://dc.lft.to/lastmile_qr_scan", "ios": "https://dc.lft.to/lastmile_qr_scan"}, "fusion_lat": 0.0, "is_reserved": 0, "lat": 38.85436266666667, "name": "a5da9dc4be30b2afc1dd1254903131d1", "bike_id": "a5da9dc4be30b2afc1dd1254903131d1", "is_disabled": 0, "fusion_lon": 0.0, "type": "electric_bike", "lon": -77.08321533333333}, {"rental_uris": {"android": "https://dc.lft.to/lastmile_qr_scan", "ios": "https://dc.lft.to/lastmile_qr_scan"}, "fusion_lat": 0.0, "is_reserved": 0, "lat": 38.89831233333334, "name": "ec42c7e77fcf7859e3442a8a6ddfbd11", "bike_id": "ec42c7e77fcf7859e3442a8a6ddfbd11", "is_disabled": 0, "fusion_lon": 0.0, "type": "electric_scooter", "lon": -77.02825683333333}, {"rental_uris": {"android": "https://dc.lft.to/lastmile_qr_scan", "ios": "https://dc.lft.to/lastmile_qr_scan"}, "fusion_lat": 0.0, "is_reserved": 0, "lat": 38.887255, "name": "d3dedd7ca802145bcbc0c07b6d4f5031", "bike_id": "d3dedd7ca802145bcbc0c07b6d4f5031", "is_disabled": 0, "fusion_lon": 0.0, "type": "electric_scooter", "lon": -76.99676733333334}, {"rental_uris": {"android": "https://dc.lft.to/lastmile_qr_scan", "ios": "https://dc.lft.to/lastmile_qr_scan"}, "fusion_lat": 0.0, "is_reserved": 0, "lat": 38.937481, "name": "18404b3267af1c9d334a9247b5564d10", "bike_id": "18404b3267af1c9d334a9247b5564d10", "is_disabled": 0, "fusion_lon": 0.0, "type": "electric_scooter", "lon": -77.0343095}, {"rental_uris": {"android": "https://dc.lft.to/lastmile_qr_scan", "ios": "https://dc.lft.to/lastmile_qr_scan"}, "fusion_lat": 0.0, "is_reserved": 0, "lat": 38.937436, "name": "78bbdd7346cd4f2484cf901cbd9a80b1", "bike_id": "78bbdd7346cd4f2484cf901cbd9a80b1", "is_disabled": 0, "fusion_lon": 0.0, "type": "electric_scooter", "lon": -77.03262916666667}, {"rental_uris": {"android": "https://dc.lft.to/lastmile_qr_scan", "ios": "https://dc.lft.to/lastmile_qr_scan"}, "fusion_lat": 0.0, "is_reserved": 0, "lat": 38.89915533333333, "name": "1fd2410c521df7313f21a6c3f73bbfa9", "bike_id": "1fd2410c521df7313f21a6c3f73bbfa9", "is_disabled": 0, "fusion_lon": 0.0, "type": "electric_scooter", "lon": -76.9335755}, {"rental_uris": {"android": "https://dc.lft.to/lastmile_qr_scan", "ios": "https://dc.lft.to/lastmile_qr_scan"}, "fusion_lat": 0.0, "is_reserved": 0, "lat": 38.885313833333335, "name": "14291cd003753f4072efd2cb4f2f55bc", "bike_id": "14291cd003753f4072efd2cb4f2f55bc", "is_disabled": 0, "fusion_lon": 0.0, "type": "electric_scooter", "lon": -77.02177183333333}, {"rental_uris": {"android": "https://dc.lft.to/lastmile_qr_scan", "ios": "https://dc.lft.to/lastmile_qr_scan"}, "fusion_lat": 0.0, "is_reserved": 0, "lat": 38.92929516666667, "name": "407bd8cd0ad8837e744804620b5a3456", "bike_id": "407bd8cd0ad8837e744804620b5a3456", "is_disabled": 0, "fusion_lon": 0.0, "type": "electric_scooter", "lon": -77.0296545}, {"rental_uris": {"android": "https://dc.lft.to/lastmile_qr_scan", "ios": "https://dc.lft.to/lastmile_qr_scan"}, "fusion_lat": 0.0, "is_reserved": 0, "lat": 38.9206625, "name": "59185bf4f16c13fd33845719e22ed5ec", "bike_id": "59185bf4f16c13fd33845719e22ed5ec", "is_disabled": 0, "fusion_lon": 0.0, "type": "electric_scooter", "lon": -77.03466416666667}, {"rental_uris": {"android": "https://dc.lft.to/lastmile_qr_scan", "ios": "https://dc.lft.to/lastmile_qr_scan"}, "fusion_lat": 0.0, "is_reserved": 0, "lat": 38.925657666666666, "name": "604d7d64bb7419b8e11593b8326034ca", "bike_id": "604d7d64bb7419b8e11593b8326034ca", "is_disabled": 0, "fusion_lon": 0.0, "type": "electric_scooter", "lon": -77.029604}, {"rental_uris": {"android": "https://dc.lft.to/lastmile_qr_scan", "ios": "https://dc.lft.to/lastmile_qr_scan"}, "fusion_lat": 0.0, "is_reserved": 0, "lat": 38.905856166666666, "name": "f7c68c8f623fb733594a2c6e3bb95d68", "bike_id": "f7c68c8f623fb733594a2c6e3bb95d68", "is_disabled": 0, "fusion_lon": 0.0, "type": "electric_scooter", "lon": -77.04235466666667}, {"rental_uris": {"android": "https://dc.lft.to/lastmile_qr_scan", "ios": "https://dc.lft.to/lastmile_qr_scan"}, "fusion_lat": 0.0, "is_reserved": 0, "lat": 38.904377333333336, "name": "515bd7ef2bdf3f1108b3cb65e260095c", "bike_id": "515bd7ef2bdf3f1108b3cb65e260095c", "is_disabled": 0, "fusion_lon": 0.0, "type": "electric_scooter", "lon": -77.02589633333334}, {"rental_uris": {"android": "https://dc.lft.to/lastmile_qr_scan", "ios": "https://dc.lft.to/lastmile_qr_scan"}, "fusion_lat": 0.0, "is_reserved": 0, "lat": 38.90908916666667, "name": "fc266f51b7fb3c322ef6137da123fc2c", "bike_id": "fc266f51b7fb3c322ef6137da123fc2c", "is_disabled": 0, "fusion_lon": 0.0, "type": "electric_scooter", "lon": -77.030947}, {"rental_uris": {"android": "https://dc.lft.to/lastmile_qr_scan", "ios": "https://dc.lft.to/lastmile_qr_scan"}, "fusion_lat": 0.0, "is_reserved": 0, "lat": 38.90904316666666, "name": "e555095b10f7d7cee76a7a0909a8337e", "bike_id": "e555095b10f7d7cee76a7a0909a8337e", "is_disabled": 0, "fusion_lon": 0.0, "type": "electric_scooter", "lon": -77.0441655}, {"rental_uris": {"android": "https://dc.lft.to/lastmile_qr_scan", "ios": "https://dc.lft.to/lastmile_qr_scan"}, "fusion_lat": 0.0, "is_reserved": 0, "lat": 38.91256966666667, "name": "5f41ae26ce95d0c81b4edb65e98b19f8", "bike_id": "5f41ae26ce95d0c81b4edb65e98b19f8", "is_disabled": 0, "fusion_lon": 0.0, "type": "electric_scooter", "lon": -77.03514016666666}, {"rental_uris": {"android": "https://dc.lft.to/lastmile_qr_scan", "ios": "https://dc.lft.to/lastmile_qr_scan"}, "fusion_lat": 0.0, "is_reserved": 0, "lat": 38.879024666666666, "name": "c04306a606573205fe04749edcd27a65", "bike_id": "c04306a606573205fe04749edcd27a65", "is_disabled": 0, "fusion_lon": 0.0, "type": "electric_scooter", "lon": -77.00606166666667}, {"rental_uris": {"android": "https://dc.lft.to/lastmile_qr_scan", "ios": "https://dc.lft.to/lastmile_qr_scan"}, "fusion_lat": 0.0, "is_reserved": 0, "lat": 38.90333183333333, "name": "f92ab259c951c1eb22d8eeb165cce090", "bike_id": "f92ab259c951c1eb22d8eeb165cce090", "is_disabled": 0, "fusion_lon": 0.0, "type": "electric_bike", "lon": -76.975311}, {"rental_uris": {"android": "https://dc.lft.to/lastmile_qr_scan", "ios": "https://dc.lft.to/lastmile_qr_scan"}, "fusion_lat": 0.0, "is_reserved": 0, "lat": 38.934546, "name": "b872553539d241d8abeaf8781e6b59c7", "bike_id": "b872553539d241d8abeaf8781e6b59c7", "is_disabled": 0, "fusion_lon": 0.0, "type": "electric_scooter", "lon": -77.027274}, {"rental_uris": {"android": "https://dc.lft.to/lastmile_qr_scan", "ios": "https://dc.lft.to/lastmile_qr_scan"}, "fusion_lat": 0.0, "is_reserved": 0, "lat": 38.94165616666667, "name": "a6f7a81a39b639e060c0190d32836eee", "bike_id": "a6f7a81a39b639e060c0190d32836eee", "is_disabled": 0, "fusion_lon": 0.0, "type": "electric_scooter", "lon": -77.0255845}, {"rental_uris": {"android": "https://dc.lft.to/lastmile_qr_scan", "ios": "https://dc.lft.to/lastmile_qr_scan"}, "fusion_lat": 0.0, "is_reserved": 0, "lat": 38.954756833333334, "name": "66c525b080f07d4b04b3a97f46561783", "bike_id": "66c525b080f07d4b04b3a97f46561783", "is_disabled": 0, "fusion_lon": 0.0, "type": "electric_scooter", "lon": -77.07768616666667}, {"rental_uris": {"android": "https://dc.lft.to/lastmile_qr_scan", "ios": "https://dc.lft.to/lastmile_qr_scan"}, "fusion_lat": 0.0, "is_reserved": 0, "lat": 38.91909916666667, "name": "2c39171c4901dd8a6ab389f96b866746", "bike_id": "2c39171c4901dd8a6ab389f96b866746", "is_disabled": 0, "fusion_lon": 0.0, "type": "electric_scooter", "lon": -77.04176516666666}, {"rental_uris": {"android": "https://dc.lft.to/lastmile_qr_scan", "ios": "https://dc.lft.to/lastmile_qr_scan"}, "fusion_lat": 0.0, "is_reserved": 0, "lat": 38.94798083333333, "name": "715f5464559bec90014e9be5269bc81e", "bike_id": "715f5464559bec90014e9be5269bc81e", "is_disabled": 0, "fusion_lon": 0.0, "type": "electric_bike", "lon": -76.94251116666666}, {"rental_uris": {"android": "https://dc.lft.to/lastmile_qr_scan", "ios": "https://dc.lft.to/lastmile_qr_scan"}, "fusion_lat": 0.0, "is_reserved": 0, "lat": 38.935326833333335, "name": "a2e02c8173f1cf309b9d11584f00bcd2", "bike_id": "a2e02c8173f1cf309b9d11584f00bcd2", "is_disabled": 0, "fusion_lon": 0.0, "type": "electric_scooter", "lon": -77.03496466666667}, {"rental_uris": {"android": "https://dc.lft.to/lastmile_qr_scan", "ios": "https://dc.lft.to/lastmile_qr_scan"}, "fusion_lat": 0.0, "is_reserved": 0, "lat": 38.941472833333336, "name": "19e2d819c3fe91afd24bad9251209ded", "bike_id": "19e2d819c3fe91afd24bad9251209ded", "is_disabled": 0, "fusion_lon": 0.0, "type": "electric_scooter", "lon": -77.00438066666666}, {"rental_uris": {"android": "https://dc.lft.to/lastmile_qr_scan", "ios": "https://dc.lft.to/lastmile_qr_scan"}, "fusion_lat": 0.0, "is_reserved": 0, "lat": 38.95906433333333, "name": "c0626bd945a489743ccd3b1174f520c5", "bike_id": "c0626bd945a489743ccd3b1174f520c5", "is_disabled": 0, "fusion_lon": 0.0, "type": "electric_bike", "lon": -76.92523066666666}, {"rental_uris": {"android": "https://dc.lft.to/lastmile_qr_scan", "ios": "https://dc.lft.to/lastmile_qr_scan"}, "fusion_lat": 0.0, "is_reserved": 0, "lat": 38.91809816666667, "name": "be27fc702ef7525c70b4268271a8b587", "bike_id": "be27fc702ef7525c70b4268271a8b587", "is_disabled": 0, "fusion_lon": 0.0, "type": "electric_scooter", "lon": -77.03159933333333}, {"rental_uris": {"android": "https://dc.lft.to/lastmile_qr_scan", "ios": "https://dc.lft.to/lastmile_qr_scan"}, "fusion_lat": 0.0, "is_reserved": 0, "lat": 38.923693666666665, "name": "35e78583fe1de82fa3703e19877bc38a", "bike_id": "35e78583fe1de82fa3703e19877bc38a", "is_disabled": 0, "fusion_lon": 0.0, "type": "electric_scooter", "lon": -77.02981833333334}, {"rental_uris": {"android": "https://dc.lft.to/lastmile_qr_scan", "ios": "https://dc.lft.to/lastmile_qr_scan"}, "fusion_lat": 0.0, "is_reserved": 0, "lat": 38.9267995, "name": "cd9029a25b1102467ca5542b8a7d4d91", "bike_id": "cd9029a25b1102467ca5542b8a7d4d91", "is_disabled": 0, "fusion_lon": 0.0, "type": "electric_scooter", "lon": -77.00743316666667}, {"rental_uris": {"android": "https://dc.lft.to/lastmile_qr_scan", "ios": "https://dc.lft.to/lastmile_qr_scan"}, "fusion_lat": 0.0, "is_reserved": 0, "lat": 38.87671366666667, "name": "0e2e2f6a808fe654dd166e8825f83486", "bike_id": "0e2e2f6a808fe654dd166e8825f83486", "is_disabled": 0, "fusion_lon": 0.0, "type": "electric_scooter", "lon": -76.99605266666667}, {"rental_uris": {"android": "https://dc.lft.to/lastmile_qr_scan", "ios": "https://dc.lft.to/lastmile_qr_scan"}, "fusion_lat": 0.0, "is_reserved": 0, "lat": 38.91831666666667, "name": "60b05a4351497aefbfff98aa7baadd94", "bike_id": "60b05a4351497aefbfff98aa7baadd94", "is_disabled": 0, "fusion_lon": 0.0, "type": "electric_scooter", "lon": -77.02298416666666}, {"rental_uris": {"android": "https://dc.lft.to/lastmile_qr_scan", "ios": "https://dc.lft.to/lastmile_qr_scan"}, "fusion_lat": 0.0, "is_reserved": 0, "lat": 38.895465333333334, "name": "74624235e77ab8eb58300b94b12be2d4", "bike_id": "74624235e77ab8eb58300b94b12be2d4", "is_disabled": 0, "fusion_lon": 0.0, "type": "electric_scooter", "lon": -76.983395}, {"rental_uris": {"android": "https://dc.lft.to/lastmile_qr_scan", "ios": "https://dc.lft.to/lastmile_qr_scan"}, "fusion_lat": 0.0, "is_reserved": 0, "lat": 38.9043375, "name": "59361491d738d6adfed03ed49f667ec6", "bike_id": "59361491d738d6adfed03ed49f667ec6", "is_disabled": 0, "fusion_lon": 0.0, "type": "electric_scooter", "lon": -77.02589983333333}, {"rental_uris": {"android": "https://dc.lft.to/lastmile_qr_scan", "ios": "https://dc.lft.to/lastmile_qr_scan"}, "fusion_lat": 0.0, "is_reserved": 0, "lat": 38.91781916666667, "name": "1d97a02cdd0965ee4c14e1044f8fd84d", "bike_id": "1d97a02cdd0965ee4c14e1044f8fd84d", "is_disabled": 0, "fusion_lon": 0.0, "type": "electric_scooter", "lon": -77.03448416666667}, {"rental_uris": {"android": "https://dc.lft.to/lastmile_qr_scan", "ios": "https://dc.lft.to/lastmile_qr_scan"}, "fusion_lat": 0.0, "is_reserved": 0, "lat": 38.92294716666667, "name": "d8bb18361d64ce3f02e074fda4668b70", "bike_id": "d8bb18361d64ce3f02e074fda4668b70", "is_disabled": 0, "fusion_lon": 0.0, "type": "electric_scooter", "lon": -77.04140583333333}, {"rental_uris": {"android": "https://dc.lft.to/lastmile_qr_scan", "ios": "https://dc.lft.to/lastmile_qr_scan"}, "fusion_lat": 0.0, "is_reserved": 0, "lat": 38.913391, "name": "2bb18d20bd33878f4d9bbaa0e12a250e", "bike_id": "2bb18d20bd33878f4d9bbaa0e12a250e", "is_disabled": 0, "fusion_lon": 0.0, "type": "electric_scooter", "lon": -77.03207033333334}, {"rental_uris": {"android": "https://dc.lft.to/lastmile_qr_scan", "ios": "https://dc.lft.to/lastmile_qr_scan"}, "fusion_lat": 0.0, "is_reserved": 0, "lat": 38.875327166666665, "name": "ca4825a1b60667ff307e5e9a88ea86cb", "bike_id": "ca4825a1b60667ff307e5e9a88ea86cb", "is_disabled": 0, "fusion_lon": 0.0, "type": "electric_scooter", "lon": -77.01752916666666}, {"rental_uris": {"android": "https://dc.lft.to/lastmile_qr_scan", "ios": "https://dc.lft.to/lastmile_qr_scan"}, "fusion_lat": 0.0, "is_reserved": 0, "lat": 38.903538, "name": "4331f47b953e3b215ac82167c32ce526", "bike_id": "4331f47b953e3b215ac82167c32ce526", "is_disabled": 0, "fusion_lon": 0.0, "type": "electric_scooter", "lon": -76.98616416666667}, {"rental_uris": {"android": "https://dc.lft.to/lastmile_qr_scan", "ios": "https://dc.lft.to/lastmile_qr_scan"}, "fusion_lat": 0.0, "is_reserved": 0, "lat": 38.90069, "name": "b0aa13a6907b76196f881043fa1f53c4", "bike_id": "b0aa13a6907b76196f881043fa1f53c4", "is_disabled": 0, "fusion_lon": 0.0, "type": "electric_scooter", "lon": -77.02624233333333}, {"rental_uris": {"android": "https://dc.lft.to/lastmile_qr_scan", "ios": "https://dc.lft.to/lastmile_qr_scan"}, "fusion_lat": 0.0, "is_reserved": 0, "lat": 38.899628666666665, "name": "dcf0e6f3d18ecc8d0bdc379ce3073b84", "bike_id": "dcf0e6f3d18ecc8d0bdc379ce3073b84", "is_disabled": 0, "fusion_lon": 0.0, "type": "electric_scooter", "lon": -77.01609566666667}, {"rental_uris": {"android": "https://dc.lft.to/lastmile_qr_scan", "ios": "https://dc.lft.to/lastmile_qr_scan"}, "fusion_lat": 0.0, "is_reserved": 0, "lat": 38.953589, "name": "716a3808353f70d96440a432ac298ebe", "bike_id": "716a3808353f70d96440a432ac298ebe", "is_disabled": 0, "fusion_lon": 0.0, "type": "electric_bike", "lon": -76.98095233333333}, {"rental_uris": {"android": "https://dc.lft.to/lastmile_qr_scan", "ios": "https://dc.lft.to/lastmile_qr_scan"}, "fusion_lat": 0.0, "is_reserved": 0, "lat": 38.9736875, "name": "a62baf23c3cc206d4ebfe0c20b62f0d1", "bike_id": "a62baf23c3cc206d4ebfe0c20b62f0d1", "is_disabled": 0, "fusion_lon": 0.0, "type": "electric_scooter", "lon": -77.026772}, {"rental_uris": {"android": "https://dc.lft.to/lastmile_qr_scan", "ios": "https://dc.lft.to/lastmile_qr_scan"}, "fusion_lat": 0.0, "is_reserved": 0, "lat": 38.89307616666667, "name": "b75ce9fcc4bcd424f74bd58e946d1d75", "bike_id": "b75ce9fcc4bcd424f74bd58e946d1d75", "is_disabled": 0, "fusion_lon": 0.0, "type": "electric_scooter", "lon": -76.9397565}, {"rental_uris": {"android": "https://dc.lft.to/lastmile_qr_scan", "ios": "https://dc.lft.to/lastmile_qr_scan"}, "fusion_lat": 0.0, "is_reserved": 0, "lat": 38.90590016666667, "name": "3f40888b4aaf2eedcafdb0a1c4feedac", "bike_id": "3f40888b4aaf2eedcafdb0a1c4feedac", "is_disabled": 0, "fusion_lon": 0.0, "type": "electric_scooter", "lon": -77.02186}, {"rental_uris": {"android": "https://dc.lft.to/lastmile_qr_scan", "ios": "https://dc.lft.to/lastmile_qr_scan"}, "fusion_lat": 0.0, "is_reserved": 0, "lat": 38.912723666666665, "name": "e57a157699f14195cab76ef622256c20", "bike_id": "e57a157699f14195cab76ef622256c20", "is_disabled": 0, "fusion_lon": 0.0, "type": "electric_scooter", "lon": -77.02211866666667}, {"rental_uris": {"android": "https://dc.lft.to/lastmile_qr_scan", "ios": "https://dc.lft.to/lastmile_qr_scan"}, "fusion_lat": 0.0, "is_reserved": 0, "lat": 38.91549033333333, "name": "e8956699b3e3cc9a3d246785aec9b86c", "bike_id": "e8956699b3e3cc9a3d246785aec9b86c", "is_disabled": 0, "fusion_lon": 0.0, "type": "electric_scooter", "lon": -77.04001583333333}, {"rental_uris": {"android": "https://dc.lft.to/lastmile_qr_scan", "ios": "https://dc.lft.to/lastmile_qr_scan"}, "fusion_lat": 0.0, "is_reserved": 0, "lat": 38.9287075, "name": "0cee949c032152a801580db5f8575f37", "bike_id": "0cee949c032152a801580db5f8575f37", "is_disabled": 0, "fusion_lon": 0.0, "type": "electric_scooter", "lon": -77.03426916666666}, {"rental_uris": {"android": "https://dc.lft.to/lastmile_qr_scan", "ios": "https://dc.lft.to/lastmile_qr_scan"}, "fusion_lat": 0.0, "is_reserved": 0, "lat": 38.91776566666667, "name": "30b1e92e76e09b5c6123b6d6d42380a9", "bike_id": "30b1e92e76e09b5c6123b6d6d42380a9", "is_disabled": 0, "fusion_lon": 0.0, "type": "electric_scooter", "lon": -77.047505}, {"rental_uris": {"android": "https://dc.lft.to/lastmile_qr_scan", "ios": "https://dc.lft.to/lastmile_qr_scan"}, "fusion_lat": 0.0, "is_reserved": 0, "lat": 38.9375795, "name": "22dc40b4265c3529de6f3d890e34bfcd", "bike_id": "22dc40b4265c3529de6f3d890e34bfcd", "is_disabled": 0, "fusion_lon": 0.0, "type": "electric_scooter", "lon": -77.02477016666667}, {"rental_uris": {"android": "https://dc.lft.to/lastmile_qr_scan", "ios": "https://dc.lft.to/lastmile_qr_scan"}, "fusion_lat": 0.0, "is_reserved": 0, "lat": 38.922054833333334, "name": "be45510bae4d5e7cb850c6a6a3b021e4", "bike_id": "be45510bae4d5e7cb850c6a6a3b021e4", "is_disabled": 0, "fusion_lon": 0.0, "type": "electric_scooter", "lon": -77.03748633333333}, {"rental_uris": {"android": "https://dc.lft.to/lastmile_qr_scan", "ios": "https://dc.lft.to/lastmile_qr_scan"}, "fusion_lat": 0.0, "is_reserved": 0, "lat": 38.9104615, "name": "a71e232e3d697d15420a4ad5c62b74a0", "bike_id": "a71e232e3d697d15420a4ad5c62b74a0", "is_disabled": 0, "fusion_lon": 0.0, "type": "electric_scooter", "lon": -77.01458316666667}, {"rental_uris": {"android": "https://dc.lft.to/lastmile_qr_scan", "ios": "https://dc.lft.to/lastmile_qr_scan"}, "fusion_lat": 0.0, "is_reserved": 0, "lat": 38.8878465, "name": "8a9cac0954c31590dc5fa60252f25404", "bike_id": "8a9cac0954c31590dc5fa60252f25404", "is_disabled": 0, "fusion_lon": 0.0, "type": "electric_bike", "lon": -77.03251283333333}, {"rental_uris": {"android": "https://dc.lft.to/lastmile_qr_scan", "ios": "https://dc.lft.to/lastmile_qr_scan"}, "fusion_lat": 0.0, "is_reserved": 0, "lat": 38.93596483333334, "name": "7098728acb932f642c432703ce449648", "bike_id": "7098728acb932f642c432703ce449648", "is_disabled": 0, "fusion_lon": 0.0, "type": "electric_scooter", "lon": -77.02130583333333}, {"rental_uris": {"android": "https://dc.lft.to/lastmile_qr_scan", "ios": "https://dc.lft.to/lastmile_qr_scan"}, "fusion_lat": 0.0, "is_reserved": 0, "lat": 38.9041995, "name": "83de1fca2169cfb0e01af6366c345ef1", "bike_id": "83de1fca2169cfb0e01af6366c345ef1", "is_disabled": 0, "fusion_lon": 0.0, "type": "electric_scooter", "lon": -77.019219}, {"rental_uris": {"android": "https://dc.lft.to/lastmile_qr_scan", "ios": "https://dc.lft.to/lastmile_qr_scan"}, "fusion_lat": 0.0, "is_reserved": 0, "lat": 38.863436166666666, "name": "9b12dfea6a446af9934a1052a8565c92", "bike_id": "9b12dfea6a446af9934a1052a8565c92", "is_disabled": 0, "fusion_lon": 0.0, "type": "electric_scooter", "lon": -76.9872145}, {"rental_uris": {"android": "https://dc.lft.to/lastmile_qr_scan", "ios": "https://dc.lft.to/lastmile_qr_scan"}, "fusion_lat": 0.0, "is_reserved": 0, "lat": 38.9236715, "name": "56ceea2ef9b7b9e88ac652e48ce9c193", "bike_id": "56ceea2ef9b7b9e88ac652e48ce9c193", "is_disabled": 0, "fusion_lon": 0.0, "type": "electric_scooter", "lon": -77.03128033333333}, {"rental_uris": {"android": "https://dc.lft.to/lastmile_qr_scan", "ios": "https://dc.lft.to/lastmile_qr_scan"}, "fusion_lat": 0.0, "is_reserved": 0, "lat": 38.89891016666667, "name": "4a3338356bc29fc8101ca2ae22cfaf13", "bike_id": "4a3338356bc29fc8101ca2ae22cfaf13", "is_disabled": 0, "fusion_lon": 0.0, "type": "electric_scooter", "lon": -77.02164166666667}, {"rental_uris": {"android": "https://dc.lft.to/lastmile_qr_scan", "ios": "https://dc.lft.to/lastmile_qr_scan"}, "fusion_lat": 0.0, "is_reserved": 0, "lat": 38.92796333333333, "name": "59e2990faa406d6f1965ee8549f22fc6", "bike_id": "59e2990faa406d6f1965ee8549f22fc6", "is_disabled": 0, "fusion_lon": 0.0, "type": "electric_scooter", "lon": -77.01415516666667}, {"rental_uris": {"android": "https://dc.lft.to/lastmile_qr_scan", "ios": "https://dc.lft.to/lastmile_qr_scan"}, "fusion_lat": 0.0, "is_reserved": 0, "lat": 38.900002, "name": "4f42a131faf14d5620ec173870de3493", "bike_id": "4f42a131faf14d5620ec173870de3493", "is_disabled": 0, "fusion_lon": 0.0, "type": "electric_scooter", "lon": -77.02197666666666}, {"rental_uris": {"android": "https://dc.lft.to/lastmile_qr_scan", "ios": "https://dc.lft.to/lastmile_qr_scan"}, "fusion_lat": 0.0, "is_reserved": 0, "lat": 38.93964233333333, "name": "d8a71fcd0b46c054182c03a17707c981", "bike_id": "d8a71fcd0b46c054182c03a17707c981", "is_disabled": 0, "fusion_lon": 0.0, "type": "electric_scooter", "lon": -77.03284816666667}, {"rental_uris": {"android": "https://dc.lft.to/lastmile_qr_scan", "ios": "https://dc.lft.to/lastmile_qr_scan"}, "fusion_lat": 0.0, "is_reserved": 0, "lat": 38.918096, "name": "715a3e9cf354a7719a868b34d4260b5c", "bike_id": "715a3e9cf354a7719a868b34d4260b5c", "is_disabled": 0, "fusion_lon": 0.0, "type": "electric_scooter", "lon": -77.02886966666667}, {"rental_uris": {"android": "https://dc.lft.to/lastmile_qr_scan", "ios": "https://dc.lft.to/lastmile_qr_scan"},