{"data": {"bikes": [{"bike_id": "e2af7c9c906801c368d696b62c640bcf", "name": "e2af7c9c906801c368d696b62c640bcf", "lat": 38.90853933333333, "fusion_lat": 0.0, "type": "electric_scooter", "lon": -76.999732, "is_disabled": 0, "fusion_lon": 0.0, "rental_uris": {"android": "https://dc.lft.to/lastmile_qr_scan", "ios": "https://dc.lft.to/lastmile_qr_scan"}, "is_reserved": 0}, {"bike_id": "a0ae49574338391b18ac148fb5fcfb94", "name": "a0ae49574338391b18ac148fb5fcfb94", "lat": 38.92019116666667, "fusion_lat": 0.0, "type": "electric_scooter", "lon": -77.03159266666667, "is_disabled": 0, "fusion_lon": 0.0, "rental_uris": {"android": "https://dc.lft.to/lastmile_qr_scan", "ios": "https://dc.lft.to/lastmile_qr_scan"}, "is_reserved": 0}, {"bike_id": "6988b1fbb44533677eb5608c8ebc8307", "name": "6988b1fbb44533677eb5608c8ebc8307", "lat": 38.90519416666667, "fusion_lat": 0.0, "type": "electric_scooter", "lon": -77.0189925, "is_disabled": 0, "fusion_lon": 0.0, "rental_uris": {"android": "https://dc.lft.to/lastmile_qr_scan", "ios": "https://dc.lft.to/lastmile_qr_scan"}, "is_reserved": 0}, {"bike_id": "2d8990034875286e4dbf33bbf2f5508b", "name": "2d8990034875286e4dbf33bbf2f5508b", "lat": 38.89681316666667, "fusion_lat": 0.0, "type": "electric_scooter", "lon": -77.00518283333334, "is_disabled": 0, "fusion_lon": 0.0, "rental_uris": {"android": "https://dc.lft.to/lastmile_qr_scan", "ios": "https://dc.lft.to/lastmile_qr_scan"}, "is_reserved": 0}, {"bike_id": "56bab307d67dd29c0ea5264c90b1a185", "name": "56bab307d67dd29c0ea5264c90b1a185", "lat": 38.8860665, "fusion_lat": 0.0, "type": "electric_bike", "lon": -77.14230433333333, "is_disabled": 0, "fusion_lon": 0.0, "rental_uris": {"android": "https://dc.lft.to/lastmile_qr_scan", "ios": "https://dc.lft.to/lastmile_qr_scan"}, "is_reserved": 0}, {"bike_id": "d9025951433e6cbdb259b0b3983aeb9f", "name": "d9025951433e6cbdb259b0b3983aeb9f", "lat": 38.90566416666667, "fusion_lat": 0.0, "type": "electric_scooter", "lon": -77.00560983333334, "is_disabled": 0, "fusion_lon": 0.0, "rental_uris": {"android": "https://dc.lft.to/lastmile_qr_scan", "ios": "https://dc.lft.to/lastmile_qr_scan"}, "is_reserved": 0}, {"bike_id": "f3e5b379f1bda8c7a1c95d4ffb6fdd98", "name": "f3e5b379f1bda8c7a1c95d4ffb6fdd98", "lat": 38.8851215, "fusion_lat": 0.0, "type": "electric_scooter", "lon": -77.011165, "is_disabled": 0, "fusion_lon": 0.0, "rental_uris": {"android": "https://dc.lft.to/lastmile_qr_scan", "ios": "https://dc.lft.to/lastmile_qr_scan"}, "is_reserved": 0}, {"bike_id": "4e6c4c826331dcf8729280e66ab7f5c0", "name": "4e6c4c826331dcf8729280e66ab7f5c0", "lat": 38.898645, "fusion_lat": 0.0, "type": "electric_scooter", "lon": -77.02942383333334, "is_disabled": 0, "fusion_lon": 0.0, "rental_uris": {"android": "https://dc.lft.to/lastmile_qr_scan", "ios": "https://dc.lft.to/lastmile_qr_scan"}, "is_reserved": 0}, {"bike_id": "4391ed70ef9c5ade000cffb96f0c3c38", "name": "4391ed70ef9c5ade000cffb96f0c3c38", "lat": 38.8994095, "fusion_lat": 0.0, "type": "electric_scooter", "lon": -77.03307266666667, "is_disabled": 0, "fusion_lon": 0.0, "rental_uris": {"android": "https://dc.lft.to/lastmile_qr_scan", "ios": "https://dc.lft.to/lastmile_qr_scan"}, "is_reserved": 0}, {"bike_id": "47e2732e26fed87289c60c486b3cb52a", "name": "47e2732e26fed87289c60c486b3cb52a", "lat": 38.91276533333333, "fusion_lat": 0.0, "type": "electric_scooter", "lon": -77.02390833333334, "is_disabled": 0, "fusion_lon": 0.0, "rental_uris": {"android": "https://dc.lft.to/lastmile_qr_scan", "ios": "https://dc.lft.to/lastmile_qr_scan"}, "is_reserved": 0}, {"bike_id": "5f3655dcee29acd2f1ca2aeeca789f6c", "name": "5f3655dcee29acd2f1ca2aeeca789f6c", "lat": 38.90733016666667, "fusion_lat": 0.0, "type": "electric_scooter", "lon": -77.04215583333334, "is_disabled": 0, "fusion_lon": 0.0, "rental_uris": {"android": "https://dc.lft.to/lastmile_qr_scan", "ios": "https://dc.lft.to/lastmile_qr_scan"}, "is_reserved": 0}, {"bike_id": "98138fc712d3bfcc369807444b614494", "name": "98138fc712d3bfcc369807444b614494", "lat": 38.91452433333333, "fusion_lat": 0.0, "type": "electric_scooter", "lon": -77.03201316666667, "is_disabled": 0, "fusion_lon": 0.0, "rental_uris": {"android": "https://dc.lft.to/lastmile_qr_scan", "ios": "https://dc.lft.to/lastmile_qr_scan"}, "is_reserved": 0}, {"bike_id": "6d4014e3175fb7e8f31405be74a0d930", "name": "6d4014e3175fb7e8f31405be74a0d930", "lat": 38.946691666666666, "fusion_lat": 0.0, "type": "electric_bike", "lon": -76.99339766666667, "is_disabled": 0, "fusion_lon": 0.0, "rental_uris": {"android": "https://dc.lft.to/lastmile_qr_scan", "ios": "https://dc.lft.to/lastmile_qr_scan"}, "is_reserved": 0}, {"bike_id": "a56ea91e59336037b25d13ee35d5451f", "name": "a56ea91e59336037b25d13ee35d5451f", "lat": 38.92420333333333, "fusion_lat": 0.0, "type": "electric_scooter", "lon": -77.0201395, "is_disabled": 0, "fusion_lon": 0.0, "rental_uris": {"android": "https://dc.lft.to/lastmile_qr_scan", "ios": "https://dc.lft.to/lastmile_qr_scan"}, "is_reserved": 0}, {"bike_id": "84fa514b76cecba73c3e67f244e34a7c", "name": "84fa514b76cecba73c3e67f244e34a7c", "lat": 38.91586233333334, "fusion_lat": 0.0, "type": "electric_scooter", "lon": -77.03203483333333, "is_disabled": 0, "fusion_lon": 0.0, "rental_uris": {"android": "https://dc.lft.to/lastmile_qr_scan", "ios": "https://dc.lft.to/lastmile_qr_scan"}, "is_reserved": 0}, {"bike_id": "4098d419313a62deec66a676949680eb", "name": "4098d419313a62deec66a676949680eb", "lat": 38.92420716666667, "fusion_lat": 0.0, "type": "electric_scooter", "lon": -77.01943666666666, "is_disabled": 0, "fusion_lon": 0.0, "rental_uris": {"android": "https://dc.lft.to/lastmile_qr_scan", "ios": "https://dc.lft.to/lastmile_qr_scan"}, "is_reserved": 0}, {"bike_id": "a25c7351ea3920e437a5ad4866492964", "name": "a25c7351ea3920e437a5ad4866492964", "lat": 38.922060333333334, "fusion_lat": 0.0, "type": "electric_scooter", "lon": -77.02031966666667, "is_disabled": 0, "fusion_lon": 0.0, "rental_uris": {"android": "https://dc.lft.to/lastmile_qr_scan", "ios": "https://dc.lft.to/lastmile_qr_scan"}, "is_reserved": 0}, {"bike_id": "69b520be7c38fb5cd7934e79945bffcb", "name": "69b520be7c38fb5cd7934e79945bffcb", "lat": 38.910189333333335, "fusion_lat": 0.0, "type": "electric_scooter", "lon": -76.9936925, "is_disabled": 0, "fusion_lon": 0.0, "rental_uris": {"android": "https://dc.lft.to/lastmile_qr_scan", "ios": "https://dc.lft.to/lastmile_qr_scan"}, "is_reserved": 0}, {"bike_id": "26f5cee57c5e48c0d7e2f6e944bc423f", "name": "26f5cee57c5e48c0d7e2f6e944bc423f", "lat": 38.9026875, "fusion_lat": 0.0, "type": "electric_scooter", "lon": -77.02722666666666, "is_disabled": 0, "fusion_lon": 0.0, "rental_uris": {"android": "https://dc.lft.to/lastmile_qr_scan", "ios": "https://dc.lft.to/lastmile_qr_scan"}, "is_reserved": 0}, {"bike_id": "c6cad00cfc7a3d7699a848e4dc853bc4", "name": "c6cad00cfc7a3d7699a848e4dc853bc4", "lat": 38.90271366666666, "fusion_lat": 0.0, "type": "electric_scooter", "lon": -77.02806533333333, "is_disabled": 0, "fusion_lon": 0.0, "rental_uris": {"android": "https://dc.lft.to/lastmile_qr_scan", "ios": "https://dc.lft.to/lastmile_qr_scan"}, "is_reserved": 0}, {"bike_id": "27c44b1b276f93d6518158c6dd1ff5e4", "name": "27c44b1b276f93d6518158c6dd1ff5e4", "lat": 38.901155333333335, "fusion_lat": 0.0, "type": "electric_scooter", "lon": -76.97997716666667, "is_disabled": 0, "fusion_lon": 0.0, "rental_uris": {"android": "https://dc.lft.to/lastmile_qr_scan", "ios": "https://dc.lft.to/lastmile_qr_scan"}, "is_reserved": 0}, {"bike_id": "d02572201e57a88443a5d9de498738a9", "name": "d02572201e57a88443a5d9de498738a9", "lat": 38.91190366666667, "fusion_lat": 0.0, "type": "electric_scooter", "lon": -77.03212716666667, "is_disabled": 0, "fusion_lon": 0.0, "rental_uris": {"android": "https://dc.lft.to/lastmile_qr_scan", "ios": "https://dc.lft.to/lastmile_qr_scan"}, "is_reserved": 0}, {"bike_id": "631d7b6d2db711a46b32a37b0680811a", "name": "631d7b6d2db711a46b32a37b0680811a", "lat": 38.93473616666667, "fusion_lat": 0.0, "type": "electric_scooter", "lon": -77.04139733333334, "is_disabled": 0, "fusion_lon": 0.0, "rental_uris": {"android": "https://dc.lft.to/lastmile_qr_scan", "ios": "https://dc.lft.to/lastmile_qr_scan"}, "is_reserved": 0}, {"bike_id": "a3e8af35a1bcf122250710f978ea7e0c", "name": "a3e8af35a1bcf122250710f978ea7e0c", "lat": 38.87181283333334, "fusion_lat": 0.0, "type": "electric_scooter", "lon": -77.00610733333333, "is_disabled": 0, "fusion_lon": 0.0, "rental_uris": {"android": "https://dc.lft.to/lastmile_qr_scan", "ios": "https://dc.lft.to/lastmile_qr_scan"}, "is_reserved": 0}, {"bike_id": "998cbe1819c13dba7947128a764a44b6", "name": "998cbe1819c13dba7947128a764a44b6", "lat": 38.9078155, "fusion_lat": 0.0, "type": "electric_scooter", "lon": -77.03756216666666, "is_disabled": 0, "fusion_lon": 0.0, "rental_uris": {"android": "https://dc.lft.to/lastmile_qr_scan", "ios": "https://dc.lft.to/lastmile_qr_scan"}, "is_reserved": 0}, {"bike_id": "b24ebcc612625741fa4b489bf04beb15", "name": "b24ebcc612625741fa4b489bf04beb15", "lat": 38.96619783333333, "fusion_lat": 0.0, "type": "electric_bike", "lon": -77.03440233333333, "is_disabled": 0, "fusion_lon": 0.0, "rental_uris": {"android": "https://dc.lft.to/lastmile_qr_scan", "ios": "https://dc.lft.to/lastmile_qr_scan"}, "is_reserved": 0}, {"bike_id": "c8369e942a5f722599a8de64e17a20e9", "name": "c8369e942a5f722599a8de64e17a20e9", "lat": 38.922308666666666, "fusion_lat": 0.0, "type": "electric_scooter", "lon": -77.02330566666667, "is_disabled": 0, "fusion_lon": 0.0, "rental_uris": {"android": "https://dc.lft.to/lastmile_qr_scan", "ios": "https://dc.lft.to/lastmile_qr_scan"}, "is_reserved": 0}, {"bike_id": "f4c83588a9ea7f689f1b11c1d2697764", "name": "f4c83588a9ea7f689f1b11c1d2697764", "lat": 38.91477533333333, "fusion_lat": 0.0, "type": "electric_scooter", "lon": -77.03183816666666, "is_disabled": 0, "fusion_lon": 0.0, "rental_uris": {"android": "https://dc.lft.to/lastmile_qr_scan", "ios": "https://dc.lft.to/lastmile_qr_scan"}, "is_reserved": 0}, {"bike_id": "dc3c6e9c617f419f59e8b286bdb12bbc", "name": "dc3c6e9c617f419f59e8b286bdb12bbc", "lat": 38.9181475, "fusion_lat": 0.0, "type": "electric_scooter", "lon": -77.02475716666666, "is_disabled": 0, "fusion_lon": 0.0, "rental_uris": {"android": "https://dc.lft.to/lastmile_qr_scan", "ios": "https://dc.lft.to/lastmile_qr_scan"}, "is_reserved": 0}, {"bike_id": "5690dc3f9cc602fce117b09a2dd09918", "name": "5690dc3f9cc602fce117b09a2dd09918", "lat": 38.914072, "fusion_lat": 0.0, "type": "electric_scooter", "lon": -77.03168983333333, "is_disabled": 0, "fusion_lon": 0.0, "rental_uris": {"android": "https://dc.lft.to/lastmile_qr_scan", "ios": "https://dc.lft.to/lastmile_qr_scan"}, "is_reserved": 0}, {"bike_id": "f47b22de5780b51998e001099551c688", "name": "f47b22de5780b51998e001099551c688", "lat": 38.911052166666664, "fusion_lat": 0.0, "type": "electric_scooter", "lon": -77.073483, "is_disabled": 0, "fusion_lon": 0.0, "rental_uris": {"android": "https://dc.lft.to/lastmile_qr_scan", "ios": "https://dc.lft.to/lastmile_qr_scan"}, "is_reserved": 0}, {"bike_id": "4861f43380810546512c352670bf3598", "name": "4861f43380810546512c352670bf3598", "lat": 38.9130575, "fusion_lat": 0.0, "type": "electric_scooter", "lon": -77.03218733333334, "is_disabled": 0, "fusion_lon": 0.0, "rental_uris": {"android": "https://dc.lft.to/lastmile_qr_scan", "ios": "https://dc.lft.to/lastmile_qr_scan"}, "is_reserved": 0}, {"bike_id": "cb28ab0bad30492f42e215294b070318", "name": "cb28ab0bad30492f42e215294b070318", "lat": 38.898065833333334, "fusion_lat": 0.0, "type": "electric_scooter", "lon": -77.0461395, "is_disabled": 0, "fusion_lon": 0.0, "rental_uris": {"android": "https://dc.lft.to/lastmile_qr_scan", "ios": "https://dc.lft.to/lastmile_qr_scan"}, "is_reserved": 0}, {"bike_id": "50900f904e4e80dfee7017eacc107272", "name": "50900f904e4e80dfee7017eacc107272", "lat": 38.8830145, "fusion_lat": 0.0, "type": "electric_scooter", "lon": -76.94858216666667, "is_disabled": 0, "fusion_lon": 0.0, "rental_uris": {"android": "https://dc.lft.to/lastmile_qr_scan", "ios": "https://dc.lft.to/lastmile_qr_scan"}, "is_reserved": 0}, {"bike_id": "1c36df0be6592e536ebd5291a005b4f8", "name": "1c36df0be6592e536ebd5291a005b4f8", "lat": 38.918178166666664, "fusion_lat": 0.0, "type": "electric_scooter", "lon": -77.02820183333333, "is_disabled": 0, "fusion_lon": 0.0, "rental_uris": {"android": "https://dc.lft.to/lastmile_qr_scan", "ios": "https://dc.lft.to/lastmile_qr_scan"}, "is_reserved": 0}, {"bike_id": "8f3bd5117cef17c330ebf9df75efd23d", "name": "8f3bd5117cef17c330ebf9df75efd23d", "lat": 38.91641283333333, "fusion_lat": 0.0, "type": "electric_scooter", "lon": -77.02099816666667, "is_disabled": 0, "fusion_lon": 0.0, "rental_uris": {"android": "https://dc.lft.to/lastmile_qr_scan", "ios": "https://dc.lft.to/lastmile_qr_scan"}, "is_reserved": 0}, {"bike_id": "273506a636efc3592461f63834be50b0", "name": "273506a636efc3592461f63834be50b0", "lat": 38.886163, "fusion_lat": 0.0, "type": "electric_scooter", "lon": -76.99658116666667, "is_disabled": 0, "fusion_lon": 0.0, "rental_uris": {"android": "https://dc.lft.to/lastmile_qr_scan", "ios": "https://dc.lft.to/lastmile_qr_scan"}, "is_reserved": 0}, {"bike_id": "34c3c51aeb8f55e01290fb4202c12fc2", "name": "34c3c51aeb8f55e01290fb4202c12fc2", "lat": 38.93114583333333, "fusion_lat": 0.0, "type": "electric_scooter", "lon": -77.0351255, "is_disabled": 0, "fusion_lon": 0.0, "rental_uris": {"android": "https://dc.lft.to/lastmile_qr_scan", "ios": "https://dc.lft.to/lastmile_qr_scan"}, "is_reserved": 0}, {"bike_id": "e1c6b6412750eee930cc246793594174", "name": "e1c6b6412750eee930cc246793594174", "lat": 38.89965933333333, "fusion_lat": 0.0, "type": "electric_scooter", "lon": -77.044832, "is_disabled": 0, "fusion_lon": 0.0, "rental_uris": {"android": "https://dc.lft.to/lastmile_qr_scan", "ios": "https://dc.lft.to/lastmile_qr_scan"}, "is_reserved": 0}, {"bike_id": "d96039fcd77d7fc9952f9f7fe20dcaa8", "name": "d96039fcd77d7fc9952f9f7fe20dcaa8", "lat": 38.908789666666664, "fusion_lat": 0.0, "type": "electric_scooter", "lon": -77.04382166666667, "is_disabled": 0, "fusion_lon": 0.0, "rental_uris": {"android": "https://dc.lft.to/lastmile_qr_scan", "ios": "https://dc.lft.to/lastmile_qr_scan"}, "is_reserved": 0}, {"bike_id": "d3508a6424f7363380fb8bfa43442e15", "name": "d3508a6424f7363380fb8bfa43442e15", "lat": 38.926066166666665, "fusion_lat": 0.0, "type": "electric_scooter", "lon": -77.0570305, "is_disabled": 0, "fusion_lon": 0.0, "rental_uris": {"android": "https://dc.lft.to/lastmile_qr_scan", "ios": "https://dc.lft.to/lastmile_qr_scan"}, "is_reserved": 0}, {"bike_id": "cea82556a067b5e6ebb68cdfbbfb39f7", "name": "cea82556a067b5e6ebb68cdfbbfb39f7", "lat": 38.887616, "fusion_lat": 0.0, "type": "electric_bike", "lon": -77.08917983333333, "is_disabled": 0, "fusion_lon": 0.0, "rental_uris": {"android": "https://dc.lft.to/lastmile_qr_scan", "ios": "https://dc.lft.to/lastmile_qr_scan"}, "is_reserved": 0}, {"bike_id": "099870201bf7449b40b840afe1ee871a", "name": "099870201bf7449b40b840afe1ee871a", "lat": 38.922243, "fusion_lat": 0.0, "type": "electric_scooter", "lon": -77.04324683333333, "is_disabled": 0, "fusion_lon": 0.0, "rental_uris": {"android": "https://dc.lft.to/lastmile_qr_scan", "ios": "https://dc.lft.to/lastmile_qr_scan"}, "is_reserved": 0}, {"bike_id": "920b48bd87ace2d0688a270720f15d31", "name": "920b48bd87ace2d0688a270720f15d31", "lat": 38.926057166666666, "fusion_lat": 0.0, "type": "electric_scooter", "lon": -77.021575, "is_disabled": 0, "fusion_lon": 0.0, "rental_uris": {"android": "https://dc.lft.to/lastmile_qr_scan", "ios": "https://dc.lft.to/lastmile_qr_scan"}, "is_reserved": 0}, {"bike_id": "6aff00b5445805dd24dee3781eb6c42b", "name": "6aff00b5445805dd24dee3781eb6c42b", "lat": 38.91761366666667, "fusion_lat": 0.0, "type": "electric_scooter", "lon": -77.024094, "is_disabled": 0, "fusion_lon": 0.0, "rental_uris": {"android": "https://dc.lft.to/lastmile_qr_scan", "ios": "https://dc.lft.to/lastmile_qr_scan"}, "is_reserved": 0}, {"bike_id": "39c66831b097e41a4e8443ee33fbefdd", "name": "39c66831b097e41a4e8443ee33fbefdd", "lat": 38.900557666666664, "fusion_lat": 0.0, "type": "electric_scooter", "lon": -76.98836116666666, "is_disabled": 0, "fusion_lon": 0.0, "rental_uris": {"android": "https://dc.lft.to/lastmile_qr_scan", "ios": "https://dc.lft.to/lastmile_qr_scan"}, "is_reserved": 0}, {"bike_id": "7511a31d25e4950225a65d0557d9c237", "name": "7511a31d25e4950225a65d0557d9c237", "lat": 38.90184133333333, "fusion_lat": 0.0, "type": "electric_scooter", "lon": -77.02099316666667, "is_disabled": 0, "fusion_lon": 0.0, "rental_uris": {"android": "https://dc.lft.to/lastmile_qr_scan", "ios": "https://dc.lft.to/lastmile_qr_scan"}, "is_reserved": 0}, {"bike_id": "736fa16c1c2e5d95e3925f955b932740", "name": "736fa16c1c2e5d95e3925f955b932740", "lat": 38.918054166666664, "fusion_lat": 0.0, "type": "electric_scooter", "lon": -77.0343235, "is_disabled": 0, "fusion_lon": 0.0, "rental_uris": {"android": "https://dc.lft.to/lastmile_qr_scan", "ios": "https://dc.lft.to/lastmile_qr_scan"}, "is_reserved": 0}, {"bike_id": "393919b2864d89fe99f4e124e317a998", "name": "393919b2864d89fe99f4e124e317a998", "lat": 38.902724666666664, "fusion_lat": 0.0, "type": "electric_scooter", "lon": -77.0181475, "is_disabled": 0, "fusion_lon": 0.0, "rental_uris": {"android": "https://dc.lft.to/lastmile_qr_scan", "ios": "https://dc.lft.to/lastmile_qr_scan"}, "is_reserved": 0}, {"bike_id": "e4737be51efd438628345a51305a0628", "name": "e4737be51efd438628345a51305a0628", "lat": 38.91962933333333, "fusion_lat": 0.0, "type": "electric_scooter", "lon": -77.04359416666667, "is_disabled": 0, "fusion_lon": 0.0, "rental_uris": {"android": "https://dc.lft.to/lastmile_qr_scan", "ios": "https://dc.lft.to/lastmile_qr_scan"}, "is_reserved": 0}, {"bike_id": "e998aca0c97c3d9bb0e751542bfd430b", "name": "e998aca0c97c3d9bb0e751542bfd430b", "lat": 38.876562666666665, "fusion_lat": 0.0, "type": "electric_scooter", "lon": -77.02080033333333, "is_disabled": 0, "fusion_lon": 0.0, "rental_uris": {"android": "https://dc.lft.to/lastmile_qr_scan", "ios": "https://dc.lft.to/lastmile_qr_scan"}, "is_reserved": 0}, {"bike_id": "9430dca389af507a53828998a87cc86a", "name": "9430dca389af507a53828998a87cc86a", "lat": 38.8867985, "fusion_lat": 0.0, "type": "electric_scooter", "lon": -77.00197516666667, "is_disabled": 0, "fusion_lon": 0.0, "rental_uris": {"android": "https://dc.lft.to/lastmile_qr_scan", "ios": "https://dc.lft.to/lastmile_qr_scan"}, "is_reserved": 0}, {"bike_id": "1621e2c713d1702f8a02b930a4da1a49", "name": "1621e2c713d1702f8a02b930a4da1a49", "lat": 38.8853535, "fusion_lat": 0.0, "type": "electric_scooter", "lon": -76.98059933333333, "is_disabled": 0, "fusion_lon": 0.0, "rental_uris": {"android": "https://dc.lft.to/lastmile_qr_scan", "ios": "https://dc.lft.to/lastmile_qr_scan"}, "is_reserved": 0}, {"bike_id": "567fa095f7efa87c75be09fbd9a36486", "name": "567fa095f7efa87c75be09fbd9a36486", "lat": 38.900402, "fusion_lat": 0.0, "type": "electric_scooter", "lon": -77.0342845, "is_disabled": 0, "fusion_lon": 0.0, "rental_uris": {"android": "https://dc.lft.to/lastmile_qr_scan", "ios": "https://dc.lft.to/lastmile_qr_scan"}, "is_reserved": 0}, {"bike_id": "269806ab0c4b629918af39502229efc8", "name": "269806ab0c4b629918af39502229efc8", "lat": 38.91662, "fusion_lat": 0.0, "type": "electric_scooter", "lon": -77.02467083333333, "is_disabled": 0, "fusion_lon": 0.0, "rental_uris": {"android": "https://dc.lft.to/lastmile_qr_scan", "ios": "https://dc.lft.to/lastmile_qr_scan"}, "is_reserved": 0}, {"bike_id": "38d2654e38fab32b7e87945b4ca010e1", "name": "38d2654e38fab32b7e87945b4ca010e1", "lat": 38.867194166666664, "fusion_lat": 0.0, "type": "electric_scooter", "lon": -76.980741, "is_disabled": 0, "fusion_lon": 0.0, "rental_uris": {"android": "https://dc.lft.to/lastmile_qr_scan", "ios": "https://dc.lft.to/lastmile_qr_scan"}, "is_reserved": 0}, {"bike_id": "02c06d92fcac333ba1967d092df9adf2", "name": "02c06d92fcac333ba1967d092df9adf2", "lat": 38.936598833333335, "fusion_lat": 0.0, "type": "electric_scooter", "lon": -77.021297, "is_disabled": 0, "fusion_lon": 0.0, "rental_uris": {"android": "https://dc.lft.to/lastmile_qr_scan", "ios": "https://dc.lft.to/lastmile_qr_scan"}, "is_reserved": 0}, {"bike_id": "0e5f181e804e991b296ac2c32817d3d8", "name": "0e5f181e804e991b296ac2c32817d3d8", "lat": 38.912848833333335, "fusion_lat": 0.0, "type": "electric_scooter", "lon": -77.03859966666667, "is_disabled": 0, "fusion_lon": 0.0, "rental_uris": {"android": "https://dc.lft.to/lastmile_qr_scan", "ios": "https://dc.lft.to/lastmile_qr_scan"}, "is_reserved": 0}, {"bike_id": "258d72be5ad86ecdb7d5742588619ad5", "name": "258d72be5ad86ecdb7d5742588619ad5", "lat": 38.93595033333333, "fusion_lat": 0.0, "type": "electric_scooter", "lon": -77.03363766666666, "is_disabled": 0, "fusion_lon": 0.0, "rental_uris": {"android": "https://dc.lft.to/lastmile_qr_scan", "ios": "https://dc.lft.to/lastmile_qr_scan"}, "is_reserved": 0}, {"bike_id": "fc95d97d795128b5b01eff4cbde63a14", "name": "fc95d97d795128b5b01eff4cbde63a14", "lat": 38.880664833333334, "fusion_lat": 0.0, "type": "electric_bike", "lon": -77.025527, "is_disabled": 0, "fusion_lon": 0.0, "rental_uris": {"android": "https://dc.lft.to/lastmile_qr_scan", "ios": "https://dc.lft.to/lastmile_qr_scan"}, "is_reserved": 0}, {"bike_id": "1cc1bdd427b65d1d6eeb9ff627fd5a63", "name": "1cc1bdd427b65d1d6eeb9ff627fd5a63", "lat": 38.921594, "fusion_lat": 0.0, "type": "electric_scooter", "lon": -77.0209035, "is_disabled": 0, "fusion_lon": 0.0, "rental_uris": {"android": "https://dc.lft.to/lastmile_qr_scan", "ios": "https://dc.lft.to/lastmile_qr_scan"}, "is_reserved": 0}, {"bike_id": "95131b3fd02131bf68696be181910271", "name": "95131b3fd02131bf68696be181910271", "lat": 38.893055833333335, "fusion_lat": 0.0, "type": "electric_scooter", "lon": -77.01233066666667, "is_disabled": 0, "fusion_lon": 0.0, "rental_uris": {"android": "https://dc.lft.to/lastmile_qr_scan", "ios": "https://dc.lft.to/lastmile_qr_scan"}, "is_reserved": 0}, {"bike_id": "b9017f76c34099fa122bdf6eecec9348", "name": "b9017f76c34099fa122bdf6eecec9348", "lat": 38.909538166666664, "fusion_lat": 0.0, "type": "electric_scooter", "lon": -77.02387066666667, "is_disabled": 0, "fusion_lon": 0.0, "rental_uris": {"android": "https://dc.lft.to/lastmile_qr_scan", "ios": "https://dc.lft.to/lastmile_qr_scan"}, "is_reserved": 0}, {"bike_id": "4ccc69d6dde5fb7cc06541f2202a6052", "name": "4ccc69d6dde5fb7cc06541f2202a6052", "lat": 38.93695816666666, "fusion_lat": 0.0, "type": "electric_scooter", "lon": -77.05597216666666, "is_disabled": 0, "fusion_lon": 0.0, "rental_uris": {"android": "https://dc.lft.to/lastmile_qr_scan", "ios": "https://dc.lft.to/lastmile_qr_scan"}, "is_reserved": 0}, {"bike_id": "9faeecd23e7afb630a2e26d7037c1e04", "name": "9faeecd23e7afb630a2e26d7037c1e04", "lat": 38.91467933333333, "fusion_lat": 0.0, "type": "electric_scooter", "lon": -77.0321815, "is_disabled": 0, "fusion_lon": 0.0, "rental_uris": {"android": "https://dc.lft.to/lastmile_qr_scan", "ios": "https://dc.lft.to/lastmile_qr_scan"}, "is_reserved": 0}, {"bike_id": "31f0a53bf0134a6b97755f3fad410c98", "name": "31f0a53bf0134a6b97755f3fad410c98", "lat": 38.89224466666667, "fusion_lat": 0.0, "type": "electric_scooter", "lon": -77.04504883333334, "is_disabled": 0, "fusion_lon": 0.0, "rental_uris": {"android": "https://dc.lft.to/lastmile_qr_scan", "ios": "https://dc.lft.to/lastmile_qr_scan"}, "is_reserved": 0}, {"bike_id": "c2b0fe930b4d6bacc8e9a6581415416d", "name": "c2b0fe930b4d6bacc8e9a6581415416d", "lat": 38.898928, "fusion_lat": 0.0, "type": "electric_scooter", "lon": -76.980029, "is_disabled": 0, "fusion_lon": 0.0, "rental_uris": {"android": "https://dc.lft.to/lastmile_qr_scan", "ios": "https://dc.lft.to/lastmile_qr_scan"}, "is_reserved": 0}, {"bike_id": "4f218a238ab3f22cfa747ac27492b960", "name": "4f218a238ab3f22cfa747ac27492b960", "lat": 38.90363383333333, "fusion_lat": 0.0, "type": "electric_scooter", "lon": -77.02192633333334, "is_disabled": 0, "fusion_lon": 0.0, "rental_uris": {"android": "https://dc.lft.to/lastmile_qr_scan", "ios": "https://dc.lft.to/lastmile_qr_scan"}, "is_reserved": 0}, {"bike_id": "dfaf14e5a7a898dd334b5fa6904da320", "name": "dfaf14e5a7a898dd334b5fa6904da320", "lat": 38.974972666666666, "fusion_lat": 0.0, "type": "electric_scooter", "lon": -77.01694783333333, "is_disabled": 0, "fusion_lon": 0.0, "rental_uris": {"android": "https://dc.lft.to/lastmile_qr_scan", "ios": "https://dc.lft.to/lastmile_qr_scan"}, "is_reserved": 0}, {"bike_id": "0535bee48ff7a867911d654c29c7060e", "name": "0535bee48ff7a867911d654c29c7060e", "lat": 38.914212166666665, "fusion_lat": 0.0, "type": "electric_scooter", "lon": -77.03173033333333, "is_disabled": 0, "fusion_lon": 0.0, "rental_uris": {"android": "https://dc.lft.to/lastmile_qr_scan", "ios": "https://dc.lft.to/lastmile_qr_scan"}, "is_reserved": 0}, {"bike_id": "eb18883a8d46a1427ed0ede4e75d725e", "name": "eb18883a8d46a1427ed0ede4e75d725e", "lat": 38.97312266666667, "fusion_lat": 0.0, "type": "electric_bike", "lon": -76.99477933333333, "is_disabled": 0, "fusion_lon": 0.0, "rental_uris": {"android": "https://dc.lft.to/lastmile_qr_scan", "ios": "https://dc.lft.to/lastmile_qr_scan"}, "is_reserved": 0}, {"bike_id": "b199b0042803079fc17fb303b3930aab", "name": "b199b0042803079fc17fb303b3930aab", "lat": 38.9192305, "fusion_lat": 0.0, "type": "electric_scooter", "lon": -77.07273616666667, "is_disabled": 0, "fusion_lon": 0.0, "rental_uris": {"android": "https://dc.lft.to/lastmile_qr_scan", "ios": "https://dc.lft.to/lastmile_qr_scan"}, "is_reserved": 0}, {"bike_id": "f86da71b8fe1f56b24679e825d9a937d", "name": "f86da71b8fe1f56b24679e825d9a937d", "lat": 38.92308766666667, "fusion_lat": 0.0, "type": "electric_scooter", "lon": -76.99769216666667, "is_disabled": 0, "fusion_lon": 0.0, "rental_uris": {"android": "https://dc.lft.to/lastmile_qr_scan", "ios": "https://dc.lft.to/lastmile_qr_scan"}, "is_reserved": 0}, {"bike_id": "5a81881df57371d35b7865abb8a2ddcd", "name": "5a81881df57371d35b7865abb8a2ddcd", "lat": 38.907226333333334, "fusion_lat": 0.0, "type": "electric_scooter", "lon": -77.00350883333333, "is_disabled": 0, "fusion_lon": 0.0, "rental_uris": {"android": "https://dc.lft.to/lastmile_qr_scan", "ios": "https://dc.lft.to/lastmile_qr_scan"}, "is_reserved": 0}, {"bike_id": "2a8fb28de6f695ec45201617714f1b46", "name": "2a8fb28de6f695ec45201617714f1b46", "lat": 38.87877783333333, "fusion_lat": 0.0, "type": "electric_scooter", "lon": -77.022261, "is_disabled": 0, "fusion_lon": 0.0, "rental_uris": {"android": "https://dc.lft.to/lastmile_qr_scan", "ios": "https://dc.lft.to/lastmile_qr_scan"}, "is_reserved": 0}, {"bike_id": "b9be1d415d16a4c1e13527b984297fbc", "name": "b9be1d415d16a4c1e13527b984297fbc", "lat": 38.920300833333336, "fusion_lat": 0.0, "type": "electric_scooter", "lon": -77.0103155, "is_disabled": 0, "fusion_lon": 0.0, "rental_uris": {"android": "https://dc.lft.to/lastmile_qr_scan", "ios": "https://dc.lft.to/lastmile_qr_scan"}, "is_reserved": 0}, {"bike_id": "b37bf36c475acd7a0de5454072c0fd7c", "name": "b37bf36c475acd7a0de5454072c0fd7c", "lat": 38.908757333333334, "fusion_lat": 0.0, "type": "electric_scooter", "lon": -77.03870566666667, "is_disabled": 0, "fusion_lon": 0.0, "rental_uris": {"android": "https://dc.lft.to/lastmile_qr_scan", "ios": "https://dc.lft.to/lastmile_qr_scan"}, "is_reserved": 0}, {"bike_id": "62d7edb1470452926986010f5987f070", "name": "62d7edb1470452926986010f5987f070", "lat": 38.8882135, "fusion_lat": 0.0, "type": "electric_scooter", "lon": -77.00192433333333, "is_disabled": 0, "fusion_lon": 0.0, "rental_uris": {"android": "https://dc.lft.to/lastmile_qr_scan", "ios": "https://dc.lft.to/lastmile_qr_scan"}, "is_reserved": 0}, {"bike_id": "630391d551b18c9a0b096497e2b70350", "name": "630391d551b18c9a0b096497e2b70350", "lat": 38.898193666666664, "fusion_lat": 0.0, "type": "electric_scooter", "lon": -77.033432, "is_disabled": 0, "fusion_lon": 0.0, "rental_uris": {"android": "https://dc.lft.to/lastmile_qr_scan", "ios": "https://dc.lft.to/lastmile_qr_scan"}, "is_reserved": 0}, {"bike_id": "98e96095fc9c733d4f95c5e16ac31f76", "name": "98e96095fc9c733d4f95c5e16ac31f76", "lat": 38.943118166666665, "fusion_lat": 0.0, "type": "electric_scooter", "lon": -77.0217835, "is_disabled": 0, "fusion_lon": 0.0, "rental_uris": {"android": "https://dc.lft.to/lastmile_qr_scan", "ios": "https://dc.lft.to/lastmile_qr_scan"}, "is_reserved": 0}, {"bike_id": "2f34fb20e8187bb3bea02d8c287fbcb3", "name": "2f34fb20e8187bb3bea02d8c287fbcb3", "lat": 38.87399583333333, "fusion_lat": 0.0, "type": "electric_scooter", "lon": -77.0002365, "is_disabled": 0, "fusion_lon": 0.0, "rental_uris": {"android": "https://dc.lft.to/lastmile_qr_scan", "ios": "https://dc.lft.to/lastmile_qr_scan"}, "is_reserved": 0}, {"bike_id": "453e8b102ad44bf7ad129fc90a4a1b36", "name": "453e8b102ad44bf7ad129fc90a4a1b36", "lat": 38.91418183333333, "fusion_lat": 0.0, "type": "electric_scooter", "lon": -77.03206483333334, "is_disabled": 0, "fusion_lon": 0.0, "rental_uris": {"android": "https://dc.lft.to/lastmile_qr_scan", "ios": "https://dc.lft.to/lastmile_qr_scan"}, "is_reserved": 0}, {"bike_id": "88062bbace77d58b08aeff101852f102", "name": "88062bbace77d58b08aeff101852f102", "lat": 38.923444833333335, "fusion_lat": 0.0, "type": "electric_scooter", "lon": -77.0419755, "is_disabled": 0, "fusion_lon": 0.0, "rental_uris": {"android": "https://dc.lft.to/lastmile_qr_scan", "ios": "https://dc.lft.to/lastmile_qr_scan"}, "is_reserved": 0}, {"bike_id": "770ea6688aa9e57a80a504b3abde6e6c", "name": "770ea6688aa9e57a80a504b3abde6e6c", "lat": 38.8994925, "fusion_lat": 0.0, "type": "electric_scooter", "lon": -77.02687583333334, "is_disabled": 0, "fusion_lon": 0.0, "rental_uris": {"android": "https://dc.lft.to/lastmile_qr_scan", "ios": "https://dc.lft.to/lastmile_qr_scan"}, "is_reserved": 0}, {"bike_id": "f5dddbef20a42ad277b57ea7cec16b5f", "name": "f5dddbef20a42ad277b57ea7cec16b5f", "lat": 38.9024605, "fusion_lat": 0.0, "type": "electric_scooter", "lon": -77.04365283333334, "is_disabled": 0, "fusion_lon": 0.0, "rental_uris": {"android": "https://dc.lft.to/lastmile_qr_scan", "ios": "https://dc.lft.to/lastmile_qr_scan"}, "is_reserved": 0}, {"bike_id": "b596f2a106a396218244de6d0dfe8c5c", "name": "b596f2a106a396218244de6d0dfe8c5c", "lat": 38.9095595, "fusion_lat": 0.0, "type": "electric_scooter", "lon": -77.04576666666667, "is_disabled": 0, "fusion_lon": 0.0, "rental_uris": {"android": "https://dc.lft.to/lastmile_qr_scan", "ios": "https://dc.lft.to/lastmile_qr_scan"}, "is_reserved": 0}, {"bike_id": "1141c14431ce65935ae143ad90269b9b", "name": "1141c14431ce65935ae143ad90269b9b", "lat": 38.89839533333333, "fusion_lat": 0.0, "type": "electric_scooter", "lon": -77.02927733333334, "is_disabled": 0, "fusion_lon": 0.0, "rental_uris": {"android": "https://dc.lft.to/lastmile_qr_scan", "ios": "https://dc.lft.to/lastmile_qr_scan"}, "is_reserved": 0}, {"bike_id": "872af926a7169ecbef6ff142c64f4983", "name": "872af926a7169ecbef6ff142c64f4983", "lat": 38.890413833333334, "fusion_lat": 0.0, "type": "electric_scooter", "lon": -76.95246483333334, "is_disabled": 0, "fusion_lon": 0.0, "rental_uris": {"android": "https://dc.lft.to/lastmile_qr_scan", "ios": "https://dc.lft.to/lastmile_qr_scan"}, "is_reserved": 0}, {"bike_id": "70bad01cd5977c01a8db38843a7577a6", "name": "70bad01cd5977c01a8db38843a7577a6", "lat": 38.87851116666667, "fusion_lat": 0.0, "type": "electric_scooter", "lon": -76.98293016666666, "is_disabled": 0, "fusion_lon": 0.0, "rental_uris": {"android": "https://dc.lft.to/lastmile_qr_scan", "ios": "https://dc.lft.to/lastmile_qr_scan"}, "is_reserved": 0}, {"bike_id": "3cf1855e5c98803c34b5aa7b25404515", "name": "3cf1855e5c98803c34b5aa7b25404515", "lat": 38.91811883333333, "fusion_lat": 0.0, "type": "electric_scooter", "lon": -77.03167833333333, "is_disabled": 0, "fusion_lon": 0.0, "rental_uris": {"android": "https://dc.lft.to/lastmile_qr_scan", "ios": "https://dc.lft.to/lastmile_qr_scan"}, "is_reserved": 0}, {"bike_id": "67661ddf8abd444dae564f2bb5f8b304", "name": "67661ddf8abd444dae564f2bb5f8b304", "lat": 38.909835666666666, "fusion_lat": 0.0, "type": "electric_scooter", "lon": -77.03179683333333, "is_disabled": 0, "fusion_lon": 0.0, "rental_uris": {"android": "https://dc.lft.to/lastmile_qr_scan", "ios": "https://dc.lft.to/lastmile_qr_scan"}, "is_reserved": 0}, {"bike_id": "db398c9ecf3b932a27102cecf030c5d9", "name": "db398c9ecf3b932a27102cecf030c5d9", "lat": 38.916743833333335, "fusion_lat": 0.0, "type": "electric_scooter", "lon": -77.02716133333334, "is_disabled": 0, "fusion_lon": 0.0, "rental_uris": {"android": "https://dc.lft.to/lastmile_qr_scan", "ios": "https://dc.lft.to/lastmile_qr_scan"}, "is_reserved": 0}, {"bike_id": "fc5039f228b27e0e4418079f6cc6ce16", "name": "fc5039f228b27e0e4418079f6cc6ce16", "lat": 38.92238966666667, "fusion_lat": 0.0, "type": "electric_scooter", "lon": -77.0375855, "is_disabled": 0, "fusion_lon": 0.0, "rental_uris": {"android": "https://dc.lft.to/lastmile_qr_scan", "ios": "https://dc.lft.to/lastmile_qr_scan"}, "is_reserved": 0}, {"bike_id": "c13b1d163f00e8a423ee304e1bd73881", "name": "c13b1d163f00e8a423ee304e1bd73881", "lat": 38.915283, "fusion_lat": 0.0, "type": "electric_scooter", "lon": -77.02178466666666, "is_disabled": 0, "fusion_lon": 0.0, "rental_uris": {"android": "https://dc.lft.to/lastmile_qr_scan", "ios": "https://dc.lft.to/lastmile_qr_scan"}, "is_reserved": 0}, {"bike_id": "b8bcf6305c8c9bcd94788a952f27b499", "name": "b8bcf6305c8c9bcd94788a952f27b499", "lat": 38.908545833333335, "fusion_lat": 0.0, "type": "electric_scooter", "lon": -77.03196966666667, "is_disabled": 0, "fusion_lon": 0.0, "rental_uris": {"android": "https://dc.lft.to/lastmile_qr_scan", "ios": "https://dc.lft.to/lastmile_qr_scan"}, "is_reserved": 0}, {"bike_id": "9782489f93c80c213ed39b960d9deb6e", "name": "9782489f93c80c213ed39b960d9deb6e", "lat": 38.9027355, "fusion_lat": 0.0, "type": "electric_scooter", "lon": -77.017735, "is_disabled": 0, "fusion_lon": 0.0, "rental_uris": {"android": "https://dc.lft.to/lastmile_qr_scan", "ios": "https://dc.lft.to/lastmile_qr_scan"}, "is_reserved": 0}, {"bike_id": "5b95c66269617411af9edc7114c241a6", "name": "5b95c66269617411af9edc7114c241a6", "lat": 38.975226666666664, "fusion_lat": 0.0, "type": "electric_scooter", "lon": -77.01739283333333, "is_disabled": 0, "fusion_lon": 0.0, "rental_uris": {"android": "https://dc.lft.to/lastmile_qr_scan", "ios": "https://dc.lft.to/lastmile_qr_scan"}, "is_reserved": 0}, {"bike_id": "d31a683aca9a299bf0424004ee661194", "name": "d31a683aca9a299bf0424004ee661194", "lat": 38.903476, "fusion_lat": 0.0, "type": "electric_scooter", "lon": -76.98613166666667, "is_disabled": 0, "fusion_lon": 0.0, "rental_uris": {"android": "https://dc.lft.to/lastmile_qr_scan", "ios": "https://dc.lft.to/lastmile_qr_scan"}, "is_reserved": 0}, {"bike_id": "95f33b6086940c3fd080ddcb01e39177", "name": "95f33b6086940c3fd080ddcb01e39177", "lat": 38.90254566666667, "fusion_lat": 0.0, "type": "electric_scooter", "lon": -77.02812183333333, "is_disabled": 0, "fusion_lon": 0.0, "rental_uris": {"android": "https://dc.lft.to/lastmile_qr_scan", "ios": "https://dc.lft.to/lastmile_qr_scan"}, "is_reserved": 0}, {"bike_id": "830a7b81c31cae840f04d19f715f474a", "name": "830a7b81c31cae840f04d19f715f474a", "lat": 38.902553833333336, "fusion_lat": 0.0, "type": "electric_scooter", "lon": -77.03766483333334, "is_disabled": 0, "fusion_lon": 0.0, "rental_uris": {"android": "https://dc.lft.to/lastmile_qr_scan", "ios": "https://dc.lft.to/lastmile_qr_scan"}, "is_reserved": 0}, {"bike_id": "04d87f8151d2ef631e215f9110e405c2", "name": "04d87f8151d2ef631e215f9110e405c2", "lat": 38.914240666666664, "fusion_lat": 0.0, "type": "electric_scooter", "lon": -77.01802033333334, "is_disabled": 0, "fusion_lon": 0.0, "rental_uris": {"android": "https://dc.lft.to/lastmile_qr_scan", "ios": "https://dc.lft.to/lastmile_qr_scan"}, "is_reserved": 0}, {"bike_id": "29e0dc6ad7e926821a9b05856a522188", "name": "29e0dc6ad7e926821a9b05856a522188", "lat": 38.9510195, "fusion_lat": 0.0, "type": "electric_scooter", "lon": -77.028028, "is_disabled": 0, "fusion_lon": 0.0, "rental_uris": {"android": "https://dc.lft.to/lastmile_qr_scan", "ios": "https://dc.lft.to/lastmile_qr_scan"}, "is_reserved": 0}, {"bike_id": "7dbfad7ea41790ba5eb6452c12c6d058", "name": "7dbfad7ea41790ba5eb6452c12c6d058", "lat": 38.93017583333334, "fusion_lat": 0.0, "type": "electric_scooter", "lon": -77.02325666666667, "is_disabled": 0, "fusion_lon": 0.0, "rental_uris": {"android": "https://dc.lft.to/lastmile_qr_scan", "ios": "https://dc.lft.to/lastmile_qr_scan"}, "is_reserved": 0}, {"bike_id": "af6951c17f849e71d6f1cf86d861033a", "name": "af6951c17f849e71d6f1cf86d861033a", "lat": 38.9178005, "fusion_lat": 0.0, "type": "electric_scooter", "lon": -77.04094683333334, "is_disabled": 0, "fusion_lon": 0.0, "rental_uris": {"android": "https://dc.lft.to/lastmile_qr_scan", "ios": "https://dc.lft.to/lastmile_qr_scan"}, "is_reserved": 0}, {"bike_id": "38f164c4cc60cf2f241edcd4731308b9", "name": "38f164c4cc60cf2f241edcd4731308b9", "lat": 38.896489333333335, "fusion_lat": 0.0, "type": "electric_bike", "lon": -76.990321, "is_disabled": 0, "fusion_lon": 0.0, "rental_uris": {"android": "https://dc.lft.to/lastmile_qr_scan", "ios": "https://dc.lft.to/lastmile_qr_scan"}, "is_reserved": 0}, {"bike_id": "215eb4b17b5f1e7aac4d45cb1e6b1b28", "name": "215eb4b17b5f1e7aac4d45cb1e6b1b28", "lat": 38.940276833333336, "fusion_lat": 0.0, "type": "electric_scooter", "lon": -77.02637783333333, "is_disabled": 0, "fusion_lon": 0.0, "rental_uris": {"android": "https://dc.lft.to/lastmile_qr_scan", "ios": "https://dc.lft.to/lastmile_qr_scan"}, "is_reserved": 0}, {"bike_id": "7ec99ab8674d28a9dabfa995fb32637e", "name": "7ec99ab8674d28a9dabfa995fb32637e", "lat": 38.886635166666665, "fusion_lat": 0.0, "type": "electric_bike", "lon": -77.16234333333334, "is_disabled": 0, "fusion_lon": 0.0, "rental_uris": {"android": "https://dc.lft.to/lastmile_qr_scan", "ios": "https://dc.lft.to/lastmile_qr_scan"}, "is_reserved": 0}, {"bike_id": "483884eeac98005154823bfee46ef1c6", "name": "483884eeac98005154823bfee46ef1c6", "lat": 38.91773116666667, "fusion_lat": 0.0, "type": "electric_scooter", "lon": -77.03190366666666, "is_disabled": 0, "fusion_lon": 0.0, "rental_uris": {"android": "https://dc.lft.to/lastmile_qr_scan", "ios": "https://dc.lft.to/lastmile_qr_scan"}, "is_reserved": 0}, {"bike_id": "7dafa31bc5e11e95629922c5c11e7d51", "name": "7dafa31bc5e11e95629922c5c11e7d51", "lat": 38.864335833333335, "fusion_lat": 0.0, "type": "electric_scooter", "lon": -76.99862366666666, "is_disabled": 0, "fusion_lon": 0.0, "rental_uris": {"android": "https://dc.lft.to/lastmile_qr_scan", "ios": "https://dc.lft.to/lastmile_qr_scan"}, "is_reserved": 0}, {"bike_id": "f1d4f991593312af8ad86030eac3d1e7", "name": "f1d4f991593312af8ad86030eac3d1e7", "lat": 38.90237166666667, "fusion_lat": 0.0, "type": "electric_scooter", "lon": -77.02686683333333, "is_disabled": 0, "fusion_lon": 0.0, "rental_uris": {"android": "https://dc.lft.to/lastmile_qr_scan", "ios": "https://dc.lft.to/lastmile_qr_scan"}, "is_reserved": 0}, {"bike_id": "69ebb67a9282923cf7bad5ade2d70d1f", "name": "69ebb67a9282923cf7bad5ade2d70d1f", "lat": 38.90969616666667, "fusion_lat": 0.0, "type": "electric_scooter", "lon": -77.032204, "is_disabled": 0, "fusion_lon": 0.0, "rental_uris": {"android": "https://dc.lft.to/lastmile_qr_scan", "ios": "https://dc.lft.to/lastmile_qr_scan"}, "is_reserved": 0}, {"bike_id": "647919a7d55019b791ff535b70381258", "name": "647919a7d55019b791ff535b70381258", "lat": 38.900657333333335, "fusion_lat": 0.0, "type": "electric_scooter", "lon": -76.9868795, "is_disabled": 0, "fusion_lon": 0.0, "rental_uris": {"android": "https://dc.lft.to/lastmile_qr_scan", "ios": "https://dc.lft.to/lastmile_qr_scan"}, "is_reserved": 0}, {"bike_id": "d69febb345c8c7f6956ad62fceb3126d", "name": "d69febb345c8c7f6956ad62fceb3126d", "lat": 38.90847216666667, "fusion_lat": 0.0, "type": "electric_scooter", "lon": -77.05572683333334, "is_disabled": 0, "fusion_lon": 0.0, "rental_uris": {"android": "https://dc.lft.to/lastmile_qr_scan", "ios": "https://dc.lft.to/lastmile_qr_scan"}, "is_reserved": 0}, {"bike_id": "235e373f6027755fbd630224728649da", "name": "235e373f6027755fbd630224728649da", "lat": 38.94304566666667, "fusion_lat": 0.0, "type": "electric_scooter", "lon": -77.0593195, "is_disabled": 0, "fusion_lon": 0.0, "rental_uris": {"android": "https://dc.lft.to/lastmile_qr_scan", "ios": "https://dc.lft.to/lastmile_qr_scan"}, "is_reserved": 0}, {"bike_id": "d2e923504d1ed4dcc02daeb9b1c20a5c", "name": "d2e923504d1ed4dcc02daeb9b1c20a5c", "lat": 38.96133183333333, "fusion_lat": 0.0, "type": "electric_scooter", "lon": -77.08471383333334, "is_disabled": 0, "fusion_lon": 0.0, "rental_uris": {"android": "https://dc.lft.to/lastmile_qr_scan", "ios": "https://dc.lft.to/lastmile_qr_scan"}, "is_reserved": 0}, {"bike_id": "ca7ddc317e70dd7075bbbd9cd44ddd7d", "name": "ca7ddc317e70dd7075bbbd9cd44ddd7d", "lat": 38.89735533333333, "fusion_lat": 0.0, "type": "electric_scooter", "lon": -77.04708916666667, "is_disabled": 0, "fusion_lon": 0.0, "rental_uris": {"android": "https://dc.lft.to/lastmile_qr_scan", "ios": "https://dc.lft.to/lastmile_qr_scan"}, "is_reserved": 0}, {"bike_id": "d1daad9102526dab0aa9628af593e7fb", "name": "d1daad9102526dab0aa9628af593e7fb", "lat": 38.90133433333333, "fusion_lat": 0.0, "type": "electric_scooter", "lon": -77.0463685, "is_disabled": 0, "fusion_lon": 0.0, "rental_uris": {"android": "https://dc.lft.to/lastmile_qr_scan", "ios": "https://dc.lft.to/lastmile_qr_scan"}, "is_reserved": 0}, {"bike_id": "b2af0cfdd129b80351940276fb372f48", "name": "b2af0cfdd129b80351940276fb372f48", "lat": 38.90295783333333, "fusion_lat": 0.0, "type": "electric_scooter", "lon": -76.93416166666667, "is_disabled": 0, "fusion_lon": 0.0, "rental_uris": {"android": "https://dc.lft.to/lastmile_qr_scan", "ios": "https://dc.lft.to/lastmile_qr_scan"}, "is_reserved": 0}, {"bike_id": "e9017d4ce867941eee69d7acc91f6485", "name": "e9017d4ce867941eee69d7acc91f6485", "lat": 38.887315, "fusion_lat": 0.0, "type": "electric_scooter", "lon": -77.02813816666666, "is_disabled": 0, "fusion_lon": 0.0, "rental_uris": {"android": "https://dc.lft.to/lastmile_qr_scan", "ios": "https://dc.lft.to/lastmile_qr_scan"}, "is_reserved": 0}, {"bike_id": "1659a9e39b6b99e0455814ab019cb486", "name": "1659a9e39b6b99e0455814ab019cb486", "lat": 38.92140583333333, "fusion_lat": 0.0, "type": "electric_scooter", "lon": -77.017979, "is_disabled": 0, "fusion_lon": 0.0, "rental_uris": {"android": "https://dc.lft.to/lastmile_qr_scan", "ios": "https://dc.lft.to/lastmile_qr_scan"}, "is_reserved": 0}, {"bike_id": "1a1f933686dfc5f22413aa645766b012", "name": "1a1f933686dfc5f22413aa645766b012", "lat": 38.91405983333333, "fusion_lat": 0.0, "type": "electric_scooter", "lon": -77.02886516666666, "is_disabled": 0, "fusion_lon": 0.0, "rental_uris": {"android": "https://dc.lft.to/lastmile_qr_scan", "ios": "https://dc.lft.to/lastmile_qr_scan"}, "is_reserved": 0}, {"bike_id": "c7ca2f66f22e9e975f8a727bb81c5563", "name": "c7ca2f66f22e9e975f8a727bb81c5563", "lat": 38.92122616666666, "fusion_lat": 0.0, "type": "electric_scooter", "lon": -77.04227566666667, "is_disabled": 0, "fusion_lon": 0.0, "rental_uris": {"android": "https://dc.lft.to/lastmile_qr_scan", "ios": "https://dc.lft.to/lastmile_qr_scan"}, "is_reserved": 0}, {"bike_id": "01dc1b84ec795e50719cd601c046e3d2", "name": "01dc1b84ec795e50719cd601c046e3d2", "lat": 38.9162455, "fusion_lat": 0.0, "type": "electric_scooter", "lon": -77.03176183333333, "is_disabled": 0, "fusion_lon": 0.0, "rental_uris": {"android": "https://dc.lft.to/lastmile_qr_scan", "ios": "https://dc.lft.to/lastmile_qr_scan"}, "is_reserved": 0}, {"bike_id": "8343c783f0ce43bc62faafb970807dfb", "name": "8343c783f0ce43bc62faafb970807dfb", "lat": 38.945149, "fusion_lat": 0.0, "type": "electric_scooter", "lon": -77.03368233333333, "is_disabled": 0, "fusion_lon": 0.0, "rental_uris": {"android": "https://dc.lft.to/lastmile_qr_scan", "ios": "https://dc.lft.to/lastmile_qr_scan"}, "is_reserved": 0}, {"bike_id": "29250895b0dd6294734c07393b25c380", "name": "29250895b0dd6294734c07393b25c380", "lat": 38.921387333333335, "fusion_lat": 0.0, "type": "electric_scooter", "lon": -77.0180545, "is_disabled": 0, "fusion_lon": 0.0, "rental_uris": {"android": "https://dc.lft.to/lastmile_qr_scan", "ios": "https://dc.lft.to/lastmile_qr_scan"}, "is_reserved": 0}, {"bike_id": "23bcaf1a3fc2c0026c9896a13fa93b5f", "name": "23bcaf1a3fc2c0026c9896a13fa93b5f", "lat": 38.930607333333334, "fusion_lat": 0.0, "type": "electric_scooter", "lon": -77.03946683333334, "is_disabled": 0, "fusion_lon": 0.0, "rental_uris": {"android": "https://dc.lft.to/lastmile_qr_scan", "ios": "https://dc.lft.to/lastmile_qr_scan"}, "is_reserved": 0}, {"bike_id": "31aa0e1793624eaf5d9884146e6122cb", "name": "31aa0e1793624eaf5d9884146e6122cb", "lat": 38.905142833333336, "fusion_lat": 0.0, "type": "electric_scooter", "lon": -77.043526, "is_disabled": 0, "fusion_lon": 0.0, "rental_uris": {"android": "https://dc.lft.to/lastmile_qr_scan", "ios": "https://dc.lft.to/lastmile_qr_scan"}, "is_reserved": 0}, {"bike_id": "53126bab9e411d64459ac04c4943baa0", "name": "53126bab9e411d64459ac04c4943baa0", "lat": 38.91565133333334, "fusion_lat": 0.0, "type": "electric_scooter", "lon": -77.031349, "is_disabled": 0, "fusion_lon": 0.0, "rental_uris": {"android": "https://dc.lft.to/lastmile_qr_scan", "ios": "https://dc.lft.to/lastmile_qr_scan"}, "is_reserved": 0}, {"bike_id": "e45adf3d8fbb67c8d879595f8a403664", "name": "e45adf3d8fbb67c8d879595f8a403664", "lat": 38.906660333333335, "fusion_lat": 0.0, "type": "electric_scooter", "lon": -76.9795015, "is_disabled": 0, "fusion_lon": 0.0, "rental_uris": {"android": "https://dc.lft.to/lastmile_qr_scan", "ios": "https://dc.lft.to/lastmile_qr_scan"}, "is_reserved": 0}, {"bike_id": "73880de5ae4040e70be76c6d89fdfc61", "name": "73880de5ae4040e70be76c6d89fdfc61", "lat": 38.91700683333333, "fusion_lat": 0.0, "type": "electric_scooter", "lon": -77.03161466666667, "is_disabled": 0, "fusion_lon": 0.0, "rental_uris": {"android": "https://dc.lft.to/lastmile_qr_scan", "ios": "https://dc.lft.to/lastmile_qr_scan"}, "is_reserved": 0}, {"bike_id": "ebfa4c1cfc27c08b77f37aa6b20f7415", "name": "ebfa4c1cfc27c08b77f37aa6b20f7415", "lat": 38.9052575, "fusion_lat": 0.0, "type": "electric_scooter", "lon": -76.9839855, "is_disabled": 0, "fusion_lon": 0.0, "rental_uris": {"android": "https://dc.lft.to/lastmile_qr_scan", "ios": "https://dc.lft.to/lastmile_qr_scan"}, "is_reserved": 0}, {"bike_id": "4c78163761d4d08553df42da1cff9c7f", "name": "4c78163761d4d08553df42da1cff9c7f", "lat": 38.923657, "fusion_lat": 0.0, "type": "electric_scooter", "lon": -77.01914616666667, "is_disabled": 0, "fusion_lon": 0.0, "rental_uris": {"android": "https://dc.lft.to/lastmile_qr_scan", "ios": "https://dc.lft.to/lastmile_qr_scan"}, "is_reserved": 0}, {"bike_id": "810a68d88cd3f63344533c222abc46c3", "name": "810a68d88cd3f63344533c222abc46c3", "lat": 38.907329833333336, "fusion_lat": 0.0, "type": "electric_bike", "lon": -77.03193616666667, "is_disabled": 0, "fusion_lon": 0.0, "rental_uris": {"android": "https://dc.lft.to/lastmile_qr_scan", "ios": "https://dc.lft.to/lastmile_qr_scan"}, "is_reserved": 0}, {"bike_id": "15569643a766405fffc8237245431ac3", "name": "15569643a766405fffc8237245431ac3", "lat": 38.90879483333333, "fusion_lat": 0.0, "type": "electric_scooter", "lon": -77.06756816666666, "is_disabled": 0, "fusion_lon": 0.0, "rental_uris": {"android": "https://dc.lft.to/lastmile_qr_scan", "ios": "https://dc.lft.to/lastmile_qr_scan"}, "is_reserved": 0}, {"bike_id": "0b02ce91ae08327a9a0b587232d8ef3d", "name": "0b02ce91ae08327a9a0b587232d8ef3d", "lat": 38.91589583333333, "fusion_lat": 0.0, "type": "electric_scooter", "lon": -77.04541666666667, "is_disabled": 0, "fusion_lon": 0.0, "rental_uris": {"android": "https://dc.lft.to/lastmile_qr_scan", "ios": "https://dc.lft.to/lastmile_qr_scan"}, "is_reserved": 0}, {"bike_id": "8dd7ea671798e26a48f4efd9b7871163", "name": "8dd7ea671798e26a48f4efd9b7871163", "lat": 38.897454833333335, "fusion_lat": 0.0, "type": "electric_scooter", "lon": -77.01270566666666, "is_disabled": 0, "fusion_lon": 0.0, "rental_uris": {"android": "https://dc.lft.to/lastmile_qr_scan", "ios": "https://dc.lft.to/lastmile_qr_scan"}, "is_reserved": 0}, {"bike_id": "d451e289643086cb6fa54542f84799b2", "name": "d451e289643086cb6fa54542f84799b2", "lat": 38.926710666666665, "fusion_lat": 0.0, "type": "electric_scooter", "lon": -77.02760533333333, "is_disabled": 0, "fusion_lon": 0.0, "rental_uris": {"android": "https://dc.lft.to/lastmile_qr_scan", "ios": "https://dc.lft.to/lastmile_qr_scan"}, "is_reserved": 0}, {"bike_id": "65f20281f84d623de859c248ffcdb1c1", "name": "65f20281f84d623de859c248ffcdb1c1", "lat": 38.904438166666665, "fusion_lat": 0.0, "type": "electric_scooter", "lon": -77.051464, "is_disabled": 0, "fusion_lon": 0.0, "rental_uris": {"android": "https://dc.lft.to/lastmile_qr_scan", "ios": "https://dc.lft.to/lastmile_qr_scan"}, "is_reserved": 0}, {"bike_id": "3ca42a521776ce5d3c944a36cff2a1dd", "name": "3ca42a521776ce5d3c944a36cff2a1dd", "lat": 38.921633166666666, "fusion_lat": 0.0, "type": "electric_scooter", "lon": -77.07304216666667, "is_disabled": 0, "fusion_lon": 0.0, "rental_uris": {"android": "https://dc.lft.to/lastmile_qr_scan", "ios": "https://dc.lft.to/lastmile_qr_scan"}, "is_reserved": 0}, {"bike_id": "3712e39b20a8ef5ed39beb2194d35d5a", "name": "3712e39b20a8ef5ed39beb2194d35d5a", "lat": 38.927213, "fusion_lat": 0.0, "type": "electric_scooter", "lon": -77.02085883333334, "is_disabled": 0, "fusion_lon": 0.0, "rental_uris": {"android": "https://dc.lft.to/lastmile_qr_scan", "ios": "https://dc.lft.to/lastmile_qr_scan"}, "is_reserved": 0}, {"bike_id": "43c77b2b3760445a8c878ac6efb7daf6", "name": "43c77b2b3760445a8c878ac6efb7daf6", "lat": 38.88163383333333, "fusion_lat": 0.0, "type": "electric_scooter", "lon": -77.027723, "is_disabled": 0, "fusion_lon": 0.0, "rental_uris": {"android": "https://dc.lft.to/lastmile_qr_scan", "ios": "https://dc.lft.to/lastmile_qr_scan"}, "is_reserved": 0}, {"bike_id": "f6859f2711cf553cd4e53840fd94b03c", "name": "f6859f2711cf553cd4e53840fd94b03c", "lat": 38.870839333333336, "fusion_lat": 0.0, "type": "electric_bike", "lon": -77.1104565, "is_disabled": 0, "fusion_lon": 0.0, "rental_uris": {"android": "https://dc.lft.to/lastmile_qr_scan", "ios": "https://dc.lft.to/lastmile_qr_scan"}, "is_reserved": 0}, {"bike_id": "e03acb6979760870f9d25a3c87bf3ba1", "name": "e03acb6979760870f9d25a3c87bf3ba1", "lat": 38.9021865, "fusion_lat": 0.0, "type": "electric_scooter", "lon": -77.0227615, "is_disabled": 0, "fusion_lon": 0.0, "rental_uris": {"android": "https://dc.lft.to/lastmile_qr_scan", "ios": "https://dc.lft.to/lastmile_qr_scan"}, "is_reserved": 0}, {"bike_id": "c76a0e17ab61339b92c28cfd92ba798f", "name": "c76a0e17ab61339b92c28cfd92ba798f", "lat": 38.9128545, "fusion_lat": 0.0, "type": "electric_bike", "lon": -77.04480583333333, "is_disabled": 0, "fusion_lon": 0.0, "rental_uris": {"android": "https://dc.lft.to/lastmile_qr_scan", "ios": "https://dc.lft.to/lastmile_qr_scan"}, "is_reserved": 0}, {"bike_id": "3191920ce78f774fb9fe655dc69721e3", "name": "3191920ce78f774fb9fe655dc69721e3", "lat": 38.883378, "fusion_lat": 0.0, "type": "electric_scooter", "lon": -76.94284216666667, "is_disabled": 0, "fusion_lon": 0.0, "rental_uris": {"android": "https://dc.lft.to/lastmile_qr_scan", "ios": "https://dc.lft.to/lastmile_qr_scan"}, "is_reserved": 0}, {"bike_id": "4abc902cbcfe0f21d442aa58f6c93c54", "name": "4abc902cbcfe0f21d442aa58f6c93c54", "lat": 38.88429716666667, "fusion_lat": 0.0, "type": "electric_scooter", "lon": -77.02552, "is_disabled": 0, "fusion_lon": 0.0, "rental_uris": {"android": "https://dc.lft.to/lastmile_qr_scan", "ios": "https://dc.lft.to/lastmile_qr_scan"}, "is_reserved": 0}, {"bike_id": "b2e06ef85e9373e7082b2b96f054d1d4", "name": "b2e06ef85e9373e7082b2b96f054d1d4", "lat": 38.87943033333333, "fusion_lat": 0.0, "type": "electric_scooter", "lon": -77.00376183333333, "is_disabled": 0, "fusion_lon": 0.0, "rental_uris": {"android": "https://dc.lft.to/lastmile_qr_scan", "ios": "https://dc.lft.to/lastmile_qr_scan"}, "is_reserved": 0}, {"bike_id": "cdf20e5ca442e54c3849efc6c37a71ba", "name": "cdf20e5ca442e54c3849efc6c37a71ba", "lat": 38.89676583333333, "fusion_lat": 0.0, "type": "electric_scooter", "lon": -77.0051795, "is_disabled": 0, "fusion_lon": 0.0, "rental_uris": {"android": "https://dc.lft.to/lastmile_qr_scan", "ios": "https://dc.lft.to/lastmile_qr_scan"}, "is_reserved": 0}, {"bike_id": "fea5bbc2c88785d6a13682fe94ec2592", "name": "fea5bbc2c88785d6a13682fe94ec2592", "lat": 38.8841125, "fusion_lat": 0.0, "type": "electric_scooter", "lon": -77.03046266666666, "is_disabled": 0, "fusion_lon": 0.0, "rental_uris": {"android": "https://dc.lft.to/lastmile_qr_scan", "ios": "https://dc.lft.to/lastmile_qr_scan"}, "is_reserved": 0}, {"bike_id": "c24a7dc6b9e3fe44046f84f995f37b87", "name": "c24a7dc6b9e3fe44046f84f995f37b87", "lat": 38.9295195, "fusion_lat": 0.0, "type": "electric_scooter", "lon": -77.00408433333334, "is_disabled": 0, "fusion_lon": 0.0, "rental_uris": {"android": "https://dc.lft.to/lastmile_qr_scan", "ios": "https://dc.lft.to/lastmile_qr_scan"}, "is_reserved": 0}, {"bike_id": "04decfc804544ea048103406b33f403b", "name": "04decfc804544ea048103406b33f403b", "lat": 38.90959766666667, "fusion_lat": 0.0, "type": "electric_scooter", "lon": -77.04353433333333, "is_disabled": 0, "fusion_lon": 0.0, "rental_uris": {"android": "https://dc.lft.to/lastmile_qr_scan", "ios": "https://dc.lft.to/lastmile_qr_scan"}, "is_reserved": 0}, {"bike_id": "cae15ab62951f37cdb18de2dc5d88e49", "name": "cae15ab62951f37cdb18de2dc5d88e49", "lat": 38.91336, "fusion_lat": 0.0, "type": "electric_scooter", "lon": -77.011531, "is_disabled": 0, "fusion_lon": 0.0, "rental_uris": {"android": "https://dc.lft.to/lastmile_qr_scan", "ios": "https://dc.lft.to/lastmile_qr_scan"}, "is_reserved": 0}, {"bike_id": "4a6ccea5f07f8ce03ac8362c819fc36e", "name": "4a6ccea5f07f8ce03ac8362c819fc36e", "lat": 38.90476683333333, "fusion_lat": 0.0, "type": "electric_scooter", "lon": -77.035632, "is_disabled": 0, "fusion_lon": 0.0, "rental_uris": {"android": "https://dc.lft.to/lastmile_qr_scan", "ios": "https://dc.lft.to/lastmile_qr_scan"}, "is_reserved": 0}, {"bike_id": "53fad700cc9bf1c16e2a079a75dd0001", "name": "53fad700cc9bf1c16e2a079a75dd0001", "lat": 38.92078683333333, "fusion_lat": 0.0, "type": "electric_scooter", "lon": -77.025039, "is_disabled": 0, "fusion_lon": 0.0, "rental_uris": {"android": "https://dc.lft.to/lastmile_qr_scan", "ios": "https://dc.lft.to/lastmile_qr_scan"}, "is_reserved": 0}, {"bike_id": "ed13b7e81736971ec33caabda55e9a13", "name": "ed13b7e81736971ec33caabda55e9a13", "lat": 38.916920166666664, "fusion_lat": 0.0, "type": "electric_scooter", "lon": -77.02386833333334, "is_disabled": 0, "fusion_lon": 0.0, "rental_uris": {"android": "https://dc.lft.to/lastmile_qr_scan", "ios": "https://dc.lft.to/lastmile_qr_scan"}, "is_reserved": 0}, {"bike_id": "66a851ed9c7c92b84fb498c6326d6b61", "name": "66a851ed9c7c92b84fb498c6326d6b61", "lat": 38.9515215, "fusion_lat": 0.0, "type": "electric_scooter", "lon": -77.01867766666666, "is_disabled": 0, "fusion_lon": 0.0, "rental_uris": {"android": "https://dc.lft.to/lastmile_qr_scan", "ios": "https://dc.lft.to/lastmile_qr_scan"}, "is_reserved": 0}, {"bike_id": "62a6b832eada475e3673bf2013fd7ca4", "name": "62a6b832eada475e3673bf2013fd7ca4", "lat": 38.89984366666667, "fusion_lat": 0.0, "type": "electric_scooter", "lon": -77.02117983333333, "is_disabled": 0, "fusion_lon": 0.0, "rental_uris": {"android": "https://dc.lft.to/lastmile_qr_scan", "ios": "https://dc.lft.to/lastmile_qr_scan"}, "is_reserved": 0}, {"bike_id": "db45acd2f4608170ec9ac96da142db03", "name": "db45acd2f4608170ec9ac96da142db03", "lat": 38.91807583333333, "fusion_lat": 0.0, "type": "electric_scooter", "lon": -77.0330045, "is_disabled": 0, "fusion_lon": 0.0, "rental_uris": {"android": "https://dc.lft.to/lastmile_qr_scan", "ios": "https://dc.lft.to/lastmile_qr_scan"}, "is_reserved": 0}, {"bike_id": "de846ee0d4d9265aa8b074eaf817886b", "name": "de846ee0d4d9265aa8b074eaf817886b", "lat": 38.90585516666667, "fusion_lat": 0.0, "type": "electric_scooter", "lon": -77.0628865, "is_disabled": 0, "fusion_lon": 0.0, "rental_uris": {"android": "https://dc.lft.to/lastmile_qr_scan", "ios": "https://dc.lft.to/lastmile_qr_scan"}, "is_reserved": 0}, {"bike_id": "64c8e54dad511b88f17f03ee3af933dd", "name": "64c8e54dad511b88f17f03ee3af933dd", "lat": 38.897410666666666, "fusion_lat": 0.0, "type": "electric_scooter", "lon": -77.03367966666667, "is_disabled": 0, "fusion_lon": 0.0, "rental_uris": {"android": "https://dc.lft.to/lastmile_qr_scan", "ios": "https://dc.lft.to/lastmile_qr_scan"}, "is_reserved": 0}, {"bike_id": "226dfc90709e295ccb09224e94b3f35d", "name": "226dfc90709e295ccb09224e94b3f35d", "lat": 38.9135885, "fusion_lat": 0.0, "type": "electric_scooter", "lon": -77.03358833333333, "is_disabled": 0, "fusion_lon": 0.0, "rental_uris": {"android": "https://dc.lft.to/lastmile_qr_scan", "ios": "https://dc.lft.to/lastmile_qr_scan"}, "is_reserved": 0}, {"bike_id": "68e7b987d5c81c3f639cb8ac5b8abca4", "name": "68e7b987d5c81c3f639cb8ac5b8abca4", "lat": 38.90717216666667, "fusion_lat": 0.0, "type": "electric_scooter", "lon": -77.01981166666667, "is_disabled": 0, "fusion_lon": 0.0, "rental_uris": {"android": "https://dc.lft.to/lastmile_qr_scan", "ios": "https://dc.lft.to/lastmile_qr_scan"}, "is_reserved": 0}, {"bike_id": "1972b6024627ec24c84dc8b9af2d02a5", "name": "1972b6024627ec24c84dc8b9af2d02a5", "lat": 38.899040166666666, "fusion_lat": 0.0, "type": "electric_scooter", "lon": -77.03342583333334, "is_disabled": 0, "fusion_lon": 0.0, "rental_uris": {"android": "https://dc.lft.to/lastmile_qr_scan", "ios": "https://dc.lft.to/lastmile_qr_scan"}, "is_reserved": 0}, {"bike_id": "c7435e75060ee10e396667b4bacbcd17", "name": "c7435e75060ee10e396667b4bacbcd17", "lat": 38.9057725, "fusion_lat": 0.0, "type": "electric_scooter", "lon": -77.00600116666666, "is_disabled": 0, "fusion_lon": 0.0, "rental_uris": {"android": "https://dc.lft.to/lastmile_qr_scan", "ios": "https://dc.lft.to/lastmile_qr_scan"}, "is_reserved": 0}, {"bike_id": "541edf7c4c7f3f68d840dcbca183374f", "name": "541edf7c4c7f3f68d840dcbca183374f", "lat": 38.951853166666666, "fusion_lat": 0.0, "type": "electric_scooter", "lon": -77.02929866666666, "is_disabled": 0, "fusion_lon": 0.0, "rental_uris": {"android": "https://dc.lft.to/lastmile_qr_scan", "ios": "https://dc.lft.to/lastmile_qr_scan"}, "is_reserved": 0}, {"bike_id": "293c740173ffd6f60bfa1c8f8b5e0a7c", "name": "293c740173ffd6f60bfa1c8f8b5e0a7c", "lat": 38.898162, "fusion_lat": 0.0, "type": "electric_scooter", "lon": -77.029602, "is_disabled": 0, "fusion_lon": 0.0, "rental_uris": {"android": "https://dc.lft.to/lastmile_qr_scan", "ios": "https://dc.lft.to/lastmile_qr_scan"}, "is_reserved": 0}, {"bike_id": "0de4653ec542bc123cb9d18d3aaed1d9", "name": "0de4653ec542bc123cb9d18d3aaed1d9", "lat": 38.876215333333334, "fusion_lat": 0.0, "type": "electric_scooter", "lon": -77.00744316666666, "is_disabled": 0, "fusion_lon": 0.0, "rental_uris": {"android": "https://dc.lft.to/lastmile_qr_scan", "ios": "https://dc.lft.to/lastmile_qr_scan"}, "is_reserved": 0}, {"bike_id": "e10032f15227b3c5361e7eeade3328e6", "name": "e10032f15227b3c5361e7eeade3328e6", "lat": 38.930209833333336, "fusion_lat": 0.0, "type": "electric_scooter", "lon": -77.023368, "is_disabled": 0, "fusion_lon": 0.0, "rental_uris": {"android": "https://dc.lft.to/lastmile_qr_scan", "ios": "https://dc.lft.to/lastmile_qr_scan"}, "is_reserved": 0}, {"bike_id": "a03b1d9342a32587db3e2fbd10d2e755", "name": "a03b1d9342a32587db3e2fbd10d2e755", "lat": 38.91626883333333, "fusion_lat": 0.0, "type": "electric_scooter", "lon": -77.02288283333333, "is_disabled": 0, "fusion_lon": 0.0, "rental_uris": {"android": "https://dc.lft.to/lastmile_qr_scan", "ios": "https://dc.lft.to/lastmile_qr_scan"}, "is_reserved": 0}, {"bike_id": "f9df7d2df58b26dea143dd4d3a6fa01f", "name": "f9df7d2df58b26dea143dd4d3a6fa01f", "lat": 38.91306516666667, "fusion_lat": 0.0, "type": "electric_scooter", "lon": -77.03203133333334, "is_disabled": 0, "fusion_lon": 0.0, "rental_uris": {"android": "https://dc.lft.to/lastmile_qr_scan", "ios": "https://dc.lft.to/lastmile_qr_scan"}, "is_reserved": 0}, {"bike_id": "a9c1b49b31593e63653f86ad1df4ffb0", "name": "a9c1b49b31593e63653f86ad1df4ffb0", "lat": 38.926091166666666, "fusion_lat": 0.0, "type": "electric_scooter", "lon": -77.0242065, "is_disabled": 0, "fusion_lon": 0.0, "rental_uris": {"android": "https://dc.lft.to/lastmile_qr_scan", "ios": "https://dc.lft.to/lastmile_qr_scan"}, "is_reserved": 0}, {"bike_id": "49f3f0a1c2b5b0108e9da31b6e668f03", "name": "49f3f0a1c2b5b0108e9da31b6e668f03", "lat": 38.914722833333336, "fusion_lat": 0.0, "type": "electric_scooter", "lon": -77.0320195, "is_disabled": 0, "fusion_lon": 0.0, "rental_uris": {"android": "https://dc.lft.to/lastmile_qr_scan", "ios": "https://dc.lft.to/lastmile_qr_scan"}, "is_reserved": 0}, {"bike_id": "1c707681385255e39c9143d6d6dc25b2", "name": "1c707681385255e39c9143d6d6dc25b2", "lat": 38.91664383333333, "fusion_lat": 0.0, "type": "electric_scooter", "lon": -77.02392033333334, "is_disabled": 0, "fusion_lon": 0.0, "rental_uris": {"android": "https://dc.lft.to/lastmile_qr_scan", "ios": "https://dc.lft.to/lastmile_qr_scan"}, "is_reserved": 0}, {"bike_id": "fb6f703a6290d631ef5d3f6fdedbd05a", "name": "fb6f703a6290d631ef5d3f6fdedbd05a", "lat": 38.90862766666667, "fusion_lat": 0.0, "type": "electric_scooter", "lon": -76.9997725, "is_disabled": 0, "fusion_lon": 0.0, "rental_uris": {"android": "https://dc.lft.to/lastmile_qr_scan", "ios": "https://dc.lft.to/lastmile_qr_scan"}, "is_reserved": 0}, {"bike_id": "f72a6211047b0a32956aa5f3bdca1aa6", "name": "f72a6211047b0a32956aa5f3bdca1aa6", "lat": 38.898809166666666, "fusion_lat": 0.0, "type": "electric_bike", "lon": -76.97889316666667, "is_disabled": 0, "fusion_lon": 0.0, "rental_uris": {"android": "https://dc.lft.to/lastmile_qr_scan", "ios": "https://dc.lft.to/lastmile_qr_scan"}, "is_reserved": 0}, {"bike_id": "73fbc6c7eaea317d1139147f7153e9c0", "name": "73fbc6c7eaea317d1139147f7153e9c0", "lat": 38.914041166666664, "fusion_lat": 0.0, "type": "electric_scooter", "lon": -77.046773, "is_disabled": 0, "fusion_lon": 0.0, "rental_uris": {"android": "https://dc.lft.to/lastmile_qr_scan", "ios": "https://dc.lft.to/lastmile_qr_scan"}, "is_reserved": 0}, {"bike_id": "87b8bc2b6320459bc1dcc43c2491b08b", "name": "87b8bc2b6320459bc1dcc43c2491b08b", "lat": 38.91269883333333, "fusion_lat": 0.0, "type": "electric_scooter", "lon": -77.03176583333334, "is_disabled": 0, "fusion_lon": 0.0, "rental_uris": {"android": "https://dc.lft.to/lastmile_qr_scan", "ios": "https://dc.lft.to/lastmile_qr_scan"}, "is_reserved": 0}, {"bike_id": "b8c963a3999e07111bcd9354c579094d", "name": "b8c963a3999e07111bcd9354c579094d", "lat": 38.91424716666667, "fusion_lat": 0.0, "type": "electric_scooter", "lon": -77.018004, "is_disabled": 0, "fusion_lon": 0.0, "rental_uris": {"android": "https://dc.lft.to/lastmile_qr_scan", "ios": "https://dc.lft.to/lastmile_qr_scan"}, "is_reserved": 0}, {"bike_id": "ee6040b7ecf865b353a30611fb094678", "name": "ee6040b7ecf865b353a30611fb094678", "lat": 38.903123, "fusion_lat": 0.0, "type": "electric_scooter", "lon": -77.01631616666667, "is_disabled": 0, "fusion_lon": 0.0, "rental_uris": {"android": "https://dc.lft.to/lastmile_qr_scan", "ios": "https://dc.lft.to/lastmile_qr_scan"}, "is_reserved": 0}, {"bike_id": "9a8e58f5edec2018385046dec90afd31", "name": "9a8e58f5edec2018385046dec90afd31", "lat": 38.915330166666664, "fusion_lat": 0.0, "type": "electric_scooter", "lon": -77.02182883333333, "is_disabled": 0, "fusion_lon": 0.0, "rental_uris": {"android": "https://dc.lft.to/lastmile_qr_scan", "ios": "https://dc.lft.to/lastmile_qr_scan"}, "is_reserved": 0}, {"bike_id": "db15da83c174b176d3bfc116e6c78ec0", "name": "db15da83c174b176d3bfc116e6c78ec0", "lat": 38.896325833333336, "fusion_lat": 0.0, "type": "electric_scooter", "lon": -77.002148, "is_disabled": 0, "fusion_lon": 0.0, "rental_uris": {"android": "https://dc.lft.to/lastmile_qr_scan", "ios": "https://dc.lft.to/lastmile_qr_scan"}, "is_reserved": 0}, {"bike_id": "1f0ee9ec4936e78cf3c18e561220c617", "name": "1f0ee9ec4936e78cf3c18e561220c617", "lat": 38.878907833333336, "fusion_lat": 0.0, "type": "electric_scooter", "lon": -76.991636, "is_disabled": 0, "fusion_lon": 0.0, "rental_uris": {"android": "https://dc.lft.to/lastmile_qr_scan", "ios": "https://dc.lft.to/lastmile_qr_scan"}, "is_reserved": 0}, {"bike_id": "23c1b979fa1255726e2e7755cb2304d4", "name": "23c1b979fa1255726e2e7755cb2304d4", "lat": 38.92806133333333, "fusion_lat": 0.0, "type": "electric_scooter", "lon": -77.0362885, "is_disabled": 0, "fusion_lon": 0.0, "rental_uris": {"android": "https://dc.lft.to/lastmile_qr_scan", "ios": "https://dc.lft.to/lastmile_qr_scan"}, "is_reserved": 0}, {"bike_id": "4317c6cc113daeca8a357350574fc33a", "name": "4317c6cc113daeca8a357350574fc33a", "lat": 38.8984405, "fusion_lat": 0.0, "type": "electric_scooter", "lon": -77.02721533333333, "is_disabled": 0, "fusion_lon": 0.0, "rental_uris": {"android": "https://dc.lft.to/lastmile_qr_scan", "ios": "https://dc.lft.to/lastmile_qr_scan"}, "is_reserved": 0}, {"bike_id": "7b31d4e9b7a3d938beab95cc1c90007d", "name": "7b31d4e9b7a3d938beab95cc1c90007d", "lat": 38.90966266666667, "fusion_lat": 0.0, "type": "electric_scooter", "lon": -77.014372, "is_disabled": 0, "fusion_lon": 0.0, "rental_uris": {"android": "https://dc.lft.to/lastmile_qr_scan", "ios": "https://dc.lft.to/lastmile_qr_scan"}, "is_reserved": 0}, {"bike_id": "bad2185e2d8019b12a7060f125706a88", "name": "bad2185e2d8019b12a7060f125706a88", "lat": 38.9019215, "fusion_lat": 0.0, "type": "electric_scooter", "lon": -77.04872616666667, "is_disabled": 0, "fusion_lon": 0.0, "rental_uris": {"android": "https://dc.lft.to/lastmile_qr_scan", "ios": "https://dc.lft.to/lastmile_qr_scan"}, "is_reserved": 0}, {"bike_id": "09c1a2e20699244569c216e2c163fa17", "name": "09c1a2e20699244569c216e2c163fa17", "lat": 38.907682, "fusion_lat": 0.0, "type": "electric_scooter", "lon": -77.02192966666667, "is_disabled": 0, "fusion_lon": 0.0, "rental_uris": {"android": "https://dc.lft.to/lastmile_qr_scan", "ios": "https://dc.lft.to/lastmile_qr_scan"}, "is_reserved": 0}, {"bike_id": "f60ff72ca8e91993be913bae639d8d33", "name": "f60ff72ca8e91993be913bae639d8d33", "lat": 38.924073166666666, "fusion_lat": 0.0, "type": "electric_scooter", "lon": -76.95144966666666, "is_disabled": 0, "fusion_lon": 0.0, "rental_uris": {"android": "https://dc.lft.to/lastmile_qr_scan", "ios": "https://dc.lft.to/lastmile_qr_scan"}, "is_reserved": 0}, {"bike_id": "8ef6148259c273b783200a368ade677f", "name": "8ef6148259c273b783200a368ade677f", "lat": 38.91355716666666, "fusion_lat": 0.0, "type": "electric_scooter", "lon": -77.02769916666666, "is_disabled": 0, "fusion_lon": 0.0, "rental_uris": {"android": "https://dc.lft.to/lastmile_qr_scan", "ios": "https://dc.lft.to/lastmile_qr_scan"}, "is_reserved": 0}, {"bike_id": "5715d581ff1962bb7d6ca489a7e0be35", "name": "5715d581ff1962bb7d6ca489a7e0be35", "lat": 38.9004775, "fusion_lat": 0.0, "type": "electric_scooter", "lon": -77.04356116666666, "is_disabled": 0, "fusion_lon": 0.0, "rental_uris": {"android": "https://dc.lft.to/lastmile_qr_scan", "ios": "https://dc.lft.to/lastmile_qr_scan"}, "is_reserved": 0}, {"bike_id": "80a60626149461e564b8613ccf6f5708", "name": "80a60626149461e564b8613ccf6f5708", "lat": 38.91413383333333, "fusion_lat": 0.0, "type": "electric_scooter", "lon": -77.03141833333333, "is_disabled": 0, "fusion_lon": 0.0, "rental_uris": {"android": "https://dc.lft.to/lastmile_qr_scan", "ios": "https://dc.lft.to/lastmile_qr_scan"}, "is_reserved": 0}, {"bike_id": "0dde988c39972d5d0212ff6d93d1e320", "name": "0dde988c39972d5d0212ff6d93d1e320", "lat": 38.938982, "fusion_lat": 0.0, "type": "electric_scooter", "lon": -77.0176195, "is_disabled": 0, "fusion_lon": 0.0, "rental_uris": {"android": "https://dc.lft.to/lastmile_qr_scan", "ios": "https://dc.lft.to/lastmile_qr_scan"}, "is_reserved": 0}, {"bike_id": "8700941ae683cee540d8fe96ed2dddd0", "name": "8700941ae683cee540d8fe96ed2dddd0", "lat": 38.8975365, "fusion_lat": 0.0, "type": "electric_scooter", "lon": -76.97679666666667, "is_disabled": 0, "fusion_lon": 0.0, "rental_uris": {"android": "https://dc.lft.to/lastmile_qr_scan", "ios": "https://dc.lft.to/lastmile_qr_scan"}, "is_reserved": 0}, {"bike_id": "8cbb83c397b2916fb9de539625acb79c", "name": "8cbb83c397b2916fb9de539625acb79c", "lat": 38.90271633333333, "fusion_lat": 0.0, "type": "electric_scooter", "lon": -77.047062, "is_disabled": 0, "fusion_lon": 0.0, "rental_uris": {"android": "https://dc.lft.to/lastmile_qr_scan", "ios": "https://dc.lft.to/lastmile_qr_scan"}, "is_reserved": 0}, {"bike_id": "bb9744c22c089f141e1533b03b322b17", "name": "bb9744c22c089f141e1533b03b322b17", "lat": 38.9014435, "fusion_lat": 0.0, "type": "electric_scooter", "lon": -77.00075183333334, "is_disabled": 0, "fusion_lon": 0.0, "rental_uris": {"android": "https://dc.lft.to/lastmile_qr_scan", "ios": "https://dc.lft.to/lastmile_qr_scan"}, "is_reserved": 0}, {"bike_id": "6e0b888602c9ec57b785fb125814f42e", "name": "6e0b888602c9ec57b785fb125814f42e", "lat": 38.957624, "fusion_lat": 0.0, "type": "electric_scooter", "lon": -77.01487866666666, "is_disabled": 0, "fusion_lon": 0.0, "rental_uris": {"android": "https://dc.lft.to/lastmile_qr_scan", "ios": "https://dc.lft.to/lastmile_qr_scan"}, "is_reserved": 0}, {"bike_id": "e29b263e135daa0ae20b996d96dc1e9a", "name": "e29b263e135daa0ae20b996d96dc1e9a", "lat": 38.90928866666667, "fusion_lat": 0.0, "type": "electric_scooter", "lon": -77.032082, "is_disabled": 0, "fusion_lon": 0.0, "rental_uris": {"android": "https://dc.lft.to/lastmile_qr_scan", "ios": "https://dc.lft.to/lastmile_qr_scan"}, "is_reserved": 0}, {"bike_id": "804498f6fa7b2898b091e6bea947fea3", "name": "804498f6fa7b2898b091e6bea947fea3", "lat": 38.8560055, "fusion_lat": 0.0, "type": "electric_bike", "lon": -76.97452416666667, "is_disabled": 0, "fusion_lon": 0.0, "rental_uris": {"android": "https://dc.lft.to/lastmile_qr_scan", "ios": "https://dc.lft.to/lastmile_qr_scan"}, "is_reserved": 0}, {"bike_id": "291f9fb27f6ace7369af98e2835192bc", "name": "291f9fb27f6ace7369af98e2835192bc", "lat": 38.806771833333336, "fusion_lat": 0.0, "type": "electric_bike", "lon": -77.087553, "is_disabled": 0, "fusion_lon": 0.0, "rental_uris": {"android": "https://dc.lft.to/lastmile_qr_scan", "ios": "https://dc.lft.to/lastmile_qr_scan"}, "is_reserved": 0}, {"bike_id": "1e27b3d5f9517e6a1e8290296aabf9c7", "name": "1e27b3d5f9517e6a1e8290296aabf9c7", "lat": 38.91963283333333, "fusion_lat": 0.0, "type": "electric_scooter", "lon": -77.01437116666666, "is_disabled": 0, "fusion_lon": 0.0, "rental_uris": {"android": "https://dc.lft.to/lastmile_qr_scan", "ios": "https://dc.lft.to/lastmile_qr_scan"}, "is_reserved": 0}, {"bike_id": "cc898296988dd5da6e47c6833a9a8a1c", "name": "cc898296988dd5da6e47c6833a9a8a1c", "lat": 38.91561083333333, "fusion_lat": 0.0, "type": "electric_scooter", "lon": -77.04475416666666, "is_disabled": 0, "fusion_lon": 0.0, "rental_uris": {"android": "https://dc.lft.to/lastmile_qr_scan", "ios": "https://dc.lft.to/lastmile_qr_scan"}, "is_reserved": 0}, {"bike_id": "39a0066cf7961f2121757a248b7e0781", "name": "39a0066cf7961f2121757a248b7e0781", "lat": 38.905902, "fusion_lat": 0.0, "type": "electric_scooter", "lon": -77.03624433333333, "is_disabled": 0, "fusion_lon": 0.0, "rental_uris": {"android": "https://dc.lft.to/lastmile_qr_scan", "ios": "https://dc.lft.to/lastmile_qr_scan"}, "is_reserved": 0}, {"bike_id": "6b5aa409e18afed768621c2e156d03f4", "name": "6b5aa409e18afed768621c2e156d03f4", "lat": 38.907014, "fusion_lat": 0.0, "type": "electric_scooter", "lon": -76.9869645, "is_disabled": 0, "fusion_lon": 0.0, "rental_uris": {"android": "https://dc.lft.to/lastmile_qr_scan", "ios": "https://dc.lft.to/lastmile_qr_scan"}, "is_reserved": 0}, {"bike_id": "de1a8a0c8ff1a13e60b20bab9a33c20b", "name": "de1a8a0c8ff1a13e60b20bab9a33c20b", "lat": 38.8721425, "fusion_lat": 0.0, "type": "electric_bike", "lon": -77.117357, "is_disabled": 0, "fusion_lon": 0.0, "rental_uris": {"android": "https://dc.lft.to/lastmile_qr_scan", "ios": "https://dc.lft.to/lastmile_qr_scan"}, "is_reserved": 0}, {"bike_id": "b8f0934a00893b7802d4e49f1b04f6ee", "name": "b8f0934a00893b7802d4e49f1b04f6ee", "lat": 38.92506933333333, "fusion_lat": 0.0, "type": "electric_scooter", "lon": -77.0227485, "is_disabled": 0, "fusion_lon": 0.0, "rental_uris": {"android": "https://dc.lft.to/lastmile_qr_scan", "ios": "https://dc.lft.to/lastmile_qr_scan"}, "is_reserved": 0}, {"bike_id": "8a459edfb9557bb15282793bf3b4ba63", "name": "8a459edfb9557bb15282793bf3b4ba63", "lat": 38.943173333333334, "fusion_lat": 0.0, "type": "electric_bike", "lon": -76.9901165, "is_disabled": 0, "fusion_lon": 0.0, "rental_uris": {"android": "https://dc.lft.to/lastmile_qr_scan", "ios": "https://dc.lft.to/lastmile_qr_scan"}, "is_reserved": 0}, {"bike_id": "c03264444cd4c4336e5f1b6720ee0b66", "name": "c03264444cd4c4336e5f1b6720ee0b66", "lat": 38.9167735, "fusion_lat": 0.0, "type": "electric_scooter", "lon": -77.02977333333334, "is_disabled": 0, "fusion_lon": 0.0, "rental_uris": {"android": "https://dc.lft.to/lastmile_qr_scan", "ios": "https://dc.lft.to/lastmile_qr_scan"}, "is_reserved": 0}, {"bike_id": "15808ee5ee6387222902e7b7f48e4aac", "name": "15808ee5ee6387222902e7b7f48e4aac", "lat": 38.9153865, "fusion_lat": 0.0, "type": "electric_scooter", "lon": -77.0218125, "is_disabled": 0, "fusion_lon": 0.0, "rental_uris": {"android": "https://dc.lft.to/lastmile_qr_scan", "ios": "https://dc.lft.to/lastmile_qr_scan"}, "is_reserved": 0}, {"bike_id": "a3bd7c25deaa5e2e1fb7b12e1a722366", "name": "a3bd7c25deaa5e2e1fb7b12e1a722366", "lat": 38.92422283333333, "fusion_lat": 0.0, "type": "electric_scooter", "lon": -77.01953016666667, "is_disabled": 0, "fusion_lon": 0.0, "rental_uris": {"android": "https://dc.lft.to/lastmile_qr_scan", "ios": "https://dc.lft.to/lastmile_qr_scan"}, "is_reserved": 0}, {"bike_id": "41c1209fc26da5a327c4a76eae638739", "name": "41c1209fc26da5a327c4a76eae638739", "lat": 38.863802, "fusion_lat": 0.0, "type": "electric_scooter", "lon": -76.990582, "is_disabled": 0, "fusion_lon": 0.0, "rental_uris": {"android": "https://dc.lft.to/lastmile_qr_scan", "ios": "https://dc.lft.to/lastmile_qr_scan"}, "is_reserved": 0}, {"bike_id": "31f0c97012d8662b258cf750ed9c529b", "name": "31f0c97012d8662b258cf750ed9c529b", "lat": 38.89972733333333, "fusion_lat": 0.0, "type": "electric_scooter", "lon": -77.0475925, "is_disabled": 0, "fusion_lon": 0.0, "rental_uris": {"android": "https://dc.lft.to/lastmile_qr_scan", "ios": "https://dc.lft.to/lastmile_qr_scan"}, "is_reserved": 0}, {"bike_id": "a62d57979e08decb4368d74a95a65995", "name": "a62d57979e08decb4368d74a95a65995", "lat": 38.9199955, "fusion_lat": 0.0, "type": "electric_scooter", "lon": -77.07119716666666, "is_disabled": 0, "fusion_lon": 0.0, "rental_uris": {"android": "https://dc.lft.to/lastmile_qr_scan", "ios": "https://dc.lft.to/lastmile_qr_scan"}, "is_reserved": 0}, {"bike_id": "48e75f2b14b45116becc3d20ed0bcb1d", "name": "48e75f2b14b45116becc3d20ed0bcb1d", "lat": 38.89943316666667, "fusion_lat": 0.0, "type": "electric_scooter", "lon": -76.977078, "is_disabled": 0, "fusion_lon": 0.0, "rental_uris": {"android": "https://dc.lft.to/lastmile_qr_scan", "ios": "https://dc.lft.to/lastmile_qr_scan"}, "is_reserved": 0}, {"bike_id": "db2ed2c87d9558743a51a5638da1ab2a", "name": "db2ed2c87d9558743a51a5638da1ab2a", "lat": 38.91918666666667, "fusion_lat": 0.0, "type": "electric_scooter", "lon": -77.03334833333334, "is_disabled": 0, "fusion_lon": 0.0, "rental_uris": {"android": "https://dc.lft.to/lastmile_qr_scan", "ios": "https://dc.lft.to/lastmile_qr_scan"}, "is_reserved": 0}, {"bike_id": "367c54c820db006360e339630320758a", "name": "367c54c820db006360e339630320758a", "lat": 38.995294666666666, "fusion_lat": 0.0, "type": "electric_bike", "lon": -77.037826, "is_disabled": 0, "fusion_lon": 0.0, "rental_uris": {"android": "https://dc.lft.to/lastmile_qr_scan", "ios": "https://dc.lft.to/lastmile_qr_scan"}, "is_reserved": 0}, {"bike_id": "cb4b36371f02c5a158fae24b6ba88766", "name": "cb4b36371f02c5a158fae24b6ba88766", "lat": 38.92021833333333, "fusion_lat": 0.0, "type": "electric_scooter", "lon": -77.0311995, "is_disabled": 0, "fusion_lon": 0.0, "rental_uris": {"android": "https://dc.lft.to/lastmile_qr_scan", "ios": "https://dc.lft.to/lastmile_qr_scan"}, "is_reserved": 0}, {"bike_id": "fddaa5b890721c3ba85c47bbf347dc16", "name": "fddaa5b890721c3ba85c47bbf347dc16", "lat": 38.90593633333334, "fusion_lat": 0.0, "type": "electric_scooter", "lon": -77.0423935, "is_disabled": 0, "fusion_lon": 0.0, "rental_uris": {"android": "https://dc.lft.to/lastmile_qr_scan", "ios": "https://dc.lft.to/lastmile_qr_scan"}, "is_reserved": 0}, {"bike_id": "42a6cf566e1ea28cb04d2db5f0e92177", "name": "42a6cf566e1ea28cb04d2db5f0e92177", "lat": 38.96218966666667, "fusion_lat": 0.0, "type": "electric_bike", "lon": -77.0738225, "is_disabled": 0, "fusion_lon": 0.0, "rental_uris": {"android": "https://dc.lft.to/lastmile_qr_scan", "ios": "https://dc.lft.to/lastmile_qr_scan"}, "is_reserved": 0}, {"bike_id": "d4469b027006049f96f0650ee4205f0b", "name": "d4469b027006049f96f0650ee4205f0b", "lat": 38.917245, "fusion_lat": 0.0, "type": "electric_scooter", "lon": -77.029794, "is_disabled": 0, "fusion_lon": 0.0, "rental_uris": {"android": "https://dc.lft.to/lastmile_qr_scan", "ios": "https://dc.lft.to/lastmile_qr_scan"}, "is_reserved": 0}, {"bike_id": "c7f5b203bfc80af3c6bbec07e230f242", "name": "c7f5b203bfc80af3c6bbec07e230f242", "lat": 38.911206, "fusion_lat": 0.0, "type": "electric_scooter", "lon": -77.02237983333333, "is_disabled": 0, "fusion_lon": 0.0, "rental_uris": {"android": "https://dc.lft.to/lastmile_qr_scan", "ios": "https://dc.lft.to/lastmile_qr_scan"}, "is_reserved": 0}, {"bike_id": "339d97ed33592a0f2c8481e61a29a4ad", "name": "339d97ed33592a0f2c8481e61a29a4ad", "lat": 38.924687166666665, "fusion_lat": 0.0, "type": "electric_scooter", "lon": -77.0523015, "is_disabled": 0, "fusion_lon": 0.0, "rental_uris": {"android": "https://dc.lft.to/lastmile_qr_scan", "ios": "https://dc.lft.to/lastmile_qr_scan"}, "is_reserved": 0}, {"bike_id": "7b2ea49ea505b9ed87ae0848d8c8dfed", "name": "7b2ea49ea505b9ed87ae0848d8c8dfed", "lat": 38.99716733333333, "fusion_lat": 0.0, "type": "electric_bike", "lon": -77.02721433333333, "is_disabled": 0, "fusion_lon": 0.0, "rental_uris": {"android": "https://dc.lft.to/lastmile_qr_scan", "ios": "https://dc.lft.to/lastmile_qr_scan"}, "is_reserved": 0}, {"bike_id": "e3c347c2a66045dcf780731db97b9b91", "name": "e3c347c2a66045dcf780731db97b9b91", "lat": 38.90001866666667, "fusion_lat": 0.0, "type": "electric_scooter", "lon": -77.0309905, "is_disabled": 0, "fusion_lon": 0.0, "rental_uris": {"android": "https://dc.lft.to/lastmile_qr_scan", "ios": "https://dc.lft.to/lastmile_qr_scan"}, "is_reserved": 0}, {"bike_id": "3cf74a8590c726f1fb83a346bd82377f", "name": "3cf74a8590c726f1fb83a346bd82377f", "lat": 38.875008666666666, "fusion_lat": 0.0, "type": "electric_scooter", "lon": -76.9997555, "is_disabled": 0, "fusion_lon": 0.0, "rental_uris": {"android": "https://dc.lft.to/lastmile_qr_scan", "ios": "https://dc.lft.to/lastmile_qr_scan"}, "is_reserved": 0}, {"bike_id": "c7f04dfc1e1d5c6a9c972010ea612869", "name": "c7f04dfc1e1d5c6a9c972010ea612869", "lat": 38.9546575, "fusion_lat": 0.0, "type": "electric_scooter", "lon": -77.07762266666667, "is_disabled": 0, "fusion_lon": 0.0, "rental_uris": {"android": "https://dc.lft.to/lastmile_qr_scan", "ios": "https://dc.lft.to/lastmile_qr_scan"}, "is_reserved": 0}, {"bike_id": "42b207f3aa3238187d52e9469281fdc2", "name": "42b207f3aa3238187d52e9469281fdc2", "lat": 38.9064645, "fusion_lat": 0.0, "type": "electric_scooter", "lon": -77.05315666666667, "is_disabled": 0, "fusion_lon": 0.0, "rental_uris": {"android": "https://dc.lft.to/lastmile_qr_scan", "ios": "https://dc.lft.to/lastmile_qr_scan"}, "is_reserved": 0}, {"bike_id": "c093384ba83b08aa5a89051fdbc6c0be", "name": "c093384ba83b08aa5a89051fdbc6c0be", "lat": 38.905095, "fusion_lat": 0.0, "type": "electric_scooter", "lon": -77.0295505, "is_disabled": 0, "fusion_lon": 0.0, "rental_uris": {"android": "https://dc.lft.to/lastmile_qr_scan", "ios": "https://dc.lft.to/lastmile_qr_scan"}, "is_reserved": 0}, {"bike_id": "8acfbf34d74f2bea4b51d4b744670289", "name": "8acfbf34d74f2bea4b51d4b744670289", "lat": 38.917084333333335, "fusion_lat": 0.0, "type": "electric_scooter", "lon": -77.03727333333333, "is_disabled": 0, "fusion_lon": 0.0, "rental_uris": {"android": "https://dc.lft.to/lastmile_qr_scan", "ios": "https://dc.lft.to/lastmile_qr_scan"}, "is_reserved": 0}, {"bike_id": "fda58d742a77656c1c78270d5eeeb6a7", "name": "fda58d742a77656c1c78270d5eeeb6a7", "lat": 38.90140383333333, "fusion_lat": 0.0, "type": "electric_scooter", "lon": -77.0286415, "is_disabled": 0, "fusion_lon": 0.0, "rental_uris": {"android": "https://dc.lft.to/lastmile_qr_scan", "ios": "https://dc.lft.to/lastmile_qr_scan"}, "is_reserved": 0}, {"bike_id": "204fefbbb75ca255876fd9e602926f7d", "name": "204fefbbb75ca255876fd9e602926f7d", "lat": 38.9140595, "fusion_lat": 0.0, "type": "electric_scooter", "lon": -77.03217933333333, "is_disabled": 0, "fusion_lon": 0.0, "rental_uris": {"android": "https://dc.lft.to/lastmile_qr_scan", "ios": "https://dc.lft.to/lastmile_qr_scan"}, "is_reserved": 0}, {"bike_id": "79eb9c015e4ac99c1d3290a5a4b0d6c6", "name": "79eb9c015e4ac99c1d3290a5a4b0d6c6", "lat": 38.881372999999996, "fusion_lat": 0.0, "type": "electric_scooter", "lon": -76.99638066666667, "is_disabled": 0, "fusion_lon": 0.0, "rental_uris": {"android": "https://dc.lft.to/lastmile_qr_scan", "ios": "https://dc.lft.to/lastmile_qr_scan"}, "is_reserved": 0}, {"bike_id": "e781fa4accf1a114711d9aa0377f36d0", "name": "e781fa4accf1a114711d9aa0377f36d0", "lat": 38.926121, "fusion_lat": 0.0, "type": "electric_scooter", "lon": -77.02156766666667, "is_disabled": 0, "fusion_lon": 0.0, "rental_uris": {"android": "https://dc.lft.to/lastmile_qr_scan", "ios": "https://dc.lft.to/lastmile_qr_scan"}, "is_reserved": 0}, {"bike_id": "32d28498b32099bdd2022a5ff1c097da", "name": "32d28498b32099bdd2022a5ff1c097da", "lat": 38.9181295, "fusion_lat": 0.0, "type": "electric_scooter", "lon": -77.03211983333334, "is_disabled": 0, "fusion_lon": 0.0, "rental_uris": {"android": "https://dc.lft.to/lastmile_qr_scan", "ios": "https://dc.lft.to/lastmile_qr_scan"}, "is_reserved": 0}, {"bike_id": "ac635f1cc2b0b413255546bfb434d29d", "name": "ac635f1cc2b0b413255546bfb434d29d", "lat": 38.896515666666666, "fusion_lat": 0.0, "type": "electric_scooter", "lon": -77.05021666666667, "is_disabled": 0, "fusion_lon": 0.0, "rental_uris": {"android": "https://dc.lft.to/lastmile_qr_scan", "ios": "https://dc.lft.to/lastmile_qr_scan"}, "is_reserved": 0}, {"bike_id": "8517462e649c64a757126795bb6fee83", "name": "8517462e649c64a757126795bb6fee83", "lat": 38.899192666666664, "fusion_lat": 0.0, "type": "electric_scooter", "lon": -76.97828583333333, "is_disabled": 0, "fusion_lon": 0.0, "rental_uris": {"android": "https://dc.lft.to/lastmile_qr_scan", "ios": "https://dc.lft.to/lastmile_qr_scan"}, "is_reserved": 0}, {"bike_id": "39a7c89b70107352abc22687316847df", "name": "39a7c89b70107352abc22687316847df", "lat": 38.917084333333335, "fusion_lat": 0.0, "type": "electric_scooter", "lon": -77.01073866666667, "is_disabled": 0, "fusion_lon": 0.0, "rental_uris": {"android": "https://dc.lft.to/lastmile_qr_scan", "ios": "https://dc.lft.to/lastmile_qr_scan"}, "is_reserved": 0}, {"bike_id": "8df931691883ec576781cc0855a7279d", "name": "8df931691883ec576781cc0855a7279d", "lat": 38.893488, "fusion_lat": 0.0, "type": "electric_scooter", "lon": -77.01166583333334, "is_disabled": 0, "fusion_lon": 0.0, "rental_uris": {"android": "https://dc.lft.to/lastmile_qr_scan", "ios": "https://dc.lft.to/lastmile_qr_scan"}, "is_reserved": 0}, {"bike_id": "6490ffede941206de39d0368c1a55463", "name": "6490ffede941206de39d0368c1a55463", "lat": 38.882671333333334, "fusion_lat": 0.0, "type": "electric_scooter", "lon": -77.00357033333333, "is_disabled": 0, "fusion_lon": 0.0, "rental_uris": {"android": "https://dc.lft.to/lastmile_qr_scan", "ios": "https://dc.lft.to/lastmile_qr_scan"}, "is_reserved": 0}, {"bike_id": "bc00c8e93428e6a3824bd8ab0c972f8b", "name": "bc00c8e93428e6a3824bd8ab0c972f8b", "lat": 38.914044, "fusion_lat": 0.0, "type": "electric_scooter", "lon": -77.03325433333333, "is_disabled": 0, "fusion_lon": 0.0, "rental_uris": {"android": "https://dc.lft.to/lastmile_qr_scan", "ios": "https://dc.lft.to/lastmile_qr_scan"}, "is_reserved": 0}, {"bike_id": "16e0c9860b552a12603a41456cb9bb85", "name": "16e0c9860b552a12603a41456cb9bb85", "lat": 38.96505066666667, "fusion_lat": 0.0, "type": "electric_bike", "lon": -77.103352, "is_disabled": 0, "fusion_lon": 0.0, "rental_uris": {"android": "https://dc.lft.to/lastmile_qr_scan", "ios": "https://dc.lft.to/lastmile_qr_scan"}, "is_reserved": 0}, {"bike_id": "6174fc0c65ac66b63617bb68222c9d2e", "name": "6174fc0c65ac66b63617bb68222c9d2e", "lat": 38.90001133333333, "fusion_lat": 0.0, "type": "electric_scooter", "lon": -76.98573083333333, "is_disabled": 0, "fusion_lon": 0.0, "rental_uris": {"android": "https://dc.lft.to/lastmile_qr_scan", "ios": "https://dc.lft.to/lastmile_qr_scan"}, "is_reserved": 0}, {"bike_id": "ad5a9d2e8f412d86ecd23bf995b96b80", "name": "ad5a9d2e8f412d86ecd23bf995b96b80", "lat": 38.90666816666667, "fusion_lat": 0.0, "type": "electric_scooter", "lon": -77.05015616666667, "is_disabled": 0, "fusion_lon": 0.0, "rental_uris": {"android": "https://dc.lft.to/lastmile_qr_scan", "ios": "https://dc.lft.to/lastmile_qr_scan"}, "is_reserved": 0}, {"bike_id": "6fc495cfb38be984e65858f067c2d85a", "name": "6fc495cfb38be984e65858f067c2d85a", "lat": 38.8920115, "fusion_lat": 0.0, "type": "electric_scooter", "lon": -77.04822466666667, "is_disabled": 0, "fusion_lon": 0.0, "rental_uris": {"android": "https://dc.lft.to/lastmile_qr_scan", "ios": "https://dc.lft.to/lastmile_qr_scan"}, "is_reserved": 0}, {"bike_id": "aaa6fea6f6e6d5106e9e3aff17da34f1", "name": "aaa6fea6f6e6d5106e9e3aff17da34f1", "lat": 38.964063833333334, "fusion_lat": 0.0, "type": "electric_scooter", "lon": -77.0276555, "is_disabled": 0, "fusion_lon": 0.0, "rental_uris": {"android": "https://dc.lft.to/lastmile_qr_scan", "ios": "https://dc.lft.to/lastmile_qr_scan"}, "is_reserved": 0}, {"bike_id": "9ee92f501394b611bde642297e5df37d", "name": "9ee92f501394b611bde642297e5df37d", "lat": 38.99935166666667, "fusion_lat": 0.0, "type": "electric_bike", "lon": -77.051335, "is_disabled": 0, "fusion_lon": 0.0, "rental_uris": {"android": "https://dc.lft.to/lastmile_qr_scan", "ios": "https://dc.lft.to/lastmile_qr_scan"}, "is_reserved": 0}, {"bike_id": "0eabe3ebbcc553b479f945623db2c703", "name": "0eabe3ebbcc553b479f945623db2c703", "lat": 38.89352616666667, "fusion_lat": 0.0, "type": "electric_scooter", "lon": -77.003294, "is_disabled": 0, "fusion_lon": 0.0, "rental_uris": {"android": "https://dc.lft.to/lastmile_qr_scan", "ios": "https://dc.lft.to/lastmile_qr_scan"}, "is_reserved": 0}, {"bike_id": "46defd8b4f77607eed6102966200ffb3", "name": "46defd8b4f77607eed6102966200ffb3", "lat": 38.92344216666667, "fusion_lat": 0.0, "type": "electric_scooter", "lon": -77.019083, "is_disabled": 0, "fusion_lon": 0.0, "rental_uris": {"android": "https://dc.lft.to/lastmile_qr_scan", "ios": "https://dc.lft.to/lastmile_qr_scan"}, "is_reserved": 0}, {"bike_id": "daaa32b2dff52dfd7c4e8dc0f7078800", "name": "daaa32b2dff52dfd7c4e8dc0f7078800", "lat": 38.91790616666667, "fusion_lat": 0.0, "type": "electric_scooter", "lon": -77.03206983333334, "is_disabled": 0, "fusion_lon": 0.0, "rental_uris": {"android": "https://dc.lft.to/lastmile_qr_scan", "ios": "https://dc.lft.to/lastmile_qr_scan"}, "is_reserved": 0}, {"bike_id": "4e7e746806e5402b399bb3f7000848d9", "name": "4e7e746806e5402b399bb3f7000848d9", "lat": 38.924253666666665, "fusion_lat": 0.0, "type": "electric_scooter", "lon": -77.01949916666666, "is_disabled": 0, "fusion_lon": 0.0, "rental_uris": {"android": "https://dc.lft.to/lastmile_qr_scan", "ios": "https://dc.lft.to/lastmile_qr_scan"}, "is_reserved": 0}, {"bike_id": "cb06f22f196fe415ae029976deb95339", "name": "cb06f22f196fe415ae029976deb95339", "lat": 38.913328666666665, "fusion_lat": 0.0, "type": "electric_scooter", "lon": -76.99160266666667, "is_disabled": 0, "fusion_lon": 0.0, "rental_uris": {"android": "https://dc.lft.to/lastmile_qr_scan", "ios": "https://dc.lft.to/lastmile_qr_scan"}, "is_reserved": 0}, {"bike_id": "c3120cdd4e247bf3aa61550613e8f4c4", "name": "c3120cdd4e247bf3aa61550613e8f4c4", "lat": 38.92223166666667, "fusion_lat": 0.0, "type": "electric_scooter", "lon": -77.04332383333333, "is_disabled": 0, "fusion_lon": 0.0, "rental_uris": {"android": "https://dc.lft.to/lastmile_qr_scan", "ios": "https://dc.lft.to/lastmile_qr_scan"}, "is_reserved": 0}, {"bike_id": "2a4ebb7b2febea69cbcb3eca6bdd6b03", "name": "2a4ebb7b2febea69cbcb3eca6bdd6b03", "lat": 38.879640333333334, "fusion_lat": 0.0, "type": "electric_scooter", "lon": -77.00065266666667, "is_disabled": 0, "fusion_lon": 0.0, "rental_uris": {"android": "https://dc.lft.to/lastmile_qr_scan", "ios": "https://dc.lft.to/lastmile_qr_scan"}, "is_reserved": 0}, {"bike_id": "f01c6d348b07875024a37e539f8e15fd", "name": "f01c6d348b07875024a37e539f8e15fd", "lat": 38.90399083333333, "fusion_lat": 0.0, "type": "electric_scooter", "lon": -77.0057275, "is_disabled": 0, "fusion_lon": 0.0, "rental_uris": {"android": "https://dc.lft.to/lastmile_qr_scan", "ios": "https://dc.lft.to/lastmile_qr_scan"}, "is_reserved": 0}, {"bike_id": "e126c04de2a3af82afade3e71c383f9b", "name": "e126c04de2a3af82afade3e71c383f9b", "lat": 38.936228, "fusion_lat": 0.0, "type": "electric_scooter", "lon": -77.03212783333333, "is_disabled": 0, "fusion_lon": 0.0, "rental_uris": {"android": "https://dc.lft.to/lastmile_qr_scan", "ios": "https://dc.lft.to/lastmile_qr_scan"}, "is_reserved": 0}, {"bike_id": "b5be1aa9a7ca147626f2c72444383ffc", "name": "b5be1aa9a7ca147626f2c72444383ffc", "lat": 38.91312116666667, "fusion_lat": 0.0, "type": "electric_scooter", "lon": -77.0364085, "is_disabled": 0, "fusion_lon": 0.0, "rental_uris": {"android": "https://dc.lft.to/lastmile_qr_scan", "ios": "https://dc.lft.to/lastmile_qr_scan"}, "is_reserved": 0}, {"bike_id": "669e48956dcc3e0c8c9768b3428c2d2d", "name": "669e48956dcc3e0c8c9768b3428c2d2d", "lat": 38.892353166666666, "fusion_lat": 0.0, "type": "electric_scooter", "lon": -77.04999433333333, "is_disabled": 0, "fusion_lon": 0.0, "rental_uris": {"android": "https://dc.lft.to/lastmile_qr_scan", "ios": "https://dc.lft.to/lastmile_qr_scan"}, "is_reserved": 0}, {"bike_id": "388b4402559fde3e0c5d7bebe808d540", "name": "388b4402559fde3e0c5d7bebe808d540", "lat": 38.91938066666667, "fusion_lat": 0.0, "type": "electric_scooter", "lon": -77.04896883333333, "is_disabled": 0, "fusion_lon": 0.0, "rental_uris": {"android": "https://dc.lft.to/lastmile_qr_scan", "ios": "https://dc.lft.to/lastmile_qr_scan"}, "is_reserved": 0}, {"bike_id": "5399abcea1bb501a74e80ffea7f4d7b9", "name": "5399abcea1bb501a74e80ffea7f4d7b9", "lat": 38.852242833333335, "fusion_lat": 0.0, "type": "electric_scooter", "lon": -76.99424933333333, "is_disabled": 0, "fusion_lon": 0.0, "rental_uris": {"android": "https://dc.lft.to/lastmile_qr_scan", "ios": "https://dc.lft.to/lastmile_qr_scan"}, "is_reserved": 0}, {"bike_id": "22f19bfa777125f8b33c24676aed565c", "name": "22f19bfa777125f8b33c24676aed565c", "lat": 38.916995166666666, "fusion_lat": 0.0, "type": "electric_scooter", "lon": -77.02915916666667, "is_disabled": 0, "fusion_lon": 0.0, "rental_uris": {"android": "https://dc.lft.to/lastmile_qr_scan", "ios": "https://dc.lft.to/lastmile_qr_scan"}, "is_reserved": 0}, {"bike_id": "56b03caee593c73d3d65f155d48ab524", "name": "56b03caee593c73d3d65f155d48ab524", "lat": 38.92242, "fusion_lat": 0.0, "type": "electric_scooter", "lon": -77.04479483333333, "is_disabled": 0, "fusion_lon": 0.0, "rental_uris": {"android": "https://dc.lft.to/lastmile_qr_scan", "ios": "https://dc.lft.to/lastmile_qr_scan"}, "is_reserved": 0}, {"bike_id": "bbdb9b360e8d20e945bff010a2d9d417", "name": "bbdb9b360e8d20e945bff010a2d9d417", "lat": 38.93562216666667, "fusion_lat": 0.0, "type": "electric_scooter", "lon": -77.0325775, "is_disabled": 0, "fusion_lon": 0.0, "rental_uris": {"android": "https://dc.lft.to/lastmile_qr_scan", "ios": "https://dc.lft.to/lastmile_qr_scan"}, "is_reserved": 0}, {"bike_id": "a354ecee835727e4ef661b762ec12b06", "name": "a354ecee835727e4ef661b762ec12b06", "lat": 38.9161605, "fusion_lat": 0.0, "type": "electric_scooter", "lon": -77.02291933333333, "is_disabled": 0, "fusion_lon": 0.0, "rental_uris": {"android": "https://dc.lft.to/lastmile_qr_scan", "ios": "https://dc.lft.to/lastmile_qr_scan"}, "is_reserved": 0}, {"bike_id": "763cc8c9a58bf12d8fd1f7fc3eb2e2e1", "name": "763cc8c9a58bf12d8fd1f7fc3eb2e2e1", "lat": 38.926043, "fusion_lat": 0.0, "type": "electric_scooter", "lon": -77.02155833333333, "is_disabled": 0, "fusion_lon": 0.0, "rental_uris": {"android": "https://dc.lft.to/lastmile_qr_scan", "ios": "https://dc.lft.to/lastmile_qr_scan"}, "is_reserved": 0}, {"bike_id": "1df70ac5d07f66d40ee660abfee03699", "name": "1df70ac5d07f66d40ee660abfee03699", "lat": 38.887359833333335, "fusion_lat": 0.0, "type": "electric_scooter", "lon": -77.02615583333333, "is_disabled": 0, "fusion_lon": 0.0, "rental_uris": {"android": "https://dc.lft.to/lastmile_qr_scan", "ios": "https://dc.lft.to/lastmile_qr_scan"}, "is_reserved": 0}, {"bike_id": "064b02844b06081b270c9935b71a7dcf", "name": "064b02844b06081b270c9935b71a7dcf", "lat": 38.89995716666667, "fusion_lat": 0.0, "type": "electric_scooter", "lon": -77.02938216666666, "is_disabled": 0, "fusion_lon": 0.0, "rental_uris": {"android": "https://dc.lft.to/lastmile_qr_scan", "ios": "https://dc.lft.to/lastmile_qr_scan"}, "is_reserved": 0}, {"bike_id": "0ed8362a51b8ae59a6480786d4966601", "name": "0ed8362a51b8ae59a6480786d4966601", "lat": 38.91570166666666, "fusion_lat": 0.0, "type": "electric_scooter", "lon": -76.98388249999999, "is_disabled": 0, "fusion_lon": 0.0, "rental_uris": {"android": "https://dc.lft.to/lastmile_qr_scan", "ios": "https://dc.lft.to/lastmile_qr_scan"}, "is_reserved": 0}, {"bike_id": "5a152de5a128d4357cf43f72b01b01bf", "name": "5a152de5a128d4357cf43f72b01b01bf", "lat": 38.900535833333336, "fusion_lat": 0.0, "type": "electric_scooter", "lon": -77.04863133333333, "is_disabled": 0, "fusion_lon": 0.0, "rental_uris": {"android": "https://dc.lft.to/lastmile_qr_scan", "ios": "https://dc.lft.to/lastmile_qr_scan"}, "is_reserved": 0}, {"bike_id": "5b0af1dfd8cc8e8c076cfc3023620944", "name": "5b0af1dfd8cc8e8c076cfc3023620944", "lat": 38.949259166666664, "fusion_lat": 0.0, "type": "electric_scooter", "lon": -77.0269635, "is_disabled": 0, "fusion_lon": 0.0, "rental_uris": {"android": "https://dc.lft.to/lastmile_qr_scan", "ios": "https://dc.lft.to/lastmile_qr_scan"}, "is_reserved": 0}, {"bike_id": "87f61593eb81d6eeacc8e4c93742ffce", "name": "87f61593eb81d6eeacc8e4c93742ffce", "lat": 38.893480833333335, "fusion_lat": 0.0, "type": "electric_scooter", "lon": -76.99379883333333, "is_disabled": 0, "fusion_lon": 0.0, "rental_uris": {"android": "https://dc.lft.to/lastmile_qr_scan", "ios": "https://dc.lft.to/lastmile_qr_scan"}, "is_reserved": 0}, {"bike_id": "ae5599f6a871536d519c81769b1fb910", "name": "ae5599f6a871536d519c81769b1fb910", "lat": 38.916132, "fusion_lat": 0.0, "type": "electric_scooter", "lon": -77.023769, "is_disabled": 0, "fusion_lon": 0.0, "rental_uris": {"android": "https://dc.lft.to/lastmile_qr_scan", "ios": "https://dc.lft.to/lastmile_qr_scan"}, "is_reserved": 0}, {"bike_id": "471fac44abe81cfefee5c26222cea0c1", "name": "471fac44abe81cfefee5c26222cea0c1", "lat": 38.944117166666665, "fusion_lat": 0.0, "type": "electric_scooter", "lon": -77.03265016666667, "is_disabled": 0, "fusion_lon": 0.0, "rental_uris": {"android": "https://dc.lft.to/lastmile_qr_scan", "ios": "https://dc.lft.to/lastmile_qr_scan"}, "is_reserved": 0}, {"bike_id": "dbc6853bc21b82da86ea79d6198dc835", "name": "dbc6853bc21b82da86ea79d6198dc835", "lat": 38.91886183333333, "fusion_lat": 0.0, "type": "electric_scooter", "lon": -77.02709216666666, "is_disabled": 0, "fusion_lon": 0.0, "rental_uris": {"android": "https://dc.lft.to/lastmile_qr_scan", "ios": "https://dc.lft.to/lastmile_qr_scan"}, "is_reserved": 0}, {"bike_id": "e75223bd9c5b69fa90773fba4b54a1e5", "name": "e75223bd9c5b69fa90773fba4b54a1e5", "lat": 38.905691166666664, "fusion_lat": 0.0, "type": "electric_scooter", "lon": -77.03070883333334, "is_disabled": 0, "fusion_lon": 0.0, "rental_uris": {"android": "https://dc.lft.to/lastmile_qr_scan", "ios": "https://dc.lft.to/lastmile_qr_scan"}, "is_reserved": 0}, {"bike_id": "ef8612d7f5743a63f1c7be0f0f5df0ae", "name": "ef8612d7f5743a63f1c7be0f0f5df0ae", "lat": 38.93504566666667, "fusion_lat": 0.0, "type": "electric_scooter", "lon": -77.04279883333334, "is_disabled": 0, "fusion_lon": 0.0, "rental_uris": {"android": "https://dc.lft.to/lastmile_qr_scan", "ios": "https://dc.lft.to/lastmile_qr_scan"}, "is_reserved": 0}, {"bike_id": "18e59cb55cc1cee9a79e0419b93e7b02", "name": "18e59cb55cc1cee9a79e0419b93e7b02", "lat": 38.95654016666667, "fusion_lat": 0.0, "type": "electric_scooter", "lon": -77.01283633333334, "is_disabled": 0, "fusion_lon": 0.0, "rental_uris": {"android": "https://dc.lft.to/lastmile_qr_scan", "ios": "https://dc.lft.to/lastmile_qr_scan"}, "is_reserved": 0}, {"bike_id": "ada7728d39a50e60b677579b4f14e39b", "name": "ada7728d39a50e60b677579b4f14e39b", "lat": 38.90736866666667, "fusion_lat": 0.0, "type": "electric_scooter", "lon": -77.00256016666667, "is_disabled": 0, "fusion_lon": 0.0, "rental_uris": {"android": "https://dc.lft.to/lastmile_qr_scan", "ios": "https://dc.lft.to/lastmile_qr_scan"}, "is_reserved": 0}, {"bike_id": "78d5f47bfe121090639984ac8d8cdb15", "name": "78d5f47bfe121090639984ac8d8cdb15", "lat": 38.881274, "fusion_lat": 0.0, "type": "electric_scooter", "lon": -77.016964, "is_disabled": 0, "fusion_lon": 0.0, "rental_uris": {"android": "https://dc.lft.to/lastmile_qr_scan", "ios": "https://dc.lft.to/lastmile_qr_scan"}, "is_reserved": 0}, {"bike_id": "af51c27a402b1c36ee22a2f21f5c5d53", "name": "af51c27a402b1c36ee22a2f21f5c5d53", "lat": 38.819371333333336, "fusion_lat": 0.0, "type": "electric_bike", "lon": -77.00218116666667, "is_disabled": 0, "fusion_lon": 0.0, "rental_uris": {"android": "https://dc.lft.to/lastmile_qr_scan", "ios": "https://dc.lft.to/lastmile_qr_scan"}, "is_reserved": 0}, {"bike_id": "60074f64722e76511a0cacd8548fd570", "name": "60074f64722e76511a0cacd8548fd570", "lat": 38.89792466666667, "fusion_lat": 0.0, "type": "electric_scooter", "lon": -77.01190683333333, "is_disabled": 0, "fusion_lon": 0.0, "rental_uris": {"android": "https://dc.lft.to/lastmile_qr_scan", "ios": "https://dc.lft.to/lastmile_qr_scan"}, "is_reserved": 0}, {"bike_id": "bc2a73675f7c27c608acb0e9fc3810fd", "name": "bc2a73675f7c27c608acb0e9fc3810fd", "lat": 38.902801333333336, "fusion_lat": 0.0, "type": "electric_scooter", "lon": -77.03863833333334, "is_disabled": 0, "fusion_lon": 0.0, "rental_uris": {"android": "https://dc.lft.to/lastmile_qr_scan", "ios": "https://dc.lft.to/lastmile_qr_scan"}, "is_reserved": 0}, {"bike_id": "16f91f60d2e2ed2d6f02d31d58344019", "name": "16f91f60d2e2ed2d6f02d31d58344019", "lat": 38.914054166666666, "fusion_lat": 0.0, "type": "electric_scooter", "lon": -77.03218166666667, "is_disabled": 0, "fusion_lon": 0.0, "rental_uris": {"android": "https://dc.lft.to/lastmile_qr_scan", "ios": "https://dc.lft.to/lastmile_qr_scan"}, "is_reserved": 0}, {"bike_id": "1b7a453bdc114bf0c1036f294bdc2fc4", "name": "1b7a453bdc114bf0c1036f294bdc2fc4", "lat": 38.91353683333333, "fusion_lat": 0.0, "type": "electric_scooter", "lon": -77.032096, "is_disabled": 0, "fusion_lon": 0.0, "rental_uris": {"android": "https://dc.lft.to/lastmile_qr_scan", "ios": "https://dc.lft.to/lastmile_qr_scan"}, "is_reserved": 0},