{"data": {"bikes": [{"is_disabled": 0, "fusion_lon": 0.0, "fusion_lat": 0.0, "lat": 38.9241915, "type": "electric_scooter", "lon": -77.0416125, "bike_id": "b12cb169a54067dcebed0d19343b0e49", "rental_uris": {"android": "https://dc.lft.to/lastmile_qr_scan", "ios": "https://dc.lft.to/lastmile_qr_scan"}, "name": "b12cb169a54067dcebed0d19343b0e49", "is_reserved": 0}, {"is_disabled": 0, "fusion_lon": 0.0, "fusion_lat": 0.0, "lat": 38.93767416666667, "type": "electric_scooter", "lon": -77.03088866666667, "bike_id": "9e68c19d8960e4efb420c13f3bb035cc", "rental_uris": {"android": "https://dc.lft.to/lastmile_qr_scan", "ios": "https://dc.lft.to/lastmile_qr_scan"}, "name": "9e68c19d8960e4efb420c13f3bb035cc", "is_reserved": 0}, {"is_disabled": 0, "fusion_lon": 0.0, "fusion_lat": 0.0, "lat": 38.8798165, "type": "electric_bike", "lon": -76.91598016666667, "bike_id": "95999454d7b77036b21d95841c144f0d", "rental_uris": {"android": "https://dc.lft.to/lastmile_qr_scan", "ios": "https://dc.lft.to/lastmile_qr_scan"}, "name": "95999454d7b77036b21d95841c144f0d", "is_reserved": 0}, {"is_disabled": 0, "fusion_lon": 0.0, "fusion_lat": 0.0, "lat": 38.907332, "type": "electric_scooter", "lon": -77.03829016666667, "bike_id": "49bb1198a823b6b0c5453a9f035d4bb7", "rental_uris": {"android": "https://dc.lft.to/lastmile_qr_scan", "ios": "https://dc.lft.to/lastmile_qr_scan"}, "name": "49bb1198a823b6b0c5453a9f035d4bb7", "is_reserved": 0}, {"is_disabled": 0, "fusion_lon": 0.0, "fusion_lat": 0.0, "lat": 38.9664595, "type": "electric_bike", "lon": -76.93025583333333, "bike_id": "7646044a01eac06142666d311ed1811a", "rental_uris": {"android": "https://dc.lft.to/lastmile_qr_scan", "ios": "https://dc.lft.to/lastmile_qr_scan"}, "name": "7646044a01eac06142666d311ed1811a", "is_reserved": 0}, {"is_disabled": 0, "fusion_lon": 0.0, "fusion_lat": 0.0, "lat": 38.90831716666667, "type": "electric_scooter", "lon": -77.002308, "bike_id": "a29a9533b75404baebccfe7e4a645e2e", "rental_uris": {"android": "https://dc.lft.to/lastmile_qr_scan", "ios": "https://dc.lft.to/lastmile_qr_scan"}, "name": "a29a9533b75404baebccfe7e4a645e2e", "is_reserved": 0}, {"is_disabled": 0, "fusion_lon": 0.0, "fusion_lat": 0.0, "lat": 38.9117805, "type": "electric_scooter", "lon": -77.00451316666667, "bike_id": "af590a76b5c0f94417c69f5d452528bb", "rental_uris": {"android": "https://dc.lft.to/lastmile_qr_scan", "ios": "https://dc.lft.to/lastmile_qr_scan"}, "name": "af590a76b5c0f94417c69f5d452528bb", "is_reserved": 0}, {"is_disabled": 0, "fusion_lon": 0.0, "fusion_lat": 0.0, "lat": 38.9037545, "type": "electric_scooter", "lon": -77.05033183333333, "bike_id": "6d78ec09a8f22578f084cffed5c21d0a", "rental_uris": {"android": "https://dc.lft.to/lastmile_qr_scan", "ios": "https://dc.lft.to/lastmile_qr_scan"}, "name": "6d78ec09a8f22578f084cffed5c21d0a", "is_reserved": 0}, {"is_disabled": 0, "fusion_lon": 0.0, "fusion_lat": 0.0, "lat": 38.9162445, "type": "electric_scooter", "lon": -77.0459625, "bike_id": "40c356bb9792fd3b7c50c5a8058c6ab4", "rental_uris": {"android": "https://dc.lft.to/lastmile_qr_scan", "ios": "https://dc.lft.to/lastmile_qr_scan"}, "name": "40c356bb9792fd3b7c50c5a8058c6ab4", "is_reserved": 0}, {"is_disabled": 0, "fusion_lon": 0.0, "fusion_lat": 0.0, "lat": 38.90269633333333, "type": "electric_scooter", "lon": -77.03440316666666, "bike_id": "0ce0a85a5678a4677dcf18eb3f32ed6e", "rental_uris": {"android": "https://dc.lft.to/lastmile_qr_scan", "ios": "https://dc.lft.to/lastmile_qr_scan"}, "name": "0ce0a85a5678a4677dcf18eb3f32ed6e", "is_reserved": 0}, {"is_disabled": 0, "fusion_lon": 0.0, "fusion_lat": 0.0, "lat": 38.91909283333333, "type": "electric_scooter", "lon": -77.02408333333334, "bike_id": "26c6c3b8b48e7fbfe194670bfff9015c", "rental_uris": {"android": "https://dc.lft.to/lastmile_qr_scan", "ios": "https://dc.lft.to/lastmile_qr_scan"}, "name": "26c6c3b8b48e7fbfe194670bfff9015c", "is_reserved": 0}, {"is_disabled": 0, "fusion_lon": 0.0, "fusion_lat": 0.0, "lat": 38.8974415, "type": "electric_scooter", "lon": -77.04805816666666, "bike_id": "6d7c24f69466468847d3472c9e5161a7", "rental_uris": {"android": "https://dc.lft.to/lastmile_qr_scan", "ios": "https://dc.lft.to/lastmile_qr_scan"}, "name": "6d7c24f69466468847d3472c9e5161a7", "is_reserved": 0}, {"is_disabled": 0, "fusion_lon": 0.0, "fusion_lat": 0.0, "lat": 38.91626333333333, "type": "electric_bike", "lon": -77.01360616666666, "bike_id": "dc1c0e88ab76784d77cd5c8b3c765ab5", "rental_uris": {"android": "https://dc.lft.to/lastmile_qr_scan", "ios": "https://dc.lft.to/lastmile_qr_scan"}, "name": "dc1c0e88ab76784d77cd5c8b3c765ab5", "is_reserved": 0}, {"is_disabled": 0, "fusion_lon": 0.0, "fusion_lat": 0.0, "lat": 38.873101166666665, "type": "electric_bike", "lon": -76.97105533333334, "bike_id": "3265f860349db5c34db3bedc668934a0", "rental_uris": {"android": "https://dc.lft.to/lastmile_qr_scan", "ios": "https://dc.lft.to/lastmile_qr_scan"}, "name": "3265f860349db5c34db3bedc668934a0", "is_reserved": 0}, {"is_disabled": 0, "fusion_lon": 0.0, "fusion_lat": 0.0, "lat": 38.88069933333333, "type": "electric_scooter", "lon": -77.0167305, "bike_id": "0d330fd4b95ab5224dba287ec7656187", "rental_uris": {"android": "https://dc.lft.to/lastmile_qr_scan", "ios": "https://dc.lft.to/lastmile_qr_scan"}, "name": "0d330fd4b95ab5224dba287ec7656187", "is_reserved": 0}, {"is_disabled": 0, "fusion_lon": 0.0, "fusion_lat": 0.0, "lat": 38.953785, "type": "electric_scooter", "lon": -77.025616, "bike_id": "61be00a7c533bb2970d5000059c26892", "rental_uris": {"android": "https://dc.lft.to/lastmile_qr_scan", "ios": "https://dc.lft.to/lastmile_qr_scan"}, "name": "61be00a7c533bb2970d5000059c26892", "is_reserved": 0}, {"is_disabled": 0, "fusion_lon": 0.0, "fusion_lat": 0.0, "lat": 38.92247416666667, "type": "electric_scooter", "lon": -77.030841, "bike_id": "f604e05b175c0ddb185ce52cf782d521", "rental_uris": {"android": "https://dc.lft.to/lastmile_qr_scan", "ios": "https://dc.lft.to/lastmile_qr_scan"}, "name": "f604e05b175c0ddb185ce52cf782d521", "is_reserved": 0}, {"is_disabled": 0, "fusion_lon": 0.0, "fusion_lat": 0.0, "lat": 38.903753, "type": "electric_scooter", "lon": -77.032104, "bike_id": "f3d5666d79cf7621db8de56a4ea20002", "rental_uris": {"android": "https://dc.lft.to/lastmile_qr_scan", "ios": "https://dc.lft.to/lastmile_qr_scan"}, "name": "f3d5666d79cf7621db8de56a4ea20002", "is_reserved": 0}, {"is_disabled": 0, "fusion_lon": 0.0, "fusion_lat": 0.0, "lat": 38.918158166666664, "type": "electric_scooter", "lon": -77.032531, "bike_id": "6022917eb3737060ae62ed2db2dd16d6", "rental_uris": {"android": "https://dc.lft.to/lastmile_qr_scan", "ios": "https://dc.lft.to/lastmile_qr_scan"}, "name": "6022917eb3737060ae62ed2db2dd16d6", "is_reserved": 0}, {"is_disabled": 0, "fusion_lon": 0.0, "fusion_lat": 0.0, "lat": 38.965041, "type": "electric_scooter", "lon": -77.02485916666667, "bike_id": "e21b02680db0ac2ab72240db09445e57", "rental_uris": {"android": "https://dc.lft.to/lastmile_qr_scan", "ios": "https://dc.lft.to/lastmile_qr_scan"}, "name": "e21b02680db0ac2ab72240db09445e57", "is_reserved": 0}, {"is_disabled": 0, "fusion_lon": 0.0, "fusion_lat": 0.0, "lat": 38.953983, "type": "electric_scooter", "lon": -77.02756216666667, "bike_id": "019be6c904b085f16b1c8034f4e5a5f6", "rental_uris": {"android": "https://dc.lft.to/lastmile_qr_scan", "ios": "https://dc.lft.to/lastmile_qr_scan"}, "name": "019be6c904b085f16b1c8034f4e5a5f6", "is_reserved": 0}, {"is_disabled": 0, "fusion_lon": 0.0, "fusion_lat": 0.0, "lat": 38.8922265, "type": "electric_scooter", "lon": -77.03336533333334, "bike_id": "e181b26b0b92d0ab0b84f373697cb3eb", "rental_uris": {"android": "https://dc.lft.to/lastmile_qr_scan", "ios": "https://dc.lft.to/lastmile_qr_scan"}, "name": "e181b26b0b92d0ab0b84f373697cb3eb", "is_reserved": 0}, {"is_disabled": 0, "fusion_lon": 0.0, "fusion_lat": 0.0, "lat": 38.85837683333333, "type": "electric_bike", "lon": -76.992842, "bike_id": "3d40f85250542ba2a4cf000ebddbdd08", "rental_uris": {"android": "https://dc.lft.to/lastmile_qr_scan", "ios": "https://dc.lft.to/lastmile_qr_scan"}, "name": "3d40f85250542ba2a4cf000ebddbdd08", "is_reserved": 0}, {"is_disabled": 0, "fusion_lon": 0.0, "fusion_lat": 0.0, "lat": 38.930029833333336, "type": "electric_scooter", "lon": -77.0782725, "bike_id": "458e1757363a111bebf571452e8ddefd", "rental_uris": {"android": "https://dc.lft.to/lastmile_qr_scan", "ios": "https://dc.lft.to/lastmile_qr_scan"}, "name": "458e1757363a111bebf571452e8ddefd", "is_reserved": 0}, {"is_disabled": 0, "fusion_lon": 0.0, "fusion_lat": 0.0, "lat": 38.90519416666667, "type": "electric_scooter", "lon": -77.0503465, "bike_id": "ec5866bd8066a75ce1e86e13ea53638e", "rental_uris": {"android": "https://dc.lft.to/lastmile_qr_scan", "ios": "https://dc.lft.to/lastmile_qr_scan"}, "name": "ec5866bd8066a75ce1e86e13ea53638e", "is_reserved": 0}, {"is_disabled": 0, "fusion_lon": 0.0, "fusion_lat": 0.0, "lat": 38.88631516666667, "type": "electric_scooter", "lon": -76.95513416666667, "bike_id": "6b926cc4d55b0a1aeb2a9165792c90da", "rental_uris": {"android": "https://dc.lft.to/lastmile_qr_scan", "ios": "https://dc.lft.to/lastmile_qr_scan"}, "name": "6b926cc4d55b0a1aeb2a9165792c90da", "is_reserved": 0}, {"is_disabled": 0, "fusion_lon": 0.0, "fusion_lat": 0.0, "lat": 38.945603, "type": "electric_bike", "lon": -77.051285, "bike_id": "3e1523cd929fb9b247e6fe532f0d6f96", "rental_uris": {"android": "https://dc.lft.to/lastmile_qr_scan", "ios": "https://dc.lft.to/lastmile_qr_scan"}, "name": "3e1523cd929fb9b247e6fe532f0d6f96", "is_reserved": 0}, {"is_disabled": 0, "fusion_lon": 0.0, "fusion_lat": 0.0, "lat": 38.916048, "type": "electric_scooter", "lon": -77.02127483333334, "bike_id": "a60065af6e44564591e005ed5c7396d9", "rental_uris": {"android": "https://dc.lft.to/lastmile_qr_scan", "ios": "https://dc.lft.to/lastmile_qr_scan"}, "name": "a60065af6e44564591e005ed5c7396d9", "is_reserved": 0}, {"is_disabled": 0, "fusion_lon": 0.0, "fusion_lat": 0.0, "lat": 38.924854, "type": "electric_scooter", "lon": -77.0376825, "bike_id": "d3d007b02537c73331a9eeee7e64c746", "rental_uris": {"android": "https://dc.lft.to/lastmile_qr_scan", "ios": "https://dc.lft.to/lastmile_qr_scan"}, "name": "d3d007b02537c73331a9eeee7e64c746", "is_reserved": 0}, {"is_disabled": 0, "fusion_lon": 0.0, "fusion_lat": 0.0, "lat": 38.90029366666667, "type": "electric_scooter", "lon": -77.03990483333334, "bike_id": "553082b48b85349e4610c3e80c13e9c8", "rental_uris": {"android": "https://dc.lft.to/lastmile_qr_scan", "ios": "https://dc.lft.to/lastmile_qr_scan"}, "name": "553082b48b85349e4610c3e80c13e9c8", "is_reserved": 0}, {"is_disabled": 0, "fusion_lon": 0.0, "fusion_lat": 0.0, "lat": 38.9181765, "type": "electric_scooter", "lon": -77.03637816666667, "bike_id": "28b65a159efb7a80e2acfe5a2e9aec6e", "rental_uris": {"android": "https://dc.lft.to/lastmile_qr_scan", "ios": "https://dc.lft.to/lastmile_qr_scan"}, "name": "28b65a159efb7a80e2acfe5a2e9aec6e", "is_reserved": 0}, {"is_disabled": 0, "fusion_lon": 0.0, "fusion_lat": 0.0, "lat": 38.916065, "type": "electric_scooter", "lon": -77.0459725, "bike_id": "33cdeb13098f95783854ffb6c03f976f", "rental_uris": {"android": "https://dc.lft.to/lastmile_qr_scan", "ios": "https://dc.lft.to/lastmile_qr_scan"}, "name": "33cdeb13098f95783854ffb6c03f976f", "is_reserved": 0}, {"is_disabled": 0, "fusion_lon": 0.0, "fusion_lat": 0.0, "lat": 38.8775505, "type": "electric_bike", "lon": -76.979953, "bike_id": "4827aa56b750e8c67f916818ee8ccca9", "rental_uris": {"android": "https://dc.lft.to/lastmile_qr_scan", "ios": "https://dc.lft.to/lastmile_qr_scan"}, "name": "4827aa56b750e8c67f916818ee8ccca9", "is_reserved": 0}, {"is_disabled": 0, "fusion_lon": 0.0, "fusion_lat": 0.0, "lat": 38.92575266666667, "type": "electric_scooter", "lon": -77.08052383333333, "bike_id": "01f0d3daffdece38f390b4c9e7a161cf", "rental_uris": {"android": "https://dc.lft.to/lastmile_qr_scan", "ios": "https://dc.lft.to/lastmile_qr_scan"}, "name": "01f0d3daffdece38f390b4c9e7a161cf", "is_reserved": 0}, {"is_disabled": 0, "fusion_lon": 0.0, "fusion_lat": 0.0, "lat": 38.922886, "type": "electric_scooter", "lon": -77.04463116666666, "bike_id": "f905de391c95dae665842d5c83e3081e", "rental_uris": {"android": "https://dc.lft.to/lastmile_qr_scan", "ios": "https://dc.lft.to/lastmile_qr_scan"}, "name": "f905de391c95dae665842d5c83e3081e", "is_reserved": 0}, {"is_disabled": 0, "fusion_lon": 0.0, "fusion_lat": 0.0, "lat": 38.9246635, "type": "electric_scooter", "lon": -77.07868483333333, "bike_id": "02e3eca267c5d1834161ca3627da20a9", "rental_uris": {"android": "https://dc.lft.to/lastmile_qr_scan", "ios": "https://dc.lft.to/lastmile_qr_scan"}, "name": "02e3eca267c5d1834161ca3627da20a9", "is_reserved": 0}, {"is_disabled": 0, "fusion_lon": 0.0, "fusion_lat": 0.0, "lat": 38.905786666666664, "type": "electric_scooter", "lon": -77.055911, "bike_id": "31fecffe8a365a694d03adc1b2f88687", "rental_uris": {"android": "https://dc.lft.to/lastmile_qr_scan", "ios": "https://dc.lft.to/lastmile_qr_scan"}, "name": "31fecffe8a365a694d03adc1b2f88687", "is_reserved": 0}, {"is_disabled": 0, "fusion_lon": 0.0, "fusion_lat": 0.0, "lat": 38.902873666666665, "type": "electric_scooter", "lon": -77.04888516666666, "bike_id": "d0bd35a76d6ff102bdb12cac3a878086", "rental_uris": {"android": "https://dc.lft.to/lastmile_qr_scan", "ios": "https://dc.lft.to/lastmile_qr_scan"}, "name": "d0bd35a76d6ff102bdb12cac3a878086", "is_reserved": 0}, {"is_disabled": 0, "fusion_lon": 0.0, "fusion_lat": 0.0, "lat": 38.85321233333333, "type": "electric_bike", "lon": -77.05333033333334, "bike_id": "2f42fe89c9be4cdb096e07fd43fbc331", "rental_uris": {"android": "https://dc.lft.to/lastmile_qr_scan", "ios": "https://dc.lft.to/lastmile_qr_scan"}, "name": "2f42fe89c9be4cdb096e07fd43fbc331", "is_reserved": 0}, {"is_disabled": 0, "fusion_lon": 0.0, "fusion_lat": 0.0, "lat": 38.94067833333333, "type": "electric_scooter", "lon": -77.02877933333333, "bike_id": "54e026d7e95fd5ca26c03f613baa10b3", "rental_uris": {"android": "https://dc.lft.to/lastmile_qr_scan", "ios": "https://dc.lft.to/lastmile_qr_scan"}, "name": "54e026d7e95fd5ca26c03f613baa10b3", "is_reserved": 0}, {"is_disabled": 0, "fusion_lon": 0.0, "fusion_lat": 0.0, "lat": 38.914660833333336, "type": "electric_scooter", "lon": -76.98454466666666, "bike_id": "6f0035a243cb3bc083dedc88f4d5f3dd", "rental_uris": {"android": "https://dc.lft.to/lastmile_qr_scan", "ios": "https://dc.lft.to/lastmile_qr_scan"}, "name": "6f0035a243cb3bc083dedc88f4d5f3dd", "is_reserved": 0}, {"is_disabled": 0, "fusion_lon": 0.0, "fusion_lat": 0.0, "lat": 38.8952085, "type": "electric_scooter", "lon": -77.0485815, "bike_id": "d6fa820f77a22968e04cbbfc7b1f1d31", "rental_uris": {"android": "https://dc.lft.to/lastmile_qr_scan", "ios": "https://dc.lft.to/lastmile_qr_scan"}, "name": "d6fa820f77a22968e04cbbfc7b1f1d31", "is_reserved": 0}, {"is_disabled": 0, "fusion_lon": 0.0, "fusion_lat": 0.0, "lat": 38.93963933333333, "type": "electric_bike", "lon": -77.36096816666667, "bike_id": "020776cd74eb6a3fd32af125976a8fff", "rental_uris": {"android": "https://dc.lft.to/lastmile_qr_scan", "ios": "https://dc.lft.to/lastmile_qr_scan"}, "name": "020776cd74eb6a3fd32af125976a8fff", "is_reserved": 0}, {"is_disabled": 0, "fusion_lon": 0.0, "fusion_lat": 0.0, "lat": 38.92107033333333, "type": "electric_scooter", "lon": -77.0177315, "bike_id": "b8f9e4fc816fa199a44888afd7d5f4f8", "rental_uris": {"android": "https://dc.lft.to/lastmile_qr_scan", "ios": "https://dc.lft.to/lastmile_qr_scan"}, "name": "b8f9e4fc816fa199a44888afd7d5f4f8", "is_reserved": 0}, {"is_disabled": 0, "fusion_lon": 0.0, "fusion_lat": 0.0, "lat": 38.91202083333334, "type": "electric_scooter", "lon": -76.98484033333334, "bike_id": "fa49ca7708f817e6d6172cbd1a561a87", "rental_uris": {"android": "https://dc.lft.to/lastmile_qr_scan", "ios": "https://dc.lft.to/lastmile_qr_scan"}, "name": "fa49ca7708f817e6d6172cbd1a561a87", "is_reserved": 0}, {"is_disabled": 0, "fusion_lon": 0.0, "fusion_lat": 0.0, "lat": 38.887588666666666, "type": "electric_scooter", "lon": -77.00228783333333, "bike_id": "edfb14ecbdd4a34b02ed3929c7e7fbda", "rental_uris": {"android": "https://dc.lft.to/lastmile_qr_scan", "ios": "https://dc.lft.to/lastmile_qr_scan"}, "name": "edfb14ecbdd4a34b02ed3929c7e7fbda", "is_reserved": 0}, {"is_disabled": 0, "fusion_lon": 0.0, "fusion_lat": 0.0, "lat": 38.8763575, "type": "electric_scooter", "lon": -76.9976355, "bike_id": "dcf01308eeb1ccc25b4c6eb3913c040f", "rental_uris": {"android": "https://dc.lft.to/lastmile_qr_scan", "ios": "https://dc.lft.to/lastmile_qr_scan"}, "name": "dcf01308eeb1ccc25b4c6eb3913c040f", "is_reserved": 0}, {"is_disabled": 0, "fusion_lon": 0.0, "fusion_lat": 0.0, "lat": 38.90184266666667, "type": "electric_scooter", "lon": -77.05036516666667, "bike_id": "1c8f5400bcf39da03d8429de8198f069", "rental_uris": {"android": "https://dc.lft.to/lastmile_qr_scan", "ios": "https://dc.lft.to/lastmile_qr_scan"}, "name": "1c8f5400bcf39da03d8429de8198f069", "is_reserved": 0}, {"is_disabled": 0, "fusion_lon": 0.0, "fusion_lat": 0.0, "lat": 38.899966666666664, "type": "electric_scooter", "lon": -76.99164333333333, "bike_id": "4ca005b02aa32b4ad5665e6e6b0a6fb6", "rental_uris": {"android": "https://dc.lft.to/lastmile_qr_scan", "ios": "https://dc.lft.to/lastmile_qr_scan"}, "name": "4ca005b02aa32b4ad5665e6e6b0a6fb6", "is_reserved": 0}, {"is_disabled": 0, "fusion_lon": 0.0, "fusion_lat": 0.0, "lat": 38.90195533333333, "type": "electric_scooter", "lon": -77.03942983333333, "bike_id": "9010396b4b46fe6df39689e17f0b1849", "rental_uris": {"android": "https://dc.lft.to/lastmile_qr_scan", "ios": "https://dc.lft.to/lastmile_qr_scan"}, "name": "9010396b4b46fe6df39689e17f0b1849", "is_reserved": 0}, {"is_disabled": 0, "fusion_lon": 0.0, "fusion_lat": 0.0, "lat": 38.901789666666666, "type": "electric_scooter", "lon": -76.993876, "bike_id": "08ce99e921ccd7b9e2b13672249342a2", "rental_uris": {"android": "https://dc.lft.to/lastmile_qr_scan", "ios": "https://dc.lft.to/lastmile_qr_scan"}, "name": "08ce99e921ccd7b9e2b13672249342a2", "is_reserved": 0}, {"is_disabled": 0, "fusion_lon": 0.0, "fusion_lat": 0.0, "lat": 38.87209033333333, "type": "electric_bike", "lon": -76.95488133333333, "bike_id": "17c1bbb59b8ad46ac429c83b67204051", "rental_uris": {"android": "https://dc.lft.to/lastmile_qr_scan", "ios": "https://dc.lft.to/lastmile_qr_scan"}, "name": "17c1bbb59b8ad46ac429c83b67204051", "is_reserved": 0}, {"is_disabled": 0, "fusion_lon": 0.0, "fusion_lat": 0.0, "lat": 38.90280033333333, "type": "electric_scooter", "lon": -77.00326166666666, "bike_id": "8afb5eb6acfd91f92bc639aeb3fa780c", "rental_uris": {"android": "https://dc.lft.to/lastmile_qr_scan", "ios": "https://dc.lft.to/lastmile_qr_scan"}, "name": "8afb5eb6acfd91f92bc639aeb3fa780c", "is_reserved": 0}, {"is_disabled": 0, "fusion_lon": 0.0, "fusion_lat": 0.0, "lat": 38.948466833333335, "type": "electric_bike", "lon": -76.972154, "bike_id": "f4559891ae1072caf9405924103c1b6f", "rental_uris": {"android": "https://dc.lft.to/lastmile_qr_scan", "ios": "https://dc.lft.to/lastmile_qr_scan"}, "name": "f4559891ae1072caf9405924103c1b6f", "is_reserved": 0}, {"is_disabled": 0, "fusion_lon": 0.0, "fusion_lat": 0.0, "lat": 38.970645166666664, "type": "electric_bike", "lon": -76.96047716666666, "bike_id": "8994a64645b08cca3b434598b9902f95", "rental_uris": {"android": "https://dc.lft.to/lastmile_qr_scan", "ios": "https://dc.lft.to/lastmile_qr_scan"}, "name": "8994a64645b08cca3b434598b9902f95", "is_reserved": 0}, {"is_disabled": 0, "fusion_lon": 0.0, "fusion_lat": 0.0, "lat": 38.917276, "type": "electric_scooter", "lon": -76.99176816666667, "bike_id": "2bb4364d2722a7363ee136e30a4f9e80", "rental_uris": {"android": "https://dc.lft.to/lastmile_qr_scan", "ios": "https://dc.lft.to/lastmile_qr_scan"}, "name": "2bb4364d2722a7363ee136e30a4f9e80", "is_reserved": 0}, {"is_disabled": 0, "fusion_lon": 0.0, "fusion_lat": 0.0, "lat": 38.88764716666667, "type": "electric_scooter", "lon": -76.98911233333334, "bike_id": "85fa6d31e1e8583dce9166171c7f899c", "rental_uris": {"android": "https://dc.lft.to/lastmile_qr_scan", "ios": "https://dc.lft.to/lastmile_qr_scan"}, "name": "85fa6d31e1e8583dce9166171c7f899c", "is_reserved": 0}, {"is_disabled": 0, "fusion_lon": 0.0, "fusion_lat": 0.0, "lat": 38.918514, "type": "electric_scooter", "lon": -77.0319965, "bike_id": "10596edfb0f6a150cadcfec5c63e239d", "rental_uris": {"android": "https://dc.lft.to/lastmile_qr_scan", "ios": "https://dc.lft.to/lastmile_qr_scan"}, "name": "10596edfb0f6a150cadcfec5c63e239d", "is_reserved": 0}, {"is_disabled": 0, "fusion_lon": 0.0, "fusion_lat": 0.0, "lat": 38.91820083333333, "type": "electric_scooter", "lon": -77.0314035, "bike_id": "18844c2b7516b75ff9af6bb99e5eb58d", "rental_uris": {"android": "https://dc.lft.to/lastmile_qr_scan", "ios": "https://dc.lft.to/lastmile_qr_scan"}, "name": "18844c2b7516b75ff9af6bb99e5eb58d", "is_reserved": 0}, {"is_disabled": 0, "fusion_lon": 0.0, "fusion_lat": 0.0, "lat": 38.960202833333334, "type": "electric_scooter", "lon": -77.03314616666667, "bike_id": "9b9410e7f076515c60490c1c6b14fcb6", "rental_uris": {"android": "https://dc.lft.to/lastmile_qr_scan", "ios": "https://dc.lft.to/lastmile_qr_scan"}, "name": "9b9410e7f076515c60490c1c6b14fcb6", "is_reserved": 0}, {"is_disabled": 0, "fusion_lon": 0.0, "fusion_lat": 0.0, "lat": 38.92768516666667, "type": "electric_scooter", "lon": -77.027895, "bike_id": "e7bac6fa536eb3997e01a275ba70f466", "rental_uris": {"android": "https://dc.lft.to/lastmile_qr_scan", "ios": "https://dc.lft.to/lastmile_qr_scan"}, "name": "e7bac6fa536eb3997e01a275ba70f466", "is_reserved": 0}, {"is_disabled": 0, "fusion_lon": 0.0, "fusion_lat": 0.0, "lat": 38.9095355, "type": "electric_scooter", "lon": -77.02184783333334, "bike_id": "7b5f326122596f7b7279ab0f2ec04d0a", "rental_uris": {"android": "https://dc.lft.to/lastmile_qr_scan", "ios": "https://dc.lft.to/lastmile_qr_scan"}, "name": "7b5f326122596f7b7279ab0f2ec04d0a", "is_reserved": 0}, {"is_disabled": 0, "fusion_lon": 0.0, "fusion_lat": 0.0, "lat": 38.8461925, "type": "electric_scooter", "lon": -76.99628266666667, "bike_id": "ddb3459aaaa9dba79e48ed4be59cdbe8", "rental_uris": {"android": "https://dc.lft.to/lastmile_qr_scan", "ios": "https://dc.lft.to/lastmile_qr_scan"}, "name": "ddb3459aaaa9dba79e48ed4be59cdbe8", "is_reserved": 0}, {"is_disabled": 0, "fusion_lon": 0.0, "fusion_lat": 0.0, "lat": 38.8652555, "type": "electric_scooter", "lon": -76.9896945, "bike_id": "2ced1be2d59fa36fc0e67d224cd33b32", "rental_uris": {"android": "https://dc.lft.to/lastmile_qr_scan", "ios": "https://dc.lft.to/lastmile_qr_scan"}, "name": "2ced1be2d59fa36fc0e67d224cd33b32", "is_reserved": 0}, {"is_disabled": 0, "fusion_lon": 0.0, "fusion_lat": 0.0, "lat": 38.899014333333334, "type": "electric_scooter", "lon": -77.039834, "bike_id": "6540a4eaa7ba3f217f6ba13095e64ba0", "rental_uris": {"android": "https://dc.lft.to/lastmile_qr_scan", "ios": "https://dc.lft.to/lastmile_qr_scan"}, "name": "6540a4eaa7ba3f217f6ba13095e64ba0", "is_reserved": 0}, {"is_disabled": 0, "fusion_lon": 0.0, "fusion_lat": 0.0, "lat": 38.92440883333333, "type": "electric_scooter", "lon": -77.026081, "bike_id": "d84e26da1d0b79cee04aa73564bb8a85", "rental_uris": {"android": "https://dc.lft.to/lastmile_qr_scan", "ios": "https://dc.lft.to/lastmile_qr_scan"}, "name": "d84e26da1d0b79cee04aa73564bb8a85", "is_reserved": 0}, {"is_disabled": 0, "fusion_lon": 0.0, "fusion_lat": 0.0, "lat": 38.91420683333333, "type": "electric_scooter", "lon": -77.029714, "bike_id": "adb8e809029cf1508fdeef6412484ab6", "rental_uris": {"android": "https://dc.lft.to/lastmile_qr_scan", "ios": "https://dc.lft.to/lastmile_qr_scan"}, "name": "adb8e809029cf1508fdeef6412484ab6", "is_reserved": 0}, {"is_disabled": 0, "fusion_lon": 0.0, "fusion_lat": 0.0, "lat": 38.91121483333333, "type": "electric_scooter", "lon": -77.042119, "bike_id": "7237469ab373d432cc6a061e1c4d00ce", "rental_uris": {"android": "https://dc.lft.to/lastmile_qr_scan", "ios": "https://dc.lft.to/lastmile_qr_scan"}, "name": "7237469ab373d432cc6a061e1c4d00ce", "is_reserved": 0}, {"is_disabled": 0, "fusion_lon": 0.0, "fusion_lat": 0.0, "lat": 38.917781833333336, "type": "electric_scooter", "lon": -77.04151116666667, "bike_id": "3fc79a0ab6b79554b19bc1c249213060", "rental_uris": {"android": "https://dc.lft.to/lastmile_qr_scan", "ios": "https://dc.lft.to/lastmile_qr_scan"}, "name": "3fc79a0ab6b79554b19bc1c249213060", "is_reserved": 0}, {"is_disabled": 0, "fusion_lon": 0.0, "fusion_lat": 0.0, "lat": 38.89998166666667, "type": "electric_scooter", "lon": -77.03339733333334, "bike_id": "610a345e6bdd23415b35f1ff8115a464", "rental_uris": {"android": "https://dc.lft.to/lastmile_qr_scan", "ios": "https://dc.lft.to/lastmile_qr_scan"}, "name": "610a345e6bdd23415b35f1ff8115a464", "is_reserved": 0}, {"is_disabled": 0, "fusion_lon": 0.0, "fusion_lat": 0.0, "lat": 38.92136566666667, "type": "electric_scooter", "lon": -77.0445055, "bike_id": "013c0a8320672dc23e0673c3d492d564", "rental_uris": {"android": "https://dc.lft.to/lastmile_qr_scan", "ios": "https://dc.lft.to/lastmile_qr_scan"}, "name": "013c0a8320672dc23e0673c3d492d564", "is_reserved": 0}, {"is_disabled": 0, "fusion_lon": 0.0, "fusion_lat": 0.0, "lat": 38.92131116666667, "type": "electric_scooter", "lon": -77.04388, "bike_id": "ff8abdbe3c2139b5c078c441e3bf0833", "rental_uris": {"android": "https://dc.lft.to/lastmile_qr_scan", "ios": "https://dc.lft.to/lastmile_qr_scan"}, "name": "ff8abdbe3c2139b5c078c441e3bf0833", "is_reserved": 0}, {"is_disabled": 0, "fusion_lon": 0.0, "fusion_lat": 0.0, "lat": 38.89228216666667, "type": "electric_scooter", "lon": -77.04362833333333, "bike_id": "ec712015b9d2b5c89adfb65384eeb74c", "rental_uris": {"android": "https://dc.lft.to/lastmile_qr_scan", "ios": "https://dc.lft.to/lastmile_qr_scan"}, "name": "ec712015b9d2b5c89adfb65384eeb74c", "is_reserved": 0}, {"is_disabled": 0, "fusion_lon": 0.0, "fusion_lat": 0.0, "lat": 38.85280933333333, "type": "electric_bike", "lon": -76.981555, "bike_id": "05c45ba7106b2a5697bafbc200ddb4e8", "rental_uris": {"android": "https://dc.lft.to/lastmile_qr_scan", "ios": "https://dc.lft.to/lastmile_qr_scan"}, "name": "05c45ba7106b2a5697bafbc200ddb4e8", "is_reserved": 0}, {"is_disabled": 0, "fusion_lon": 0.0, "fusion_lat": 0.0, "lat": 38.857814, "type": "electric_bike", "lon": -76.987648, "bike_id": "451ae7da0d48db3a044fe0d55f4029b5", "rental_uris": {"android": "https://dc.lft.to/lastmile_qr_scan", "ios": "https://dc.lft.to/lastmile_qr_scan"}, "name": "451ae7da0d48db3a044fe0d55f4029b5", "is_reserved": 0}, {"is_disabled": 0, "fusion_lon": 0.0, "fusion_lat": 0.0, "lat": 38.904692833333335, "type": "electric_bike", "lon": -76.92947383333333, "bike_id": "79677fd6f5f69c1670adffe0d0632461", "rental_uris": {"android": "https://dc.lft.to/lastmile_qr_scan", "ios": "https://dc.lft.to/lastmile_qr_scan"}, "name": "79677fd6f5f69c1670adffe0d0632461", "is_reserved": 0}, {"is_disabled": 0, "fusion_lon": 0.0, "fusion_lat": 0.0, "lat": 38.9043975, "type": "electric_scooter", "lon": -77.0240845, "bike_id": "d546c9b0645f40a158cd70e922cd4094", "rental_uris": {"android": "https://dc.lft.to/lastmile_qr_scan", "ios": "https://dc.lft.to/lastmile_qr_scan"}, "name": "d546c9b0645f40a158cd70e922cd4094", "is_reserved": 0}, {"is_disabled": 0, "fusion_lon": 0.0, "fusion_lat": 0.0, "lat": 38.905780666666665, "type": "electric_scooter", "lon": -77.05598666666667, "bike_id": "8894755d713b6837c26a8f9f029be50b", "rental_uris": {"android": "https://dc.lft.to/lastmile_qr_scan", "ios": "https://dc.lft.to/lastmile_qr_scan"}, "name": "8894755d713b6837c26a8f9f029be50b", "is_reserved": 0}, {"is_disabled": 0, "fusion_lon": 0.0, "fusion_lat": 0.0, "lat": 38.94332566666667, "type": "electric_bike", "lon": -77.01479716666667, "bike_id": "5ff548f4deacdaef319b8290e99e82f8", "rental_uris": {"android": "https://dc.lft.to/lastmile_qr_scan", "ios": "https://dc.lft.to/lastmile_qr_scan"}, "name": "5ff548f4deacdaef319b8290e99e82f8", "is_reserved": 0}, {"is_disabled": 0, "fusion_lon": 0.0, "fusion_lat": 0.0, "lat": 38.887426166666664, "type": "electric_scooter", "lon": -77.015391, "bike_id": "33b3733f1b1e36b8e5402af420c0106b", "rental_uris": {"android": "https://dc.lft.to/lastmile_qr_scan", "ios": "https://dc.lft.to/lastmile_qr_scan"}, "name": "33b3733f1b1e36b8e5402af420c0106b", "is_reserved": 0}, {"is_disabled": 0, "fusion_lon": 0.0, "fusion_lat": 0.0, "lat": 38.916248, "type": "electric_scooter", "lon": -77.048648, "bike_id": "606063569071899d30449dd7445c2e9c", "rental_uris": {"android": "https://dc.lft.to/lastmile_qr_scan", "ios": "https://dc.lft.to/lastmile_qr_scan"}, "name": "606063569071899d30449dd7445c2e9c", "is_reserved": 0}, {"is_disabled": 0, "fusion_lon": 0.0, "fusion_lat": 0.0, "lat": 38.89567983333333, "type": "electric_bike", "lon": -77.12739416666666, "bike_id": "24a872d655e10e059a45c4e097f513d5", "rental_uris": {"android": "https://dc.lft.to/lastmile_qr_scan", "ios": "https://dc.lft.to/lastmile_qr_scan"}, "name": "24a872d655e10e059a45c4e097f513d5", "is_reserved": 0}, {"is_disabled": 0, "fusion_lon": 0.0, "fusion_lat": 0.0, "lat": 38.90546483333333, "type": "electric_scooter", "lon": -77.03475483333334, "bike_id": "bc2947760cdd4b6bc5aa47dd0445ed3c", "rental_uris": {"android": "https://dc.lft.to/lastmile_qr_scan", "ios": "https://dc.lft.to/lastmile_qr_scan"}, "name": "bc2947760cdd4b6bc5aa47dd0445ed3c", "is_reserved": 0}, {"is_disabled": 0, "fusion_lon": 0.0, "fusion_lat": 0.0, "lat": 38.922557833333336, "type": "electric_scooter", "lon": -77.04135616666667, "bike_id": "dce01fe98395fd0b36d70f3625c1c0c0", "rental_uris": {"android": "https://dc.lft.to/lastmile_qr_scan", "ios": "https://dc.lft.to/lastmile_qr_scan"}, "name": "dce01fe98395fd0b36d70f3625c1c0c0", "is_reserved": 0}, {"is_disabled": 0, "fusion_lon": 0.0, "fusion_lat": 0.0, "lat": 38.894847166666665, "type": "electric_bike", "lon": -76.99522866666666, "bike_id": "77dead34eb4c0cb9f32effcbdee07755", "rental_uris": {"android": "https://dc.lft.to/lastmile_qr_scan", "ios": "https://dc.lft.to/lastmile_qr_scan"}, "name": "77dead34eb4c0cb9f32effcbdee07755", "is_reserved": 0}, {"is_disabled": 0, "fusion_lon": 0.0, "fusion_lat": 0.0, "lat": 38.925807, "type": "electric_scooter", "lon": -76.9949655, "bike_id": "88a579baa1e9abc62ddb9733893b7f2a", "rental_uris": {"android": "https://dc.lft.to/lastmile_qr_scan", "ios": "https://dc.lft.to/lastmile_qr_scan"}, "name": "88a579baa1e9abc62ddb9733893b7f2a", "is_reserved": 0}, {"is_disabled": 0, "fusion_lon": 0.0, "fusion_lat": 0.0, "lat": 38.961277, "type": "electric_scooter", "lon": -77.08524016666667, "bike_id": "00653e29714ea8deaee00984b61d00cd", "rental_uris": {"android": "https://dc.lft.to/lastmile_qr_scan", "ios": "https://dc.lft.to/lastmile_qr_scan"}, "name": "00653e29714ea8deaee00984b61d00cd", "is_reserved": 0}, {"is_disabled": 0, "fusion_lon": 0.0, "fusion_lat": 0.0, "lat": 38.9378465, "type": "electric_scooter", "lon": -77.0188245, "bike_id": "88c085b4165612df3cd5fe5b2beafbe5", "rental_uris": {"android": "https://dc.lft.to/lastmile_qr_scan", "ios": "https://dc.lft.to/lastmile_qr_scan"}, "name": "88c085b4165612df3cd5fe5b2beafbe5", "is_reserved": 0}, {"is_disabled": 0, "fusion_lon": 0.0, "fusion_lat": 0.0, "lat": 38.92217816666667, "type": "electric_scooter", "lon": -77.03293983333333, "bike_id": "03df5034300f300757662f580ca16c08", "rental_uris": {"android": "https://dc.lft.to/lastmile_qr_scan", "ios": "https://dc.lft.to/lastmile_qr_scan"}, "name": "03df5034300f300757662f580ca16c08", "is_reserved": 0}, {"is_disabled": 0, "fusion_lon": 0.0, "fusion_lat": 0.0, "lat": 38.90733933333333, "type": "electric_scooter", "lon": -77.03446133333334, "bike_id": "0e5430c05c5ff5a3fba58d586ec5a458", "rental_uris": {"android": "https://dc.lft.to/lastmile_qr_scan", "ios": "https://dc.lft.to/lastmile_qr_scan"}, "name": "0e5430c05c5ff5a3fba58d586ec5a458", "is_reserved": 0}, {"is_disabled": 0, "fusion_lon": 0.0, "fusion_lat": 0.0, "lat": 38.90188216666667, "type": "electric_scooter", "lon": -77.03942383333333, "bike_id": "7f0ddc5035d2e473185eaf28e778ff39", "rental_uris": {"android": "https://dc.lft.to/lastmile_qr_scan", "ios": "https://dc.lft.to/lastmile_qr_scan"}, "name": "7f0ddc5035d2e473185eaf28e778ff39", "is_reserved": 0}, {"is_disabled": 0, "fusion_lon": 0.0, "fusion_lat": 0.0, "lat": 38.9017765, "type": "electric_scooter", "lon": -77.02490283333333, "bike_id": "b4ba8804be34383d0450cabd946874dc", "rental_uris": {"android": "https://dc.lft.to/lastmile_qr_scan", "ios": "https://dc.lft.to/lastmile_qr_scan"}, "name": "b4ba8804be34383d0450cabd946874dc", "is_reserved": 0}, {"is_disabled": 0, "fusion_lon": 0.0, "fusion_lat": 0.0, "lat": 38.905319166666665, "type": "electric_scooter", "lon": -77.04719483333334, "bike_id": "a9502c4278ec48dda53114e8054c9290", "rental_uris": {"android": "https://dc.lft.to/lastmile_qr_scan", "ios": "https://dc.lft.to/lastmile_qr_scan"}, "name": "a9502c4278ec48dda53114e8054c9290", "is_reserved": 0}, {"is_disabled": 0, "fusion_lon": 0.0, "fusion_lat": 0.0, "lat": 38.9226515, "type": "electric_bike", "lon": -77.07721566666666, "bike_id": "c914c278a159b006f6b4fac65977cbef", "rental_uris": {"android": "https://dc.lft.to/lastmile_qr_scan", "ios": "https://dc.lft.to/lastmile_qr_scan"}, "name": "c914c278a159b006f6b4fac65977cbef", "is_reserved": 0}, {"is_disabled": 0, "fusion_lon": 0.0, "fusion_lat": 0.0, "lat": 38.900771166666665, "type": "electric_scooter", "lon": -77.04990866666667, "bike_id": "1db6bc113173b386b3e13676b9e3ab19", "rental_uris": {"android": "https://dc.lft.to/lastmile_qr_scan", "ios": "https://dc.lft.to/lastmile_qr_scan"}, "name": "1db6bc113173b386b3e13676b9e3ab19", "is_reserved": 0}, {"is_disabled": 0, "fusion_lon": 0.0, "fusion_lat": 0.0, "lat": 38.90684383333333, "type": "electric_scooter", "lon": -77.02695466666667, "bike_id": "d3d184f46b1acd35f0b84f45c61b0eed", "rental_uris": {"android": "https://dc.lft.to/lastmile_qr_scan", "ios": "https://dc.lft.to/lastmile_qr_scan"}, "name": "d3d184f46b1acd35f0b84f45c61b0eed", "is_reserved": 0}, {"is_disabled": 0, "fusion_lon": 0.0, "fusion_lat": 0.0, "lat": 38.90834366666667, "type": "electric_scooter", "lon": -76.996953, "bike_id": "029cb0b7d089b7260ba5a3e93061d4da", "rental_uris": {"android": "https://dc.lft.to/lastmile_qr_scan", "ios": "https://dc.lft.to/lastmile_qr_scan"}, "name": "029cb0b7d089b7260ba5a3e93061d4da", "is_reserved": 0}, {"is_disabled": 0, "fusion_lon": 0.0, "fusion_lat": 0.0, "lat": 38.9167985, "type": "electric_scooter", "lon": -77.02715066666667, "bike_id": "fc99044c3b419b6d3137513a2647e023", "rental_uris": {"android": "https://dc.lft.to/lastmile_qr_scan", "ios": "https://dc.lft.to/lastmile_qr_scan"}, "name": "fc99044c3b419b6d3137513a2647e023", "is_reserved": 0}, {"is_disabled": 0, "fusion_lon": 0.0, "fusion_lat": 0.0, "lat": 38.84517666666667, "type": "electric_bike", "lon": -77.07797266666667, "bike_id": "4450207e1b42833fb653a71f4b3d9b62", "rental_uris": {"android": "https://dc.lft.to/lastmile_qr_scan", "ios": "https://dc.lft.to/lastmile_qr_scan"}, "name": "4450207e1b42833fb653a71f4b3d9b62", "is_reserved": 0}, {"is_disabled": 0, "fusion_lon": 0.0, "fusion_lat": 0.0, "lat": 38.903892166666665, "type": "electric_scooter", "lon": -77.053755, "bike_id": "b3b19dda6df8f208d31e4a7f2555cd34", "rental_uris": {"android": "https://dc.lft.to/lastmile_qr_scan", "ios": "https://dc.lft.to/lastmile_qr_scan"}, "name": "b3b19dda6df8f208d31e4a7f2555cd34", "is_reserved": 0}, {"is_disabled": 0, "fusion_lon": 0.0, "fusion_lat": 0.0, "lat": 38.886169833333334, "type": "electric_scooter", "lon": -77.00577383333334, "bike_id": "6f9e3e266be0ee32a16899882601f731", "rental_uris": {"android": "https://dc.lft.to/lastmile_qr_scan", "ios": "https://dc.lft.to/lastmile_qr_scan"}, "name": "6f9e3e266be0ee32a16899882601f731", "is_reserved": 0}, {"is_disabled": 0, "fusion_lon": 0.0, "fusion_lat": 0.0, "lat": 38.913134666666664, "type": "electric_scooter", "lon": -77.01434683333333, "bike_id": "e648fd9f914a3a374e2d969c86265f1c", "rental_uris": {"android": "https://dc.lft.to/lastmile_qr_scan", "ios": "https://dc.lft.to/lastmile_qr_scan"}, "name": "e648fd9f914a3a374e2d969c86265f1c", "is_reserved": 0}, {"is_disabled": 0, "fusion_lon": 0.0, "fusion_lat": 0.0, "lat": 38.8705065, "type": "electric_scooter", "lon": -76.98083916666667, "bike_id": "976cddd1930ff00cf1c14284c9d01a5a", "rental_uris": {"android": "https://dc.lft.to/lastmile_qr_scan", "ios": "https://dc.lft.to/lastmile_qr_scan"}, "name": "976cddd1930ff00cf1c14284c9d01a5a", "is_reserved": 0}, {"is_disabled": 0, "fusion_lon": 0.0, "fusion_lat": 0.0, "lat": 38.956365, "type": "electric_scooter", "lon": -77.0910035, "bike_id": "6bae9f92515c0c82fc2d0a21c50b8fd0", "rental_uris": {"android": "https://dc.lft.to/lastmile_qr_scan", "ios": "https://dc.lft.to/lastmile_qr_scan"}, "name": "6bae9f92515c0c82fc2d0a21c50b8fd0", "is_reserved": 0}, {"is_disabled": 0, "fusion_lon": 0.0, "fusion_lat": 0.0, "lat": 38.90741666666667, "type": "electric_scooter", "lon": -77.0009975, "bike_id": "0756ec8f7c140450b0930d00fd0a32e6", "rental_uris": {"android": "https://dc.lft.to/lastmile_qr_scan", "ios": "https://dc.lft.to/lastmile_qr_scan"}, "name": "0756ec8f7c140450b0930d00fd0a32e6", "is_reserved": 0}, {"is_disabled": 0, "fusion_lon": 0.0, "fusion_lat": 0.0, "lat": 38.886881333333335, "type": "electric_scooter", "lon": -76.987999, "bike_id": "e051c8dbee74256dece40d04d3cb1ccd", "rental_uris": {"android": "https://dc.lft.to/lastmile_qr_scan", "ios": "https://dc.lft.to/lastmile_qr_scan"}, "name": "e051c8dbee74256dece40d04d3cb1ccd", "is_reserved": 0}, {"is_disabled": 0, "fusion_lon": 0.0, "fusion_lat": 0.0, "lat": 38.9189165, "type": "electric_scooter", "lon": -77.02398316666667, "bike_id": "87936b51608a52e88fa2dca5e37449f8", "rental_uris": {"android": "https://dc.lft.to/lastmile_qr_scan", "ios": "https://dc.lft.to/lastmile_qr_scan"}, "name": "87936b51608a52e88fa2dca5e37449f8", "is_reserved": 0}, {"is_disabled": 0, "fusion_lon": 0.0, "fusion_lat": 0.0, "lat": 38.856471166666665, "type": "electric_bike", "lon": -77.08526866666666, "bike_id": "74791261be362e4df2a9a18c12aa7b8d", "rental_uris": {"android": "https://dc.lft.to/lastmile_qr_scan", "ios": "https://dc.lft.to/lastmile_qr_scan"}, "name": "74791261be362e4df2a9a18c12aa7b8d", "is_reserved": 0}, {"is_disabled": 0, "fusion_lon": 0.0, "fusion_lat": 0.0, "lat": 38.849314, "type": "electric_bike", "lon": -77.10013516666666, "bike_id": "a4022e38f6ca2b5f969e449b8acf5ab1", "rental_uris": {"android": "https://dc.lft.to/lastmile_qr_scan", "ios": "https://dc.lft.to/lastmile_qr_scan"}, "name": "a4022e38f6ca2b5f969e449b8acf5ab1", "is_reserved": 0}, {"is_disabled": 0, "fusion_lon": 0.0, "fusion_lat": 0.0, "lat": 38.91702816666667, "type": "electric_scooter", "lon": -77.01169966666667, "bike_id": "de5a0d1adb3aa02c689c47e463dc9131", "rental_uris": {"android": "https://dc.lft.to/lastmile_qr_scan", "ios": "https://dc.lft.to/lastmile_qr_scan"}, "name": "de5a0d1adb3aa02c689c47e463dc9131", "is_reserved": 0}, {"is_disabled": 0, "fusion_lon": 0.0, "fusion_lat": 0.0, "lat": 38.93703383333333, "type": "electric_scooter", "lon": -77.0560265, "bike_id": "e7083b8f5b3b979ba540519f5632b81a", "rental_uris": {"android": "https://dc.lft.to/lastmile_qr_scan", "ios": "https://dc.lft.to/lastmile_qr_scan"}, "name": "e7083b8f5b3b979ba540519f5632b81a", "is_reserved": 0}, {"is_disabled": 0, "fusion_lon": 0.0, "fusion_lat": 0.0, "lat": 38.924370333333336, "type": "electric_bike", "lon": -76.90764316666667, "bike_id": "8eb60e07f1d14e24dbec35392bf35209", "rental_uris": {"android": "https://dc.lft.to/lastmile_qr_scan", "ios": "https://dc.lft.to/lastmile_qr_scan"}, "name": "8eb60e07f1d14e24dbec35392bf35209", "is_reserved": 0}, {"is_disabled": 0, "fusion_lon": 0.0, "fusion_lat": 0.0, "lat": 38.904181666666666, "type": "electric_scooter", "lon": -77.06876033333333, "bike_id": "f9e5bb153a2ead2a5a56b5204563f2c2", "rental_uris": {"android": "https://dc.lft.to/lastmile_qr_scan", "ios": "https://dc.lft.to/lastmile_qr_scan"}, "name": "f9e5bb153a2ead2a5a56b5204563f2c2", "is_reserved": 0}, {"is_disabled": 0, "fusion_lon": 0.0, "fusion_lat": 0.0, "lat": 38.89671466666667, "type": "electric_bike", "lon": -76.98163133333334, "bike_id": "3dec7882530d5a320eb6b28b052b246c", "rental_uris": {"android": "https://dc.lft.to/lastmile_qr_scan", "ios": "https://dc.lft.to/lastmile_qr_scan"}, "name": "3dec7882530d5a320eb6b28b052b246c", "is_reserved": 0}, {"is_disabled": 0, "fusion_lon": 0.0, "fusion_lat": 0.0, "lat": 38.9058665, "type": "electric_scooter", "lon": -77.069148, "bike_id": "8616df309968f191c13b0e44a9edd17e", "rental_uris": {"android": "https://dc.lft.to/lastmile_qr_scan", "ios": "https://dc.lft.to/lastmile_qr_scan"}, "name": "8616df309968f191c13b0e44a9edd17e", "is_reserved": 0}, {"is_disabled": 0, "fusion_lon": 0.0, "fusion_lat": 0.0, "lat": 38.871967166666664, "type": "electric_scooter", "lon": -76.97826266666667, "bike_id": "ff7341cd5b11466d96e1400ea243d6dd", "rental_uris": {"android": "https://dc.lft.to/lastmile_qr_scan", "ios": "https://dc.lft.to/lastmile_qr_scan"}, "name": "ff7341cd5b11466d96e1400ea243d6dd", "is_reserved": 0}, {"is_disabled": 0, "fusion_lon": 0.0, "fusion_lat": 0.0, "lat": 38.9614465, "type": "electric_scooter", "lon": -77.027811, "bike_id": "651ada0a2aa78be3a503b84d6e396bb9", "rental_uris": {"android": "https://dc.lft.to/lastmile_qr_scan", "ios": "https://dc.lft.to/lastmile_qr_scan"}, "name": "651ada0a2aa78be3a503b84d6e396bb9", "is_reserved": 0}, {"is_disabled": 0, "fusion_lon": 0.0, "fusion_lat": 0.0, "lat": 38.908130166666666, "type": "electric_scooter", "lon": -77.00138866666667, "bike_id": "0bab1acf434b69cd9ee51077950fe3e4", "rental_uris": {"android": "https://dc.lft.to/lastmile_qr_scan", "ios": "https://dc.lft.to/lastmile_qr_scan"}, "name": "0bab1acf434b69cd9ee51077950fe3e4", "is_reserved": 0}, {"is_disabled": 0, "fusion_lon": 0.0, "fusion_lat": 0.0, "lat": 38.889165166666665, "type": "electric_scooter", "lon": -76.980104, "bike_id": "62e96fd57be31e65266821df1e344be6", "rental_uris": {"android": "https://dc.lft.to/lastmile_qr_scan", "ios": "https://dc.lft.to/lastmile_qr_scan"}, "name": "62e96fd57be31e65266821df1e344be6", "is_reserved": 0}, {"is_disabled": 0, "fusion_lon": 0.0, "fusion_lat": 0.0, "lat": 38.90544216666667, "type": "electric_scooter", "lon": -77.05017883333333, "bike_id": "3f1dff9c0c7af9fd3e3e7f51667c9df6", "rental_uris": {"android": "https://dc.lft.to/lastmile_qr_scan", "ios": "https://dc.lft.to/lastmile_qr_scan"}, "name": "3f1dff9c0c7af9fd3e3e7f51667c9df6", "is_reserved": 0}, {"is_disabled": 0, "fusion_lon": 0.0, "fusion_lat": 0.0, "lat": 38.9004175, "type": "electric_scooter", "lon": -77.03399933333333, "bike_id": "146cd1295f2573124e101c05261482b9", "rental_uris": {"android": "https://dc.lft.to/lastmile_qr_scan", "ios": "https://dc.lft.to/lastmile_qr_scan"}, "name": "146cd1295f2573124e101c05261482b9", "is_reserved": 0}, {"is_disabled": 0, "fusion_lon": 0.0, "fusion_lat": 0.0, "lat": 38.89679, "type": "electric_scooter", "lon": -77.0116215, "bike_id": "df09596338151c4f142fed10abc5ab89", "rental_uris": {"android": "https://dc.lft.to/lastmile_qr_scan", "ios": "https://dc.lft.to/lastmile_qr_scan"}, "name": "df09596338151c4f142fed10abc5ab89", "is_reserved": 0}, {"is_disabled": 0, "fusion_lon": 0.0, "fusion_lat": 0.0, "lat": 38.919624166666665, "type": "electric_scooter", "lon": -77.02717666666666, "bike_id": "705a8e9a36c7efabc677dfb3c620d3b6", "rental_uris": {"android": "https://dc.lft.to/lastmile_qr_scan", "ios": "https://dc.lft.to/lastmile_qr_scan"}, "name": "705a8e9a36c7efabc677dfb3c620d3b6", "is_reserved": 0}, {"is_disabled": 0, "fusion_lon": 0.0, "fusion_lat": 0.0, "lat": 38.90608783333333, "type": "electric_scooter", "lon": -77.05725383333333, "bike_id": "ae458abfd2a355be98c38abcdf516c90", "rental_uris": {"android": "https://dc.lft.to/lastmile_qr_scan", "ios": "https://dc.lft.to/lastmile_qr_scan"}, "name": "ae458abfd2a355be98c38abcdf516c90", "is_reserved": 0}, {"is_disabled": 0, "fusion_lon": 0.0, "fusion_lat": 0.0, "lat": 38.921774, "type": "electric_scooter", "lon": -77.05531833333333, "bike_id": "3cfe086f5cb8324e682759993010a380", "rental_uris": {"android": "https://dc.lft.to/lastmile_qr_scan", "ios": "https://dc.lft.to/lastmile_qr_scan"}, "name": "3cfe086f5cb8324e682759993010a380", "is_reserved": 0}, {"is_disabled": 0, "fusion_lon": 0.0, "fusion_lat": 0.0, "lat": 38.9239455, "type": "electric_scooter", "lon": -77.029649, "bike_id": "48a5d55420d38b3b53fc25864c1e98ec", "rental_uris": {"android": "https://dc.lft.to/lastmile_qr_scan", "ios": "https://dc.lft.to/lastmile_qr_scan"}, "name": "48a5d55420d38b3b53fc25864c1e98ec", "is_reserved": 0}, {"is_disabled": 0, "fusion_lon": 0.0, "fusion_lat": 0.0, "lat": 38.900629, "type": "electric_scooter", "lon": -77.04907966666667, "bike_id": "1c4e8eb742ebe566e2d3d54b8df9aec1", "rental_uris": {"android": "https://dc.lft.to/lastmile_qr_scan", "ios": "https://dc.lft.to/lastmile_qr_scan"}, "name": "1c4e8eb742ebe566e2d3d54b8df9aec1", "is_reserved": 0}, {"is_disabled": 0, "fusion_lon": 0.0, "fusion_lat": 0.0, "lat": 38.9108115, "type": "electric_scooter", "lon": -77.01511933333333, "bike_id": "c1a66c3e0dc0eb965a2be31dac4010e6", "rental_uris": {"android": "https://dc.lft.to/lastmile_qr_scan", "ios": "https://dc.lft.to/lastmile_qr_scan"}, "name": "c1a66c3e0dc0eb965a2be31dac4010e6", "is_reserved": 0}, {"is_disabled": 0, "fusion_lon": 0.0, "fusion_lat": 0.0, "lat": 38.92231533333333, "type": "electric_scooter", "lon": -76.975286, "bike_id": "985e6a6aaf161915e2fc5ddfbb3532ed", "rental_uris": {"android": "https://dc.lft.to/lastmile_qr_scan", "ios": "https://dc.lft.to/lastmile_qr_scan"}, "name": "985e6a6aaf161915e2fc5ddfbb3532ed", "is_reserved": 0}, {"is_disabled": 0, "fusion_lon": 0.0, "fusion_lat": 0.0, "lat": 38.92461383333333, "type": "electric_scooter", "lon": -77.02155516666667, "bike_id": "40e5b15cffe9facfbc7305f1b25bdcea", "rental_uris": {"android": "https://dc.lft.to/lastmile_qr_scan", "ios": "https://dc.lft.to/lastmile_qr_scan"}, "name": "40e5b15cffe9facfbc7305f1b25bdcea", "is_reserved": 0}, {"is_disabled": 0, "fusion_lon": 0.0, "fusion_lat": 0.0, "lat": 38.912222666666665, "type": "electric_scooter", "lon": -76.98464633333333, "bike_id": "c93f2d7e55697536f7983565412ca945", "rental_uris": {"android": "https://dc.lft.to/lastmile_qr_scan", "ios": "https://dc.lft.to/lastmile_qr_scan"}, "name": "c93f2d7e55697536f7983565412ca945", "is_reserved": 0}, {"is_disabled": 0, "fusion_lon": 0.0, "fusion_lat": 0.0, "lat": 38.905174833333334, "type": "electric_scooter", "lon": -77.02976566666666, "bike_id": "aae3d6be204871cb1f62674faed1b8db", "rental_uris": {"android": "https://dc.lft.to/lastmile_qr_scan", "ios": "https://dc.lft.to/lastmile_qr_scan"}, "name": "aae3d6be204871cb1f62674faed1b8db", "is_reserved": 0}, {"is_disabled": 0, "fusion_lon": 0.0, "fusion_lat": 0.0, "lat": 38.9037365, "type": "electric_scooter", "lon": -77.03215783333333, "bike_id": "045af21c77af696860f0e931de80e7c2", "rental_uris": {"android": "https://dc.lft.to/lastmile_qr_scan", "ios": "https://dc.lft.to/lastmile_qr_scan"}, "name": "045af21c77af696860f0e931de80e7c2", "is_reserved": 0}, {"is_disabled": 0, "fusion_lon": 0.0, "fusion_lat": 0.0, "lat": 38.884720333333334, "type": "electric_scooter", "lon": -76.9522705, "bike_id": "f0fdb4ea9eec50b48d9bef725fa07be5", "rental_uris": {"android": "https://dc.lft.to/lastmile_qr_scan", "ios": "https://dc.lft.to/lastmile_qr_scan"}, "name": "f0fdb4ea9eec50b48d9bef725fa07be5", "is_reserved": 0}, {"is_disabled": 0, "fusion_lon": 0.0, "fusion_lat": 0.0, "lat": 38.947049666666665, "type": "electric_scooter", "lon": -77.01938816666667, "bike_id": "d91c8ef2344109dc3a32053694c21540", "rental_uris": {"android": "https://dc.lft.to/lastmile_qr_scan", "ios": "https://dc.lft.to/lastmile_qr_scan"}, "name": "d91c8ef2344109dc3a32053694c21540", "is_reserved": 0}, {"is_disabled": 0, "fusion_lon": 0.0, "fusion_lat": 0.0, "lat": 38.926709333333335, "type": "electric_scooter", "lon": -77.10310383333334, "bike_id": "c9d483108188a4db2ca65eaafc8bc7f7", "rental_uris": {"android": "https://dc.lft.to/lastmile_qr_scan", "ios": "https://dc.lft.to/lastmile_qr_scan"}, "name": "c9d483108188a4db2ca65eaafc8bc7f7", "is_reserved": 0}, {"is_disabled": 0, "fusion_lon": 0.0, "fusion_lat": 0.0, "lat": 38.9357985, "type": "electric_bike", "lon": -77.03659466666667, "bike_id": "f7bcdd503a1f7db6706aa38a9caaff39", "rental_uris": {"android": "https://dc.lft.to/lastmile_qr_scan", "ios": "https://dc.lft.to/lastmile_qr_scan"}, "name": "f7bcdd503a1f7db6706aa38a9caaff39", "is_reserved": 0}, {"is_disabled": 0, "fusion_lon": 0.0, "fusion_lat": 0.0, "lat": 38.878502166666664, "type": "electric_bike", "lon": -77.01750416666667, "bike_id": "97dda9d974bdb69863434c81ae1533c0", "rental_uris": {"android": "https://dc.lft.to/lastmile_qr_scan", "ios": "https://dc.lft.to/lastmile_qr_scan"}, "name": "97dda9d974bdb69863434c81ae1533c0", "is_reserved": 0}, {"is_disabled": 0, "fusion_lon": 0.0, "fusion_lat": 0.0, "lat": 38.9054105, "type": "electric_scooter", "lon": -77.0501275, "bike_id": "5a4e24c368d7c56be9999a0055823f3d", "rental_uris": {"android": "https://dc.lft.to/lastmile_qr_scan", "ios": "https://dc.lft.to/lastmile_qr_scan"}, "name": "5a4e24c368d7c56be9999a0055823f3d", "is_reserved": 0}, {"is_disabled": 0, "fusion_lon": 0.0, "fusion_lat": 0.0, "lat": 38.93699383333333, "type": "electric_scooter", "lon": -77.0559925, "bike_id": "6b9e8c47210e4bc9116f6c609bdcd827", "rental_uris": {"android": "https://dc.lft.to/lastmile_qr_scan", "ios": "https://dc.lft.to/lastmile_qr_scan"}, "name": "6b9e8c47210e4bc9116f6c609bdcd827", "is_reserved": 0}, {"is_disabled": 0, "fusion_lon": 0.0, "fusion_lat": 0.0, "lat": 38.9170435, "type": "electric_scooter", "lon": -77.00112433333334, "bike_id": "d3f1ffbee01d5d8edbee4a17f76806f8", "rental_uris": {"android": "https://dc.lft.to/lastmile_qr_scan", "ios": "https://dc.lft.to/lastmile_qr_scan"}, "name": "d3f1ffbee01d5d8edbee4a17f76806f8", "is_reserved": 0}, {"is_disabled": 0, "fusion_lon": 0.0, "fusion_lat": 0.0, "lat": 38.884567833333335, "type": "electric_bike", "lon": -76.91642, "bike_id": "c16c50178671bd098759376c6a709913", "rental_uris": {"android": "https://dc.lft.to/lastmile_qr_scan", "ios": "https://dc.lft.to/lastmile_qr_scan"}, "name": "c16c50178671bd098759376c6a709913", "is_reserved": 0}, {"is_disabled": 0, "fusion_lon": 0.0, "fusion_lat": 0.0, "lat": 38.89745883333333, "type": "electric_scooter", "lon": -77.02180966666667, "bike_id": "ad98c7bbc5b64fd6a9c0e1f22314e98f", "rental_uris": {"android": "https://dc.lft.to/lastmile_qr_scan", "ios": "https://dc.lft.to/lastmile_qr_scan"}, "name": "ad98c7bbc5b64fd6a9c0e1f22314e98f", "is_reserved": 0}, {"is_disabled": 0, "fusion_lon": 0.0, "fusion_lat": 0.0, "lat": 38.948965333333334, "type": "electric_bike", "lon": -76.9637555, "bike_id": "4c61ce2761358061f87a01e3ed5fc294", "rental_uris": {"android": "https://dc.lft.to/lastmile_qr_scan", "ios": "https://dc.lft.to/lastmile_qr_scan"}, "name": "4c61ce2761358061f87a01e3ed5fc294", "is_reserved": 0}, {"is_disabled": 0, "fusion_lon": 0.0, "fusion_lat": 0.0, "lat": 38.91624783333334, "type": "electric_scooter", "lon": -77.02289, "bike_id": "1394c08eb7546fed06fff52fc0fc014c", "rental_uris": {"android": "https://dc.lft.to/lastmile_qr_scan", "ios": "https://dc.lft.to/lastmile_qr_scan"}, "name": "1394c08eb7546fed06fff52fc0fc014c", "is_reserved": 0}, {"is_disabled": 0, "fusion_lon": 0.0, "fusion_lat": 0.0, "lat": 39.052674833333334, "type": "electric_bike", "lon": -77.0438945, "bike_id": "306a962a6b08c4c283ac20b4dbac9f71", "rental_uris": {"android": "https://dc.lft.to/lastmile_qr_scan", "ios": "https://dc.lft.to/lastmile_qr_scan"}, "name": "306a962a6b08c4c283ac20b4dbac9f71", "is_reserved": 0}, {"is_disabled": 0, "fusion_lon": 0.0, "fusion_lat": 0.0, "lat": 38.915936333333335, "type": "electric_scooter", "lon": -77.07285, "bike_id": "da9ba46e39250de075eb48c42e2d75b4", "rental_uris": {"android": "https://dc.lft.to/lastmile_qr_scan", "ios": "https://dc.lft.to/lastmile_qr_scan"}, "name": "da9ba46e39250de075eb48c42e2d75b4", "is_reserved": 0}, {"is_disabled": 0, "fusion_lon": 0.0, "fusion_lat": 0.0, "lat": 38.908539833333336, "type": "electric_scooter", "lon": -77.03846583333333, "bike_id": "3c1f84085a5674c8465333442b659cb2", "rental_uris": {"android": "https://dc.lft.to/lastmile_qr_scan", "ios": "https://dc.lft.to/lastmile_qr_scan"}, "name": "3c1f84085a5674c8465333442b659cb2", "is_reserved": 0}, {"is_disabled": 0, "fusion_lon": 0.0, "fusion_lat": 0.0, "lat": 38.87209683333333, "type": "electric_bike", "lon": -77.01623083333334, "bike_id": "57f040535362fe9fc1ce26d07de2619d", "rental_uris": {"android": "https://dc.lft.to/lastmile_qr_scan", "ios": "https://dc.lft.to/lastmile_qr_scan"}, "name": "57f040535362fe9fc1ce26d07de2619d", "is_reserved": 0}, {"is_disabled": 0, "fusion_lon": 0.0, "fusion_lat": 0.0, "lat": 38.90849166666667, "type": "electric_scooter", "lon": -77.0608115, "bike_id": "56f57868236bcbaa68414bdd1ea29abf", "rental_uris": {"android": "https://dc.lft.to/lastmile_qr_scan", "ios": "https://dc.lft.to/lastmile_qr_scan"}, "name": "56f57868236bcbaa68414bdd1ea29abf", "is_reserved": 0}, {"is_disabled": 0, "fusion_lon": 0.0, "fusion_lat": 0.0, "lat": 38.89737616666667, "type": "electric_scooter", "lon": -77.051491, "bike_id": "4cff8eac6545f264fcc3eeb1cb062621", "rental_uris": {"android": "https://dc.lft.to/lastmile_qr_scan", "ios": "https://dc.lft.to/lastmile_qr_scan"}, "name": "4cff8eac6545f264fcc3eeb1cb062621", "is_reserved": 0}, {"is_disabled": 0, "fusion_lon": 0.0, "fusion_lat": 0.0, "lat": 38.9452415, "type": "electric_bike", "lon": -77.02650883333334, "bike_id": "d6079e74962e2ca5caad757df36f11f5", "rental_uris": {"android": "https://dc.lft.to/lastmile_qr_scan", "ios": "https://dc.lft.to/lastmile_qr_scan"}, "name": "d6079e74962e2ca5caad757df36f11f5", "is_reserved": 0}, {"is_disabled": 0, "fusion_lon": 0.0, "fusion_lat": 0.0, "lat": 38.93637916666667, "type": "electric_scooter", "lon": -77.02698983333333, "bike_id": "6c017cafa980f7248d09f5d5aa35c8cf", "rental_uris": {"android": "https://dc.lft.to/lastmile_qr_scan", "ios": "https://dc.lft.to/lastmile_qr_scan"}, "name": "6c017cafa980f7248d09f5d5aa35c8cf", "is_reserved": 0}, {"is_disabled": 0, "fusion_lon": 0.0, "fusion_lat": 0.0, "lat": 38.9215155, "type": "electric_scooter", "lon": -77.03510483333334, "bike_id": "77148cf3507e14d551670afe3df80d94", "rental_uris": {"android": "https://dc.lft.to/lastmile_qr_scan", "ios": "https://dc.lft.to/lastmile_qr_scan"}, "name": "77148cf3507e14d551670afe3df80d94", "is_reserved": 0}, {"is_disabled": 0, "fusion_lon": 0.0, "fusion_lat": 0.0, "lat": 38.9351525, "type": "electric_scooter", "lon": -77.0663255, "bike_id": "606be87d28b3dae89d14ea8edb9a34bd", "rental_uris": {"android": "https://dc.lft.to/lastmile_qr_scan", "ios": "https://dc.lft.to/lastmile_qr_scan"}, "name": "606be87d28b3dae89d14ea8edb9a34bd", "is_reserved": 0}, {"is_disabled": 0, "fusion_lon": 0.0, "fusion_lat": 0.0, "lat": 38.91030133333334, "type": "electric_scooter", "lon": -77.04263066666667, "bike_id": "1f9a6fc38924c29c489b3a06b4eb5228", "rental_uris": {"android": "https://dc.lft.to/lastmile_qr_scan", "ios": "https://dc.lft.to/lastmile_qr_scan"}, "name": "1f9a6fc38924c29c489b3a06b4eb5228", "is_reserved": 0}, {"is_disabled": 0, "fusion_lon": 0.0, "fusion_lat": 0.0, "lat": 38.91614333333333, "type": "electric_scooter", "lon": -77.04609383333333, "bike_id": "6b87e1e609a13f57c8354393e383e16b", "rental_uris": {"android": "https://dc.lft.to/lastmile_qr_scan", "ios": "https://dc.lft.to/lastmile_qr_scan"}, "name": "6b87e1e609a13f57c8354393e383e16b", "is_reserved": 0}, {"is_disabled": 0, "fusion_lon": 0.0, "fusion_lat": 0.0, "lat": 38.91780833333333, "type": "electric_scooter", "lon": -77.04303566666667, "bike_id": "798fbf0b13612355c26ac4f92119638d", "rental_uris": {"android": "https://dc.lft.to/lastmile_qr_scan", "ios": "https://dc.lft.to/lastmile_qr_scan"}, "name": "798fbf0b13612355c26ac4f92119638d", "is_reserved": 0}, {"is_disabled": 0, "fusion_lon": 0.0, "fusion_lat": 0.0, "lat": 38.907302666666666, "type": "electric_scooter", "lon": -77.03208, "bike_id": "293dfed5c8c0e313c4cb826c0638cbd3", "rental_uris": {"android": "https://dc.lft.to/lastmile_qr_scan", "ios": "https://dc.lft.to/lastmile_qr_scan"}, "name": "293dfed5c8c0e313c4cb826c0638cbd3", "is_reserved": 0}, {"is_disabled": 0, "fusion_lon": 0.0, "fusion_lat": 0.0, "lat": 38.907044166666665, "type": "electric_scooter", "lon": -76.98693033333333, "bike_id": "7dae3257802b9f2d94b6af1093614752", "rental_uris": {"android": "https://dc.lft.to/lastmile_qr_scan", "ios": "https://dc.lft.to/lastmile_qr_scan"}, "name": "7dae3257802b9f2d94b6af1093614752", "is_reserved": 0}, {"is_disabled": 0, "fusion_lon": 0.0, "fusion_lat": 0.0, "lat": 38.91904566666667, "type": "electric_scooter", "lon": -77.02756616666667, "bike_id": "9d819ea42a083b33e6c653851be6bec6", "rental_uris": {"android": "https://dc.lft.to/lastmile_qr_scan", "ios": "https://dc.lft.to/lastmile_qr_scan"}, "name": "9d819ea42a083b33e6c653851be6bec6", "is_reserved": 0}, {"is_disabled": 0, "fusion_lon": 0.0, "fusion_lat": 0.0, "lat": 38.8975455, "type": "electric_scooter", "lon": -77.02763333333333, "bike_id": "4dfe5fc036720c2520f90626773e6f23", "rental_uris": {"android": "https://dc.lft.to/lastmile_qr_scan", "ios": "https://dc.lft.to/lastmile_qr_scan"}, "name": "4dfe5fc036720c2520f90626773e6f23", "is_reserved": 0}, {"is_disabled": 0, "fusion_lon": 0.0, "fusion_lat": 0.0, "lat": 38.87347416666667, "type": "electric_scooter", "lon": -77.01738766666666, "bike_id": "cf4e7b5d868db01b06fe68660d101c83", "rental_uris": {"android": "https://dc.lft.to/lastmile_qr_scan", "ios": "https://dc.lft.to/lastmile_qr_scan"}, "name": "cf4e7b5d868db01b06fe68660d101c83", "is_reserved": 0}, {"is_disabled": 0, "fusion_lon": 0.0, "fusion_lat": 0.0, "lat": 38.926744, "type": "electric_scooter", "lon": -77.02689366666667, "bike_id": "4694981070607887ba71edd6dbed2473", "rental_uris": {"android": "https://dc.lft.to/lastmile_qr_scan", "ios": "https://dc.lft.to/lastmile_qr_scan"}, "name": "4694981070607887ba71edd6dbed2473", "is_reserved": 0}, {"is_disabled": 0, "fusion_lon": 0.0, "fusion_lat": 0.0, "lat": 38.961533833333334, "type": "electric_scooter", "lon": -77.02785, "bike_id": "7db35531ebf37d74945176fca2e7d7ad", "rental_uris": {"android": "https://dc.lft.to/lastmile_qr_scan", "ios": "https://dc.lft.to/lastmile_qr_scan"}, "name": "7db35531ebf37d74945176fca2e7d7ad", "is_reserved": 0}, {"is_disabled": 0, "fusion_lon": 0.0, "fusion_lat": 0.0, "lat": 38.9211035, "type": "electric_scooter", "lon": -77.01771233333334, "bike_id": "c97096cd1267c5c9c124c9fd88e330ce", "rental_uris": {"android": "https://dc.lft.to/lastmile_qr_scan", "ios": "https://dc.lft.to/lastmile_qr_scan"}, "name": "c97096cd1267c5c9c124c9fd88e330ce", "is_reserved": 0}, {"is_disabled": 0, "fusion_lon": 0.0, "fusion_lat": 0.0, "lat": 38.905212, "type": "electric_scooter", "lon": -77.05033433333334, "bike_id": "f25542be0c66e5b59fbf8c2b671acfa0", "rental_uris": {"android": "https://dc.lft.to/lastmile_qr_scan", "ios": "https://dc.lft.to/lastmile_qr_scan"}, "name": "f25542be0c66e5b59fbf8c2b671acfa0", "is_reserved": 0}, {"is_disabled": 0, "fusion_lon": 0.0, "fusion_lat": 0.0, "lat": 38.89328416666667, "type": "electric_scooter", "lon": -77.0211685, "bike_id": "3ca2afaacc44b8b0f21195c6f060b40f", "rental_uris": {"android": "https://dc.lft.to/lastmile_qr_scan", "ios": "https://dc.lft.to/lastmile_qr_scan"}, "name": "3ca2afaacc44b8b0f21195c6f060b40f", "is_reserved": 0}, {"is_disabled": 0, "fusion_lon": 0.0, "fusion_lat": 0.0, "lat": 38.9126825, "type": "electric_scooter", "lon": -77.02219583333333, "bike_id": "35fe6694770874d64f814cd56f19b41b", "rental_uris": {"android": "https://dc.lft.to/lastmile_qr_scan", "ios": "https://dc.lft.to/lastmile_qr_scan"}, "name": "35fe6694770874d64f814cd56f19b41b", "is_reserved": 0}, {"is_disabled": 0, "fusion_lon": 0.0, "fusion_lat": 0.0, "lat": 38.949822833333336, "type": "electric_scooter", "lon": -77.02704016666667, "bike_id": "4a92ede5fae6de05b0f3095d6df09157", "rental_uris": {"android": "https://dc.lft.to/lastmile_qr_scan", "ios": "https://dc.lft.to/lastmile_qr_scan"}, "name": "4a92ede5fae6de05b0f3095d6df09157", "is_reserved": 0}, {"is_disabled": 0, "fusion_lon": 0.0, "fusion_lat": 0.0, "lat": 38.85809783333333, "type": "electric_scooter", "lon": -76.98962983333334, "bike_id": "a8fd23821e8b16e8fc482fda5d9da4fb", "rental_uris": {"android": "https://dc.lft.to/lastmile_qr_scan", "ios": "https://dc.lft.to/lastmile_qr_scan"}, "name": "a8fd23821e8b16e8fc482fda5d9da4fb", "is_reserved": 0}, {"is_disabled": 0, "fusion_lon": 0.0, "fusion_lat": 0.0, "lat": 38.9621795, "type": "electric_scooter", "lon": -77.02812933333334, "bike_id": "5dfa3dda441f77dc08af807c3c5a4879", "rental_uris": {"android": "https://dc.lft.to/lastmile_qr_scan", "ios": "https://dc.lft.to/lastmile_qr_scan"}, "name": "5dfa3dda441f77dc08af807c3c5a4879", "is_reserved": 0}, {"is_disabled": 0, "fusion_lon": 0.0, "fusion_lat": 0.0, "lat": 38.916854, "type": "electric_scooter", "lon": -77.028543, "bike_id": "6582cfa6349e90e9acd818293b14db22", "rental_uris": {"android": "https://dc.lft.to/lastmile_qr_scan", "ios": "https://dc.lft.to/lastmile_qr_scan"}, "name": "6582cfa6349e90e9acd818293b14db22", "is_reserved": 0}, {"is_disabled": 0, "fusion_lon": 0.0, "fusion_lat": 0.0, "lat": 38.94282483333333, "type": "electric_scooter", "lon": -77.03632133333333, "bike_id": "e291ac4f32d68874cef8f5b704b652f6", "rental_uris": {"android": "https://dc.lft.to/lastmile_qr_scan", "ios": "https://dc.lft.to/lastmile_qr_scan"}, "name": "e291ac4f32d68874cef8f5b704b652f6", "is_reserved": 0}, {"is_disabled": 0, "fusion_lon": 0.0, "fusion_lat": 0.0, "lat": 38.86515, "type": "electric_scooter", "lon": -76.97328616666667, "bike_id": "db876ad2631d97578ebccc87727228c3", "rental_uris": {"android": "https://dc.lft.to/lastmile_qr_scan", "ios": "https://dc.lft.to/lastmile_qr_scan"}, "name": "db876ad2631d97578ebccc87727228c3", "is_reserved": 0}, {"is_disabled": 0, "fusion_lon": 0.0, "fusion_lat": 0.0, "lat": 38.89476233333333, "type": "electric_scooter", "lon": -76.99525783333333, "bike_id": "801956a172210333f09a806ebaa30a66", "rental_uris": {"android": "https://dc.lft.to/lastmile_qr_scan", "ios": "https://dc.lft.to/lastmile_qr_scan"}, "name": "801956a172210333f09a806ebaa30a66", "is_reserved": 0}, {"is_disabled": 0, "fusion_lon": 0.0, "fusion_lat": 0.0, "lat": 38.91108766666667, "type": "electric_scooter", "lon": -77.035606, "bike_id": "d13eaf3c4692c5276d5c8419a755ffb7", "rental_uris": {"android": "https://dc.lft.to/lastmile_qr_scan", "ios": "https://dc.lft.to/lastmile_qr_scan"}, "name": "d13eaf3c4692c5276d5c8419a755ffb7", "is_reserved": 0}, {"is_disabled": 0, "fusion_lon": 0.0, "fusion_lat": 0.0, "lat": 38.90653183333333, "type": "electric_scooter", "lon": -77.04524466666666, "bike_id": "c72700c9da8c6804a158acb3b411bcbe", "rental_uris": {"android": "https://dc.lft.to/lastmile_qr_scan", "ios": "https://dc.lft.to/lastmile_qr_scan"}, "name": "c72700c9da8c6804a158acb3b411bcbe", "is_reserved": 0}, {"is_disabled": 0, "fusion_lon": 0.0, "fusion_lat": 0.0, "lat": 38.9006145, "type": "electric_scooter", "lon": -77.04924333333334, "bike_id": "d531b6a378c0e6ac398ad007c744258b", "rental_uris": {"android": "https://dc.lft.to/lastmile_qr_scan", "ios": "https://dc.lft.to/lastmile_qr_scan"}, "name": "d531b6a378c0e6ac398ad007c744258b", "is_reserved": 0}, {"is_disabled": 0, "fusion_lon": 0.0, "fusion_lat": 0.0, "lat": 38.91924066666667, "type": "electric_scooter", "lon": -77.03086416666666, "bike_id": "c455127296264c07b186fa0980fd9e48", "rental_uris": {"android": "https://dc.lft.to/lastmile_qr_scan", "ios": "https://dc.lft.to/lastmile_qr_scan"}, "name": "c455127296264c07b186fa0980fd9e48", "is_reserved": 0}, {"is_disabled": 0, "fusion_lon": 0.0, "fusion_lat": 0.0, "lat": 38.90515666666667, "type": "electric_scooter", "lon": -76.98252766666667, "bike_id": "11a8f26d49cc135681dcb6bb10ee059a", "rental_uris": {"android": "https://dc.lft.to/lastmile_qr_scan", "ios": "https://dc.lft.to/lastmile_qr_scan"}, "name": "11a8f26d49cc135681dcb6bb10ee059a", "is_reserved": 0}, {"is_disabled": 0, "fusion_lon": 0.0, "fusion_lat": 0.0, "lat": 38.9169145, "type": "electric_scooter", "lon": -77.02601516666667, "bike_id": "34210138cbba364e70ec01f1ab334989", "rental_uris": {"android": "https://dc.lft.to/lastmile_qr_scan", "ios": "https://dc.lft.to/lastmile_qr_scan"}, "name": "34210138cbba364e70ec01f1ab334989", "is_reserved": 0}, {"is_disabled": 0, "fusion_lon": 0.0, "fusion_lat": 0.0, "lat": 39.0078025, "type": "electric_bike", "lon": -76.99565416666667, "bike_id": "75d0d7f008a09bdd9c6450ec1a7103ec", "rental_uris": {"android": "https://dc.lft.to/lastmile_qr_scan", "ios": "https://dc.lft.to/lastmile_qr_scan"}, "name": "75d0d7f008a09bdd9c6450ec1a7103ec", "is_reserved": 0}, {"is_disabled": 0, "fusion_lon": 0.0, "fusion_lat": 0.0, "lat": 38.923308, "type": "electric_scooter", "lon": -77.0358665, "bike_id": "f36b0e553d7332370eb7102e281ec8be", "rental_uris": {"android": "https://dc.lft.to/lastmile_qr_scan", "ios": "https://dc.lft.to/lastmile_qr_scan"}, "name": "f36b0e553d7332370eb7102e281ec8be", "is_reserved": 0}, {"is_disabled": 0, "fusion_lon": 0.0, "fusion_lat": 0.0, "lat": 38.916936166666666, "type": "electric_scooter", "lon": -77.029924, "bike_id": "691ec4000db4b494a805dba3a03bfee3", "rental_uris": {"android": "https://dc.lft.to/lastmile_qr_scan", "ios": "https://dc.lft.to/lastmile_qr_scan"}, "name": "691ec4000db4b494a805dba3a03bfee3", "is_reserved": 0}, {"is_disabled": 0, "fusion_lon": 0.0, "fusion_lat": 0.0, "lat": 38.834296, "type": "electric_bike", "lon": -77.10353916666666, "bike_id": "3c32224a9135760684368055517d94f5", "rental_uris": {"android": "https://dc.lft.to/lastmile_qr_scan", "ios": "https://dc.lft.to/lastmile_qr_scan"}, "name": "3c32224a9135760684368055517d94f5", "is_reserved": 0}, {"is_disabled": 0, "fusion_lon": 0.0, "fusion_lat": 0.0, "lat": 38.905366, "type": "electric_scooter", "lon": -77.00536583333333, "bike_id": "bfb270a8c6c2b19690d15fa8fa9dfafa", "rental_uris": {"android": "https://dc.lft.to/lastmile_qr_scan", "ios": "https://dc.lft.to/lastmile_qr_scan"}, "name": "bfb270a8c6c2b19690d15fa8fa9dfafa", "is_reserved": 0}, {"is_disabled": 0, "fusion_lon": 0.0, "fusion_lat": 0.0, "lat": 38.91995216666667, "type": "electric_scooter", "lon": -77.03291866666666, "bike_id": "b9a08a455ad2585eb6bc4ba452db72b5", "rental_uris": {"android": "https://dc.lft.to/lastmile_qr_scan", "ios": "https://dc.lft.to/lastmile_qr_scan"}, "name": "b9a08a455ad2585eb6bc4ba452db72b5", "is_reserved": 0}, {"is_disabled": 0, "fusion_lon": 0.0, "fusion_lat": 0.0, "lat": 39.000166666666665, "type": "electric_bike", "lon": -76.87285633333333, "bike_id": "d92169b1679a9bccac7e88f71a81247e", "rental_uris": {"android": "https://dc.lft.to/lastmile_qr_scan", "ios": "https://dc.lft.to/lastmile_qr_scan"}, "name": "d92169b1679a9bccac7e88f71a81247e", "is_reserved": 0}, {"is_disabled": 0, "fusion_lon": 0.0, "fusion_lat": 0.0, "lat": 38.905755166666665, "type": "electric_scooter", "lon": -77.02205716666667, "bike_id": "d9bbcd337ed7da04f636138133260824", "rental_uris": {"android": "https://dc.lft.to/lastmile_qr_scan", "ios": "https://dc.lft.to/lastmile_qr_scan"}, "name": "d9bbcd337ed7da04f636138133260824", "is_reserved": 0}, {"is_disabled": 0, "fusion_lon": 0.0, "fusion_lat": 0.0, "lat": 38.912854, "type": "electric_scooter", "lon": -77.02076216666667, "bike_id": "d2129ae20fb847d17141c5dae33d43cf", "rental_uris": {"android": "https://dc.lft.to/lastmile_qr_scan", "ios": "https://dc.lft.to/lastmile_qr_scan"}, "name": "d2129ae20fb847d17141c5dae33d43cf", "is_reserved": 0}, {"is_disabled": 0, "fusion_lon": 0.0, "fusion_lat": 0.0, "lat": 38.82873283333333, "type": "electric_bike", "lon": -77.11221133333333, "bike_id": "25843ddb300673cd39d7dc34c796d7fe", "rental_uris": {"android": "https://dc.lft.to/lastmile_qr_scan", "ios": "https://dc.lft.to/lastmile_qr_scan"}, "name": "25843ddb300673cd39d7dc34c796d7fe", "is_reserved": 0}, {"is_disabled": 0, "fusion_lon": 0.0, "fusion_lat": 0.0, "lat": 38.9087085, "type": "electric_scooter", "lon": -77.00348866666667, "bike_id": "265a7340f1c3c4293c44271b0f89e25f", "rental_uris": {"android": "https://dc.lft.to/lastmile_qr_scan", "ios": "https://dc.lft.to/lastmile_qr_scan"}, "name": "265a7340f1c3c4293c44271b0f89e25f", "is_reserved": 0}, {"is_disabled": 0, "fusion_lon": 0.0, "fusion_lat": 0.0, "lat": 38.91920866666667, "type": "electric_scooter", "lon": -77.03183566666667, "bike_id": "fe168a22f562f8599ce0d99cef89d5c2", "rental_uris": {"android": "https://dc.lft.to/lastmile_qr_scan", "ios": "https://dc.lft.to/lastmile_qr_scan"}, "name": "fe168a22f562f8599ce0d99cef89d5c2", "is_reserved": 0}, {"is_disabled": 0, "fusion_lon": 0.0, "fusion_lat": 0.0, "lat": 38.90592383333333, "type": "electric_scooter", "lon": -77.07310333333334, "bike_id": "8080ef7d10fc9f2b898a214864400bad", "rental_uris": {"android": "https://dc.lft.to/lastmile_qr_scan", "ios": "https://dc.lft.to/lastmile_qr_scan"}, "name": "8080ef7d10fc9f2b898a214864400bad", "is_reserved": 0}, {"is_disabled": 0, "fusion_lon": 0.0, "fusion_lat": 0.0, "lat": 38.883777333333335, "type": "electric_bike", "lon": -77.03083933333333, "bike_id": "8a830a115fb58c731b27466d803f23b7", "rental_uris": {"android": "https://dc.lft.to/lastmile_qr_scan", "ios": "https://dc.lft.to/lastmile_qr_scan"}, "name": "8a830a115fb58c731b27466d803f23b7", "is_reserved": 0}, {"is_disabled": 0, "fusion_lon": 0.0, "fusion_lat": 0.0, "lat": 38.895069166666666, "type": "electric_scooter", "lon": -77.016157, "bike_id": "0a05f1a7a7397cba707a1ff3e15f5e2e", "rental_uris": {"android": "https://dc.lft.to/lastmile_qr_scan", "ios": "https://dc.lft.to/lastmile_qr_scan"}, "name": "0a05f1a7a7397cba707a1ff3e15f5e2e", "is_reserved": 0}, {"is_disabled": 0, "fusion_lon": 0.0, "fusion_lat": 0.0, "lat": 38.845977, "type": "electric_bike", "lon": -76.968801, "bike_id": "66cc07e3abda665088d553fe6d92b2f6", "rental_uris": {"android": "https://dc.lft.to/lastmile_qr_scan", "ios": "https://dc.lft.to/lastmile_qr_scan"}, "name": "66cc07e3abda665088d553fe6d92b2f6", "is_reserved": 0}, {"is_disabled": 0, "fusion_lon": 0.0, "fusion_lat": 0.0, "lat": 38.89908033333333, "type": "electric_scooter", "lon": -76.93394316666667, "bike_id": "ead00f6fd148c3d100b64f4a88920449", "rental_uris": {"android": "https://dc.lft.to/lastmile_qr_scan", "ios": "https://dc.lft.to/lastmile_qr_scan"}, "name": "ead00f6fd148c3d100b64f4a88920449", "is_reserved": 0}, {"is_disabled": 0, "fusion_lon": 0.0, "fusion_lat": 0.0, "lat": 38.911133, "type": "electric_scooter", "lon": -77.03831466666666, "bike_id": "7d5c3a067eb98963cb64719f40ee56f3", "rental_uris": {"android": "https://dc.lft.to/lastmile_qr_scan", "ios": "https://dc.lft.to/lastmile_qr_scan"}, "name": "7d5c3a067eb98963cb64719f40ee56f3", "is_reserved": 0}, {"is_disabled": 0, "fusion_lon": 0.0, "fusion_lat": 0.0, "lat": 38.92750366666667, "type": "electric_scooter", "lon": -77.07593983333334, "bike_id": "c1146fde25d54e8c37f59ba401e233df", "rental_uris": {"android": "https://dc.lft.to/lastmile_qr_scan", "ios": "https://dc.lft.to/lastmile_qr_scan"}, "name": "c1146fde25d54e8c37f59ba401e233df", "is_reserved": 0}, {"is_disabled": 0, "fusion_lon": 0.0, "fusion_lat": 0.0, "lat": 38.95963783333333, "type": "electric_scooter", "lon": -77.021102, "bike_id": "9aeefa33e304c69d476cbf7eb03c0c22", "rental_uris": {"android": "https://dc.lft.to/lastmile_qr_scan", "ios": "https://dc.lft.to/lastmile_qr_scan"}, "name": "9aeefa33e304c69d476cbf7eb03c0c22", "is_reserved": 0}, {"is_disabled": 0, "fusion_lon": 0.0, "fusion_lat": 0.0, "lat": 38.9074625, "type": "electric_scooter", "lon": -77.0358755, "bike_id": "7dacddb1ca68d80f7c558f128a98e6ca", "rental_uris": {"android": "https://dc.lft.to/lastmile_qr_scan", "ios": "https://dc.lft.to/lastmile_qr_scan"}, "name": "7dacddb1ca68d80f7c558f128a98e6ca", "is_reserved": 0}, {"is_disabled": 0, "fusion_lon": 0.0, "fusion_lat": 0.0, "lat": 38.921178166666664, "type": "electric_scooter", "lon": -77.01211366666666, "bike_id": "bbd663142a7f90a56c980bf2643b2916", "rental_uris": {"android": "https://dc.lft.to/lastmile_qr_scan", "ios": "https://dc.lft.to/lastmile_qr_scan"}, "name": "bbd663142a7f90a56c980bf2643b2916", "is_reserved": 0}, {"is_disabled": 0, "fusion_lon": 0.0, "fusion_lat": 0.0, "lat": 38.93557666666667, "type": "electric_scooter", "lon": -77.081979, "bike_id": "752b8a538fc64733566413cfc2bd7363", "rental_uris": {"android": "https://dc.lft.to/lastmile_qr_scan", "ios": "https://dc.lft.to/lastmile_qr_scan"}, "name": "752b8a538fc64733566413cfc2bd7363", "is_reserved": 0}, {"is_disabled": 0, "fusion_lon": 0.0, "fusion_lat": 0.0, "lat": 38.95636183333333, "type": "electric_scooter", "lon": -77.02978683333333, "bike_id": "bd364004759fe9324035eb3aafbc9193", "rental_uris": {"android": "https://dc.lft.to/lastmile_qr_scan", "ios": "https://dc.lft.to/lastmile_qr_scan"}, "name": "bd364004759fe9324035eb3aafbc9193", "is_reserved": 0}, {"is_disabled": 0, "fusion_lon": 0.0, "fusion_lat": 0.0, "lat": 38.831542666666664, "type": "electric_bike", "lon": -76.99695583333333, "bike_id": "497dfbc1a134d6c06a98f8594d9ed022", "rental_uris": {"android": "https://dc.lft.to/lastmile_qr_scan", "ios": "https://dc.lft.to/lastmile_qr_scan"}, "name": "497dfbc1a134d6c06a98f8594d9ed022", "is_reserved": 0}, {"is_disabled": 0, "fusion_lon": 0.0, "fusion_lat": 0.0, "lat": 38.94249466666667, "type": "electric_scooter", "lon": -77.02174733333334, "bike_id": "a30dd0f495b4ff879779e99b3c03a078", "rental_uris": {"android": "https://dc.lft.to/lastmile_qr_scan", "ios": "https://dc.lft.to/lastmile_qr_scan"}, "name": "a30dd0f495b4ff879779e99b3c03a078", "is_reserved": 0}, {"is_disabled": 0, "fusion_lon": 0.0, "fusion_lat": 0.0, "lat": 38.988156833333335, "type": "electric_bike", "lon": -77.026581, "bike_id": "091eaa1f56739cf2569e45c4e3c11366", "rental_uris": {"android": "https://dc.lft.to/lastmile_qr_scan", "ios": "https://dc.lft.to/lastmile_qr_scan"}, "name": "091eaa1f56739cf2569e45c4e3c11366", "is_reserved": 0}, {"is_disabled": 0, "fusion_lon": 0.0, "fusion_lat": 0.0, "lat": 38.897981, "type": "electric_scooter", "lon": -76.93054, "bike_id": "520a134b45aad6f131ac92d3c4c36949", "rental_uris": {"android": "https://dc.lft.to/lastmile_qr_scan", "ios": "https://dc.lft.to/lastmile_qr_scan"}, "name": "520a134b45aad6f131ac92d3c4c36949", "is_reserved": 0}, {"is_disabled": 0, "fusion_lon": 0.0, "fusion_lat": 0.0, "lat": 38.8673275, "type": "electric_scooter", "lon": -76.98853316666667, "bike_id": "1db837cf1ab7fef418c2c2d77e19ac89", "rental_uris": {"android": "https://dc.lft.to/lastmile_qr_scan", "ios": "https://dc.lft.to/lastmile_qr_scan"}, "name": "1db837cf1ab7fef418c2c2d77e19ac89", "is_reserved": 0}, {"is_disabled": 0, "fusion_lon": 0.0, "fusion_lat": 0.0, "lat": 38.9498855, "type": "electric_scooter", "lon": -77.02703583333333, "bike_id": "7ad20de294ffcc4367deebaeeb952b10", "rental_uris": {"android": "https://dc.lft.to/lastmile_qr_scan", "ios": "https://dc.lft.to/lastmile_qr_scan"}, "name": "7ad20de294ffcc4367deebaeeb952b10", "is_reserved": 0}, {"is_disabled": 0, "fusion_lon": 0.0, "fusion_lat": 0.0, "lat": 38.92659116666667, "type": "electric_scooter", "lon": -77.0230725, "bike_id": "4ea821fe96c31448408c889f586f3e1f", "rental_uris": {"android": "https://dc.lft.to/lastmile_qr_scan", "ios": "https://dc.lft.to/lastmile_qr_scan"}, "name": "4ea821fe96c31448408c889f586f3e1f", "is_reserved": 0}, {"is_disabled": 0, "fusion_lon": 0.0, "fusion_lat": 0.0, "lat": 38.86333066666667, "type": "electric_bike", "lon": -76.98720166666666, "bike_id": "afb55d7853982128a4b822b25a028145", "rental_uris": {"android": "https://dc.lft.to/lastmile_qr_scan", "ios": "https://dc.lft.to/lastmile_qr_scan"}, "name": "afb55d7853982128a4b822b25a028145", "is_reserved": 0}, {"is_disabled": 0, "fusion_lon": 0.0, "fusion_lat": 0.0, "lat": 38.885848333333335, "type": "electric_scooter", "lon": -77.03105933333333, "bike_id": "60368e1ae58be84d43b17603033dcb5f", "rental_uris": {"android": "https://dc.lft.to/lastmile_qr_scan", "ios": "https://dc.lft.to/lastmile_qr_scan"}, "name": "60368e1ae58be84d43b17603033dcb5f", "is_reserved": 0}, {"is_disabled": 0, "fusion_lon": 0.0, "fusion_lat": 0.0, "lat": 38.9323065, "type": "electric_scooter", "lon": -77.02027033333333, "bike_id": "0b2e522ba4ca5388a7364a7f19883385", "rental_uris": {"android": "https://dc.lft.to/lastmile_qr_scan", "ios": "https://dc.lft.to/lastmile_qr_scan"}, "name": "0b2e522ba4ca5388a7364a7f19883385", "is_reserved": 0}, {"is_disabled": 0, "fusion_lon": 0.0, "fusion_lat": 0.0, "lat": 38.900677, "type": "electric_scooter", "lon": -77.05344666666667, "bike_id": "0ed81f749040c5fc0fe18d424d85ba7b", "rental_uris": {"android": "https://dc.lft.to/lastmile_qr_scan", "ios": "https://dc.lft.to/lastmile_qr_scan"}, "name": "0ed81f749040c5fc0fe18d424d85ba7b", "is_reserved": 0}, {"is_disabled": 0, "fusion_lon": 0.0, "fusion_lat": 0.0, "lat": 38.92271233333334, "type": "electric_scooter", "lon": -77.04151316666666, "bike_id": "2e08c6c5560cd3856fbbbaf250a08c8d", "rental_uris": {"android": "https://dc.lft.to/lastmile_qr_scan", "ios": "https://dc.lft.to/lastmile_qr_scan"}, "name": "2e08c6c5560cd3856fbbbaf250a08c8d", "is_reserved": 0}, {"is_disabled": 0, "fusion_lon": 0.0, "fusion_lat": 0.0, "lat": 38.900584333333335, "type": "electric_scooter", "lon": -76.93480166666667, "bike_id": "18ac05446a4f0e07917cd94e3964d50f", "rental_uris": {"android": "https://dc.lft.to/lastmile_qr_scan", "ios": "https://dc.lft.to/lastmile_qr_scan"}, "name": "18ac05446a4f0e07917cd94e3964d50f", "is_reserved": 0}, {"is_disabled": 0, "fusion_lon": 0.0, "fusion_lat": 0.0, "lat": 38.9195385, "type": "electric_scooter", "lon": -77.000765, "bike_id": "b36ea04881caef48c91edaaa1e47f7b7", "rental_uris": {"android": "https://dc.lft.to/lastmile_qr_scan", "ios": "https://dc.lft.to/lastmile_qr_scan"}, "name": "b36ea04881caef48c91edaaa1e47f7b7", "is_reserved": 0}, {"is_disabled": 0, "fusion_lon": 0.0, "fusion_lat": 0.0, "lat": 38.906848333333336, "type": "electric_bike", "lon": -76.951964, "bike_id": "f0b0e611eea312dc4a1598d27f90ca13", "rental_uris": {"android": "https://dc.lft.to/lastmile_qr_scan", "ios": "https://dc.lft.to/lastmile_qr_scan"}, "name": "f0b0e611eea312dc4a1598d27f90ca13", "is_reserved": 0}, {"is_disabled": 0, "fusion_lon": 0.0, "fusion_lat": 0.0, "lat": 38.907370666666665, "type": "electric_scooter", "lon": -77.02974833333333, "bike_id": "ef201487729135d0d6931901be283a8b", "rental_uris": {"android": "https://dc.lft.to/lastmile_qr_scan", "ios": "https://dc.lft.to/lastmile_qr_scan"}, "name": "ef201487729135d0d6931901be283a8b", "is_reserved": 0}, {"is_disabled": 0, "fusion_lon": 0.0, "fusion_lat": 0.0, "lat": 38.93029216666667, "type": "electric_scooter", "lon": -77.0195785, "bike_id": "0caa1718ed5e3914360ccc577b7e5773", "rental_uris": {"android": "https://dc.lft.to/lastmile_qr_scan", "ios": "https://dc.lft.to/lastmile_qr_scan"}, "name": "0caa1718ed5e3914360ccc577b7e5773", "is_reserved": 0}, {"is_disabled": 0, "fusion_lon": 0.0, "fusion_lat": 0.0, "lat": 38.919512, "type": "electric_scooter", "lon": -77.01665733333333, "bike_id": "2b0b807a611f35ef14c7301d95fbccad", "rental_uris": {"android": "https://dc.lft.to/lastmile_qr_scan", "ios": "https://dc.lft.to/lastmile_qr_scan"}, "name": "2b0b807a611f35ef14c7301d95fbccad", "is_reserved": 0}, {"is_disabled": 0, "fusion_lon": 0.0, "fusion_lat": 0.0, "lat": 38.9097235, "type": "electric_scooter", "lon": -77.038685, "bike_id": "03c04ca4d78296605d25b5f78f5d4a79", "rental_uris": {"android": "https://dc.lft.to/lastmile_qr_scan", "ios": "https://dc.lft.to/lastmile_qr_scan"}, "name": "03c04ca4d78296605d25b5f78f5d4a79", "is_reserved": 0}, {"is_disabled": 0, "fusion_lon": 0.0, "fusion_lat": 0.0, "lat": 38.9250345, "type": "electric_scooter", "lon": -77.04091533333333, "bike_id": "70813d54cc0dbacae1beed956e8bf9a4", "rental_uris": {"android": "https://dc.lft.to/lastmile_qr_scan", "ios": "https://dc.lft.to/lastmile_qr_scan"}, "name": "70813d54cc0dbacae1beed956e8bf9a4", "is_reserved": 0}, {"is_disabled": 0, "fusion_lon": 0.0, "fusion_lat": 0.0, "lat": 38.8951015, "type": "electric_bike", "lon": -76.94943833333333, "bike_id": "cbd136cf639d8052c31843405a84a1c6", "rental_uris": {"android": "https://dc.lft.to/lastmile_qr_scan", "ios": "https://dc.lft.to/lastmile_qr_scan"}, "name": "cbd136cf639d8052c31843405a84a1c6", "is_reserved": 0}, {"is_disabled": 0, "fusion_lon": 0.0, "fusion_lat": 0.0, "lat": 38.933404333333336, "type": "electric_scooter", "lon": -77.0413985, "bike_id": "68f6f29fbad95a5e215b262a2ff67e79", "rental_uris": {"android": "https://dc.lft.to/lastmile_qr_scan", "ios": "https://dc.lft.to/lastmile_qr_scan"}, "name": "68f6f29fbad95a5e215b262a2ff67e79", "is_reserved": 0}, {"is_disabled": 0, "fusion_lon": 0.0, "fusion_lat": 0.0, "lat": 38.9287375, "type": "electric_scooter", "lon": -76.990324, "bike_id": "a768d7b14391f4335ec4081d04b4de7e", "rental_uris": {"android": "https://dc.lft.to/lastmile_qr_scan", "ios": "https://dc.lft.to/lastmile_qr_scan"}, "name": "a768d7b14391f4335ec4081d04b4de7e", "is_reserved": 0}, {"is_disabled": 0, "fusion_lon": 0.0, "fusion_lat": 0.0, "lat": 38.92826783333334, "type": "electric_scooter", "lon": -77.022616, "bike_id": "5e7120f33b4b6c5c11aec61a7c8e1947", "rental_uris": {"android": "https://dc.lft.to/lastmile_qr_scan", "ios": "https://dc.lft.to/lastmile_qr_scan"}, "name": "5e7120f33b4b6c5c11aec61a7c8e1947", "is_reserved": 0}, {"is_disabled": 0, "fusion_lon": 0.0, "fusion_lat": 0.0, "lat": 38.927356, "type": "electric_bike", "lon": -76.99367033333333, "bike_id": "b41d7c9b4464bdc02909b5e002b98dfc", "rental_uris": {"android": "https://dc.lft.to/lastmile_qr_scan", "ios": "https://dc.lft.to/lastmile_qr_scan"}, "name": "b41d7c9b4464bdc02909b5e002b98dfc", "is_reserved": 0}, {"is_disabled": 0, "fusion_lon": 0.0, "fusion_lat": 0.0, "lat": 38.91339116666666, "type": "electric_scooter", "lon": -77.05220716666666, "bike_id": "da877f40d6af3beae649bd871716383b", "rental_uris": {"android": "https://dc.lft.to/lastmile_qr_scan", "ios": "https://dc.lft.to/lastmile_qr_scan"}, "name": "da877f40d6af3beae649bd871716383b", "is_reserved": 0}, {"is_disabled": 0, "fusion_lon": 0.0, "fusion_lat": 0.0, "lat": 38.984769666666665, "type": "electric_scooter", "lon": -77.02646783333333, "bike_id": "88712336022cca51830a39478e57b4b1", "rental_uris": {"android": "https://dc.lft.to/lastmile_qr_scan", "ios": "https://dc.lft.to/lastmile_qr_scan"}, "name": "88712336022cca51830a39478e57b4b1", "is_reserved": 0}, {"is_disabled": 0, "fusion_lon": 0.0, "fusion_lat": 0.0, "lat": 38.89359416666667, "type": "electric_scooter", "lon": -76.939882, "bike_id": "b705be9e19eca31687cbabed3eb125b4", "rental_uris": {"android": "https://dc.lft.to/lastmile_qr_scan", "ios": "https://dc.lft.to/lastmile_qr_scan"}, "name": "b705be9e19eca31687cbabed3eb125b4", "is_reserved": 0}, {"is_disabled": 0, "fusion_lon": 0.0, "fusion_lat": 0.0, "lat": 38.909683, "type": "electric_scooter", "lon": -77.03865183333333, "bike_id": "473b63fd5d20580f8b40647eeca00a0b", "rental_uris": {"android": "https://dc.lft.to/lastmile_qr_scan", "ios": "https://dc.lft.to/lastmile_qr_scan"}, "name": "473b63fd5d20580f8b40647eeca00a0b", "is_reserved": 0}, {"is_disabled": 0, "fusion_lon": 0.0, "fusion_lat": 0.0, "lat": 38.93838616666667, "type": "electric_scooter", "lon": -77.0602145, "bike_id": "e9ba6ea1f8df33b5efb1499a5aa839bb", "rental_uris": {"android": "https://dc.lft.to/lastmile_qr_scan", "ios": "https://dc.lft.to/lastmile_qr_scan"}, "name": "e9ba6ea1f8df33b5efb1499a5aa839bb", "is_reserved": 0}, {"is_disabled": 0, "fusion_lon": 0.0, "fusion_lat": 0.0, "lat": 38.8672065, "type": "electric_scooter", "lon": -76.97916183333334, "bike_id": "cf43da068ac736de3be568ec343b9581", "rental_uris": {"android": "https://dc.lft.to/lastmile_qr_scan", "ios": "https://dc.lft.to/lastmile_qr_scan"}, "name": "cf43da068ac736de3be568ec343b9581", "is_reserved": 0}, {"is_disabled": 0, "fusion_lon": 0.0, "fusion_lat": 0.0, "lat": 38.938877166666664, "type": "electric_scooter", "lon": -77.02826483333334, "bike_id": "a96073799cd352cc857b6390df9e04fe", "rental_uris": {"android": "https://dc.lft.to/lastmile_qr_scan", "ios": "https://dc.lft.to/lastmile_qr_scan"}, "name": "a96073799cd352cc857b6390df9e04fe", "is_reserved": 0}, {"is_disabled": 0, "fusion_lon": 0.0, "fusion_lat": 0.0, "lat": 38.87793083333333, "type": "electric_scooter", "lon": -77.01355766666667, "bike_id": "3faf86cc0c6c8e9aef38812041df8306", "rental_uris": {"android": "https://dc.lft.to/lastmile_qr_scan", "ios": "https://dc.lft.to/lastmile_qr_scan"}, "name": "3faf86cc0c6c8e9aef38812041df8306", "is_reserved": 0}, {"is_disabled": 0, "fusion_lon": 0.0, "fusion_lat": 0.0, "lat": 38.957458833333334, "type": "electric_scooter", "lon": -77.02428216666667, "bike_id": "333124c8094546354e59b0a6f9910b07", "rental_uris": {"android": "https://dc.lft.to/lastmile_qr_scan", "ios": "https://dc.lft.to/lastmile_qr_scan"}, "name": "333124c8094546354e59b0a6f9910b07", "is_reserved": 0}, {"is_disabled": 0, "fusion_lon": 0.0, "fusion_lat": 0.0, "lat": 38.916965833333336, "type": "electric_scooter", "lon": -77.00644566666666, "bike_id": "1737e79d3c5650df35fe65dc76688fce", "rental_uris": {"android": "https://dc.lft.to/lastmile_qr_scan", "ios": "https://dc.lft.to/lastmile_qr_scan"}, "name": "1737e79d3c5650df35fe65dc76688fce", "is_reserved": 0}, {"is_disabled": 0, "fusion_lon": 0.0, "fusion_lat": 0.0, "lat": 38.905817666666664, "type": "electric_scooter", "lon": -77.02605183333333, "bike_id": "ec8cdb7362df3c96c260df524a58972f", "rental_uris": {"android": "https://dc.lft.to/lastmile_qr_scan", "ios": "https://dc.lft.to/lastmile_qr_scan"}, "name": "ec8cdb7362df3c96c260df524a58972f", "is_reserved": 0}, {"is_disabled": 0, "fusion_lon": 0.0, "fusion_lat": 0.0, "lat": 38.85209233333333, "type": "electric_bike", "lon": -77.12761866666666, "bike_id": "92988dc849dac3608ff56d8ebdecac43", "rental_uris": {"android": "https://dc.lft.to/lastmile_qr_scan", "ios": "https://dc.lft.to/lastmile_qr_scan"}, "name": "92988dc849dac3608ff56d8ebdecac43", "is_reserved": 0}, {"is_disabled": 0, "fusion_lon": 0.0, "fusion_lat": 0.0, "lat": 38.86602216666667, "type": "electric_bike", "lon": -76.9321905, "bike_id": "2d04e21d0a0f525805e6a7b396820ef2", "rental_uris": {"android": "https://dc.lft.to/lastmile_qr_scan", "ios": "https://dc.lft.to/lastmile_qr_scan"}, "name": "2d04e21d0a0f525805e6a7b396820ef2", "is_reserved": 0}, {"is_disabled": 0, "fusion_lon": 0.0, "fusion_lat": 0.0, "lat": 38.8925095, "type": "electric_scooter", "lon": -76.998529, "bike_id": "d775696794f9bf848a703dcc194ae807", "rental_uris": {"android": "https://dc.lft.to/lastmile_qr_scan", "ios": "https://dc.lft.to/lastmile_qr_scan"}, "name": "d775696794f9bf848a703dcc194ae807", "is_reserved": 0}, {"is_disabled": 0, "fusion_lon": 0.0, "fusion_lat": 0.0, "lat": 38.902933, "type": "electric_scooter", "lon": -77.05069683333333, "bike_id": "5a3b06260182b6af65d41f25bb6b729b", "rental_uris": {"android": "https://dc.lft.to/lastmile_qr_scan", "ios": "https://dc.lft.to/lastmile_qr_scan"}, "name": "5a3b06260182b6af65d41f25bb6b729b", "is_reserved": 0}, {"is_disabled": 0, "fusion_lon": 0.0, "fusion_lat": 0.0, "lat": 38.92684766666667, "type": "electric_scooter", "lon": -77.037716, "bike_id": "e44cc023ccee5711da9b868179c2b292", "rental_uris": {"android": "https://dc.lft.to/lastmile_qr_scan", "ios": "https://dc.lft.to/lastmile_qr_scan"}, "name": "e44cc023ccee5711da9b868179c2b292", "is_reserved": 0}, {"is_disabled": 0, "fusion_lon": 0.0, "fusion_lat": 0.0, "lat": 38.944953, "type": "electric_bike", "lon": -77.0068005, "bike_id": "772ea21d69ebec52949b16f3a7b78af8", "rental_uris": {"android": "https://dc.lft.to/lastmile_qr_scan", "ios": "https://dc.lft.to/lastmile_qr_scan"}, "name": "772ea21d69ebec52949b16f3a7b78af8", "is_reserved": 0}, {"is_disabled": 0, "fusion_lon": 0.0, "fusion_lat": 0.0, "lat": 38.93603566666667, "type": "electric_scooter", "lon": -77.05862583333334, "bike_id": "3d8b67122abd473e7dcad4af9e8d4f9c", "rental_uris": {"android": "https://dc.lft.to/lastmile_qr_scan", "ios": "https://dc.lft.to/lastmile_qr_scan"}, "name": "3d8b67122abd473e7dcad4af9e8d4f9c", "is_reserved": 0}, {"is_disabled": 0, "fusion_lon": 0.0, "fusion_lat": 0.0, "lat": 38.89746616666667, "type": "electric_scooter", "lon": -77.05135466666667, "bike_id": "c7d02107a70b19264c5826a01a477dae", "rental_uris": {"android": "https://dc.lft.to/lastmile_qr_scan", "ios": "https://dc.lft.to/lastmile_qr_scan"}, "name": "c7d02107a70b19264c5826a01a477dae", "is_reserved": 0}, {"is_disabled": 0, "fusion_lon": 0.0, "fusion_lat": 0.0, "lat": 38.91692033333333, "type": "electric_scooter", "lon": -77.02597116666666, "bike_id": "e99449830c82ecc38bb33e197e0a0b72", "rental_uris": {"android": "https://dc.lft.to/lastmile_qr_scan", "ios": "https://dc.lft.to/lastmile_qr_scan"}, "name": "e99449830c82ecc38bb33e197e0a0b72", "is_reserved": 0}, {"is_disabled": 0, "fusion_lon": 0.0, "fusion_lat": 0.0, "lat": 38.91118433333333, "type": "electric_scooter", "lon": -77.04507933333333, "bike_id": "0b895b987e4a486de101c2d336c56a25", "rental_uris": {"android": "https://dc.lft.to/lastmile_qr_scan", "ios": "https://dc.lft.to/lastmile_qr_scan"}, "name": "0b895b987e4a486de101c2d336c56a25", "is_reserved": 0}, {"is_disabled": 0, "fusion_lon": 0.0, "fusion_lat": 0.0, "lat": 38.91423916666667, "type": "electric_scooter", "lon": -77.01417483333333, "bike_id": "7be4b1aeb1994c397dbb46b739386130", "rental_uris": {"android": "https://dc.lft.to/lastmile_qr_scan", "ios": "https://dc.lft.to/lastmile_qr_scan"}, "name": "7be4b1aeb1994c397dbb46b739386130", "is_reserved": 0}, {"is_disabled": 0, "fusion_lon": 0.0, "fusion_lat": 0.0, "lat": 38.92442633333334, "type": "electric_bike", "lon": -76.96831266666666, "bike_id": "c06830c43e87a96826c71b0086824b7f", "rental_uris": {"android": "https://dc.lft.to/lastmile_qr_scan", "ios": "https://dc.lft.to/lastmile_qr_scan"}, "name": "c06830c43e87a96826c71b0086824b7f", "is_reserved": 0}, {"is_disabled": 0, "fusion_lon": 0.0, "fusion_lat": 0.0, "lat": 38.89373883333333, "type": "electric_scooter", "lon": -76.94998833333334, "bike_id": "d7f0b5950c1bb246be58d436b4ac880a", "rental_uris": {"android": "https://dc.lft.to/lastmile_qr_scan", "ios": "https://dc.lft.to/lastmile_qr_scan"}, "name": "d7f0b5950c1bb246be58d436b4ac880a", "is_reserved": 0}, {"is_disabled": 0, "fusion_lon": 0.0, "fusion_lat": 0.0, "lat": 39.105650833333335, "type": "electric_bike", "lon": -77.15268883333333, "bike_id": "5fcae2440d830b5fe6fcbdbd23e01644", "rental_uris": {"android": "https://dc.lft.to/lastmile_qr_scan", "ios": "https://dc.lft.to/lastmile_qr_scan"}, "name": "5fcae2440d830b5fe6fcbdbd23e01644", "is_reserved": 0}, {"is_disabled": 0, "fusion_lon": 0.0, "fusion_lat": 0.0, "lat": 38.91976016666667, "type": "electric_scooter", "lon": -77.00024, "bike_id": "00489cc0a3c649488b2915287e5bf402", "rental_uris": {"android": "https://dc.lft.to/lastmile_qr_scan", "ios": "https://dc.lft.to/lastmile_qr_scan"}, "name": "00489cc0a3c649488b2915287e5bf402", "is_reserved": 0}, {"is_disabled": 0, "fusion_lon": 0.0, "fusion_lat": 0.0, "lat": 38.92276533333333, "type": "electric_bike", "lon": -76.99424033333334, "bike_id": "ddbbfc695220d0463ec635a7c23f081b", "rental_uris": {"android": "https://dc.lft.to/lastmile_qr_scan", "ios": "https://dc.lft.to/lastmile_qr_scan"}, "name": "ddbbfc695220d0463ec635a7c23f081b", "is_reserved": 0}, {"is_disabled": 0, "fusion_lon": 0.0, "fusion_lat": 0.0, "lat": 38.929141666666666, "type": "electric_scooter", "lon": -77.0234805, "bike_id": "a08be913cc7859061b819a1e127cb589", "rental_uris": {"android": "https://dc.lft.to/lastmile_qr_scan", "ios": "https://dc.lft.to/lastmile_qr_scan"}, "name": "a08be913cc7859061b819a1e127cb589", "is_reserved": 0}, {"is_disabled": 0, "fusion_lon": 0.0, "fusion_lat": 0.0, "lat": 38.928571, "type": "electric_bike", "lon": -77.02074833333333, "bike_id": "6dcc85bcf49d1d4eacb2cc68a1d77fa6", "rental_uris": {"android": "https://dc.lft.to/lastmile_qr_scan", "ios": "https://dc.lft.to/lastmile_qr_scan"}, "name": "6dcc85bcf49d1d4eacb2cc68a1d77fa6", "is_reserved": 0}, {"is_disabled": 0, "fusion_lon": 0.0, "fusion_lat": 0.0, "lat": 38.92894483333333, "type": "electric_scooter", "lon": -76.98457016666667, "bike_id": "b0e049413a17eff1575be944b7a01ba7", "rental_uris": {"android": "https://dc.lft.to/lastmile_qr_scan", "ios": "https://dc.lft.to/lastmile_qr_scan"}, "name": "b0e049413a17eff1575be944b7a01ba7", "is_reserved": 0}, {"is_disabled": 0, "fusion_lon": 0.0, "fusion_lat": 0.0, "lat": 38.902699, "type": "electric_scooter", "lon": -77.04270766666667, "bike_id": "a3eec259d14bc32bc752b590d045e22d", "rental_uris": {"android": "https://dc.lft.to/lastmile_qr_scan", "ios": "https://dc.lft.to/lastmile_qr_scan"}, "name": "a3eec259d14bc32bc752b590d045e22d", "is_reserved": 0}, {"is_disabled": 0, "fusion_lon": 0.0, "fusion_lat": 0.0, "lat": 38.936324166666665, "type": "electric_scooter", "lon": -77.03662283333334, "bike_id": "f718dc00e9add378740b410b4d9a23bc", "rental_uris": {"android": "https://dc.lft.to/lastmile_qr_scan", "ios": "https://dc.lft.to/lastmile_qr_scan"}, "name": "f718dc00e9add378740b410b4d9a23bc", "is_reserved": 0}, {"is_disabled": 0, "fusion_lon": 0.0, "fusion_lat": 0.0, "lat": 38.876693333333336, "type": "electric_scooter", "lon": -76.93183866666666, "bike_id": "c8f8e5ef86d3ca8cd0bf55a913dc8f0c", "rental_uris": {"android": "https://dc.lft.to/lastmile_qr_scan", "ios": "https://dc.lft.to/lastmile_qr_scan"}, "name": "c8f8e5ef86d3ca8cd0bf55a913dc8f0c", "is_reserved": 0}, {"is_disabled": 0, "fusion_lon": 0.0, "fusion_lat": 0.0, "lat": 38.949996666666664, "type": "electric_bike", "lon": -77.3530995, "bike_id": "b7fdf66b0bb07aa288edb8c22b26b798", "rental_uris": {"android": "https://dc.lft.to/lastmile_qr_scan", "ios": "https://dc.lft.to/lastmile_qr_scan"}, "name": "b7fdf66b0bb07aa288edb8c22b26b798", "is_reserved": 0}, {"is_disabled": 0, "fusion_lon": 0.0, "fusion_lat": 0.0, "lat": 38.912687166666664, "type": "electric_scooter", "lon": -77.03364383333333, "bike_id": "6e20a6676cd83a3780bf4327f30592ca", "rental_uris": {"android": "https://dc.lft.to/lastmile_qr_scan", "ios": "https://dc.lft.to/lastmile_qr_scan"}, "name": "6e20a6676cd83a3780bf4327f30592ca", "is_reserved": 0}, {"is_disabled": 0, "fusion_lon": 0.0, "fusion_lat": 0.0, "lat": 38.94979216666667, "type": "electric_scooter", "lon": -77.09441416666667, "bike_id": "feadc85e246f51f17ddb201559f29781", "rental_uris": {"android": "https://dc.lft.to/lastmile_qr_scan", "ios": "https://dc.lft.to/lastmile_qr_scan"}, "name": "feadc85e246f51f17ddb201559f29781", "is_reserved": 0}, {"is_disabled": 0, "fusion_lon": 0.0, "fusion_lat": 0.0, "lat": 38.8782655, "type": "electric_scooter", "lon": -76.9631965, "bike_id": "394136ea30d188d16c16af9ecf571fbe", "rental_uris": {"android": "https://dc.lft.to/lastmile_qr_scan", "ios": "https://dc.lft.to/lastmile_qr_scan"}, "name": "394136ea30d188d16c16af9ecf571fbe", "is_reserved": 0}, {"is_disabled": 0, "fusion_lon": 0.0, "fusion_lat": 0.0, "lat": 38.932768, "type": "electric_scooter", "lon": -76.9742225, "bike_id": "f2d6e74ea7779328cec23105b45a701d", "rental_uris": {"android": "https://dc.lft.to/lastmile_qr_scan", "ios": "https://dc.lft.to/lastmile_qr_scan"}, "name": "f2d6e74ea7779328cec23105b45a701d", "is_reserved": 0}, {"is_disabled": 0, "fusion_lon": 0.0, "fusion_lat": 0.0, "lat": 38.927535666666664, "type": "electric_scooter", "lon": -77.00593316666667, "bike_id": "d8ff87679367596a0bc8238ee9493473", "rental_uris": {"android": "https://dc.lft.to/lastmile_qr_scan", "ios": "https://dc.lft.to/lastmile_qr_scan"}, "name": "d8ff87679367596a0bc8238ee9493473", "is_reserved": 0}, {"is_disabled": 0, "fusion_lon": 0.0, "fusion_lat": 0.0, "lat": 38.905119, "type": "electric_bike", "lon": -76.98127666666667, "bike_id": "fcc93d7783ea28d6755e0c948bce11fa", "rental_uris": {"android": "https://dc.lft.to/lastmile_qr_scan", "ios": "https://dc.lft.to/lastmile_qr_scan"}, "name": "fcc93d7783ea28d6755e0c948bce11fa", "is_reserved": 0}, {"is_disabled": 0, "fusion_lon": 0.0, "fusion_lat": 0.0, "lat": 38.907665333333334, "type": "electric_scooter", "lon": -77.06313316666666, "bike_id": "e165d3f272fa85daab1759a89b13dd6b", "rental_uris": {"android": "https://dc.lft.to/lastmile_qr_scan", "ios": "https://dc.lft.to/lastmile_qr_scan"}, "name": "e165d3f272fa85daab1759a89b13dd6b", "is_reserved": 0}, {"is_disabled": 0, "fusion_lon": 0.0, "fusion_lat": 0.0, "lat": 38.852163166666664, "type": "electric_bike", "lon": -77.10130866666667, "bike_id": "ce6409b1a418acc930829d6a944301ef", "rental_uris": {"android": "https://dc.lft.to/lastmile_qr_scan", "ios": "https://dc.lft.to/lastmile_qr_scan"}, "name": "ce6409b1a418acc930829d6a944301ef", "is_reserved": 0}, {"is_disabled": 0, "fusion_lon": 0.0, "fusion_lat": 0.0, "lat": 38.9307825, "type": "electric_scooter", "lon": -77.02566, "bike_id": "c449b4dae4ba333e6e9edb45e64387ad", "rental_uris": {"android": "https://dc.lft.to/lastmile_qr_scan", "ios": "https://dc.lft.to/lastmile_qr_scan"}, "name": "c449b4dae4ba333e6e9edb45e64387ad", "is_reserved": 0}, {"is_disabled": 0, "fusion_lon": 0.0, "fusion_lat": 0.0, "lat": 38.890517833333334, "type": "electric_scooter", "lon": -77.0014955, "bike_id": "d652fd35e0606a06d83ee9e24aed537e", "rental_uris": {"android": "https://dc.lft.to/lastmile_qr_scan", "ios": "https://dc.lft.to/lastmile_qr_scan"}, "name": "d652fd35e0606a06d83ee9e24aed537e", "is_reserved": 0}, {"is_disabled": 0, "fusion_lon": 0.0, "fusion_lat": 0.0, "lat": 38.90305016666667, "type": "electric_scooter", "lon": -77.03028433333333, "bike_id": "88507eb2d0466390d125a1eeaf257c40", "rental_uris": {"android": "https://dc.lft.to/lastmile_qr_scan", "ios": "https://dc.lft.to/lastmile_qr_scan"}, "name": "88507eb2d0466390d125a1eeaf257c40", "is_reserved": 0}, {"is_disabled": 0, "fusion_lon": 0.0, "fusion_lat": 0.0, "lat": 38.916402, "type": "electric_scooter", "lon": -77.03464666666666, "bike_id": "8c8e9afaed569c6aea463bf08770aaca", "rental_uris": {"android": "https://dc.lft.to/lastmile_qr_scan", "ios": "https://dc.lft.to/lastmile_qr_scan"}, "name": "8c8e9afaed569c6aea463bf08770aaca", "is_reserved": 0}, {"is_disabled": 0, "fusion_lon": 0.0, "fusion_lat": 0.0, "lat": 38.86845683333333, "type": "electric_bike", "lon": -77.09731483333333, "bike_id": "c81ef800ed3b7acb40f5b94fc2323d65", "rental_uris": {"android": "https://dc.lft.to/lastmile_qr_scan", "ios": "https://dc.lft.to/lastmile_qr_scan"}, "name": "c81ef800ed3b7acb40f5b94fc2323d65", "is_reserved": 0}, {"is_disabled": 0, "fusion_lon": 0.0, "fusion_lat": 0.0, "lat": 38.90484583333333, "type": "electric_scooter", "lon": -77.03802583333334, "bike_id": "7848a307c6f6de74d6a95c66553dc59b", "rental_uris": {"android": "https://dc.lft.to/lastmile_qr_scan", "ios": "https://dc.lft.to/lastmile_qr_scan"}, "name": "7848a307c6f6de74d6a95c66553dc59b", "is_reserved": 0}, {"is_disabled": 0, "fusion_lon": 0.0, "fusion_lat": 0.0, "lat": 38.882513, "type": "electric_scooter", "lon": -77.003433, "bike_id": "f1b1aa26efa90efccfa3694ae2b97ed5", "rental_uris": {"android": "https://dc.lft.to/lastmile_qr_scan", "ios": "https://dc.lft.to/lastmile_qr_scan"}, "name": "f1b1aa26efa90efccfa3694ae2b97ed5", "is_reserved": 0}, {"is_disabled": 0, "fusion_lon": 0.0, "fusion_lat": 0.0, "lat": 38.9306125, "type": "electric_bike", "lon": -77.037866, "bike_id": "ed202215c44f1727d33e60af2ad7ebbf", "rental_uris": {"android": "https://dc.lft.to/lastmile_qr_scan", "ios": "https://dc.lft.to/lastmile_qr_scan"}, "name": "ed202215c44f1727d33e60af2ad7ebbf", "is_reserved": 0}, {"is_disabled": 0, "fusion_lon": 0.0, "fusion_lat": 0.0, "lat": 38.9185295, "type": "electric_bike", "lon": -76.96089, "bike_id": "0a4dfc32ff0967a301b3e79147c4652e", "rental_uris": {"android": "https://dc.lft.to/lastmile_qr_scan", "ios": "https://dc.lft.to/lastmile_qr_scan"}, "name": "0a4dfc32ff0967a301b3e79147c4652e", "is_reserved": 0}, {"is_disabled": 0, "fusion_lon": 0.0, "fusion_lat": 0.0, "lat": 38.89546566666667, "type": "electric_scooter", "lon": -77.01110033333333, "bike_id": "76f8658225e49e93d46cc4d25a609aae", "rental_uris": {"android": "https://dc.lft.to/lastmile_qr_scan", "ios": "https://dc.lft.to/lastmile_qr_scan"},