{"data": {"bikes": [{"name": "2344da12c66a149faa09d780ebfeea5a", "fusion_lat": 0.0, "type": "electric_scooter", "lat": 38.904781666666665, "is_reserved": 0, "is_disabled": 0, "fusion_lon": 0.0, "bike_id": "2344da12c66a149faa09d780ebfeea5a", "lon": -77.04370283333333, "rental_uris": {"ios": "https://dc.lft.to/lastmile_qr_scan", "android": "https://dc.lft.to/lastmile_qr_scan"}}, {"name": "cc53ee19c3e08ffcbdefdee8619d316b", "fusion_lat": 0.0, "type": "electric_scooter", "lat": 38.89033533333333, "is_reserved": 0, "is_disabled": 0, "fusion_lon": 0.0, "bike_id": "cc53ee19c3e08ffcbdefdee8619d316b", "lon": -77.0297775, "rental_uris": {"ios": "https://dc.lft.to/lastmile_qr_scan", "android": "https://dc.lft.to/lastmile_qr_scan"}}, {"name": "a7d82d54d55b5d7bff9f98a82a1452df", "fusion_lat": 0.0, "type": "electric_scooter", "lat": 38.9384855, "is_reserved": 0, "is_disabled": 0, "fusion_lon": 0.0, "bike_id": "a7d82d54d55b5d7bff9f98a82a1452df", "lon": -77.0249135, "rental_uris": {"ios": "https://dc.lft.to/lastmile_qr_scan", "android": "https://dc.lft.to/lastmile_qr_scan"}}, {"name": "349c5e932d140fcfc39161cde3e12382", "fusion_lat": 0.0, "type": "electric_scooter", "lat": 38.899902166666664, "is_reserved": 0, "is_disabled": 0, "fusion_lon": 0.0, "bike_id": "349c5e932d140fcfc39161cde3e12382", "lon": -77.02707666666667, "rental_uris": {"ios": "https://dc.lft.to/lastmile_qr_scan", "android": "https://dc.lft.to/lastmile_qr_scan"}}, {"name": "f520d63201843b9b6e65d68954564b7a", "fusion_lat": 0.0, "type": "electric_scooter", "lat": 38.939440833333336, "is_reserved": 0, "is_disabled": 0, "fusion_lon": 0.0, "bike_id": "f520d63201843b9b6e65d68954564b7a", "lon": -77.0326335, "rental_uris": {"ios": "https://dc.lft.to/lastmile_qr_scan", "android": "https://dc.lft.to/lastmile_qr_scan"}}, {"name": "d2508073933686dccd687395964aa897", "fusion_lat": 0.0, "type": "electric_scooter", "lat": 38.906772333333336, "is_reserved": 0, "is_disabled": 0, "fusion_lon": 0.0, "bike_id": "d2508073933686dccd687395964aa897", "lon": -77.03830816666667, "rental_uris": {"ios": "https://dc.lft.to/lastmile_qr_scan", "android": "https://dc.lft.to/lastmile_qr_scan"}}, {"name": "c3ac8cd598164e7f8340b2a2a7224950", "fusion_lat": 0.0, "type": "electric_scooter", "lat": 38.8849045, "is_reserved": 0, "is_disabled": 0, "fusion_lon": 0.0, "bike_id": "c3ac8cd598164e7f8340b2a2a7224950", "lon": -77.00712033333333, "rental_uris": {"ios": "https://dc.lft.to/lastmile_qr_scan", "android": "https://dc.lft.to/lastmile_qr_scan"}}, {"name": "8a7583941062ae0be35b6f4304c28a52", "fusion_lat": 0.0, "type": "electric_scooter", "lat": 38.87643966666667, "is_reserved": 0, "is_disabled": 0, "fusion_lon": 0.0, "bike_id": "8a7583941062ae0be35b6f4304c28a52", "lon": -76.96507233333334, "rental_uris": {"ios": "https://dc.lft.to/lastmile_qr_scan", "android": "https://dc.lft.to/lastmile_qr_scan"}}, {"name": "08668a21c296ff7b3dd54f1e136239a4", "fusion_lat": 0.0, "type": "electric_scooter", "lat": 38.9294845, "is_reserved": 0, "is_disabled": 0, "fusion_lon": 0.0, "bike_id": "08668a21c296ff7b3dd54f1e136239a4", "lon": -77.03471166666667, "rental_uris": {"ios": "https://dc.lft.to/lastmile_qr_scan", "android": "https://dc.lft.to/lastmile_qr_scan"}}, {"name": "4e1364442aa9d6064d96a62dc299b18e", "fusion_lat": 0.0, "type": "electric_bike", "lat": 38.99060633333333, "is_reserved": 0, "is_disabled": 0, "fusion_lon": 0.0, "bike_id": "4e1364442aa9d6064d96a62dc299b18e", "lon": -77.10030283333333, "rental_uris": {"ios": "https://dc.lft.to/lastmile_qr_scan", "android": "https://dc.lft.to/lastmile_qr_scan"}}, {"name": "4b8150e85e188c68e9d856169503c20b", "fusion_lat": 0.0, "type": "electric_scooter", "lat": 38.911115, "is_reserved": 0, "is_disabled": 0, "fusion_lon": 0.0, "bike_id": "4b8150e85e188c68e9d856169503c20b", "lon": -77.03710066666666, "rental_uris": {"ios": "https://dc.lft.to/lastmile_qr_scan", "android": "https://dc.lft.to/lastmile_qr_scan"}}, {"name": "b25910f04cf86233e6568fcb822ccabd", "fusion_lat": 0.0, "type": "electric_scooter", "lat": 38.90260133333334, "is_reserved": 0, "is_disabled": 0, "fusion_lon": 0.0, "bike_id": "b25910f04cf86233e6568fcb822ccabd", "lon": -77.0436105, "rental_uris": {"ios": "https://dc.lft.to/lastmile_qr_scan", "android": "https://dc.lft.to/lastmile_qr_scan"}}, {"name": "7bd50133082104d9192899f080ea3903", "fusion_lat": 0.0, "type": "electric_scooter", "lat": 38.92206433333333, "is_reserved": 0, "is_disabled": 0, "fusion_lon": 0.0, "bike_id": "7bd50133082104d9192899f080ea3903", "lon": -77.04234666666666, "rental_uris": {"ios": "https://dc.lft.to/lastmile_qr_scan", "android": "https://dc.lft.to/lastmile_qr_scan"}}, {"name": "9c1a1e88c4fc1d549e6d5861fc09020e", "fusion_lat": 0.0, "type": "electric_scooter", "lat": 38.93782516666667, "is_reserved": 0, "is_disabled": 0, "fusion_lon": 0.0, "bike_id": "9c1a1e88c4fc1d549e6d5861fc09020e", "lon": -77.05998166666667, "rental_uris": {"ios": "https://dc.lft.to/lastmile_qr_scan", "android": "https://dc.lft.to/lastmile_qr_scan"}}, {"name": "eadcf442eb2f49552744412abbcae01b", "fusion_lat": 0.0, "type": "electric_scooter", "lat": 38.892147, "is_reserved": 0, "is_disabled": 0, "fusion_lon": 0.0, "bike_id": "eadcf442eb2f49552744412abbcae01b", "lon": -77.02654816666667, "rental_uris": {"ios": "https://dc.lft.to/lastmile_qr_scan", "android": "https://dc.lft.to/lastmile_qr_scan"}}, {"name": "f9412b4bccfc4e136cff0bfcc092245a", "fusion_lat": 0.0, "type": "electric_scooter", "lat": 38.90267583333333, "is_reserved": 0, "is_disabled": 0, "fusion_lon": 0.0, "bike_id": "f9412b4bccfc4e136cff0bfcc092245a", "lon": -77.042612, "rental_uris": {"ios": "https://dc.lft.to/lastmile_qr_scan", "android": "https://dc.lft.to/lastmile_qr_scan"}}, {"name": "30ed0b3bce8bf1f0228729df9659d06a", "fusion_lat": 0.0, "type": "electric_scooter", "lat": 38.92590366666667, "is_reserved": 0, "is_disabled": 0, "fusion_lon": 0.0, "bike_id": "30ed0b3bce8bf1f0228729df9659d06a", "lon": -77.02643983333333, "rental_uris": {"ios": "https://dc.lft.to/lastmile_qr_scan", "android": "https://dc.lft.to/lastmile_qr_scan"}}, {"name": "5973f8eb5e3f93a55600ce121dd34c8e", "fusion_lat": 0.0, "type": "electric_scooter", "lat": 38.8947235, "is_reserved": 0, "is_disabled": 0, "fusion_lon": 0.0, "bike_id": "5973f8eb5e3f93a55600ce121dd34c8e", "lon": -77.003346, "rental_uris": {"ios": "https://dc.lft.to/lastmile_qr_scan", "android": "https://dc.lft.to/lastmile_qr_scan"}}, {"name": "e668a5cb7ba9808b16e2cebd32442a46", "fusion_lat": 0.0, "type": "electric_scooter", "lat": 38.913441166666665, "is_reserved": 0, "is_disabled": 0, "fusion_lon": 0.0, "bike_id": "e668a5cb7ba9808b16e2cebd32442a46", "lon": -77.03201333333334, "rental_uris": {"ios": "https://dc.lft.to/lastmile_qr_scan", "android": "https://dc.lft.to/lastmile_qr_scan"}}, {"name": "f29f27a10fabd1c89bbd2c946e9a1487", "fusion_lat": 0.0, "type": "electric_bike", "lat": 38.867503666666664, "is_reserved": 0, "is_disabled": 0, "fusion_lon": 0.0, "bike_id": "f29f27a10fabd1c89bbd2c946e9a1487", "lon": -76.94532066666666, "rental_uris": {"ios": "https://dc.lft.to/lastmile_qr_scan", "android": "https://dc.lft.to/lastmile_qr_scan"}}, {"name": "897ea8d88c7df8bd094868e476f8aba7", "fusion_lat": 0.0, "type": "electric_scooter", "lat": 38.914014333333334, "is_reserved": 0, "is_disabled": 0, "fusion_lon": 0.0, "bike_id": "897ea8d88c7df8bd094868e476f8aba7", "lon": -77.00835566666667, "rental_uris": {"ios": "https://dc.lft.to/lastmile_qr_scan", "android": "https://dc.lft.to/lastmile_qr_scan"}}, {"name": "3ba0ec354cfcf87ca1adac1580a19f63", "fusion_lat": 0.0, "type": "electric_scooter", "lat": 38.91561333333333, "is_reserved": 0, "is_disabled": 0, "fusion_lon": 0.0, "bike_id": "3ba0ec354cfcf87ca1adac1580a19f63", "lon": -77.052134, "rental_uris": {"ios": "https://dc.lft.to/lastmile_qr_scan", "android": "https://dc.lft.to/lastmile_qr_scan"}}, {"name": "26d594c86c578619fcdf5f17bda50a1d", "fusion_lat": 0.0, "type": "electric_scooter", "lat": 38.90128466666667, "is_reserved": 0, "is_disabled": 0, "fusion_lon": 0.0, "bike_id": "26d594c86c578619fcdf5f17bda50a1d", "lon": -77.04699083333334, "rental_uris": {"ios": "https://dc.lft.to/lastmile_qr_scan", "android": "https://dc.lft.to/lastmile_qr_scan"}}, {"name": "3c2666faa3754c631467ca405c90e6dc", "fusion_lat": 0.0, "type": "electric_scooter", "lat": 38.898226333333334, "is_reserved": 0, "is_disabled": 0, "fusion_lon": 0.0, "bike_id": "3c2666faa3754c631467ca405c90e6dc", "lon": -77.03136616666667, "rental_uris": {"ios": "https://dc.lft.to/lastmile_qr_scan", "android": "https://dc.lft.to/lastmile_qr_scan"}}, {"name": "e0a5514b179db44906c8bf0d30f4120d", "fusion_lat": 0.0, "type": "electric_scooter", "lat": 38.9175875, "is_reserved": 0, "is_disabled": 0, "fusion_lon": 0.0, "bike_id": "e0a5514b179db44906c8bf0d30f4120d", "lon": -77.02710833333333, "rental_uris": {"ios": "https://dc.lft.to/lastmile_qr_scan", "android": "https://dc.lft.to/lastmile_qr_scan"}}, {"name": "61ed83608e57c51b62e35236adfef588", "fusion_lat": 0.0, "type": "electric_scooter", "lat": 38.892151, "is_reserved": 0, "is_disabled": 0, "fusion_lon": 0.0, "bike_id": "61ed83608e57c51b62e35236adfef588", "lon": -77.02146, "rental_uris": {"ios": "https://dc.lft.to/lastmile_qr_scan", "android": "https://dc.lft.to/lastmile_qr_scan"}}, {"name": "a13d3b07280659a2b7993450160725d6", "fusion_lat": 0.0, "type": "electric_scooter", "lat": 38.898805, "is_reserved": 0, "is_disabled": 0, "fusion_lon": 0.0, "bike_id": "a13d3b07280659a2b7993450160725d6", "lon": -77.03337816666667, "rental_uris": {"ios": "https://dc.lft.to/lastmile_qr_scan", "android": "https://dc.lft.to/lastmile_qr_scan"}}, {"name": "49a1be2e82286246dc11581d22d22999", "fusion_lat": 0.0, "type": "electric_bike", "lat": 38.899748, "is_reserved": 0, "is_disabled": 0, "fusion_lon": 0.0, "bike_id": "49a1be2e82286246dc11581d22d22999", "lon": -77.02124333333333, "rental_uris": {"ios": "https://dc.lft.to/lastmile_qr_scan", "android": "https://dc.lft.to/lastmile_qr_scan"}}, {"name": "ef2e94728beafaf7d5fe0f7f859c2f21", "fusion_lat": 0.0, "type": "electric_scooter", "lat": 38.90756066666667, "is_reserved": 0, "is_disabled": 0, "fusion_lon": 0.0, "bike_id": "ef2e94728beafaf7d5fe0f7f859c2f21", "lon": -77.03567, "rental_uris": {"ios": "https://dc.lft.to/lastmile_qr_scan", "android": "https://dc.lft.to/lastmile_qr_scan"}}, {"name": "fb6f2219878421e8f4c4e7175111a978", "fusion_lat": 0.0, "type": "electric_scooter", "lat": 38.911235166666664, "is_reserved": 0, "is_disabled": 0, "fusion_lon": 0.0, "bike_id": "fb6f2219878421e8f4c4e7175111a978", "lon": -77.03822283333334, "rental_uris": {"ios": "https://dc.lft.to/lastmile_qr_scan", "android": "https://dc.lft.to/lastmile_qr_scan"}}, {"name": "9d88ef9d81221913b2260c37ed80eadd", "fusion_lat": 0.0, "type": "electric_scooter", "lat": 38.884303333333335, "is_reserved": 0, "is_disabled": 0, "fusion_lon": 0.0, "bike_id": "9d88ef9d81221913b2260c37ed80eadd", "lon": -76.99662516666666, "rental_uris": {"ios": "https://dc.lft.to/lastmile_qr_scan", "android": "https://dc.lft.to/lastmile_qr_scan"}}, {"name": "6f67503bda9e0fcd95e6e89a02ea3764", "fusion_lat": 0.0, "type": "electric_bike", "lat": 38.869048166666666, "is_reserved": 0, "is_disabled": 0, "fusion_lon": 0.0, "bike_id": "6f67503bda9e0fcd95e6e89a02ea3764", "lon": -77.13181133333333, "rental_uris": {"ios": "https://dc.lft.to/lastmile_qr_scan", "android": "https://dc.lft.to/lastmile_qr_scan"}}, {"name": "528a8d154727ff42ee661d672582bb7d", "fusion_lat": 0.0, "type": "electric_scooter", "lat": 38.896085166666666, "is_reserved": 0, "is_disabled": 0, "fusion_lon": 0.0, "bike_id": "528a8d154727ff42ee661d672582bb7d", "lon": -77.02832016666666, "rental_uris": {"ios": "https://dc.lft.to/lastmile_qr_scan", "android": "https://dc.lft.to/lastmile_qr_scan"}}, {"name": "402c41d398724bc277fd5c44a9a151f8", "fusion_lat": 0.0, "type": "electric_scooter", "lat": 38.89221916666666, "is_reserved": 0, "is_disabled": 0, "fusion_lon": 0.0, "bike_id": "402c41d398724bc277fd5c44a9a151f8", "lon": -77.0137415, "rental_uris": {"ios": "https://dc.lft.to/lastmile_qr_scan", "android": "https://dc.lft.to/lastmile_qr_scan"}}, {"name": "aeaee7fedc2860ac7a83e49020e43fb9", "fusion_lat": 0.0, "type": "electric_scooter", "lat": 38.911136666666664, "is_reserved": 0, "is_disabled": 0, "fusion_lon": 0.0, "bike_id": "aeaee7fedc2860ac7a83e49020e43fb9", "lon": -77.03716416666667, "rental_uris": {"ios": "https://dc.lft.to/lastmile_qr_scan", "android": "https://dc.lft.to/lastmile_qr_scan"}}, {"name": "3ebcfd1b21549e86bf4439595be63e6a", "fusion_lat": 0.0, "type": "electric_scooter", "lat": 38.91906683333333, "is_reserved": 0, "is_disabled": 0, "fusion_lon": 0.0, "bike_id": "3ebcfd1b21549e86bf4439595be63e6a", "lon": -77.03440583333334, "rental_uris": {"ios": "https://dc.lft.to/lastmile_qr_scan", "android": "https://dc.lft.to/lastmile_qr_scan"}}, {"name": "6652919bbb6c9330b2781ba083f41780", "fusion_lat": 0.0, "type": "electric_scooter", "lat": 38.912522833333334, "is_reserved": 0, "is_disabled": 0, "fusion_lon": 0.0, "bike_id": "6652919bbb6c9330b2781ba083f41780", "lon": -77.03651366666666, "rental_uris": {"ios": "https://dc.lft.to/lastmile_qr_scan", "android": "https://dc.lft.to/lastmile_qr_scan"}}, {"name": "3977f0f23c6fbcead5ce72f968b20ab5", "fusion_lat": 0.0, "type": "electric_scooter", "lat": 38.90094066666666, "is_reserved": 0, "is_disabled": 0, "fusion_lon": 0.0, "bike_id": "3977f0f23c6fbcead5ce72f968b20ab5", "lon": -77.02593033333333, "rental_uris": {"ios": "https://dc.lft.to/lastmile_qr_scan", "android": "https://dc.lft.to/lastmile_qr_scan"}}, {"name": "f381d1990502c457fb9ee68955977d23", "fusion_lat": 0.0, "type": "electric_scooter", "lat": 38.900443333333335, "is_reserved": 0, "is_disabled": 0, "fusion_lon": 0.0, "bike_id": "f381d1990502c457fb9ee68955977d23", "lon": -77.01668283333333, "rental_uris": {"ios": "https://dc.lft.to/lastmile_qr_scan", "android": "https://dc.lft.to/lastmile_qr_scan"}}, {"name": "f19da0794cff2517ac5d7c489bf9ca22", "fusion_lat": 0.0, "type": "electric_scooter", "lat": 38.844236, "is_reserved": 0, "is_disabled": 0, "fusion_lon": 0.0, "bike_id": "f19da0794cff2517ac5d7c489bf9ca22", "lon": -76.997805, "rental_uris": {"ios": "https://dc.lft.to/lastmile_qr_scan", "android": "https://dc.lft.to/lastmile_qr_scan"}}, {"name": "f7070ce07c3ef8f5ccef7fa49528e034", "fusion_lat": 0.0, "type": "electric_scooter", "lat": 38.926191, "is_reserved": 0, "is_disabled": 0, "fusion_lon": 0.0, "bike_id": "f7070ce07c3ef8f5ccef7fa49528e034", "lon": -77.00576, "rental_uris": {"ios": "https://dc.lft.to/lastmile_qr_scan", "android": "https://dc.lft.to/lastmile_qr_scan"}}, {"name": "a113bc3ca10c84672d60b6f6b160c7b0", "fusion_lat": 0.0, "type": "electric_scooter", "lat": 38.92512633333333, "is_reserved": 0, "is_disabled": 0, "fusion_lon": 0.0, "bike_id": "a113bc3ca10c84672d60b6f6b160c7b0", "lon": -77.0235595, "rental_uris": {"ios": "https://dc.lft.to/lastmile_qr_scan", "android": "https://dc.lft.to/lastmile_qr_scan"}}, {"name": "3bb6fb91f7299d2ec18e982e19d6179d", "fusion_lat": 0.0, "type": "electric_scooter", "lat": 38.9026715, "is_reserved": 0, "is_disabled": 0, "fusion_lon": 0.0, "bike_id": "3bb6fb91f7299d2ec18e982e19d6179d", "lon": -77.0175745, "rental_uris": {"ios": "https://dc.lft.to/lastmile_qr_scan", "android": "https://dc.lft.to/lastmile_qr_scan"}}, {"name": "485f20de8721e73593460d0ceec6e004", "fusion_lat": 0.0, "type": "electric_scooter", "lat": 38.9125505, "is_reserved": 0, "is_disabled": 0, "fusion_lon": 0.0, "bike_id": "485f20de8721e73593460d0ceec6e004", "lon": -77.03802283333333, "rental_uris": {"ios": "https://dc.lft.to/lastmile_qr_scan", "android": "https://dc.lft.to/lastmile_qr_scan"}}, {"name": "58dd11cfc084c1138bc768a09963751c", "fusion_lat": 0.0, "type": "electric_scooter", "lat": 38.8936665, "is_reserved": 0, "is_disabled": 0, "fusion_lon": 0.0, "bike_id": "58dd11cfc084c1138bc768a09963751c", "lon": -76.94995683333333, "rental_uris": {"ios": "https://dc.lft.to/lastmile_qr_scan", "android": "https://dc.lft.to/lastmile_qr_scan"}}, {"name": "32d584aff809d26538ab95c045082910", "fusion_lat": 0.0, "type": "electric_scooter", "lat": 38.899663833333335, "is_reserved": 0, "is_disabled": 0, "fusion_lon": 0.0, "bike_id": "32d584aff809d26538ab95c045082910", "lon": -77.03171416666666, "rental_uris": {"ios": "https://dc.lft.to/lastmile_qr_scan", "android": "https://dc.lft.to/lastmile_qr_scan"}}, {"name": "3bf8988200ca0cafdb0fce36f60c5696", "fusion_lat": 0.0, "type": "electric_scooter", "lat": 38.90636883333333, "is_reserved": 0, "is_disabled": 0, "fusion_lon": 0.0, "bike_id": "3bf8988200ca0cafdb0fce36f60c5696", "lon": -76.98573733333333, "rental_uris": {"ios": "https://dc.lft.to/lastmile_qr_scan", "android": "https://dc.lft.to/lastmile_qr_scan"}}, {"name": "323c7b37dd1751807e044113e026cf00", "fusion_lat": 0.0, "type": "electric_scooter", "lat": 38.90555033333333, "is_reserved": 0, "is_disabled": 0, "fusion_lon": 0.0, "bike_id": "323c7b37dd1751807e044113e026cf00", "lon": -77.04501266666666, "rental_uris": {"ios": "https://dc.lft.to/lastmile_qr_scan", "android": "https://dc.lft.to/lastmile_qr_scan"}}, {"name": "afdad68c6fe8041e33c78628640cf8c3", "fusion_lat": 0.0, "type": "electric_scooter", "lat": 38.89365183333334, "is_reserved": 0, "is_disabled": 0, "fusion_lon": 0.0, "bike_id": "afdad68c6fe8041e33c78628640cf8c3", "lon": -77.04774266666666, "rental_uris": {"ios": "https://dc.lft.to/lastmile_qr_scan", "android": "https://dc.lft.to/lastmile_qr_scan"}}, {"name": "a3c4bef839d5dc4ed54891a83dae3332", "fusion_lat": 0.0, "type": "electric_scooter", "lat": 38.884289333333335, "is_reserved": 0, "is_disabled": 0, "fusion_lon": 0.0, "bike_id": "a3c4bef839d5dc4ed54891a83dae3332", "lon": -76.99588433333334, "rental_uris": {"ios": "https://dc.lft.to/lastmile_qr_scan", "android": "https://dc.lft.to/lastmile_qr_scan"}}, {"name": "c7fa327c544a6ac5540b476225e6c50e", "fusion_lat": 0.0, "type": "electric_scooter", "lat": 38.91802766666667, "is_reserved": 0, "is_disabled": 0, "fusion_lon": 0.0, "bike_id": "c7fa327c544a6ac5540b476225e6c50e", "lon": -77.00165616666666, "rental_uris": {"ios": "https://dc.lft.to/lastmile_qr_scan", "android": "https://dc.lft.to/lastmile_qr_scan"}}, {"name": "49ca6845fa9addb927e94de7f1ab150c", "fusion_lat": 0.0, "type": "electric_scooter", "lat": 38.887415833333336, "is_reserved": 0, "is_disabled": 0, "fusion_lon": 0.0, "bike_id": "49ca6845fa9addb927e94de7f1ab150c", "lon": -77.0024675, "rental_uris": {"ios": "https://dc.lft.to/lastmile_qr_scan", "android": "https://dc.lft.to/lastmile_qr_scan"}}, {"name": "93bb59165ccc87e43d23b39326728e88", "fusion_lat": 0.0, "type": "electric_scooter", "lat": 38.90835233333333, "is_reserved": 0, "is_disabled": 0, "fusion_lon": 0.0, "bike_id": "93bb59165ccc87e43d23b39326728e88", "lon": -77.000733, "rental_uris": {"ios": "https://dc.lft.to/lastmile_qr_scan", "android": "https://dc.lft.to/lastmile_qr_scan"}}, {"name": "689326dd28b2c095ae34cae5988d01b3", "fusion_lat": 0.0, "type": "electric_scooter", "lat": 38.87677816666667, "is_reserved": 0, "is_disabled": 0, "fusion_lon": 0.0, "bike_id": "689326dd28b2c095ae34cae5988d01b3", "lon": -77.00063216666666, "rental_uris": {"ios": "https://dc.lft.to/lastmile_qr_scan", "android": "https://dc.lft.to/lastmile_qr_scan"}}, {"name": "b8c2c902210a87515248eea7abac2d69", "fusion_lat": 0.0, "type": "electric_scooter", "lat": 38.92017933333333, "is_reserved": 0, "is_disabled": 0, "fusion_lon": 0.0, "bike_id": "b8c2c902210a87515248eea7abac2d69", "lon": -77.03972783333333, "rental_uris": {"ios": "https://dc.lft.to/lastmile_qr_scan", "android": "https://dc.lft.to/lastmile_qr_scan"}}, {"name": "21cb11230623915c63e6a7537751c93a", "fusion_lat": 0.0, "type": "electric_scooter", "lat": 38.872303333333335, "is_reserved": 0, "is_disabled": 0, "fusion_lon": 0.0, "bike_id": "21cb11230623915c63e6a7537751c93a", "lon": -77.01166, "rental_uris": {"ios": "https://dc.lft.to/lastmile_qr_scan", "android": "https://dc.lft.to/lastmile_qr_scan"}}, {"name": "5233cbe490c614b322234106db7bc0e9", "fusion_lat": 0.0, "type": "electric_scooter", "lat": 38.90369166666667, "is_reserved": 0, "is_disabled": 0, "fusion_lon": 0.0, "bike_id": "5233cbe490c614b322234106db7bc0e9", "lon": -77.038914, "rental_uris": {"ios": "https://dc.lft.to/lastmile_qr_scan", "android": "https://dc.lft.to/lastmile_qr_scan"}}, {"name": "c3943a64d7a65b7df260a2383801a9d7", "fusion_lat": 0.0, "type": "electric_scooter", "lat": 38.892182, "is_reserved": 0, "is_disabled": 0, "fusion_lon": 0.0, "bike_id": "c3943a64d7a65b7df260a2383801a9d7", "lon": -77.0214505, "rental_uris": {"ios": "https://dc.lft.to/lastmile_qr_scan", "android": "https://dc.lft.to/lastmile_qr_scan"}}, {"name": "f37a1c9459b7bd262a6fd584b1fe0627", "fusion_lat": 0.0, "type": "electric_bike", "lat": 39.03048416666667, "is_reserved": 0, "is_disabled": 0, "fusion_lon": 0.0, "bike_id": "f37a1c9459b7bd262a6fd584b1fe0627", "lon": -77.09481383333333, "rental_uris": {"ios": "https://dc.lft.to/lastmile_qr_scan", "android": "https://dc.lft.to/lastmile_qr_scan"}}, {"name": "2d635e5b43e9b2dfdc4fc7fa831dcbf6", "fusion_lat": 0.0, "type": "electric_scooter", "lat": 38.936736333333336, "is_reserved": 0, "is_disabled": 0, "fusion_lon": 0.0, "bike_id": "2d635e5b43e9b2dfdc4fc7fa831dcbf6", "lon": -77.0359005, "rental_uris": {"ios": "https://dc.lft.to/lastmile_qr_scan", "android": "https://dc.lft.to/lastmile_qr_scan"}}, {"name": "558fac3a75d170e7225a9a559f2322e1", "fusion_lat": 0.0, "type": "electric_scooter", "lat": 38.892108, "is_reserved": 0, "is_disabled": 0, "fusion_lon": 0.0, "bike_id": "558fac3a75d170e7225a9a559f2322e1", "lon": -77.02649233333334, "rental_uris": {"ios": "https://dc.lft.to/lastmile_qr_scan", "android": "https://dc.lft.to/lastmile_qr_scan"}}, {"name": "7b6023e33f28e6134c4db2b03ad136a0", "fusion_lat": 0.0, "type": "electric_scooter", "lat": 38.903751166666666, "is_reserved": 0, "is_disabled": 0, "fusion_lon": 0.0, "bike_id": "7b6023e33f28e6134c4db2b03ad136a0", "lon": -77.01753783333334, "rental_uris": {"ios": "https://dc.lft.to/lastmile_qr_scan", "android": "https://dc.lft.to/lastmile_qr_scan"}}, {"name": "a930ea125cc7db3c75c6cd3d563e082a", "fusion_lat": 0.0, "type": "electric_scooter", "lat": 38.90667116666667, "is_reserved": 0, "is_disabled": 0, "fusion_lon": 0.0, "bike_id": "a930ea125cc7db3c75c6cd3d563e082a", "lon": -77.026994, "rental_uris": {"ios": "https://dc.lft.to/lastmile_qr_scan", "android": "https://dc.lft.to/lastmile_qr_scan"}}, {"name": "aa7382377594bdb87356d72f7ea98239", "fusion_lat": 0.0, "type": "electric_scooter", "lat": 38.9038175, "is_reserved": 0, "is_disabled": 0, "fusion_lon": 0.0, "bike_id": "aa7382377594bdb87356d72f7ea98239", "lon": -77.02206966666667, "rental_uris": {"ios": "https://dc.lft.to/lastmile_qr_scan", "android": "https://dc.lft.to/lastmile_qr_scan"}}, {"name": "c2463c5cc8e6c0bdf8fcc203fb7dd4e5", "fusion_lat": 0.0, "type": "electric_scooter", "lat": 38.9055195, "is_reserved": 0, "is_disabled": 0, "fusion_lon": 0.0, "bike_id": "c2463c5cc8e6c0bdf8fcc203fb7dd4e5", "lon": -77.04567066666667, "rental_uris": {"ios": "https://dc.lft.to/lastmile_qr_scan", "android": "https://dc.lft.to/lastmile_qr_scan"}}, {"name": "42bc20857167dcd1c80c39ab92184ff7", "fusion_lat": 0.0, "type": "electric_scooter", "lat": 38.892392, "is_reserved": 0, "is_disabled": 0, "fusion_lon": 0.0, "bike_id": "42bc20857167dcd1c80c39ab92184ff7", "lon": -77.03381566666667, "rental_uris": {"ios": "https://dc.lft.to/lastmile_qr_scan", "android": "https://dc.lft.to/lastmile_qr_scan"}}, {"name": "ce584e16408b569d6fdfaf4934f3cdf5", "fusion_lat": 0.0, "type": "electric_scooter", "lat": 38.910191166666664, "is_reserved": 0, "is_disabled": 0, "fusion_lon": 0.0, "bike_id": "ce584e16408b569d6fdfaf4934f3cdf5", "lon": -77.048677, "rental_uris": {"ios": "https://dc.lft.to/lastmile_qr_scan", "android": "https://dc.lft.to/lastmile_qr_scan"}}, {"name": "e720f726f15784093421684e8a8fdf44", "fusion_lat": 0.0, "type": "electric_scooter", "lat": 38.900533833333334, "is_reserved": 0, "is_disabled": 0, "fusion_lon": 0.0, "bike_id": "e720f726f15784093421684e8a8fdf44", "lon": -77.01876566666667, "rental_uris": {"ios": "https://dc.lft.to/lastmile_qr_scan", "android": "https://dc.lft.to/lastmile_qr_scan"}}, {"name": "5ade424a6b0c3646d87850d6e5222190", "fusion_lat": 0.0, "type": "electric_scooter", "lat": 38.92178533333333, "is_reserved": 0, "is_disabled": 0, "fusion_lon": 0.0, "bike_id": "5ade424a6b0c3646d87850d6e5222190", "lon": -77.04290666666667, "rental_uris": {"ios": "https://dc.lft.to/lastmile_qr_scan", "android": "https://dc.lft.to/lastmile_qr_scan"}}, {"name": "2c57f37ad768027083aa3e3ac34553f9", "fusion_lat": 0.0, "type": "electric_scooter", "lat": 38.928543, "is_reserved": 0, "is_disabled": 0, "fusion_lon": 0.0, "bike_id": "2c57f37ad768027083aa3e3ac34553f9", "lon": -77.0309795, "rental_uris": {"ios": "https://dc.lft.to/lastmile_qr_scan", "android": "https://dc.lft.to/lastmile_qr_scan"}}, {"name": "38c85f83bf61e98073503e57a0ccaa7f", "fusion_lat": 0.0, "type": "electric_scooter", "lat": 38.94274766666667, "is_reserved": 0, "is_disabled": 0, "fusion_lon": 0.0, "bike_id": "38c85f83bf61e98073503e57a0ccaa7f", "lon": -77.02505166666667, "rental_uris": {"ios": "https://dc.lft.to/lastmile_qr_scan", "android": "https://dc.lft.to/lastmile_qr_scan"}}, {"name": "1ade456801857d53609df4b3646fc765", "fusion_lat": 0.0, "type": "electric_bike", "lat": 38.83932733333333, "is_reserved": 0, "is_disabled": 0, "fusion_lon": 0.0, "bike_id": "1ade456801857d53609df4b3646fc765", "lon": -77.07900116666667, "rental_uris": {"ios": "https://dc.lft.to/lastmile_qr_scan", "android": "https://dc.lft.to/lastmile_qr_scan"}}, {"name": "e7997b3df0fadeac55e31ce0b9e86225", "fusion_lat": 0.0, "type": "electric_scooter", "lat": 38.9332315, "is_reserved": 0, "is_disabled": 0, "fusion_lon": 0.0, "bike_id": "e7997b3df0fadeac55e31ce0b9e86225", "lon": -77.03443466666667, "rental_uris": {"ios": "https://dc.lft.to/lastmile_qr_scan", "android": "https://dc.lft.to/lastmile_qr_scan"}}, {"name": "bb3ba8edadb318452b8fc8217eefc957", "fusion_lat": 0.0, "type": "electric_scooter", "lat": 38.905244, "is_reserved": 0, "is_disabled": 0, "fusion_lon": 0.0, "bike_id": "bb3ba8edadb318452b8fc8217eefc957", "lon": -77.041502, "rental_uris": {"ios": "https://dc.lft.to/lastmile_qr_scan", "android": "https://dc.lft.to/lastmile_qr_scan"}}, {"name": "1d51788c6c0df46157ecb7d580e1a128", "fusion_lat": 0.0, "type": "electric_scooter", "lat": 38.89781166666667, "is_reserved": 0, "is_disabled": 0, "fusion_lon": 0.0, "bike_id": "1d51788c6c0df46157ecb7d580e1a128", "lon": -77.031826, "rental_uris": {"ios": "https://dc.lft.to/lastmile_qr_scan", "android": "https://dc.lft.to/lastmile_qr_scan"}}, {"name": "3e648b970c06853cee171753439da001", "fusion_lat": 0.0, "type": "electric_scooter", "lat": 38.901632666666664, "is_reserved": 0, "is_disabled": 0, "fusion_lon": 0.0, "bike_id": "3e648b970c06853cee171753439da001", "lon": -77.02291166666667, "rental_uris": {"ios": "https://dc.lft.to/lastmile_qr_scan", "android": "https://dc.lft.to/lastmile_qr_scan"}}, {"name": "2ecb37197e3c565f12f0cf1900dc01c0", "fusion_lat": 0.0, "type": "electric_scooter", "lat": 38.94957766666667, "is_reserved": 0, "is_disabled": 0, "fusion_lon": 0.0, "bike_id": "2ecb37197e3c565f12f0cf1900dc01c0", "lon": -77.027252, "rental_uris": {"ios": "https://dc.lft.to/lastmile_qr_scan", "android": "https://dc.lft.to/lastmile_qr_scan"}}, {"name": "40f5b3601bb67eaaeeac7107cca1f9ed", "fusion_lat": 0.0, "type": "electric_scooter", "lat": 38.9086315, "is_reserved": 0, "is_disabled": 0, "fusion_lon": 0.0, "bike_id": "40f5b3601bb67eaaeeac7107cca1f9ed", "lon": -77.0271545, "rental_uris": {"ios": "https://dc.lft.to/lastmile_qr_scan", "android": "https://dc.lft.to/lastmile_qr_scan"}}, {"name": "5828d910c5b917cb31c9945289ba3a7c", "fusion_lat": 0.0, "type": "electric_scooter", "lat": 38.912025, "is_reserved": 0, "is_disabled": 0, "fusion_lon": 0.0, "bike_id": "5828d910c5b917cb31c9945289ba3a7c", "lon": -77.044651, "rental_uris": {"ios": "https://dc.lft.to/lastmile_qr_scan", "android": "https://dc.lft.to/lastmile_qr_scan"}}, {"name": "d67340192feecfe9cbc5f25344a206d9", "fusion_lat": 0.0, "type": "electric_scooter", "lat": 38.9228895, "is_reserved": 0, "is_disabled": 0, "fusion_lon": 0.0, "bike_id": "d67340192feecfe9cbc5f25344a206d9", "lon": -77.02067816666667, "rental_uris": {"ios": "https://dc.lft.to/lastmile_qr_scan", "android": "https://dc.lft.to/lastmile_qr_scan"}}, {"name": "10afc22b3ca36f77db5e268f31695316", "fusion_lat": 0.0, "type": "electric_scooter", "lat": 38.89889383333333, "is_reserved": 0, "is_disabled": 0, "fusion_lon": 0.0, "bike_id": "10afc22b3ca36f77db5e268f31695316", "lon": -76.93178416666666, "rental_uris": {"ios": "https://dc.lft.to/lastmile_qr_scan", "android": "https://dc.lft.to/lastmile_qr_scan"}}, {"name": "0a0420dd442c7e9a225418672966547a", "fusion_lat": 0.0, "type": "electric_bike", "lat": 38.9052835, "is_reserved": 0, "is_disabled": 0, "fusion_lon": 0.0, "bike_id": "0a0420dd442c7e9a225418672966547a", "lon": -76.99799033333333, "rental_uris": {"ios": "https://dc.lft.to/lastmile_qr_scan", "android": "https://dc.lft.to/lastmile_qr_scan"}}, {"name": "a6d83b16f5eaf6dec8203ea0cac23f31", "fusion_lat": 0.0, "type": "electric_scooter", "lat": 38.916851666666666, "is_reserved": 0, "is_disabled": 0, "fusion_lon": 0.0, "bike_id": "a6d83b16f5eaf6dec8203ea0cac23f31", "lon": -77.03889666666667, "rental_uris": {"ios": "https://dc.lft.to/lastmile_qr_scan", "android": "https://dc.lft.to/lastmile_qr_scan"}}, {"name": "e661fd1affb22dd6bbf6aca30b13921a", "fusion_lat": 0.0, "type": "electric_scooter", "lat": 38.937142, "is_reserved": 0, "is_disabled": 0, "fusion_lon": 0.0, "bike_id": "e661fd1affb22dd6bbf6aca30b13921a", "lon": -77.03650533333334, "rental_uris": {"ios": "https://dc.lft.to/lastmile_qr_scan", "android": "https://dc.lft.to/lastmile_qr_scan"}}, {"name": "75f4d5e9b5557afceb64be12a1f5fc1f", "fusion_lat": 0.0, "type": "electric_scooter", "lat": 38.91858466666667, "is_reserved": 0, "is_disabled": 0, "fusion_lon": 0.0, "bike_id": "75f4d5e9b5557afceb64be12a1f5fc1f", "lon": -77.04432883333334, "rental_uris": {"ios": "https://dc.lft.to/lastmile_qr_scan", "android": "https://dc.lft.to/lastmile_qr_scan"}}, {"name": "42ab7e804cb3ccce54f5c42365bfa925", "fusion_lat": 0.0, "type": "electric_scooter", "lat": 38.9054255, "is_reserved": 0, "is_disabled": 0, "fusion_lon": 0.0, "bike_id": "42ab7e804cb3ccce54f5c42365bfa925", "lon": -77.04082966666667, "rental_uris": {"ios": "https://dc.lft.to/lastmile_qr_scan", "android": "https://dc.lft.to/lastmile_qr_scan"}}, {"name": "2e6d0cf06876954490b9476829ae7314", "fusion_lat": 0.0, "type": "electric_scooter", "lat": 38.899867, "is_reserved": 0, "is_disabled": 0, "fusion_lon": 0.0, "bike_id": "2e6d0cf06876954490b9476829ae7314", "lon": -77.02717466666667, "rental_uris": {"ios": "https://dc.lft.to/lastmile_qr_scan", "android": "https://dc.lft.to/lastmile_qr_scan"}}, {"name": "c7e0bb163110ee0d8596990647992a50", "fusion_lat": 0.0, "type": "electric_scooter", "lat": 38.90055783333333, "is_reserved": 0, "is_disabled": 0, "fusion_lon": 0.0, "bike_id": "c7e0bb163110ee0d8596990647992a50", "lon": -77.04330333333333, "rental_uris": {"ios": "https://dc.lft.to/lastmile_qr_scan", "android": "https://dc.lft.to/lastmile_qr_scan"}}, {"name": "75f3b69042be5e02804eed0decf6420b", "fusion_lat": 0.0, "type": "electric_bike", "lat": 38.990893666666665, "is_reserved": 0, "is_disabled": 0, "fusion_lon": 0.0, "bike_id": "75f3b69042be5e02804eed0decf6420b", "lon": -76.874962, "rental_uris": {"ios": "https://dc.lft.to/lastmile_qr_scan", "android": "https://dc.lft.to/lastmile_qr_scan"}}, {"name": "d2dc65f934956e9551ec7809e119f895", "fusion_lat": 0.0, "type": "electric_scooter", "lat": 38.95529066666667, "is_reserved": 0, "is_disabled": 0, "fusion_lon": 0.0, "bike_id": "d2dc65f934956e9551ec7809e119f895", "lon": -77.06980283333333, "rental_uris": {"ios": "https://dc.lft.to/lastmile_qr_scan", "android": "https://dc.lft.to/lastmile_qr_scan"}}, {"name": "8d1a2afd95d07f13cd2fe10e5f94479c", "fusion_lat": 0.0, "type": "electric_scooter", "lat": 38.92134733333333, "is_reserved": 0, "is_disabled": 0, "fusion_lon": 0.0, "bike_id": "8d1a2afd95d07f13cd2fe10e5f94479c", "lon": -77.03898983333333, "rental_uris": {"ios": "https://dc.lft.to/lastmile_qr_scan", "android": "https://dc.lft.to/lastmile_qr_scan"}}, {"name": "996b9f55e3f71d8d15fcb79394cbebd1", "fusion_lat": 0.0, "type": "electric_scooter", "lat": 38.9194585, "is_reserved": 0, "is_disabled": 0, "fusion_lon": 0.0, "bike_id": "996b9f55e3f71d8d15fcb79394cbebd1", "lon": -77.0454885, "rental_uris": {"ios": "https://dc.lft.to/lastmile_qr_scan", "android": "https://dc.lft.to/lastmile_qr_scan"}}, {"name": "2c69a1cd9ae06906866b665533358a50", "fusion_lat": 0.0, "type": "electric_scooter", "lat": 38.90496433333333, "is_reserved": 0, "is_disabled": 0, "fusion_lon": 0.0, "bike_id": "2c69a1cd9ae06906866b665533358a50", "lon": -77.0465605, "rental_uris": {"ios": "https://dc.lft.to/lastmile_qr_scan", "android": "https://dc.lft.to/lastmile_qr_scan"}}, {"name": "f2e1f88d63c6650ab82db50479565c8f", "fusion_lat": 0.0, "type": "electric_scooter", "lat": 38.89219, "is_reserved": 0, "is_disabled": 0, "fusion_lon": 0.0, "bike_id": "f2e1f88d63c6650ab82db50479565c8f", "lon": -77.03096133333334, "rental_uris": {"ios": "https://dc.lft.to/lastmile_qr_scan", "android": "https://dc.lft.to/lastmile_qr_scan"}}, {"name": "d0e051f0979d048caa6341e7e6e07723", "fusion_lat": 0.0, "type": "electric_bike", "lat": 38.899665666666664, "is_reserved": 0, "is_disabled": 0, "fusion_lon": 0.0, "bike_id": "d0e051f0979d048caa6341e7e6e07723", "lon": -77.04717366666667, "rental_uris": {"ios": "https://dc.lft.to/lastmile_qr_scan", "android": "https://dc.lft.to/lastmile_qr_scan"}}, {"name": "bfc038196d0a21925913cc79d366574c", "fusion_lat": 0.0, "type": "electric_scooter", "lat": 38.8607095, "is_reserved": 0, "is_disabled": 0, "fusion_lon": 0.0, "bike_id": "bfc038196d0a21925913cc79d366574c", "lon": -76.9672405, "rental_uris": {"ios": "https://dc.lft.to/lastmile_qr_scan", "android": "https://dc.lft.to/lastmile_qr_scan"}}, {"name": "1696abb3c6b8260320154836bb0f99c0", "fusion_lat": 0.0, "type": "electric_scooter", "lat": 38.9335585, "is_reserved": 0, "is_disabled": 0, "fusion_lon": 0.0, "bike_id": "1696abb3c6b8260320154836bb0f99c0", "lon": -77.03365683333334, "rental_uris": {"ios": "https://dc.lft.to/lastmile_qr_scan", "android": "https://dc.lft.to/lastmile_qr_scan"}}, {"name": "c9fc5720cbbc34be3424d4f9332bf776", "fusion_lat": 0.0, "type": "electric_scooter", "lat": 38.899862666666664, "is_reserved": 0, "is_disabled": 0, "fusion_lon": 0.0, "bike_id": "c9fc5720cbbc34be3424d4f9332bf776", "lon": -77.02956216666666, "rental_uris": {"ios": "https://dc.lft.to/lastmile_qr_scan", "android": "https://dc.lft.to/lastmile_qr_scan"}}, {"name": "30870c4a9e7775c792ea45ffe001c74d", "fusion_lat": 0.0, "type": "electric_scooter", "lat": 38.912654333333336, "is_reserved": 0, "is_disabled": 0, "fusion_lon": 0.0, "bike_id": "30870c4a9e7775c792ea45ffe001c74d", "lon": -77.04499716666666, "rental_uris": {"ios": "https://dc.lft.to/lastmile_qr_scan", "android": "https://dc.lft.to/lastmile_qr_scan"}}, {"name": "d0cba6f73c51969c2b57a43f29c947ad", "fusion_lat": 0.0, "type": "electric_scooter", "lat": 38.9056035, "is_reserved": 0, "is_disabled": 0, "fusion_lon": 0.0, "bike_id": "d0cba6f73c51969c2b57a43f29c947ad", "lon": -77.02233783333334, "rental_uris": {"ios": "https://dc.lft.to/lastmile_qr_scan", "android": "https://dc.lft.to/lastmile_qr_scan"}}, {"name": "7937d832ad54251080787c3fe370b46e", "fusion_lat": 0.0, "type": "electric_scooter", "lat": 38.934557833333336, "is_reserved": 0, "is_disabled": 0, "fusion_lon": 0.0, "bike_id": "7937d832ad54251080787c3fe370b46e", "lon": -77.08637583333334, "rental_uris": {"ios": "https://dc.lft.to/lastmile_qr_scan", "android": "https://dc.lft.to/lastmile_qr_scan"}}, {"name": "91f7f5b3dbc6e1d0f647156df416b478", "fusion_lat": 0.0, "type": "electric_scooter", "lat": 38.903308333333335, "is_reserved": 0, "is_disabled": 0, "fusion_lon": 0.0, "bike_id": "91f7f5b3dbc6e1d0f647156df416b478", "lon": -77.05228283333334, "rental_uris": {"ios": "https://dc.lft.to/lastmile_qr_scan", "android": "https://dc.lft.to/lastmile_qr_scan"}}, {"name": "397297b0712c14bc19fea29822ee4cb0", "fusion_lat": 0.0, "type": "electric_scooter", "lat": 38.90122916666667, "is_reserved": 0, "is_disabled": 0, "fusion_lon": 0.0, "bike_id": "397297b0712c14bc19fea29822ee4cb0", "lon": -77.0333265, "rental_uris": {"ios": "https://dc.lft.to/lastmile_qr_scan", "android": "https://dc.lft.to/lastmile_qr_scan"}}, {"name": "ddc93ab83f88136a369a32dec0a9566a", "fusion_lat": 0.0, "type": "electric_scooter", "lat": 38.899553166666664, "is_reserved": 0, "is_disabled": 0, "fusion_lon": 0.0, "bike_id": "ddc93ab83f88136a369a32dec0a9566a", "lon": -77.052735, "rental_uris": {"ios": "https://dc.lft.to/lastmile_qr_scan", "android": "https://dc.lft.to/lastmile_qr_scan"}}, {"name": "b1890cc7e64f6d1e6bbf4fb3616d4a3f", "fusion_lat": 0.0, "type": "electric_scooter", "lat": 38.896816, "is_reserved": 0, "is_disabled": 0, "fusion_lon": 0.0, "bike_id": "b1890cc7e64f6d1e6bbf4fb3616d4a3f", "lon": -76.99624, "rental_uris": {"ios": "https://dc.lft.to/lastmile_qr_scan", "android": "https://dc.lft.to/lastmile_qr_scan"}}, {"name": "7194fa851975d3d96d349fe8eafcb4af", "fusion_lat": 0.0, "type": "electric_scooter", "lat": 38.8961475, "is_reserved": 0, "is_disabled": 0, "fusion_lon": 0.0, "bike_id": "7194fa851975d3d96d349fe8eafcb4af", "lon": -77.04661366666667, "rental_uris": {"ios": "https://dc.lft.to/lastmile_qr_scan", "android": "https://dc.lft.to/lastmile_qr_scan"}}, {"name": "9fa936bfa9a0eea71c713de463d2e1b2", "fusion_lat": 0.0, "type": "electric_scooter", "lat": 38.90251816666667, "is_reserved": 0, "is_disabled": 0, "fusion_lon": 0.0, "bike_id": "9fa936bfa9a0eea71c713de463d2e1b2", "lon": -77.04622466666666, "rental_uris": {"ios": "https://dc.lft.to/lastmile_qr_scan", "android": "https://dc.lft.to/lastmile_qr_scan"}}, {"name": "dced1f73b53463e5872cb8ee4557cba4", "fusion_lat": 0.0, "type": "electric_scooter", "lat": 38.92345566666667, "is_reserved": 0, "is_disabled": 0, "fusion_lon": 0.0, "bike_id": "dced1f73b53463e5872cb8ee4557cba4", "lon": -77.03416683333333, "rental_uris": {"ios": "https://dc.lft.to/lastmile_qr_scan", "android": "https://dc.lft.to/lastmile_qr_scan"}}, {"name": "5399ef321e80ee2d8942bae4ea45661e", "fusion_lat": 0.0, "type": "electric_scooter", "lat": 38.89944833333333, "is_reserved": 0, "is_disabled": 0, "fusion_lon": 0.0, "bike_id": "5399ef321e80ee2d8942bae4ea45661e", "lon": -77.032052, "rental_uris": {"ios": "https://dc.lft.to/lastmile_qr_scan", "android": "https://dc.lft.to/lastmile_qr_scan"}}, {"name": "9941fa12a001106a0e77867fac7bcc41", "fusion_lat": 0.0, "type": "electric_scooter", "lat": 38.895996333333336, "is_reserved": 0, "is_disabled": 0, "fusion_lon": 0.0, "bike_id": "9941fa12a001106a0e77867fac7bcc41", "lon": -77.0507415, "rental_uris": {"ios": "https://dc.lft.to/lastmile_qr_scan", "android": "https://dc.lft.to/lastmile_qr_scan"}}, {"name": "d91089cac3fe07908918f043d078be69", "fusion_lat": 0.0, "type": "electric_scooter", "lat": 38.87287166666667, "is_reserved": 0, "is_disabled": 0, "fusion_lon": 0.0, "bike_id": "d91089cac3fe07908918f043d078be69", "lon": -77.0098495, "rental_uris": {"ios": "https://dc.lft.to/lastmile_qr_scan", "android": "https://dc.lft.to/lastmile_qr_scan"}}, {"name": "0fa55794fe7052062567b70e4d0c90e6", "fusion_lat": 0.0, "type": "electric_scooter", "lat": 38.92674683333333, "is_reserved": 0, "is_disabled": 0, "fusion_lon": 0.0, "bike_id": "0fa55794fe7052062567b70e4d0c90e6", "lon": -77.01497833333333, "rental_uris": {"ios": "https://dc.lft.to/lastmile_qr_scan", "android": "https://dc.lft.to/lastmile_qr_scan"}}, {"name": "528550177962977c1cc99ee42dd1114e", "fusion_lat": 0.0, "type": "electric_scooter", "lat": 38.932429, "is_reserved": 0, "is_disabled": 0, "fusion_lon": 0.0, "bike_id": "528550177962977c1cc99ee42dd1114e", "lon": -77.03248516666666, "rental_uris": {"ios": "https://dc.lft.to/lastmile_qr_scan", "android": "https://dc.lft.to/lastmile_qr_scan"}}, {"name": "d745ec9f2d381b5d43570087fe5e5085", "fusion_lat": 0.0, "type": "electric_bike", "lat": 38.897738833333335, "is_reserved": 0, "is_disabled": 0, "fusion_lon": 0.0, "bike_id": "d745ec9f2d381b5d43570087fe5e5085", "lon": -76.90439983333333, "rental_uris": {"ios": "https://dc.lft.to/lastmile_qr_scan", "android": "https://dc.lft.to/lastmile_qr_scan"}}, {"name": "918fa9e0c8aad736abc2916c59b59997", "fusion_lat": 0.0, "type": "electric_bike", "lat": 38.94621583333333, "is_reserved": 0, "is_disabled": 0, "fusion_lon": 0.0, "bike_id": "918fa9e0c8aad736abc2916c59b59997", "lon": -76.94632316666667, "rental_uris": {"ios": "https://dc.lft.to/lastmile_qr_scan", "android": "https://dc.lft.to/lastmile_qr_scan"}}, {"name": "b54e1bb5fe0f9cb94bfa54295eb59718", "fusion_lat": 0.0, "type": "electric_scooter", "lat": 38.90286666666667, "is_reserved": 0, "is_disabled": 0, "fusion_lon": 0.0, "bike_id": "b54e1bb5fe0f9cb94bfa54295eb59718", "lon": -77.038466, "rental_uris": {"ios": "https://dc.lft.to/lastmile_qr_scan", "android": "https://dc.lft.to/lastmile_qr_scan"}}, {"name": "92f37ee7c86bb4b9229f00df3e511191", "fusion_lat": 0.0, "type": "electric_scooter", "lat": 38.93700233333333, "is_reserved": 0, "is_disabled": 0, "fusion_lon": 0.0, "bike_id": "92f37ee7c86bb4b9229f00df3e511191", "lon": -77.0239165, "rental_uris": {"ios": "https://dc.lft.to/lastmile_qr_scan", "android": "https://dc.lft.to/lastmile_qr_scan"}}, {"name": "1d8197eda2b2a8ca9330b0fd14b67051", "fusion_lat": 0.0, "type": "electric_scooter", "lat": 38.93118, "is_reserved": 0, "is_disabled": 0, "fusion_lon": 0.0, "bike_id": "1d8197eda2b2a8ca9330b0fd14b67051", "lon": -77.02089766666667, "rental_uris": {"ios": "https://dc.lft.to/lastmile_qr_scan", "android": "https://dc.lft.to/lastmile_qr_scan"}}, {"name": "88a2f1bdfd4febdce86dc15dc100ec33", "fusion_lat": 0.0, "type": "electric_scooter", "lat": 38.90568916666667, "is_reserved": 0, "is_disabled": 0, "fusion_lon": 0.0, "bike_id": "88a2f1bdfd4febdce86dc15dc100ec33", "lon": -77.0438035, "rental_uris": {"ios": "https://dc.lft.to/lastmile_qr_scan", "android": "https://dc.lft.to/lastmile_qr_scan"}}, {"name": "f4a18c6b591e27729b9e016a5ec68aa8", "fusion_lat": 0.0, "type": "electric_scooter", "lat": 38.897541333333336, "is_reserved": 0, "is_disabled": 0, "fusion_lon": 0.0, "bike_id": "f4a18c6b591e27729b9e016a5ec68aa8", "lon": -77.0075595, "rental_uris": {"ios": "https://dc.lft.to/lastmile_qr_scan", "android": "https://dc.lft.to/lastmile_qr_scan"}}, {"name": "21d0631f27d5651a0ec5517e265f22c6", "fusion_lat": 0.0, "type": "electric_bike", "lat": 38.90866966666667, "is_reserved": 0, "is_disabled": 0, "fusion_lon": 0.0, "bike_id": "21d0631f27d5651a0ec5517e265f22c6", "lon": -77.0228255, "rental_uris": {"ios": "https://dc.lft.to/lastmile_qr_scan", "android": "https://dc.lft.to/lastmile_qr_scan"}}, {"name": "843c2e58cd0c0ba4ff0820a024d1c42b", "fusion_lat": 0.0, "type": "electric_scooter", "lat": 38.931219666666664, "is_reserved": 0, "is_disabled": 0, "fusion_lon": 0.0, "bike_id": "843c2e58cd0c0ba4ff0820a024d1c42b", "lon": -77.03605283333333, "rental_uris": {"ios": "https://dc.lft.to/lastmile_qr_scan", "android": "https://dc.lft.to/lastmile_qr_scan"}}, {"name": "15ae87808edafa787d8b47272665e801", "fusion_lat": 0.0, "type": "electric_scooter", "lat": 38.938978166666665, "is_reserved": 0, "is_disabled": 0, "fusion_lon": 0.0, "bike_id": "15ae87808edafa787d8b47272665e801", "lon": -77.03280683333334, "rental_uris": {"ios": "https://dc.lft.to/lastmile_qr_scan", "android": "https://dc.lft.to/lastmile_qr_scan"}}, {"name": "ec74762f1fd8db1a3a91c06c466869fe", "fusion_lat": 0.0, "type": "electric_scooter", "lat": 38.898755666666666, "is_reserved": 0, "is_disabled": 0, "fusion_lon": 0.0, "bike_id": "ec74762f1fd8db1a3a91c06c466869fe", "lon": -77.03333966666666, "rental_uris": {"ios": "https://dc.lft.to/lastmile_qr_scan", "android": "https://dc.lft.to/lastmile_qr_scan"}}, {"name": "caacb5be4f988b53d28530d9ca6ceb31", "fusion_lat": 0.0, "type": "electric_scooter", "lat": 38.941787166666664, "is_reserved": 0, "is_disabled": 0, "fusion_lon": 0.0, "bike_id": "caacb5be4f988b53d28530d9ca6ceb31", "lon": -77.02487233333333, "rental_uris": {"ios": "https://dc.lft.to/lastmile_qr_scan", "android": "https://dc.lft.to/lastmile_qr_scan"}}, {"name": "84c968eb74026f7dad48ce5078a0adea", "fusion_lat": 0.0, "type": "electric_scooter", "lat": 38.8620305, "is_reserved": 0, "is_disabled": 0, "fusion_lon": 0.0, "bike_id": "84c968eb74026f7dad48ce5078a0adea", "lon": -76.994637, "rental_uris": {"ios": "https://dc.lft.to/lastmile_qr_scan", "android": "https://dc.lft.to/lastmile_qr_scan"}}, {"name": "0068b335a5f3e31ef30a44fcef417bd3", "fusion_lat": 0.0, "type": "electric_scooter", "lat": 38.877528166666664, "is_reserved": 0, "is_disabled": 0, "fusion_lon": 0.0, "bike_id": "0068b335a5f3e31ef30a44fcef417bd3", "lon": -76.972427, "rental_uris": {"ios": "https://dc.lft.to/lastmile_qr_scan", "android": "https://dc.lft.to/lastmile_qr_scan"}}, {"name": "9d87368832436ce99c6196496448616d", "fusion_lat": 0.0, "type": "electric_scooter", "lat": 38.9206845, "is_reserved": 0, "is_disabled": 0, "fusion_lon": 0.0, "bike_id": "9d87368832436ce99c6196496448616d", "lon": -77.02402216666667, "rental_uris": {"ios": "https://dc.lft.to/lastmile_qr_scan", "android": "https://dc.lft.to/lastmile_qr_scan"}}, {"name": "23bfb40c35956057cd6aea7655ef5efb", "fusion_lat": 0.0, "type": "electric_scooter", "lat": 38.9289445, "is_reserved": 0, "is_disabled": 0, "fusion_lon": 0.0, "bike_id": "23bfb40c35956057cd6aea7655ef5efb", "lon": -77.0250545, "rental_uris": {"ios": "https://dc.lft.to/lastmile_qr_scan", "android": "https://dc.lft.to/lastmile_qr_scan"}}, {"name": "5f733cb37e05e98799c56e1d2627ebc7", "fusion_lat": 0.0, "type": "electric_scooter", "lat": 38.91477166666667, "is_reserved": 0, "is_disabled": 0, "fusion_lon": 0.0, "bike_id": "5f733cb37e05e98799c56e1d2627ebc7", "lon": -77.04607816666666, "rental_uris": {"ios": "https://dc.lft.to/lastmile_qr_scan", "android": "https://dc.lft.to/lastmile_qr_scan"}}, {"name": "d0d9334dc958697bae6a023a78c00c3d", "fusion_lat": 0.0, "type": "electric_scooter", "lat": 38.90331716666667, "is_reserved": 0, "is_disabled": 0, "fusion_lon": 0.0, "bike_id": "d0d9334dc958697bae6a023a78c00c3d", "lon": -77.025171, "rental_uris": {"ios": "https://dc.lft.to/lastmile_qr_scan", "android": "https://dc.lft.to/lastmile_qr_scan"}}, {"name": "bf9d656f05315a901a8f8c795139e62e", "fusion_lat": 0.0, "type": "electric_scooter", "lat": 38.9482895, "is_reserved": 0, "is_disabled": 0, "fusion_lon": 0.0, "bike_id": "bf9d656f05315a901a8f8c795139e62e", "lon": -77.0255545, "rental_uris": {"ios": "https://dc.lft.to/lastmile_qr_scan", "android": "https://dc.lft.to/lastmile_qr_scan"}}, {"name": "23652cf5623d22b0af15375ce1d701f0", "fusion_lat": 0.0, "type": "electric_scooter", "lat": 38.919033666666664, "is_reserved": 0, "is_disabled": 0, "fusion_lon": 0.0, "bike_id": "23652cf5623d22b0af15375ce1d701f0", "lon": -77.0344325, "rental_uris": {"ios": "https://dc.lft.to/lastmile_qr_scan", "android": "https://dc.lft.to/lastmile_qr_scan"}}, {"name": "b6a14a6aa6b79b4365db3145aec3c46c", "fusion_lat": 0.0, "type": "electric_scooter", "lat": 38.901404666666664, "is_reserved": 0, "is_disabled": 0, "fusion_lon": 0.0, "bike_id": "b6a14a6aa6b79b4365db3145aec3c46c", "lon": -77.04741683333333, "rental_uris": {"ios": "https://dc.lft.to/lastmile_qr_scan", "android": "https://dc.lft.to/lastmile_qr_scan"}}, {"name": "f2de0683a33176f416459eeb900757f3", "fusion_lat": 0.0, "type": "electric_bike", "lat": 38.922729333333336, "is_reserved": 0, "is_disabled": 0, "fusion_lon": 0.0, "bike_id": "f2de0683a33176f416459eeb900757f3", "lon": -77.02238966666667, "rental_uris": {"ios": "https://dc.lft.to/lastmile_qr_scan", "android": "https://dc.lft.to/lastmile_qr_scan"}}, {"name": "0572efcb56a28c30b686e80a6f4213c9", "fusion_lat": 0.0, "type": "electric_scooter", "lat": 38.8941215, "is_reserved": 0, "is_disabled": 0, "fusion_lon": 0.0, "bike_id": "0572efcb56a28c30b686e80a6f4213c9", "lon": -76.93962666666667, "rental_uris": {"ios": "https://dc.lft.to/lastmile_qr_scan", "android": "https://dc.lft.to/lastmile_qr_scan"}}, {"name": "ca97ab80e703b34f37638eaeaebced18", "fusion_lat": 0.0, "type": "electric_scooter", "lat": 38.90125483333333, "is_reserved": 0, "is_disabled": 0, "fusion_lon": 0.0, "bike_id": "ca97ab80e703b34f37638eaeaebced18", "lon": -77.03048333333334, "rental_uris": {"ios": "https://dc.lft.to/lastmile_qr_scan", "android": "https://dc.lft.to/lastmile_qr_scan"}}, {"name": "480de31f31130720d9ef5b0b15fd77df", "fusion_lat": 0.0, "type": "electric_scooter", "lat": 38.910050166666664, "is_reserved": 0, "is_disabled": 0, "fusion_lon": 0.0, "bike_id": "480de31f31130720d9ef5b0b15fd77df", "lon": -77.021936, "rental_uris": {"ios": "https://dc.lft.to/lastmile_qr_scan", "android": "https://dc.lft.to/lastmile_qr_scan"}}, {"name": "0f43b59898a62ce99fc29c20efe1de4c", "fusion_lat": 0.0, "type": "electric_bike", "lat": 38.93669883333333, "is_reserved": 0, "is_disabled": 0, "fusion_lon": 0.0, "bike_id": "0f43b59898a62ce99fc29c20efe1de4c", "lon": -76.95204666666666, "rental_uris": {"ios": "https://dc.lft.to/lastmile_qr_scan", "android": "https://dc.lft.to/lastmile_qr_scan"}}, {"name": "20e002bbb05b8db9426e5437e86a6382", "fusion_lat": 0.0, "type": "electric_scooter", "lat": 38.876564333333334, "is_reserved": 0, "is_disabled": 0, "fusion_lon": 0.0, "bike_id": "20e002bbb05b8db9426e5437e86a6382", "lon": -77.00462883333333, "rental_uris": {"ios": "https://dc.lft.to/lastmile_qr_scan", "android": "https://dc.lft.to/lastmile_qr_scan"}}, {"name": "46d43cf08bbc844524195ebe894c0e1d", "fusion_lat": 0.0, "type": "electric_scooter", "lat": 38.92590033333333, "is_reserved": 0, "is_disabled": 0, "fusion_lon": 0.0, "bike_id": "46d43cf08bbc844524195ebe894c0e1d", "lon": -77.02962816666667, "rental_uris": {"ios": "https://dc.lft.to/lastmile_qr_scan", "android": "https://dc.lft.to/lastmile_qr_scan"}}, {"name": "79d2827aae83b3b1195cf608773f1348", "fusion_lat": 0.0, "type": "electric_scooter", "lat": 38.8995075, "is_reserved": 0, "is_disabled": 0, "fusion_lon": 0.0, "bike_id": "79d2827aae83b3b1195cf608773f1348", "lon": -77.02170983333333, "rental_uris": {"ios": "https://dc.lft.to/lastmile_qr_scan", "android": "https://dc.lft.to/lastmile_qr_scan"}}, {"name": "b27a4318836756aae66d4bf602015d0f", "fusion_lat": 0.0, "type": "electric_scooter", "lat": 38.865331166666664, "is_reserved": 0, "is_disabled": 0, "fusion_lon": 0.0, "bike_id": "b27a4318836756aae66d4bf602015d0f", "lon": -76.98704866666667, "rental_uris": {"ios": "https://dc.lft.to/lastmile_qr_scan", "android": "https://dc.lft.to/lastmile_qr_scan"}}, {"name": "31113da2edebe1c098b808009fd98cb6", "fusion_lat": 0.0, "type": "electric_scooter", "lat": 38.92739983333333, "is_reserved": 0, "is_disabled": 0, "fusion_lon": 0.0, "bike_id": "31113da2edebe1c098b808009fd98cb6", "lon": -77.01204983333334, "rental_uris": {"ios": "https://dc.lft.to/lastmile_qr_scan", "android": "https://dc.lft.to/lastmile_qr_scan"}}, {"name": "0b7af266667b0570d16aa750388387fa", "fusion_lat": 0.0, "type": "electric_scooter", "lat": 38.898052666666665, "is_reserved": 0, "is_disabled": 0, "fusion_lon": 0.0, "bike_id": "0b7af266667b0570d16aa750388387fa", "lon": -77.02814683333334, "rental_uris": {"ios": "https://dc.lft.to/lastmile_qr_scan", "android": "https://dc.lft.to/lastmile_qr_scan"}}, {"name": "018b7a82f401130ba069230acd4a83a7", "fusion_lat": 0.0, "type": "electric_scooter", "lat": 38.898641, "is_reserved": 0, "is_disabled": 0, "fusion_lon": 0.0, "bike_id": "018b7a82f401130ba069230acd4a83a7", "lon": -77.031841, "rental_uris": {"ios": "https://dc.lft.to/lastmile_qr_scan", "android": "https://dc.lft.to/lastmile_qr_scan"}}, {"name": "e825c34071a73a03313b6394fd15953f", "fusion_lat": 0.0, "type": "electric_bike", "lat": 39.0885715, "is_reserved": 0, "is_disabled": 0, "fusion_lon": 0.0, "bike_id": "e825c34071a73a03313b6394fd15953f", "lon": -77.178455, "rental_uris": {"ios": "https://dc.lft.to/lastmile_qr_scan", "android": "https://dc.lft.to/lastmile_qr_scan"}}, {"name": "984adf4822c15d5a73d660d51fabdf64", "fusion_lat": 0.0, "type": "electric_bike", "lat": 39.053575, "is_reserved": 0, "is_disabled": 0, "fusion_lon": 0.0, "bike_id": "984adf4822c15d5a73d660d51fabdf64", "lon": -77.04736466666667, "rental_uris": {"ios": "https://dc.lft.to/lastmile_qr_scan", "android": "https://dc.lft.to/lastmile_qr_scan"}}, {"name": "c77c3e17c8a71310d2c5ffcac53c09d4", "fusion_lat": 0.0, "type": "electric_scooter", "lat": 38.9028375, "is_reserved": 0, "is_disabled": 0, "fusion_lon": 0.0, "bike_id": "c77c3e17c8a71310d2c5ffcac53c09d4", "lon": -77.03619283333333, "rental_uris": {"ios": "https://dc.lft.to/lastmile_qr_scan", "android": "https://dc.lft.to/lastmile_qr_scan"}}, {"name": "1556e1e8cc4a44f41cc6dbf8c675077d", "fusion_lat": 0.0, "type": "electric_bike", "lat": 38.928565666666664, "is_reserved": 0, "is_disabled": 0, "fusion_lon": 0.0, "bike_id": "1556e1e8cc4a44f41cc6dbf8c675077d", "lon": -77.22218066666667, "rental_uris": {"ios": "https://dc.lft.to/lastmile_qr_scan", "android": "https://dc.lft.to/lastmile_qr_scan"}}, {"name": "d407e7e2576088ab42e809a8164624a0", "fusion_lat": 0.0, "type": "electric_scooter", "lat": 38.907120166666665, "is_reserved": 0, "is_disabled": 0, "fusion_lon": 0.0, "bike_id": "d407e7e2576088ab42e809a8164624a0", "lon": -77.03258266666667, "rental_uris": {"ios": "https://dc.lft.to/lastmile_qr_scan", "android": "https://dc.lft.to/lastmile_qr_scan"}}, {"name": "5d342d9e424f656b22fecaee3bd4a79e", "fusion_lat": 0.0, "type": "electric_scooter", "lat": 38.9013675, "is_reserved": 0, "is_disabled": 0, "fusion_lon": 0.0, "bike_id": "5d342d9e424f656b22fecaee3bd4a79e", "lon": -77.04223383333333, "rental_uris": {"ios": "https://dc.lft.to/lastmile_qr_scan", "android": "https://dc.lft.to/lastmile_qr_scan"}}, {"name": "c3078fbd1357c57c426c0100cb30dd72", "fusion_lat": 0.0, "type": "electric_bike", "lat": 38.9351765, "is_reserved": 0, "is_disabled": 0, "fusion_lon": 0.0, "bike_id": "c3078fbd1357c57c426c0100cb30dd72", "lon": -76.95065083333333, "rental_uris": {"ios": "https://dc.lft.to/lastmile_qr_scan", "android": "https://dc.lft.to/lastmile_qr_scan"}}, {"name": "b4eaeb459ae6fda84921b1b7a5c1f10d", "fusion_lat": 0.0, "type": "electric_scooter", "lat": 38.9067635, "is_reserved": 0, "is_disabled": 0, "fusion_lon": 0.0, "bike_id": "b4eaeb459ae6fda84921b1b7a5c1f10d", "lon": -77.02697116666667, "rental_uris": {"ios": "https://dc.lft.to/lastmile_qr_scan", "android": "https://dc.lft.to/lastmile_qr_scan"}}, {"name": "ca4ea8ff8907143c053e576749f49c00", "fusion_lat": 0.0, "type": "electric_scooter", "lat": 38.956488666666665, "is_reserved": 0, "is_disabled": 0, "fusion_lon": 0.0, "bike_id": "ca4ea8ff8907143c053e576749f49c00", "lon": -77.032921, "rental_uris": {"ios": "https://dc.lft.to/lastmile_qr_scan", "android": "https://dc.lft.to/lastmile_qr_scan"}}, {"name": "0f19b11a76a1c3a3faa30de73015554c", "fusion_lat": 0.0, "type": "electric_scooter", "lat": 38.862412166666665, "is_reserved": 0, "is_disabled": 0, "fusion_lon": 0.0, "bike_id": "0f19b11a76a1c3a3faa30de73015554c", "lon": -76.994982, "rental_uris": {"ios": "https://dc.lft.to/lastmile_qr_scan", "android": "https://dc.lft.to/lastmile_qr_scan"}}, {"name": "dc3400070543d0bc68966dd8d50e2e0e", "fusion_lat": 0.0, "type": "electric_scooter", "lat": 38.924339833333335, "is_reserved": 0, "is_disabled": 0, "fusion_lon": 0.0, "bike_id": "dc3400070543d0bc68966dd8d50e2e0e", "lon": -77.02977583333333, "rental_uris": {"ios": "https://dc.lft.to/lastmile_qr_scan", "android": "https://dc.lft.to/lastmile_qr_scan"}}, {"name": "dfc5cf16afb7cdc156329fc728b8c1f1", "fusion_lat": 0.0, "type": "electric_bike", "lat": 38.88040383333333, "is_reserved": 0, "is_disabled": 0, "fusion_lon": 0.0, "bike_id": "dfc5cf16afb7cdc156329fc728b8c1f1", "lon": -77.013262, "rental_uris": {"ios": "https://dc.lft.to/lastmile_qr_scan", "android": "https://dc.lft.to/lastmile_qr_scan"}}, {"name": "f7867dcc6ea282f1abffc15dfe0e2731", "fusion_lat": 0.0, "type": "electric_scooter", "lat": 38.911132333333335, "is_reserved": 0, "is_disabled": 0, "fusion_lon": 0.0, "bike_id": "f7867dcc6ea282f1abffc15dfe0e2731", "lon": -77.04353133333333, "rental_uris": {"ios": "https://dc.lft.to/lastmile_qr_scan", "android": "https://dc.lft.to/lastmile_qr_scan"}}, {"name": "0fb04cd17728c644c8b922c46e5dc5aa", "fusion_lat": 0.0, "type": "electric_scooter", "lat": 38.9111575, "is_reserved": 0, "is_disabled": 0, "fusion_lon": 0.0, "bike_id": "0fb04cd17728c644c8b922c46e5dc5aa", "lon": -77.04533816666667, "rental_uris": {"ios": "https://dc.lft.to/lastmile_qr_scan", "android": "https://dc.lft.to/lastmile_qr_scan"}}, {"name": "2152f430686a7bbeb4ea21e30852483d", "fusion_lat": 0.0, "type": "electric_scooter", "lat": 38.90265266666667, "is_reserved": 0, "is_disabled": 0, "fusion_lon": 0.0, "bike_id": "2152f430686a7bbeb4ea21e30852483d", "lon": -77.03398216666666, "rental_uris": {"ios": "https://dc.lft.to/lastmile_qr_scan", "android": "https://dc.lft.to/lastmile_qr_scan"}}, {"name": "99a1a6f5a28327b39e1970e94bf6976e", "fusion_lat": 0.0, "type": "electric_scooter", "lat": 38.898677666666664, "is_reserved": 0, "is_disabled": 0, "fusion_lon": 0.0, "bike_id": "99a1a6f5a28327b39e1970e94bf6976e", "lon": -77.03180583333334, "rental_uris": {"ios": "https://dc.lft.to/lastmile_qr_scan", "android": "https://dc.lft.to/lastmile_qr_scan"}}, {"name": "9656491a6e28934c3ec907c8029e48a7", "fusion_lat": 0.0, "type": "electric_scooter", "lat": 38.9016305, "is_reserved": 0, "is_disabled": 0, "fusion_lon": 0.0, "bike_id": "9656491a6e28934c3ec907c8029e48a7", "lon": -77.03170583333333, "rental_uris": {"ios": "https://dc.lft.to/lastmile_qr_scan", "android": "https://dc.lft.to/lastmile_qr_scan"}}, {"name": "3c80e3c5d8833a5b1a6a5909f1b397e4", "fusion_lat": 0.0, "type": "electric_scooter", "lat": 38.898791, "is_reserved": 0, "is_disabled": 0, "fusion_lon": 0.0, "bike_id": "3c80e3c5d8833a5b1a6a5909f1b397e4", "lon": -77.03336533333334, "rental_uris": {"ios": "https://dc.lft.to/lastmile_qr_scan", "android": "https://dc.lft.to/lastmile_qr_scan"}}, {"name": "331c04fdbb115fab3c41792006845e45", "fusion_lat": 0.0, "type": "electric_scooter", "lat": 38.94957316666667, "is_reserved": 0, "is_disabled": 0, "fusion_lon": 0.0, "bike_id": "331c04fdbb115fab3c41792006845e45", "lon": -77.02721483333333, "rental_uris": {"ios": "https://dc.lft.to/lastmile_qr_scan", "android": "https://dc.lft.to/lastmile_qr_scan"}}, {"name": "b0a1acbedffc1dd9bf867831319b65c7", "fusion_lat": 0.0, "type": "electric_scooter", "lat": 38.9141315, "is_reserved": 0, "is_disabled": 0, "fusion_lon": 0.0, "bike_id": "b0a1acbedffc1dd9bf867831319b65c7", "lon": -77.00972066666667, "rental_uris": {"ios": "https://dc.lft.to/lastmile_qr_scan", "android": "https://dc.lft.to/lastmile_qr_scan"}}, {"name": "ac243b0542ddb523d220831d11f77532", "fusion_lat": 0.0, "type": "electric_scooter", "lat": 38.90247933333333, "is_reserved": 0, "is_disabled": 0, "fusion_lon": 0.0, "bike_id": "ac243b0542ddb523d220831d11f77532", "lon": -77.01746783333333, "rental_uris": {"ios": "https://dc.lft.to/lastmile_qr_scan", "android": "https://dc.lft.to/lastmile_qr_scan"}}, {"name": "8e080c4b8bb76d1f754dd5325a8e969d", "fusion_lat": 0.0, "type": "electric_scooter", "lat": 38.89453016666667, "is_reserved": 0, "is_disabled": 0, "fusion_lon": 0.0, "bike_id": "8e080c4b8bb76d1f754dd5325a8e969d", "lon": -77.00347766666667, "rental_uris": {"ios": "https://dc.lft.to/lastmile_qr_scan", "android": "https://dc.lft.to/lastmile_qr_scan"}}, {"name": "ea66417a41624b9789f3a230314aee1d", "fusion_lat": 0.0, "type": "electric_bike", "lat": 38.9088685, "is_reserved": 0, "is_disabled": 0, "fusion_lon": 0.0, "bike_id": "ea66417a41624b9789f3a230314aee1d", "lon": -77.04514166666667, "rental_uris": {"ios": "https://dc.lft.to/lastmile_qr_scan", "android": "https://dc.lft.to/lastmile_qr_scan"}}, {"name": "b69957449852de6eec1a10a465b0794c", "fusion_lat": 0.0, "type": "electric_scooter", "lat": 38.898714166666664, "is_reserved": 0, "is_disabled": 0, "fusion_lon": 0.0, "bike_id": "b69957449852de6eec1a10a465b0794c", "lon": -77.03991516666666, "rental_uris": {"ios": "https://dc.lft.to/lastmile_qr_scan", "android": "https://dc.lft.to/lastmile_qr_scan"}}, {"name": "e4dbe1edde2fae5e3ab37ee9c24e80bc", "fusion_lat": 0.0, "type": "electric_scooter", "lat": 38.8966845, "is_reserved": 0, "is_disabled": 0, "fusion_lon": 0.0, "bike_id": "e4dbe1edde2fae5e3ab37ee9c24e80bc", "lon": -76.94721716666666, "rental_uris": {"ios": "https://dc.lft.to/lastmile_qr_scan", "android": "https://dc.lft.to/lastmile_qr_scan"}}, {"name": "d9d3fe6c25c254b387315e4f8a6f3120", "fusion_lat": 0.0, "type": "electric_scooter", "lat": 38.905358, "is_reserved": 0, "is_disabled": 0, "fusion_lon": 0.0, "bike_id": "d9d3fe6c25c254b387315e4f8a6f3120", "lon": -77.06114316666667, "rental_uris": {"ios": "https://dc.lft.to/lastmile_qr_scan", "android": "https://dc.lft.to/lastmile_qr_scan"}}, {"name": "600cc8ccba8d34e26a7c65e010a9a9b5", "fusion_lat": 0.0, "type": "electric_scooter", "lat": 38.8808955, "is_reserved": 0, "is_disabled": 0, "fusion_lon": 0.0, "bike_id": "600cc8ccba8d34e26a7c65e010a9a9b5", "lon": -77.02596116666666, "rental_uris": {"ios": "https://dc.lft.to/lastmile_qr_scan", "android": "https://dc.lft.to/lastmile_qr_scan"}}, {"name": "c353cb29c0857088e3b8580f29163b7e", "fusion_lat": 0.0, "type": "electric_scooter", "lat": 38.90603516666667, "is_reserved": 0, "is_disabled": 0, "fusion_lon": 0.0, "bike_id": "c353cb29c0857088e3b8580f29163b7e", "lon": -77.0027185, "rental_uris": {"ios": "https://dc.lft.to/lastmile_qr_scan", "android": "https://dc.lft.to/lastmile_qr_scan"}}, {"name": "ad3edeed5a6ac30c242c199bf920696c", "fusion_lat": 0.0, "type": "electric_scooter", "lat": 38.92069766666667, "is_reserved": 0, "is_disabled": 0, "fusion_lon": 0.0, "bike_id": "ad3edeed5a6ac30c242c199bf920696c", "lon": -77.02412383333333, "rental_uris": {"ios": "https://dc.lft.to/lastmile_qr_scan", "android": "https://dc.lft.to/lastmile_qr_scan"}}, {"name": "a26236a6d73d598de408a78df2b2cd49", "fusion_lat": 0.0, "type": "electric_bike", "lat": 38.8686575, "is_reserved": 0, "is_disabled": 0, "fusion_lon": 0.0, "bike_id": "a26236a6d73d598de408a78df2b2cd49", "lon": -76.91664416666667, "rental_uris": {"ios": "https://dc.lft.to/lastmile_qr_scan", "android": "https://dc.lft.to/lastmile_qr_scan"}}, {"name": "789d05b88775018143143de04cd9b6ae", "fusion_lat": 0.0, "type": "electric_scooter", "lat": 38.90075783333333, "is_reserved": 0, "is_disabled": 0, "fusion_lon": 0.0, "bike_id": "789d05b88775018143143de04cd9b6ae", "lon": -77.028301, "rental_uris": {"ios": "https://dc.lft.to/lastmile_qr_scan", "android": "https://dc.lft.to/lastmile_qr_scan"}}, {"name": "7ab297f4b62c4e530b0ba33522639ddc", "fusion_lat": 0.0, "type": "electric_scooter", "lat": 38.903338, "is_reserved": 0, "is_disabled": 0, "fusion_lon": 0.0, "bike_id": "7ab297f4b62c4e530b0ba33522639ddc", "lon": -77.02588416666667, "rental_uris": {"ios": "https://dc.lft.to/lastmile_qr_scan", "android": "https://dc.lft.to/lastmile_qr_scan"}}, {"name": "9654271d68034a7ee19b26f3330f3e95", "fusion_lat": 0.0, "type": "electric_scooter", "lat": 38.882195833333334, "is_reserved": 0, "is_disabled": 0, "fusion_lon": 0.0, "bike_id": "9654271d68034a7ee19b26f3330f3e95", "lon": -76.941835, "rental_uris": {"ios": "https://dc.lft.to/lastmile_qr_scan", "android": "https://dc.lft.to/lastmile_qr_scan"}}, {"name": "9d5673fca5b6e7fec48e7df848acafbd", "fusion_lat": 0.0, "type": "electric_scooter", "lat": 38.94737533333333, "is_reserved": 0, "is_disabled": 0, "fusion_lon": 0.0, "bike_id": "9d5673fca5b6e7fec48e7df848acafbd", "lon": -77.00017616666666, "rental_uris": {"ios": "https://dc.lft.to/lastmile_qr_scan", "android": "https://dc.lft.to/lastmile_qr_scan"}}, {"name": "cdf2b6f340bd551264f576f4b213c5f1", "fusion_lat": 0.0, "type": "electric_scooter", "lat": 38.9071825, "is_reserved": 0, "is_disabled": 0, "fusion_lon": 0.0, "bike_id": "cdf2b6f340bd551264f576f4b213c5f1", "lon": -77.01148266666667, "rental_uris": {"ios": "https://dc.lft.to/lastmile_qr_scan", "android": "https://dc.lft.to/lastmile_qr_scan"}}, {"name": "6ebb087891a67358186fe643bc664a9c", "fusion_lat": 0.0, "type": "electric_scooter", "lat": 38.898810833333336, "is_reserved": 0, "is_disabled": 0, "fusion_lon": 0.0, "bike_id": "6ebb087891a67358186fe643bc664a9c", "lon": -77.00917333333334, "rental_uris": {"ios": "https://dc.lft.to/lastmile_qr_scan", "android": "https://dc.lft.to/lastmile_qr_scan"}}, {"name": "8e376883c93bb9b2bb26b39eda9c3d22", "fusion_lat": 0.0, "type": "electric_scooter", "lat": 38.907205, "is_reserved": 0, "is_disabled": 0, "fusion_lon": 0.0, "bike_id": "8e376883c93bb9b2bb26b39eda9c3d22", "lon": -77.02500866666666, "rental_uris": {"ios": "https://dc.lft.to/lastmile_qr_scan", "android": "https://dc.lft.to/lastmile_qr_scan"}}, {"name": "16936a83c4d6d99e285c943351104139", "fusion_lat": 0.0, "type": "electric_scooter", "lat": 38.90329766666667, "is_reserved": 0, "is_disabled": 0, "fusion_lon": 0.0, "bike_id": "16936a83c4d6d99e285c943351104139", "lon": -76.98965933333334, "rental_uris": {"ios": "https://dc.lft.to/lastmile_qr_scan", "android": "https://dc.lft.to/lastmile_qr_scan"}}, {"name": "8b6ad45539308816ac56520dcb1e4b28", "fusion_lat": 0.0, "type": "electric_scooter", "lat": 38.91020816666666, "is_reserved": 0, "is_disabled": 0, "fusion_lon": 0.0, "bike_id": "8b6ad45539308816ac56520dcb1e4b28", "lon": -77.06466966666666, "rental_uris": {"ios": "https://dc.lft.to/lastmile_qr_scan", "android": "https://dc.lft.to/lastmile_qr_scan"}}, {"name": "4d3b61eea899096753728bb3aacdaf50", "fusion_lat": 0.0, "type": "electric_scooter", "lat": 38.92928116666667, "is_reserved": 0, "is_disabled": 0, "fusion_lon": 0.0, "bike_id": "4d3b61eea899096753728bb3aacdaf50", "lon": -77.0233815, "rental_uris": {"ios": "https://dc.lft.to/lastmile_qr_scan", "android": "https://dc.lft.to/lastmile_qr_scan"}}, {"name": "4d0d38e3d1501ffd07baa1d446fdd8b8", "fusion_lat": 0.0, "type": "electric_scooter", "lat": 38.91624733333333, "is_reserved": 0, "is_disabled": 0, "fusion_lon": 0.0, "bike_id": "4d0d38e3d1501ffd07baa1d446fdd8b8", "lon": -77.0358705, "rental_uris": {"ios": "https://dc.lft.to/lastmile_qr_scan", "android": "https://dc.lft.to/lastmile_qr_scan"}}, {"name": "3a5150a7857af7c83f5ff36f46fc3e01", "fusion_lat": 0.0, "type": "electric_scooter", "lat": 38.924637, "is_reserved": 0, "is_disabled": 0, "fusion_lon": 0.0, "bike_id": "3a5150a7857af7c83f5ff36f46fc3e01", "lon": -77.03052333333333, "rental_uris": {"ios": "https://dc.lft.to/lastmile_qr_scan", "android": "https://dc.lft.to/lastmile_qr_scan"}}, {"name": "42ec450d31e776e990ebc4850a686f89", "fusion_lat": 0.0, "type": "electric_scooter", "lat": 38.89722166666667, "is_reserved": 0, "is_disabled": 0, "fusion_lon": 0.0, "bike_id": "42ec450d31e776e990ebc4850a686f89", "lon": -77.0221085, "rental_uris": {"ios": "https://dc.lft.to/lastmile_qr_scan", "android": "https://dc.lft.to/lastmile_qr_scan"}}, {"name": "a0ff8652a4cfc567f2e7ff45013330e8", "fusion_lat": 0.0, "type": "electric_scooter", "lat": 38.914094166666665, "is_reserved": 0, "is_disabled": 0, "fusion_lon": 0.0, "bike_id": "a0ff8652a4cfc567f2e7ff45013330e8", "lon": -77.0279515, "rental_uris": {"ios": "https://dc.lft.to/lastmile_qr_scan", "android": "https://dc.lft.to/lastmile_qr_scan"}}, {"name": "59fd06285a54589846203aad643a687f", "fusion_lat": 0.0, "type": "electric_scooter", "lat": 38.93281133333333, "is_reserved": 0, "is_disabled": 0, "fusion_lon": 0.0, "bike_id": "59fd06285a54589846203aad643a687f", "lon": -77.02824466666667, "rental_uris": {"ios": "https://dc.lft.to/lastmile_qr_scan", "android": "https://dc.lft.to/lastmile_qr_scan"}}, {"name": "5b5485d46cd08e10e5020945f672e80e", "fusion_lat": 0.0, "type": "electric_scooter", "lat": 38.893550166666664, "is_reserved": 0, "is_disabled": 0, "fusion_lon": 0.0, "bike_id": "5b5485d46cd08e10e5020945f672e80e", "lon": -77.00336883333334, "rental_uris": {"ios": "https://dc.lft.to/lastmile_qr_scan", "android": "https://dc.lft.to/lastmile_qr_scan"}}, {"name": "85482db76361bd24d9227ee76377a088", "fusion_lat": 0.0, "type": "electric_scooter", "lat": 38.90425366666667, "is_reserved": 0, "is_disabled": 0, "fusion_lon": 0.0, "bike_id": "85482db76361bd24d9227ee76377a088", "lon": -77.044777, "rental_uris": {"ios": "https://dc.lft.to/lastmile_qr_scan", "android": "https://dc.lft.to/lastmile_qr_scan"}}, {"name": "641c73d7f8805ab5dc9889c0ce9807c6", "fusion_lat": 0.0, "type": "electric_scooter", "lat": 38.91213366666667, "is_reserved": 0, "is_disabled": 0, "fusion_lon": 0.0, "bike_id": "641c73d7f8805ab5dc9889c0ce9807c6", "lon": -77.028019, "rental_uris": {"ios": "https://dc.lft.to/lastmile_qr_scan", "android": "https://dc.lft.to/lastmile_qr_scan"}}, {"name": "3d4106b4dd52dd6f435ee9755d39172f", "fusion_lat": 0.0, "type": "electric_scooter", "lat": 38.88352183333333, "is_reserved": 0, "is_disabled": 0, "fusion_lon": 0.0, "bike_id": "3d4106b4dd52dd6f435ee9755d39172f", "lon": -76.98547366666666, "rental_uris": {"ios": "https://dc.lft.to/lastmile_qr_scan", "android": "https://dc.lft.to/lastmile_qr_scan"}}, {"name": "a08c16db55e91edeb2fc8afec8e3ec67", "fusion_lat": 0.0, "type": "electric_scooter", "lat": 38.91561766666667, "is_reserved": 0, "is_disabled": 0, "fusion_lon": 0.0, "bike_id": "a08c16db55e91edeb2fc8afec8e3ec67", "lon": -77.03333833333333, "rental_uris": {"ios": "https://dc.lft.to/lastmile_qr_scan", "android": "https://dc.lft.to/lastmile_qr_scan"}}, {"name": "2ff5c0114eaaa58f200e39ab2a86ad55", "fusion_lat": 0.0, "type": "electric_scooter", "lat": 38.935776833333335, "is_reserved": 0, "is_disabled": 0, "fusion_lon": 0.0, "bike_id": "2ff5c0114eaaa58f200e39ab2a86ad55", "lon": -77.02844383333333, "rental_uris": {"ios": "https://dc.lft.to/lastmile_qr_scan", "android": "https://dc.lft.to/lastmile_qr_scan"}}, {"name": "36b21d139ba918174d3f6ad0787b97b5", "fusion_lat": 0.0, "type": "electric_scooter", "lat": 38.9095545, "is_reserved": 0, "is_disabled": 0, "fusion_lon": 0.0, "bike_id": "36b21d139ba918174d3f6ad0787b97b5", "lon": -77.016773, "rental_uris": {"ios": "https://dc.lft.to/lastmile_qr_scan", "android": "https://dc.lft.to/lastmile_qr_scan"}}, {"name": "5f7e94581b0d460dc8e90da4fb66df9e", "fusion_lat": 0.0, "type": "electric_bike", "lat": 38.87730233333333, "is_reserved": 0, "is_disabled": 0, "fusion_lon": 0.0, "bike_id": "5f7e94581b0d460dc8e90da4fb66df9e", "lon": -77.11850866666667, "rental_uris": {"ios": "https://dc.lft.to/lastmile_qr_scan", "android": "https://dc.lft.to/lastmile_qr_scan"}}, {"name": "bbfa31547020efb36ea7d237e98d204c", "fusion_lat": 0.0, "type": "electric_scooter", "lat": 38.92767633333333, "is_reserved": 0, "is_disabled": 0, "fusion_lon": 0.0, "bike_id": "bbfa31547020efb36ea7d237e98d204c", "lon": -77.02707733333334, "rental_uris": {"ios": "https://dc.lft.to/lastmile_qr_scan", "android": "https://dc.lft.to/lastmile_qr_scan"}}, {"name": "744627354553ae234744c014f01cd5ae", "fusion_lat": 0.0, "type": "electric_scooter", "lat": 38.899300833333335, "is_reserved": 0, "is_disabled": 0, "fusion_lon": 0.0, "bike_id": "744627354553ae234744c014f01cd5ae", "lon": -77.04657066666667, "rental_uris": {"ios": "https://dc.lft.to/lastmile_qr_scan", "android": "https://dc.lft.to/lastmile_qr_scan"}}, {"name": "7e643af0b996d9d7f1c325707c2ce79b", "fusion_lat": 0.0, "type": "electric_scooter", "lat": 38.89831266666667, "is_reserved": 0, "is_disabled": 0, "fusion_lon": 0.0, "bike_id": "7e643af0b996d9d7f1c325707c2ce79b", "lon": -76.94640633333333, "rental_uris": {"ios": "https://dc.lft.to/lastmile_qr_scan", "android": "https://dc.lft.to/lastmile_qr_scan"}}, {"name": "442ef5aeb347ba8e8a35227a922887dd", "fusion_lat": 0.0, "type": "electric_scooter", "lat": 38.922089, "is_reserved": 0, "is_disabled": 0, "fusion_lon": 0.0, "bike_id": "442ef5aeb347ba8e8a35227a922887dd", "lon": -77.04237966666666, "rental_uris": {"ios": "https://dc.lft.to/lastmile_qr_scan", "android": "https://dc.lft.to/lastmile_qr_scan"}}, {"name": "4f88f5f678c387d3520aa249e8a1c000", "fusion_lat": 0.0, "type": "electric_scooter", "lat": 38.901903833333336, "is_reserved": 0, "is_disabled": 0, "fusion_lon": 0.0, "bike_id": "4f88f5f678c387d3520aa249e8a1c000", "lon": -77.04659033333333, "rental_uris": {"ios": "https://dc.lft.to/lastmile_qr_scan", "android": "https://dc.lft.to/lastmile_qr_scan"}}, {"name": "7e7f93c21220a9afbdc772bebed0af54", "fusion_lat": 0.0, "type": "electric_scooter", "lat": 38.918134, "is_reserved": 0, "is_disabled": 0, "fusion_lon": 0.0, "bike_id": "7e7f93c21220a9afbdc772bebed0af54", "lon": -77.03282783333333, "rental_uris": {"ios": "https://dc.lft.to/lastmile_qr_scan", "android": "https://dc.lft.to/lastmile_qr_scan"}}, {"name": "5d0ec9a4e46c486071eb1d7051713af2", "fusion_lat": 0.0, "type": "electric_scooter", "lat": 38.939474833333335, "is_reserved": 0, "is_disabled": 0, "fusion_lon": 0.0, "bike_id": "5d0ec9a4e46c486071eb1d7051713af2", "lon": -77.03258133333334, "rental_uris": {"ios": "https://dc.lft.to/lastmile_qr_scan", "android": "https://dc.lft.to/lastmile_qr_scan"}}, {"name": "a5ef0debd2796cc7a6c73e991dad857d", "fusion_lat": 0.0, "type": "electric_scooter", "lat": 38.90268966666667, "is_reserved": 0, "is_disabled": 0, "fusion_lon": 0.0, "bike_id": "a5ef0debd2796cc7a6c73e991dad857d", "lon": -77.04068466666666, "rental_uris": {"ios": "https://dc.lft.to/lastmile_qr_scan", "android": "https://dc.lft.to/lastmile_qr_scan"}}, {"name": "89938aad462e09119809a94d9fa82bff", "fusion_lat": 0.0, "type": "electric_bike", "lat": 38.98451033333333, "is_reserved": 0, "is_disabled": 0, "fusion_lon": 0.0, "bike_id": "89938aad462e09119809a94d9fa82bff", "lon": -76.9552705, "rental_uris": {"ios": "https://dc.lft.to/lastmile_qr_scan", "android": "https://dc.lft.to/lastmile_qr_scan"}}, {"name": "be30c2783e0e02753df48f861b97aef8", "fusion_lat": 0.0, "type": "electric_bike", "lat": 38.865947, "is_reserved": 0, "is_disabled": 0, "fusion_lon": 0.0, "bike_id": "be30c2783e0e02753df48f861b97aef8", "lon": -76.932271, "rental_uris": {"ios": "https://dc.lft.to/lastmile_qr_scan", "android": "https://dc.lft.to/lastmile_qr_scan"}}, {"name": "2118db94481cd27d701bd238fcf8408f", "fusion_lat": 0.0, "type": "electric_scooter", "lat": 38.918194166666666, "is_reserved": 0, "is_disabled": 0, "fusion_lon": 0.0, "bike_id": "2118db94481cd27d701bd238fcf8408f", "lon": -77.04520716666667, "rental_uris": {"ios": "https://dc.lft.to/lastmile_qr_scan", "android": "https://dc.lft.to/lastmile_qr_scan"}}, {"name": "3cf9bfa610fb234d6286b0b8c7d64b3b", "fusion_lat": 0.0, "type": "electric_scooter", "lat": 38.917241, "is_reserved": 0, "is_disabled": 0, "fusion_lon": 0.0, "bike_id": "3cf9bfa610fb234d6286b0b8c7d64b3b", "lon": -77.03838633333334, "rental_uris": {"ios": "https://dc.lft.to/lastmile_qr_scan", "android": "https://dc.lft.to/lastmile_qr_scan"}}, {"name": "90ba07520873f43faefb804ef18ebfe6", "fusion_lat": 0.0, "type": "electric_scooter", "lat": 38.9289725, "is_reserved": 0, "is_disabled": 0, "fusion_lon": 0.0, "bike_id": "90ba07520873f43faefb804ef18ebfe6", "lon": -77.054546, "rental_uris": {"ios": "https://dc.lft.to/lastmile_qr_scan", "android": "https://dc.lft.to/lastmile_qr_scan"}}, {"name": "f07d3234dbcae07f6ae9dc635491e5c8", "fusion_lat": 0.0, "type": "electric_bike", "lat": 38.83233333333333, "is_reserved": 0, "is_disabled": 0, "fusion_lon": 0.0, "bike_id": "f07d3234dbcae07f6ae9dc635491e5c8", "lon": -77.00727083333334, "rental_uris": {"ios": "https://dc.lft.to/lastmile_qr_scan", "android": "https://dc.lft.to/lastmile_qr_scan"}}, {"name": "cba1bdcc6f211b30a74f31b2cdd68842", "fusion_lat": 0.0, "type": "electric_scooter", "lat": 38.88320983333333, "is_reserved": 0, "is_disabled": 0, "fusion_lon": 0.0, "bike_id": "cba1bdcc6f211b30a74f31b2cdd68842", "lon": -77.01762033333333, "rental_uris": {"ios": "https://dc.lft.to/lastmile_qr_scan", "android": "https://dc.lft.to/lastmile_qr_scan"}}, {"name": "e2d4c0539bd99a5c57cd2130c281dd2e", "fusion_lat": 0.0, "type": "electric_scooter", "lat": 38.916207666666665, "is_reserved": 0, "is_disabled": 0, "fusion_lon": 0.0, "bike_id": "e2d4c0539bd99a5c57cd2130c281dd2e", "lon": -77.0317135, "rental_uris": {"ios": "https://dc.lft.to/lastmile_qr_scan", "android": "https://dc.lft.to/lastmile_qr_scan"}}, {"name": "31bbfbd558ef9dbfda8087e8e942455a", "fusion_lat": 0.0, "type": "electric_scooter", "lat": 38.88041166666667, "is_reserved": 0, "is_disabled": 0, "fusion_lon": 0.0, "bike_id": "31bbfbd558ef9dbfda8087e8e942455a", "lon": -76.95985916666666, "rental_uris": {"ios": "https://dc.lft.to/lastmile_qr_scan", "android": "https://dc.lft.to/lastmile_qr_scan"}}, {"name": "5bd721de698bd231155e008563afb3df", "fusion_lat": 0.0, "type": "electric_bike", "lat": 38.85219166666667, "is_reserved": 0, "is_disabled": 0, "fusion_lon": 0.0, "bike_id": "5bd721de698bd231155e008563afb3df", "lon": -77.12958183333333, "rental_uris": {"ios": "https://dc.lft.to/lastmile_qr_scan", "android": "https://dc.lft.to/lastmile_qr_scan"}}, {"name": "554f5cedd97776b7c80ea6886f674964", "fusion_lat": 0.0, "type": "electric_scooter", "lat": 38.939467, "is_reserved": 0, "is_disabled": 0, "fusion_lon": 0.0, "bike_id": "554f5cedd97776b7c80ea6886f674964", "lon": -77.03255716666666, "rental_uris": {"ios": "https://dc.lft.to/lastmile_qr_scan", "android": "https://dc.lft.to/lastmile_qr_scan"}}, {"name": "9a4c30e5da788c78bf1e8e5b28a52ef4", "fusion_lat": 0.0, "type": "electric_scooter", "lat": 38.91108116666667, "is_reserved": 0, "is_disabled": 0, "fusion_lon": 0.0, "bike_id": "9a4c30e5da788c78bf1e8e5b28a52ef4", "lon": -77.04232533333334, "rental_uris": {"ios": "https://dc.lft.to/lastmile_qr_scan", "android": "https://dc.lft.to/lastmile_qr_scan"}}, {"name": "5c302960f5422e7d91cef5e7c0ef0108", "fusion_lat": 0.0, "type": "electric_scooter", "lat": 38.9167415, "is_reserved": 0, "is_disabled": 0, "fusion_lon": 0.0, "bike_id": "5c302960f5422e7d91cef5e7c0ef0108", "lon": -77.0296495, "rental_uris": {"ios": "https://dc.lft.to/lastmile_qr_scan", "android": "https://dc.lft.to/lastmile_qr_scan"}}, {"name": "6559ce79561dea41877328ef2f6f828e", "fusion_lat": 0.0, "type": "electric_scooter", "lat": 38.883509333333336, "is_reserved": 0, "is_disabled": 0, "fusion_lon": 0.0, "bike_id": "6559ce79561dea41877328ef2f6f828e", "lon": -76.98544216666667, "rental_uris": {"ios": "https://dc.lft.to/lastmile_qr_scan", "android": "https://dc.lft.to/lastmile_qr_scan"}}, {"name": "41f6c7805b57023914430c99a74012b5", "fusion_lat": 0.0, "type": "electric_scooter", "lat": 38.9228395, "is_reserved": 0, "is_disabled": 0, "fusion_lon": 0.0, "bike_id": "41f6c7805b57023914430c99a74012b5", "lon": -77.04250516666667, "rental_uris": {"ios": "https://dc.lft.to/lastmile_qr_scan", "android": "https://dc.lft.to/lastmile_qr_scan"}}, {"name": "399f8e1b633afca062078dd15db6008f", "fusion_lat": 0.0, "type": "electric_scooter", "lat": 38.92485383333333, "is_reserved": 0, "is_disabled": 0, "fusion_lon": 0.0, "bike_id": "399f8e1b633afca062078dd15db6008f", "lon": -77.02713883333334, "rental_uris": {"ios": "https://dc.lft.to/lastmile_qr_scan", "android": "https://dc.lft.to/lastmile_qr_scan"}}, {"name": "fb1b6c6a245f0d726b3dbd2c51da5fd3", "fusion_lat": 0.0, "type": "electric_scooter", "lat": 38.89882566666667, "is_reserved": 0, "is_disabled": 0, "fusion_lon": 0.0, "bike_id": "fb1b6c6a245f0d726b3dbd2c51da5fd3", "lon": -76.9317285, "rental_uris": {"ios": "https://dc.lft.to/lastmile_qr_scan", "android": "https://dc.lft.to/lastmile_qr_scan"}}, {"name": "38ffd0425e4098e84eb007b89e020097", "fusion_lat": 0.0, "type": "electric_scooter", "lat": 38.90019066666667, "is_reserved": 0, "is_disabled": 0, "fusion_lon": 0.0, "bike_id": "38ffd0425e4098e84eb007b89e020097", "lon": -77.03322083333333, "rental_uris": {"ios": "https://dc.lft.to/lastmile_qr_scan", "android": "https://dc.lft.to/lastmile_qr_scan"}}, {"name": "79344198207131957d81ca429561d7f0", "fusion_lat": 0.0, "type": "electric_scooter", "lat": 38.911188333333335, "is_reserved": 0, "is_disabled": 0, "fusion_lon": 0.0, "bike_id": "79344198207131957d81ca429561d7f0", "lon": -77.03294216666667, "rental_uris": {"ios": "https://dc.lft.to/lastmile_qr_scan", "android": "https://dc.lft.to/lastmile_qr_scan"}}, {"name": "f18943000cf0866c1a1e858a0cf7b883", "fusion_lat": 0.0, "type": "electric_scooter", "lat": 38.910072, "is_reserved": 0, "is_disabled": 0, "fusion_lon": 0.0, "bike_id": "f18943000cf0866c1a1e858a0cf7b883", "lon": -76.99389383333333, "rental_uris": {"ios": "https://dc.lft.to/lastmile_qr_scan", "android": "https://dc.lft.to/lastmile_qr_scan"}}, {"name": "75d055202266ef3f56b507c947a32be7", "fusion_lat": 0.0, "type": "electric_scooter", "lat": 38.90021983333333, "is_reserved": 0, "is_disabled": 0, "fusion_lon": 0.0, "bike_id": "75d055202266ef3f56b507c947a32be7", "lon": -77.01119966666667, "rental_uris": {"ios": "https://dc.lft.to/lastmile_qr_scan", "android": "https://dc.lft.to/lastmile_qr_scan"}}, {"name": "0623cd93da58a79bb3e3911e9c46764f", "fusion_lat": 0.0, "type": "electric_scooter", "lat": 38.86659, "is_reserved": 0, "is_disabled": 0, "fusion_lon": 0.0, "bike_id": "0623cd93da58a79bb3e3911e9c46764f", "lon": -76.98888516666666, "rental_uris": {"ios": "https://dc.lft.to/lastmile_qr_scan", "android": "https://dc.lft.to/lastmile_qr_scan"}}, {"name": "0df77d3eae30c6740a96178872732bb1", "fusion_lat": 0.0, "type": "electric_scooter", "lat": 38.924787333333335, "is_reserved": 0, "is_disabled": 0, "fusion_lon": 0.0, "bike_id": "0df77d3eae30c6740a96178872732bb1", "lon": -77.028983, "rental_uris": {"ios": "https://dc.lft.to/lastmile_qr_scan", "android": "https://dc.lft.to/lastmile_qr_scan"}}, {"name": "b8a2030100bd18ded5deb1af28403be9", "fusion_lat": 0.0, "type": "electric_scooter", "lat": 38.91106966666667, "is_reserved": 0, "is_disabled": 0, "fusion_lon": 0.0, "bike_id": "b8a2030100bd18ded5deb1af28403be9", "lon": -77.011832, "rental_uris": {"ios": "https://dc.lft.to/lastmile_qr_scan", "android": "https://dc.lft.to/lastmile_qr_scan"}}, {"name": "5f5f6a124c97551cec595727c9be19bb", "fusion_lat": 0.0, "type": "electric_scooter", "lat": 38.90374683333334, "is_reserved": 0, "is_disabled": 0, "fusion_lon": 0.0, "bike_id": "5f5f6a124c97551cec595727c9be19bb", "lon": -77.04502066666667, "rental_uris": {"ios": "https://dc.lft.to/lastmile_qr_scan", "android": "https://dc.lft.to/lastmile_qr_scan"}}, {"name": "a8800814e2612b54bca2e863036ec63e", "fusion_lat": 0.0, "type": "electric_scooter", "lat": 38.90254266666667, "is_reserved": 0, "is_disabled": 0, "fusion_lon": 0.0, "bike_id": "a8800814e2612b54bca2e863036ec63e", "lon": -77.045941, "rental_uris": {"ios": "https://dc.lft.to/lastmile_qr_scan", "android": "https://dc.lft.to/lastmile_qr_scan"}}, {"name": "f14a67411b68ec2dff8dee7cb5563d1b", "fusion_lat": 0.0, "type": "electric_scooter", "lat": 38.8961575, "is_reserved": 0, "is_disabled": 0, "fusion_lon": 0.0, "bike_id": "f14a67411b68ec2dff8dee7cb5563d1b", "lon": -77.01021366666667, "rental_uris": {"ios": "https://dc.lft.to/lastmile_qr_scan", "android": "https://dc.lft.to/lastmile_qr_scan"}}, {"name": "37158d623102687729004786969bae03", "fusion_lat": 0.0, "type": "electric_scooter", "lat": 38.924996666666665, "is_reserved": 0, "is_disabled": 0, "fusion_lon": 0.0, "bike_id": "37158d623102687729004786969bae03", "lon": -77.03876633333333, "rental_uris": {"ios": "https://dc.lft.to/lastmile_qr_scan", "android": "https://dc.lft.to/lastmile_qr_scan"}}, {"name": "a031ed1b1422ef3b04c3db00b1fab89a", "fusion_lat": 0.0, "type": "electric_scooter", "lat": 38.905219333333335, "is_reserved": 0, "is_disabled": 0, "fusion_lon": 0.0, "bike_id": "a031ed1b1422ef3b04c3db00b1fab89a", "lon": -77.06629783333334, "rental_uris": {"ios": "https://dc.lft.to/lastmile_qr_scan", "android": "https://dc.lft.to/lastmile_qr_scan"}}, {"name": "94d246fabbd3daea984b5e47860754f5", "fusion_lat": 0.0, "type": "electric_scooter", "lat": 38.911033333333336, "is_reserved": 0, "is_disabled": 0, "fusion_lon": 0.0, "bike_id": "94d246fabbd3daea984b5e47860754f5", "lon": -77.04223333333333, "rental_uris": {"ios": "https://dc.lft.to/lastmile_qr_scan", "android": "https://dc.lft.to/lastmile_qr_scan"}}, {"name": "7b58acf7e71d0d4fd9803e592549f2ab", "fusion_lat": 0.0, "type": "electric_scooter", "lat": 38.9154565, "is_reserved": 0, "is_disabled": 0, "fusion_lon": 0.0, "bike_id": "7b58acf7e71d0d4fd9803e592549f2ab", "lon": -77.0244765, "rental_uris": {"ios": "https://dc.lft.to/lastmile_qr_scan", "android": "https://dc.lft.to/lastmile_qr_scan"}}, {"name": "3d8d619c0d83f1fd6ebfab10f6472db2", "fusion_lat": 0.0, "type": "electric_scooter", "lat": 38.9026755, "is_reserved": 0, "is_disabled": 0, "fusion_lon": 0.0, "bike_id": "3d8d619c0d83f1fd6ebfab10f6472db2", "lon": -77.03055666666667, "rental_uris": {"ios": "https://dc.lft.to/lastmile_qr_scan", "android": "https://dc.lft.to/lastmile_qr_scan"}}, {"name": "44d8d6c593651785586aef11d180b2f3", "fusion_lat": 0.0, "type": "electric_scooter", "lat": 38.88867833333333, "is_reserved": 0, "is_disabled": 0, "fusion_lon": 0.0, "bike_id": "44d8d6c593651785586aef11d180b2f3", "lon": -77.03024566666667, "rental_uris": {"ios": "https://dc.lft.to/lastmile_qr_scan", "android": "https://dc.lft.to/lastmile_qr_scan"}}, {"name": "363f5c9330273552b15ac9f682127dc0", "fusion_lat": 0.0, "type": "electric_bike", "lat": 38.94271283333333, "is_reserved": 0, "is_disabled": 0, "fusion_lon": 0.0, "bike_id": "363f5c9330273552b15ac9f682127dc0", "lon": -76.98072566666667, "rental_uris": {"ios": "https://dc.lft.to/lastmile_qr_scan", "android": "https://dc.lft.to/lastmile_qr_scan"}}, {"name": "4bbb493a598c7aea32988f77360b95cd", "fusion_lat": 0.0, "type": "electric_scooter", "lat": 38.93605933333333, "is_reserved": 0, "is_disabled": 0, "fusion_lon": 0.0, "bike_id": "4bbb493a598c7aea32988f77360b95cd", "lon": -77.05865883333334, "rental_uris": {"ios": "https://dc.lft.to/lastmile_qr_scan", "android": "https://dc.lft.to/lastmile_qr_scan"}}, {"name": "b6b96ffe4f4d23654ac420fc84c6aeee", "fusion_lat": 0.0, "type": "electric_scooter", "lat": 38.90148933333333, "is_reserved": 0, "is_disabled": 0, "fusion_lon": 0.0, "bike_id": "b6b96ffe4f4d23654ac420fc84c6aeee", "lon": -76.93066783333333, "rental_uris": {"ios": "https://dc.lft.to/lastmile_qr_scan", "android": "https://dc.lft.to/lastmile_qr_scan"}}, {"name": "758f2bb04cfc432c4a5bbde7a40338d8", "fusion_lat": 0.0, "type": "electric_scooter", "lat": 38.92233866666667, "is_reserved": 0, "is_disabled": 0, "fusion_lon": 0.0, "bike_id": "758f2bb04cfc432c4a5bbde7a40338d8", "lon": -77.03349316666667, "rental_uris": {"ios": "https://dc.lft.to/lastmile_qr_scan", "android": "https://dc.lft.to/lastmile_qr_scan"}}, {"name": "4ba8505eb394a7e9006b8f131ba65a5c", "fusion_lat": 0.0, "type": "electric_scooter", "lat": 38.89530416666667, "is_reserved": 0, "is_disabled": 0, "fusion_lon": 0.0, "bike_id": "4ba8505eb394a7e9006b8f131ba65a5c", "lon": -77.04646183333334, "rental_uris": {"ios": "https://dc.lft.to/lastmile_qr_scan", "android": "https://dc.lft.to/lastmile_qr_scan"}}, {"name": "071a843020fb1c109bc2c4f6c5c79fc2", "fusion_lat": 0.0, "type": "electric_scooter", "lat": 38.92523416666667, "is_reserved": 0, "is_disabled": 0, "fusion_lon": 0.0, "bike_id": "071a843020fb1c109bc2c4f6c5c79fc2", "lon": -77.055528, "rental_uris": {"ios": "https://dc.lft.to/lastmile_qr_scan", "android": "https://dc.lft.to/lastmile_qr_scan"}}, {"name": "8da64ab661420245f1d3247250acfb79", "fusion_lat": 0.0, "type": "electric_bike", "lat": 38.83807483333333, "is_reserved": 0, "is_disabled": 0, "fusion_lon": 0.0, "bike_id": "8da64ab661420245f1d3247250acfb79", "lon": -77.095233, "rental_uris": {"ios": "https://dc.lft.to/lastmile_qr_scan", "android": "https://dc.lft.to/lastmile_qr_scan"}}, {"name": "6fdbda2742d2005cb31ce2bede0cfca9", "fusion_lat": 0.0, "type": "electric_scooter", "lat": 38.89400966666667, "is_reserved": 0, "is_disabled": 0, "fusion_lon": 0.0, "bike_id": "6fdbda2742d2005cb31ce2bede0cfca9", "lon": -76.94796116666667, "rental_uris": {"ios": "https://dc.lft.to/lastmile_qr_scan", "android": "https://dc.lft.to/lastmile_qr_scan"}}, {"name": "a182c05a109a0c697cdf47b2fb91beee", "fusion_lat": 0.0, "type": "electric_scooter", "lat": 38.857101166666666, "is_reserved": 0, "is_disabled": 0, "fusion_lon": 0.0, "bike_id": "a182c05a109a0c697cdf47b2fb91beee", "lon": -76.9813485, "rental_uris": {"ios": "https://dc.lft.to/lastmile_qr_scan", "android": "https://dc.lft.to/lastmile_qr_scan"}}, {"name": "0c5c493a33b68e0c2894ab3f7718e9dd", "fusion_lat": 0.0, "type": "electric_scooter", "lat": 38.92234083333334, "is_reserved": 0, "is_disabled": 0, "fusion_lon": 0.0, "bike_id": "0c5c493a33b68e0c2894ab3f7718e9dd", "lon": -77.04240916666667, "rental_uris": {"ios": "https://dc.lft.to/lastmile_qr_scan", "android": "https://dc.lft.to/lastmile_qr_scan"}}, {"name": "5e6ca3f4b86df8f66875ab0c6eacbc34", "fusion_lat": 0.0, "type": "electric_scooter", "lat": 38.9332785, "is_reserved": 0, "is_disabled": 0, "fusion_lon": 0.0, "bike_id": "5e6ca3f4b86df8f66875ab0c6eacbc34", "lon": -77.03260566666667, "rental_uris": {"ios": "https://dc.lft.to/lastmile_qr_scan", "android": "https://dc.lft.to/lastmile_qr_scan"}}, {"name": "23577d38b707447d8381bdcd55351007", "fusion_lat": 0.0, "type": "electric_scooter", "lat": 38.922712833333335, "is_reserved": 0, "is_disabled": 0, "fusion_lon": 0.0, "bike_id": "23577d38b707447d8381bdcd55351007", "lon": -77.04240916666667, "rental_uris": {"ios": "https://dc.lft.to/lastmile_qr_scan", "android": "https://dc.lft.to/lastmile_qr_scan"}}, {"name": "8b0e49d3ab812da727ee4c831873c387", "fusion_lat": 0.0, "type": "electric_scooter", "lat": 38.935729333333335, "is_reserved": 0, "is_disabled": 0, "fusion_lon": 0.0, "bike_id": "8b0e49d3ab812da727ee4c831873c387", "lon": -76.99098916666667, "rental_uris": {"ios": "https://dc.lft.to/lastmile_qr_scan", "android": "https://dc.lft.to/lastmile_qr_scan"}}, {"name": "24de273c25f738dd910ad52a4f4be687", "fusion_lat": 0.0, "type": "electric_scooter", "lat": 38.88427933333333, "is_reserved": 0, "is_disabled": 0, "fusion_lon": 0.0, "bike_id": "24de273c25f738dd910ad52a4f4be687", "lon": -76.9575675, "rental_uris": {"ios": "https://dc.lft.to/lastmile_qr_scan", "android": "https://dc.lft.to/lastmile_qr_scan"}}, {"name": "26d49cce450fc7d5ba6ffdb61d7e60b9", "fusion_lat": 0.0, "type": "electric_scooter", "lat": 38.91514433333333, "is_reserved": 0, "is_disabled": 0, "fusion_lon": 0.0, "bike_id": "26d49cce450fc7d5ba6ffdb61d7e60b9", "lon": -77.0449045, "rental_uris": {"ios": "https://dc.lft.to/lastmile_qr_scan", "android": "https://dc.lft.to/lastmile_qr_scan"}}, {"name": "271d030318a054b9df041fc601a702be", "fusion_lat": 0.0, "type": "electric_scooter", "lat": 38.904871, "is_reserved": 0, "is_disabled": 0, "fusion_lon": 0.0, "bike_id": "271d030318a054b9df041fc601a702be", "lon": -77.04187866666666, "rental_uris": {"ios": "https://dc.lft.to/lastmile_qr_scan", "android": "https://dc.lft.to/lastmile_qr_scan"}}, {"name": "cdcbd1e4d06393fb5e54b4418cadb89c", "fusion_lat": 0.0, "type": "electric_scooter", "lat": 38.9140625, "is_reserved": 0, "is_disabled": 0, "fusion_lon": 0.0, "bike_id": "cdcbd1e4d06393fb5e54b4418cadb89c", "lon": -77.04571483333334, "rental_uris": {"ios": "https://dc.lft.to/lastmile_qr_scan", "android": "https://dc.lft.to/lastmile_qr_scan"}}, {"name": "2b8c9d11dbd6a359f8d5377572e72d57", "fusion_lat": 0.0, "type": "electric_scooter", "lat": 38.902431, "is_reserved": 0, "is_disabled": 0, "fusion_lon": 0.0, "bike_id": "2b8c9d11dbd6a359f8d5377572e72d57", "lon": -77.0025195, "rental_uris": {"ios": "https://dc.lft.to/lastmile_qr_scan", "android": "https://dc.lft.to/lastmile_qr_scan"}}, {"name": "7dc2214b00393740a875c1b6908dd5cc", "fusion_lat": 0.0, "type": "electric_scooter", "lat": 38.89966, "is_reserved": 0, "is_disabled": 0, "fusion_lon": 0.0, "bike_id": "7dc2214b00393740a875c1b6908dd5cc", "lon": -77.034042, "rental_uris": {"ios": "https://dc.lft.to/lastmile_qr_scan", "android": "https://dc.lft.to/lastmile_qr_scan"}}, {"name": "a0fdee07273c469b6d20538620fefc80", "fusion_lat": 0.0, "type": "electric_scooter", "lat": 38.92479083333333, "is_reserved": 0, "is_disabled": 0, "fusion_lon": 0.0, "bike_id": "a0fdee07273c469b6d20538620fefc80", "lon": -77.02998666666667, "rental_uris": {"ios": "https://dc.lft.to/lastmile_qr_scan", "android": "https://dc.lft.to/lastmile_qr_scan"}}, {"name": "7b117e2b74ec53bbdd01245ba61c4acd", "fusion_lat": 0.0, "type": "electric_scooter", "lat": 38.92311616666667, "is_reserved": 0, "is_disabled": 0, "fusion_lon": 0.0, "bike_id": "7b117e2b74ec53bbdd01245ba61c4acd", "lon": -77.03528716666666, "rental_uris": {"ios": "https://dc.lft.to/lastmile_qr_scan", "android": "https://dc.lft.to/lastmile_qr_scan"}}, {"name": "6d60acda71e2fd4321a062d4494e5aa0", "fusion_lat": 0.0, "type": "electric_scooter", "lat": 38.885797833333335, "is_reserved": 0, "is_disabled": 0, "fusion_lon": 0.0, "bike_id": "6d60acda71e2fd4321a062d4494e5aa0", "lon": -76.994982, "rental_uris": {"ios": "https://dc.lft.to/lastmile_qr_scan", "android": "https://dc.lft.to/lastmile_qr_scan"}}, {"name": "9240dfd7e80c25533eefc7a9e7e7d8a6", "fusion_lat": 0.0, "type": "electric_scooter", "lat": 38.927533, "is_reserved": 0, "is_disabled": 0, "fusion_lon": 0.0, "bike_id": "9240dfd7e80c25533eefc7a9e7e7d8a6", "lon": -77.023076, "rental_uris": {"ios": "https://dc.lft.to/lastmile_qr_scan", "android": "https://dc.lft.to/lastmile_qr_scan"}}, {"name": "fb122942daf8be28a7f4aefa7128dfe3", "fusion_lat": 0.0, "type": "electric_scooter", "lat": 38.907764, "is_reserved": 0, "is_disabled": 0, "fusion_lon": 0.0, "bike_id": "fb122942daf8be28a7f4aefa7128dfe3", "lon": -77.0716465, "rental_uris": {"ios": "https://dc.lft.to/lastmile_qr_scan", "android": "https://dc.lft.to/lastmile_qr_scan"}}, {"name": "1a7d1b3d2fbc64eb1ef969931cae3239", "fusion_lat": 0.0, "type": "electric_scooter", "lat": 38.91601683333333, "is_reserved": 0, "is_disabled": 0, "fusion_lon": 0.0, "bike_id": "1a7d1b3d2fbc64eb1ef969931cae3239", "lon": -77.04264316666666, "rental_uris": {"ios": "https://dc.lft.to/lastmile_qr_scan", "android": "https://dc.lft.to/lastmile_qr_scan"}}, {"name": "42921698261f8e3da5469afa2fe6365a", "fusion_lat": 0.0, "type": "electric_scooter", "lat": 38.928309666666664, "is_reserved": 0, "is_disabled": 0, "fusion_lon": 0.0, "bike_id": "42921698261f8e3da5469afa2fe6365a", "lon": -77.01386966666666, "rental_uris": {"ios": "https://dc.lft.to/lastmile_qr_scan", "android": "https://dc.lft.to/lastmile_qr_scan"}}, {"name": "dd868170229138c23baa522b904c051e", "fusion_lat": 0.0, "type": "electric_scooter", "lat": 38.868233833333335, "is_reserved": 0, "is_disabled": 0, "fusion_lon": 0.0, "bike_id": "dd868170229138c23baa522b904c051e", "lon": -76.98616966666667, "rental_uris": {"ios": "https://dc.lft.to/lastmile_qr_scan", "android": "https://dc.lft.to/lastmile_qr_scan"}}, {"name": "cbf7bd40fbe5e8f9768a2d01bab53663", "fusion_lat": 0.0, "type": "electric_scooter", "lat": 38.8429025, "is_reserved": 0, "is_disabled": 0, "fusion_lon": 0.0, "bike_id": "cbf7bd40fbe5e8f9768a2d01bab53663", "lon": -76.99942933333334, "rental_uris": {"ios": "https://dc.lft.to/lastmile_qr_scan", "android": "https://dc.lft.to/lastmile_qr_scan"}}, {"name": "432ea348007fbfd8c132ee3c8bfc9161", "fusion_lat": 0.0, "type": "electric_scooter", "lat": 38.90666233333334, "is_reserved": 0, "is_disabled": 0, "fusion_lon": 0.0, "bike_id": "432ea348007fbfd8c132ee3c8bfc9161", "lon": -77.00611483333333, "rental_uris": {"ios": "https://dc.lft.to/lastmile_qr_scan", "android": "https://dc.lft.to/lastmile_qr_scan"}}, {"name": "c9d0f60e0c1859669be847673d3c2b1e", "fusion_lat": 0.0, "type": "electric_scooter", "lat": 38.912134, "is_reserved": 0, "is_disabled": 0, "fusion_lon": 0.0, "bike_id": "c9d0f60e0c1859669be847673d3c2b1e", "lon": -77.07587633333333, "rental_uris": {"ios": "https://dc.lft.to/lastmile_qr_scan", "android": "https://dc.lft.to/lastmile_qr_scan"}}, {"name": "c2176e25e9f3a7bc2ab89b70118cbfb3", "fusion_lat": 0.0, "type": "electric_bike", "lat": 38.90684316666667, "is_reserved": 0, "is_disabled": 0, "fusion_lon": 0.0, "bike_id": "c2176e25e9f3a7bc2ab89b70118cbfb3", "lon": -77.0562415, "rental_uris": {"ios": "https://dc.lft.to/lastmile_qr_scan", "android": "https://dc.lft.to/lastmile_qr_scan"}}, {"name": "230b561935d54f5c874c73b4142f1a3d", "fusion_lat": 0.0, "type": "electric_scooter", "lat": 38.910006, "is_reserved": 0, "is_disabled": 0, "fusion_lon": 0.0, "bike_id": "230b561935d54f5c874c73b4142f1a3d", "lon": -76.99409133333333, "rental_uris": {"ios": "https://dc.lft.to/lastmile_qr_scan", "android": "https://dc.lft.to/lastmile_qr_scan"}}, {"name": "01b35de1882bdd96244dbe1da42737c0", "fusion_lat": 0.0, "type": "electric_scooter", "lat": 38.934844, "is_reserved": 0, "is_disabled": 0, "fusion_lon": 0.0, "bike_id": "01b35de1882bdd96244dbe1da42737c0", "lon": -77.0329315, "rental_uris": {"ios": "https://dc.lft.to/lastmile_qr_scan", "android": "https://dc.lft.to/lastmile_qr_scan"}}, {"name": "bf58d0760ea74dcf18fa69bae2f02f0a", "fusion_lat": 0.0, "type": "electric_scooter", "lat": 38.89866516666667, "is_reserved": 0, "is_disabled": 0, "fusion_lon": 0.0, "bike_id": "bf58d0760ea74dcf18fa69bae2f02f0a", "lon": -77.03178, "rental_uris": {"ios": "https://dc.lft.to/lastmile_qr_scan", "android": "https://dc.lft.to/lastmile_qr_scan"}}, {"name": "90315e92a082dd468cab587740cd165c", "fusion_lat": 0.0, "type": "electric_scooter", "lat": 38.85613266666667, "is_reserved": 0, "is_disabled": 0, "fusion_lon": 0.0, "bike_id": "90315e92a082dd468cab587740cd165c", "lon": -76.98022816666666, "rental_uris": {"ios": "https://dc.lft.to/lastmile_qr_scan", "android": "https://dc.lft.to/lastmile_qr_scan"}}, {"name": "9206cb43792e13128b986efe2ae44b00", "fusion_lat": 0.0, "type": "electric_scooter", "lat": 38.91268183333333, "is_reserved": 0, "is_disabled": 0, "fusion_lon": 0.0, "bike_id": "9206cb43792e13128b986efe2ae44b00", "lon": -77.06084066666666, "rental_uris": {"ios": "https://dc.lft.to/lastmile_qr_scan", "android": "https://dc.lft.to/lastmile_qr_scan"}}, {"name": "e1f2a819a0d7f593dfb0294e5cd0532b", "fusion_lat": 0.0, "type": "electric_scooter", "lat": 38.91674016666666, "is_reserved": 0, "is_disabled": 0, "fusion_lon": 0.0, "bike_id": "e1f2a819a0d7f593dfb0294e5cd0532b", "lon": -77.02976483333333, "rental_uris": {"ios": "https://dc.lft.to/lastmile_qr_scan", "android": "https://dc.lft.to/lastmile_qr_scan"}}, {"name": "626d842d9bdd62003104eb118c708db3", "fusion_lat": 0.0, "type": "electric_scooter", "lat": 38.89583533333333, "is_reserved": 0, "is_disabled": 0, "fusion_lon": 0.0, "bike_id": "626d842d9bdd62003104eb118c708db3", "lon": -76.93720383333333, "rental_uris": {"ios": "https://dc.lft.to/lastmile_qr_scan", "android": "https://dc.lft.to/lastmile_qr_scan"}}, {"name": "d6890947c2dd6d3297e52b7c22a5e8b6", "fusion_lat": 0.0, "type": "electric_scooter", "lat": 38.90971416666667, "is_reserved": 0, "is_disabled": 0, "fusion_lon": 0.0, "bike_id": "d6890947c2dd6d3297e52b7c22a5e8b6", "lon": -77.04550566666667, "rental_uris": {"ios": "https://dc.lft.to/lastmile_qr_scan", "android": "https://dc.lft.to/lastmile_qr_scan"}}, {"name": "765559da9c592f549197d933775a8fe8", "fusion_lat": 0.0, "type": "electric_scooter", "lat": 38.904442, "is_reserved": 0, "is_disabled": 0, "fusion_lon": 0.0, "bike_id": "765559da9c592f549197d933775a8fe8", "lon": -76.996216, "rental_uris": {"ios": "https://dc.lft.to/lastmile_qr_scan", "android": "https://dc.lft.to/lastmile_qr_scan"}}, {"name": "ab6764d40aa60ac66864200f2cdc0883", "fusion_lat": 0.0, "type": "electric_scooter", "lat": 38.903357666666665, "is_reserved": 0, "is_disabled": 0, "fusion_lon": 0.0, "bike_id": "ab6764d40aa60ac66864200f2cdc0883", "lon": -77.0346855, "rental_uris": {"ios": "https://dc.lft.to/lastmile_qr_scan", "android": "https://dc.lft.to/lastmile_qr_scan"}}, {"name": "732a530f0d14f511e700fc0e9eaeebb4", "fusion_lat": 0.0, "type": "electric_scooter", "lat": 38.9181975, "is_reserved": 0, "is_disabled": 0, "fusion_lon": 0.0, "bike_id": "732a530f0d14f511e700fc0e9eaeebb4", "lon": -77.01207883333333, "rental_uris": {"ios": "https://dc.lft.to/lastmile_qr_scan", "android": "https://dc.lft.to/lastmile_qr_scan"}},