{"data": {"bikes": [{"bike_id": "0416edc5c09a6010f58f0de5872eb875", "is_reserved": 0, "fusion_lon": 0.0, "lat": 38.89604766666667, "is_disabled": 0, "name": "0416edc5c09a6010f58f0de5872eb875", "fusion_lat": 0.0, "rental_uris": {"ios": "https://dc.lft.to/lastmile_qr_scan", "android": "https://dc.lft.to/lastmile_qr_scan"}, "lon": -77.04591383333333, "type": "electric_scooter"}, {"bike_id": "b08f9b7ce1104e7feb422013b162524a", "is_reserved": 0, "fusion_lon": 0.0, "lat": 38.928491333333334, "is_disabled": 0, "name": "b08f9b7ce1104e7feb422013b162524a", "fusion_lat": 0.0, "rental_uris": {"ios": "https://dc.lft.to/lastmile_qr_scan", "android": "https://dc.lft.to/lastmile_qr_scan"}, "lon": -77.05430366666667, "type": "electric_scooter"}, {"bike_id": "e4783247e04c1356834b079d91465351", "is_reserved": 0, "fusion_lon": 0.0, "lat": 38.923259, "is_disabled": 0, "name": "e4783247e04c1356834b079d91465351", "fusion_lat": 0.0, "rental_uris": {"ios": "https://dc.lft.to/lastmile_qr_scan", "android": "https://dc.lft.to/lastmile_qr_scan"}, "lon": -77.044866, "type": "electric_scooter"}, {"bike_id": "c6a636630c9378c572e4cbac1097c5a4", "is_reserved": 0, "fusion_lon": 0.0, "lat": 38.92329733333333, "is_disabled": 0, "name": "c6a636630c9378c572e4cbac1097c5a4", "fusion_lat": 0.0, "rental_uris": {"ios": "https://dc.lft.to/lastmile_qr_scan", "android": "https://dc.lft.to/lastmile_qr_scan"}, "lon": -77.038975, "type": "electric_scooter"}, {"bike_id": "0d92c2aeb1fafc813a53ae8cd2f43ec2", "is_reserved": 0, "fusion_lon": 0.0, "lat": 38.861661833333336, "is_disabled": 0, "name": "0d92c2aeb1fafc813a53ae8cd2f43ec2", "fusion_lat": 0.0, "rental_uris": {"ios": "https://dc.lft.to/lastmile_qr_scan", "android": "https://dc.lft.to/lastmile_qr_scan"}, "lon": -76.95066883333334, "type": "electric_bike"}, {"bike_id": "90b3d9a3ab8671a329a6bcaccf38100b", "is_reserved": 0, "fusion_lon": 0.0, "lat": 38.903219666666665, "is_disabled": 0, "name": "90b3d9a3ab8671a329a6bcaccf38100b", "fusion_lat": 0.0, "rental_uris": {"ios": "https://dc.lft.to/lastmile_qr_scan", "android": "https://dc.lft.to/lastmile_qr_scan"}, "lon": -77.04355166666667, "type": "electric_scooter"}, {"bike_id": "67795225d0f23c1d1698e59dbf1835dd", "is_reserved": 0, "fusion_lon": 0.0, "lat": 38.895579, "is_disabled": 0, "name": "67795225d0f23c1d1698e59dbf1835dd", "fusion_lat": 0.0, "rental_uris": {"ios": "https://dc.lft.to/lastmile_qr_scan", "android": "https://dc.lft.to/lastmile_qr_scan"}, "lon": -77.04677283333334, "type": "electric_scooter"}, {"bike_id": "cf8941895fe76281e3de72f9991789e5", "is_reserved": 0, "fusion_lon": 0.0, "lat": 38.921921166666664, "is_disabled": 0, "name": "cf8941895fe76281e3de72f9991789e5", "fusion_lat": 0.0, "rental_uris": {"ios": "https://dc.lft.to/lastmile_qr_scan", "android": "https://dc.lft.to/lastmile_qr_scan"}, "lon": -77.04129266666666, "type": "electric_scooter"}, {"bike_id": "1447eed90e4da60aef58dbcea209f3f3", "is_reserved": 0, "fusion_lon": 0.0, "lat": 38.919915, "is_disabled": 0, "name": "1447eed90e4da60aef58dbcea209f3f3", "fusion_lat": 0.0, "rental_uris": {"ios": "https://dc.lft.to/lastmile_qr_scan", "android": "https://dc.lft.to/lastmile_qr_scan"}, "lon": -77.03228166666666, "type": "electric_scooter"}, {"bike_id": "a1dcafb3167b3d32090c7aa69156e93f", "is_reserved": 0, "fusion_lon": 0.0, "lat": 38.901397833333334, "is_disabled": 0, "name": "a1dcafb3167b3d32090c7aa69156e93f", "fusion_lat": 0.0, "rental_uris": {"ios": "https://dc.lft.to/lastmile_qr_scan", "android": "https://dc.lft.to/lastmile_qr_scan"}, "lon": -77.0446435, "type": "electric_scooter"}, {"bike_id": "3e48e7687bb7fe9343b9cb8964a6b379", "is_reserved": 0, "fusion_lon": 0.0, "lat": 38.90454833333333, "is_disabled": 0, "name": "3e48e7687bb7fe9343b9cb8964a6b379", "fusion_lat": 0.0, "rental_uris": {"ios": "https://dc.lft.to/lastmile_qr_scan", "android": "https://dc.lft.to/lastmile_qr_scan"}, "lon": -77.05337, "type": "electric_scooter"}, {"bike_id": "c6cf558adff75d80d5187d57fa0e6611", "is_reserved": 0, "fusion_lon": 0.0, "lat": 38.861206333333335, "is_disabled": 0, "name": "c6cf558adff75d80d5187d57fa0e6611", "fusion_lat": 0.0, "rental_uris": {"ios": "https://dc.lft.to/lastmile_qr_scan", "android": "https://dc.lft.to/lastmile_qr_scan"}, "lon": -76.967711, "type": "electric_scooter"}, {"bike_id": "e4f7127fc2042e937f40d1e8e5104071", "is_reserved": 0, "fusion_lon": 0.0, "lat": 38.896616, "is_disabled": 0, "name": "e4f7127fc2042e937f40d1e8e5104071", "fusion_lat": 0.0, "rental_uris": {"ios": "https://dc.lft.to/lastmile_qr_scan", "android": "https://dc.lft.to/lastmile_qr_scan"}, "lon": -77.02949333333333, "type": "electric_scooter"}, {"bike_id": "1e9c356d6fafa156e15a82dbc4bf4966", "is_reserved": 0, "fusion_lon": 0.0, "lat": 38.93403083333333, "is_disabled": 0, "name": "1e9c356d6fafa156e15a82dbc4bf4966", "fusion_lat": 0.0, "rental_uris": {"ios": "https://dc.lft.to/lastmile_qr_scan", "android": "https://dc.lft.to/lastmile_qr_scan"}, "lon": -77.02722483333334, "type": "electric_scooter"}, {"bike_id": "ac3a16ae2744333fa409aff8f177f987", "is_reserved": 0, "fusion_lon": 0.0, "lat": 38.90514666666667, "is_disabled": 0, "name": "ac3a16ae2744333fa409aff8f177f987", "fusion_lat": 0.0, "rental_uris": {"ios": "https://dc.lft.to/lastmile_qr_scan", "android": "https://dc.lft.to/lastmile_qr_scan"}, "lon": -77.06387033333333, "type": "electric_scooter"}, {"bike_id": "2eec53d51c2e90305ba86f68c5799517", "is_reserved": 0, "fusion_lon": 0.0, "lat": 38.89771983333333, "is_disabled": 0, "name": "2eec53d51c2e90305ba86f68c5799517", "fusion_lat": 0.0, "rental_uris": {"ios": "https://dc.lft.to/lastmile_qr_scan", "android": "https://dc.lft.to/lastmile_qr_scan"}, "lon": -77.031847, "type": "electric_scooter"}, {"bike_id": "659b874ac85da8d198576f7778e66810", "is_reserved": 0, "fusion_lon": 0.0, "lat": 38.916958, "is_disabled": 0, "name": "659b874ac85da8d198576f7778e66810", "fusion_lat": 0.0, "rental_uris": {"ios": "https://dc.lft.to/lastmile_qr_scan", "android": "https://dc.lft.to/lastmile_qr_scan"}, "lon": -77.03330966666667, "type": "electric_scooter"}, {"bike_id": "f5cdf716fa6a8cc59deb2d03b59b4918", "is_reserved": 0, "fusion_lon": 0.0, "lat": 38.91008433333333, "is_disabled": 0, "name": "f5cdf716fa6a8cc59deb2d03b59b4918", "fusion_lat": 0.0, "rental_uris": {"ios": "https://dc.lft.to/lastmile_qr_scan", "android": "https://dc.lft.to/lastmile_qr_scan"}, "lon": -76.993866, "type": "electric_scooter"}, {"bike_id": "8293da4ff5edecc32b7eed29e54c25fe", "is_reserved": 0, "fusion_lon": 0.0, "lat": 38.92362683333333, "is_disabled": 0, "name": "8293da4ff5edecc32b7eed29e54c25fe", "fusion_lat": 0.0, "rental_uris": {"ios": "https://dc.lft.to/lastmile_qr_scan", "android": "https://dc.lft.to/lastmile_qr_scan"}, "lon": -77.05131433333334, "type": "electric_scooter"}, {"bike_id": "aefbbec141fed4a39ad8d7ffcbe92fa7", "is_reserved": 0, "fusion_lon": 0.0, "lat": 38.90019233333334, "is_disabled": 0, "name": "aefbbec141fed4a39ad8d7ffcbe92fa7", "fusion_lat": 0.0, "rental_uris": {"ios": "https://dc.lft.to/lastmile_qr_scan", "android": "https://dc.lft.to/lastmile_qr_scan"}, "lon": -76.988729, "type": "electric_scooter"}, {"bike_id": "acef09e68a464abadcfae918fb45b8b0", "is_reserved": 0, "fusion_lon": 0.0, "lat": 38.92055333333333, "is_disabled": 0, "name": "acef09e68a464abadcfae918fb45b8b0", "fusion_lat": 0.0, "rental_uris": {"ios": "https://dc.lft.to/lastmile_qr_scan", "android": "https://dc.lft.to/lastmile_qr_scan"}, "lon": -76.97800466666666, "type": "electric_scooter"}, {"bike_id": "9baf3bb4f3cdf2e61410916e818db8a3", "is_reserved": 0, "fusion_lon": 0.0, "lat": 38.90588233333333, "is_disabled": 0, "name": "9baf3bb4f3cdf2e61410916e818db8a3", "fusion_lat": 0.0, "rental_uris": {"ios": "https://dc.lft.to/lastmile_qr_scan", "android": "https://dc.lft.to/lastmile_qr_scan"}, "lon": -77.0652125, "type": "electric_scooter"}, {"bike_id": "ac68a2553a075a03ec0273cea433b46f", "is_reserved": 0, "fusion_lon": 0.0, "lat": 38.91873566666666, "is_disabled": 0, "name": "ac68a2553a075a03ec0273cea433b46f", "fusion_lat": 0.0, "rental_uris": {"ios": "https://dc.lft.to/lastmile_qr_scan", "android": "https://dc.lft.to/lastmile_qr_scan"}, "lon": -77.04179516666666, "type": "electric_scooter"}, {"bike_id": "251e345019b16eac02dce0b62059da5d", "is_reserved": 0, "fusion_lon": 0.0, "lat": 38.923398, "is_disabled": 0, "name": "251e345019b16eac02dce0b62059da5d", "fusion_lat": 0.0, "rental_uris": {"ios": "https://dc.lft.to/lastmile_qr_scan", "android": "https://dc.lft.to/lastmile_qr_scan"}, "lon": -77.01904433333333, "type": "electric_scooter"}, {"bike_id": "8a9c5d0a8cf6d64072170224a1e0ac2a", "is_reserved": 0, "fusion_lon": 0.0, "lat": 38.90590266666667, "is_disabled": 0, "name": "8a9c5d0a8cf6d64072170224a1e0ac2a", "fusion_lat": 0.0, "rental_uris": {"ios": "https://dc.lft.to/lastmile_qr_scan", "android": "https://dc.lft.to/lastmile_qr_scan"}, "lon": -77.046752, "type": "electric_scooter"}, {"bike_id": "da34d756be89f5f86749501b568a4e85", "is_reserved": 0, "fusion_lon": 0.0, "lat": 38.895224166666665, "is_disabled": 0, "name": "da34d756be89f5f86749501b568a4e85", "fusion_lat": 0.0, "rental_uris": {"ios": "https://dc.lft.to/lastmile_qr_scan", "android": "https://dc.lft.to/lastmile_qr_scan"}, "lon": -77.04183333333333, "type": "electric_scooter"}, {"bike_id": "dec35e48c67e7843722fa35f3ef06457", "is_reserved": 0, "fusion_lon": 0.0, "lat": 38.884332666666666, "is_disabled": 0, "name": "dec35e48c67e7843722fa35f3ef06457", "fusion_lat": 0.0, "rental_uris": {"ios": "https://dc.lft.to/lastmile_qr_scan", "android": "https://dc.lft.to/lastmile_qr_scan"}, "lon": -76.95756216666666, "type": "electric_scooter"}, {"bike_id": "d8bea72756515fb961486fde09ad821a", "is_reserved": 0, "fusion_lon": 0.0, "lat": 38.90015366666667, "is_disabled": 0, "name": "d8bea72756515fb961486fde09ad821a", "fusion_lat": 0.0, "rental_uris": {"ios": "https://dc.lft.to/lastmile_qr_scan", "android": "https://dc.lft.to/lastmile_qr_scan"}, "lon": -77.040486, "type": "electric_scooter"}, {"bike_id": "21963ab91c15d8a9db5336935254be57", "is_reserved": 0, "fusion_lon": 0.0, "lat": 38.899066833333336, "is_disabled": 0, "name": "21963ab91c15d8a9db5336935254be57", "fusion_lat": 0.0, "rental_uris": {"ios": "https://dc.lft.to/lastmile_qr_scan", "android": "https://dc.lft.to/lastmile_qr_scan"}, "lon": -76.93347616666667, "type": "electric_scooter"}, {"bike_id": "7efc860567cbfbea1545bf3fc379ab91", "is_reserved": 0, "fusion_lon": 0.0, "lat": 38.903512666666664, "is_disabled": 0, "name": "7efc860567cbfbea1545bf3fc379ab91", "fusion_lat": 0.0, "rental_uris": {"ios": "https://dc.lft.to/lastmile_qr_scan", "android": "https://dc.lft.to/lastmile_qr_scan"}, "lon": -77.03998333333334, "type": "electric_scooter"}, {"bike_id": "5fde27fca9963f744cd31e7613137d9d", "is_reserved": 0, "fusion_lon": 0.0, "lat": 38.9045775, "is_disabled": 0, "name": "5fde27fca9963f744cd31e7613137d9d", "fusion_lat": 0.0, "rental_uris": {"ios": "https://dc.lft.to/lastmile_qr_scan", "android": "https://dc.lft.to/lastmile_qr_scan"}, "lon": -77.04885933333334, "type": "electric_scooter"}, {"bike_id": "87f609e73953b01eebeb2d1e741e779c", "is_reserved": 0, "fusion_lon": 0.0, "lat": 38.897560166666665, "is_disabled": 0, "name": "87f609e73953b01eebeb2d1e741e779c", "fusion_lat": 0.0, "rental_uris": {"ios": "https://dc.lft.to/lastmile_qr_scan", "android": "https://dc.lft.to/lastmile_qr_scan"}, "lon": -76.94187983333333, "type": "electric_scooter"}, {"bike_id": "c82ba7447612b11ed4fbd94b05be3cc6", "is_reserved": 0, "fusion_lon": 0.0, "lat": 38.917027166666664, "is_disabled": 0, "name": "c82ba7447612b11ed4fbd94b05be3cc6", "fusion_lat": 0.0, "rental_uris": {"ios": "https://dc.lft.to/lastmile_qr_scan", "android": "https://dc.lft.to/lastmile_qr_scan"}, "lon": -77.024647, "type": "electric_scooter"}, {"bike_id": "bf1f57a6bbbf9ab9d3f6890aff863e59", "is_reserved": 0, "fusion_lon": 0.0, "lat": 38.926103, "is_disabled": 0, "name": "bf1f57a6bbbf9ab9d3f6890aff863e59", "fusion_lat": 0.0, "rental_uris": {"ios": "https://dc.lft.to/lastmile_qr_scan", "android": "https://dc.lft.to/lastmile_qr_scan"}, "lon": -77.0053975, "type": "electric_scooter"}, {"bike_id": "4bb92105289b6edd834c8d274c1221f0", "is_reserved": 0, "fusion_lon": 0.0, "lat": 38.931446666666666, "is_disabled": 0, "name": "4bb92105289b6edd834c8d274c1221f0", "fusion_lat": 0.0, "rental_uris": {"ios": "https://dc.lft.to/lastmile_qr_scan", "android": "https://dc.lft.to/lastmile_qr_scan"}, "lon": -77.03834416666666, "type": "electric_scooter"}, {"bike_id": "989bb660d30490ce841614245e40e499", "is_reserved": 0, "fusion_lon": 0.0, "lat": 38.9547545, "is_disabled": 0, "name": "989bb660d30490ce841614245e40e499", "fusion_lat": 0.0, "rental_uris": {"ios": "https://dc.lft.to/lastmile_qr_scan", "android": "https://dc.lft.to/lastmile_qr_scan"}, "lon": -77.08240033333334, "type": "electric_bike"}, {"bike_id": "0f682234988104fd2b24891ba36d0079", "is_reserved": 0, "fusion_lon": 0.0, "lat": 38.962012333333334, "is_disabled": 0, "name": "0f682234988104fd2b24891ba36d0079", "fusion_lat": 0.0, "rental_uris": {"ios": "https://dc.lft.to/lastmile_qr_scan", "android": "https://dc.lft.to/lastmile_qr_scan"}, "lon": -77.02234266666666, "type": "electric_bike"}, {"bike_id": "b832b2b15fabbca48e63697f3bb0b52b", "is_reserved": 0, "fusion_lon": 0.0, "lat": 38.91199183333333, "is_disabled": 0, "name": "b832b2b15fabbca48e63697f3bb0b52b", "fusion_lat": 0.0, "rental_uris": {"ios": "https://dc.lft.to/lastmile_qr_scan", "android": "https://dc.lft.to/lastmile_qr_scan"}, "lon": -77.07318916666667, "type": "electric_scooter"}, {"bike_id": "dde5da89857e260086ff739d1e94f560", "is_reserved": 0, "fusion_lon": 0.0, "lat": 38.895427, "is_disabled": 0, "name": "dde5da89857e260086ff739d1e94f560", "fusion_lat": 0.0, "rental_uris": {"ios": "https://dc.lft.to/lastmile_qr_scan", "android": "https://dc.lft.to/lastmile_qr_scan"}, "lon": -77.01889883333334, "type": "electric_scooter"}, {"bike_id": "eb7a701886c677e9e1889926924c037e", "is_reserved": 0, "fusion_lon": 0.0, "lat": 38.90382483333333, "is_disabled": 0, "name": "eb7a701886c677e9e1889926924c037e", "fusion_lat": 0.0, "rental_uris": {"ios": "https://dc.lft.to/lastmile_qr_scan", "android": "https://dc.lft.to/lastmile_qr_scan"}, "lon": -77.04195116666666, "type": "electric_scooter"}, {"bike_id": "052673e80a5655bdf7e983a2ab48a8b7", "is_reserved": 0, "fusion_lon": 0.0, "lat": 38.9044155, "is_disabled": 0, "name": "052673e80a5655bdf7e983a2ab48a8b7", "fusion_lat": 0.0, "rental_uris": {"ios": "https://dc.lft.to/lastmile_qr_scan", "android": "https://dc.lft.to/lastmile_qr_scan"}, "lon": -77.03935916666667, "type": "electric_scooter"}, {"bike_id": "8e58b364dfe4b969896120d4cdd5dadd", "is_reserved": 0, "fusion_lon": 0.0, "lat": 38.913645833333334, "is_disabled": 0, "name": "8e58b364dfe4b969896120d4cdd5dadd", "fusion_lat": 0.0, "rental_uris": {"ios": "https://dc.lft.to/lastmile_qr_scan", "android": "https://dc.lft.to/lastmile_qr_scan"}, "lon": -77.0466175, "type": "electric_scooter"}, {"bike_id": "6e3e87cf48a890b4286029a292d63c15", "is_reserved": 0, "fusion_lon": 0.0, "lat": 38.8442415, "is_disabled": 0, "name": "6e3e87cf48a890b4286029a292d63c15", "fusion_lat": 0.0, "rental_uris": {"ios": "https://dc.lft.to/lastmile_qr_scan", "android": "https://dc.lft.to/lastmile_qr_scan"}, "lon": -76.99781483333334, "type": "electric_scooter"}, {"bike_id": "12b68dae3e5de6fd2c6424467da71430", "is_reserved": 0, "fusion_lon": 0.0, "lat": 38.902871166666664, "is_disabled": 0, "name": "12b68dae3e5de6fd2c6424467da71430", "fusion_lat": 0.0, "rental_uris": {"ios": "https://dc.lft.to/lastmile_qr_scan", "android": "https://dc.lft.to/lastmile_qr_scan"}, "lon": -77.03359516666667, "type": "electric_scooter"}, {"bike_id": "d9bd5689dd817636fa13bafb2467e2b8", "is_reserved": 0, "fusion_lon": 0.0, "lat": 38.87660133333333, "is_disabled": 0, "name": "d9bd5689dd817636fa13bafb2467e2b8", "fusion_lat": 0.0, "rental_uris": {"ios": "https://dc.lft.to/lastmile_qr_scan", "android": "https://dc.lft.to/lastmile_qr_scan"}, "lon": -77.00063483333334, "type": "electric_scooter"}, {"bike_id": "d6e9e125ea72de66aad876ae404b24b6", "is_reserved": 0, "fusion_lon": 0.0, "lat": 38.90236933333333, "is_disabled": 0, "name": "d6e9e125ea72de66aad876ae404b24b6", "fusion_lat": 0.0, "rental_uris": {"ios": "https://dc.lft.to/lastmile_qr_scan", "android": "https://dc.lft.to/lastmile_qr_scan"}, "lon": -77.02693033333334, "type": "electric_scooter"}, {"bike_id": "5d6c718a46b0d442e6b8b712e5fde8d8", "is_reserved": 0, "fusion_lon": 0.0, "lat": 38.911878333333334, "is_disabled": 0, "name": "5d6c718a46b0d442e6b8b712e5fde8d8", "fusion_lat": 0.0, "rental_uris": {"ios": "https://dc.lft.to/lastmile_qr_scan", "android": "https://dc.lft.to/lastmile_qr_scan"}, "lon": -77.06096116666667, "type": "electric_scooter"}, {"bike_id": "ca5a4d5a4ed7e21ee362f046592b5da6", "is_reserved": 0, "fusion_lon": 0.0, "lat": 38.90382066666667, "is_disabled": 0, "name": "ca5a4d5a4ed7e21ee362f046592b5da6", "fusion_lat": 0.0, "rental_uris": {"ios": "https://dc.lft.to/lastmile_qr_scan", "android": "https://dc.lft.to/lastmile_qr_scan"}, "lon": -77.04381833333333, "type": "electric_scooter"}, {"bike_id": "50e5aeb4e5d4b7558b7264187d7c64ad", "is_reserved": 0, "fusion_lon": 0.0, "lat": 38.888857, "is_disabled": 0, "name": "50e5aeb4e5d4b7558b7264187d7c64ad", "fusion_lat": 0.0, "rental_uris": {"ios": "https://dc.lft.to/lastmile_qr_scan", "android": "https://dc.lft.to/lastmile_qr_scan"}, "lon": -77.03323866666666, "type": "electric_bike"}, {"bike_id": "24fe577ae68d7ea3756bc6cf346424e7", "is_reserved": 0, "fusion_lon": 0.0, "lat": 38.95954783333333, "is_disabled": 0, "name": "24fe577ae68d7ea3756bc6cf346424e7", "fusion_lat": 0.0, "rental_uris": {"ios": "https://dc.lft.to/lastmile_qr_scan", "android": "https://dc.lft.to/lastmile_qr_scan"}, "lon": -77.10088516666667, "type": "electric_bike"}, {"bike_id": "52ab24bc302768c5334c5e2d500894d0", "is_reserved": 0, "fusion_lon": 0.0, "lat": 38.9284525, "is_disabled": 0, "name": "52ab24bc302768c5334c5e2d500894d0", "fusion_lat": 0.0, "rental_uris": {"ios": "https://dc.lft.to/lastmile_qr_scan", "android": "https://dc.lft.to/lastmile_qr_scan"}, "lon": -77.01395316666667, "type": "electric_scooter"}, {"bike_id": "bc15cdcfe8477796c4ea049e7a4d3720", "is_reserved": 0, "fusion_lon": 0.0, "lat": 38.897244, "is_disabled": 0, "name": "bc15cdcfe8477796c4ea049e7a4d3720", "fusion_lat": 0.0, "rental_uris": {"ios": "https://dc.lft.to/lastmile_qr_scan", "android": "https://dc.lft.to/lastmile_qr_scan"}, "lon": -77.027342, "type": "electric_scooter"}, {"bike_id": "b4fe208683532ea3544754d146551834", "is_reserved": 0, "fusion_lon": 0.0, "lat": 38.9057075, "is_disabled": 0, "name": "b4fe208683532ea3544754d146551834", "fusion_lat": 0.0, "rental_uris": {"ios": "https://dc.lft.to/lastmile_qr_scan", "android": "https://dc.lft.to/lastmile_qr_scan"}, "lon": -77.03630933333334, "type": "electric_scooter"}, {"bike_id": "e9dbfac91e6304b48dfb2a6b2d3bdde0", "is_reserved": 0, "fusion_lon": 0.0, "lat": 38.884968666666666, "is_disabled": 0, "name": "e9dbfac91e6304b48dfb2a6b2d3bdde0", "fusion_lat": 0.0, "rental_uris": {"ios": "https://dc.lft.to/lastmile_qr_scan", "android": "https://dc.lft.to/lastmile_qr_scan"}, "lon": -77.00724483333333, "type": "electric_scooter"}, {"bike_id": "876600adb5706458a4fb572d7eaa2bd3", "is_reserved": 0, "fusion_lon": 0.0, "lat": 38.883677166666665, "is_disabled": 0, "name": "876600adb5706458a4fb572d7eaa2bd3", "fusion_lat": 0.0, "rental_uris": {"ios": "https://dc.lft.to/lastmile_qr_scan", "android": "https://dc.lft.to/lastmile_qr_scan"}, "lon": -76.995304, "type": "electric_scooter"}, {"bike_id": "19ffd9efcbeb4f97db374064ccb579f0", "is_reserved": 0, "fusion_lon": 0.0, "lat": 38.9055785, "is_disabled": 0, "name": "19ffd9efcbeb4f97db374064ccb579f0", "fusion_lat": 0.0, "rental_uris": {"ios": "https://dc.lft.to/lastmile_qr_scan", "android": "https://dc.lft.to/lastmile_qr_scan"}, "lon": -77.0382985, "type": "electric_scooter"}, {"bike_id": "63615991d1d85e37731666ade3db192f", "is_reserved": 0, "fusion_lon": 0.0, "lat": 38.90113366666667, "is_disabled": 0, "name": "63615991d1d85e37731666ade3db192f", "fusion_lat": 0.0, "rental_uris": {"ios": "https://dc.lft.to/lastmile_qr_scan", "android": "https://dc.lft.to/lastmile_qr_scan"}, "lon": -77.01778533333334, "type": "electric_bike"}, {"bike_id": "a27394246a5aea14985221a915e44cfc", "is_reserved": 0, "fusion_lon": 0.0, "lat": 38.90272366666667, "is_disabled": 0, "name": "a27394246a5aea14985221a915e44cfc", "fusion_lat": 0.0, "rental_uris": {"ios": "https://dc.lft.to/lastmile_qr_scan", "android": "https://dc.lft.to/lastmile_qr_scan"}, "lon": -77.05917733333334, "type": "electric_scooter"}, {"bike_id": "acd98985529432526acc7ae5a6b8cd09", "is_reserved": 0, "fusion_lon": 0.0, "lat": 38.9279265, "is_disabled": 0, "name": "acd98985529432526acc7ae5a6b8cd09", "fusion_lat": 0.0, "rental_uris": {"ios": "https://dc.lft.to/lastmile_qr_scan", "android": "https://dc.lft.to/lastmile_qr_scan"}, "lon": -77.0319975, "type": "electric_scooter"}, {"bike_id": "b1f7499b7d1b85f7698534db048f7a18", "is_reserved": 0, "fusion_lon": 0.0, "lat": 38.89556416666667, "is_disabled": 0, "name": "b1f7499b7d1b85f7698534db048f7a18", "fusion_lat": 0.0, "rental_uris": {"ios": "https://dc.lft.to/lastmile_qr_scan", "android": "https://dc.lft.to/lastmile_qr_scan"}, "lon": -77.04677516666666, "type": "electric_scooter"}, {"bike_id": "4e12a56cd0ffe8d4d91d5d500ba3291a", "is_reserved": 0, "fusion_lon": 0.0, "lat": 38.92902733333333, "is_disabled": 0, "name": "4e12a56cd0ffe8d4d91d5d500ba3291a", "fusion_lat": 0.0, "rental_uris": {"ios": "https://dc.lft.to/lastmile_qr_scan", "android": "https://dc.lft.to/lastmile_qr_scan"}, "lon": -77.031815, "type": "electric_scooter"}, {"bike_id": "ae8d83f67e347e6c8b88af592ff3cd7e", "is_reserved": 0, "fusion_lon": 0.0, "lat": 38.89601416666667, "is_disabled": 0, "name": "ae8d83f67e347e6c8b88af592ff3cd7e", "fusion_lat": 0.0, "rental_uris": {"ios": "https://dc.lft.to/lastmile_qr_scan", "android": "https://dc.lft.to/lastmile_qr_scan"}, "lon": -77.02830433333334, "type": "electric_scooter"}, {"bike_id": "ee646df7b211c0733bc657087926768a", "is_reserved": 0, "fusion_lon": 0.0, "lat": 38.892198, "is_disabled": 0, "name": "ee646df7b211c0733bc657087926768a", "fusion_lat": 0.0, "rental_uris": {"ios": "https://dc.lft.to/lastmile_qr_scan", "android": "https://dc.lft.to/lastmile_qr_scan"}, "lon": -77.041901, "type": "electric_scooter"}, {"bike_id": "4b43a07b7f98a4d0fa8c8b24c982f9ab", "is_reserved": 0, "fusion_lon": 0.0, "lat": 38.923719166666665, "is_disabled": 0, "name": "4b43a07b7f98a4d0fa8c8b24c982f9ab", "fusion_lat": 0.0, "rental_uris": {"ios": "https://dc.lft.to/lastmile_qr_scan", "android": "https://dc.lft.to/lastmile_qr_scan"}, "lon": -77.00215566666667, "type": "electric_scooter"}, {"bike_id": "966aa6f9b1f54867e8ba3a68065448d9", "is_reserved": 0, "fusion_lon": 0.0, "lat": 38.90725616666667, "is_disabled": 0, "name": "966aa6f9b1f54867e8ba3a68065448d9", "fusion_lat": 0.0, "rental_uris": {"ios": "https://dc.lft.to/lastmile_qr_scan", "android": "https://dc.lft.to/lastmile_qr_scan"}, "lon": -77.04667183333333, "type": "electric_scooter"}, {"bike_id": "4a6a8691c7c4b7d4c71dca17ea582357", "is_reserved": 0, "fusion_lon": 0.0, "lat": 38.897441666666666, "is_disabled": 0, "name": "4a6a8691c7c4b7d4c71dca17ea582357", "fusion_lat": 0.0, "rental_uris": {"ios": "https://dc.lft.to/lastmile_qr_scan", "android": "https://dc.lft.to/lastmile_qr_scan"}, "lon": -77.00864233333333, "type": "electric_scooter"}, {"bike_id": "df7f0bc5a28aa44bd54f20ba59feb3ec", "is_reserved": 0, "fusion_lon": 0.0, "lat": 38.9223335, "is_disabled": 0, "name": "df7f0bc5a28aa44bd54f20ba59feb3ec", "fusion_lat": 0.0, "rental_uris": {"ios": "https://dc.lft.to/lastmile_qr_scan", "android": "https://dc.lft.to/lastmile_qr_scan"}, "lon": -77.00996616666667, "type": "electric_scooter"}, {"bike_id": "f2e15ad3bb299f2c7977db01e85bd771", "is_reserved": 0, "fusion_lon": 0.0, "lat": 38.9342005, "is_disabled": 0, "name": "f2e15ad3bb299f2c7977db01e85bd771", "fusion_lat": 0.0, "rental_uris": {"ios": "https://dc.lft.to/lastmile_qr_scan", "android": "https://dc.lft.to/lastmile_qr_scan"}, "lon": -77.04310483333333, "type": "electric_scooter"}, {"bike_id": "3f00bb1e548612aad6a1d0957d80a11d", "is_reserved": 0, "fusion_lon": 0.0, "lat": 38.89828283333333, "is_disabled": 0, "name": "3f00bb1e548612aad6a1d0957d80a11d", "fusion_lat": 0.0, "rental_uris": {"ios": "https://dc.lft.to/lastmile_qr_scan", "android": "https://dc.lft.to/lastmile_qr_scan"}, "lon": -77.033294, "type": "electric_scooter"}, {"bike_id": "0bab207741c031829b2f393a87bc89ff", "is_reserved": 0, "fusion_lon": 0.0, "lat": 38.86905083333333, "is_disabled": 0, "name": "0bab207741c031829b2f393a87bc89ff", "fusion_lat": 0.0, "rental_uris": {"ios": "https://dc.lft.to/lastmile_qr_scan", "android": "https://dc.lft.to/lastmile_qr_scan"}, "lon": -77.1317665, "type": "electric_bike"}, {"bike_id": "2c9547b2d512ce6b12ad36eb0de675eb", "is_reserved": 0, "fusion_lon": 0.0, "lat": 38.89195083333333, "is_disabled": 0, "name": "2c9547b2d512ce6b12ad36eb0de675eb", "fusion_lat": 0.0, "rental_uris": {"ios": "https://dc.lft.to/lastmile_qr_scan", "android": "https://dc.lft.to/lastmile_qr_scan"}, "lon": -77.0298125, "type": "electric_scooter"}, {"bike_id": "34c47c01b3812f425ce24879583b31ad", "is_reserved": 0, "fusion_lon": 0.0, "lat": 38.89618633333333, "is_disabled": 0, "name": "34c47c01b3812f425ce24879583b31ad", "fusion_lat": 0.0, "rental_uris": {"ios": "https://dc.lft.to/lastmile_qr_scan", "android": "https://dc.lft.to/lastmile_qr_scan"}, "lon": -76.99854933333333, "type": "electric_scooter"}, {"bike_id": "fc2b894d77f6d62272c53da8ca64da7e", "is_reserved": 0, "fusion_lon": 0.0, "lat": 38.892201, "is_disabled": 0, "name": "fc2b894d77f6d62272c53da8ca64da7e", "fusion_lat": 0.0, "rental_uris": {"ios": "https://dc.lft.to/lastmile_qr_scan", "android": "https://dc.lft.to/lastmile_qr_scan"}, "lon": -77.04366466666667, "type": "electric_scooter"}, {"bike_id": "da59288a3ef0612e57682e88cbb2b9e0", "is_reserved": 0, "fusion_lon": 0.0, "lat": 38.894784666666666, "is_disabled": 0, "name": "da59288a3ef0612e57682e88cbb2b9e0", "fusion_lat": 0.0, "rental_uris": {"ios": "https://dc.lft.to/lastmile_qr_scan", "android": "https://dc.lft.to/lastmile_qr_scan"}, "lon": -77.02292116666666, "type": "electric_scooter"}, {"bike_id": "e46c32a67ed97a497669f556f374be2a", "is_reserved": 0, "fusion_lon": 0.0, "lat": 38.928502333333334, "is_disabled": 0, "name": "e46c32a67ed97a497669f556f374be2a", "fusion_lat": 0.0, "rental_uris": {"ios": "https://dc.lft.to/lastmile_qr_scan", "android": "https://dc.lft.to/lastmile_qr_scan"}, "lon": -77.05425033333333, "type": "electric_scooter"}, {"bike_id": "9555920f0f9a6a0e9d34fe3dc600a820", "is_reserved": 0, "fusion_lon": 0.0, "lat": 38.90793333333333, "is_disabled": 0, "name": "9555920f0f9a6a0e9d34fe3dc600a820", "fusion_lat": 0.0, "rental_uris": {"ios": "https://dc.lft.to/lastmile_qr_scan", "android": "https://dc.lft.to/lastmile_qr_scan"}, "lon": -77.0429395, "type": "electric_scooter"}, {"bike_id": "079cc2d64e7b8d19bf1586e32478a2db", "is_reserved": 0, "fusion_lon": 0.0, "lat": 38.86618466666667, "is_disabled": 0, "name": "079cc2d64e7b8d19bf1586e32478a2db", "fusion_lat": 0.0, "rental_uris": {"ios": "https://dc.lft.to/lastmile_qr_scan", "android": "https://dc.lft.to/lastmile_qr_scan"}, "lon": -76.98662816666666, "type": "electric_scooter"}, {"bike_id": "3a9ea0f9a74c3cb7b097590d2d50dd3b", "is_reserved": 0, "fusion_lon": 0.0, "lat": 38.935013, "is_disabled": 0, "name": "3a9ea0f9a74c3cb7b097590d2d50dd3b", "fusion_lat": 0.0, "rental_uris": {"ios": "https://dc.lft.to/lastmile_qr_scan", "android": "https://dc.lft.to/lastmile_qr_scan"}, "lon": -77.02000366666667, "type": "electric_scooter"}, {"bike_id": "8a448e88063f5d2f6633cfc097218b9d", "is_reserved": 0, "fusion_lon": 0.0, "lat": 38.892194333333336, "is_disabled": 0, "name": "8a448e88063f5d2f6633cfc097218b9d", "fusion_lat": 0.0, "rental_uris": {"ios": "https://dc.lft.to/lastmile_qr_scan", "android": "https://dc.lft.to/lastmile_qr_scan"}, "lon": -77.04190083333333, "type": "electric_scooter"}, {"bike_id": "c165d18fd9d9d3355c8e69a5b37d6f4c", "is_reserved": 0, "fusion_lon": 0.0, "lat": 38.8955325, "is_disabled": 0, "name": "c165d18fd9d9d3355c8e69a5b37d6f4c", "fusion_lat": 0.0, "rental_uris": {"ios": "https://dc.lft.to/lastmile_qr_scan", "android": "https://dc.lft.to/lastmile_qr_scan"}, "lon": -77.00907483333333, "type": "electric_scooter"}, {"bike_id": "ade44d9010176927ac2cc8fcfe097596", "is_reserved": 0, "fusion_lon": 0.0, "lat": 38.887669, "is_disabled": 0, "name": "ade44d9010176927ac2cc8fcfe097596", "fusion_lat": 0.0, "rental_uris": {"ios": "https://dc.lft.to/lastmile_qr_scan", "android": "https://dc.lft.to/lastmile_qr_scan"}, "lon": -76.9805225, "type": "electric_scooter"}, {"bike_id": "3627bc81b2089530d2fd4039793cb409", "is_reserved": 0, "fusion_lon": 0.0, "lat": 38.8732785, "is_disabled": 0, "name": "3627bc81b2089530d2fd4039793cb409", "fusion_lat": 0.0, "rental_uris": {"ios": "https://dc.lft.to/lastmile_qr_scan", "android": "https://dc.lft.to/lastmile_qr_scan"}, "lon": -77.10606633333333, "type": "electric_bike"}, {"bike_id": "61f7a8b3b8ca8277df8345cb6b653243", "is_reserved": 0, "fusion_lon": 0.0, "lat": 38.92263416666667, "is_disabled": 0, "name": "61f7a8b3b8ca8277df8345cb6b653243", "fusion_lat": 0.0, "rental_uris": {"ios": "https://dc.lft.to/lastmile_qr_scan", "android": "https://dc.lft.to/lastmile_qr_scan"}, "lon": -76.97427066666667, "type": "electric_bike"}, {"bike_id": "852a2f50a7e2907bae82658f5c79d856", "is_reserved": 0, "fusion_lon": 0.0, "lat": 38.94039133333333, "is_disabled": 0, "name": "852a2f50a7e2907bae82658f5c79d856", "fusion_lat": 0.0, "rental_uris": {"ios": "https://dc.lft.to/lastmile_qr_scan", "android": "https://dc.lft.to/lastmile_qr_scan"}, "lon": -77.02898583333334, "type": "electric_scooter"}, {"bike_id": "ee1c2bb197be695e5fc26266bdca5df1", "is_reserved": 0, "fusion_lon": 0.0, "lat": 38.92362116666666, "is_disabled": 0, "name": "ee1c2bb197be695e5fc26266bdca5df1", "fusion_lat": 0.0, "rental_uris": {"ios": "https://dc.lft.to/lastmile_qr_scan", "android": "https://dc.lft.to/lastmile_qr_scan"}, "lon": -77.05031816666667, "type": "electric_scooter"}, {"bike_id": "789866499510fd5a5b1edc80f5706477", "is_reserved": 0, "fusion_lon": 0.0, "lat": 38.905184, "is_disabled": 0, "name": "789866499510fd5a5b1edc80f5706477", "fusion_lat": 0.0, "rental_uris": {"ios": "https://dc.lft.to/lastmile_qr_scan", "android": "https://dc.lft.to/lastmile_qr_scan"}, "lon": -77.041602, "type": "electric_scooter"}, {"bike_id": "04ca0e966cafa0c206dfeb337783bea2", "is_reserved": 0, "fusion_lon": 0.0, "lat": 38.926275, "is_disabled": 0, "name": "04ca0e966cafa0c206dfeb337783bea2", "fusion_lat": 0.0, "rental_uris": {"ios": "https://dc.lft.to/lastmile_qr_scan", "android": "https://dc.lft.to/lastmile_qr_scan"}, "lon": -77.03506783333333, "type": "electric_scooter"}, {"bike_id": "f7897011dad1d8b650646c3a52db72c9", "is_reserved": 0, "fusion_lon": 0.0, "lat": 38.88767933333333, "is_disabled": 0, "name": "f7897011dad1d8b650646c3a52db72c9", "fusion_lat": 0.0, "rental_uris": {"ios": "https://dc.lft.to/lastmile_qr_scan", "android": "https://dc.lft.to/lastmile_qr_scan"}, "lon": -77.0301185, "type": "electric_scooter"}, {"bike_id": "daaced6839e5a71587794466208a2792", "is_reserved": 0, "fusion_lon": 0.0, "lat": 38.90136866666667, "is_disabled": 0, "name": "daaced6839e5a71587794466208a2792", "fusion_lat": 0.0, "rental_uris": {"ios": "https://dc.lft.to/lastmile_qr_scan", "android": "https://dc.lft.to/lastmile_qr_scan"}, "lon": -77.0450025, "type": "electric_scooter"}, {"bike_id": "7f36689fdadfaaf91bd24e6c5c1cc883", "is_reserved": 0, "fusion_lon": 0.0, "lat": 38.93342616666666, "is_disabled": 0, "name": "7f36689fdadfaaf91bd24e6c5c1cc883", "fusion_lat": 0.0, "rental_uris": {"ios": "https://dc.lft.to/lastmile_qr_scan", "android": "https://dc.lft.to/lastmile_qr_scan"}, "lon": -77.058644, "type": "electric_scooter"}, {"bike_id": "946396c1114a4813aff2f58219ae824a", "is_reserved": 0, "fusion_lon": 0.0, "lat": 38.90457116666666, "is_disabled": 0, "name": "946396c1114a4813aff2f58219ae824a", "fusion_lat": 0.0, "rental_uris": {"ios": "https://dc.lft.to/lastmile_qr_scan", "android": "https://dc.lft.to/lastmile_qr_scan"}, "lon": -77.04021216666666, "type": "electric_scooter"}, {"bike_id": "261dd674c726a0f91b7557b0aee7060d", "is_reserved": 0, "fusion_lon": 0.0, "lat": 38.89824083333333, "is_disabled": 0, "name": "261dd674c726a0f91b7557b0aee7060d", "fusion_lat": 0.0, "rental_uris": {"ios": "https://dc.lft.to/lastmile_qr_scan", "android": "https://dc.lft.to/lastmile_qr_scan"}, "lon": -77.03343183333334, "type": "electric_scooter"}, {"bike_id": "a441c83708e922a11023cec79e8a11b4", "is_reserved": 0, "fusion_lon": 0.0, "lat": 38.92092866666667, "is_disabled": 0, "name": "a441c83708e922a11023cec79e8a11b4", "fusion_lat": 0.0, "rental_uris": {"ios": "https://dc.lft.to/lastmile_qr_scan", "android": "https://dc.lft.to/lastmile_qr_scan"}, "lon": -77.07478266666666, "type": "electric_scooter"}, {"bike_id": "e3fa88c993574cbc96c4895398f852db", "is_reserved": 0, "fusion_lon": 0.0, "lat": 38.89939666666667, "is_disabled": 0, "name": "e3fa88c993574cbc96c4895398f852db", "fusion_lat": 0.0, "rental_uris": {"ios": "https://dc.lft.to/lastmile_qr_scan", "android": "https://dc.lft.to/lastmile_qr_scan"}, "lon": -77.0314345, "type": "electric_scooter"}, {"bike_id": "dd6068728f23f6e12a8c1386664e133a", "is_reserved": 0, "fusion_lon": 0.0, "lat": 38.9133245, "is_disabled": 0, "name": "dd6068728f23f6e12a8c1386664e133a", "fusion_lat": 0.0, "rental_uris": {"ios": "https://dc.lft.to/lastmile_qr_scan", "android": "https://dc.lft.to/lastmile_qr_scan"}, "lon": -77.04873966666666, "type": "electric_scooter"}, {"bike_id": "fafdd376b0da0fc50a5c9f798220b81e", "is_reserved": 0, "fusion_lon": 0.0, "lat": 38.878425666666665, "is_disabled": 0, "name": "fafdd376b0da0fc50a5c9f798220b81e", "fusion_lat": 0.0, "rental_uris": {"ios": "https://dc.lft.to/lastmile_qr_scan", "android": "https://dc.lft.to/lastmile_qr_scan"}, "lon": -77.00498633333333, "type": "electric_scooter"}, {"bike_id": "acb7394c0824cb4206dca77ed72dbd98", "is_reserved": 0, "fusion_lon": 0.0, "lat": 38.885023, "is_disabled": 0, "name": "acb7394c0824cb4206dca77ed72dbd98", "fusion_lat": 0.0, "rental_uris": {"ios": "https://dc.lft.to/lastmile_qr_scan", "android": "https://dc.lft.to/lastmile_qr_scan"}, "lon": -77.015445, "type": "electric_scooter"}, {"bike_id": "765ebecc65dbfceb238de648b8c547fb", "is_reserved": 0, "fusion_lon": 0.0, "lat": 38.893435833333335, "is_disabled": 0, "name": "765ebecc65dbfceb238de648b8c547fb", "fusion_lat": 0.0, "rental_uris": {"ios": "https://dc.lft.to/lastmile_qr_scan", "android": "https://dc.lft.to/lastmile_qr_scan"}, "lon": -76.98461116666667, "type": "electric_scooter"}, {"bike_id": "9b4a9676f585fd3929878600d2d4091e", "is_reserved": 0, "fusion_lon": 0.0, "lat": 38.915570333333335, "is_disabled": 0, "name": "9b4a9676f585fd3929878600d2d4091e", "fusion_lat": 0.0, "rental_uris": {"ios": "https://dc.lft.to/lastmile_qr_scan", "android": "https://dc.lft.to/lastmile_qr_scan"}, "lon": -77.02207266666667, "type": "electric_scooter"}, {"bike_id": "81841d6af36d90d1adeeb82b68e5dd64", "is_reserved": 0, "fusion_lon": 0.0, "lat": 38.89027016666667, "is_disabled": 0, "name": "81841d6af36d90d1adeeb82b68e5dd64", "fusion_lat": 0.0, "rental_uris": {"ios": "https://dc.lft.to/lastmile_qr_scan", "android": "https://dc.lft.to/lastmile_qr_scan"}, "lon": -76.93594866666666, "type": "electric_scooter"}, {"bike_id": "1b9c3efd8d1cc74eb094bb713fcd4a44", "is_reserved": 0, "fusion_lon": 0.0, "lat": 38.9238125, "is_disabled": 0, "name": "1b9c3efd8d1cc74eb094bb713fcd4a44", "fusion_lat": 0.0, "rental_uris": {"ios": "https://dc.lft.to/lastmile_qr_scan", "android": "https://dc.lft.to/lastmile_qr_scan"}, "lon": -77.22314583333333, "type": "electric_bike"}, {"bike_id": "2d33f4d676416db5809a59f07e98271e", "is_reserved": 0, "fusion_lon": 0.0, "lat": 38.93588333333334, "is_disabled": 0, "name": "2d33f4d676416db5809a59f07e98271e", "fusion_lat": 0.0, "rental_uris": {"ios": "https://dc.lft.to/lastmile_qr_scan", "android": "https://dc.lft.to/lastmile_qr_scan"}, "lon": -77.0276275, "type": "electric_scooter"}, {"bike_id": "9cd6c6f8f8cf1c2e11472924c4e7b4b8", "is_reserved": 0, "fusion_lon": 0.0, "lat": 38.925026833333334, "is_disabled": 0, "name": "9cd6c6f8f8cf1c2e11472924c4e7b4b8", "fusion_lat": 0.0, "rental_uris": {"ios": "https://dc.lft.to/lastmile_qr_scan", "android": "https://dc.lft.to/lastmile_qr_scan"}, "lon": -77.03883033333334, "type": "electric_scooter"}, {"bike_id": "f46f78f89d50af85e657732e61ca348e", "is_reserved": 0, "fusion_lon": 0.0, "lat": 38.89890533333333, "is_disabled": 0, "name": "f46f78f89d50af85e657732e61ca348e", "fusion_lat": 0.0, "rental_uris": {"ios": "https://dc.lft.to/lastmile_qr_scan", "android": "https://dc.lft.to/lastmile_qr_scan"}, "lon": -77.03281083333333, "type": "electric_scooter"}, {"bike_id": "c8e36da23b0136cd40203b2cd423e206", "is_reserved": 0, "fusion_lon": 0.0, "lat": 38.92963133333333, "is_disabled": 0, "name": "c8e36da23b0136cd40203b2cd423e206", "fusion_lat": 0.0, "rental_uris": {"ios": "https://dc.lft.to/lastmile_qr_scan", "android": "https://dc.lft.to/lastmile_qr_scan"}, "lon": -77.05501716666667, "type": "electric_scooter"}, {"bike_id": "a77979ce94c5afd3638f2af60b920526", "is_reserved": 0, "fusion_lon": 0.0, "lat": 38.970922, "is_disabled": 0, "name": "a77979ce94c5afd3638f2af60b920526", "fusion_lat": 0.0, "rental_uris": {"ios": "https://dc.lft.to/lastmile_qr_scan", "android": "https://dc.lft.to/lastmile_qr_scan"}, "lon": -77.06971983333334, "type": "electric_bike"}, {"bike_id": "c777dc745a57fc268822c5ec521b3181", "is_reserved": 0, "fusion_lon": 0.0, "lat": 38.92581466666667, "is_disabled": 0, "name": "c777dc745a57fc268822c5ec521b3181", "fusion_lat": 0.0, "rental_uris": {"ios": "https://dc.lft.to/lastmile_qr_scan", "android": "https://dc.lft.to/lastmile_qr_scan"}, "lon": -77.00476333333333, "type": "electric_scooter"}, {"bike_id": "f8608c992a887468223dcfaea10e82d4", "is_reserved": 0, "fusion_lon": 0.0, "lat": 38.86505433333333, "is_disabled": 0, "name": "f8608c992a887468223dcfaea10e82d4", "fusion_lat": 0.0, "rental_uris": {"ios": "https://dc.lft.to/lastmile_qr_scan", "android": "https://dc.lft.to/lastmile_qr_scan"}, "lon": -76.9897905, "type": "electric_scooter"}, {"bike_id": "704e039056d2818df7f2da28b3131ef9", "is_reserved": 0, "fusion_lon": 0.0, "lat": 38.92638, "is_disabled": 0, "name": "704e039056d2818df7f2da28b3131ef9", "fusion_lat": 0.0, "rental_uris": {"ios": "https://dc.lft.to/lastmile_qr_scan", "android": "https://dc.lft.to/lastmile_qr_scan"}, "lon": -77.03792666666666, "type": "electric_scooter"}, {"bike_id": "4c4273b78bcefd1b6dcaee17603e67b4", "is_reserved": 0, "fusion_lon": 0.0, "lat": 38.901498333333336, "is_disabled": 0, "name": "4c4273b78bcefd1b6dcaee17603e67b4", "fusion_lat": 0.0, "rental_uris": {"ios": "https://dc.lft.to/lastmile_qr_scan", "android": "https://dc.lft.to/lastmile_qr_scan"}, "lon": -77.0261005, "type": "electric_scooter"}, {"bike_id": "ace0c6e9ed6a2bfc0e363af29243073b", "is_reserved": 0, "fusion_lon": 0.0, "lat": 38.924813, "is_disabled": 0, "name": "ace0c6e9ed6a2bfc0e363af29243073b", "fusion_lat": 0.0, "rental_uris": {"ios": "https://dc.lft.to/lastmile_qr_scan", "android": "https://dc.lft.to/lastmile_qr_scan"}, "lon": -76.9521965, "type": "electric_scooter"}, {"bike_id": "97adaafe33336597e6c764bd9d7afc3f", "is_reserved": 0, "fusion_lon": 0.0, "lat": 38.91834933333333, "is_disabled": 0, "name": "97adaafe33336597e6c764bd9d7afc3f", "fusion_lat": 0.0, "rental_uris": {"ios": "https://dc.lft.to/lastmile_qr_scan", "android": "https://dc.lft.to/lastmile_qr_scan"}, "lon": -77.03895983333334, "type": "electric_scooter"}, {"bike_id": "962b8ef51a1ca4dd21f710fe9eccd518", "is_reserved": 0, "fusion_lon": 0.0, "lat": 38.910497166666666, "is_disabled": 0, "name": "962b8ef51a1ca4dd21f710fe9eccd518", "fusion_lat": 0.0, "rental_uris": {"ios": "https://dc.lft.to/lastmile_qr_scan", "android": "https://dc.lft.to/lastmile_qr_scan"}, "lon": -77.03201133333333, "type": "electric_scooter"}, {"bike_id": "b6be7e12ac0aaae23b761696fb684847", "is_reserved": 0, "fusion_lon": 0.0, "lat": 38.996709, "is_disabled": 0, "name": "b6be7e12ac0aaae23b761696fb684847", "fusion_lat": 0.0, "rental_uris": {"ios": "https://dc.lft.to/lastmile_qr_scan", "android": "https://dc.lft.to/lastmile_qr_scan"}, "lon": -77.03797233333333, "type": "electric_bike"}, {"bike_id": "d855791e455a0b4f3a3ddfe9dc8c0a45", "is_reserved": 0, "fusion_lon": 0.0, "lat": 38.90275233333333, "is_disabled": 0, "name": "d855791e455a0b4f3a3ddfe9dc8c0a45", "fusion_lat": 0.0, "rental_uris": {"ios": "https://dc.lft.to/lastmile_qr_scan", "android": "https://dc.lft.to/lastmile_qr_scan"}, "lon": -77.03865516666667, "type": "electric_scooter"}, {"bike_id": "2c1c6bb68543c6e37607c2641bf206a6", "is_reserved": 0, "fusion_lon": 0.0, "lat": 38.897187833333334, "is_disabled": 0, "name": "2c1c6bb68543c6e37607c2641bf206a6", "fusion_lat": 0.0, "rental_uris": {"ios": "https://dc.lft.to/lastmile_qr_scan", "android": "https://dc.lft.to/lastmile_qr_scan"}, "lon": -77.02690083333333, "type": "electric_scooter"}, {"bike_id": "5d0cdf95c34137c6c4e3cdca611d4847", "is_reserved": 0, "fusion_lon": 0.0, "lat": 38.88490066666667, "is_disabled": 0, "name": "5d0cdf95c34137c6c4e3cdca611d4847", "fusion_lat": 0.0, "rental_uris": {"ios": "https://dc.lft.to/lastmile_qr_scan", "android": "https://dc.lft.to/lastmile_qr_scan"}, "lon": -77.00709183333333, "type": "electric_scooter"}, {"bike_id": "050d4dfc17614b5e2d7c9cfe75dc7208", "is_reserved": 0, "fusion_lon": 0.0, "lat": 38.89166866666667, "is_disabled": 0, "name": "050d4dfc17614b5e2d7c9cfe75dc7208", "fusion_lat": 0.0, "rental_uris": {"ios": "https://dc.lft.to/lastmile_qr_scan", "android": "https://dc.lft.to/lastmile_qr_scan"}, "lon": -77.01546866666666, "type": "electric_scooter"}, {"bike_id": "781bccf63cb7f218b9bd142c070b162b", "is_reserved": 0, "fusion_lon": 0.0, "lat": 38.89836783333333, "is_disabled": 0, "name": "781bccf63cb7f218b9bd142c070b162b", "fusion_lat": 0.0, "rental_uris": {"ios": "https://dc.lft.to/lastmile_qr_scan", "android": "https://dc.lft.to/lastmile_qr_scan"}, "lon": -77.0332835, "type": "electric_scooter"}, {"bike_id": "2144a38cd6f90b65a09027f6a7351171", "is_reserved": 0, "fusion_lon": 0.0, "lat": 38.8764235, "is_disabled": 0, "name": "2144a38cd6f90b65a09027f6a7351171", "fusion_lat": 0.0, "rental_uris": {"ios": "https://dc.lft.to/lastmile_qr_scan", "android": "https://dc.lft.to/lastmile_qr_scan"}, "lon": -76.995917, "type": "electric_scooter"}, {"bike_id": "50476f62f158b19f63672be34ebe53b5", "is_reserved": 0, "fusion_lon": 0.0, "lat": 38.90047633333333, "is_disabled": 0, "name": "50476f62f158b19f63672be34ebe53b5", "fusion_lat": 0.0, "rental_uris": {"ios": "https://dc.lft.to/lastmile_qr_scan", "android": "https://dc.lft.to/lastmile_qr_scan"}, "lon": -77.02693333333333, "type": "electric_scooter"}, {"bike_id": "ffcc84236b557759dd1557fc8b9ea106", "is_reserved": 0, "fusion_lon": 0.0, "lat": 38.9052915, "is_disabled": 0, "name": "ffcc84236b557759dd1557fc8b9ea106", "fusion_lat": 0.0, "rental_uris": {"ios": "https://dc.lft.to/lastmile_qr_scan", "android": "https://dc.lft.to/lastmile_qr_scan"}, "lon": -77.06529616666667, "type": "electric_scooter"}, {"bike_id": "4a318a0e24eb53f7f0e3c0a5be0b7807", "is_reserved": 0, "fusion_lon": 0.0, "lat": 38.89221, "is_disabled": 0, "name": "4a318a0e24eb53f7f0e3c0a5be0b7807", "fusion_lat": 0.0, "rental_uris": {"ios": "https://dc.lft.to/lastmile_qr_scan", "android": "https://dc.lft.to/lastmile_qr_scan"}, "lon": -77.0486495, "type": "electric_scooter"}, {"bike_id": "f5596d202fc9472d104c5f36e2dd732f", "is_reserved": 0, "fusion_lon": 0.0, "lat": 38.911643, "is_disabled": 0, "name": "f5596d202fc9472d104c5f36e2dd732f", "fusion_lat": 0.0, "rental_uris": {"ios": "https://dc.lft.to/lastmile_qr_scan", "android": "https://dc.lft.to/lastmile_qr_scan"}, "lon": -76.98637383333333, "type": "electric_scooter"}, {"bike_id": "d552ff346261d5b806828a7ed6b04327", "is_reserved": 0, "fusion_lon": 0.0, "lat": 38.901232, "is_disabled": 0, "name": "d552ff346261d5b806828a7ed6b04327", "fusion_lat": 0.0, "rental_uris": {"ios": "https://dc.lft.to/lastmile_qr_scan", "android": "https://dc.lft.to/lastmile_qr_scan"}, "lon": -76.99707066666667, "type": "electric_scooter"}, {"bike_id": "1e1d88de290fe3f571d3be712a85e25c", "is_reserved": 0, "fusion_lon": 0.0, "lat": 38.922687833333335, "is_disabled": 0, "name": "1e1d88de290fe3f571d3be712a85e25c", "fusion_lat": 0.0, "rental_uris": {"ios": "https://dc.lft.to/lastmile_qr_scan", "android": "https://dc.lft.to/lastmile_qr_scan"}, "lon": -77.01822966666667, "type": "electric_scooter"}, {"bike_id": "61cb86973e3c836dc6ce737ea32de1bc", "is_reserved": 0, "fusion_lon": 0.0, "lat": 38.927037, "is_disabled": 0, "name": "61cb86973e3c836dc6ce737ea32de1bc", "fusion_lat": 0.0, "rental_uris": {"ios": "https://dc.lft.to/lastmile_qr_scan", "android": "https://dc.lft.to/lastmile_qr_scan"}, "lon": -77.040472, "type": "electric_scooter"}, {"bike_id": "4dbcedd6efe49be740776c22af4a5e42", "is_reserved": 0, "fusion_lon": 0.0, "lat": 38.9170665, "is_disabled": 0, "name": "4dbcedd6efe49be740776c22af4a5e42", "fusion_lat": 0.0, "rental_uris": {"ios": "https://dc.lft.to/lastmile_qr_scan", "android": "https://dc.lft.to/lastmile_qr_scan"}, "lon": -77.03220266666666, "type": "electric_scooter"}, {"bike_id": "5f9c275ac5fa72799ab2af3c5d1870e1", "is_reserved": 0, "fusion_lon": 0.0, "lat": 38.8695715, "is_disabled": 0, "name": "5f9c275ac5fa72799ab2af3c5d1870e1", "fusion_lat": 0.0, "rental_uris": {"ios": "https://dc.lft.to/lastmile_qr_scan", "android": "https://dc.lft.to/lastmile_qr_scan"}, "lon": -77.0137115, "type": "electric_scooter"}, {"bike_id": "c1961f277d05d762dfd1a5a474beb9a3", "is_reserved": 0, "fusion_lon": 0.0, "lat": 38.905335666666666, "is_disabled": 0, "name": "c1961f277d05d762dfd1a5a474beb9a3", "fusion_lat": 0.0, "rental_uris": {"ios": "https://dc.lft.to/lastmile_qr_scan", "android": "https://dc.lft.to/lastmile_qr_scan"}, "lon": -77.05046816666666, "type": "electric_scooter"}, {"bike_id": "a97ace87249ae01c7eb7f1ebf7b650de", "is_reserved": 0, "fusion_lon": 0.0, "lat": 38.9045705, "is_disabled": 0, "name": "a97ace87249ae01c7eb7f1ebf7b650de", "fusion_lat": 0.0, "rental_uris": {"ios": "https://dc.lft.to/lastmile_qr_scan", "android": "https://dc.lft.to/lastmile_qr_scan"}, "lon": -76.99504816666666, "type": "electric_scooter"}, {"bike_id": "c455f3eae7ae1ceb1c961c70a9b4d197", "is_reserved": 0, "fusion_lon": 0.0, "lat": 38.8960445, "is_disabled": 0, "name": "c455f3eae7ae1ceb1c961c70a9b4d197", "fusion_lat": 0.0, "rental_uris": {"ios": "https://dc.lft.to/lastmile_qr_scan", "android": "https://dc.lft.to/lastmile_qr_scan"}, "lon": -77.04506816666667, "type": "electric_scooter"}, {"bike_id": "b7985e0daec5231e3814ab8a90f95ca3", "is_reserved": 0, "fusion_lon": 0.0, "lat": 38.93411066666667, "is_disabled": 0, "name": "b7985e0daec5231e3814ab8a90f95ca3", "fusion_lat": 0.0, "rental_uris": {"ios": "https://dc.lft.to/lastmile_qr_scan", "android": "https://dc.lft.to/lastmile_qr_scan"}, "lon": -77.02096533333334, "type": "electric_bike"}, {"bike_id": "f47577cf494911b495003e49fbcd19ff", "is_reserved": 0, "fusion_lon": 0.0, "lat": 38.892956166666664, "is_disabled": 0, "name": "f47577cf494911b495003e49fbcd19ff", "fusion_lat": 0.0, "rental_uris": {"ios": "https://dc.lft.to/lastmile_qr_scan", "android": "https://dc.lft.to/lastmile_qr_scan"}, "lon": -77.01234683333334, "type": "electric_scooter"}, {"bike_id": "bc6181188fecdb507ecf671da24880b2", "is_reserved": 0, "fusion_lon": 0.0, "lat": 38.968214833333334, "is_disabled": 0, "name": "bc6181188fecdb507ecf671da24880b2", "fusion_lat": 0.0, "rental_uris": {"ios": "https://dc.lft.to/lastmile_qr_scan", "android": "https://dc.lft.to/lastmile_qr_scan"}, "lon": -77.01787433333334, "type": "electric_scooter"}, {"bike_id": "309c92d40b25e7b0c235d2a89e919c1d", "is_reserved": 0, "fusion_lon": 0.0, "lat": 38.9051165, "is_disabled": 0, "name": "309c92d40b25e7b0c235d2a89e919c1d", "fusion_lat": 0.0, "rental_uris": {"ios": "https://dc.lft.to/lastmile_qr_scan", "android": "https://dc.lft.to/lastmile_qr_scan"}, "lon": -77.0674635, "type": "electric_scooter"}, {"bike_id": "12a458ca8948ea4ea87d095600d9d302", "is_reserved": 0, "fusion_lon": 0.0, "lat": 38.901646, "is_disabled": 0, "name": "12a458ca8948ea4ea87d095600d9d302", "fusion_lat": 0.0, "rental_uris": {"ios": "https://dc.lft.to/lastmile_qr_scan", "android": "https://dc.lft.to/lastmile_qr_scan"}, "lon": -77.02853416666666, "type": "electric_scooter"}, {"bike_id": "ab9cf84018e04d65e914c04f1863937f", "is_reserved": 0, "fusion_lon": 0.0, "lat": 38.900591166666665, "is_disabled": 0, "name": "ab9cf84018e04d65e914c04f1863937f", "fusion_lat": 0.0, "rental_uris": {"ios": "https://dc.lft.to/lastmile_qr_scan", "android": "https://dc.lft.to/lastmile_qr_scan"}, "lon": -77.05039816666667, "type": "electric_scooter"}, {"bike_id": "951ca0313c4ce933b9f276ffea83753b", "is_reserved": 0, "fusion_lon": 0.0, "lat": 38.86656583333333, "is_disabled": 0, "name": "951ca0313c4ce933b9f276ffea83753b", "fusion_lat": 0.0, "rental_uris": {"ios": "https://dc.lft.to/lastmile_qr_scan", "android": "https://dc.lft.to/lastmile_qr_scan"}, "lon": -76.9901545, "type": "electric_scooter"}, {"bike_id": "a0f09760498684c313ca6f5ccb6117f2", "is_reserved": 0, "fusion_lon": 0.0, "lat": 38.90109433333333, "is_disabled": 0, "name": "a0f09760498684c313ca6f5ccb6117f2", "fusion_lat": 0.0, "rental_uris": {"ios": "https://dc.lft.to/lastmile_qr_scan", "android": "https://dc.lft.to/lastmile_qr_scan"}, "lon": -77.05169966666666, "type": "electric_scooter"}, {"bike_id": "ff01044d102e898a533d5e13f3044ad1", "is_reserved": 0, "fusion_lon": 0.0, "lat": 38.903522333333335, "is_disabled": 0, "name": "ff01044d102e898a533d5e13f3044ad1", "fusion_lat": 0.0, "rental_uris": {"ios": "https://dc.lft.to/lastmile_qr_scan", "android": "https://dc.lft.to/lastmile_qr_scan"}, "lon": -77.029558, "type": "electric_scooter"}, {"bike_id": "371d09ea04cab1e2cf085f701eb88ef1", "is_reserved": 0, "fusion_lon": 0.0, "lat": 38.902818333333336, "is_disabled": 0, "name": "371d09ea04cab1e2cf085f701eb88ef1", "fusion_lat": 0.0, "rental_uris": {"ios": "https://dc.lft.to/lastmile_qr_scan", "android": "https://dc.lft.to/lastmile_qr_scan"}, "lon": -77.03937016666667, "type": "electric_scooter"}, {"bike_id": "5f306197713398afe55fa21ed9a86fde", "is_reserved": 0, "fusion_lon": 0.0, "lat": 38.93081433333333, "is_disabled": 0, "name": "5f306197713398afe55fa21ed9a86fde", "fusion_lat": 0.0, "rental_uris": {"ios": "https://dc.lft.to/lastmile_qr_scan", "android": "https://dc.lft.to/lastmile_qr_scan"}, "lon": -77.02793816666667, "type": "electric_scooter"}, {"bike_id": "d10d0b7febb3dc4e5caafa19e9c61eea", "is_reserved": 0, "fusion_lon": 0.0, "lat": 38.881291833333336, "is_disabled": 0, "name": "d10d0b7febb3dc4e5caafa19e9c61eea", "fusion_lat": 0.0, "rental_uris": {"ios": "https://dc.lft.to/lastmile_qr_scan", "android": "https://dc.lft.to/lastmile_qr_scan"}, "lon": -76.9809025, "type": "electric_bike"}, {"bike_id": "eabe75242e63571f08893e78c2838ea3", "is_reserved": 0, "fusion_lon": 0.0, "lat": 38.90041566666667, "is_disabled": 0, "name": "eabe75242e63571f08893e78c2838ea3", "fusion_lat": 0.0, "rental_uris": {"ios": "https://dc.lft.to/lastmile_qr_scan", "android": "https://dc.lft.to/lastmile_qr_scan"}, "lon": -77.02729883333333, "type": "electric_scooter"}, {"bike_id": "3c83476f6fb7425e621b3483e785489e", "is_reserved": 0, "fusion_lon": 0.0, "lat": 38.93854, "is_disabled": 0, "name": "3c83476f6fb7425e621b3483e785489e", "fusion_lat": 0.0, "rental_uris": {"ios": "https://dc.lft.to/lastmile_qr_scan", "android": "https://dc.lft.to/lastmile_qr_scan"}, "lon": -77.02453733333333, "type": "electric_scooter"}, {"bike_id": "834caab17b9046792c68490340e639bf", "is_reserved": 0, "fusion_lon": 0.0, "lat": 38.839784333333334, "is_disabled": 0, "name": "834caab17b9046792c68490340e639bf", "fusion_lat": 0.0, "rental_uris": {"ios": "https://dc.lft.to/lastmile_qr_scan", "android": "https://dc.lft.to/lastmile_qr_scan"}, "lon": -77.00568783333334, "type": "electric_bike"}, {"bike_id": "a94e35b0cc0199bbf5e0846a5eb305af", "is_reserved": 0, "fusion_lon": 0.0, "lat": 38.894860666666666, "is_disabled": 0, "name": "a94e35b0cc0199bbf5e0846a5eb305af", "fusion_lat": 0.0, "rental_uris": {"ios": "https://dc.lft.to/lastmile_qr_scan", "android": "https://dc.lft.to/lastmile_qr_scan"}, "lon": -77.0229905, "type": "electric_scooter"}, {"bike_id": "56472132b206116339050452aac963ce", "is_reserved": 0, "fusion_lon": 0.0, "lat": 38.84292716666667, "is_disabled": 0, "name": "56472132b206116339050452aac963ce", "fusion_lat": 0.0, "rental_uris": {"ios": "https://dc.lft.to/lastmile_qr_scan", "android": "https://dc.lft.to/lastmile_qr_scan"}, "lon": -76.99949416666666, "type": "electric_scooter"}, {"bike_id": "ccd983d810e78a7df93ae46087603369", "is_reserved": 0, "fusion_lon": 0.0, "lat": 38.9229835, "is_disabled": 0, "name": "ccd983d810e78a7df93ae46087603369", "fusion_lat": 0.0, "rental_uris": {"ios": "https://dc.lft.to/lastmile_qr_scan", "android": "https://dc.lft.to/lastmile_qr_scan"}, "lon": -77.04153933333333, "type": "electric_scooter"}, {"bike_id": "ed326869ec39e9407feb2c86dd5bc93d", "is_reserved": 0, "fusion_lon": 0.0, "lat": 38.898428, "is_disabled": 0, "name": "ed326869ec39e9407feb2c86dd5bc93d", "fusion_lat": 0.0, "rental_uris": {"ios": "https://dc.lft.to/lastmile_qr_scan", "android": "https://dc.lft.to/lastmile_qr_scan"}, "lon": -77.03349266666666, "type": "electric_scooter"}, {"bike_id": "cf91dc40c7b791a27aa126f202ccbaa7", "is_reserved": 0, "fusion_lon": 0.0, "lat": 38.9417325, "is_disabled": 0, "name": "cf91dc40c7b791a27aa126f202ccbaa7", "fusion_lat": 0.0, "rental_uris": {"ios": "https://dc.lft.to/lastmile_qr_scan", "android": "https://dc.lft.to/lastmile_qr_scan"}, "lon": -77.02502733333333, "type": "electric_scooter"}, {"bike_id": "eb5a2fc64c7f694419592a2ff606acdd", "is_reserved": 0, "fusion_lon": 0.0, "lat": 38.8762835, "is_disabled": 0, "name": "eb5a2fc64c7f694419592a2ff606acdd", "fusion_lat": 0.0, "rental_uris": {"ios": "https://dc.lft.to/lastmile_qr_scan", "android": "https://dc.lft.to/lastmile_qr_scan"}, "lon": -76.9652655, "type": "electric_scooter"}, {"bike_id": "464626f8cb8b63ccd7739247b0cf71d8", "is_reserved": 0, "fusion_lon": 0.0, "lat": 38.905644, "is_disabled": 0, "name": "464626f8cb8b63ccd7739247b0cf71d8", "fusion_lat": 0.0, "rental_uris": {"ios": "https://dc.lft.to/lastmile_qr_scan", "android": "https://dc.lft.to/lastmile_qr_scan"}, "lon": -77.02049433333333, "type": "electric_scooter"}, {"bike_id": "db6c10d81e76d89cc5064caa823327de", "is_reserved": 0, "fusion_lon": 0.0, "lat": 38.8783305, "is_disabled": 0, "name": "db6c10d81e76d89cc5064caa823327de", "fusion_lat": 0.0, "rental_uris": {"ios": "https://dc.lft.to/lastmile_qr_scan", "android": "https://dc.lft.to/lastmile_qr_scan"}, "lon": -76.99035816666667, "type": "electric_scooter"}, {"bike_id": "11d8d9a76c374b866857f5b1ed2a22b5", "is_reserved": 0, "fusion_lon": 0.0, "lat": 38.904464, "is_disabled": 0, "name": "11d8d9a76c374b866857f5b1ed2a22b5", "fusion_lat": 0.0, "rental_uris": {"ios": "https://dc.lft.to/lastmile_qr_scan", "android": "https://dc.lft.to/lastmile_qr_scan"}, "lon": -76.9962065, "type": "electric_scooter"}, {"bike_id": "64934ddc73caf7f57c3584e4e2624821", "is_reserved": 0, "fusion_lon": 0.0, "lat": 38.902957, "is_disabled": 0, "name": "64934ddc73caf7f57c3584e4e2624821", "fusion_lat": 0.0, "rental_uris": {"ios": "https://dc.lft.to/lastmile_qr_scan", "android": "https://dc.lft.to/lastmile_qr_scan"}, "lon": -76.99856466666667, "type": "electric_scooter"}, {"bike_id": "7bcb78bc4a54fc930e77cefdb243c07e", "is_reserved": 0, "fusion_lon": 0.0, "lat": 38.9042075, "is_disabled": 0, "name": "7bcb78bc4a54fc930e77cefdb243c07e", "fusion_lat": 0.0, "rental_uris": {"ios": "https://dc.lft.to/lastmile_qr_scan", "android": "https://dc.lft.to/lastmile_qr_scan"}, "lon": -77.0433825, "type": "electric_scooter"}, {"bike_id": "b377d8d35a41d1fa9f62e66c81639b2d", "is_reserved": 0, "fusion_lon": 0.0, "lat": 38.89220016666667, "is_disabled": 0, "name": "b377d8d35a41d1fa9f62e66c81639b2d", "fusion_lat": 0.0, "rental_uris": {"ios": "https://dc.lft.to/lastmile_qr_scan", "android": "https://dc.lft.to/lastmile_qr_scan"}, "lon": -77.04506133333334, "type": "electric_scooter"}, {"bike_id": "efb483453888b24b9698f657c1fdf02a", "is_reserved": 0, "fusion_lon": 0.0, "lat": 38.90774066666667, "is_disabled": 0, "name": "efb483453888b24b9698f657c1fdf02a", "fusion_lat": 0.0, "rental_uris": {"ios": "https://dc.lft.to/lastmile_qr_scan", "android": "https://dc.lft.to/lastmile_qr_scan"}, "lon": -77.06924583333333, "type": "electric_scooter"}, {"bike_id": "72e474c97021b75cde0f9bf4fc66b69f", "is_reserved": 0, "fusion_lon": 0.0, "lat": 38.92259133333334, "is_disabled": 0, "name": "72e474c97021b75cde0f9bf4fc66b69f", "fusion_lat": 0.0, "rental_uris": {"ios": "https://dc.lft.to/lastmile_qr_scan", "android": "https://dc.lft.to/lastmile_qr_scan"}, "lon": -77.01828016666667, "type": "electric_scooter"}, {"bike_id": "f6d80135be818611b850d539a8930fac", "is_reserved": 0, "fusion_lon": 0.0, "lat": 38.911958, "is_disabled": 0, "name": "f6d80135be818611b850d539a8930fac", "fusion_lat": 0.0, "rental_uris": {"ios": "https://dc.lft.to/lastmile_qr_scan", "android": "https://dc.lft.to/lastmile_qr_scan"}, "lon": -77.0160235, "type": "electric_scooter"}, {"bike_id": "7422db2012beeb2b667a667a7b8f6e66", "is_reserved": 0, "fusion_lon": 0.0, "lat": 38.914032, "is_disabled": 0, "name": "7422db2012beeb2b667a667a7b8f6e66", "fusion_lat": 0.0, "rental_uris": {"ios": "https://dc.lft.to/lastmile_qr_scan", "android": "https://dc.lft.to/lastmile_qr_scan"}, "lon": -77.04150783333333, "type": "electric_scooter"}, {"bike_id": "5976d0a249e2e1df24eff08fee11e024", "is_reserved": 0, "fusion_lon": 0.0, "lat": 38.9086735, "is_disabled": 0, "name": "5976d0a249e2e1df24eff08fee11e024", "fusion_lat": 0.0, "rental_uris": {"ios": "https://dc.lft.to/lastmile_qr_scan", "android": "https://dc.lft.to/lastmile_qr_scan"}, "lon": -77.00633116666667, "type": "electric_scooter"}, {"bike_id": "d07b491f9cbfdaaf260779bfc157a778", "is_reserved": 0, "fusion_lon": 0.0, "lat": 38.863681166666666, "is_disabled": 0, "name": "d07b491f9cbfdaaf260779bfc157a778", "fusion_lat": 0.0, "rental_uris": {"ios": "https://dc.lft.to/lastmile_qr_scan", "android": "https://dc.lft.to/lastmile_qr_scan"}, "lon": -76.99047416666667, "type": "electric_scooter"}, {"bike_id": "d50e9afaa5336a1ad18c790b45c1ecda", "is_reserved": 0, "fusion_lon": 0.0, "lat": 38.91809966666667, "is_disabled": 0, "name": "d50e9afaa5336a1ad18c790b45c1ecda", "fusion_lat": 0.0, "rental_uris": {"ios": "https://dc.lft.to/lastmile_qr_scan", "android": "https://dc.lft.to/lastmile_qr_scan"}, "lon": -77.034398, "type": "electric_scooter"}, {"bike_id": "ef1c9692cc16216e6393718d8b7c7b03", "is_reserved": 0, "fusion_lon": 0.0, "lat": 38.898340833333336, "is_disabled": 0, "name": "ef1c9692cc16216e6393718d8b7c7b03", "fusion_lat": 0.0, "rental_uris": {"ios": "https://dc.lft.to/lastmile_qr_scan", "android": "https://dc.lft.to/lastmile_qr_scan"}, "lon": -77.03311733333334, "type": "electric_scooter"}, {"bike_id": "747b9cd8daee659888f473c7cdec6d76", "is_reserved": 0, "fusion_lon": 0.0, "lat": 38.84292633333333, "is_disabled": 0, "name": "747b9cd8daee659888f473c7cdec6d76", "fusion_lat": 0.0, "rental_uris": {"ios": "https://dc.lft.to/lastmile_qr_scan", "android": "https://dc.lft.to/lastmile_qr_scan"}, "lon": -76.999489, "type": "electric_scooter"}, {"bike_id": "7593b13bf0d3ccd5c1b4eca9f2db54c0", "is_reserved": 0, "fusion_lon": 0.0, "lat": 38.9177075, "is_disabled": 0, "name": "7593b13bf0d3ccd5c1b4eca9f2db54c0", "fusion_lat": 0.0, "rental_uris": {"ios": "https://dc.lft.to/lastmile_qr_scan", "android": "https://dc.lft.to/lastmile_qr_scan"}, "lon": -77.040588, "type": "electric_scooter"}, {"bike_id": "88bcae1d0e1db5ededf3dd3f1c01e2c3", "is_reserved": 0, "fusion_lon": 0.0, "lat": 38.903297333333335, "is_disabled": 0, "name": "88bcae1d0e1db5ededf3dd3f1c01e2c3", "fusion_lat": 0.0, "rental_uris": {"ios": "https://dc.lft.to/lastmile_qr_scan", "android": "https://dc.lft.to/lastmile_qr_scan"}, "lon": -77.06588116666667, "type": "electric_scooter"}, {"bike_id": "8dc458ffe2fb9b9889d3eed0ee6741b3", "is_reserved": 0, "fusion_lon": 0.0, "lat": 38.95550216666667, "is_disabled": 0, "name": "8dc458ffe2fb9b9889d3eed0ee6741b3", "fusion_lat": 0.0, "rental_uris": {"ios": "https://dc.lft.to/lastmile_qr_scan", "android": "https://dc.lft.to/lastmile_qr_scan"}, "lon": -76.93536116666667, "type": "electric_bike"}, {"bike_id": "20c0c7aecf35b6baadb17ec10673cb59", "is_reserved": 0, "fusion_lon": 0.0, "lat": 38.894699333333335, "is_disabled": 0, "name": "20c0c7aecf35b6baadb17ec10673cb59", "fusion_lat": 0.0, "rental_uris": {"ios": "https://dc.lft.to/lastmile_qr_scan", "android": "https://dc.lft.to/lastmile_qr_scan"}, "lon": -76.9840535, "type": "electric_scooter"}, {"bike_id": "a0b3de38096e5d05e0c46ded472c5be5", "is_reserved": 0, "fusion_lon": 0.0, "lat": 38.8792455, "is_disabled": 0, "name": "a0b3de38096e5d05e0c46ded472c5be5", "fusion_lat": 0.0, "rental_uris": {"ios": "https://dc.lft.to/lastmile_qr_scan", "android": "https://dc.lft.to/lastmile_qr_scan"}, "lon": -77.00741766666667, "type": "electric_scooter"}, {"bike_id": "ad4b99fc98c0d5a761c3465c1d64bc6a", "is_reserved": 0, "fusion_lon": 0.0, "lat": 38.90049833333333, "is_disabled": 0, "name": "ad4b99fc98c0d5a761c3465c1d64bc6a", "fusion_lat": 0.0, "rental_uris": {"ios": "https://dc.lft.to/lastmile_qr_scan", "android": "https://dc.lft.to/lastmile_qr_scan"}, "lon": -77.05019066666667, "type": "electric_scooter"}, {"bike_id": "a4b2a49577fb4a50a6a7cca31c0f96ff", "is_reserved": 0, "fusion_lon": 0.0, "lat": 38.896127166666666, "is_disabled": 0, "name": "a4b2a49577fb4a50a6a7cca31c0f96ff", "fusion_lat": 0.0, "rental_uris": {"ios": "https://dc.lft.to/lastmile_qr_scan", "android": "https://dc.lft.to/lastmile_qr_scan"}, "lon": -76.9812165, "type": "electric_scooter"}, {"bike_id": "5dc473e3993a31fce96344cc563675d7", "is_reserved": 0, "fusion_lon": 0.0, "lat": 38.851545, "is_disabled": 0, "name": "5dc473e3993a31fce96344cc563675d7", "fusion_lat": 0.0, "rental_uris": {"ios": "https://dc.lft.to/lastmile_qr_scan", "android": "https://dc.lft.to/lastmile_qr_scan"}, "lon": -77.128807, "type": "electric_bike"}, {"bike_id": "c6390d1a9e7db0e2316a723b78ea6fea", "is_reserved": 0, "fusion_lon": 0.0, "lat": 38.8973105, "is_disabled": 0, "name": "c6390d1a9e7db0e2316a723b78ea6fea", "fusion_lat": 0.0, "rental_uris": {"ios": "https://dc.lft.to/lastmile_qr_scan", "android": "https://dc.lft.to/lastmile_qr_scan"}, "lon": -76.92588583333334, "type": "electric_scooter"}, {"bike_id": "185df93fe25745bc542ba071459ad242", "is_reserved": 0, "fusion_lon": 0.0, "lat": 38.89349083333333, "is_disabled": 0, "name": "185df93fe25745bc542ba071459ad242", "fusion_lat": 0.0, "rental_uris": {"ios": "https://dc.lft.to/lastmile_qr_scan", "android": "https://dc.lft.to/lastmile_qr_scan"}, "lon": -77.00205533333333, "type": "electric_scooter"}, {"bike_id": "7e6e5905c9ae8eb3010e83e74579486a", "is_reserved": 0, "fusion_lon": 0.0, "lat": 38.8657185, "is_disabled": 0, "name": "7e6e5905c9ae8eb3010e83e74579486a", "fusion_lat": 0.0, "rental_uris": {"ios": "https://dc.lft.to/lastmile_qr_scan", "android": "https://dc.lft.to/lastmile_qr_scan"}, "lon": -76.98948083333333, "type": "electric_scooter"}, {"bike_id": "9d4a94c34f0ad6cd285bad675d119d60", "is_reserved": 0, "fusion_lon": 0.0, "lat": 38.902615833333336, "is_disabled": 0, "name": "9d4a94c34f0ad6cd285bad675d119d60", "fusion_lat": 0.0, "rental_uris": {"ios": "https://dc.lft.to/lastmile_qr_scan", "android": "https://dc.lft.to/lastmile_qr_scan"}, "lon": -77.0460325, "type": "electric_scooter"}, {"bike_id": "c42f1cabc05f2fc828c5a7e3706188e0", "is_reserved": 0, "fusion_lon": 0.0, "lat": 38.810498833333334, "is_disabled": 0, "name": "c42f1cabc05f2fc828c5a7e3706188e0", "fusion_lat": 0.0, "rental_uris": {"ios": "https://dc.lft.to/lastmile_qr_scan", "android": "https://dc.lft.to/lastmile_qr_scan"}, "lon": -77.08503933333333, "type": "electric_bike"}, {"bike_id": "81c62b1efb3b6a5d9a6b7a280d7f7fea", "is_reserved": 0, "fusion_lon": 0.0, "lat": 38.8922, "is_disabled": 0, "name": "81c62b1efb3b6a5d9a6b7a280d7f7fea", "fusion_lat": 0.0, "rental_uris": {"ios": "https://dc.lft.to/lastmile_qr_scan", "android": "https://dc.lft.to/lastmile_qr_scan"}, "lon": -77.04856666666667, "type": "electric_scooter"}, {"bike_id": "61dd1db0fa3309f891799ec13d05b6ef", "is_reserved": 0, "fusion_lon": 0.0, "lat": 38.844252833333336, "is_disabled": 0, "name": "61dd1db0fa3309f891799ec13d05b6ef", "fusion_lat": 0.0, "rental_uris": {"ios": "https://dc.lft.to/lastmile_qr_scan", "android": "https://dc.lft.to/lastmile_qr_scan"}, "lon": -76.99778633333334, "type": "electric_scooter"}, {"bike_id": "c91dee650bdfdd7cf764a42af3be9fe2", "is_reserved": 0, "fusion_lon": 0.0, "lat": 38.903761333333335, "is_disabled": 0, "name": "c91dee650bdfdd7cf764a42af3be9fe2", "fusion_lat": 0.0, "rental_uris": {"ios": "https://dc.lft.to/lastmile_qr_scan", "android": "https://dc.lft.to/lastmile_qr_scan"}, "lon": -77.0531535, "type": "electric_scooter"}, {"bike_id": "444159cd092bba8eedd6094cf917df93", "is_reserved": 0, "fusion_lon": 0.0, "lat": 38.892209333333334, "is_disabled": 0, "name": "444159cd092bba8eedd6094cf917df93", "fusion_lat": 0.0, "rental_uris": {"ios": "https://dc.lft.to/lastmile_qr_scan", "android": "https://dc.lft.to/lastmile_qr_scan"}, "lon": -77.03982283333333, "type": "electric_scooter"}, {"bike_id": "d164adb8d36de850af3aac0d81d914f6", "is_reserved": 0, "fusion_lon": 0.0, "lat": 38.8774335, "is_disabled": 0, "name": "d164adb8d36de850af3aac0d81d914f6", "fusion_lat": 0.0, "rental_uris": {"ios": "https://dc.lft.to/lastmile_qr_scan", "android": "https://dc.lft.to/lastmile_qr_scan"}, "lon": -76.98057583333333, "type": "electric_bike"}, {"bike_id": "021407d2070944aa68c568175a3feddf", "is_reserved": 0, "fusion_lon": 0.0, "lat": 38.8543475, "is_disabled": 0, "name": "021407d2070944aa68c568175a3feddf", "fusion_lat": 0.0, "rental_uris": {"ios": "https://dc.lft.to/lastmile_qr_scan", "android": "https://dc.lft.to/lastmile_qr_scan"}, "lon": -76.90974233333333, "type": "electric_bike"}, {"bike_id": "42ad50c05e5a8bc68f83438af39bb560", "is_reserved": 0, "fusion_lon": 0.0, "lat": 38.93493816666667, "is_disabled": 0, "name": "42ad50c05e5a8bc68f83438af39bb560", "fusion_lat": 0.0, "rental_uris": {"ios": "https://dc.lft.to/lastmile_qr_scan", "android": "https://dc.lft.to/lastmile_qr_scan"}, "lon": -77.02848933333334, "type": "electric_scooter"}, {"bike_id": "9a29381be7afac1b5601a035210c6bca", "is_reserved": 0, "fusion_lon": 0.0, "lat": 38.90324783333333, "is_disabled": 0, "name": "9a29381be7afac1b5601a035210c6bca", "fusion_lat": 0.0, "rental_uris": {"ios": "https://dc.lft.to/lastmile_qr_scan", "android": "https://dc.lft.to/lastmile_qr_scan"}, "lon": -77.03329183333334, "type": "electric_scooter"}, {"bike_id": "5222b6cb55b4a2c4a8b4d1093c505031", "is_reserved": 0, "fusion_lon": 0.0, "lat": 38.88600916666667, "is_disabled": 0, "name": "5222b6cb55b4a2c4a8b4d1093c505031", "fusion_lat": 0.0, "rental_uris": {"ios": "https://dc.lft.to/lastmile_qr_scan", "android": "https://dc.lft.to/lastmile_qr_scan"}, "lon": -77.00568633333333, "type": "electric_scooter"}, {"bike_id": "5bc350796228da6ef3b15b473e0a255a", "is_reserved": 0, "fusion_lon": 0.0, "lat": 38.8995285, "is_disabled": 0, "name": "5bc350796228da6ef3b15b473e0a255a", "fusion_lat": 0.0, "rental_uris": {"ios": "https://dc.lft.to/lastmile_qr_scan", "android": "https://dc.lft.to/lastmile_qr_scan"}, "lon": -77.03201883333334, "type": "electric_scooter"}, {"bike_id": "7c29a7a3bf752189ef5d1748cca079f8", "is_reserved": 0, "fusion_lon": 0.0, "lat": 38.86617433333333, "is_disabled": 0, "name": "7c29a7a3bf752189ef5d1748cca079f8", "fusion_lat": 0.0, "rental_uris": {"ios": "https://dc.lft.to/lastmile_qr_scan", "android": "https://dc.lft.to/lastmile_qr_scan"}, "lon": -76.94573833333334, "type": "electric_bike"}, {"bike_id": "318712d94f2c3ce99bbfd72ed7356344", "is_reserved": 0, "fusion_lon": 0.0, "lat": 38.9007955, "is_disabled": 0, "name": "318712d94f2c3ce99bbfd72ed7356344", "fusion_lat": 0.0, "rental_uris": {"ios": "https://dc.lft.to/lastmile_qr_scan", "android": "https://dc.lft.to/lastmile_qr_scan"}, "lon": -76.93862766666666, "type": "electric_scooter"}, {"bike_id": "1e8134c4c9dd8c4dc055a550707cee22", "is_reserved": 0, "fusion_lon": 0.0, "lat": 38.86006833333333, "is_disabled": 0, "name": "1e8134c4c9dd8c4dc055a550707cee22", "fusion_lat": 0.0, "rental_uris": {"ios": "https://dc.lft.to/lastmile_qr_scan", "android": "https://dc.lft.to/lastmile_qr_scan"}, "lon": -77.05772233333333, "type": "electric_bike"}, {"bike_id": "d127358b186714a7dd0f6de3515c2564", "is_reserved": 0, "fusion_lon": 0.0, "lat": 38.9111705, "is_disabled": 0, "name": "d127358b186714a7dd0f6de3515c2564", "fusion_lat": 0.0, "rental_uris": {"ios": "https://dc.lft.to/lastmile_qr_scan", "android": "https://dc.lft.to/lastmile_qr_scan"}, "lon": -77.00600766666666, "type": "electric_scooter"}, {"bike_id": "93285b04a9806cd8332418cbdfca0fcc", "is_reserved": 0, "fusion_lon": 0.0, "lat": 38.90372166666667, "is_disabled": 0, "name": "93285b04a9806cd8332418cbdfca0fcc", "fusion_lat": 0.0, "rental_uris": {"ios": "https://dc.lft.to/lastmile_qr_scan", "android": "https://dc.lft.to/lastmile_qr_scan"}, "lon": -77.045009, "type": "electric_scooter"}, {"bike_id": "0e2b4bca1b9715d382678e7342701cd4", "is_reserved": 0, "fusion_lon": 0.0, "lat": 38.8972655, "is_disabled": 0, "name": "0e2b4bca1b9715d382678e7342701cd4", "fusion_lat": 0.0, "rental_uris": {"ios": "https://dc.lft.to/lastmile_qr_scan", "android": "https://dc.lft.to/lastmile_qr_scan"}, "lon": -77.055708, "type": "electric_scooter"}, {"bike_id": "38f96d0c13461600235d1235397b23ea", "is_reserved": 0, "fusion_lon": 0.0, "lat": 38.90511933333333, "is_disabled": 0, "name": "38f96d0c13461600235d1235397b23ea", "fusion_lat": 0.0, "rental_uris": {"ios": "https://dc.lft.to/lastmile_qr_scan", "android": "https://dc.lft.to/lastmile_qr_scan"}, "lon": -77.056932, "type": "electric_bike"}, {"bike_id": "0b8bfbe46b464d90745bf07645dec05f", "is_reserved": 0, "fusion_lon": 0.0, "lat": 38.88846433333333, "is_disabled": 0, "name": "0b8bfbe46b464d90745bf07645dec05f", "fusion_lat": 0.0, "rental_uris": {"ios": "https://dc.lft.to/lastmile_qr_scan", "android": "https://dc.lft.to/lastmile_qr_scan"}, "lon": -76.92681666666667, "type": "electric_scooter"}, {"bike_id": "92373fdfc77c1e4685642c1d167bd7df", "is_reserved": 0, "fusion_lon": 0.0, "lat": 38.948022, "is_disabled": 0, "name": "92373fdfc77c1e4685642c1d167bd7df", "fusion_lat": 0.0, "rental_uris": {"ios": "https://dc.lft.to/lastmile_qr_scan", "android": "https://dc.lft.to/lastmile_qr_scan"}, "lon": -77.07908233333333, "type": "electric_scooter"}, {"bike_id": "4d9af1d41c99ef99f00141c8d546491f", "is_reserved": 0, "fusion_lon": 0.0, "lat": 38.90461066666667, "is_disabled": 0, "name": "4d9af1d41c99ef99f00141c8d546491f", "fusion_lat": 0.0, "rental_uris": {"ios": "https://dc.lft.to/lastmile_qr_scan", "android": "https://dc.lft.to/lastmile_qr_scan"}, "lon": -77.02589816666666, "type": "electric_scooter"}, {"bike_id": "600caed6e8a37c2d502d6e844858b9c4", "is_reserved": 0, "fusion_lon": 0.0, "lat": 38.88747766666667, "is_disabled": 0, "name": "600caed6e8a37c2d502d6e844858b9c4", "fusion_lat": 0.0, "rental_uris": {"ios": "https://dc.lft.to/lastmile_qr_scan", "android": "https://dc.lft.to/lastmile_qr_scan"}, "lon": -77.03155333333333, "type": "electric_scooter"}, {"bike_id": "076fea5969f056bea905effefac4b995", "is_reserved": 0, "fusion_lon": 0.0, "lat": 38.949707, "is_disabled": 0, "name": "076fea5969f056bea905effefac4b995", "fusion_lat": 0.0, "rental_uris": {"ios": "https://dc.lft.to/lastmile_qr_scan", "android": "https://dc.lft.to/lastmile_qr_scan"}, "lon": -76.972824, "type": "electric_bike"}, {"bike_id": "b90e940053fddcf505fb8b134a94b2bf", "is_reserved": 0, "fusion_lon": 0.0, "lat": 38.930718166666665, "is_disabled": 0, "name": "b90e940053fddcf505fb8b134a94b2bf", "fusion_lat": 0.0, "rental_uris": {"ios": "https://dc.lft.to/lastmile_qr_scan", "android": "https://dc.lft.to/lastmile_qr_scan"}, "lon": -77.03137366666667, "type": "electric_scooter"}, {"bike_id": "0f685affeb565ad7528007efb07b3da2", "is_reserved": 0, "fusion_lon": 0.0, "lat": 38.90372983333334, "is_disabled": 0, "name": "0f685affeb565ad7528007efb07b3da2", "fusion_lat": 0.0, "rental_uris": {"ios": "https://dc.lft.to/lastmile_qr_scan", "android": "https://dc.lft.to/lastmile_qr_scan"}, "lon": -77.04506633333334, "type": "electric_scooter"}, {"bike_id": "50b22ae03989ceebaf1af2a1123fdbbc", "is_reserved": 0, "fusion_lon": 0.0, "lat": 38.905762833333334, "is_disabled": 0, "name": "50b22ae03989ceebaf1af2a1123fdbbc", "fusion_lat": 0.0, "rental_uris": {"ios": "https://dc.lft.to/lastmile_qr_scan", "android": "https://dc.lft.to/lastmile_qr_scan"}, "lon": -77.006054, "type": "electric_scooter"}, {"bike_id": "64b21af594698378621de4b92a839acb", "is_reserved": 0, "fusion_lon": 0.0, "lat": 38.91384033333333, "is_disabled": 0, "name": "64b21af594698378621de4b92a839acb", "fusion_lat": 0.0, "rental_uris": {"ios": "https://dc.lft.to/lastmile_qr_scan", "android": "https://dc.lft.to/lastmile_qr_scan"}, "lon": -77.01702883333333, "type": "electric_scooter"}, {"bike_id": "4e5f9573fa1dde9ce110717905236890", "is_reserved": 0, "fusion_lon": 0.0, "lat": 38.889969666666666, "is_disabled": 0, "name": "4e5f9573fa1dde9ce110717905236890", "fusion_lat": 0.0, "rental_uris": {"ios": "https://dc.lft.to/lastmile_qr_scan", "android": "https://dc.lft.to/lastmile_qr_scan"}, "lon": -76.9384075, "type": "electric_scooter"}, {"bike_id": "a7c5dc7fbd2d3205e63a549a88e371dd", "is_reserved": 0, "fusion_lon": 0.0, "lat": 38.904715333333336, "is_disabled": 0, "name": "a7c5dc7fbd2d3205e63a549a88e371dd", "fusion_lat": 0.0, "rental_uris": {"ios": "https://dc.lft.to/lastmile_qr_scan", "android": "https://dc.lft.to/lastmile_qr_scan"}, "lon": -77.04056816666667, "type": "electric_scooter"}, {"bike_id": "065230cd60bbb56767d02e9749c55171", "is_reserved": 0, "fusion_lon": 0.0, "lat": 38.93708766666666, "is_disabled": 0, "name": "065230cd60bbb56767d02e9749c55171", "fusion_lat": 0.0, "rental_uris": {"ios": "https://dc.lft.to/lastmile_qr_scan", "android": "https://dc.lft.to/lastmile_qr_scan"}, "lon": -77.02937766666666, "type": "electric_scooter"}, {"bike_id": "c16638b58a246dae6f5840b27d7b4219", "is_reserved": 0, "fusion_lon": 0.0, "lat": 38.905979333333335, "is_disabled": 0, "name": "c16638b58a246dae6f5840b27d7b4219", "fusion_lat": 0.0, "rental_uris": {"ios": "https://dc.lft.to/lastmile_qr_scan", "android": "https://dc.lft.to/lastmile_qr_scan"}, "lon": -77.05098183333334, "type": "electric_scooter"}, {"bike_id": "cfccc9b1d41ae02ac0df79bcbc5eeee6", "is_reserved": 0, "fusion_lon": 0.0, "lat": 38.90245866666667, "is_disabled": 0, "name": "cfccc9b1d41ae02ac0df79bcbc5eeee6", "fusion_lat": 0.0, "rental_uris": {"ios": "https://dc.lft.to/lastmile_qr_scan", "android": "https://dc.lft.to/lastmile_qr_scan"}, "lon": -77.0071825, "type": "electric_scooter"}, {"bike_id": "0e1a4223c9d64b68fd2c38ea4088d875", "is_reserved": 0, "fusion_lon": 0.0, "lat": 38.90127183333333, "is_disabled": 0, "name": "0e1a4223c9d64b68fd2c38ea4088d875", "fusion_lat": 0.0, "rental_uris": {"ios": "https://dc.lft.to/lastmile_qr_scan", "android": "https://dc.lft.to/lastmile_qr_scan"}, "lon": -77.03337316666666, "type": "electric_scooter"}, {"bike_id": "c1a37538ba2ef2dceb42f3d43461f900", "is_reserved": 0, "fusion_lon": 0.0, "lat": 38.928479833333334, "is_disabled": 0, "name": "c1a37538ba2ef2dceb42f3d43461f900", "fusion_lat": 0.0, "rental_uris": {"ios": "https://dc.lft.to/lastmile_qr_scan", "android": "https://dc.lft.to/lastmile_qr_scan"}, "lon": -77.01392166666666, "type": "electric_scooter"}, {"bike_id": "98f52f97fd97d8791b5b696fea17d9d4", "is_reserved": 0, "fusion_lon": 0.0, "lat": 38.93969666666667, "is_disabled": 0, "name": "98f52f97fd97d8791b5b696fea17d9d4", "fusion_lat": 0.0, "rental_uris": {"ios": "https://dc.lft.to/lastmile_qr_scan", "android": "https://dc.lft.to/lastmile_qr_scan"}, "lon": -77.03262583333333, "type": "electric_scooter"}, {"bike_id": "b5d18e58ba8ff5982edd4c4d62062bfb", "is_reserved": 0, "fusion_lon": 0.0, "lat": 38.88494033333333, "is_disabled": 0, "name": "b5d18e58ba8ff5982edd4c4d62062bfb", "fusion_lat": 0.0, "rental_uris": {"ios": "https://dc.lft.to/lastmile_qr_scan", "android": "https://dc.lft.to/lastmile_qr_scan"}, "lon": -77.00345883333334, "type": "electric_scooter"}, {"bike_id": "153634cd505ffad4616725954e2792ba", "is_reserved": 0, "fusion_lon": 0.0, "lat": 38.837256333333336, "is_disabled": 0, "name": "153634cd505ffad4616725954e2792ba", "fusion_lat": 0.0, "rental_uris": {"ios": "https://dc.lft.to/lastmile_qr_scan", "android": "https://dc.lft.to/lastmile_qr_scan"}, "lon": -76.99768033333334, "type": "electric_bike"}, {"bike_id": "d0e150cec7cebc2cec330550d2b737ac", "is_reserved": 0, "fusion_lon": 0.0, "lat": 38.8550485, "is_disabled": 0, "name": "d0e150cec7cebc2cec330550d2b737ac", "fusion_lat": 0.0, "rental_uris": {"ios": "https://dc.lft.to/lastmile_qr_scan", "android": "https://dc.lft.to/lastmile_qr_scan"}, "lon": -76.9842025, "type": "electric_bike"}, {"bike_id": "2b59fe6e97a0973e191bee1fac57c2c6", "is_reserved": 0, "fusion_lon": 0.0, "lat": 38.950788833333334, "is_disabled": 0, "name": "2b59fe6e97a0973e191bee1fac57c2c6", "fusion_lat": 0.0, "rental_uris": {"ios": "https://dc.lft.to/lastmile_qr_scan", "android": "https://dc.lft.to/lastmile_qr_scan"}, "lon": -77.0123525, "type": "electric_bike"}, {"bike_id": "1fe6f1023ed1dd583a751f8bdfad012b", "is_reserved": 0, "fusion_lon": 0.0, "lat": 38.9247525, "is_disabled": 0, "name": "1fe6f1023ed1dd583a751f8bdfad012b", "fusion_lat": 0.0, "rental_uris": {"ios": "https://dc.lft.to/lastmile_qr_scan", "android": "https://dc.lft.to/lastmile_qr_scan"}, "lon": -77.02649166666667, "type": "electric_scooter"}, {"bike_id": "dfd394d81f0cab18cfffee2cec3bd1e8", "is_reserved": 0, "fusion_lon": 0.0, "lat": 38.88512683333333, "is_disabled": 0, "name": "dfd394d81f0cab18cfffee2cec3bd1e8", "fusion_lat": 0.0, "rental_uris": {"ios": "https://dc.lft.to/lastmile_qr_scan", "android": "https://dc.lft.to/lastmile_qr_scan"}, "lon": -77.00571766666667, "type": "electric_scooter"}, {"bike_id": "8f1de49d41057ef5450b14d5c97b9537", "is_reserved": 0, "fusion_lon": 0.0, "lat": 38.934269666666665, "is_disabled": 0, "name": "8f1de49d41057ef5450b14d5c97b9537", "fusion_lat": 0.0, "rental_uris": {"ios": "https://dc.lft.to/lastmile_qr_scan", "android": "https://dc.lft.to/lastmile_qr_scan"}, "lon": -77.03999133333333, "type": "electric_scooter"}, {"bike_id": "2aef739850e0b6a97f99a3fa602c1fe3", "is_reserved": 0, "fusion_lon": 0.0, "lat": 38.897213, "is_disabled": 0, "name": "2aef739850e0b6a97f99a3fa602c1fe3", "fusion_lat": 0.0, "rental_uris": {"ios": "https://dc.lft.to/lastmile_qr_scan", "android": "https://dc.lft.to/lastmile_qr_scan"}, "lon": -77.02717933333334, "type": "electric_scooter"}, {"bike_id": "af5bf74ed2db4031d69504cbad527ff7", "is_reserved": 0, "fusion_lon": 0.0, "lat": 38.9179065, "is_disabled": 0, "name": "af5bf74ed2db4031d69504cbad527ff7", "fusion_lat": 0.0, "rental_uris": {"ios": "https://dc.lft.to/lastmile_qr_scan", "android": "https://dc.lft.to/lastmile_qr_scan"}, "lon": -77.03206666666667, "type": "electric_scooter"}, {"bike_id": "675008656c855272dd1ef756a35d45ff", "is_reserved": 0, "fusion_lon": 0.0, "lat": 38.903771666666664, "is_disabled": 0, "name": "675008656c855272dd1ef756a35d45ff", "fusion_lat": 0.0, "rental_uris": {"ios": "https://dc.lft.to/lastmile_qr_scan", "android": "https://dc.lft.to/lastmile_qr_scan"}, "lon": -77.02743, "type": "electric_scooter"}, {"bike_id": "8b1d4a238c6317851a55f08aebf0f254", "is_reserved": 0, "fusion_lon": 0.0, "lat": 38.90282416666667, "is_disabled": 0, "name": "8b1d4a238c6317851a55f08aebf0f254", "fusion_lat": 0.0, "rental_uris": {"ios": "https://dc.lft.to/lastmile_qr_scan", "android": "https://dc.lft.to/lastmile_qr_scan"}, "lon": -77.03867116666666, "type": "electric_scooter"}, {"bike_id": "afb7330a05e0bfdbd4f4e0c4becf8e8b", "is_reserved": 0, "fusion_lon": 0.0, "lat": 38.95351866666667, "is_disabled": 0, "name": "afb7330a05e0bfdbd4f4e0c4becf8e8b", "fusion_lat": 0.0, "rental_uris": {"ios": "https://dc.lft.to/lastmile_qr_scan", "android": "https://dc.lft.to/lastmile_qr_scan"}, "lon": -76.980925, "type": "electric_bike"}, {"bike_id": "40c0760cc8c6d9408eb779f7b34a30a5", "is_reserved": 0, "fusion_lon": 0.0, "lat": 38.90243316666667, "is_disabled": 0, "name": "40c0760cc8c6d9408eb779f7b34a30a5", "fusion_lat": 0.0, "rental_uris": {"ios": "https://dc.lft.to/lastmile_qr_scan", "android": "https://dc.lft.to/lastmile_qr_scan"}, "lon": -77.033426, "type": "electric_scooter"}, {"bike_id": "c2317cb7b345343ee106b5c6bf0da058", "is_reserved": 0, "fusion_lon": 0.0, "lat": 38.86734333333333, "is_disabled": 0, "name": "c2317cb7b345343ee106b5c6bf0da058", "fusion_lat": 0.0, "rental_uris": {"ios": "https://dc.lft.to/lastmile_qr_scan", "android": "https://dc.lft.to/lastmile_qr_scan"}, "lon": -77.01376783333333, "type": "electric_scooter"}, {"bike_id": "87f7c1eb6f6605d62253b892480965c5", "is_reserved": 0, "fusion_lon": 0.0, "lat": 38.92006633333333, "is_disabled": 0, "name": "87f7c1eb6f6605d62253b892480965c5", "fusion_lat": 0.0, "rental_uris": {"ios": "https://dc.lft.to/lastmile_qr_scan", "android": "https://dc.lft.to/lastmile_qr_scan"}, "lon": -77.03770366666667, "type": "electric_scooter"}, {"bike_id": "1aa8b5541043d12e389b2dbe48abf35a", "is_reserved": 0, "fusion_lon": 0.0, "lat": 38.92430916666667, "is_disabled": 0, "name": "1aa8b5541043d12e389b2dbe48abf35a", "fusion_lat": 0.0, "rental_uris": {"ios": "https://dc.lft.to/lastmile_qr_scan", "android": "https://dc.lft.to/lastmile_qr_scan"}, "lon": -77.0424625, "type": "electric_scooter"}, {"bike_id": "7ce00dab5ad910c6b0ec1cff78c856a4", "is_reserved": 0, "fusion_lon": 0.0, "lat": 38.924160666666666, "is_disabled": 0, "name": "7ce00dab5ad910c6b0ec1cff78c856a4", "fusion_lat": 0.0, "rental_uris": {"ios": "https://dc.lft.to/lastmile_qr_scan", "android": "https://dc.lft.to/lastmile_qr_scan"}, "lon": -77.03659016666667, "type": "electric_scooter"}, {"bike_id": "7edb71a98172038b2bdb1a6c6e90e056", "is_reserved": 0, "fusion_lon": 0.0, "lat": 38.91732783333333, "is_disabled": 0, "name": "7edb71a98172038b2bdb1a6c6e90e056", "fusion_lat": 0.0, "rental_uris": {"ios": "https://dc.lft.to/lastmile_qr_scan", "android": "https://dc.lft.to/lastmile_qr_scan"}, "lon": -77.02296633333333, "type": "electric_scooter"}, {"bike_id": "b7eb59c2153780367a4d6a26738f817e", "is_reserved": 0, "fusion_lon": 0.0, "lat": 38.898329833333335, "is_disabled": 0, "name": "b7eb59c2153780367a4d6a26738f817e", "fusion_lat": 0.0, "rental_uris": {"ios": "https://dc.lft.to/lastmile_qr_scan", "android": "https://dc.lft.to/lastmile_qr_scan"}, "lon": -77.00738983333333, "type": "electric_scooter"}, {"bike_id": "0fdf1e39f303184b3f06ec331eef66ee", "is_reserved": 0, "fusion_lon": 0.0, "lat": 38.8987725, "is_disabled": 0, "name": "0fdf1e39f303184b3f06ec331eef66ee", "fusion_lat": 0.0, "rental_uris": {"ios": "https://dc.lft.to/lastmile_qr_scan", "android": "https://dc.lft.to/lastmile_qr_scan"}, "lon": -76.9318535, "type": "electric_scooter"}, {"bike_id": "873a1aedf6db8e08a3daef841e630b1f", "is_reserved": 0, "fusion_lon": 0.0, "lat": 38.89831683333333, "is_disabled": 0, "name": "873a1aedf6db8e08a3daef841e630b1f", "fusion_lat": 0.0, "rental_uris": {"ios": "https://dc.lft.to/lastmile_qr_scan", "android": "https://dc.lft.to/lastmile_qr_scan"}, "lon": -76.94636816666667, "type": "electric_scooter"}, {"bike_id": "f1ac9061014bb6aa480389c21772491f", "is_reserved": 0, "fusion_lon": 0.0, "lat": 38.9528565, "is_disabled": 0, "name": "f1ac9061014bb6aa480389c21772491f", "fusion_lat": 0.0, "rental_uris": {"ios": "https://dc.lft.to/lastmile_qr_scan", "android": "https://dc.lft.to/lastmile_qr_scan"}, "lon": -76.945988, "type": "electric_bike"}, {"bike_id": "6636fd41959297fb753e31e39e0a93cb", "is_reserved": 0, "fusion_lon": 0.0, "lat": 38.9395785, "is_disabled": 0, "name": "6636fd41959297fb753e31e39e0a93cb", "fusion_lat": 0.0, "rental_uris": {"ios": "https://dc.lft.to/lastmile_qr_scan", "android": "https://dc.lft.to/lastmile_qr_scan"}, "lon": -77.36094466666667, "type": "electric_bike"}, {"bike_id": "e941644d5d9fb93d8d40ab6eb2ec5439", "is_reserved": 0, "fusion_lon": 0.0, "lat": 38.904522166666666, "is_disabled": 0, "name": "e941644d5d9fb93d8d40ab6eb2ec5439", "fusion_lat": 0.0, "rental_uris": {"ios": "https://dc.lft.to/lastmile_qr_scan", "android": "https://dc.lft.to/lastmile_qr_scan"}, "lon": -77.059212, "type": "electric_scooter"}, {"bike_id": "eeb9946fdcae65ce96e1e96d8cac318b", "is_reserved": 0, "fusion_lon": 0.0, "lat": 38.90078466666667, "is_disabled": 0, "name": "eeb9946fdcae65ce96e1e96d8cac318b", "fusion_lat": 0.0, "rental_uris": {"ios": "https://dc.lft.to/lastmile_qr_scan", "android": "https://dc.lft.to/lastmile_qr_scan"}, "lon": -77.023116, "type": "electric_scooter"}, {"bike_id": "745d916e95102b264a5979fb300210d3", "is_reserved": 0, "fusion_lon": 0.0, "lat": 38.901708166666666, "is_disabled": 0, "name": "745d916e95102b264a5979fb300210d3", "fusion_lat": 0.0, "rental_uris": {"ios": "https://dc.lft.to/lastmile_qr_scan", "android": "https://dc.lft.to/lastmile_qr_scan"}, "lon": -77.00011266666667, "type": "electric_scooter"}, {"bike_id": "9799711b70af3400774c6f02a7f1f8f9", "is_reserved": 0, "fusion_lon": 0.0, "lat": 38.88410833333333, "is_disabled": 0, "name": "9799711b70af3400774c6f02a7f1f8f9", "fusion_lat": 0.0, "rental_uris": {"ios": "https://dc.lft.to/lastmile_qr_scan", "android": "https://dc.lft.to/lastmile_qr_scan"}, "lon": -77.0262815, "type": "electric_scooter"}, {"bike_id": "9dda793f769914d9a0312e2f5d09b810", "is_reserved": 0, "fusion_lon": 0.0, "lat": 38.933441333333334, "is_disabled": 0, "name": "9dda793f769914d9a0312e2f5d09b810", "fusion_lat": 0.0, "rental_uris": {"ios": "https://dc.lft.to/lastmile_qr_scan", "android": "https://dc.lft.to/lastmile_qr_scan"}, "lon": -77.0327035, "type": "electric_scooter"}, {"bike_id": "e06e8b11efd8e679bb9650698e59c483", "is_reserved": 0, "fusion_lon": 0.0, "lat": 38.89222616666667, "is_disabled": 0, "name": "e06e8b11efd8e679bb9650698e59c483", "fusion_lat": 0.0, "rental_uris": {"ios": "https://dc.lft.to/lastmile_qr_scan", "android": "https://dc.lft.to/lastmile_qr_scan"}, "lon": -77.04645916666666, "type": "electric_scooter"}, {"bike_id": "533bd7d370a464da55165ff7d1175c99", "is_reserved": 0, "fusion_lon": 0.0, "lat": 38.904311166666666, "is_disabled": 0, "name": "533bd7d370a464da55165ff7d1175c99", "fusion_lat": 0.0, "rental_uris": {"ios": "https://dc.lft.to/lastmile_qr_scan", "android": "https://dc.lft.to/lastmile_qr_scan"}, "lon": -77.0435685, "type": "electric_scooter"}, {"bike_id": "361783762b7724c2467ca5a250116c2d", "is_reserved": 0, "fusion_lon": 0.0, "lat": 38.8641385, "is_disabled": 0, "name": "361783762b7724c2467ca5a250116c2d", "fusion_lat": 0.0, "rental_uris": {"ios": "https://dc.lft.to/lastmile_qr_scan", "android": "https://dc.lft.to/lastmile_qr_scan"}, "lon": -77.01353933333333, "type": "electric_scooter"}, {"bike_id": "316e4c85127c2745df7833a9fa42a7ad", "is_reserved": 0, "fusion_lon": 0.0, "lat": 38.905672833333334, "is_disabled": 0, "name": "316e4c85127c2745df7833a9fa42a7ad", "fusion_lat": 0.0, "rental_uris": {"ios": "https://dc.lft.to/lastmile_qr_scan", "android": "https://dc.lft.to/lastmile_qr_scan"}, "lon": -77.02198883333334, "type": "electric_scooter"}, {"bike_id": "3aac26a7f22d668a0c726f5c9428a0c6", "is_reserved": 0, "fusion_lon": 0.0, "lat": 38.8922005, "is_disabled": 0, "name": "3aac26a7f22d668a0c726f5c9428a0c6", "fusion_lat": 0.0, "rental_uris": {"ios": "https://dc.lft.to/lastmile_qr_scan", "android": "https://dc.lft.to/lastmile_qr_scan"}, "lon": -77.039783, "type": "electric_scooter"}, {"bike_id": "8333eb375213a023ca616b50b03476a8", "is_reserved": 0, "fusion_lon": 0.0, "lat": 38.907835166666665, "is_disabled": 0, "name": "8333eb375213a023ca616b50b03476a8", "fusion_lat": 0.0, "rental_uris": {"ios": "https://dc.lft.to/lastmile_qr_scan", "android": "https://dc.lft.to/lastmile_qr_scan"}, "lon": -77.03202933333333, "type": "electric_scooter"}, {"bike_id": "5366e6ae004f8c389526188bdd1a6f9b", "is_reserved": 0, "fusion_lon": 0.0, "lat": 38.915595833333334, "is_disabled": 0, "name": "5366e6ae004f8c389526188bdd1a6f9b", "fusion_lat": 0.0, "rental_uris": {"ios": "https://dc.lft.to/lastmile_qr_scan", "android": "https://dc.lft.to/lastmile_qr_scan"}, "lon": -77.03845333333334, "type": "electric_scooter"}, {"bike_id": "8887c52d7fd2498df327ee214cbdda02", "is_reserved": 0, "fusion_lon": 0.0, "lat": 38.936033333333334, "is_disabled": 0, "name": "8887c52d7fd2498df327ee214cbdda02", "fusion_lat": 0.0, "rental_uris": {"ios": "https://dc.lft.to/lastmile_qr_scan", "android": "https://dc.lft.to/lastmile_qr_scan"}, "lon": -77.0559175, "type": "electric_scooter"}, {"bike_id": "1def97c1df1267f3c3518c634f65fb98", "is_reserved": 0, "fusion_lon": 0.0, "lat": 38.91693816666667, "is_disabled": 0, "name": "1def97c1df1267f3c3518c634f65fb98", "fusion_lat": 0.0, "rental_uris": {"ios": "https://dc.lft.to/lastmile_qr_scan", "android": "https://dc.lft.to/lastmile_qr_scan"}, "lon": -77.03770583333333, "type": "electric_scooter"}, {"bike_id": "dc94dd52e0329f396110260930c58cc5", "is_reserved": 0, "fusion_lon": 0.0, "lat": 38.898165, "is_disabled": 0, "name": "dc94dd52e0329f396110260930c58cc5", "fusion_lat": 0.0, "rental_uris": {"ios": "https://dc.lft.to/lastmile_qr_scan", "android": "https://dc.lft.to/lastmile_qr_scan"}, "lon": -77.043232, "type": "electric_scooter"}, {"bike_id": "b96062dcae7784c8741857de3b78dc14", "is_reserved": 0, "fusion_lon": 0.0, "lat": 38.94064133333333, "is_disabled": 0, "name": "b96062dcae7784c8741857de3b78dc14", "fusion_lat": 0.0, "rental_uris": {"ios": "https://dc.lft.to/lastmile_qr_scan", "android": "https://dc.lft.to/lastmile_qr_scan"}, "lon": -76.99460783333333, "type": "electric_scooter"}, {"bike_id": "e9f0d58033bf696fcb931f0fa0579ce2", "is_reserved": 0, "fusion_lon": 0.0, "lat": 38.89197016666667, "is_disabled": 0, "name": "e9f0d58033bf696fcb931f0fa0579ce2", "fusion_lat": 0.0, "rental_uris": {"ios": "https://dc.lft.to/lastmile_qr_scan", "android": "https://dc.lft.to/lastmile_qr_scan"}, "lon": -77.02381183333334, "type": "electric_scooter"}, {"bike_id": "e56be9b003fc6d5f2e303833fb0c17ef", "is_reserved": 0, "fusion_lon": 0.0, "lat": 38.922346166666664, "is_disabled": 0, "name": "e56be9b003fc6d5f2e303833fb0c17ef", "fusion_lat": 0.0, "rental_uris": {"ios": "https://dc.lft.to/lastmile_qr_scan", "android": "https://dc.lft.to/lastmile_qr_scan"}, "lon": -77.03346316666666, "type": "electric_scooter"}, {"bike_id": "01ad067acb80a304395f1e3629673664", "is_reserved": 0, "fusion_lon": 0.0, "lat": 38.903632, "is_disabled": 0, "name": "01ad067acb80a304395f1e3629673664", "fusion_lat": 0.0, "rental_uris": {"ios": "https://dc.lft.to/lastmile_qr_scan", "android": "https://dc.lft.to/lastmile_qr_scan"}, "lon": -77.03811783333333, "type": "electric_scooter"}, {"bike_id": "d5be67e478e690eb866088a54cfebdea", "is_reserved": 0, "fusion_lon": 0.0, "lat": 38.918721833333336, "is_disabled": 0, "name": "d5be67e478e690eb866088a54cfebdea", "fusion_lat": 0.0, "rental_uris": {"ios": "https://dc.lft.to/lastmile_qr_scan", "android": "https://dc.lft.to/lastmile_qr_scan"}, "lon": -77.04371316666666, "type": "electric_scooter"}, {"bike_id": "426fcb8640619ac69f39eb4763384438", "is_reserved": 0, "fusion_lon": 0.0, "lat": 38.909578833333335, "is_disabled": 0, "name": "426fcb8640619ac69f39eb4763384438", "fusion_lat": 0.0, "rental_uris": {"ios": "https://dc.lft.to/lastmile_qr_scan", "android": "https://dc.lft.to/lastmile_qr_scan"}, "lon": -77.031681, "type": "electric_scooter"}, {"bike_id": "774a7195bb28db77524eabbb3f85c8d0", "is_reserved": 0, "fusion_lon": 0.0, "lat": 38.92672533333333, "is_disabled": 0, "name": "774a7195bb28db77524eabbb3f85c8d0", "fusion_lat": 0.0, "rental_uris": {"ios": "https://dc.lft.to/lastmile_qr_scan", "android": "https://dc.lft.to/lastmile_qr_scan"}, "lon": -77.09555183333333, "type": "electric_scooter"}, {"bike_id": "780ca1113184068af31989ee6f6cbe51", "is_reserved": 0, "fusion_lon": 0.0, "lat": 38.89191983333333, "is_disabled": 0, "name": "780ca1113184068af31989ee6f6cbe51", "fusion_lat": 0.0, "rental_uris": {"ios": "https://dc.lft.to/lastmile_qr_scan", "android": "https://dc.lft.to/lastmile_qr_scan"}, "lon": -77.022185, "type": "electric_scooter"}, {"bike_id": "09ef8e5c874d955864681bf2dee115dd", "is_reserved": 0, "fusion_lon": 0.0, "lat": 38.905642, "is_disabled": 0, "name": "09ef8e5c874d955864681bf2dee115dd", "fusion_lat": 0.0, "rental_uris": {"ios": "https://dc.lft.to/lastmile_qr_scan", "android": "https://dc.lft.to/lastmile_qr_scan"}, "lon": -77.03831666666666, "type": "electric_scooter"}, {"bike_id": "049a73a76704e1cfeffa5eb4c6835fbf", "is_reserved": 0, "fusion_lon": 0.0, "lat": 38.9224425, "is_disabled": 0, "name": "049a73a76704e1cfeffa5eb4c6835fbf", "fusion_lat": 0.0, "rental_uris": {"ios": "https://dc.lft.to/lastmile_qr_scan", "android": "https://dc.lft.to/lastmile_qr_scan"}, "lon": -77.018278, "type": "electric_scooter"}, {"bike_id": "b439e8d695e6df406b07bcecbaf92648", "is_reserved": 0, "fusion_lon": 0.0, "lat": 38.9208805, "is_disabled": 0, "name": "b439e8d695e6df406b07bcecbaf92648", "fusion_lat": 0.0, "rental_uris": {"ios": "https://dc.lft.to/lastmile_qr_scan", "android": "https://dc.lft.to/lastmile_qr_scan"}, "lon": -77.03171383333333, "type": "electric_scooter"}, {"bike_id": "6bf937b651c93a12445aa8f26b63fd60", "is_reserved": 0, "fusion_lon": 0.0, "lat": 38.8900815, "is_disabled": 0, "name": "6bf937b651c93a12445aa8f26b63fd60", "fusion_lat": 0.0, "rental_uris": {"ios": "https://dc.lft.to/lastmile_qr_scan", "android": "https://dc.lft.to/lastmile_qr_scan"}, "lon": -76.93745216666667, "type": "electric_scooter"}, {"bike_id": "7d9e868ffa0319158c4f3c01a413dfd8", "is_reserved": 0, "fusion_lon": 0.0, "lat": 38.905878, "is_disabled": 0, "name": "7d9e868ffa0319158c4f3c01a413dfd8", "fusion_lat": 0.0, "rental_uris": {"ios": "https://dc.lft.to/lastmile_qr_scan", "android": "https://dc.lft.to/lastmile_qr_scan"}, "lon": -77.00250366666667, "type": "electric_scooter"}, {"bike_id": "4816a5f29e46108a6b61b09e48130c4f", "is_reserved": 0, "fusion_lon": 0.0, "lat": 38.900327, "is_disabled": 0, "name": "4816a5f29e46108a6b61b09e48130c4f", "fusion_lat": 0.0, "rental_uris": {"ios": "https://dc.lft.to/lastmile_qr_scan", "android": "https://dc.lft.to/lastmile_qr_scan"}, "lon": -77.04677216666667, "type": "electric_scooter"}, {"bike_id": "37234ae92ee1b3a8d170f33955c4187e", "is_reserved": 0, "fusion_lon": 0.0, "lat": 38.923644833333334, "is_disabled": 0, "name": "37234ae92ee1b3a8d170f33955c4187e", "fusion_lat": 0.0, "rental_uris": {"ios": "https://dc.lft.to/lastmile_qr_scan", "android": "https://dc.lft.to/lastmile_qr_scan"}, "lon": -77.05033616666667, "type": "electric_scooter"}, {"bike_id": "2883a4949f88141df7659861b8e4594a", "is_reserved": 0, "fusion_lon": 0.0, "lat": 38.904153666666666, "is_disabled": 0, "name": "2883a4949f88141df7659861b8e4594a", "fusion_lat": 0.0, "rental_uris": {"ios": "https://dc.lft.to/lastmile_qr_scan", "android": "https://dc.lft.to/lastmile_qr_scan"}, "lon": -77.04352683333333, "type": "electric_scooter"}, {"bike_id": "7d355e9e3971d385817027089d615807", "is_reserved": 0, "fusion_lon": 0.0, "lat": 38.914132, "is_disabled": 0, "name": "7d355e9e3971d385817027089d615807", "fusion_lat": 0.0, "rental_uris": {"ios": "https://dc.lft.to/lastmile_qr_scan", "android": "https://dc.lft.to/lastmile_qr_scan"}, "lon": -77.02826016666667, "type": "electric_scooter"}, {"bike_id": "a946fb07f33c5d1bcb048fd30a627e82", "is_reserved": 0, "fusion_lon": 0.0, "lat": 38.866557, "is_disabled": 0, "name": "a946fb07f33c5d1bcb048fd30a627e82", "fusion_lat": 0.0, "rental_uris": {"ios": "https://dc.lft.to/lastmile_qr_scan", "android": "https://dc.lft.to/lastmile_qr_scan"}, "lon": -76.9888315, "type": "electric_scooter"}, {"bike_id": "a5ce915574b55bd3c702e6d32f59b08e", "is_reserved": 0, "fusion_lon": 0.0, "lat": 38.894807666666665, "is_disabled": 0, "name": "a5ce915574b55bd3c702e6d32f59b08e", "fusion_lat": 0.0, "rental_uris": {"ios": "https://dc.lft.to/lastmile_qr_scan", "android": "https://dc.lft.to/lastmile_qr_scan"}, "lon": -77.02190383333334, "type": "electric_scooter"}, {"bike_id": "fec3edfb6e6fa8035742c606eceb3919", "is_reserved": 0, "fusion_lon": 0.0, "lat": 38.86535666666666, "is_disabled": 0, "name": "fec3edfb6e6fa8035742c606eceb3919", "fusion_lat": 0.0, "rental_uris": {"ios": "https://dc.lft.to/lastmile_qr_scan", "android": "https://dc.lft.to/lastmile_qr_scan"}, "lon": -76.9870735, "type": "electric_scooter"}, {"bike_id": "2fe2014bf4c88d22519abe761c5ca20b", "is_reserved": 0, "fusion_lon": 0.0, "lat": 38.887033, "is_disabled": 0, "name": "2fe2014bf4c88d22519abe761c5ca20b", "fusion_lat": 0.0, "rental_uris": {"ios": "https://dc.lft.to/lastmile_qr_scan", "android": "https://dc.lft.to/lastmile_qr_scan"}, "lon": -77.013686, "type": "electric_scooter"}, {"bike_id": "0f3e2be3da2a5b9332ff8804a0b41b93", "is_reserved": 0, "fusion_lon": 0.0, "lat": 38.89220916666667, "is_disabled": 0, "name": "0f3e2be3da2a5b9332ff8804a0b41b93", "fusion_lat": 0.0, "rental_uris": {"ios": "https://dc.lft.to/lastmile_qr_scan", "android": "https://dc.lft.to/lastmile_qr_scan"}, "lon": -77.03166533333334, "type": "electric_scooter"}, {"bike_id": "a08e27301576661dd9f9ed71441aab7a", "is_reserved": 0, "fusion_lon": 0.0, "lat": 38.907287833333335, "is_disabled": 0, "name": "a08e27301576661dd9f9ed71441aab7a", "fusion_lat": 0.0, "rental_uris": {"ios": "https://dc.lft.to/lastmile_qr_scan", "android": "https://dc.lft.to/lastmile_qr_scan"}, "lon": -77.04238733333334, "type": "electric_scooter"}, {"bike_id": "f1b341b207e591ba513f3d0643bc92e5", "is_reserved": 0, "fusion_lon": 0.0, "lat": 38.933991666666664, "is_disabled": 0, "name": "f1b341b207e591ba513f3d0643bc92e5", "fusion_lat": 0.0, "rental_uris": {"ios": "https://dc.lft.to/lastmile_qr_scan", "android": "https://dc.lft.to/lastmile_qr_scan"}, "lon": -77.03885483333333, "type": "electric_scooter"}, {"bike_id": "e75a7aaa4a62490301f334a53c00a1d3", "is_reserved": 0, "fusion_lon": 0.0, "lat": 38.883296333333334, "is_disabled": 0, "name": "e75a7aaa4a62490301f334a53c00a1d3", "fusion_lat": 0.0, "rental_uris": {"ios": "https://dc.lft.to/lastmile_qr_scan", "android": "https://dc.lft.to/lastmile_qr_scan"}, "lon": -77.00521883333333, "type": "electric_scooter"}, {"bike_id": "e62df064bfea28af96ebd631c84f6970", "is_reserved": 0, "fusion_lon": 0.0, "lat": 38.884881, "is_disabled": 0, "name": "e62df064bfea28af96ebd631c84f6970", "fusion_lat": 0.0, "rental_uris": {"ios": "https://dc.lft.to/lastmile_qr_scan", "android": "https://dc.lft.to/lastmile_qr_scan"}, "lon": -77.0072835, "type": "electric_scooter"}, {"bike_id": "ff57a56e93202861f7d34f53d29f6231", "is_reserved": 0, "fusion_lon": 0.0, "lat": 38.903827, "is_disabled": 0, "name": "ff57a56e93202861f7d34f53d29f6231", "fusion_lat": 0.0, "rental_uris": {"ios": "https://dc.lft.to/lastmile_qr_scan", "android": "https://dc.lft.to/lastmile_qr_scan"}, "lon": -77.03208583333333, "type": "electric_scooter"}, {"bike_id": "6596bdffe38b845c4d7cf57377b8fd7c", "is_reserved": 0, "fusion_lon": 0.0, "lat": 38.93084183333333, "is_disabled": 0, "name": "6596bdffe38b845c4d7cf57377b8fd7c", "fusion_lat": 0.0, "rental_uris": {"ios": "https://dc.lft.to/lastmile_qr_scan", "android": "https://dc.lft.to/lastmile_qr_scan"}, "lon": -77.02663333333334, "type": "electric_scooter"}, {"bike_id": "90582444c782b1eb8671a5a22c0dcba3", "is_reserved": 0, "fusion_lon": 0.0, "lat": 38.92963983333333, "is_disabled": 0, "name": "90582444c782b1eb8671a5a22c0dcba3", "fusion_lat": 0.0, "rental_uris": {"ios": "https://dc.lft.to/lastmile_qr_scan", "android": "https://dc.lft.to/lastmile_qr_scan"}, "lon": -77.0550565, "type": "electric_scooter"},