{"data": {"bikes": [{"bike_id": "3f371dcc9f1387293fc21813b04c7a69", "is_reserved": 0, "fusion_lon": 0.0, "lat": 38.882812, "is_disabled": 0, "name": "3f371dcc9f1387293fc21813b04c7a69", "fusion_lat": 0.0, "rental_uris": {"ios": "https://dc.lft.to/lastmile_qr_scan", "android": "https://dc.lft.to/lastmile_qr_scan"}, "lon": -77.04157166666667, "type": "electric_scooter"}, {"bike_id": "759649c4b8f95c28dc5ac3c8045aa86a", "is_reserved": 0, "fusion_lon": 0.0, "lat": 38.88708416666667, "is_disabled": 0, "name": "759649c4b8f95c28dc5ac3c8045aa86a", "fusion_lat": 0.0, "rental_uris": {"ios": "https://dc.lft.to/lastmile_qr_scan", "android": "https://dc.lft.to/lastmile_qr_scan"}, "lon": -77.032161, "type": "electric_scooter"}, {"bike_id": "71cecd8a7cca0ca02787bf486db7546d", "is_reserved": 0, "fusion_lon": 0.0, "lat": 38.909767, "is_disabled": 0, "name": "71cecd8a7cca0ca02787bf486db7546d", "fusion_lat": 0.0, "rental_uris": {"ios": "https://dc.lft.to/lastmile_qr_scan", "android": "https://dc.lft.to/lastmile_qr_scan"}, "lon": -77.06713666666667, "type": "electric_scooter"}, {"bike_id": "724daf70cb2a463d44e9fb1e13157d21", "is_reserved": 0, "fusion_lon": 0.0, "lat": 38.91877083333333, "is_disabled": 0, "name": "724daf70cb2a463d44e9fb1e13157d21", "fusion_lat": 0.0, "rental_uris": {"ios": "https://dc.lft.to/lastmile_qr_scan", "android": "https://dc.lft.to/lastmile_qr_scan"}, "lon": -76.97155516666666, "type": "electric_scooter"}, {"bike_id": "55a5f9e64f57e9c1c9bed8f8a9b04ab4", "is_reserved": 0, "fusion_lon": 0.0, "lat": 38.94326, "is_disabled": 0, "name": "55a5f9e64f57e9c1c9bed8f8a9b04ab4", "fusion_lat": 0.0, "rental_uris": {"ios": "https://dc.lft.to/lastmile_qr_scan", "android": "https://dc.lft.to/lastmile_qr_scan"}, "lon": -77.07391966666667, "type": "electric_scooter"}, {"bike_id": "5b6c9584c89d548528163f2fc54459b1", "is_reserved": 0, "fusion_lon": 0.0, "lat": 38.902668, "is_disabled": 0, "name": "5b6c9584c89d548528163f2fc54459b1", "fusion_lat": 0.0, "rental_uris": {"ios": "https://dc.lft.to/lastmile_qr_scan", "android": "https://dc.lft.to/lastmile_qr_scan"}, "lon": -77.03857933333333, "type": "electric_scooter"}, {"bike_id": "ea096b45b2a6f83bfa9528865c8df79d", "is_reserved": 0, "fusion_lon": 0.0, "lat": 38.87518083333333, "is_disabled": 0, "name": "ea096b45b2a6f83bfa9528865c8df79d", "fusion_lat": 0.0, "rental_uris": {"ios": "https://dc.lft.to/lastmile_qr_scan", "android": "https://dc.lft.to/lastmile_qr_scan"}, "lon": -77.00192533333333, "type": "electric_scooter"}, {"bike_id": "5e4edbde3c3e705c0f23e408a49fd5a4", "is_reserved": 0, "fusion_lon": 0.0, "lat": 38.926166333333335, "is_disabled": 0, "name": "5e4edbde3c3e705c0f23e408a49fd5a4", "fusion_lat": 0.0, "rental_uris": {"ios": "https://dc.lft.to/lastmile_qr_scan", "android": "https://dc.lft.to/lastmile_qr_scan"}, "lon": -77.0056645, "type": "electric_scooter"}, {"bike_id": "10d5260f5b6ad545045bcad2564e3664", "is_reserved": 0, "fusion_lon": 0.0, "lat": 38.8992045, "is_disabled": 0, "name": "10d5260f5b6ad545045bcad2564e3664", "fusion_lat": 0.0, "rental_uris": {"ios": "https://dc.lft.to/lastmile_qr_scan", "android": "https://dc.lft.to/lastmile_qr_scan"}, "lon": -77.05416016666666, "type": "electric_scooter"}, {"bike_id": "7791046a76799777d15ad0db753c576b", "is_reserved": 0, "fusion_lon": 0.0, "lat": 38.94612583333333, "is_disabled": 0, "name": "7791046a76799777d15ad0db753c576b", "fusion_lat": 0.0, "rental_uris": {"ios": "https://dc.lft.to/lastmile_qr_scan", "android": "https://dc.lft.to/lastmile_qr_scan"}, "lon": -77.03510483333334, "type": "electric_scooter"}, {"bike_id": "adaeee1a8dcafa00537c317af65acf96", "is_reserved": 0, "fusion_lon": 0.0, "lat": 38.90854016666667, "is_disabled": 0, "name": "adaeee1a8dcafa00537c317af65acf96", "fusion_lat": 0.0, "rental_uris": {"ios": "https://dc.lft.to/lastmile_qr_scan", "android": "https://dc.lft.to/lastmile_qr_scan"}, "lon": -77.02454166666666, "type": "electric_scooter"}, {"bike_id": "ae72ee5c32b781e3a094221881ba2965", "is_reserved": 0, "fusion_lon": 0.0, "lat": 38.863671, "is_disabled": 0, "name": "ae72ee5c32b781e3a094221881ba2965", "fusion_lat": 0.0, "rental_uris": {"ios": "https://dc.lft.to/lastmile_qr_scan", "android": "https://dc.lft.to/lastmile_qr_scan"}, "lon": -76.99048766666667, "type": "electric_scooter"}, {"bike_id": "2de5c3e3a8685c546267b9c6dba3ff3c", "is_reserved": 0, "fusion_lon": 0.0, "lat": 38.9224665, "is_disabled": 0, "name": "2de5c3e3a8685c546267b9c6dba3ff3c", "fusion_lat": 0.0, "rental_uris": {"ios": "https://dc.lft.to/lastmile_qr_scan", "android": "https://dc.lft.to/lastmile_qr_scan"}, "lon": -77.03067916666667, "type": "electric_scooter"}, {"bike_id": "6487f9f698455d1112cf48982c760ea6", "is_reserved": 0, "fusion_lon": 0.0, "lat": 38.93639683333333, "is_disabled": 0, "name": "6487f9f698455d1112cf48982c760ea6", "fusion_lat": 0.0, "rental_uris": {"ios": "https://dc.lft.to/lastmile_qr_scan", "android": "https://dc.lft.to/lastmile_qr_scan"}, "lon": -77.02087933333334, "type": "electric_scooter"}, {"bike_id": "0a4f9817e7b17a31e58ce7fb0d3f63ee", "is_reserved": 0, "fusion_lon": 0.0, "lat": 38.90215366666666, "is_disabled": 0, "name": "0a4f9817e7b17a31e58ce7fb0d3f63ee", "fusion_lat": 0.0, "rental_uris": {"ios": "https://dc.lft.to/lastmile_qr_scan", "android": "https://dc.lft.to/lastmile_qr_scan"}, "lon": -76.9505935, "type": "electric_bike"}, {"bike_id": "af2a371cd72d42bdee4fde59a45f9708", "is_reserved": 0, "fusion_lon": 0.0, "lat": 38.90299433333333, "is_disabled": 0, "name": "af2a371cd72d42bdee4fde59a45f9708", "fusion_lat": 0.0, "rental_uris": {"ios": "https://dc.lft.to/lastmile_qr_scan", "android": "https://dc.lft.to/lastmile_qr_scan"}, "lon": -77.04262116666666, "type": "electric_scooter"}, {"bike_id": "2d13bc2ebe383c87c41a9eff066aa4c0", "is_reserved": 0, "fusion_lon": 0.0, "lat": 38.902945833333334, "is_disabled": 0, "name": "2d13bc2ebe383c87c41a9eff066aa4c0", "fusion_lat": 0.0, "rental_uris": {"ios": "https://dc.lft.to/lastmile_qr_scan", "android": "https://dc.lft.to/lastmile_qr_scan"}, "lon": -77.05486383333333, "type": "electric_scooter"}, {"bike_id": "5c0553ec0ef4c57bc128cdeec0118f6e", "is_reserved": 0, "fusion_lon": 0.0, "lat": 38.913163, "is_disabled": 0, "name": "5c0553ec0ef4c57bc128cdeec0118f6e", "fusion_lat": 0.0, "rental_uris": {"ios": "https://dc.lft.to/lastmile_qr_scan", "android": "https://dc.lft.to/lastmile_qr_scan"}, "lon": -77.04575133333333, "type": "electric_scooter"}, {"bike_id": "7c7724e4b0ded827034eb5dc8381ce73", "is_reserved": 0, "fusion_lon": 0.0, "lat": 38.9113765, "is_disabled": 0, "name": "7c7724e4b0ded827034eb5dc8381ce73", "fusion_lat": 0.0, "rental_uris": {"ios": "https://dc.lft.to/lastmile_qr_scan", "android": "https://dc.lft.to/lastmile_qr_scan"}, "lon": -77.04894233333333, "type": "electric_bike"}, {"bike_id": "a3001a65bb96063197ed76042d458a80", "is_reserved": 0, "fusion_lon": 0.0, "lat": 38.9225575, "is_disabled": 0, "name": "a3001a65bb96063197ed76042d458a80", "fusion_lat": 0.0, "rental_uris": {"ios": "https://dc.lft.to/lastmile_qr_scan", "android": "https://dc.lft.to/lastmile_qr_scan"}, "lon": -77.04142533333334, "type": "electric_scooter"}, {"bike_id": "a26fb6cc92746a848b20b6e4bd3e8934", "is_reserved": 0, "fusion_lon": 0.0, "lat": 38.8982955, "is_disabled": 0, "name": "a26fb6cc92746a848b20b6e4bd3e8934", "fusion_lat": 0.0, "rental_uris": {"ios": "https://dc.lft.to/lastmile_qr_scan", "android": "https://dc.lft.to/lastmile_qr_scan"}, "lon": -77.0502945, "type": "electric_scooter"}, {"bike_id": "c26ecaa451619b2aab93e6748f745d2b", "is_reserved": 0, "fusion_lon": 0.0, "lat": 38.9011055, "is_disabled": 0, "name": "c26ecaa451619b2aab93e6748f745d2b", "fusion_lat": 0.0, "rental_uris": {"ios": "https://dc.lft.to/lastmile_qr_scan", "android": "https://dc.lft.to/lastmile_qr_scan"}, "lon": -77.04291533333334, "type": "electric_scooter"}, {"bike_id": "624fd2de51748e4c667e10d1d7880ee6", "is_reserved": 0, "fusion_lon": 0.0, "lat": 38.895575666666666, "is_disabled": 0, "name": "624fd2de51748e4c667e10d1d7880ee6", "fusion_lat": 0.0, "rental_uris": {"ios": "https://dc.lft.to/lastmile_qr_scan", "android": "https://dc.lft.to/lastmile_qr_scan"}, "lon": -77.12738033333333, "type": "electric_bike"}, {"bike_id": "ecac8862c1b0e43d02bd41a21ed299cd", "is_reserved": 0, "fusion_lon": 0.0, "lat": 38.92308383333334, "is_disabled": 0, "name": "ecac8862c1b0e43d02bd41a21ed299cd", "fusion_lat": 0.0, "rental_uris": {"ios": "https://dc.lft.to/lastmile_qr_scan", "android": "https://dc.lft.to/lastmile_qr_scan"}, "lon": -77.04224933333333, "type": "electric_scooter"}, {"bike_id": "9879226f2f6f1350a1a8f00e2e8b2d26", "is_reserved": 0, "fusion_lon": 0.0, "lat": 38.901581166666666, "is_disabled": 0, "name": "9879226f2f6f1350a1a8f00e2e8b2d26", "fusion_lat": 0.0, "rental_uris": {"ios": "https://dc.lft.to/lastmile_qr_scan", "android": "https://dc.lft.to/lastmile_qr_scan"}, "lon": -77.041676, "type": "electric_scooter"}, {"bike_id": "7671568f48bc42fc08c0067275361c47", "is_reserved": 0, "fusion_lon": 0.0, "lat": 38.92356866666667, "is_disabled": 0, "name": "7671568f48bc42fc08c0067275361c47", "fusion_lat": 0.0, "rental_uris": {"ios": "https://dc.lft.to/lastmile_qr_scan", "android": "https://dc.lft.to/lastmile_qr_scan"}, "lon": -77.05241866666667, "type": "electric_scooter"}, {"bike_id": "de648a9dcb2e326755ad477d9c3c835b", "is_reserved": 0, "fusion_lon": 0.0, "lat": 38.88418816666667, "is_disabled": 0, "name": "de648a9dcb2e326755ad477d9c3c835b", "fusion_lat": 0.0, "rental_uris": {"ios": "https://dc.lft.to/lastmile_qr_scan", "android": "https://dc.lft.to/lastmile_qr_scan"}, "lon": -77.01944683333333, "type": "electric_scooter"}, {"bike_id": "4287b91fccb66889f1f54bdd0e1b0179", "is_reserved": 0, "fusion_lon": 0.0, "lat": 38.885267999999996, "is_disabled": 0, "name": "4287b91fccb66889f1f54bdd0e1b0179", "fusion_lat": 0.0, "rental_uris": {"ios": "https://dc.lft.to/lastmile_qr_scan", "android": "https://dc.lft.to/lastmile_qr_scan"}, "lon": -76.980713, "type": "electric_scooter"}, {"bike_id": "445d51cd7d2f736a7052f78b1d673ce7", "is_reserved": 0, "fusion_lon": 0.0, "lat": 38.902455833333335, "is_disabled": 0, "name": "445d51cd7d2f736a7052f78b1d673ce7", "fusion_lat": 0.0, "rental_uris": {"ios": "https://dc.lft.to/lastmile_qr_scan", "android": "https://dc.lft.to/lastmile_qr_scan"}, "lon": -77.01637966666667, "type": "electric_scooter"}, {"bike_id": "31bf093a8b70c8370dcb5b42a8cf35a2", "is_reserved": 0, "fusion_lon": 0.0, "lat": 38.916799166666664, "is_disabled": 0, "name": "31bf093a8b70c8370dcb5b42a8cf35a2", "fusion_lat": 0.0, "rental_uris": {"ios": "https://dc.lft.to/lastmile_qr_scan", "android": "https://dc.lft.to/lastmile_qr_scan"}, "lon": -77.03852183333333, "type": "electric_scooter"}, {"bike_id": "9b9007264cea4b3f0069269071d995bb", "is_reserved": 0, "fusion_lon": 0.0, "lat": 38.93509683333333, "is_disabled": 0, "name": "9b9007264cea4b3f0069269071d995bb", "fusion_lat": 0.0, "rental_uris": {"ios": "https://dc.lft.to/lastmile_qr_scan", "android": "https://dc.lft.to/lastmile_qr_scan"}, "lon": -77.03039333333334, "type": "electric_bike"}, {"bike_id": "765c085cf5ad799e601c1e91f7c6b07f", "is_reserved": 0, "fusion_lon": 0.0, "lat": 38.90516483333333, "is_disabled": 0, "name": "765c085cf5ad799e601c1e91f7c6b07f", "fusion_lat": 0.0, "rental_uris": {"ios": "https://dc.lft.to/lastmile_qr_scan", "android": "https://dc.lft.to/lastmile_qr_scan"}, "lon": -77.0653765, "type": "electric_scooter"}, {"bike_id": "664240e0b0f8beeb1d2ee5cc7fa02c50", "is_reserved": 0, "fusion_lon": 0.0, "lat": 38.93069, "is_disabled": 0, "name": "664240e0b0f8beeb1d2ee5cc7fa02c50", "fusion_lat": 0.0, "rental_uris": {"ios": "https://dc.lft.to/lastmile_qr_scan", "android": "https://dc.lft.to/lastmile_qr_scan"}, "lon": -77.031757, "type": "electric_scooter"}, {"bike_id": "ee7b67b7f5c42b06bb203fca0cc0b4cb", "is_reserved": 0, "fusion_lon": 0.0, "lat": 38.941720833333335, "is_disabled": 0, "name": "ee7b67b7f5c42b06bb203fca0cc0b4cb", "fusion_lat": 0.0, "rental_uris": {"ios": "https://dc.lft.to/lastmile_qr_scan", "android": "https://dc.lft.to/lastmile_qr_scan"}, "lon": -77.02331983333333, "type": "electric_scooter"}, {"bike_id": "2983efaf5d1a8e58bc6846cf2f2e0620", "is_reserved": 0, "fusion_lon": 0.0, "lat": 38.862896, "is_disabled": 0, "name": "2983efaf5d1a8e58bc6846cf2f2e0620", "fusion_lat": 0.0, "rental_uris": {"ios": "https://dc.lft.to/lastmile_qr_scan", "android": "https://dc.lft.to/lastmile_qr_scan"}, "lon": -76.99241333333333, "type": "electric_scooter"}, {"bike_id": "a29b0ae937fd8f1725eb99fa479b092a", "is_reserved": 0, "fusion_lon": 0.0, "lat": 38.858084833333336, "is_disabled": 0, "name": "a29b0ae937fd8f1725eb99fa479b092a", "fusion_lat": 0.0, "rental_uris": {"ios": "https://dc.lft.to/lastmile_qr_scan", "android": "https://dc.lft.to/lastmile_qr_scan"}, "lon": -76.986599, "type": "electric_scooter"}, {"bike_id": "be5b06e969ac978475c42302d53a93c3", "is_reserved": 0, "fusion_lon": 0.0, "lat": 38.944373666666664, "is_disabled": 0, "name": "be5b06e969ac978475c42302d53a93c3", "fusion_lat": 0.0, "rental_uris": {"ios": "https://dc.lft.to/lastmile_qr_scan", "android": "https://dc.lft.to/lastmile_qr_scan"}, "lon": -77.06357683333333, "type": "electric_scooter"}, {"bike_id": "4110c8b0a743f9663ccfa73b40c84364", "is_reserved": 0, "fusion_lon": 0.0, "lat": 38.8921975, "is_disabled": 0, "name": "4110c8b0a743f9663ccfa73b40c84364", "fusion_lat": 0.0, "rental_uris": {"ios": "https://dc.lft.to/lastmile_qr_scan", "android": "https://dc.lft.to/lastmile_qr_scan"}, "lon": -77.02444533333333, "type": "electric_scooter"}, {"bike_id": "910638242570493313f285745a3d6bf9", "is_reserved": 0, "fusion_lon": 0.0, "lat": 38.90114633333334, "is_disabled": 0, "name": "910638242570493313f285745a3d6bf9", "fusion_lat": 0.0, "rental_uris": {"ios": "https://dc.lft.to/lastmile_qr_scan", "android": "https://dc.lft.to/lastmile_qr_scan"}, "lon": -77.04985166666667, "type": "electric_scooter"}, {"bike_id": "974ca607f356b0c5bb596aac71ac6ca7", "is_reserved": 0, "fusion_lon": 0.0, "lat": 38.942248, "is_disabled": 0, "name": "974ca607f356b0c5bb596aac71ac6ca7", "fusion_lat": 0.0, "rental_uris": {"ios": "https://dc.lft.to/lastmile_qr_scan", "android": "https://dc.lft.to/lastmile_qr_scan"}, "lon": -77.015358, "type": "electric_scooter"}, {"bike_id": "3ac25ed4507ad44cd55ab505d659c50a", "is_reserved": 0, "fusion_lon": 0.0, "lat": 38.904884333333335, "is_disabled": 0, "name": "3ac25ed4507ad44cd55ab505d659c50a", "fusion_lat": 0.0, "rental_uris": {"ios": "https://dc.lft.to/lastmile_qr_scan", "android": "https://dc.lft.to/lastmile_qr_scan"}, "lon": -77.06012983333333, "type": "electric_scooter"}, {"bike_id": "baf7c1395c0ed6de4d48d94f76a19e85", "is_reserved": 0, "fusion_lon": 0.0, "lat": 39.038818666666664, "is_disabled": 0, "name": "baf7c1395c0ed6de4d48d94f76a19e85", "fusion_lat": 0.0, "rental_uris": {"ios": "https://dc.lft.to/lastmile_qr_scan", "android": "https://dc.lft.to/lastmile_qr_scan"}, "lon": -76.9904375, "type": "electric_bike"}, {"bike_id": "7d885707b50dcc3639b409df677ec21c", "is_reserved": 0, "fusion_lon": 0.0, "lat": 38.89762, "is_disabled": 0, "name": "7d885707b50dcc3639b409df677ec21c", "fusion_lat": 0.0, "rental_uris": {"ios": "https://dc.lft.to/lastmile_qr_scan", "android": "https://dc.lft.to/lastmile_qr_scan"}, "lon": -76.985591, "type": "electric_scooter"}, {"bike_id": "7955655eb3c7647c7c5d5e81e04f49a7", "is_reserved": 0, "fusion_lon": 0.0, "lat": 38.927214666666664, "is_disabled": 0, "name": "7955655eb3c7647c7c5d5e81e04f49a7", "fusion_lat": 0.0, "rental_uris": {"ios": "https://dc.lft.to/lastmile_qr_scan", "android": "https://dc.lft.to/lastmile_qr_scan"}, "lon": -77.03663766666666, "type": "electric_scooter"}, {"bike_id": "05acdd0a026635aede7c2836d420cbb8", "is_reserved": 0, "fusion_lon": 0.0, "lat": 38.915473666666664, "is_disabled": 0, "name": "05acdd0a026635aede7c2836d420cbb8", "fusion_lat": 0.0, "rental_uris": {"ios": "https://dc.lft.to/lastmile_qr_scan", "android": "https://dc.lft.to/lastmile_qr_scan"}, "lon": -77.0216125, "type": "electric_scooter"}, {"bike_id": "f8f92e0a6d32c898bfa691403b58c667", "is_reserved": 0, "fusion_lon": 0.0, "lat": 38.90236433333333, "is_disabled": 0, "name": "f8f92e0a6d32c898bfa691403b58c667", "fusion_lat": 0.0, "rental_uris": {"ios": "https://dc.lft.to/lastmile_qr_scan", "android": "https://dc.lft.to/lastmile_qr_scan"}, "lon": -77.0269335, "type": "electric_scooter"}, {"bike_id": "9093507865e59ecb5458008053a4ac82", "is_reserved": 0, "fusion_lon": 0.0, "lat": 38.85556283333333, "is_disabled": 0, "name": "9093507865e59ecb5458008053a4ac82", "fusion_lat": 0.0, "rental_uris": {"ios": "https://dc.lft.to/lastmile_qr_scan", "android": "https://dc.lft.to/lastmile_qr_scan"}, "lon": -76.9951265, "type": "electric_scooter"}, {"bike_id": "6d3271d71521ded33a86520ffc33335c", "is_reserved": 0, "fusion_lon": 0.0, "lat": 38.9226285, "is_disabled": 0, "name": "6d3271d71521ded33a86520ffc33335c", "fusion_lat": 0.0, "rental_uris": {"ios": "https://dc.lft.to/lastmile_qr_scan", "android": "https://dc.lft.to/lastmile_qr_scan"}, "lon": -77.01860833333333, "type": "electric_scooter"}, {"bike_id": "5138732e6f4d2099b2a8f999f7391bae", "is_reserved": 0, "fusion_lon": 0.0, "lat": 38.902887666666665, "is_disabled": 0, "name": "5138732e6f4d2099b2a8f999f7391bae", "fusion_lat": 0.0, "rental_uris": {"ios": "https://dc.lft.to/lastmile_qr_scan", "android": "https://dc.lft.to/lastmile_qr_scan"}, "lon": -77.04027883333333, "type": "electric_scooter"}, {"bike_id": "bd6b4ca9fb68794e725f4640c569ca24", "is_reserved": 0, "fusion_lon": 0.0, "lat": 38.918357666666665, "is_disabled": 0, "name": "bd6b4ca9fb68794e725f4640c569ca24", "fusion_lat": 0.0, "rental_uris": {"ios": "https://dc.lft.to/lastmile_qr_scan", "android": "https://dc.lft.to/lastmile_qr_scan"}, "lon": -77.04155816666666, "type": "electric_scooter"}, {"bike_id": "211ccea66ae4121b4bbab50caab23669", "is_reserved": 0, "fusion_lon": 0.0, "lat": 38.90026733333333, "is_disabled": 0, "name": "211ccea66ae4121b4bbab50caab23669", "fusion_lat": 0.0, "rental_uris": {"ios": "https://dc.lft.to/lastmile_qr_scan", "android": "https://dc.lft.to/lastmile_qr_scan"}, "lon": -77.040258, "type": "electric_scooter"}, {"bike_id": "f25e9d39fb81b55b505cd56d44873b7a", "is_reserved": 0, "fusion_lon": 0.0, "lat": 38.9091495, "is_disabled": 0, "name": "f25e9d39fb81b55b505cd56d44873b7a", "fusion_lat": 0.0, "rental_uris": {"ios": "https://dc.lft.to/lastmile_qr_scan", "android": "https://dc.lft.to/lastmile_qr_scan"}, "lon": -77.044203, "type": "electric_scooter"}, {"bike_id": "84a1d04f3555b9a83df6db75304c3bac", "is_reserved": 0, "fusion_lon": 0.0, "lat": 38.83232666666667, "is_disabled": 0, "name": "84a1d04f3555b9a83df6db75304c3bac", "fusion_lat": 0.0, "rental_uris": {"ios": "https://dc.lft.to/lastmile_qr_scan", "android": "https://dc.lft.to/lastmile_qr_scan"}, "lon": -76.94625833333333, "type": "electric_bike"}, {"bike_id": "cae5ea083c427996733c7dd103ae32df", "is_reserved": 0, "fusion_lon": 0.0, "lat": 38.88267366666667, "is_disabled": 0, "name": "cae5ea083c427996733c7dd103ae32df", "fusion_lat": 0.0, "rental_uris": {"ios": "https://dc.lft.to/lastmile_qr_scan", "android": "https://dc.lft.to/lastmile_qr_scan"}, "lon": -76.99474283333333, "type": "electric_bike"}, {"bike_id": "ba6fb1e5ebc85eb5fdb66cd939421282", "is_reserved": 0, "fusion_lon": 0.0, "lat": 38.9450655, "is_disabled": 0, "name": "ba6fb1e5ebc85eb5fdb66cd939421282", "fusion_lat": 0.0, "rental_uris": {"ios": "https://dc.lft.to/lastmile_qr_scan", "android": "https://dc.lft.to/lastmile_qr_scan"}, "lon": -77.03367716666666, "type": "electric_scooter"}, {"bike_id": "bfb872f4a5a3f7a5f78481d620b07442", "is_reserved": 0, "fusion_lon": 0.0, "lat": 38.907894, "is_disabled": 0, "name": "bfb872f4a5a3f7a5f78481d620b07442", "fusion_lat": 0.0, "rental_uris": {"ios": "https://dc.lft.to/lastmile_qr_scan", "android": "https://dc.lft.to/lastmile_qr_scan"}, "lon": -77.048769, "type": "electric_scooter"}, {"bike_id": "91733b4fb11ffde40daefab181ba1815", "is_reserved": 0, "fusion_lon": 0.0, "lat": 38.86417316666667, "is_disabled": 0, "name": "91733b4fb11ffde40daefab181ba1815", "fusion_lat": 0.0, "rental_uris": {"ios": "https://dc.lft.to/lastmile_qr_scan", "android": "https://dc.lft.to/lastmile_qr_scan"}, "lon": -76.98041383333333, "type": "electric_scooter"}, {"bike_id": "c61da875c73b208aa8e559addbcccf29", "is_reserved": 0, "fusion_lon": 0.0, "lat": 38.92443933333333, "is_disabled": 0, "name": "c61da875c73b208aa8e559addbcccf29", "fusion_lat": 0.0, "rental_uris": {"ios": "https://dc.lft.to/lastmile_qr_scan", "android": "https://dc.lft.to/lastmile_qr_scan"}, "lon": -77.020406, "type": "electric_scooter"}, {"bike_id": "5941a80b894dd1fc427d9159ea6ae38e", "is_reserved": 0, "fusion_lon": 0.0, "lat": 38.92548166666667, "is_disabled": 0, "name": "5941a80b894dd1fc427d9159ea6ae38e", "fusion_lat": 0.0, "rental_uris": {"ios": "https://dc.lft.to/lastmile_qr_scan", "android": "https://dc.lft.to/lastmile_qr_scan"}, "lon": -77.0335695, "type": "electric_scooter"}, {"bike_id": "ce223ec788e1eef20276ec48b898e412", "is_reserved": 0, "fusion_lon": 0.0, "lat": 38.915758833333335, "is_disabled": 0, "name": "ce223ec788e1eef20276ec48b898e412", "fusion_lat": 0.0, "rental_uris": {"ios": "https://dc.lft.to/lastmile_qr_scan", "android": "https://dc.lft.to/lastmile_qr_scan"}, "lon": -77.04698466666666, "type": "electric_scooter"}, {"bike_id": "0472e33a483ee6c47297a510e3073402", "is_reserved": 0, "fusion_lon": 0.0, "lat": 38.97878716666666, "is_disabled": 0, "name": "0472e33a483ee6c47297a510e3073402", "fusion_lat": 0.0, "rental_uris": {"ios": "https://dc.lft.to/lastmile_qr_scan", "android": "https://dc.lft.to/lastmile_qr_scan"}, "lon": -77.02547466666667, "type": "electric_scooter"}, {"bike_id": "c94ce1bbdcf3bb5682e2091b700dba6a", "is_reserved": 0, "fusion_lon": 0.0, "lat": 38.8899565, "is_disabled": 0, "name": "c94ce1bbdcf3bb5682e2091b700dba6a", "fusion_lat": 0.0, "rental_uris": {"ios": "https://dc.lft.to/lastmile_qr_scan", "android": "https://dc.lft.to/lastmile_qr_scan"}, "lon": -76.94707066666666, "type": "electric_scooter"}, {"bike_id": "a3ca646cf02c62cbf6702a3ce9909b63", "is_reserved": 0, "fusion_lon": 0.0, "lat": 38.91419283333333, "is_disabled": 0, "name": "a3ca646cf02c62cbf6702a3ce9909b63", "fusion_lat": 0.0, "rental_uris": {"ios": "https://dc.lft.to/lastmile_qr_scan", "android": "https://dc.lft.to/lastmile_qr_scan"}, "lon": -77.03178016666666, "type": "electric_scooter"}, {"bike_id": "aeb175603a59e4968c62e3861e188378", "is_reserved": 0, "fusion_lon": 0.0, "lat": 38.86455733333333, "is_disabled": 0, "name": "aeb175603a59e4968c62e3861e188378", "fusion_lat": 0.0, "rental_uris": {"ios": "https://dc.lft.to/lastmile_qr_scan", "android": "https://dc.lft.to/lastmile_qr_scan"}, "lon": -76.98247933333333, "type": "electric_scooter"}, {"bike_id": "7961fba3918b1b278ada720f6bf8775c", "is_reserved": 0, "fusion_lon": 0.0, "lat": 38.942016833333334, "is_disabled": 0, "name": "7961fba3918b1b278ada720f6bf8775c", "fusion_lat": 0.0, "rental_uris": {"ios": "https://dc.lft.to/lastmile_qr_scan", "android": "https://dc.lft.to/lastmile_qr_scan"}, "lon": -77.01830883333334, "type": "electric_bike"}, {"bike_id": "9c53ac3b75144c0871ded7f98d406050", "is_reserved": 0, "fusion_lon": 0.0, "lat": 38.916921333333335, "is_disabled": 0, "name": "9c53ac3b75144c0871ded7f98d406050", "fusion_lat": 0.0, "rental_uris": {"ios": "https://dc.lft.to/lastmile_qr_scan", "android": "https://dc.lft.to/lastmile_qr_scan"}, "lon": -77.0348685, "type": "electric_scooter"}, {"bike_id": "a696f94befed94f56f2d3b88337a121a", "is_reserved": 0, "fusion_lon": 0.0, "lat": 38.9136305, "is_disabled": 0, "name": "a696f94befed94f56f2d3b88337a121a", "fusion_lat": 0.0, "rental_uris": {"ios": "https://dc.lft.to/lastmile_qr_scan", "android": "https://dc.lft.to/lastmile_qr_scan"}, "lon": -77.06620533333333, "type": "electric_scooter"}, {"bike_id": "57dcdc2fdeb49dfd50e4b236ba9272e0", "is_reserved": 0, "fusion_lon": 0.0, "lat": 39.03039783333333, "is_disabled": 0, "name": "57dcdc2fdeb49dfd50e4b236ba9272e0", "fusion_lat": 0.0, "rental_uris": {"ios": "https://dc.lft.to/lastmile_qr_scan", "android": "https://dc.lft.to/lastmile_qr_scan"}, "lon": -77.09496866666667, "type": "electric_bike"}, {"bike_id": "328424d9a636b273d95ff07867a2987b", "is_reserved": 0, "fusion_lon": 0.0, "lat": 38.90012083333333, "is_disabled": 0, "name": "328424d9a636b273d95ff07867a2987b", "fusion_lat": 0.0, "rental_uris": {"ios": "https://dc.lft.to/lastmile_qr_scan", "android": "https://dc.lft.to/lastmile_qr_scan"}, "lon": -77.0004435, "type": "electric_scooter"}, {"bike_id": "bd5f76378e1fbfc00f7eb172b6d9618e", "is_reserved": 0, "fusion_lon": 0.0, "lat": 38.893870166666666, "is_disabled": 0, "name": "bd5f76378e1fbfc00f7eb172b6d9618e", "fusion_lat": 0.0, "rental_uris": {"ios": "https://dc.lft.to/lastmile_qr_scan", "android": "https://dc.lft.to/lastmile_qr_scan"}, "lon": -76.9987165, "type": "electric_scooter"}, {"bike_id": "2bf6187f06c1ebed6618f112199e7331", "is_reserved": 0, "fusion_lon": 0.0, "lat": 39.024255, "is_disabled": 0, "name": "2bf6187f06c1ebed6618f112199e7331", "fusion_lat": 0.0, "rental_uris": {"ios": "https://dc.lft.to/lastmile_qr_scan", "android": "https://dc.lft.to/lastmile_qr_scan"}, "lon": -77.13108983333333, "type": "electric_bike"}, {"bike_id": "5e106b255be7a323d3592cf9191fa019", "is_reserved": 0, "fusion_lon": 0.0, "lat": 38.93085766666667, "is_disabled": 0, "name": "5e106b255be7a323d3592cf9191fa019", "fusion_lat": 0.0, "rental_uris": {"ios": "https://dc.lft.to/lastmile_qr_scan", "android": "https://dc.lft.to/lastmile_qr_scan"}, "lon": -76.96714583333333, "type": "electric_scooter"}, {"bike_id": "8e583c2fad0cd4802c863cb33e81ab20", "is_reserved": 0, "fusion_lon": 0.0, "lat": 38.9076265, "is_disabled": 0, "name": "8e583c2fad0cd4802c863cb33e81ab20", "fusion_lat": 0.0, "rental_uris": {"ios": "https://dc.lft.to/lastmile_qr_scan", "android": "https://dc.lft.to/lastmile_qr_scan"}, "lon": -77.06918266666666, "type": "electric_scooter"}, {"bike_id": "679540ac9a4365ac6bc50b3bdeeab8c1", "is_reserved": 0, "fusion_lon": 0.0, "lat": 38.91567666666667, "is_disabled": 0, "name": "679540ac9a4365ac6bc50b3bdeeab8c1", "fusion_lat": 0.0, "rental_uris": {"ios": "https://dc.lft.to/lastmile_qr_scan", "android": "https://dc.lft.to/lastmile_qr_scan"}, "lon": -77.03188366666667, "type": "electric_scooter"}, {"bike_id": "23ee181a25dd8c91bc9eeee76e779c6a", "is_reserved": 0, "fusion_lon": 0.0, "lat": 38.92182733333333, "is_disabled": 0, "name": "23ee181a25dd8c91bc9eeee76e779c6a", "fusion_lat": 0.0, "rental_uris": {"ios": "https://dc.lft.to/lastmile_qr_scan", "android": "https://dc.lft.to/lastmile_qr_scan"}, "lon": -77.01842566666667, "type": "electric_scooter"}, {"bike_id": "97b41e0263594195e5beb1733cfe6d1e", "is_reserved": 0, "fusion_lon": 0.0, "lat": 39.00506716666667, "is_disabled": 0, "name": "97b41e0263594195e5beb1733cfe6d1e", "fusion_lat": 0.0, "rental_uris": {"ios": "https://dc.lft.to/lastmile_qr_scan", "android": "https://dc.lft.to/lastmile_qr_scan"}, "lon": -76.9037155, "type": "electric_bike"}, {"bike_id": "c3d00f9e88c00d4a4a560afb51c2d970", "is_reserved": 0, "fusion_lon": 0.0, "lat": 38.908385833333334, "is_disabled": 0, "name": "c3d00f9e88c00d4a4a560afb51c2d970", "fusion_lat": 0.0, "rental_uris": {"ios": "https://dc.lft.to/lastmile_qr_scan", "android": "https://dc.lft.to/lastmile_qr_scan"}, "lon": -77.04041883333333, "type": "electric_bike"}, {"bike_id": "bc5756141b9bf8281fa141995ee0c95c", "is_reserved": 0, "fusion_lon": 0.0, "lat": 38.92477133333333, "is_disabled": 0, "name": "bc5756141b9bf8281fa141995ee0c95c", "fusion_lat": 0.0, "rental_uris": {"ios": "https://dc.lft.to/lastmile_qr_scan", "android": "https://dc.lft.to/lastmile_qr_scan"}, "lon": -77.052128, "type": "electric_scooter"}, {"bike_id": "eca8f74950413317edceb13e36d75025", "is_reserved": 0, "fusion_lon": 0.0, "lat": 38.867197833333336, "is_disabled": 0, "name": "eca8f74950413317edceb13e36d75025", "fusion_lat": 0.0, "rental_uris": {"ios": "https://dc.lft.to/lastmile_qr_scan", "android": "https://dc.lft.to/lastmile_qr_scan"}, "lon": -76.9878805, "type": "electric_scooter"}, {"bike_id": "8794bb35b86a4a348f0e675d2dbe98cd", "is_reserved": 0, "fusion_lon": 0.0, "lat": 38.866272333333335, "is_disabled": 0, "name": "8794bb35b86a4a348f0e675d2dbe98cd", "fusion_lat": 0.0, "rental_uris": {"ios": "https://dc.lft.to/lastmile_qr_scan", "android": "https://dc.lft.to/lastmile_qr_scan"}, "lon": -76.987184, "type": "electric_scooter"}, {"bike_id": "89ff56c1ec2d813c42507ff8e6400903", "is_reserved": 0, "fusion_lon": 0.0, "lat": 38.9168475, "is_disabled": 0, "name": "89ff56c1ec2d813c42507ff8e6400903", "fusion_lat": 0.0, "rental_uris": {"ios": "https://dc.lft.to/lastmile_qr_scan", "android": "https://dc.lft.to/lastmile_qr_scan"}, "lon": -77.03768833333334, "type": "electric_scooter"}, {"bike_id": "0e1172ea1ea09e28f961807af7673690", "is_reserved": 0, "fusion_lon": 0.0, "lat": 38.9052645, "is_disabled": 0, "name": "0e1172ea1ea09e28f961807af7673690", "fusion_lat": 0.0, "rental_uris": {"ios": "https://dc.lft.to/lastmile_qr_scan", "android": "https://dc.lft.to/lastmile_qr_scan"}, "lon": -77.0600265, "type": "electric_scooter"}, {"bike_id": "d41ace4252086eec4fec792d11009cd1", "is_reserved": 0, "fusion_lon": 0.0, "lat": 38.880335, "is_disabled": 0, "name": "d41ace4252086eec4fec792d11009cd1", "fusion_lat": 0.0, "rental_uris": {"ios": "https://dc.lft.to/lastmile_qr_scan", "android": "https://dc.lft.to/lastmile_qr_scan"}, "lon": -77.0252115, "type": "electric_scooter"}, {"bike_id": "718559bb2249083ff047850e6c66ad96", "is_reserved": 0, "fusion_lon": 0.0, "lat": 38.9288565, "is_disabled": 0, "name": "718559bb2249083ff047850e6c66ad96", "fusion_lat": 0.0, "rental_uris": {"ios": "https://dc.lft.to/lastmile_qr_scan", "android": "https://dc.lft.to/lastmile_qr_scan"}, "lon": -77.03379633333333, "type": "electric_scooter"}, {"bike_id": "aa8be05f509d508ed00a97483af1fe98", "is_reserved": 0, "fusion_lon": 0.0, "lat": 38.95634283333333, "is_disabled": 0, "name": "aa8be05f509d508ed00a97483af1fe98", "fusion_lat": 0.0, "rental_uris": {"ios": "https://dc.lft.to/lastmile_qr_scan", "android": "https://dc.lft.to/lastmile_qr_scan"}, "lon": -76.93895583333334, "type": "electric_bike"}, {"bike_id": "6398a75ba652f76bd269b8c020f6c161", "is_reserved": 0, "fusion_lon": 0.0, "lat": 38.87402933333333, "is_disabled": 0, "name": "6398a75ba652f76bd269b8c020f6c161", "fusion_lat": 0.0, "rental_uris": {"ios": "https://dc.lft.to/lastmile_qr_scan", "android": "https://dc.lft.to/lastmile_qr_scan"}, "lon": -77.00071533333333, "type": "electric_scooter"}, {"bike_id": "040174944f379ac9e398509745f0a804", "is_reserved": 0, "fusion_lon": 0.0, "lat": 38.91864283333334, "is_disabled": 0, "name": "040174944f379ac9e398509745f0a804", "fusion_lat": 0.0, "rental_uris": {"ios": "https://dc.lft.to/lastmile_qr_scan", "android": "https://dc.lft.to/lastmile_qr_scan"}, "lon": -77.0414645, "type": "electric_scooter"}, {"bike_id": "fd56404ac4d72a9dfe674a35e815bdff", "is_reserved": 0, "fusion_lon": 0.0, "lat": 38.89670433333333, "is_disabled": 0, "name": "fd56404ac4d72a9dfe674a35e815bdff", "fusion_lat": 0.0, "rental_uris": {"ios": "https://dc.lft.to/lastmile_qr_scan", "android": "https://dc.lft.to/lastmile_qr_scan"}, "lon": -77.0090615, "type": "electric_scooter"}, {"bike_id": "f791a0857a0db8c9e3c6dce6f9ab2a2d", "is_reserved": 0, "fusion_lon": 0.0, "lat": 38.897606333333336, "is_disabled": 0, "name": "f791a0857a0db8c9e3c6dce6f9ab2a2d", "fusion_lat": 0.0, "rental_uris": {"ios": "https://dc.lft.to/lastmile_qr_scan", "android": "https://dc.lft.to/lastmile_qr_scan"}, "lon": -76.9043915, "type": "electric_bike"}, {"bike_id": "9d962509acbc50454d8b95a6eb02e972", "is_reserved": 0, "fusion_lon": 0.0, "lat": 38.917151833333335, "is_disabled": 0, "name": "9d962509acbc50454d8b95a6eb02e972", "fusion_lat": 0.0, "rental_uris": {"ios": "https://dc.lft.to/lastmile_qr_scan", "android": "https://dc.lft.to/lastmile_qr_scan"}, "lon": -77.03844116666667, "type": "electric_scooter"}, {"bike_id": "ed4e1c9b392051b4c5733ff1182a6c23", "is_reserved": 0, "fusion_lon": 0.0, "lat": 38.92471883333333, "is_disabled": 0, "name": "ed4e1c9b392051b4c5733ff1182a6c23", "fusion_lat": 0.0, "rental_uris": {"ios": "https://dc.lft.to/lastmile_qr_scan", "android": "https://dc.lft.to/lastmile_qr_scan"}, "lon": -77.052016, "type": "electric_scooter"}, {"bike_id": "838b68bd791c3891f2fcb4a3d89e2e68", "is_reserved": 0, "fusion_lon": 0.0, "lat": 38.885019666666665, "is_disabled": 0, "name": "838b68bd791c3891f2fcb4a3d89e2e68", "fusion_lat": 0.0, "rental_uris": {"ios": "https://dc.lft.to/lastmile_qr_scan", "android": "https://dc.lft.to/lastmile_qr_scan"}, "lon": -77.0057005, "type": "electric_scooter"}, {"bike_id": "1399c8c22a55b1a595f645bda7334e1e", "is_reserved": 0, "fusion_lon": 0.0, "lat": 38.91927916666667, "is_disabled": 0, "name": "1399c8c22a55b1a595f645bda7334e1e", "fusion_lat": 0.0, "rental_uris": {"ios": "https://dc.lft.to/lastmile_qr_scan", "android": "https://dc.lft.to/lastmile_qr_scan"}, "lon": -77.03187633333333, "type": "electric_scooter"}, {"bike_id": "e91801bafe390cd0f841c0acafe014d5", "is_reserved": 0, "fusion_lon": 0.0, "lat": 38.870723166666664, "is_disabled": 0, "name": "e91801bafe390cd0f841c0acafe014d5", "fusion_lat": 0.0, "rental_uris": {"ios": "https://dc.lft.to/lastmile_qr_scan", "android": "https://dc.lft.to/lastmile_qr_scan"}, "lon": -76.98239966666667, "type": "electric_scooter"}, {"bike_id": "a768d0d54c74d7bf641d379328b010d1", "is_reserved": 0, "fusion_lon": 0.0, "lat": 38.908451, "is_disabled": 0, "name": "a768d0d54c74d7bf641d379328b010d1", "fusion_lat": 0.0, "rental_uris": {"ios": "https://dc.lft.to/lastmile_qr_scan", "android": "https://dc.lft.to/lastmile_qr_scan"}, "lon": -77.08537566666666, "type": "electric_scooter"}, {"bike_id": "0d885f6ce0c212c6f65c7a0890a35fd6", "is_reserved": 0, "fusion_lon": 0.0, "lat": 38.88359, "is_disabled": 0, "name": "0d885f6ce0c212c6f65c7a0890a35fd6", "fusion_lat": 0.0, "rental_uris": {"ios": "https://dc.lft.to/lastmile_qr_scan", "android": "https://dc.lft.to/lastmile_qr_scan"}, "lon": -77.03179033333333, "type": "electric_scooter"}, {"bike_id": "cd394903806e739406676f4982caa269", "is_reserved": 0, "fusion_lon": 0.0, "lat": 38.917170666666664, "is_disabled": 0, "name": "cd394903806e739406676f4982caa269", "fusion_lat": 0.0, "rental_uris": {"ios": "https://dc.lft.to/lastmile_qr_scan", "android": "https://dc.lft.to/lastmile_qr_scan"}, "lon": -77.0383975, "type": "electric_scooter"}, {"bike_id": "0b1bc8e804d38d7d5e43e87ddfb46147", "is_reserved": 0, "fusion_lon": 0.0, "lat": 38.92139683333333, "is_disabled": 0, "name": "0b1bc8e804d38d7d5e43e87ddfb46147", "fusion_lat": 0.0, "rental_uris": {"ios": "https://dc.lft.to/lastmile_qr_scan", "android": "https://dc.lft.to/lastmile_qr_scan"}, "lon": -77.0424015, "type": "electric_scooter"}, {"bike_id": "efcf6eff9ef980654343272fc369c783", "is_reserved": 0, "fusion_lon": 0.0, "lat": 38.920619, "is_disabled": 0, "name": "efcf6eff9ef980654343272fc369c783", "fusion_lat": 0.0, "rental_uris": {"ios": "https://dc.lft.to/lastmile_qr_scan", "android": "https://dc.lft.to/lastmile_qr_scan"}, "lon": -77.04197266666667, "type": "electric_scooter"}, {"bike_id": "12dbaf95ab8469b0dc2be578f58d5436", "is_reserved": 0, "fusion_lon": 0.0, "lat": 38.9660515, "is_disabled": 0, "name": "12dbaf95ab8469b0dc2be578f58d5436", "fusion_lat": 0.0, "rental_uris": {"ios": "https://dc.lft.to/lastmile_qr_scan", "android": "https://dc.lft.to/lastmile_qr_scan"}, "lon": -76.9833315, "type": "electric_bike"}, {"bike_id": "186da91820c7135410771f5a0e7b0d28", "is_reserved": 0, "fusion_lon": 0.0, "lat": 38.933780666666664, "is_disabled": 0, "name": "186da91820c7135410771f5a0e7b0d28", "fusion_lat": 0.0, "rental_uris": {"ios": "https://dc.lft.to/lastmile_qr_scan", "android": "https://dc.lft.to/lastmile_qr_scan"}, "lon": -77.029013, "type": "electric_scooter"}, {"bike_id": "739f2157565161c85e00d5f646733955", "is_reserved": 0, "fusion_lon": 0.0, "lat": 38.91030683333334, "is_disabled": 0, "name": "739f2157565161c85e00d5f646733955", "fusion_lat": 0.0, "rental_uris": {"ios": "https://dc.lft.to/lastmile_qr_scan", "android": "https://dc.lft.to/lastmile_qr_scan"}, "lon": -77.03805466666667, "type": "electric_scooter"}, {"bike_id": "ce94bca7f034f68a82f3bc34ff570d93", "is_reserved": 0, "fusion_lon": 0.0, "lat": 38.8983965, "is_disabled": 0, "name": "ce94bca7f034f68a82f3bc34ff570d93", "fusion_lat": 0.0, "rental_uris": {"ios": "https://dc.lft.to/lastmile_qr_scan", "android": "https://dc.lft.to/lastmile_qr_scan"}, "lon": -76.9310405, "type": "electric_scooter"}, {"bike_id": "1be3cd18d9d825ac73576a061af8c929", "is_reserved": 0, "fusion_lon": 0.0, "lat": 38.9246815, "is_disabled": 0, "name": "1be3cd18d9d825ac73576a061af8c929", "fusion_lat": 0.0, "rental_uris": {"ios": "https://dc.lft.to/lastmile_qr_scan", "android": "https://dc.lft.to/lastmile_qr_scan"}, "lon": -77.02283416666667, "type": "electric_scooter"}, {"bike_id": "4c017795b87cf58e002a2dd88705d6a0", "is_reserved": 0, "fusion_lon": 0.0, "lat": 38.903346666666664, "is_disabled": 0, "name": "4c017795b87cf58e002a2dd88705d6a0", "fusion_lat": 0.0, "rental_uris": {"ios": "https://dc.lft.to/lastmile_qr_scan", "android": "https://dc.lft.to/lastmile_qr_scan"}, "lon": -77.0162825, "type": "electric_bike"}, {"bike_id": "0d50bd29ea30d88215ab0761f9f3d751", "is_reserved": 0, "fusion_lon": 0.0, "lat": 38.9231395, "is_disabled": 0, "name": "0d50bd29ea30d88215ab0761f9f3d751", "fusion_lat": 0.0, "rental_uris": {"ios": "https://dc.lft.to/lastmile_qr_scan", "android": "https://dc.lft.to/lastmile_qr_scan"}, "lon": -77.0391565, "type": "electric_scooter"}, {"bike_id": "5e87149916ba17e76cb09f9ba2246207", "is_reserved": 0, "fusion_lon": 0.0, "lat": 38.859595666666664, "is_disabled": 0, "name": "5e87149916ba17e76cb09f9ba2246207", "fusion_lat": 0.0, "rental_uris": {"ios": "https://dc.lft.to/lastmile_qr_scan", "android": "https://dc.lft.to/lastmile_qr_scan"}, "lon": -76.990975, "type": "electric_scooter"}, {"bike_id": "543cdfb62c779e761cc8b4b8034220be", "is_reserved": 0, "fusion_lon": 0.0, "lat": 38.9180825, "is_disabled": 0, "name": "543cdfb62c779e761cc8b4b8034220be", "fusion_lat": 0.0, "rental_uris": {"ios": "https://dc.lft.to/lastmile_qr_scan", "android": "https://dc.lft.to/lastmile_qr_scan"}, "lon": -77.03304783333333, "type": "electric_scooter"}, {"bike_id": "dfce4e4ceed55ba2c0e9663cbce51b31", "is_reserved": 0, "fusion_lon": 0.0, "lat": 38.91813833333333, "is_disabled": 0, "name": "dfce4e4ceed55ba2c0e9663cbce51b31", "fusion_lat": 0.0, "rental_uris": {"ios": "https://dc.lft.to/lastmile_qr_scan", "android": "https://dc.lft.to/lastmile_qr_scan"}, "lon": -77.02475533333333, "type": "electric_scooter"}, {"bike_id": "1c9977e7589ddf51476b8981419119c0", "is_reserved": 0, "fusion_lon": 0.0, "lat": 38.92041416666667, "is_disabled": 0, "name": "1c9977e7589ddf51476b8981419119c0", "fusion_lat": 0.0, "rental_uris": {"ios": "https://dc.lft.to/lastmile_qr_scan", "android": "https://dc.lft.to/lastmile_qr_scan"}, "lon": -77.02454033333333, "type": "electric_scooter"}, {"bike_id": "301619461d98db08360e0f3e9e6adc8b", "is_reserved": 0, "fusion_lon": 0.0, "lat": 38.892219833333336, "is_disabled": 0, "name": "301619461d98db08360e0f3e9e6adc8b", "fusion_lat": 0.0, "rental_uris": {"ios": "https://dc.lft.to/lastmile_qr_scan", "android": "https://dc.lft.to/lastmile_qr_scan"}, "lon": -77.04660733333333, "type": "electric_scooter"}, {"bike_id": "5a77128ccbcf7da3e11d2fd3a54a2c0a", "is_reserved": 0, "fusion_lon": 0.0, "lat": 38.903713, "is_disabled": 0, "name": "5a77128ccbcf7da3e11d2fd3a54a2c0a", "fusion_lat": 0.0, "rental_uris": {"ios": "https://dc.lft.to/lastmile_qr_scan", "android": "https://dc.lft.to/lastmile_qr_scan"}, "lon": -77.045164, "type": "electric_scooter"}, {"bike_id": "cad7d1d99195b7bd34a47272f91ad8d3", "is_reserved": 0, "fusion_lon": 0.0, "lat": 38.87851916666666, "is_disabled": 0, "name": "cad7d1d99195b7bd34a47272f91ad8d3", "fusion_lat": 0.0, "rental_uris": {"ios": "https://dc.lft.to/lastmile_qr_scan", "android": "https://dc.lft.to/lastmile_qr_scan"}, "lon": -77.01950316666667, "type": "electric_scooter"}, {"bike_id": "9f1af7fed9b116a2c57cfa809ef6be67", "is_reserved": 0, "fusion_lon": 0.0, "lat": 38.907843, "is_disabled": 0, "name": "9f1af7fed9b116a2c57cfa809ef6be67", "fusion_lat": 0.0, "rental_uris": {"ios": "https://dc.lft.to/lastmile_qr_scan", "android": "https://dc.lft.to/lastmile_qr_scan"}, "lon": -77.04278566666666, "type": "electric_scooter"}, {"bike_id": "0f36b946b5f6b82e07afe0b26d31be06", "is_reserved": 0, "fusion_lon": 0.0, "lat": 38.94450166666667, "is_disabled": 0, "name": "0f36b946b5f6b82e07afe0b26d31be06", "fusion_lat": 0.0, "rental_uris": {"ios": "https://dc.lft.to/lastmile_qr_scan", "android": "https://dc.lft.to/lastmile_qr_scan"}, "lon": -77.06351783333334, "type": "electric_scooter"}, {"bike_id": "4b9c115f8333617ed61bea74eff9ef60", "is_reserved": 0, "fusion_lon": 0.0, "lat": 38.93977666666667, "is_disabled": 0, "name": "4b9c115f8333617ed61bea74eff9ef60", "fusion_lat": 0.0, "rental_uris": {"ios": "https://dc.lft.to/lastmile_qr_scan", "android": "https://dc.lft.to/lastmile_qr_scan"}, "lon": -77.0289175, "type": "electric_scooter"}, {"bike_id": "833aa3afc57c776c12f827966c2ebdb3", "is_reserved": 0, "fusion_lon": 0.0, "lat": 38.8580875, "is_disabled": 0, "name": "833aa3afc57c776c12f827966c2ebdb3", "fusion_lat": 0.0, "rental_uris": {"ios": "https://dc.lft.to/lastmile_qr_scan", "android": "https://dc.lft.to/lastmile_qr_scan"}, "lon": -76.98989633333333, "type": "electric_scooter"}, {"bike_id": "894b4af79ff87a00cf56b240391dd324", "is_reserved": 0, "fusion_lon": 0.0, "lat": 38.90465533333333, "is_disabled": 0, "name": "894b4af79ff87a00cf56b240391dd324", "fusion_lat": 0.0, "rental_uris": {"ios": "https://dc.lft.to/lastmile_qr_scan", "android": "https://dc.lft.to/lastmile_qr_scan"}, "lon": -77.034658, "type": "electric_scooter"}, {"bike_id": "1c39c6b5ceab37ff3af46777281d7917", "is_reserved": 0, "fusion_lon": 0.0, "lat": 38.90362533333333, "is_disabled": 0, "name": "1c39c6b5ceab37ff3af46777281d7917", "fusion_lat": 0.0, "rental_uris": {"ios": "https://dc.lft.to/lastmile_qr_scan", "android": "https://dc.lft.to/lastmile_qr_scan"}, "lon": -77.04505133333333, "type": "electric_scooter"}, {"bike_id": "f75b7866b3b651460965b5812e9ae305", "is_reserved": 0, "fusion_lon": 0.0, "lat": 38.9038035, "is_disabled": 0, "name": "f75b7866b3b651460965b5812e9ae305", "fusion_lat": 0.0, "rental_uris": {"ios": "https://dc.lft.to/lastmile_qr_scan", "android": "https://dc.lft.to/lastmile_qr_scan"}, "lon": -77.04205383333333, "type": "electric_scooter"}, {"bike_id": "adcd8c6f97261f328ae285b4a0c9817a", "is_reserved": 0, "fusion_lon": 0.0, "lat": 38.9049025, "is_disabled": 0, "name": "adcd8c6f97261f328ae285b4a0c9817a", "fusion_lat": 0.0, "rental_uris": {"ios": "https://dc.lft.to/lastmile_qr_scan", "android": "https://dc.lft.to/lastmile_qr_scan"}, "lon": -77.06024583333334, "type": "electric_scooter"}, {"bike_id": "be65ea3f185f66f2c5c47f36a34166fc", "is_reserved": 0, "fusion_lon": 0.0, "lat": 38.88517433333333, "is_disabled": 0, "name": "be65ea3f185f66f2c5c47f36a34166fc", "fusion_lat": 0.0, "rental_uris": {"ios": "https://dc.lft.to/lastmile_qr_scan", "android": "https://dc.lft.to/lastmile_qr_scan"}, "lon": -77.03352816666667, "type": "electric_scooter"}, {"bike_id": "96ba2953a6946f67025ac727effab8b0", "is_reserved": 0, "fusion_lon": 0.0, "lat": 38.891939666666666, "is_disabled": 0, "name": "96ba2953a6946f67025ac727effab8b0", "fusion_lat": 0.0, "rental_uris": {"ios": "https://dc.lft.to/lastmile_qr_scan", "android": "https://dc.lft.to/lastmile_qr_scan"}, "lon": -77.0238495, "type": "electric_scooter"}, {"bike_id": "88f2a53ab626886bf92a51100267d88d", "is_reserved": 0, "fusion_lon": 0.0, "lat": 38.904155833333334, "is_disabled": 0, "name": "88f2a53ab626886bf92a51100267d88d", "fusion_lat": 0.0, "rental_uris": {"ios": "https://dc.lft.to/lastmile_qr_scan", "android": "https://dc.lft.to/lastmile_qr_scan"}, "lon": -77.04031816666667, "type": "electric_scooter"}, {"bike_id": "0dac7cecbab62c4cadeb553289ee3fa8", "is_reserved": 0, "fusion_lon": 0.0, "lat": 38.8990705, "is_disabled": 0, "name": "0dac7cecbab62c4cadeb553289ee3fa8", "fusion_lat": 0.0, "rental_uris": {"ios": "https://dc.lft.to/lastmile_qr_scan", "android": "https://dc.lft.to/lastmile_qr_scan"}, "lon": -76.93351683333333, "type": "electric_scooter"}, {"bike_id": "d4c629ba99c11a9cc923fe8fa33e665f", "is_reserved": 0, "fusion_lon": 0.0, "lat": 38.874947, "is_disabled": 0, "name": "d4c629ba99c11a9cc923fe8fa33e665f", "fusion_lat": 0.0, "rental_uris": {"ios": "https://dc.lft.to/lastmile_qr_scan", "android": "https://dc.lft.to/lastmile_qr_scan"}, "lon": -76.99801316666667, "type": "electric_scooter"}, {"bike_id": "af740c24bf334f4a64756a3eca82cab3", "is_reserved": 0, "fusion_lon": 0.0, "lat": 38.94013833333333, "is_disabled": 0, "name": "af740c24bf334f4a64756a3eca82cab3", "fusion_lat": 0.0, "rental_uris": {"ios": "https://dc.lft.to/lastmile_qr_scan", "android": "https://dc.lft.to/lastmile_qr_scan"}, "lon": -77.07178133333333, "type": "electric_scooter"}, {"bike_id": "837c5f119768b2d8c66f4d68317ee569", "is_reserved": 0, "fusion_lon": 0.0, "lat": 38.924137, "is_disabled": 0, "name": "837c5f119768b2d8c66f4d68317ee569", "fusion_lat": 0.0, "rental_uris": {"ios": "https://dc.lft.to/lastmile_qr_scan", "android": "https://dc.lft.to/lastmile_qr_scan"}, "lon": -77.02243433333334, "type": "electric_scooter"}, {"bike_id": "387f13937644798198d2e7241e0fa013", "is_reserved": 0, "fusion_lon": 0.0, "lat": 38.810483, "is_disabled": 0, "name": "387f13937644798198d2e7241e0fa013", "fusion_lat": 0.0, "rental_uris": {"ios": "https://dc.lft.to/lastmile_qr_scan", "android": "https://dc.lft.to/lastmile_qr_scan"}, "lon": -77.08509016666666, "type": "electric_bike"}, {"bike_id": "d0ac9472d7b4531f795ca625cf3184c8", "is_reserved": 0, "fusion_lon": 0.0, "lat": 38.87742033333333, "is_disabled": 0, "name": "d0ac9472d7b4531f795ca625cf3184c8", "fusion_lat": 0.0, "rental_uris": {"ios": "https://dc.lft.to/lastmile_qr_scan", "android": "https://dc.lft.to/lastmile_qr_scan"}, "lon": -76.98060733333334, "type": "electric_bike"}, {"bike_id": "3df60353af98662aa1c83d15e0612c89", "is_reserved": 0, "fusion_lon": 0.0, "lat": 38.90327766666667, "is_disabled": 0, "name": "3df60353af98662aa1c83d15e0612c89", "fusion_lat": 0.0, "rental_uris": {"ios": "https://dc.lft.to/lastmile_qr_scan", "android": "https://dc.lft.to/lastmile_qr_scan"}, "lon": -77.0332005, "type": "electric_scooter"}, {"bike_id": "41e497ef79a0a9c94d7c185226ce5b68", "is_reserved": 0, "fusion_lon": 0.0, "lat": 38.925605833333336, "is_disabled": 0, "name": "41e497ef79a0a9c94d7c185226ce5b68", "fusion_lat": 0.0, "rental_uris": {"ios": "https://dc.lft.to/lastmile_qr_scan", "android": "https://dc.lft.to/lastmile_qr_scan"}, "lon": -77.03795716666667, "type": "electric_scooter"}, {"bike_id": "2dbe862226af8e63776e19ea2cb188f6", "is_reserved": 0, "fusion_lon": 0.0, "lat": 38.88680766666667, "is_disabled": 0, "name": "2dbe862226af8e63776e19ea2cb188f6", "fusion_lat": 0.0, "rental_uris": {"ios": "https://dc.lft.to/lastmile_qr_scan", "android": "https://dc.lft.to/lastmile_qr_scan"}, "lon": -77.00215133333333, "type": "electric_scooter"}, {"bike_id": "0a985007e423da80361f94e8eded42b6", "is_reserved": 0, "fusion_lon": 0.0, "lat": 38.844222333333335, "is_disabled": 0, "name": "0a985007e423da80361f94e8eded42b6", "fusion_lat": 0.0, "rental_uris": {"ios": "https://dc.lft.to/lastmile_qr_scan", "android": "https://dc.lft.to/lastmile_qr_scan"}, "lon": -76.99780333333334, "type": "electric_scooter"}, {"bike_id": "0e95ea9919bae640bd4e8bb3a7904c48", "is_reserved": 0, "fusion_lon": 0.0, "lat": 38.854273, "is_disabled": 0, "name": "0e95ea9919bae640bd4e8bb3a7904c48", "fusion_lat": 0.0, "rental_uris": {"ios": "https://dc.lft.to/lastmile_qr_scan", "android": "https://dc.lft.to/lastmile_qr_scan"}, "lon": -76.90967, "type": "electric_bike"}, {"bike_id": "c9bc6fff758a55cd53b3f724306f6d3b", "is_reserved": 0, "fusion_lon": 0.0, "lat": 38.903736, "is_disabled": 0, "name": "c9bc6fff758a55cd53b3f724306f6d3b", "fusion_lat": 0.0, "rental_uris": {"ios": "https://dc.lft.to/lastmile_qr_scan", "android": "https://dc.lft.to/lastmile_qr_scan"}, "lon": -77.05317283333333, "type": "electric_scooter"}, {"bike_id": "54be7a033f53808926285158a5ff3720", "is_reserved": 0, "fusion_lon": 0.0, "lat": 38.892219833333336, "is_disabled": 0, "name": "54be7a033f53808926285158a5ff3720", "fusion_lat": 0.0, "rental_uris": {"ios": "https://dc.lft.to/lastmile_qr_scan", "android": "https://dc.lft.to/lastmile_qr_scan"}, "lon": -77.04861683333333, "type": "electric_scooter"}, {"bike_id": "ae7318a92909e9591513a1889f9d3002", "is_reserved": 0, "fusion_lon": 0.0, "lat": 38.88205166666667, "is_disabled": 0, "name": "ae7318a92909e9591513a1889f9d3002", "fusion_lat": 0.0, "rental_uris": {"ios": "https://dc.lft.to/lastmile_qr_scan", "android": "https://dc.lft.to/lastmile_qr_scan"}, "lon": -76.99951483333334, "type": "electric_scooter"}, {"bike_id": "16dcbcd2d80c87b0519baed1bac43ab6", "is_reserved": 0, "fusion_lon": 0.0, "lat": 38.905425, "is_disabled": 0, "name": "16dcbcd2d80c87b0519baed1bac43ab6", "fusion_lat": 0.0, "rental_uris": {"ios": "https://dc.lft.to/lastmile_qr_scan", "android": "https://dc.lft.to/lastmile_qr_scan"}, "lon": -77.0325135, "type": "electric_scooter"}, {"bike_id": "46e9118914b2c4a4fe35e1b8b3f34879", "is_reserved": 0, "fusion_lon": 0.0, "lat": 38.90639816666667, "is_disabled": 0, "name": "46e9118914b2c4a4fe35e1b8b3f34879", "fusion_lat": 0.0, "rental_uris": {"ios": "https://dc.lft.to/lastmile_qr_scan", "android": "https://dc.lft.to/lastmile_qr_scan"}, "lon": -77.01142783333333, "type": "electric_scooter"}, {"bike_id": "3bb0b32688ffe9ebc020e90dcb766e87", "is_reserved": 0, "fusion_lon": 0.0, "lat": 38.903677333333334, "is_disabled": 0, "name": "3bb0b32688ffe9ebc020e90dcb766e87", "fusion_lat": 0.0, "rental_uris": {"ios": "https://dc.lft.to/lastmile_qr_scan", "android": "https://dc.lft.to/lastmile_qr_scan"}, "lon": -77.04358616666667, "type": "electric_scooter"}, {"bike_id": "abeebd0b80bd10dfc8028a97fc0f57d1", "is_reserved": 0, "fusion_lon": 0.0, "lat": 38.91050416666667, "is_disabled": 0, "name": "abeebd0b80bd10dfc8028a97fc0f57d1", "fusion_lat": 0.0, "rental_uris": {"ios": "https://dc.lft.to/lastmile_qr_scan", "android": "https://dc.lft.to/lastmile_qr_scan"}, "lon": -77.01534966666667, "type": "electric_scooter"}, {"bike_id": "7d592312c945ec10f1fcccba12c6e691", "is_reserved": 0, "fusion_lon": 0.0, "lat": 38.931185166666666, "is_disabled": 0, "name": "7d592312c945ec10f1fcccba12c6e691", "fusion_lat": 0.0, "rental_uris": {"ios": "https://dc.lft.to/lastmile_qr_scan", "android": "https://dc.lft.to/lastmile_qr_scan"}, "lon": -77.028067, "type": "electric_scooter"}, {"bike_id": "711192dbec3fefdbab22a1a17c186b25", "is_reserved": 0, "fusion_lon": 0.0, "lat": 38.87491966666666, "is_disabled": 0, "name": "711192dbec3fefdbab22a1a17c186b25", "fusion_lat": 0.0, "rental_uris": {"ios": "https://dc.lft.to/lastmile_qr_scan", "android": "https://dc.lft.to/lastmile_qr_scan"}, "lon": -77.00117733333333, "type": "electric_scooter"}, {"bike_id": "5764cdfe1c04a8e0e092bc90f2c1f7cc", "is_reserved": 0, "fusion_lon": 0.0, "lat": 38.892193666666664, "is_disabled": 0, "name": "5764cdfe1c04a8e0e092bc90f2c1f7cc", "fusion_lat": 0.0, "rental_uris": {"ios": "https://dc.lft.to/lastmile_qr_scan", "android": "https://dc.lft.to/lastmile_qr_scan"}, "lon": -77.03981966666667, "type": "electric_scooter"}, {"bike_id": "dc493f6e3cdec1fcbd0c6faaefc49c42", "is_reserved": 0, "fusion_lon": 0.0, "lat": 38.905114833333336, "is_disabled": 0, "name": "dc493f6e3cdec1fcbd0c6faaefc49c42", "fusion_lat": 0.0, "rental_uris": {"ios": "https://dc.lft.to/lastmile_qr_scan", "android": "https://dc.lft.to/lastmile_qr_scan"}, "lon": -77.059117, "type": "electric_scooter"}, {"bike_id": "449739bd920d66b449c2721e1575b742", "is_reserved": 0, "fusion_lon": 0.0, "lat": 38.904892333333336, "is_disabled": 0, "name": "449739bd920d66b449c2721e1575b742", "fusion_lat": 0.0, "rental_uris": {"ios": "https://dc.lft.to/lastmile_qr_scan", "android": "https://dc.lft.to/lastmile_qr_scan"}, "lon": -77.06794133333334, "type": "electric_scooter"}, {"bike_id": "7d076ecf2551e6052f9dbdba63e4239b", "is_reserved": 0, "fusion_lon": 0.0, "lat": 38.9051105, "is_disabled": 0, "name": "7d076ecf2551e6052f9dbdba63e4239b", "fusion_lat": 0.0, "rental_uris": {"ios": "https://dc.lft.to/lastmile_qr_scan", "android": "https://dc.lft.to/lastmile_qr_scan"}, "lon": -77.06664783333333, "type": "electric_scooter"}, {"bike_id": "c05936f2ab3e9f1a89d1737a680ba5c3", "is_reserved": 0, "fusion_lon": 0.0, "lat": 38.900399, "is_disabled": 0, "name": "c05936f2ab3e9f1a89d1737a680ba5c3", "fusion_lat": 0.0, "rental_uris": {"ios": "https://dc.lft.to/lastmile_qr_scan", "android": "https://dc.lft.to/lastmile_qr_scan"}, "lon": -77.05025516666667, "type": "electric_scooter"}, {"bike_id": "933a85cf8bc4bfe6398fe06b364a662a", "is_reserved": 0, "fusion_lon": 0.0, "lat": 38.933614166666665, "is_disabled": 0, "name": "933a85cf8bc4bfe6398fe06b364a662a", "fusion_lat": 0.0, "rental_uris": {"ios": "https://dc.lft.to/lastmile_qr_scan", "android": "https://dc.lft.to/lastmile_qr_scan"}, "lon": -77.05719383333333, "type": "electric_scooter"}, {"bike_id": "9652b64fc290ecdd005cd110e2487d55", "is_reserved": 0, "fusion_lon": 0.0, "lat": 38.942319166666664, "is_disabled": 0, "name": "9652b64fc290ecdd005cd110e2487d55", "fusion_lat": 0.0, "rental_uris": {"ios": "https://dc.lft.to/lastmile_qr_scan", "android": "https://dc.lft.to/lastmile_qr_scan"}, "lon": -77.07246566666667, "type": "electric_scooter"}, {"bike_id": "3b7ef0c495183fdc45671dc2450337e9", "is_reserved": 0, "fusion_lon": 0.0, "lat": 38.94967783333333, "is_disabled": 0, "name": "3b7ef0c495183fdc45671dc2450337e9", "fusion_lat": 0.0, "rental_uris": {"ios": "https://dc.lft.to/lastmile_qr_scan", "android": "https://dc.lft.to/lastmile_qr_scan"}, "lon": -76.97290383333333, "type": "electric_bike"}, {"bike_id": "e5824320b458ff50a0fbbd2946339b6f", "is_reserved": 0, "fusion_lon": 0.0, "lat": 38.9126215, "is_disabled": 0, "name": "e5824320b458ff50a0fbbd2946339b6f", "fusion_lat": 0.0, "rental_uris": {"ios": "https://dc.lft.to/lastmile_qr_scan", "android": "https://dc.lft.to/lastmile_qr_scan"}, "lon": -77.04404783333334, "type": "electric_scooter"}, {"bike_id": "4948bd64c0d3d3438b231fbc85297ef8", "is_reserved": 0, "fusion_lon": 0.0, "lat": 38.907397, "is_disabled": 0, "name": "4948bd64c0d3d3438b231fbc85297ef8", "fusion_lat": 0.0, "rental_uris": {"ios": "https://dc.lft.to/lastmile_qr_scan", "android": "https://dc.lft.to/lastmile_qr_scan"}, "lon": -77.00143016666667, "type": "electric_scooter"}, {"bike_id": "76146b0bedf8f0c72eae871d4b3b94f8", "is_reserved": 0, "fusion_lon": 0.0, "lat": 38.908459666666666, "is_disabled": 0, "name": "76146b0bedf8f0c72eae871d4b3b94f8", "fusion_lat": 0.0, "rental_uris": {"ios": "https://dc.lft.to/lastmile_qr_scan", "android": "https://dc.lft.to/lastmile_qr_scan"}, "lon": -77.06359683333334, "type": "electric_bike"}, {"bike_id": "1588204c363118867bde0f09b8906d8a", "is_reserved": 0, "fusion_lon": 0.0, "lat": 38.903870833333336, "is_disabled": 0, "name": "1588204c363118867bde0f09b8906d8a", "fusion_lat": 0.0, "rental_uris": {"ios": "https://dc.lft.to/lastmile_qr_scan", "android": "https://dc.lft.to/lastmile_qr_scan"}, "lon": -77.044733, "type": "electric_scooter"}, {"bike_id": "d6348ab7fc7510dcc45cbbf6f30b7329", "is_reserved": 0, "fusion_lon": 0.0, "lat": 38.930767333333336, "is_disabled": 0, "name": "d6348ab7fc7510dcc45cbbf6f30b7329", "fusion_lat": 0.0, "rental_uris": {"ios": "https://dc.lft.to/lastmile_qr_scan", "android": "https://dc.lft.to/lastmile_qr_scan"}, "lon": -77.03109166666667, "type": "electric_scooter"}, {"bike_id": "5d9ee4420523b7c2dcc4c283d2f6b582", "is_reserved": 0, "fusion_lon": 0.0, "lat": 38.866117, "is_disabled": 0, "name": "5d9ee4420523b7c2dcc4c283d2f6b582", "fusion_lat": 0.0, "rental_uris": {"ios": "https://dc.lft.to/lastmile_qr_scan", "android": "https://dc.lft.to/lastmile_qr_scan"}, "lon": -76.94578066666666, "type": "electric_bike"}, {"bike_id": "3cbe83153e189b0dabd38f7bf419d851", "is_reserved": 0, "fusion_lon": 0.0, "lat": 38.897267166666666, "is_disabled": 0, "name": "3cbe83153e189b0dabd38f7bf419d851", "fusion_lat": 0.0, "rental_uris": {"ios": "https://dc.lft.to/lastmile_qr_scan", "android": "https://dc.lft.to/lastmile_qr_scan"}, "lon": -77.05571016666667, "type": "electric_scooter"}, {"bike_id": "f1d45974c944d333d28e3aaae9246024", "is_reserved": 0, "fusion_lon": 0.0, "lat": 38.8936515, "is_disabled": 0, "name": "f1d45974c944d333d28e3aaae9246024", "fusion_lat": 0.0, "rental_uris": {"ios": "https://dc.lft.to/lastmile_qr_scan", "android": "https://dc.lft.to/lastmile_qr_scan"}, "lon": -77.04794283333334, "type": "electric_scooter"}, {"bike_id": "f6dfc9d8315f9cb0e424b1ef316c5c16", "is_reserved": 0, "fusion_lon": 0.0, "lat": 38.905313166666666, "is_disabled": 0, "name": "f6dfc9d8315f9cb0e424b1ef316c5c16", "fusion_lat": 0.0, "rental_uris": {"ios": "https://dc.lft.to/lastmile_qr_scan", "android": "https://dc.lft.to/lastmile_qr_scan"}, "lon": -77.06126166666667, "type": "electric_scooter"}, {"bike_id": "e7a9f47d6e211edc648c4f92ca82a89d", "is_reserved": 0, "fusion_lon": 0.0, "lat": 38.89808766666667, "is_disabled": 0, "name": "e7a9f47d6e211edc648c4f92ca82a89d", "fusion_lat": 0.0, "rental_uris": {"ios": "https://dc.lft.to/lastmile_qr_scan", "android": "https://dc.lft.to/lastmile_qr_scan"}, "lon": -77.033058, "type": "electric_scooter"}, {"bike_id": "ff9764881eb52765f140abaf539ae6d4", "is_reserved": 0, "fusion_lon": 0.0, "lat": 38.896220166666666, "is_disabled": 0, "name": "ff9764881eb52765f140abaf539ae6d4", "fusion_lat": 0.0, "rental_uris": {"ios": "https://dc.lft.to/lastmile_qr_scan", "android": "https://dc.lft.to/lastmile_qr_scan"}, "lon": -76.99851833333334, "type": "electric_scooter"}, {"bike_id": "26176299dbbcc38a62b1eae1c917846a", "is_reserved": 0, "fusion_lon": 0.0, "lat": 38.90562633333333, "is_disabled": 0, "name": "26176299dbbcc38a62b1eae1c917846a", "fusion_lat": 0.0, "rental_uris": {"ios": "https://dc.lft.to/lastmile_qr_scan", "android": "https://dc.lft.to/lastmile_qr_scan"}, "lon": -77.03071683333333, "type": "electric_scooter"}, {"bike_id": "eef184f8e9a55e36b6bfe0c3656e7e7b", "is_reserved": 0, "fusion_lon": 0.0, "lat": 38.927138666666664, "is_disabled": 0, "name": "eef184f8e9a55e36b6bfe0c3656e7e7b", "fusion_lat": 0.0, "rental_uris": {"ios": "https://dc.lft.to/lastmile_qr_scan", "android": "https://dc.lft.to/lastmile_qr_scan"}, "lon": -77.02097333333333, "type": "electric_scooter"}, {"bike_id": "afa1a82fd077eb08dff34b0d19bb23d6", "is_reserved": 0, "fusion_lon": 0.0, "lat": 38.929004666666664, "is_disabled": 0, "name": "afa1a82fd077eb08dff34b0d19bb23d6", "fusion_lat": 0.0, "rental_uris": {"ios": "https://dc.lft.to/lastmile_qr_scan", "android": "https://dc.lft.to/lastmile_qr_scan"}, "lon": -77.03170033333333, "type": "electric_scooter"}, {"bike_id": "c8b093fbd32017990ee754cb030be639", "is_reserved": 0, "fusion_lon": 0.0, "lat": 38.9414825, "is_disabled": 0, "name": "c8b093fbd32017990ee754cb030be639", "fusion_lat": 0.0, "rental_uris": {"ios": "https://dc.lft.to/lastmile_qr_scan", "android": "https://dc.lft.to/lastmile_qr_scan"}, "lon": -77.02988583333334, "type": "electric_scooter"}, {"bike_id": "a0781710e144c91c972c51d123f1cbbe", "is_reserved": 0, "fusion_lon": 0.0, "lat": 38.92397166666667, "is_disabled": 0, "name": "a0781710e144c91c972c51d123f1cbbe", "fusion_lat": 0.0, "rental_uris": {"ios": "https://dc.lft.to/lastmile_qr_scan", "android": "https://dc.lft.to/lastmile_qr_scan"}, "lon": -77.03647933333333, "type": "electric_scooter"}, {"bike_id": "7d3ea45ad29e8cf9b81386445851a623", "is_reserved": 0, "fusion_lon": 0.0, "lat": 38.93244166666667, "is_disabled": 0, "name": "7d3ea45ad29e8cf9b81386445851a623", "fusion_lat": 0.0, "rental_uris": {"ios": "https://dc.lft.to/lastmile_qr_scan", "android": "https://dc.lft.to/lastmile_qr_scan"}, "lon": -77.03115933333333, "type": "electric_scooter"}, {"bike_id": "ccf29b1961738b76400010655a28446e", "is_reserved": 0, "fusion_lon": 0.0, "lat": 38.893654833333336, "is_disabled": 0, "name": "ccf29b1961738b76400010655a28446e", "fusion_lat": 0.0, "rental_uris": {"ios": "https://dc.lft.to/lastmile_qr_scan", "android": "https://dc.lft.to/lastmile_qr_scan"}, "lon": -76.94965366666666, "type": "electric_scooter"}, {"bike_id": "385235a955d373150088d49474e192dc", "is_reserved": 0, "fusion_lon": 0.0, "lat": 38.9284335, "is_disabled": 0, "name": "385235a955d373150088d49474e192dc", "fusion_lat": 0.0, "rental_uris": {"ios": "https://dc.lft.to/lastmile_qr_scan", "android": "https://dc.lft.to/lastmile_qr_scan"}, "lon": -77.05424733333334, "type": "electric_scooter"}, {"bike_id": "acb65779b34ac2ec60812e7c0584af68", "is_reserved": 0, "fusion_lon": 0.0, "lat": 38.8922355, "is_disabled": 0, "name": "acb65779b34ac2ec60812e7c0584af68", "fusion_lat": 0.0, "rental_uris": {"ios": "https://dc.lft.to/lastmile_qr_scan", "android": "https://dc.lft.to/lastmile_qr_scan"}, "lon": -77.04364083333333, "type": "electric_scooter"}, {"bike_id": "f7670b8530fafe521301f4fac5e66816", "is_reserved": 0, "fusion_lon": 0.0, "lat": 38.8690355, "is_disabled": 0, "name": "f7670b8530fafe521301f4fac5e66816", "fusion_lat": 0.0, "rental_uris": {"ios": "https://dc.lft.to/lastmile_qr_scan", "android": "https://dc.lft.to/lastmile_qr_scan"}, "lon": -77.13180233333334, "type": "electric_bike"}, {"bike_id": "e10bb05841d556ab817f09ef48bc0bf7", "is_reserved": 0, "fusion_lon": 0.0, "lat": 38.91624816666667, "is_disabled": 0, "name": "e10bb05841d556ab817f09ef48bc0bf7", "fusion_lat": 0.0, "rental_uris": {"ios": "https://dc.lft.to/lastmile_qr_scan", "android": "https://dc.lft.to/lastmile_qr_scan"}, "lon": -77.0271795, "type": "electric_scooter"}, {"bike_id": "971204991d25492172af98d46a7f2f04", "is_reserved": 0, "fusion_lon": 0.0, "lat": 38.89732166666667, "is_disabled": 0, "name": "971204991d25492172af98d46a7f2f04", "fusion_lat": 0.0, "rental_uris": {"ios": "https://dc.lft.to/lastmile_qr_scan", "android": "https://dc.lft.to/lastmile_qr_scan"}, "lon": -77.05571716666667, "type": "electric_scooter"}, {"bike_id": "b7cce8082056b8fa99fbf8f93082a9ff", "is_reserved": 0, "fusion_lon": 0.0, "lat": 38.89220733333333, "is_disabled": 0, "name": "b7cce8082056b8fa99fbf8f93082a9ff", "fusion_lat": 0.0, "rental_uris": {"ios": "https://dc.lft.to/lastmile_qr_scan", "android": "https://dc.lft.to/lastmile_qr_scan"}, "lon": -77.0419255, "type": "electric_scooter"}, {"bike_id": "9597bdc0ab140c096b603617bc42d53e", "is_reserved": 0, "fusion_lon": 0.0, "lat": 38.91681483333333, "is_disabled": 0, "name": "9597bdc0ab140c096b603617bc42d53e", "fusion_lat": 0.0, "rental_uris": {"ios": "https://dc.lft.to/lastmile_qr_scan", "android": "https://dc.lft.to/lastmile_qr_scan"}, "lon": -77.0271265, "type": "electric_scooter"}, {"bike_id": "59fca6169ea2a0b47a39e4523069324f", "is_reserved": 0, "fusion_lon": 0.0, "lat": 38.907122666666666, "is_disabled": 0, "name": "59fca6169ea2a0b47a39e4523069324f", "fusion_lat": 0.0, "rental_uris": {"ios": "https://dc.lft.to/lastmile_qr_scan", "android": "https://dc.lft.to/lastmile_qr_scan"}, "lon": -77.00761516666667, "type": "electric_scooter"}, {"bike_id": "7f763768cc923799da064eacdb7ab1b0", "is_reserved": 0, "fusion_lon": 0.0, "lat": 38.899054666666665, "is_disabled": 0, "name": "7f763768cc923799da064eacdb7ab1b0", "fusion_lat": 0.0, "rental_uris": {"ios": "https://dc.lft.to/lastmile_qr_scan", "android": "https://dc.lft.to/lastmile_qr_scan"}, "lon": -76.93357916666666, "type": "electric_scooter"}, {"bike_id": "294cf8b9b55f525d2c405bcc65f19ed1", "is_reserved": 0, "fusion_lon": 0.0, "lat": 38.908655, "is_disabled": 0, "name": "294cf8b9b55f525d2c405bcc65f19ed1", "fusion_lat": 0.0, "rental_uris": {"ios": "https://dc.lft.to/lastmile_qr_scan", "android": "https://dc.lft.to/lastmile_qr_scan"}, "lon": -77.08596666666666, "type": "electric_scooter"}, {"bike_id": "daa1c6b0c984dc1e52e021d3bf545fa7", "is_reserved": 0, "fusion_lon": 0.0, "lat": 38.92043983333333, "is_disabled": 0, "name": "daa1c6b0c984dc1e52e021d3bf545fa7", "fusion_lat": 0.0, "rental_uris": {"ios": "https://dc.lft.to/lastmile_qr_scan", "android": "https://dc.lft.to/lastmile_qr_scan"}, "lon": -77.0417955, "type": "electric_scooter"}, {"bike_id": "92e876b7849480e89e309823e68a6192", "is_reserved": 0, "fusion_lon": 0.0, "lat": 38.901884333333335, "is_disabled": 0, "name": "92e876b7849480e89e309823e68a6192", "fusion_lat": 0.0, "rental_uris": {"ios": "https://dc.lft.to/lastmile_qr_scan", "android": "https://dc.lft.to/lastmile_qr_scan"}, "lon": -76.9419605, "type": "electric_scooter"}, {"bike_id": "d4628b40d64c327d8f14490573c63c52", "is_reserved": 0, "fusion_lon": 0.0, "lat": 38.893336, "is_disabled": 0, "name": "d4628b40d64c327d8f14490573c63c52", "fusion_lat": 0.0, "rental_uris": {"ios": "https://dc.lft.to/lastmile_qr_scan", "android": "https://dc.lft.to/lastmile_qr_scan"}, "lon": -76.928884, "type": "electric_scooter"}, {"bike_id": "43b023588f5c81868dcd705afaafcf34", "is_reserved": 0, "fusion_lon": 0.0, "lat": 38.917154333333336, "is_disabled": 0, "name": "43b023588f5c81868dcd705afaafcf34", "fusion_lat": 0.0, "rental_uris": {"ios": "https://dc.lft.to/lastmile_qr_scan", "android": "https://dc.lft.to/lastmile_qr_scan"}, "lon": -77.0241085, "type": "electric_scooter"}, {"bike_id": "a02944c30099e983bd5a324989567383", "is_reserved": 0, "fusion_lon": 0.0, "lat": 38.871864333333335, "is_disabled": 0, "name": "a02944c30099e983bd5a324989567383", "fusion_lat": 0.0, "rental_uris": {"ios": "https://dc.lft.to/lastmile_qr_scan", "android": "https://dc.lft.to/lastmile_qr_scan"}, "lon": -77.012243, "type": "electric_scooter"}, {"bike_id": "1ce7747ffd1f9feaa9e317e101307b8e", "is_reserved": 0, "fusion_lon": 0.0, "lat": 38.9079555, "is_disabled": 0, "name": "1ce7747ffd1f9feaa9e317e101307b8e", "fusion_lat": 0.0, "rental_uris": {"ios": "https://dc.lft.to/lastmile_qr_scan", "android": "https://dc.lft.to/lastmile_qr_scan"}, "lon": -76.9970345, "type": "electric_scooter"}, {"bike_id": "e7f927c15d51a30ffef0c84a836a26bc", "is_reserved": 0, "fusion_lon": 0.0, "lat": 38.917176833333336, "is_disabled": 0, "name": "e7f927c15d51a30ffef0c84a836a26bc", "fusion_lat": 0.0, "rental_uris": {"ios": "https://dc.lft.to/lastmile_qr_scan", "android": "https://dc.lft.to/lastmile_qr_scan"}, "lon": -77.03840516666666, "type": "electric_scooter"}, {"bike_id": "eafb3a4d98694f46f867fcbbe4ed8cab", "is_reserved": 0, "fusion_lon": 0.0, "lat": 38.941778, "is_disabled": 0, "name": "eafb3a4d98694f46f867fcbbe4ed8cab", "fusion_lat": 0.0, "rental_uris": {"ios": "https://dc.lft.to/lastmile_qr_scan", "android": "https://dc.lft.to/lastmile_qr_scan"}, "lon": -77.03094416666667, "type": "electric_scooter"}, {"bike_id": "3cb5f4867cb7ceba4f9fce64153e8dc5", "is_reserved": 0, "fusion_lon": 0.0, "lat": 38.920431, "is_disabled": 0, "name": "3cb5f4867cb7ceba4f9fce64153e8dc5", "fusion_lat": 0.0, "rental_uris": {"ios": "https://dc.lft.to/lastmile_qr_scan", "android": "https://dc.lft.to/lastmile_qr_scan"}, "lon": -77.03376066666667, "type": "electric_scooter"}, {"bike_id": "54f0060f9608e2b9d2b1ab6a69673850", "is_reserved": 0, "fusion_lon": 0.0, "lat": 38.910347333333334, "is_disabled": 0, "name": "54f0060f9608e2b9d2b1ab6a69673850", "fusion_lat": 0.0, "rental_uris": {"ios": "https://dc.lft.to/lastmile_qr_scan", "android": "https://dc.lft.to/lastmile_qr_scan"}, "lon": -77.03800633333333, "type": "electric_scooter"}, {"bike_id": "b19b821bed372d50cf66b0f08b093e9c", "is_reserved": 0, "fusion_lon": 0.0, "lat": 38.90141883333333, "is_disabled": 0, "name": "b19b821bed372d50cf66b0f08b093e9c", "fusion_lat": 0.0, "rental_uris": {"ios": "https://dc.lft.to/lastmile_qr_scan", "android": "https://dc.lft.to/lastmile_qr_scan"}, "lon": -77.04049033333334, "type": "electric_scooter"}, {"bike_id": "9291d9ea64aa0c4b04dd85ca1b351637", "is_reserved": 0, "fusion_lon": 0.0, "lat": 38.90103516666667, "is_disabled": 0, "name": "9291d9ea64aa0c4b04dd85ca1b351637", "fusion_lat": 0.0, "rental_uris": {"ios": "https://dc.lft.to/lastmile_qr_scan", "android": "https://dc.lft.to/lastmile_qr_scan"}, "lon": -77.05144433333334, "type": "electric_scooter"}, {"bike_id": "aa81b366114a4b539714a318120a73cb", "is_reserved": 0, "fusion_lon": 0.0, "lat": 38.9231855, "is_disabled": 0, "name": "aa81b366114a4b539714a318120a73cb", "fusion_lat": 0.0, "rental_uris": {"ios": "https://dc.lft.to/lastmile_qr_scan", "android": "https://dc.lft.to/lastmile_qr_scan"}, "lon": -77.03910733333333, "type": "electric_scooter"}, {"bike_id": "e961a1af10fb7792c0ee583301852ab2", "is_reserved": 0, "fusion_lon": 0.0, "lat": 38.8580565, "is_disabled": 0, "name": "e961a1af10fb7792c0ee583301852ab2", "fusion_lat": 0.0, "rental_uris": {"ios": "https://dc.lft.to/lastmile_qr_scan", "android": "https://dc.lft.to/lastmile_qr_scan"}, "lon": -76.98660116666667, "type": "electric_scooter"}, {"bike_id": "030bab74f14806c39650a928c8908064", "is_reserved": 0, "fusion_lon": 0.0, "lat": 38.903400833333336, "is_disabled": 0, "name": "030bab74f14806c39650a928c8908064", "fusion_lat": 0.0, "rental_uris": {"ios": "https://dc.lft.to/lastmile_qr_scan", "android": "https://dc.lft.to/lastmile_qr_scan"}, "lon": -77.04337283333334, "type": "electric_scooter"}, {"bike_id": "34e28f5bd6f9469629e143a6d8eae965", "is_reserved": 0, "fusion_lon": 0.0, "lat": 38.87526033333333, "is_disabled": 0, "name": "34e28f5bd6f9469629e143a6d8eae965", "fusion_lat": 0.0, "rental_uris": {"ios": "https://dc.lft.to/lastmile_qr_scan", "android": "https://dc.lft.to/lastmile_qr_scan"}, "lon": -77.00069583333334, "type": "electric_scooter"}, {"bike_id": "9edcdd2f9f82bd39a3927e363648db54", "is_reserved": 0, "fusion_lon": 0.0, "lat": 38.88533133333333, "is_disabled": 0, "name": "9edcdd2f9f82bd39a3927e363648db54", "fusion_lat": 0.0, "rental_uris": {"ios": "https://dc.lft.to/lastmile_qr_scan", "android": "https://dc.lft.to/lastmile_qr_scan"}, "lon": -76.9983115, "type": "electric_scooter"}, {"bike_id": "9be40295c7f018c2361c133816a3c978", "is_reserved": 0, "fusion_lon": 0.0, "lat": 38.921192166666664, "is_disabled": 0, "name": "9be40295c7f018c2361c133816a3c978", "fusion_lat": 0.0, "rental_uris": {"ios": "https://dc.lft.to/lastmile_qr_scan", "android": "https://dc.lft.to/lastmile_qr_scan"}, "lon": -77.0458965, "type": "electric_scooter"}, {"bike_id": "07d8a57996d24f201e7c0d0c1e9f4394", "is_reserved": 0, "fusion_lon": 0.0, "lat": 38.9028105, "is_disabled": 0, "name": "07d8a57996d24f201e7c0d0c1e9f4394", "fusion_lat": 0.0, "rental_uris": {"ios": "https://dc.lft.to/lastmile_qr_scan", "android": "https://dc.lft.to/lastmile_qr_scan"}, "lon": -77.01826383333334, "type": "electric_scooter"}, {"bike_id": "58e34409322fc71fb06eef775c611ca4", "is_reserved": 0, "fusion_lon": 0.0, "lat": 38.844212166666665, "is_disabled": 0, "name": "58e34409322fc71fb06eef775c611ca4", "fusion_lat": 0.0, "rental_uris": {"ios": "https://dc.lft.to/lastmile_qr_scan", "android": "https://dc.lft.to/lastmile_qr_scan"}, "lon": -76.99778733333333, "type": "electric_scooter"}, {"bike_id": "b9fef47a2f465a764687ff1eba735059", "is_reserved": 0, "fusion_lon": 0.0, "lat": 38.86918, "is_disabled": 0, "name": "b9fef47a2f465a764687ff1eba735059", "fusion_lat": 0.0, "rental_uris": {"ios": "https://dc.lft.to/lastmile_qr_scan", "android": "https://dc.lft.to/lastmile_qr_scan"}, "lon": -76.9830295, "type": "electric_scooter"}, {"bike_id": "d3fdfc974c94c41937d187117886c412", "is_reserved": 0, "fusion_lon": 0.0, "lat": 38.90360166666667, "is_disabled": 0, "name": "d3fdfc974c94c41937d187117886c412", "fusion_lat": 0.0, "rental_uris": {"ios": "https://dc.lft.to/lastmile_qr_scan", "android": "https://dc.lft.to/lastmile_qr_scan"}, "lon": -77.0301345, "type": "electric_scooter"}, {"bike_id": "5374956eab594f7d0489570ee0a8465c", "is_reserved": 0, "fusion_lon": 0.0, "lat": 38.88504533333333, "is_disabled": 0, "name": "5374956eab594f7d0489570ee0a8465c", "fusion_lat": 0.0, "rental_uris": {"ios": "https://dc.lft.to/lastmile_qr_scan", "android": "https://dc.lft.to/lastmile_qr_scan"}, "lon": -77.005703, "type": "electric_scooter"}, {"bike_id": "768dab74f484c723f4477b8baca1647f", "is_reserved": 0, "fusion_lon": 0.0, "lat": 38.91171933333333, "is_disabled": 0, "name": "768dab74f484c723f4477b8baca1647f", "fusion_lat": 0.0, "rental_uris": {"ios": "https://dc.lft.to/lastmile_qr_scan", "android": "https://dc.lft.to/lastmile_qr_scan"}, "lon": -77.0682815, "type": "electric_scooter"}, {"bike_id": "e92a7593df3015211f00107286b77804", "is_reserved": 0, "fusion_lon": 0.0, "lat": 38.98651866666667, "is_disabled": 0, "name": "e92a7593df3015211f00107286b77804", "fusion_lat": 0.0, "rental_uris": {"ios": "https://dc.lft.to/lastmile_qr_scan", "android": "https://dc.lft.to/lastmile_qr_scan"}, "lon": -77.05611916666666, "type": "electric_bike"}, {"bike_id": "29caa2736d7d36426b959dc39df81b3d", "is_reserved": 0, "fusion_lon": 0.0, "lat": 38.93103416666667, "is_disabled": 0, "name": "29caa2736d7d36426b959dc39df81b3d", "fusion_lat": 0.0, "rental_uris": {"ios": "https://dc.lft.to/lastmile_qr_scan", "android": "https://dc.lft.to/lastmile_qr_scan"}, "lon": -77.01856833333333, "type": "electric_scooter"}, {"bike_id": "6b6d1942fcc4cdd2b30d210b1560b092", "is_reserved": 0, "fusion_lon": 0.0, "lat": 38.887684666666665, "is_disabled": 0, "name": "6b6d1942fcc4cdd2b30d210b1560b092", "fusion_lat": 0.0, "rental_uris": {"ios": "https://dc.lft.to/lastmile_qr_scan", "android": "https://dc.lft.to/lastmile_qr_scan"}, "lon": -77.022307, "type": "electric_scooter"}, {"bike_id": "65d15e9b7278d70afdf415ebef9b98d8", "is_reserved": 0, "fusion_lon": 0.0, "lat": 38.88430116666667, "is_disabled": 0, "name": "65d15e9b7278d70afdf415ebef9b98d8", "fusion_lat": 0.0, "rental_uris": {"ios": "https://dc.lft.to/lastmile_qr_scan", "android": "https://dc.lft.to/lastmile_qr_scan"}, "lon": -76.95759783333334, "type": "electric_scooter"}, {"bike_id": "07c640cd876ede750e35d40f92db37f0", "is_reserved": 0, "fusion_lon": 0.0, "lat": 38.92188816666667, "is_disabled": 0, "name": "07c640cd876ede750e35d40f92db37f0", "fusion_lat": 0.0, "rental_uris": {"ios": "https://dc.lft.to/lastmile_qr_scan", "android": "https://dc.lft.to/lastmile_qr_scan"}, "lon": -77.0240895, "type": "electric_scooter"}, {"bike_id": "458043f5926fee0db0a89ace96c92b4b", "is_reserved": 0, "fusion_lon": 0.0, "lat": 38.90062866666667, "is_disabled": 0, "name": "458043f5926fee0db0a89ace96c92b4b", "fusion_lat": 0.0, "rental_uris": {"ios": "https://dc.lft.to/lastmile_qr_scan", "android": "https://dc.lft.to/lastmile_qr_scan"}, "lon": -76.933862, "type": "electric_scooter"}, {"bike_id": "9f88f4e9643d285d215cfc88bbe39dae", "is_reserved": 0, "fusion_lon": 0.0, "lat": 38.909688833333334, "is_disabled": 0, "name": "9f88f4e9643d285d215cfc88bbe39dae", "fusion_lat": 0.0, "rental_uris": {"ios": "https://dc.lft.to/lastmile_qr_scan", "android": "https://dc.lft.to/lastmile_qr_scan"}, "lon": -77.032717, "type": "electric_scooter"}, {"bike_id": "e74c53b84fdbbefefe116559b71ad43a", "is_reserved": 0, "fusion_lon": 0.0, "lat": 38.922893, "is_disabled": 0, "name": "e74c53b84fdbbefefe116559b71ad43a", "fusion_lat": 0.0, "rental_uris": {"ios": "https://dc.lft.to/lastmile_qr_scan", "android": "https://dc.lft.to/lastmile_qr_scan"}, "lon": -77.02082083333333, "type": "electric_scooter"}, {"bike_id": "3ba3d00c668563f2147dfe9fd78bd7fa", "is_reserved": 0, "fusion_lon": 0.0, "lat": 38.99073533333333, "is_disabled": 0, "name": "3ba3d00c668563f2147dfe9fd78bd7fa", "fusion_lat": 0.0, "rental_uris": {"ios": "https://dc.lft.to/lastmile_qr_scan", "android": "https://dc.lft.to/lastmile_qr_scan"}, "lon": -76.87471333333333, "type": "electric_bike"}, {"bike_id": "5ef3ffddd072cb02a7726e7d085b59a6", "is_reserved": 0, "fusion_lon": 0.0, "lat": 38.919360833333336, "is_disabled": 0, "name": "5ef3ffddd072cb02a7726e7d085b59a6", "fusion_lat": 0.0, "rental_uris": {"ios": "https://dc.lft.to/lastmile_qr_scan", "android": "https://dc.lft.to/lastmile_qr_scan"}, "lon": -77.08133816666667, "type": "electric_scooter"}, {"bike_id": "aeb0c20788b38f0860cf3c6d25334e5c", "is_reserved": 0, "fusion_lon": 0.0, "lat": 38.866976, "is_disabled": 0, "name": "aeb0c20788b38f0860cf3c6d25334e5c", "fusion_lat": 0.0, "rental_uris": {"ios": "https://dc.lft.to/lastmile_qr_scan", "android": "https://dc.lft.to/lastmile_qr_scan"}, "lon": -76.987119, "type": "electric_scooter"}, {"bike_id": "cf6118953a0e25c56804e7fa8b46fc9a", "is_reserved": 0, "fusion_lon": 0.0, "lat": 38.9181005, "is_disabled": 0, "name": "cf6118953a0e25c56804e7fa8b46fc9a", "fusion_lat": 0.0, "rental_uris": {"ios": "https://dc.lft.to/lastmile_qr_scan", "android": "https://dc.lft.to/lastmile_qr_scan"}, "lon": -77.02480183333333, "type": "electric_scooter"}, {"bike_id": "6158b43f723641563dd0f25df4faf337", "is_reserved": 0, "fusion_lon": 0.0, "lat": 38.92299466666667, "is_disabled": 0, "name": "6158b43f723641563dd0f25df4faf337", "fusion_lat": 0.0, "rental_uris": {"ios": "https://dc.lft.to/lastmile_qr_scan", "android": "https://dc.lft.to/lastmile_qr_scan"}, "lon": -77.0423925, "type": "electric_scooter"}, {"bike_id": "54dbf5b6d48afa633685a6f0850f38a9", "is_reserved": 0, "fusion_lon": 0.0, "lat": 38.89898433333333, "is_disabled": 0, "name": "54dbf5b6d48afa633685a6f0850f38a9", "fusion_lat": 0.0, "rental_uris": {"ios": "https://dc.lft.to/lastmile_qr_scan", "android": "https://dc.lft.to/lastmile_qr_scan"}, "lon": -77.0036985, "type": "electric_scooter"}, {"bike_id": "f4211880b5485090051ffa27b8f89695", "is_reserved": 0, "fusion_lon": 0.0, "lat": 38.9614535, "is_disabled": 0, "name": "f4211880b5485090051ffa27b8f89695", "fusion_lat": 0.0, "rental_uris": {"ios": "https://dc.lft.to/lastmile_qr_scan", "android": "https://dc.lft.to/lastmile_qr_scan"}, "lon": -76.99775083333333, "type": "electric_scooter"}, {"bike_id": "0d927e67c17656260a48e6f8c883626a", "is_reserved": 0, "fusion_lon": 0.0, "lat": 38.93396166666667, "is_disabled": 0, "name": "0d927e67c17656260a48e6f8c883626a", "fusion_lat": 0.0, "rental_uris": {"ios": "https://dc.lft.to/lastmile_qr_scan", "android": "https://dc.lft.to/lastmile_qr_scan"}, "lon": -77.02062566666666, "type": "electric_scooter"}, {"bike_id": "a317cc945ffb7d43c0c5e7e141b7d62f", "is_reserved": 0, "fusion_lon": 0.0, "lat": 38.922210666666665, "is_disabled": 0, "name": "a317cc945ffb7d43c0c5e7e141b7d62f", "fusion_lat": 0.0, "rental_uris": {"ios": "https://dc.lft.to/lastmile_qr_scan", "android": "https://dc.lft.to/lastmile_qr_scan"}, "lon": -77.04311016666666, "type": "electric_scooter"}, {"bike_id": "361b9a11e69112055bab3dd2d0160baa", "is_reserved": 0, "fusion_lon": 0.0, "lat": 38.94044533333334, "is_disabled": 0, "name": "361b9a11e69112055bab3dd2d0160baa", "fusion_lat": 0.0, "rental_uris": {"ios": "https://dc.lft.to/lastmile_qr_scan", "android": "https://dc.lft.to/lastmile_qr_scan"}, "lon": -77.029856, "type": "electric_scooter"}, {"bike_id": "46ef24c3fc45db433530dc245a84478e", "is_reserved": 0, "fusion_lon": 0.0, "lat": 38.9823905, "is_disabled": 0, "name": "46ef24c3fc45db433530dc245a84478e", "fusion_lat": 0.0, "rental_uris": {"ios": "https://dc.lft.to/lastmile_qr_scan", "android": "https://dc.lft.to/lastmile_qr_scan"}, "lon": -77.092178, "type": "electric_bike"}, {"bike_id": "a24c1534b7f4dce856b5743cdc64e67d", "is_reserved": 0, "fusion_lon": 0.0, "lat": 38.92257, "is_disabled": 0, "name": "a24c1534b7f4dce856b5743cdc64e67d", "fusion_lat": 0.0, "rental_uris": {"ios": "https://dc.lft.to/lastmile_qr_scan", "android": "https://dc.lft.to/lastmile_qr_scan"}, "lon": -77.04138216666666, "type": "electric_scooter"}, {"bike_id": "44ca52cf98341a75728ea48d1e77d718", "is_reserved": 0, "fusion_lon": 0.0, "lat": 38.908515666666666, "is_disabled": 0, "name": "44ca52cf98341a75728ea48d1e77d718", "fusion_lat": 0.0, "rental_uris": {"ios": "https://dc.lft.to/lastmile_qr_scan", "android": "https://dc.lft.to/lastmile_qr_scan"}, "lon": -77.04463883333334, "type": "electric_scooter"}, {"bike_id": "5d142ef88b7e24fcbb0b54569e2d345b", "is_reserved": 0, "fusion_lon": 0.0, "lat": 38.87088216666667, "is_disabled": 0, "name": "5d142ef88b7e24fcbb0b54569e2d345b", "fusion_lat": 0.0, "rental_uris": {"ios": "https://dc.lft.to/lastmile_qr_scan", "android": "https://dc.lft.to/lastmile_qr_scan"}, "lon": -77.0120895, "type": "electric_scooter"}, {"bike_id": "574b4b8311cf7e0ba910ea994e4f1c16", "is_reserved": 0, "fusion_lon": 0.0, "lat": 38.91475033333333, "is_disabled": 0, "name": "574b4b8311cf7e0ba910ea994e4f1c16", "fusion_lat": 0.0, "rental_uris": {"ios": "https://dc.lft.to/lastmile_qr_scan", "android": "https://dc.lft.to/lastmile_qr_scan"}, "lon": -77.00949266666667, "type": "electric_scooter"}, {"bike_id": "1f6a0bb98a70c6688883e18cb5d03c2a", "is_reserved": 0, "fusion_lon": 0.0, "lat": 38.93715383333333, "is_disabled": 0, "name": "1f6a0bb98a70c6688883e18cb5d03c2a", "fusion_lat": 0.0, "rental_uris": {"ios": "https://dc.lft.to/lastmile_qr_scan", "android": "https://dc.lft.to/lastmile_qr_scan"}, "lon": -77.02477166666667, "type": "electric_scooter"}, {"bike_id": "9ad5dc23d019594fdbd6fdf15132fe6b", "is_reserved": 0, "fusion_lon": 0.0, "lat": 38.89595466666667, "is_disabled": 0, "name": "9ad5dc23d019594fdbd6fdf15132fe6b", "fusion_lat": 0.0, "rental_uris": {"ios": "https://dc.lft.to/lastmile_qr_scan", "android": "https://dc.lft.to/lastmile_qr_scan"}, "lon": -77.042328, "type": "electric_scooter"}, {"bike_id": "f2a9a2660c2d81c804cf921a4d75fd76", "is_reserved": 0, "fusion_lon": 0.0, "lat": 38.91454916666667, "is_disabled": 0, "name": "f2a9a2660c2d81c804cf921a4d75fd76", "fusion_lat": 0.0, "rental_uris": {"ios": "https://dc.lft.to/lastmile_qr_scan", "android": "https://dc.lft.to/lastmile_qr_scan"}, "lon": -77.04636316666667, "type": "electric_scooter"}, {"bike_id": "c501d5ec0d2ce54137214d2095d3fb0e", "is_reserved": 0, "fusion_lon": 0.0, "lat": 38.902225, "is_disabled": 0, "name": "c501d5ec0d2ce54137214d2095d3fb0e", "fusion_lat": 0.0, "rental_uris": {"ios": "https://dc.lft.to/lastmile_qr_scan", "android": "https://dc.lft.to/lastmile_qr_scan"}, "lon": -77.046445, "type": "electric_scooter"}, {"bike_id": "016d15015079e3df9b089d7a2096bee6", "is_reserved": 0, "fusion_lon": 0.0, "lat": 38.930649833333334, "is_disabled": 0, "name": "016d15015079e3df9b089d7a2096bee6", "fusion_lat": 0.0, "rental_uris": {"ios": "https://dc.lft.to/lastmile_qr_scan", "android": "https://dc.lft.to/lastmile_qr_scan"}, "lon": -77.03186566666666, "type": "electric_scooter"}, {"bike_id": "17065261ce49b58d11c9b9b51c79d4a7", "is_reserved": 0, "fusion_lon": 0.0, "lat": 38.85054683333333, "is_disabled": 0, "name": "17065261ce49b58d11c9b9b51c79d4a7", "fusion_lat": 0.0, "rental_uris": {"ios": "https://dc.lft.to/lastmile_qr_scan", "android": "https://dc.lft.to/lastmile_qr_scan"}, "lon": -76.97331116666666, "type": "electric_bike"}, {"bike_id": "af472bd4809d921dbe8fbadf18f9d07d", "is_reserved": 0, "fusion_lon": 0.0, "lat": 38.94019216666667, "is_disabled": 0, "name": "af472bd4809d921dbe8fbadf18f9d07d", "fusion_lat": 0.0, "rental_uris": {"ios": "https://dc.lft.to/lastmile_qr_scan", "android": "https://dc.lft.to/lastmile_qr_scan"}, "lon": -77.0717745, "type": "electric_scooter"}, {"bike_id": "3c435f898e22f6e010183c6d38e859c9", "is_reserved": 0, "fusion_lon": 0.0, "lat": 38.892313, "is_disabled": 0, "name": "3c435f898e22f6e010183c6d38e859c9", "fusion_lat": 0.0, "rental_uris": {"ios": "https://dc.lft.to/lastmile_qr_scan", "android": "https://dc.lft.to/lastmile_qr_scan"}, "lon": -77.02389133333334, "type": "electric_scooter"}, {"bike_id": "4932d5e4a1028f37db9ca5232397263a", "is_reserved": 0, "fusion_lon": 0.0, "lat": 38.9288765, "is_disabled": 0, "name": "4932d5e4a1028f37db9ca5232397263a", "fusion_lat": 0.0, "rental_uris": {"ios": "https://dc.lft.to/lastmile_qr_scan", "android": "https://dc.lft.to/lastmile_qr_scan"}, "lon": -77.03310233333333, "type": "electric_scooter"}, {"bike_id": "69dc18a04ae4c481d527a83f3105645b", "is_reserved": 0, "fusion_lon": 0.0, "lat": 38.848175833333336, "is_disabled": 0, "name": "69dc18a04ae4c481d527a83f3105645b", "fusion_lat": 0.0, "rental_uris": {"ios": "https://dc.lft.to/lastmile_qr_scan", "android": "https://dc.lft.to/lastmile_qr_scan"}, "lon": -76.97843283333333, "type": "electric_bike"}, {"bike_id": "52fed1a750ce73510e819e63278a1fa5", "is_reserved": 0, "fusion_lon": 0.0, "lat": 38.9027805, "is_disabled": 0, "name": "52fed1a750ce73510e819e63278a1fa5", "fusion_lat": 0.0, "rental_uris": {"ios": "https://dc.lft.to/lastmile_qr_scan", "android": "https://dc.lft.to/lastmile_qr_scan"}, "lon": -77.0395515, "type": "electric_scooter"}, {"bike_id": "e27a089f58d260913ea72dcaf46e5057", "is_reserved": 0, "fusion_lon": 0.0, "lat": 38.92066066666667, "is_disabled": 0, "name": "e27a089f58d260913ea72dcaf46e5057", "fusion_lat": 0.0, "rental_uris": {"ios": "https://dc.lft.to/lastmile_qr_scan", "android": "https://dc.lft.to/lastmile_qr_scan"}, "lon": -77.04380533333334, "type": "electric_scooter"}, {"bike_id": "930aed7f7620c83653e306bb248103f9", "is_reserved": 0, "fusion_lon": 0.0, "lat": 38.910974, "is_disabled": 0, "name": "930aed7f7620c83653e306bb248103f9", "fusion_lat": 0.0, "rental_uris": {"ios": "https://dc.lft.to/lastmile_qr_scan", "android": "https://dc.lft.to/lastmile_qr_scan"}, "lon": -76.99729216666667, "type": "electric_scooter"}, {"bike_id": "fd490e4dcc5478682bff3e1a9f2e164e", "is_reserved": 0, "fusion_lon": 0.0, "lat": 38.820477, "is_disabled": 0, "name": "fd490e4dcc5478682bff3e1a9f2e164e", "fusion_lat": 0.0, "rental_uris": {"ios": "https://dc.lft.to/lastmile_qr_scan", "android": "https://dc.lft.to/lastmile_qr_scan"}, "lon": -77.05318616666666, "type": "electric_bike"}, {"bike_id": "b054cbf8fb5e9321edd859e97193151b", "is_reserved": 0, "fusion_lon": 0.0, "lat": 38.950715833333334, "is_disabled": 0, "name": "b054cbf8fb5e9321edd859e97193151b", "fusion_lat": 0.0, "rental_uris": {"ios": "https://dc.lft.to/lastmile_qr_scan", "android": "https://dc.lft.to/lastmile_qr_scan"}, "lon": -77.01202783333333, "type": "electric_bike"}, {"bike_id": "4e6ea3a8aac85845e6e21bd390e2421d", "is_reserved": 0, "fusion_lon": 0.0, "lat": 38.91712616666667, "is_disabled": 0, "name": "4e6ea3a8aac85845e6e21bd390e2421d", "fusion_lat": 0.0, "rental_uris": {"ios": "https://dc.lft.to/lastmile_qr_scan", "android": "https://dc.lft.to/lastmile_qr_scan"}, "lon": -77.0241095, "type": "electric_scooter"}, {"bike_id": "a3fc5eec39b02ff0e6cd1e26a5d9994d", "is_reserved": 0, "fusion_lon": 0.0, "lat": 38.914038833333336, "is_disabled": 0, "name": "a3fc5eec39b02ff0e6cd1e26a5d9994d", "fusion_lat": 0.0, "rental_uris": {"ios": "https://dc.lft.to/lastmile_qr_scan", "android": "https://dc.lft.to/lastmile_qr_scan"}, "lon": -77.03155766666667, "type": "electric_scooter"}, {"bike_id": "32764c73f6bcdfa25cbac8c67d3c3d2a", "is_reserved": 0, "fusion_lon": 0.0, "lat": 38.919828, "is_disabled": 0, "name": "32764c73f6bcdfa25cbac8c67d3c3d2a", "fusion_lat": 0.0, "rental_uris": {"ios": "https://dc.lft.to/lastmile_qr_scan", "android": "https://dc.lft.to/lastmile_qr_scan"}, "lon": -77.041724, "type": "electric_scooter"}, {"bike_id": "e6188cd506b53b348cebbcf73522533d", "is_reserved": 0, "fusion_lon": 0.0, "lat": 38.91987016666667, "is_disabled": 0, "name": "e6188cd506b53b348cebbcf73522533d", "fusion_lat": 0.0, "rental_uris": {"ios": "https://dc.lft.to/lastmile_qr_scan", "android": "https://dc.lft.to/lastmile_qr_scan"}, "lon": -76.97308183333334, "type": "electric_scooter"}, {"bike_id": "308a64f5140073750d333039a5a4a0e6", "is_reserved": 0, "fusion_lon": 0.0, "lat": 38.86052016666667, "is_disabled": 0, "name": "308a64f5140073750d333039a5a4a0e6", "fusion_lat": 0.0, "rental_uris": {"ios": "https://dc.lft.to/lastmile_qr_scan", "android": "https://dc.lft.to/lastmile_qr_scan"}, "lon": -77.056454, "type": "electric_bike"}, {"bike_id": "e1da879c9d15601da62f9077b25efedd", "is_reserved": 0, "fusion_lon": 0.0, "lat": 38.88637833333333, "is_disabled": 0, "name": "e1da879c9d15601da62f9077b25efedd", "fusion_lat": 0.0, "rental_uris": {"ios": "https://dc.lft.to/lastmile_qr_scan", "android": "https://dc.lft.to/lastmile_qr_scan"}, "lon": -77.0214285, "type": "electric_scooter"}, {"bike_id": "c3d66b18f376b417ab694b27aa0fb9bb", "is_reserved": 0, "fusion_lon": 0.0, "lat": 38.9167705, "is_disabled": 0, "name": "c3d66b18f376b417ab694b27aa0fb9bb", "fusion_lat": 0.0, "rental_uris": {"ios": "https://dc.lft.to/lastmile_qr_scan", "android": "https://dc.lft.to/lastmile_qr_scan"}, "lon": -77.0321185, "type": "electric_scooter"}, {"bike_id": "61b07db91f36962390f48dc5b0d13289", "is_reserved": 0, "fusion_lon": 0.0, "lat": 38.880046166666666, "is_disabled": 0, "name": "61b07db91f36962390f48dc5b0d13289", "fusion_lat": 0.0, "rental_uris": {"ios": "https://dc.lft.to/lastmile_qr_scan", "android": "https://dc.lft.to/lastmile_qr_scan"}, "lon": -76.915961, "type": "electric_bike"}, {"bike_id": "074e515bde7bea1088dad3f9801b89d5", "is_reserved": 0, "fusion_lon": 0.0, "lat": 38.90283133333333, "is_disabled": 0, "name": "074e515bde7bea1088dad3f9801b89d5", "fusion_lat": 0.0, "rental_uris": {"ios": "https://dc.lft.to/lastmile_qr_scan", "android": "https://dc.lft.to/lastmile_qr_scan"}, "lon": -77.036598, "type": "electric_scooter"}, {"bike_id": "b6cfa166d04b926ec931706a5c650ee1", "is_reserved": 0, "fusion_lon": 0.0, "lat": 38.95874516666667, "is_disabled": 0, "name": "b6cfa166d04b926ec931706a5c650ee1", "fusion_lat": 0.0, "rental_uris": {"ios": "https://dc.lft.to/lastmile_qr_scan", "android": "https://dc.lft.to/lastmile_qr_scan"}, "lon": -76.97045266666666, "type": "electric_bike"}, {"bike_id": "02bb71142960c9828af79739e78548bb", "is_reserved": 0, "fusion_lon": 0.0, "lat": 38.9089325, "is_disabled": 0, "name": "02bb71142960c9828af79739e78548bb", "fusion_lat": 0.0, "rental_uris": {"ios": "https://dc.lft.to/lastmile_qr_scan", "android": "https://dc.lft.to/lastmile_qr_scan"}, "lon": -77.08629816666667, "type": "electric_scooter"}, {"bike_id": "9df1d7b60dd4e3a9a58c81bc13f3daa3", "is_reserved": 0, "fusion_lon": 0.0, "lat": 38.906609333333336, "is_disabled": 0, "name": "9df1d7b60dd4e3a9a58c81bc13f3daa3", "fusion_lat": 0.0, "rental_uris": {"ios": "https://dc.lft.to/lastmile_qr_scan", "android": "https://dc.lft.to/lastmile_qr_scan"}, "lon": -77.04494866666667, "type": "electric_scooter"}, {"bike_id": "6f96681feedd7c624414e6944b71bf11", "is_reserved": 0, "fusion_lon": 0.0, "lat": 38.8973465, "is_disabled": 0, "name": "6f96681feedd7c624414e6944b71bf11", "fusion_lat": 0.0, "rental_uris": {"ios": "https://dc.lft.to/lastmile_qr_scan", "android": "https://dc.lft.to/lastmile_qr_scan"}, "lon": -77.00747916666667, "type": "electric_scooter"}, {"bike_id": "585154474abf03561b62de66313d4d62", "is_reserved": 0, "fusion_lon": 0.0, "lat": 38.892365833333336, "is_disabled": 0, "name": "585154474abf03561b62de66313d4d62", "fusion_lat": 0.0, "rental_uris": {"ios": "https://dc.lft.to/lastmile_qr_scan", "android": "https://dc.lft.to/lastmile_qr_scan"}, "lon": -77.0321965, "type": "electric_scooter"}, {"bike_id": "ab5e720b243301ed74114e9a0582d5e2", "is_reserved": 0, "fusion_lon": 0.0, "lat": 38.92653966666666, "is_disabled": 0, "name": "ab5e720b243301ed74114e9a0582d5e2", "fusion_lat": 0.0, "rental_uris": {"ios": "https://dc.lft.to/lastmile_qr_scan", "android": "https://dc.lft.to/lastmile_qr_scan"}, "lon": -77.01520383333333, "type": "electric_scooter"}, {"bike_id": "c27054beb85c1a083259b7b42cdc84b8", "is_reserved": 0, "fusion_lon": 0.0, "lat": 38.9065885, "is_disabled": 0, "name": "c27054beb85c1a083259b7b42cdc84b8", "fusion_lat": 0.0, "rental_uris": {"ios": "https://dc.lft.to/lastmile_qr_scan", "android": "https://dc.lft.to/lastmile_qr_scan"}, "lon": -77.04490083333333, "type": "electric_scooter"}, {"bike_id": "7944ac87e9c04b3c83025be43bc7d917", "is_reserved": 0, "fusion_lon": 0.0, "lat": 38.919132833333336, "is_disabled": 0, "name": "7944ac87e9c04b3c83025be43bc7d917", "fusion_lat": 0.0, "rental_uris": {"ios": "https://dc.lft.to/lastmile_qr_scan", "android": "https://dc.lft.to/lastmile_qr_scan"}, "lon": -77.02623166666666, "type": "electric_scooter"}, {"bike_id": "91515dc2095a1997791adeee3a87956a", "is_reserved": 0, "fusion_lon": 0.0, "lat": 38.922616833333336, "is_disabled": 0, "name": "91515dc2095a1997791adeee3a87956a", "fusion_lat": 0.0, "rental_uris": {"ios": "https://dc.lft.to/lastmile_qr_scan", "android": "https://dc.lft.to/lastmile_qr_scan"}, "lon": -77.01883133333334, "type": "electric_scooter"}, {"bike_id": "b7b14ec5d876b818f75aa516d55a1729", "is_reserved": 0, "fusion_lon": 0.0, "lat": 38.917677166666664, "is_disabled": 0, "name": "b7b14ec5d876b818f75aa516d55a1729", "fusion_lat": 0.0, "rental_uris": {"ios": "https://dc.lft.to/lastmile_qr_scan", "android": "https://dc.lft.to/lastmile_qr_scan"}, "lon": -77.04183, "type": "electric_scooter"}, {"bike_id": "e445a332420b8a4b833754c35547bee0", "is_reserved": 0, "fusion_lon": 0.0, "lat": 38.824451833333335, "is_disabled": 0, "name": "e445a332420b8a4b833754c35547bee0", "fusion_lat": 0.0, "rental_uris": {"ios": "https://dc.lft.to/lastmile_qr_scan", "android": "https://dc.lft.to/lastmile_qr_scan"}, "lon": -77.07049866666667, "type": "electric_bike"}, {"bike_id": "702c140a88ee8504d05ec4278f9c77ea", "is_reserved": 0, "fusion_lon": 0.0, "lat": 38.91206316666667, "is_disabled": 0, "name": "702c140a88ee8504d05ec4278f9c77ea", "fusion_lat": 0.0, "rental_uris": {"ios": "https://dc.lft.to/lastmile_qr_scan", "android": "https://dc.lft.to/lastmile_qr_scan"}, "lon": -77.04894866666666, "type": "electric_scooter"}, {"bike_id": "6daac8b719e4218a15621a2948b620e2", "is_reserved": 0, "fusion_lon": 0.0, "lat": 38.903591666666664, "is_disabled": 0, "name": "6daac8b719e4218a15621a2948b620e2", "fusion_lat": 0.0, "rental_uris": {"ios": "https://dc.lft.to/lastmile_qr_scan", "android": "https://dc.lft.to/lastmile_qr_scan"}, "lon": -77.02966933333333, "type": "electric_scooter"}, {"bike_id": "9c67dee4f5f422358be015c5ce26d8a9", "is_reserved": 0, "fusion_lon": 0.0, "lat": 38.89826083333333, "is_disabled": 0, "name": "9c67dee4f5f422358be015c5ce26d8a9", "fusion_lat": 0.0, "rental_uris": {"ios": "https://dc.lft.to/lastmile_qr_scan", "android": "https://dc.lft.to/lastmile_qr_scan"}, "lon": -76.9465245, "type": "electric_scooter"}, {"bike_id": "791f8ae02c66e12c55daa112da682998", "is_reserved": 0, "fusion_lon": 0.0, "lat": 38.881309333333334, "is_disabled": 0, "name": "791f8ae02c66e12c55daa112da682998", "fusion_lat": 0.0, "rental_uris": {"ios": "https://dc.lft.to/lastmile_qr_scan", "android": "https://dc.lft.to/lastmile_qr_scan"}, "lon": -76.9809795, "type": "electric_bike"}, {"bike_id": "456d055466a2e0cd501cf692eb910645", "is_reserved": 0, "fusion_lon": 0.0, "lat": 38.90786083333333, "is_disabled": 0, "name": "456d055466a2e0cd501cf692eb910645", "fusion_lat": 0.0, "rental_uris": {"ios": "https://dc.lft.to/lastmile_qr_scan", "android": "https://dc.lft.to/lastmile_qr_scan"}, "lon": -77.0320785, "type": "electric_scooter"}, {"bike_id": "cd4adbae6a8ce9e0a3c1e26a7c92f7c3", "is_reserved": 0, "fusion_lon": 0.0, "lat": 38.90877233333333, "is_disabled": 0, "name": "cd4adbae6a8ce9e0a3c1e26a7c92f7c3", "fusion_lat": 0.0, "rental_uris": {"ios": "https://dc.lft.to/lastmile_qr_scan", "android": "https://dc.lft.to/lastmile_qr_scan"}, "lon": -77.04343, "type": "electric_scooter"}, {"bike_id": "1273e9183ef2c346bfe1095630a4fc1a", "is_reserved": 0, "fusion_lon": 0.0, "lat": 38.907853833333334, "is_disabled": 0, "name": "1273e9183ef2c346bfe1095630a4fc1a", "fusion_lat": 0.0, "rental_uris": {"ios": "https://dc.lft.to/lastmile_qr_scan", "android": "https://dc.lft.to/lastmile_qr_scan"}, "lon": -77.0111135, "type": "electric_scooter"}, {"bike_id": "ac9487400837698dcad2ec9fc87503e1", "is_reserved": 0, "fusion_lon": 0.0, "lat": 38.8397935, "is_disabled": 0, "name": "ac9487400837698dcad2ec9fc87503e1", "fusion_lat": 0.0, "rental_uris": {"ios": "https://dc.lft.to/lastmile_qr_scan", "android": "https://dc.lft.to/lastmile_qr_scan"}, "lon": -77.00573316666667, "type": "electric_bike"}, {"bike_id": "8a0ee22051a0202922d5be906ff1011f", "is_reserved": 0, "fusion_lon": 0.0, "lat": 38.90056833333333, "is_disabled": 0, "name": "8a0ee22051a0202922d5be906ff1011f", "fusion_lat": 0.0, "rental_uris": {"ios": "https://dc.lft.to/lastmile_qr_scan", "android": "https://dc.lft.to/lastmile_qr_scan"}, "lon": -77.05082033333333, "type": "electric_scooter"}, {"bike_id": "6bcf510886bb7d4a33d129e4a4a71cf8", "is_reserved": 0, "fusion_lon": 0.0, "lat": 38.90010683333333, "is_disabled": 0, "name": "6bcf510886bb7d4a33d129e4a4a71cf8", "fusion_lat": 0.0, "rental_uris": {"ios": "https://dc.lft.to/lastmile_qr_scan", "android": "https://dc.lft.to/lastmile_qr_scan"}, "lon": -77.05245483333333, "type": "electric_scooter"}, {"bike_id": "fe8ded3600d926c38a11c5285b278355", "is_reserved": 0, "fusion_lon": 0.0, "lat": 38.86656033333333, "is_disabled": 0, "name": "fe8ded3600d926c38a11c5285b278355", "fusion_lat": 0.0, "rental_uris": {"ios": "https://dc.lft.to/lastmile_qr_scan", "android": "https://dc.lft.to/lastmile_qr_scan"}, "lon": -76.99022466666666, "type": "electric_scooter"}, {"bike_id": "b7c5e9faced891beb5b3a5a6581a3773", "is_reserved": 0, "fusion_lon": 0.0, "lat": 38.92759316666667, "is_disabled": 0, "name": "b7c5e9faced891beb5b3a5a6581a3773", "fusion_lat": 0.0, "rental_uris": {"ios": "https://dc.lft.to/lastmile_qr_scan", "android": "https://dc.lft.to/lastmile_qr_scan"}, "lon": -77.028521, "type": "electric_scooter"}, {"bike_id": "f0e6605d2b07a122b790fad99f811cdd", "is_reserved": 0, "fusion_lon": 0.0, "lat": 38.8803155, "is_disabled": 0, "name": "f0e6605d2b07a122b790fad99f811cdd", "fusion_lat": 0.0, "rental_uris": {"ios": "https://dc.lft.to/lastmile_qr_scan", "android": "https://dc.lft.to/lastmile_qr_scan"}, "lon": -77.01938333333334, "type": "electric_scooter"}, {"bike_id": "7d9447a7f2dcbe1b2869149aa99c9230", "is_reserved": 0, "fusion_lon": 0.0, "lat": 38.9048905, "is_disabled": 0, "name": "7d9447a7f2dcbe1b2869149aa99c9230", "fusion_lat": 0.0, "rental_uris": {"ios": "https://dc.lft.to/lastmile_qr_scan", "android": "https://dc.lft.to/lastmile_qr_scan"}, "lon": -76.97921916666667, "type": "electric_scooter"}, {"bike_id": "f69455dabf15d268f198755308e3ed01", "is_reserved": 0, "fusion_lon": 0.0, "lat": 38.934982166666664, "is_disabled": 0, "name": "f69455dabf15d268f198755308e3ed01", "fusion_lat": 0.0, "rental_uris": {"ios": "https://dc.lft.to/lastmile_qr_scan", "android": "https://dc.lft.to/lastmile_qr_scan"}, "lon": -77.058054, "type": "electric_scooter"}, {"bike_id": "acb486b0077d50139a41a7d956e6e36a", "is_reserved": 0, "fusion_lon": 0.0, "lat": 38.9026565, "is_disabled": 0, "name": "acb486b0077d50139a41a7d956e6e36a", "fusion_lat": 0.0, "rental_uris": {"ios": "https://dc.lft.to/lastmile_qr_scan", "android": "https://dc.lft.to/lastmile_qr_scan"}, "lon": -77.06014166666667, "type": "electric_scooter"}, {"bike_id": "d272cb80b5dd66f241261cfd146f0fd5", "is_reserved": 0, "fusion_lon": 0.0, "lat": 38.921483, "is_disabled": 0, "name": "d272cb80b5dd66f241261cfd146f0fd5", "fusion_lat": 0.0, "rental_uris": {"ios": "https://dc.lft.to/lastmile_qr_scan", "android": "https://dc.lft.to/lastmile_qr_scan"}, "lon": -77.04386566666666, "type": "electric_scooter"}, {"bike_id": "e66ddab156556d155a14ff88622bd016", "is_reserved": 0, "fusion_lon": 0.0, "lat": 38.83687183333333, "is_disabled": 0, "name": "e66ddab156556d155a14ff88622bd016", "fusion_lat": 0.0, "rental_uris": {"ios": "https://dc.lft.to/lastmile_qr_scan", "android": "https://dc.lft.to/lastmile_qr_scan"}, "lon": -77.0058755, "type": "electric_scooter"}, {"bike_id": "f9373dc56c78fb9087878f9cab2d2d3c", "is_reserved": 0, "fusion_lon": 0.0, "lat": 38.936710833333336, "is_disabled": 0, "name": "f9373dc56c78fb9087878f9cab2d2d3c", "fusion_lat": 0.0, "rental_uris": {"ios": "https://dc.lft.to/lastmile_qr_scan", "android": "https://dc.lft.to/lastmile_qr_scan"}, "lon": -76.9523225, "type": "electric_bike"}, {"bike_id": "9dd43c528f0bddf610e0f5f880b3b2de", "is_reserved": 0, "fusion_lon": 0.0, "lat": 38.870145, "is_disabled": 0, "name": "9dd43c528f0bddf610e0f5f880b3b2de", "fusion_lat": 0.0, "rental_uris": {"ios": "https://dc.lft.to/lastmile_qr_scan", "android": "https://dc.lft.to/lastmile_qr_scan"}, "lon": -76.9602485, "type": "electric_bike"},