{"data": {"bikes": [{"fusion_lat": 0.0, "lat": 38.89611683333333, "rental_uris": {"ios": "https://dc.lft.to/lastmile_qr_scan", "android": "https://dc.lft.to/lastmile_qr_scan"}, "name": "af401f1f0488c5ec03827108ea33be9b", "type": "electric_scooter", "fusion_lon": 0.0, "is_disabled": 0, "is_reserved": 0, "bike_id": "af401f1f0488c5ec03827108ea33be9b", "lon": -76.99280066666667}, {"fusion_lat": 0.0, "lat": 38.924993, "rental_uris": {"ios": "https://dc.lft.to/lastmile_qr_scan", "android": "https://dc.lft.to/lastmile_qr_scan"}, "name": "d0dcdbe638455fc14839fc263e606fa1", "type": "electric_scooter", "fusion_lon": 0.0, "is_disabled": 0, "is_reserved": 0, "bike_id": "d0dcdbe638455fc14839fc263e606fa1", "lon": -77.05110016666667}, {"fusion_lat": 0.0, "lat": 38.92287616666667, "rental_uris": {"ios": "https://dc.lft.to/lastmile_qr_scan", "android": "https://dc.lft.to/lastmile_qr_scan"}, "name": "1584baf6ac08a9c23497907c9850625c", "type": "electric_scooter", "fusion_lon": 0.0, "is_disabled": 0, "is_reserved": 0, "bike_id": "1584baf6ac08a9c23497907c9850625c", "lon": -77.03188433333334}, {"fusion_lat": 0.0, "lat": 38.904489166666664, "rental_uris": {"ios": "https://dc.lft.to/lastmile_qr_scan", "android": "https://dc.lft.to/lastmile_qr_scan"}, "name": "9d95cf5c83b3f669f139b0fc58a686c2", "type": "electric_scooter", "fusion_lon": 0.0, "is_disabled": 0, "is_reserved": 0, "bike_id": "9d95cf5c83b3f669f139b0fc58a686c2", "lon": -76.9742285}, {"fusion_lat": 0.0, "lat": 38.93264466666667, "rental_uris": {"ios": "https://dc.lft.to/lastmile_qr_scan", "android": "https://dc.lft.to/lastmile_qr_scan"}, "name": "345da1ac681328be9704cc7e299755aa", "type": "electric_scooter", "fusion_lon": 0.0, "is_disabled": 0, "is_reserved": 0, "bike_id": "345da1ac681328be9704cc7e299755aa", "lon": -77.03112483333334}, {"fusion_lat": 0.0, "lat": 38.90203433333333, "rental_uris": {"ios": "https://dc.lft.to/lastmile_qr_scan", "android": "https://dc.lft.to/lastmile_qr_scan"}, "name": "52d092669c40c37cb118eacaa2be7cda", "type": "electric_scooter", "fusion_lon": 0.0, "is_disabled": 0, "is_reserved": 0, "bike_id": "52d092669c40c37cb118eacaa2be7cda", "lon": -77.022117}, {"fusion_lat": 0.0, "lat": 38.91836716666667, "rental_uris": {"ios": "https://dc.lft.to/lastmile_qr_scan", "android": "https://dc.lft.to/lastmile_qr_scan"}, "name": "bddf20331e795f76dc4f33cb58156fb8", "type": "electric_scooter", "fusion_lon": 0.0, "is_disabled": 0, "is_reserved": 0, "bike_id": "bddf20331e795f76dc4f33cb58156fb8", "lon": -77.012055}, {"fusion_lat": 0.0, "lat": 38.905528333333336, "rental_uris": {"ios": "https://dc.lft.to/lastmile_qr_scan", "android": "https://dc.lft.to/lastmile_qr_scan"}, "name": "cd779bafb28ef73dfb51ee94f555f5cc", "type": "electric_scooter", "fusion_lon": 0.0, "is_disabled": 0, "is_reserved": 0, "bike_id": "cd779bafb28ef73dfb51ee94f555f5cc", "lon": -77.03058766666666}, {"fusion_lat": 0.0, "lat": 38.878842666666664, "rental_uris": {"ios": "https://dc.lft.to/lastmile_qr_scan", "android": "https://dc.lft.to/lastmile_qr_scan"}, "name": "12514cfd801550e210df4a4447b0c76f", "type": "electric_scooter", "fusion_lon": 0.0, "is_disabled": 0, "is_reserved": 0, "bike_id": "12514cfd801550e210df4a4447b0c76f", "lon": -77.0013555}, {"fusion_lat": 0.0, "lat": 38.908237166666666, "rental_uris": {"ios": "https://dc.lft.to/lastmile_qr_scan", "android": "https://dc.lft.to/lastmile_qr_scan"}, "name": "ac31d4c3bdce4585d2efb6d0173be86b", "type": "electric_scooter", "fusion_lon": 0.0, "is_disabled": 0, "is_reserved": 0, "bike_id": "ac31d4c3bdce4585d2efb6d0173be86b", "lon": -76.9920045}, {"fusion_lat": 0.0, "lat": 38.912311333333335, "rental_uris": {"ios": "https://dc.lft.to/lastmile_qr_scan", "android": "https://dc.lft.to/lastmile_qr_scan"}, "name": "4041b55ea014fc2491f410cb4713e0a4", "type": "electric_scooter", "fusion_lon": 0.0, "is_disabled": 0, "is_reserved": 0, "bike_id": "4041b55ea014fc2491f410cb4713e0a4", "lon": -77.0769155}, {"fusion_lat": 0.0, "lat": 38.9052515, "rental_uris": {"ios": "https://dc.lft.to/lastmile_qr_scan", "android": "https://dc.lft.to/lastmile_qr_scan"}, "name": "56399d83ee9cc11f39f5be602a060872", "type": "electric_scooter", "fusion_lon": 0.0, "is_disabled": 0, "is_reserved": 0, "bike_id": "56399d83ee9cc11f39f5be602a060872", "lon": -77.06779116666667}, {"fusion_lat": 0.0, "lat": 38.899022, "rental_uris": {"ios": "https://dc.lft.to/lastmile_qr_scan", "android": "https://dc.lft.to/lastmile_qr_scan"}, "name": "ce5a271fec2c8f85d700cc2b54550713", "type": "electric_scooter", "fusion_lon": 0.0, "is_disabled": 0, "is_reserved": 0, "bike_id": "ce5a271fec2c8f85d700cc2b54550713", "lon": -77.03216033333334}, {"fusion_lat": 0.0, "lat": 38.88643666666667, "rental_uris": {"ios": "https://dc.lft.to/lastmile_qr_scan", "android": "https://dc.lft.to/lastmile_qr_scan"}, "name": "1c48b241441a70c7b453b5fcb74e2f52", "type": "electric_scooter", "fusion_lon": 0.0, "is_disabled": 0, "is_reserved": 0, "bike_id": "1c48b241441a70c7b453b5fcb74e2f52", "lon": -77.00087083333334}, {"fusion_lat": 0.0, "lat": 38.90788883333333, "rental_uris": {"ios": "https://dc.lft.to/lastmile_qr_scan", "android": "https://dc.lft.to/lastmile_qr_scan"}, "name": "2b004e99f3e2538d7469f8c954f1f0c6", "type": "electric_scooter", "fusion_lon": 0.0, "is_disabled": 0, "is_reserved": 0, "bike_id": "2b004e99f3e2538d7469f8c954f1f0c6", "lon": -77.00016633333334}, {"fusion_lat": 0.0, "lat": 38.90669483333333, "rental_uris": {"ios": "https://dc.lft.to/lastmile_qr_scan", "android": "https://dc.lft.to/lastmile_qr_scan"}, "name": "7d69d8de54149434ac6b258c45882fae", "type": "electric_scooter", "fusion_lon": 0.0, "is_disabled": 0, "is_reserved": 0, "bike_id": "7d69d8de54149434ac6b258c45882fae", "lon": -77.07124166666667}, {"fusion_lat": 0.0, "lat": 38.8760525, "rental_uris": {"ios": "https://dc.lft.to/lastmile_qr_scan", "android": "https://dc.lft.to/lastmile_qr_scan"}, "name": "f425b29bc7512066accf6bd608031717", "type": "electric_scooter", "fusion_lon": 0.0, "is_disabled": 0, "is_reserved": 0, "bike_id": "f425b29bc7512066accf6bd608031717", "lon": -77.00931316666667}, {"fusion_lat": 0.0, "lat": 38.891948166666666, "rental_uris": {"ios": "https://dc.lft.to/lastmile_qr_scan", "android": "https://dc.lft.to/lastmile_qr_scan"}, "name": "0d0d8089b647bbc4b829d006f168006b", "type": "electric_bike", "fusion_lon": 0.0, "is_disabled": 0, "is_reserved": 0, "bike_id": "0d0d8089b647bbc4b829d006f168006b", "lon": -76.93841333333333}, {"fusion_lat": 0.0, "lat": 38.894666666666666, "rental_uris": {"ios": "https://dc.lft.to/lastmile_qr_scan", "android": "https://dc.lft.to/lastmile_qr_scan"}, "name": "a2c28a8653091a9c32d9544fbf653372", "type": "electric_scooter", "fusion_lon": 0.0, "is_disabled": 0, "is_reserved": 0, "bike_id": "a2c28a8653091a9c32d9544fbf653372", "lon": -77.00184333333333}, {"fusion_lat": 0.0, "lat": 38.90879733333333, "rental_uris": {"ios": "https://dc.lft.to/lastmile_qr_scan", "android": "https://dc.lft.to/lastmile_qr_scan"}, "name": "693c408642a45768091aa9a13ddb2fac", "type": "electric_scooter", "fusion_lon": 0.0, "is_disabled": 0, "is_reserved": 0, "bike_id": "693c408642a45768091aa9a13ddb2fac", "lon": -77.02003733333333}, {"fusion_lat": 0.0, "lat": 38.925697166666666, "rental_uris": {"ios": "https://dc.lft.to/lastmile_qr_scan", "android": "https://dc.lft.to/lastmile_qr_scan"}, "name": "8ac00dcf6304a904d0b286fe78a20024", "type": "electric_scooter", "fusion_lon": 0.0, "is_disabled": 0, "is_reserved": 0, "bike_id": "8ac00dcf6304a904d0b286fe78a20024", "lon": -77.02692966666666}, {"fusion_lat": 0.0, "lat": 38.90236433333333, "rental_uris": {"ios": "https://dc.lft.to/lastmile_qr_scan", "android": "https://dc.lft.to/lastmile_qr_scan"}, "name": "7d35b2e299624e4063fa248cd4a6f993", "type": "electric_bike", "fusion_lon": 0.0, "is_disabled": 0, "is_reserved": 0, "bike_id": "7d35b2e299624e4063fa248cd4a6f993", "lon": -77.0163515}, {"fusion_lat": 0.0, "lat": 38.88604316666667, "rental_uris": {"ios": "https://dc.lft.to/lastmile_qr_scan", "android": "https://dc.lft.to/lastmile_qr_scan"}, "name": "eed7b93a718788cb961c9c0a84a04adb", "type": "electric_scooter", "fusion_lon": 0.0, "is_disabled": 0, "is_reserved": 0, "bike_id": "eed7b93a718788cb961c9c0a84a04adb", "lon": -76.99517166666666}, {"fusion_lat": 0.0, "lat": 38.883835833333336, "rental_uris": {"ios": "https://dc.lft.to/lastmile_qr_scan", "android": "https://dc.lft.to/lastmile_qr_scan"}, "name": "9d7a3abb26369d2afd4146d8f788e9ee", "type": "electric_scooter", "fusion_lon": 0.0, "is_disabled": 0, "is_reserved": 0, "bike_id": "9d7a3abb26369d2afd4146d8f788e9ee", "lon": -76.99525683333333}, {"fusion_lat": 0.0, "lat": 38.9242585, "rental_uris": {"ios": "https://dc.lft.to/lastmile_qr_scan", "android": "https://dc.lft.to/lastmile_qr_scan"}, "name": "99ce22e9a21513187612e9cd50348c2b", "type": "electric_scooter", "fusion_lon": 0.0, "is_disabled": 0, "is_reserved": 0, "bike_id": "99ce22e9a21513187612e9cd50348c2b", "lon": -77.0518065}, {"fusion_lat": 0.0, "lat": 38.909609833333334, "rental_uris": {"ios": "https://dc.lft.to/lastmile_qr_scan", "android": "https://dc.lft.to/lastmile_qr_scan"}, "name": "a1c3b8b5b94c13c177db1181c5a0634c", "type": "electric_scooter", "fusion_lon": 0.0, "is_disabled": 0, "is_reserved": 0, "bike_id": "a1c3b8b5b94c13c177db1181c5a0634c", "lon": -77.0328865}, {"fusion_lat": 0.0, "lat": 38.9233415, "rental_uris": {"ios": "https://dc.lft.to/lastmile_qr_scan", "android": "https://dc.lft.to/lastmile_qr_scan"}, "name": "fd13852b91a5b877109f821c02a58435", "type": "electric_scooter", "fusion_lon": 0.0, "is_disabled": 0, "is_reserved": 0, "bike_id": "fd13852b91a5b877109f821c02a58435", "lon": -77.0534725}, {"fusion_lat": 0.0, "lat": 38.9113585, "rental_uris": {"ios": "https://dc.lft.to/lastmile_qr_scan", "android": "https://dc.lft.to/lastmile_qr_scan"}, "name": "d9497eaf2b5dabdc0ff6522de6e99414", "type": "electric_bike", "fusion_lon": 0.0, "is_disabled": 0, "is_reserved": 0, "bike_id": "d9497eaf2b5dabdc0ff6522de6e99414", "lon": -77.065791}, {"fusion_lat": 0.0, "lat": 38.8935495, "rental_uris": {"ios": "https://dc.lft.to/lastmile_qr_scan", "android": "https://dc.lft.to/lastmile_qr_scan"}, "name": "ca19ad9d9f1dfc38aa13c957d4a16215", "type": "electric_bike", "fusion_lon": 0.0, "is_disabled": 0, "is_reserved": 0, "bike_id": "ca19ad9d9f1dfc38aa13c957d4a16215", "lon": -77.18743483333333}, {"fusion_lat": 0.0, "lat": 38.907761, "rental_uris": {"ios": "https://dc.lft.to/lastmile_qr_scan", "android": "https://dc.lft.to/lastmile_qr_scan"}, "name": "a0dbc331a0dd70a0464572d986e472a1", "type": "electric_scooter", "fusion_lon": 0.0, "is_disabled": 0, "is_reserved": 0, "bike_id": "a0dbc331a0dd70a0464572d986e472a1", "lon": -77.07140366666667}, {"fusion_lat": 0.0, "lat": 38.9014565, "rental_uris": {"ios": "https://dc.lft.to/lastmile_qr_scan", "android": "https://dc.lft.to/lastmile_qr_scan"}, "name": "c626f1409e12c04970566482796d6d31", "type": "electric_scooter", "fusion_lon": 0.0, "is_disabled": 0, "is_reserved": 0, "bike_id": "c626f1409e12c04970566482796d6d31", "lon": -77.00261}, {"fusion_lat": 0.0, "lat": 38.905740333333334, "rental_uris": {"ios": "https://dc.lft.to/lastmile_qr_scan", "android": "https://dc.lft.to/lastmile_qr_scan"}, "name": "7a6b8dee37335259a3c4485227cda916", "type": "electric_scooter", "fusion_lon": 0.0, "is_disabled": 0, "is_reserved": 0, "bike_id": "7a6b8dee37335259a3c4485227cda916", "lon": -77.03451283333334}, {"fusion_lat": 0.0, "lat": 38.91454433333333, "rental_uris": {"ios": "https://dc.lft.to/lastmile_qr_scan", "android": "https://dc.lft.to/lastmile_qr_scan"}, "name": "663603a51927de46776ef7345838ddcb", "type": "electric_scooter", "fusion_lon": 0.0, "is_disabled": 0, "is_reserved": 0, "bike_id": "663603a51927de46776ef7345838ddcb", "lon": -77.021771}, {"fusion_lat": 0.0, "lat": 38.917287, "rental_uris": {"ios": "https://dc.lft.to/lastmile_qr_scan", "android": "https://dc.lft.to/lastmile_qr_scan"}, "name": "e820ef044135979c725cc7a0edfce419", "type": "electric_scooter", "fusion_lon": 0.0, "is_disabled": 0, "is_reserved": 0, "bike_id": "e820ef044135979c725cc7a0edfce419", "lon": -77.04589383333334}, {"fusion_lat": 0.0, "lat": 38.90580466666667, "rental_uris": {"ios": "https://dc.lft.to/lastmile_qr_scan", "android": "https://dc.lft.to/lastmile_qr_scan"}, "name": "4b24c14d1c5ff781f335f672c2f82279", "type": "electric_bike", "fusion_lon": 0.0, "is_disabled": 0, "is_reserved": 0, "bike_id": "4b24c14d1c5ff781f335f672c2f82279", "lon": -77.0026465}, {"fusion_lat": 0.0, "lat": 38.865062, "rental_uris": {"ios": "https://dc.lft.to/lastmile_qr_scan", "android": "https://dc.lft.to/lastmile_qr_scan"}, "name": "0da4ab690ed735922833085a87d77411", "type": "electric_scooter", "fusion_lon": 0.0, "is_disabled": 0, "is_reserved": 0, "bike_id": "0da4ab690ed735922833085a87d77411", "lon": -76.99001733333333}, {"fusion_lat": 0.0, "lat": 38.8194215, "rental_uris": {"ios": "https://dc.lft.to/lastmile_qr_scan", "android": "https://dc.lft.to/lastmile_qr_scan"}, "name": "f979e82e837e59146560faf55e01dce0", "type": "electric_bike", "fusion_lon": 0.0, "is_disabled": 0, "is_reserved": 0, "bike_id": "f979e82e837e59146560faf55e01dce0", "lon": -77.00202616666667}, {"fusion_lat": 0.0, "lat": 38.894907833333335, "rental_uris": {"ios": "https://dc.lft.to/lastmile_qr_scan", "android": "https://dc.lft.to/lastmile_qr_scan"}, "name": "eeac2d903ea689231ba4b6c33541d14c", "type": "electric_scooter", "fusion_lon": 0.0, "is_disabled": 0, "is_reserved": 0, "bike_id": "eeac2d903ea689231ba4b6c33541d14c", "lon": -77.00969866666667}, {"fusion_lat": 0.0, "lat": 38.92644033333333, "rental_uris": {"ios": "https://dc.lft.to/lastmile_qr_scan", "android": "https://dc.lft.to/lastmile_qr_scan"}, "name": "86966791e3fa91b37e21d1c417e5702f", "type": "electric_scooter", "fusion_lon": 0.0, "is_disabled": 0, "is_reserved": 0, "bike_id": "86966791e3fa91b37e21d1c417e5702f", "lon": -77.0339685}, {"fusion_lat": 0.0, "lat": 38.9263565, "rental_uris": {"ios": "https://dc.lft.to/lastmile_qr_scan", "android": "https://dc.lft.to/lastmile_qr_scan"}, "name": "3dd8ea431cb109922ebc0a34437b25fe", "type": "electric_scooter", "fusion_lon": 0.0, "is_disabled": 0, "is_reserved": 0, "bike_id": "3dd8ea431cb109922ebc0a34437b25fe", "lon": -77.03478133333333}, {"fusion_lat": 0.0, "lat": 38.8849345, "rental_uris": {"ios": "https://dc.lft.to/lastmile_qr_scan", "android": "https://dc.lft.to/lastmile_qr_scan"}, "name": "7658c82f03849ed130305b01d4ef3b22", "type": "electric_scooter", "fusion_lon": 0.0, "is_disabled": 0, "is_reserved": 0, "bike_id": "7658c82f03849ed130305b01d4ef3b22", "lon": -77.007235}, {"fusion_lat": 0.0, "lat": 38.887485833333336, "rental_uris": {"ios": "https://dc.lft.to/lastmile_qr_scan", "android": "https://dc.lft.to/lastmile_qr_scan"}, "name": "4c5d59f9ba896c49ba961b6908efea49", "type": "electric_scooter", "fusion_lon": 0.0, "is_disabled": 0, "is_reserved": 0, "bike_id": "4c5d59f9ba896c49ba961b6908efea49", "lon": -77.01726283333333}, {"fusion_lat": 0.0, "lat": 38.94381766666667, "rental_uris": {"ios": "https://dc.lft.to/lastmile_qr_scan", "android": "https://dc.lft.to/lastmile_qr_scan"}, "name": "dfb911e272ebc6ac6229136dc86c548e", "type": "electric_scooter", "fusion_lon": 0.0, "is_disabled": 0, "is_reserved": 0, "bike_id": "dfb911e272ebc6ac6229136dc86c548e", "lon": -77.06357733333333}, {"fusion_lat": 0.0, "lat": 38.92853316666667, "rental_uris": {"ios": "https://dc.lft.to/lastmile_qr_scan", "android": "https://dc.lft.to/lastmile_qr_scan"}, "name": "9c3030aaf9c7945f994d967e98b476ee", "type": "electric_scooter", "fusion_lon": 0.0, "is_disabled": 0, "is_reserved": 0, "bike_id": "9c3030aaf9c7945f994d967e98b476ee", "lon": -77.03306616666667}, {"fusion_lat": 0.0, "lat": 38.88490866666667, "rental_uris": {"ios": "https://dc.lft.to/lastmile_qr_scan", "android": "https://dc.lft.to/lastmile_qr_scan"}, "name": "30c7407dc850bc5e45804091bc482e36", "type": "electric_scooter", "fusion_lon": 0.0, "is_disabled": 0, "is_reserved": 0, "bike_id": "30c7407dc850bc5e45804091bc482e36", "lon": -77.0070945}, {"fusion_lat": 0.0, "lat": 38.98495883333333, "rental_uris": {"ios": "https://dc.lft.to/lastmile_qr_scan", "android": "https://dc.lft.to/lastmile_qr_scan"}, "name": "11a03bb719f15bbcf7cd9e7c42759b1e", "type": "electric_bike", "fusion_lon": 0.0, "is_disabled": 0, "is_reserved": 0, "bike_id": "11a03bb719f15bbcf7cd9e7c42759b1e", "lon": -76.9821}, {"fusion_lat": 0.0, "lat": 38.9132085, "rental_uris": {"ios": "https://dc.lft.to/lastmile_qr_scan", "android": "https://dc.lft.to/lastmile_qr_scan"}, "name": "b0ecf53b42af41c86517bfd226a36877", "type": "electric_scooter", "fusion_lon": 0.0, "is_disabled": 0, "is_reserved": 0, "bike_id": "b0ecf53b42af41c86517bfd226a36877", "lon": -77.01748816666667}, {"fusion_lat": 0.0, "lat": 38.88610583333333, "rental_uris": {"ios": "https://dc.lft.to/lastmile_qr_scan", "android": "https://dc.lft.to/lastmile_qr_scan"}, "name": "80fbe61d6833ea1a3755e16eb30a50f2", "type": "electric_scooter", "fusion_lon": 0.0, "is_disabled": 0, "is_reserved": 0, "bike_id": "80fbe61d6833ea1a3755e16eb30a50f2", "lon": -76.99517766666666}, {"fusion_lat": 0.0, "lat": 38.914333, "rental_uris": {"ios": "https://dc.lft.to/lastmile_qr_scan", "android": "https://dc.lft.to/lastmile_qr_scan"}, "name": "791ea58f6c3e2e10dd0c5170863c4bc1", "type": "electric_scooter", "fusion_lon": 0.0, "is_disabled": 0, "is_reserved": 0, "bike_id": "791ea58f6c3e2e10dd0c5170863c4bc1", "lon": -77.06426133333333}, {"fusion_lat": 0.0, "lat": 38.884288166666664, "rental_uris": {"ios": "https://dc.lft.to/lastmile_qr_scan", "android": "https://dc.lft.to/lastmile_qr_scan"}, "name": "f4b2c85d77e06e4d93f193f3a9ad843b", "type": "electric_scooter", "fusion_lon": 0.0, "is_disabled": 0, "is_reserved": 0, "bike_id": "f4b2c85d77e06e4d93f193f3a9ad843b", "lon": -76.99595516666666}, {"fusion_lat": 0.0, "lat": 38.951002333333335, "rental_uris": {"ios": "https://dc.lft.to/lastmile_qr_scan", "android": "https://dc.lft.to/lastmile_qr_scan"}, "name": "d1e429bc70e9472f8a7adc8d542d0a30", "type": "electric_scooter", "fusion_lon": 0.0, "is_disabled": 0, "is_reserved": 0, "bike_id": "d1e429bc70e9472f8a7adc8d542d0a30", "lon": -77.09712616666667}, {"fusion_lat": 0.0, "lat": 38.90324366666667, "rental_uris": {"ios": "https://dc.lft.to/lastmile_qr_scan", "android": "https://dc.lft.to/lastmile_qr_scan"}, "name": "6a61e447c51b0e6ca6a8f49c55aae1bd", "type": "electric_scooter", "fusion_lon": 0.0, "is_disabled": 0, "is_reserved": 0, "bike_id": "6a61e447c51b0e6ca6a8f49c55aae1bd", "lon": -77.0246735}, {"fusion_lat": 0.0, "lat": 38.9146505, "rental_uris": {"ios": "https://dc.lft.to/lastmile_qr_scan", "android": "https://dc.lft.to/lastmile_qr_scan"}, "name": "9d9fb0f6cbcdf0bd65d1a7ded657cf98", "type": "electric_scooter", "fusion_lon": 0.0, "is_disabled": 0, "is_reserved": 0, "bike_id": "9d9fb0f6cbcdf0bd65d1a7ded657cf98", "lon": -77.02964716666666}, {"fusion_lat": 0.0, "lat": 38.9211745, "rental_uris": {"ios": "https://dc.lft.to/lastmile_qr_scan", "android": "https://dc.lft.to/lastmile_qr_scan"}, "name": "58d3fc7bb9c22e1b7321c047586618e1", "type": "electric_bike", "fusion_lon": 0.0, "is_disabled": 0, "is_reserved": 0, "bike_id": "58d3fc7bb9c22e1b7321c047586618e1", "lon": -76.98878033333334}, {"fusion_lat": 0.0, "lat": 38.93031366666666, "rental_uris": {"ios": "https://dc.lft.to/lastmile_qr_scan", "android": "https://dc.lft.to/lastmile_qr_scan"}, "name": "cfdcf89a3324bb02b05adeff5c098b93", "type": "electric_scooter", "fusion_lon": 0.0, "is_disabled": 0, "is_reserved": 0, "bike_id": "cfdcf89a3324bb02b05adeff5c098b93", "lon": -77.03801083333333}, {"fusion_lat": 0.0, "lat": 38.90309633333333, "rental_uris": {"ios": "https://dc.lft.to/lastmile_qr_scan", "android": "https://dc.lft.to/lastmile_qr_scan"}, "name": "07029d92d14f948322fbc3285822cc2a", "type": "electric_scooter", "fusion_lon": 0.0, "is_disabled": 0, "is_reserved": 0, "bike_id": "07029d92d14f948322fbc3285822cc2a", "lon": -77.00558216666667}, {"fusion_lat": 0.0, "lat": 38.860673, "rental_uris": {"ios": "https://dc.lft.to/lastmile_qr_scan", "android": "https://dc.lft.to/lastmile_qr_scan"}, "name": "eab518107b866e1af9b231470d5d9d32", "type": "electric_scooter", "fusion_lon": 0.0, "is_disabled": 0, "is_reserved": 0, "bike_id": "eab518107b866e1af9b231470d5d9d32", "lon": -76.98500416666667}, {"fusion_lat": 0.0, "lat": 38.92857266666667, "rental_uris": {"ios": "https://dc.lft.to/lastmile_qr_scan", "android": "https://dc.lft.to/lastmile_qr_scan"}, "name": "5d25f684d66704dc5401a5ed89241592", "type": "electric_scooter", "fusion_lon": 0.0, "is_disabled": 0, "is_reserved": 0, "bike_id": "5d25f684d66704dc5401a5ed89241592", "lon": -77.036271}, {"fusion_lat": 0.0, "lat": 38.88527883333333, "rental_uris": {"ios": "https://dc.lft.to/lastmile_qr_scan", "android": "https://dc.lft.to/lastmile_qr_scan"}, "name": "275a93108acfa51ebfcd78cb0bf57cc7", "type": "electric_scooter", "fusion_lon": 0.0, "is_disabled": 0, "is_reserved": 0, "bike_id": "275a93108acfa51ebfcd78cb0bf57cc7", "lon": -77.015159}, {"fusion_lat": 0.0, "lat": 38.874616833333334, "rental_uris": {"ios": "https://dc.lft.to/lastmile_qr_scan", "android": "https://dc.lft.to/lastmile_qr_scan"}, "name": "9a21f72a4e9e5ee9831198c2cc6d6d85", "type": "electric_scooter", "fusion_lon": 0.0, "is_disabled": 0, "is_reserved": 0, "bike_id": "9a21f72a4e9e5ee9831198c2cc6d6d85", "lon": -77.00964383333333}, {"fusion_lat": 0.0, "lat": 38.904448333333335, "rental_uris": {"ios": "https://dc.lft.to/lastmile_qr_scan", "android": "https://dc.lft.to/lastmile_qr_scan"}, "name": "3ec27ec95caa95c27997409fbb924c22", "type": "electric_scooter", "fusion_lon": 0.0, "is_disabled": 0, "is_reserved": 0, "bike_id": "3ec27ec95caa95c27997409fbb924c22", "lon": -76.99613933333333}, {"fusion_lat": 0.0, "lat": 38.917661333333335, "rental_uris": {"ios": "https://dc.lft.to/lastmile_qr_scan", "android": "https://dc.lft.to/lastmile_qr_scan"}, "name": "ddcf2040bb1a48680ee8fb5032c548b2", "type": "electric_scooter", "fusion_lon": 0.0, "is_disabled": 0, "is_reserved": 0, "bike_id": "ddcf2040bb1a48680ee8fb5032c548b2", "lon": -77.012183}, {"fusion_lat": 0.0, "lat": 38.89924216666667, "rental_uris": {"ios": "https://dc.lft.to/lastmile_qr_scan", "android": "https://dc.lft.to/lastmile_qr_scan"}, "name": "c0da9b9189ae79bcca9df13ea357f9d9", "type": "electric_scooter", "fusion_lon": 0.0, "is_disabled": 0, "is_reserved": 0, "bike_id": "c0da9b9189ae79bcca9df13ea357f9d9", "lon": -77.01385016666667}, {"fusion_lat": 0.0, "lat": 38.914638333333336, "rental_uris": {"ios": "https://dc.lft.to/lastmile_qr_scan", "android": "https://dc.lft.to/lastmile_qr_scan"}, "name": "780df2ce3a9c24df0eca5f0e32e79c3b", "type": "electric_scooter", "fusion_lon": 0.0, "is_disabled": 0, "is_reserved": 0, "bike_id": "780df2ce3a9c24df0eca5f0e32e79c3b", "lon": -77.0319095}, {"fusion_lat": 0.0, "lat": 38.89727533333333, "rental_uris": {"ios": "https://dc.lft.to/lastmile_qr_scan", "android": "https://dc.lft.to/lastmile_qr_scan"}, "name": "126b1aec910b0115726f6bd8d3f73c84", "type": "electric_scooter", "fusion_lon": 0.0, "is_disabled": 0, "is_reserved": 0, "bike_id": "126b1aec910b0115726f6bd8d3f73c84", "lon": -77.00373433333333}, {"fusion_lat": 0.0, "lat": 38.89906933333333, "rental_uris": {"ios": "https://dc.lft.to/lastmile_qr_scan", "android": "https://dc.lft.to/lastmile_qr_scan"}, "name": "c7214fdf923f2475b23182e506e3b361", "type": "electric_scooter", "fusion_lon": 0.0, "is_disabled": 0, "is_reserved": 0, "bike_id": "c7214fdf923f2475b23182e506e3b361", "lon": -76.933639}, {"fusion_lat": 0.0, "lat": 38.87464966666667, "rental_uris": {"ios": "https://dc.lft.to/lastmile_qr_scan", "android": "https://dc.lft.to/lastmile_qr_scan"}, "name": "c6ba4d340223e187d834a1cefd21e0d9", "type": "electric_scooter", "fusion_lon": 0.0, "is_disabled": 0, "is_reserved": 0, "bike_id": "c6ba4d340223e187d834a1cefd21e0d9", "lon": -77.00552983333333}, {"fusion_lat": 0.0, "lat": 38.93210333333333, "rental_uris": {"ios": "https://dc.lft.to/lastmile_qr_scan", "android": "https://dc.lft.to/lastmile_qr_scan"}, "name": "8c08928ce46a369d0766cd50cac17a3f", "type": "electric_scooter", "fusion_lon": 0.0, "is_disabled": 0, "is_reserved": 0, "bike_id": "8c08928ce46a369d0766cd50cac17a3f", "lon": -77.032635}, {"fusion_lat": 0.0, "lat": 38.9568765, "rental_uris": {"ios": "https://dc.lft.to/lastmile_qr_scan", "android": "https://dc.lft.to/lastmile_qr_scan"}, "name": "49953f96e86337d8d36244bda32f6e97", "type": "electric_scooter", "fusion_lon": 0.0, "is_disabled": 0, "is_reserved": 0, "bike_id": "49953f96e86337d8d36244bda32f6e97", "lon": -77.019277}, {"fusion_lat": 0.0, "lat": 38.903546666666664, "rental_uris": {"ios": "https://dc.lft.to/lastmile_qr_scan", "android": "https://dc.lft.to/lastmile_qr_scan"}, "name": "d7ffd65c311add69b8f1654dc959fd46", "type": "electric_scooter", "fusion_lon": 0.0, "is_disabled": 0, "is_reserved": 0, "bike_id": "d7ffd65c311add69b8f1654dc959fd46", "lon": -77.0075695}, {"fusion_lat": 0.0, "lat": 38.956434333333334, "rental_uris": {"ios": "https://dc.lft.to/lastmile_qr_scan", "android": "https://dc.lft.to/lastmile_qr_scan"}, "name": "fee4ccb50620c15c19b8ae96818c47e6", "type": "electric_scooter", "fusion_lon": 0.0, "is_disabled": 0, "is_reserved": 0, "bike_id": "fee4ccb50620c15c19b8ae96818c47e6", "lon": -76.99789733333333}, {"fusion_lat": 0.0, "lat": 38.91535233333333, "rental_uris": {"ios": "https://dc.lft.to/lastmile_qr_scan", "android": "https://dc.lft.to/lastmile_qr_scan"}, "name": "5a8fdf935f371c6235feb149495ecab6", "type": "electric_scooter", "fusion_lon": 0.0, "is_disabled": 0, "is_reserved": 0, "bike_id": "5a8fdf935f371c6235feb149495ecab6", "lon": -76.9835765}, {"fusion_lat": 0.0, "lat": 38.897352, "rental_uris": {"ios": "https://dc.lft.to/lastmile_qr_scan", "android": "https://dc.lft.to/lastmile_qr_scan"}, "name": "048d24bf2abc1a6f26f9534c88584dd6", "type": "electric_bike", "fusion_lon": 0.0, "is_disabled": 0, "is_reserved": 0, "bike_id": "048d24bf2abc1a6f26f9534c88584dd6", "lon": -76.920421}, {"fusion_lat": 0.0, "lat": 38.92362033333333, "rental_uris": {"ios": "https://dc.lft.to/lastmile_qr_scan", "android": "https://dc.lft.to/lastmile_qr_scan"}, "name": "9554045e24a2dd766fe2cbb63580534b", "type": "electric_scooter", "fusion_lon": 0.0, "is_disabled": 0, "is_reserved": 0, "bike_id": "9554045e24a2dd766fe2cbb63580534b", "lon": -77.0504905}, {"fusion_lat": 0.0, "lat": 38.856556499999996, "rental_uris": {"ios": "https://dc.lft.to/lastmile_qr_scan", "android": "https://dc.lft.to/lastmile_qr_scan"}, "name": "542150271dee85ec42a111533777e77e", "type": "electric_scooter", "fusion_lon": 0.0, "is_disabled": 0, "is_reserved": 0, "bike_id": "542150271dee85ec42a111533777e77e", "lon": -76.99672433333333}, {"fusion_lat": 0.0, "lat": 38.9082755, "rental_uris": {"ios": "https://dc.lft.to/lastmile_qr_scan", "android": "https://dc.lft.to/lastmile_qr_scan"}, "name": "6e1f2e872b9d0aa289c5471ce97614d6", "type": "electric_scooter", "fusion_lon": 0.0, "is_disabled": 0, "is_reserved": 0, "bike_id": "6e1f2e872b9d0aa289c5471ce97614d6", "lon": -77.0321405}, {"fusion_lat": 0.0, "lat": 38.846402499999996, "rental_uris": {"ios": "https://dc.lft.to/lastmile_qr_scan", "android": "https://dc.lft.to/lastmile_qr_scan"}, "name": "fe0757a9adb8a359315ce969829e738c", "type": "electric_scooter", "fusion_lon": 0.0, "is_disabled": 0, "is_reserved": 0, "bike_id": "fe0757a9adb8a359315ce969829e738c", "lon": -77.0038935}, {"fusion_lat": 0.0, "lat": 38.901133333333334, "rental_uris": {"ios": "https://dc.lft.to/lastmile_qr_scan", "android": "https://dc.lft.to/lastmile_qr_scan"}, "name": "4cec0919808ab298b344479f4a5e661b", "type": "electric_scooter", "fusion_lon": 0.0, "is_disabled": 0, "is_reserved": 0, "bike_id": "4cec0919808ab298b344479f4a5e661b", "lon": -77.04477283333334}, {"fusion_lat": 0.0, "lat": 38.907227, "rental_uris": {"ios": "https://dc.lft.to/lastmile_qr_scan", "android": "https://dc.lft.to/lastmile_qr_scan"}, "name": "7b7fefab99af4830d723274e77e07965", "type": "electric_scooter", "fusion_lon": 0.0, "is_disabled": 0, "is_reserved": 0, "bike_id": "7b7fefab99af4830d723274e77e07965", "lon": -77.02492}, {"fusion_lat": 0.0, "lat": 38.9073825, "rental_uris": {"ios": "https://dc.lft.to/lastmile_qr_scan", "android": "https://dc.lft.to/lastmile_qr_scan"}, "name": "9204f05f6662809f041f036ebfb90006", "type": "electric_scooter", "fusion_lon": 0.0, "is_disabled": 0, "is_reserved": 0, "bike_id": "9204f05f6662809f041f036ebfb90006", "lon": -77.009189}, {"fusion_lat": 0.0, "lat": 38.87442883333333, "rental_uris": {"ios": "https://dc.lft.to/lastmile_qr_scan", "android": "https://dc.lft.to/lastmile_qr_scan"}, "name": "06e994ca3a00a38f32496a0eecf372a7", "type": "electric_scooter", "fusion_lon": 0.0, "is_disabled": 0, "is_reserved": 0, "bike_id": "06e994ca3a00a38f32496a0eecf372a7", "lon": -77.00028183333333}, {"fusion_lat": 0.0, "lat": 38.935402333333336, "rental_uris": {"ios": "https://dc.lft.to/lastmile_qr_scan", "android": "https://dc.lft.to/lastmile_qr_scan"}, "name": "4453aa2808d4f112dd0463d6bcbd5793", "type": "electric_scooter", "fusion_lon": 0.0, "is_disabled": 0, "is_reserved": 0, "bike_id": "4453aa2808d4f112dd0463d6bcbd5793", "lon": -77.030873}, {"fusion_lat": 0.0, "lat": 38.91847216666667, "rental_uris": {"ios": "https://dc.lft.to/lastmile_qr_scan", "android": "https://dc.lft.to/lastmile_qr_scan"}, "name": "12ca93681a90ddc8f33dd696851e6662", "type": "electric_scooter", "fusion_lon": 0.0, "is_disabled": 0, "is_reserved": 0, "bike_id": "12ca93681a90ddc8f33dd696851e6662", "lon": -77.0482655}, {"fusion_lat": 0.0, "lat": 38.887495333333334, "rental_uris": {"ios": "https://dc.lft.to/lastmile_qr_scan", "android": "https://dc.lft.to/lastmile_qr_scan"}, "name": "8aae79b627c4a99c59a35668c078ba3e", "type": "electric_scooter", "fusion_lon": 0.0, "is_disabled": 0, "is_reserved": 0, "bike_id": "8aae79b627c4a99c59a35668c078ba3e", "lon": -77.03159316666667}, {"fusion_lat": 0.0, "lat": 38.80757666666667, "rental_uris": {"ios": "https://dc.lft.to/lastmile_qr_scan", "android": "https://dc.lft.to/lastmile_qr_scan"}, "name": "716e78ce7f690c3e168c6b33b14a2759", "type": "electric_bike", "fusion_lon": 0.0, "is_disabled": 0, "is_reserved": 0, "bike_id": "716e78ce7f690c3e168c6b33b14a2759", "lon": -77.09454183333334}, {"fusion_lat": 0.0, "lat": 38.866264, "rental_uris": {"ios": "https://dc.lft.to/lastmile_qr_scan", "android": "https://dc.lft.to/lastmile_qr_scan"}, "name": "c306f47aab2614bd78099cdf7376852f", "type": "electric_scooter", "fusion_lon": 0.0, "is_disabled": 0, "is_reserved": 0, "bike_id": "c306f47aab2614bd78099cdf7376852f", "lon": -76.98219983333334}, {"fusion_lat": 0.0, "lat": 38.8871105, "rental_uris": {"ios": "https://dc.lft.to/lastmile_qr_scan", "android": "https://dc.lft.to/lastmile_qr_scan"}, "name": "5a1b007ad1b6a3a42de94f46aa07dc56", "type": "electric_scooter", "fusion_lon": 0.0, "is_disabled": 0, "is_reserved": 0, "bike_id": "5a1b007ad1b6a3a42de94f46aa07dc56", "lon": -77.0024915}, {"fusion_lat": 0.0, "lat": 38.852518833333335, "rental_uris": {"ios": "https://dc.lft.to/lastmile_qr_scan", "android": "https://dc.lft.to/lastmile_qr_scan"}, "name": "3ac4e6d66514c5981a79881343be96f2", "type": "electric_bike", "fusion_lon": 0.0, "is_disabled": 0, "is_reserved": 0, "bike_id": "3ac4e6d66514c5981a79881343be96f2", "lon": -77.10786866666666}, {"fusion_lat": 0.0, "lat": 38.902904, "rental_uris": {"ios": "https://dc.lft.to/lastmile_qr_scan", "android": "https://dc.lft.to/lastmile_qr_scan"}, "name": "61074ad49fceb709d1333ea35308b7b1", "type": "electric_scooter", "fusion_lon": 0.0, "is_disabled": 0, "is_reserved": 0, "bike_id": "61074ad49fceb709d1333ea35308b7b1", "lon": -77.044743}, {"fusion_lat": 0.0, "lat": 38.952846, "rental_uris": {"ios": "https://dc.lft.to/lastmile_qr_scan", "android": "https://dc.lft.to/lastmile_qr_scan"}, "name": "8fbb96fbf9c021253c86e5dc379bd8a6", "type": "electric_scooter", "fusion_lon": 0.0, "is_disabled": 0, "is_reserved": 0, "bike_id": "8fbb96fbf9c021253c86e5dc379bd8a6", "lon": -77.01353916666666}, {"fusion_lat": 0.0, "lat": 38.927596, "rental_uris": {"ios": "https://dc.lft.to/lastmile_qr_scan", "android": "https://dc.lft.to/lastmile_qr_scan"}, "name": "7062147ac41e9cc1ef8b38b4401a9a1f", "type": "electric_scooter", "fusion_lon": 0.0, "is_disabled": 0, "is_reserved": 0, "bike_id": "7062147ac41e9cc1ef8b38b4401a9a1f", "lon": -77.02323}, {"fusion_lat": 0.0, "lat": 38.90562233333333, "rental_uris": {"ios": "https://dc.lft.to/lastmile_qr_scan", "android": "https://dc.lft.to/lastmile_qr_scan"}, "name": "3cdde5855195e9eb2a303dbe63d596d5", "type": "electric_scooter", "fusion_lon": 0.0, "is_disabled": 0, "is_reserved": 0, "bike_id": "3cdde5855195e9eb2a303dbe63d596d5", "lon": -77.02939483333333}, {"fusion_lat": 0.0, "lat": 38.8217865, "rental_uris": {"ios": "https://dc.lft.to/lastmile_qr_scan", "android": "https://dc.lft.to/lastmile_qr_scan"}, "name": "ee1115aa302eb54e02afa9ae36d44149", "type": "electric_bike", "fusion_lon": 0.0, "is_disabled": 0, "is_reserved": 0, "bike_id": "ee1115aa302eb54e02afa9ae36d44149", "lon": -76.99508833333333}, {"fusion_lat": 0.0, "lat": 38.883111166666666, "rental_uris": {"ios": "https://dc.lft.to/lastmile_qr_scan", "android": "https://dc.lft.to/lastmile_qr_scan"}, "name": "d714b11e841293a6ec4c393f09931c78", "type": "electric_scooter", "fusion_lon": 0.0, "is_disabled": 0, "is_reserved": 0, "bike_id": "d714b11e841293a6ec4c393f09931c78", "lon": -77.0177195}, {"fusion_lat": 0.0, "lat": 38.924176, "rental_uris": {"ios": "https://dc.lft.to/lastmile_qr_scan", "android": "https://dc.lft.to/lastmile_qr_scan"}, "name": "f0f9290b0fffcc4e7c6931769e93b39c", "type": "electric_scooter", "fusion_lon": 0.0, "is_disabled": 0, "is_reserved": 0, "bike_id": "f0f9290b0fffcc4e7c6931769e93b39c", "lon": -77.02010583333333}, {"fusion_lat": 0.0, "lat": 38.916146833333336, "rental_uris": {"ios": "https://dc.lft.to/lastmile_qr_scan", "android": "https://dc.lft.to/lastmile_qr_scan"}, "name": "9f327f6213437aba3b1175b5dc6cc5ab", "type": "electric_scooter", "fusion_lon": 0.0, "is_disabled": 0, "is_reserved": 0, "bike_id": "9f327f6213437aba3b1175b5dc6cc5ab", "lon": -77.04879066666666}, {"fusion_lat": 0.0, "lat": 38.89833866666667, "rental_uris": {"ios": "https://dc.lft.to/lastmile_qr_scan", "android": "https://dc.lft.to/lastmile_qr_scan"}, "name": "aa6a38ee04422fbb542151f76f630e50", "type": "electric_scooter", "fusion_lon": 0.0, "is_disabled": 0, "is_reserved": 0, "bike_id": "aa6a38ee04422fbb542151f76f630e50", "lon": -76.94631166666667}, {"fusion_lat": 0.0, "lat": 38.92481466666667, "rental_uris": {"ios": "https://dc.lft.to/lastmile_qr_scan", "android": "https://dc.lft.to/lastmile_qr_scan"}, "name": "346a75d1ec1a48048897d4612a3248c6", "type": "electric_scooter", "fusion_lon": 0.0, "is_disabled": 0, "is_reserved": 0, "bike_id": "346a75d1ec1a48048897d4612a3248c6", "lon": -77.0265275}, {"fusion_lat": 0.0, "lat": 38.907189333333335, "rental_uris": {"ios": "https://dc.lft.to/lastmile_qr_scan", "android": "https://dc.lft.to/lastmile_qr_scan"}, "name": "6e5886d08b33ca4305b08c510a6eec2f", "type": "electric_scooter", "fusion_lon": 0.0, "is_disabled": 0, "is_reserved": 0, "bike_id": "6e5886d08b33ca4305b08c510a6eec2f", "lon": -77.04159366666667}, {"fusion_lat": 0.0, "lat": 38.8962825, "rental_uris": {"ios": "https://dc.lft.to/lastmile_qr_scan", "android": "https://dc.lft.to/lastmile_qr_scan"}, "name": "8441062787bf5dd6d562e8468d7143a6", "type": "electric_scooter", "fusion_lon": 0.0, "is_disabled": 0, "is_reserved": 0, "bike_id": "8441062787bf5dd6d562e8468d7143a6", "lon": -77.04011033333333}, {"fusion_lat": 0.0, "lat": 38.90471616666667, "rental_uris": {"ios": "https://dc.lft.to/lastmile_qr_scan", "android": "https://dc.lft.to/lastmile_qr_scan"}, "name": "34c7e7dd74087a446eebac9b2eb48561", "type": "electric_scooter", "fusion_lon": 0.0, "is_disabled": 0, "is_reserved": 0, "bike_id": "34c7e7dd74087a446eebac9b2eb48561", "lon": -77.04353533333334}, {"fusion_lat": 0.0, "lat": 38.966723333333334, "rental_uris": {"ios": "https://dc.lft.to/lastmile_qr_scan", "android": "https://dc.lft.to/lastmile_qr_scan"}, "name": "565bb8e7970212fbb3871e1741a29397", "type": "electric_scooter", "fusion_lon": 0.0, "is_disabled": 0, "is_reserved": 0, "bike_id": "565bb8e7970212fbb3871e1741a29397", "lon": -77.02657383333333}, {"fusion_lat": 0.0, "lat": 38.91144833333333, "rental_uris": {"ios": "https://dc.lft.to/lastmile_qr_scan", "android": "https://dc.lft.to/lastmile_qr_scan"}, "name": "b768b7d73f8f8230a328f68ef1813741", "type": "electric_scooter", "fusion_lon": 0.0, "is_disabled": 0, "is_reserved": 0, "bike_id": "b768b7d73f8f8230a328f68ef1813741", "lon": -77.0383495}, {"fusion_lat": 0.0, "lat": 38.903203, "rental_uris": {"ios": "https://dc.lft.to/lastmile_qr_scan", "android": "https://dc.lft.to/lastmile_qr_scan"}, "name": "1924f9fdee92e6c1f614f5dada27c4a0", "type": "electric_scooter", "fusion_lon": 0.0, "is_disabled": 0, "is_reserved": 0, "bike_id": "1924f9fdee92e6c1f614f5dada27c4a0", "lon": -77.04335666666667}, {"fusion_lat": 0.0, "lat": 38.91677766666667, "rental_uris": {"ios": "https://dc.lft.to/lastmile_qr_scan", "android": "https://dc.lft.to/lastmile_qr_scan"}, "name": "7e69c6856be59f56881996f9328bf558", "type": "electric_scooter", "fusion_lon": 0.0, "is_disabled": 0, "is_reserved": 0, "bike_id": "7e69c6856be59f56881996f9328bf558", "lon": -77.00341566666667}, {"fusion_lat": 0.0, "lat": 38.884898, "rental_uris": {"ios": "https://dc.lft.to/lastmile_qr_scan", "android": "https://dc.lft.to/lastmile_qr_scan"}, "name": "3c089ddf8b00847115c4f4483454a2ed", "type": "electric_scooter", "fusion_lon": 0.0, "is_disabled": 0, "is_reserved": 0, "bike_id": "3c089ddf8b00847115c4f4483454a2ed", "lon": -77.00711}, {"fusion_lat": 0.0, "lat": 38.867632666666665, "rental_uris": {"ios": "https://dc.lft.to/lastmile_qr_scan", "android": "https://dc.lft.to/lastmile_qr_scan"}, "name": "3dc6cd2ca616dde0389e65ae3c5e2ab8", "type": "electric_scooter", "fusion_lon": 0.0, "is_disabled": 0, "is_reserved": 0, "bike_id": "3dc6cd2ca616dde0389e65ae3c5e2ab8", "lon": -76.98273683333333}, {"fusion_lat": 0.0, "lat": 38.9611365, "rental_uris": {"ios": "https://dc.lft.to/lastmile_qr_scan", "android": "https://dc.lft.to/lastmile_qr_scan"}, "name": "93d7edcdf853a19f697eebeb218df324", "type": "electric_scooter", "fusion_lon": 0.0, "is_disabled": 0, "is_reserved": 0, "bike_id": "93d7edcdf853a19f697eebeb218df324", "lon": -77.00949966666667}, {"fusion_lat": 0.0, "lat": 38.857915, "rental_uris": {"ios": "https://dc.lft.to/lastmile_qr_scan", "android": "https://dc.lft.to/lastmile_qr_scan"}, "name": "80ea54666b1130b8baf800a3bf3f52fa", "type": "electric_bike", "fusion_lon": 0.0, "is_disabled": 0, "is_reserved": 0, "bike_id": "80ea54666b1130b8baf800a3bf3f52fa", "lon": -77.09957283333334}, {"fusion_lat": 0.0, "lat": 38.816114166666665, "rental_uris": {"ios": "https://dc.lft.to/lastmile_qr_scan", "android": "https://dc.lft.to/lastmile_qr_scan"}, "name": "8a7ad48f20235e2210979b27484d75af", "type": "electric_bike", "fusion_lon": 0.0, "is_disabled": 0, "is_reserved": 0, "bike_id": "8a7ad48f20235e2210979b27484d75af", "lon": -76.9966115}, {"fusion_lat": 0.0, "lat": 39.01418133333333, "rental_uris": {"ios": "https://dc.lft.to/lastmile_qr_scan", "android": "https://dc.lft.to/lastmile_qr_scan"}, "name": "c65d411dbc4cfe41024fd3979b423c08", "type": "electric_bike", "fusion_lon": 0.0, "is_disabled": 0, "is_reserved": 0, "bike_id": "c65d411dbc4cfe41024fd3979b423c08", "lon": -77.04496883333333}, {"fusion_lat": 0.0, "lat": 38.88508433333333, "rental_uris": {"ios": "https://dc.lft.to/lastmile_qr_scan", "android": "https://dc.lft.to/lastmile_qr_scan"}, "name": "0765a69ffdea565cfaed52f9252da5b3", "type": "electric_scooter", "fusion_lon": 0.0, "is_disabled": 0, "is_reserved": 0, "bike_id": "0765a69ffdea565cfaed52f9252da5b3", "lon": -76.99753583333333}, {"fusion_lat": 0.0, "lat": 38.89816, "rental_uris": {"ios": "https://dc.lft.to/lastmile_qr_scan", "android": "https://dc.lft.to/lastmile_qr_scan"}, "name": "f182105b326201f9809a45f9c14218ac", "type": "electric_bike", "fusion_lon": 0.0, "is_disabled": 0, "is_reserved": 0, "bike_id": "f182105b326201f9809a45f9c14218ac", "lon": -76.99085}, {"fusion_lat": 0.0, "lat": 38.9182965, "rental_uris": {"ios": "https://dc.lft.to/lastmile_qr_scan", "android": "https://dc.lft.to/lastmile_qr_scan"}, "name": "3b7ddbc2da1a5e0ae9179cea7ddecf18", "type": "electric_scooter", "fusion_lon": 0.0, "is_disabled": 0, "is_reserved": 0, "bike_id": "3b7ddbc2da1a5e0ae9179cea7ddecf18", "lon": -77.031762}, {"fusion_lat": 0.0, "lat": 38.93047883333333, "rental_uris": {"ios": "https://dc.lft.to/lastmile_qr_scan", "android": "https://dc.lft.to/lastmile_qr_scan"}, "name": "a8ad6d3d0e8a98001e6b36a2b49335bf", "type": "electric_bike", "fusion_lon": 0.0, "is_disabled": 0, "is_reserved": 0, "bike_id": "a8ad6d3d0e8a98001e6b36a2b49335bf", "lon": -76.9583445}, {"fusion_lat": 0.0, "lat": 38.895309833333336, "rental_uris": {"ios": "https://dc.lft.to/lastmile_qr_scan", "android": "https://dc.lft.to/lastmile_qr_scan"}, "name": "862df64c2c73cfa772f4c1f549e45c83", "type": "electric_scooter", "fusion_lon": 0.0, "is_disabled": 0, "is_reserved": 0, "bike_id": "862df64c2c73cfa772f4c1f549e45c83", "lon": -77.002084}, {"fusion_lat": 0.0, "lat": 38.9178085, "rental_uris": {"ios": "https://dc.lft.to/lastmile_qr_scan", "android": "https://dc.lft.to/lastmile_qr_scan"}, "name": "efaf321e819f638e84ee0683d7ceb205", "type": "electric_scooter", "fusion_lon": 0.0, "is_disabled": 0, "is_reserved": 0, "bike_id": "efaf321e819f638e84ee0683d7ceb205", "lon": -77.01918083333334}, {"fusion_lat": 0.0, "lat": 38.909113833333336, "rental_uris": {"ios": "https://dc.lft.to/lastmile_qr_scan", "android": "https://dc.lft.to/lastmile_qr_scan"}, "name": "1622454ac13cac2ffe1053367d364cf1", "type": "electric_scooter", "fusion_lon": 0.0, "is_disabled": 0, "is_reserved": 0, "bike_id": "1622454ac13cac2ffe1053367d364cf1", "lon": -76.9863035}, {"fusion_lat": 0.0, "lat": 38.90475633333333, "rental_uris": {"ios": "https://dc.lft.to/lastmile_qr_scan", "android": "https://dc.lft.to/lastmile_qr_scan"}, "name": "7e242489c0260e026e01698effa8b060", "type": "electric_scooter", "fusion_lon": 0.0, "is_disabled": 0, "is_reserved": 0, "bike_id": "7e242489c0260e026e01698effa8b060", "lon": -76.9823695}, {"fusion_lat": 0.0, "lat": 38.925534, "rental_uris": {"ios": "https://dc.lft.to/lastmile_qr_scan", "android": "https://dc.lft.to/lastmile_qr_scan"}, "name": "6d6757727a110a4a2cb90405f27adf34", "type": "electric_scooter", "fusion_lon": 0.0, "is_disabled": 0, "is_reserved": 0, "bike_id": "6d6757727a110a4a2cb90405f27adf34", "lon": -77.00066483333333}, {"fusion_lat": 0.0, "lat": 38.902286333333336, "rental_uris": {"ios": "https://dc.lft.to/lastmile_qr_scan", "android": "https://dc.lft.to/lastmile_qr_scan"}, "name": "6fc1fc697d8d2af986767c716af21808", "type": "electric_scooter", "fusion_lon": 0.0, "is_disabled": 0, "is_reserved": 0, "bike_id": "6fc1fc697d8d2af986767c716af21808", "lon": -77.0210335}, {"fusion_lat": 0.0, "lat": 38.917106833333335, "rental_uris": {"ios": "https://dc.lft.to/lastmile_qr_scan", "android": "https://dc.lft.to/lastmile_qr_scan"}, "name": "530501e71d467436cf0f581cfd502285", "type": "electric_scooter", "fusion_lon": 0.0, "is_disabled": 0, "is_reserved": 0, "bike_id": "530501e71d467436cf0f581cfd502285", "lon": -77.04125233333333}, {"fusion_lat": 0.0, "lat": 38.90865516666667, "rental_uris": {"ios": "https://dc.lft.to/lastmile_qr_scan", "android": "https://dc.lft.to/lastmile_qr_scan"}, "name": "f134255a5df80ad0874d26fb5ccc1903", "type": "electric_scooter", "fusion_lon": 0.0, "is_disabled": 0, "is_reserved": 0, "bike_id": "f134255a5df80ad0874d26fb5ccc1903", "lon": -77.042697}, {"fusion_lat": 0.0, "lat": 38.9353715, "rental_uris": {"ios": "https://dc.lft.to/lastmile_qr_scan", "android": "https://dc.lft.to/lastmile_qr_scan"}, "name": "8395a3c9629d06ece01befb02e7e3072", "type": "electric_scooter", "fusion_lon": 0.0, "is_disabled": 0, "is_reserved": 0, "bike_id": "8395a3c9629d06ece01befb02e7e3072", "lon": -77.02348016666667}, {"fusion_lat": 0.0, "lat": 38.91365716666667, "rental_uris": {"ios": "https://dc.lft.to/lastmile_qr_scan", "android": "https://dc.lft.to/lastmile_qr_scan"}, "name": "39ecbd939b2f94a0872978bd3d4528b8", "type": "electric_scooter", "fusion_lon": 0.0, "is_disabled": 0, "is_reserved": 0, "bike_id": "39ecbd939b2f94a0872978bd3d4528b8", "lon": -77.02191266666667}, {"fusion_lat": 0.0, "lat": 38.915662166666664, "rental_uris": {"ios": "https://dc.lft.to/lastmile_qr_scan", "android": "https://dc.lft.to/lastmile_qr_scan"}, "name": "8eaf6001aed7445c40081083fa3b8615", "type": "electric_scooter", "fusion_lon": 0.0, "is_disabled": 0, "is_reserved": 0, "bike_id": "8eaf6001aed7445c40081083fa3b8615", "lon": -77.0119995}, {"fusion_lat": 0.0, "lat": 38.920448, "rental_uris": {"ios": "https://dc.lft.to/lastmile_qr_scan", "android": "https://dc.lft.to/lastmile_qr_scan"}, "name": "85325a70c26fca02c26cf2a14cd67eed", "type": "electric_scooter", "fusion_lon": 0.0, "is_disabled": 0, "is_reserved": 0, "bike_id": "85325a70c26fca02c26cf2a14cd67eed", "lon": -77.01669916666667}, {"fusion_lat": 0.0, "lat": 38.89236733333333, "rental_uris": {"ios": "https://dc.lft.to/lastmile_qr_scan", "android": "https://dc.lft.to/lastmile_qr_scan"}, "name": "b2788e271bef6827e9454fc36f5d47d0", "type": "electric_scooter", "fusion_lon": 0.0, "is_disabled": 0, "is_reserved": 0, "bike_id": "b2788e271bef6827e9454fc36f5d47d0", "lon": -77.02183133333334}, {"fusion_lat": 0.0, "lat": 38.887444, "rental_uris": {"ios": "https://dc.lft.to/lastmile_qr_scan", "android": "https://dc.lft.to/lastmile_qr_scan"}, "name": "9a865be063dde42c965baf4835f7541d", "type": "electric_scooter", "fusion_lon": 0.0, "is_disabled": 0, "is_reserved": 0, "bike_id": "9a865be063dde42c965baf4835f7541d", "lon": -77.028406}, {"fusion_lat": 0.0, "lat": 38.92150383333333, "rental_uris": {"ios": "https://dc.lft.to/lastmile_qr_scan", "android": "https://dc.lft.to/lastmile_qr_scan"}, "name": "fdf2add82b73c1e9009b0ac18d95a6dc", "type": "electric_scooter", "fusion_lon": 0.0, "is_disabled": 0, "is_reserved": 0, "bike_id": "fdf2add82b73c1e9009b0ac18d95a6dc", "lon": -77.04238616666666}, {"fusion_lat": 0.0, "lat": 38.8924945, "rental_uris": {"ios": "https://dc.lft.to/lastmile_qr_scan", "android": "https://dc.lft.to/lastmile_qr_scan"}, "name": "d73f8ae164c08089477c782efa47ebdb", "type": "electric_scooter", "fusion_lon": 0.0, "is_disabled": 0, "is_reserved": 0, "bike_id": "d73f8ae164c08089477c782efa47ebdb", "lon": -77.03958466666667}, {"fusion_lat": 0.0, "lat": 38.9282345, "rental_uris": {"ios": "https://dc.lft.to/lastmile_qr_scan", "android": "https://dc.lft.to/lastmile_qr_scan"}, "name": "2295a9b3e09afa4da6572c744aea2f8f", "type": "electric_scooter", "fusion_lon": 0.0, "is_disabled": 0, "is_reserved": 0, "bike_id": "2295a9b3e09afa4da6572c744aea2f8f", "lon": -77.026253}, {"fusion_lat": 0.0, "lat": 38.932914333333336, "rental_uris": {"ios": "https://dc.lft.to/lastmile_qr_scan", "android": "https://dc.lft.to/lastmile_qr_scan"}, "name": "eb40eeda05919d18d4aaac5f8ce12e43", "type": "electric_scooter", "fusion_lon": 0.0, "is_disabled": 0, "is_reserved": 0, "bike_id": "eb40eeda05919d18d4aaac5f8ce12e43", "lon": -77.02837216666667}, {"fusion_lat": 0.0, "lat": 38.83946, "rental_uris": {"ios": "https://dc.lft.to/lastmile_qr_scan", "android": "https://dc.lft.to/lastmile_qr_scan"}, "name": "4d82aafdce7def9112c83a4dab773903", "type": "electric_bike", "fusion_lon": 0.0, "is_disabled": 0, "is_reserved": 0, "bike_id": "4d82aafdce7def9112c83a4dab773903", "lon": -77.08751666666667}, {"fusion_lat": 0.0, "lat": 38.902633333333334, "rental_uris": {"ios": "https://dc.lft.to/lastmile_qr_scan", "android": "https://dc.lft.to/lastmile_qr_scan"}, "name": "6cb5ebc2d391cd8fda9cda0bc525582b", "type": "electric_scooter", "fusion_lon": 0.0, "is_disabled": 0, "is_reserved": 0, "bike_id": "6cb5ebc2d391cd8fda9cda0bc525582b", "lon": -77.01696783333334}, {"fusion_lat": 0.0, "lat": 38.927041333333335, "rental_uris": {"ios": "https://dc.lft.to/lastmile_qr_scan", "android": "https://dc.lft.to/lastmile_qr_scan"}, "name": "92c785f48e887436ebbceb7e62dd3431", "type": "electric_scooter", "fusion_lon": 0.0, "is_disabled": 0, "is_reserved": 0, "bike_id": "92c785f48e887436ebbceb7e62dd3431", "lon": -77.03579966666666}, {"fusion_lat": 0.0, "lat": 38.92361, "rental_uris": {"ios": "https://dc.lft.to/lastmile_qr_scan", "android": "https://dc.lft.to/lastmile_qr_scan"}, "name": "5e9f88d230379db2c2101106530abdb6", "type": "electric_scooter", "fusion_lon": 0.0, "is_disabled": 0, "is_reserved": 0, "bike_id": "5e9f88d230379db2c2101106530abdb6", "lon": -77.050553}, {"fusion_lat": 0.0, "lat": 38.927009166666664, "rental_uris": {"ios": "https://dc.lft.to/lastmile_qr_scan", "android": "https://dc.lft.to/lastmile_qr_scan"}, "name": "2631e49064b93bb57aefe21ea84fe813", "type": "electric_scooter", "fusion_lon": 0.0, "is_disabled": 0, "is_reserved": 0, "bike_id": "2631e49064b93bb57aefe21ea84fe813", "lon": -77.0242915}, {"fusion_lat": 0.0, "lat": 38.9231545, "rental_uris": {"ios": "https://dc.lft.to/lastmile_qr_scan", "android": "https://dc.lft.to/lastmile_qr_scan"}, "name": "c7a758b0e380ddf5c62d2209c6638f11", "type": "electric_scooter", "fusion_lon": 0.0, "is_disabled": 0, "is_reserved": 0, "bike_id": "c7a758b0e380ddf5c62d2209c6638f11", "lon": -77.04516833333334}, {"fusion_lat": 0.0, "lat": 38.896237666666664, "rental_uris": {"ios": "https://dc.lft.to/lastmile_qr_scan", "android": "https://dc.lft.to/lastmile_qr_scan"}, "name": "8cdf2c4291c0217c132b05483913dfaa", "type": "electric_scooter", "fusion_lon": 0.0, "is_disabled": 0, "is_reserved": 0, "bike_id": "8cdf2c4291c0217c132b05483913dfaa", "lon": -77.00920166666667}, {"fusion_lat": 0.0, "lat": 38.926333166666666, "rental_uris": {"ios": "https://dc.lft.to/lastmile_qr_scan", "android": "https://dc.lft.to/lastmile_qr_scan"}, "name": "1488c8e4ff12923c61425448e048e79e", "type": "electric_scooter", "fusion_lon": 0.0, "is_disabled": 0, "is_reserved": 0, "bike_id": "1488c8e4ff12923c61425448e048e79e", "lon": -77.03705533333333}, {"fusion_lat": 0.0, "lat": 38.900392833333335, "rental_uris": {"ios": "https://dc.lft.to/lastmile_qr_scan", "android": "https://dc.lft.to/lastmile_qr_scan"}, "name": "18216f723142d0ee36a3ee0715b400d0", "type": "electric_scooter", "fusion_lon": 0.0, "is_disabled": 0, "is_reserved": 0, "bike_id": "18216f723142d0ee36a3ee0715b400d0", "lon": -77.001841}, {"fusion_lat": 0.0, "lat": 38.88489383333334, "rental_uris": {"ios": "https://dc.lft.to/lastmile_qr_scan", "android": "https://dc.lft.to/lastmile_qr_scan"}, "name": "232478370b5cf7f11f682ae86e0c1e5b", "type": "electric_scooter", "fusion_lon": 0.0, "is_disabled": 0, "is_reserved": 0, "bike_id": "232478370b5cf7f11f682ae86e0c1e5b", "lon": -76.95651466666666}, {"fusion_lat": 0.0, "lat": 38.916484833333335, "rental_uris": {"ios": "https://dc.lft.to/lastmile_qr_scan", "android": "https://dc.lft.to/lastmile_qr_scan"}, "name": "036e4c6dbf86102e965d8f595f26c6db", "type": "electric_scooter", "fusion_lon": 0.0, "is_disabled": 0, "is_reserved": 0, "bike_id": "036e4c6dbf86102e965d8f595f26c6db", "lon": -77.03197866666666}, {"fusion_lat": 0.0, "lat": 38.8739765, "rental_uris": {"ios": "https://dc.lft.to/lastmile_qr_scan", "android": "https://dc.lft.to/lastmile_qr_scan"}, "name": "27757c42dd261936ed9f391c21af729f", "type": "electric_scooter", "fusion_lon": 0.0, "is_disabled": 0, "is_reserved": 0, "bike_id": "27757c42dd261936ed9f391c21af729f", "lon": -77.00009133333333}, {"fusion_lat": 0.0, "lat": 38.90388166666666, "rental_uris": {"ios": "https://dc.lft.to/lastmile_qr_scan", "android": "https://dc.lft.to/lastmile_qr_scan"}, "name": "5d9cceca6ae5ce7854d11f00e4a1d1d9", "type": "electric_scooter", "fusion_lon": 0.0, "is_disabled": 0, "is_reserved": 0, "bike_id": "5d9cceca6ae5ce7854d11f00e4a1d1d9", "lon": -77.00188816666666}, {"fusion_lat": 0.0, "lat": 38.901131, "rental_uris": {"ios": "https://dc.lft.to/lastmile_qr_scan", "android": "https://dc.lft.to/lastmile_qr_scan"}, "name": "6623ff10624101a6b90376edc2a82eac", "type": "electric_scooter", "fusion_lon": 0.0, "is_disabled": 0, "is_reserved": 0, "bike_id": "6623ff10624101a6b90376edc2a82eac", "lon": -77.0317765}, {"fusion_lat": 0.0, "lat": 38.875775833333336, "rental_uris": {"ios": "https://dc.lft.to/lastmile_qr_scan", "android": "https://dc.lft.to/lastmile_qr_scan"}, "name": "1c67a5571f831a9af01edd71d43a54a1", "type": "electric_scooter", "fusion_lon": 0.0, "is_disabled": 0, "is_reserved": 0, "bike_id": "1c67a5571f831a9af01edd71d43a54a1", "lon": -77.00598366666667}, {"fusion_lat": 0.0, "lat": 38.954974166666666, "rental_uris": {"ios": "https://dc.lft.to/lastmile_qr_scan", "android": "https://dc.lft.to/lastmile_qr_scan"}, "name": "3bf52b75cc3bdfe1af0502956b504aa4", "type": "electric_scooter", "fusion_lon": 0.0, "is_disabled": 0, "is_reserved": 0, "bike_id": "3bf52b75cc3bdfe1af0502956b504aa4", "lon": -77.017257}, {"fusion_lat": 0.0, "lat": 38.928310833333335, "rental_uris": {"ios": "https://dc.lft.to/lastmile_qr_scan", "android": "https://dc.lft.to/lastmile_qr_scan"}, "name": "057f96861193a3f7bf3902e011a4105e", "type": "electric_scooter", "fusion_lon": 0.0, "is_disabled": 0, "is_reserved": 0, "bike_id": "057f96861193a3f7bf3902e011a4105e", "lon": -77.01423183333333}, {"fusion_lat": 0.0, "lat": 38.924737, "rental_uris": {"ios": "https://dc.lft.to/lastmile_qr_scan", "android": "https://dc.lft.to/lastmile_qr_scan"}, "name": "1acf1b547edb2208a3718e22632b8610", "type": "electric_scooter", "fusion_lon": 0.0, "is_disabled": 0, "is_reserved": 0, "bike_id": "1acf1b547edb2208a3718e22632b8610", "lon": -77.038205}, {"fusion_lat": 0.0, "lat": 38.916274666666666, "rental_uris": {"ios": "https://dc.lft.to/lastmile_qr_scan", "android": "https://dc.lft.to/lastmile_qr_scan"}, "name": "7e916d9752e88f25ad141f658341e16b", "type": "electric_scooter", "fusion_lon": 0.0, "is_disabled": 0, "is_reserved": 0, "bike_id": "7e916d9752e88f25ad141f658341e16b", "lon": -77.0400295}, {"fusion_lat": 0.0, "lat": 38.892217, "rental_uris": {"ios": "https://dc.lft.to/lastmile_qr_scan", "android": "https://dc.lft.to/lastmile_qr_scan"}, "name": "436a9c09d67ff0facb54ef3ebac00aef", "type": "electric_scooter", "fusion_lon": 0.0, "is_disabled": 0, "is_reserved": 0, "bike_id": "436a9c09d67ff0facb54ef3ebac00aef", "lon": -77.04194183333334}, {"fusion_lat": 0.0, "lat": 38.910651, "rental_uris": {"ios": "https://dc.lft.to/lastmile_qr_scan", "android": "https://dc.lft.to/lastmile_qr_scan"}, "name": "64d5617d810012943e6ccca39ba4f254", "type": "electric_scooter", "fusion_lon": 0.0, "is_disabled": 0, "is_reserved": 0, "bike_id": "64d5617d810012943e6ccca39ba4f254", "lon": -77.0437965}, {"fusion_lat": 0.0, "lat": 38.90540433333334, "rental_uris": {"ios": "https://dc.lft.to/lastmile_qr_scan", "android": "https://dc.lft.to/lastmile_qr_scan"}, "name": "f333bbb6d352c4919fa0e295f9005dea", "type": "electric_scooter", "fusion_lon": 0.0, "is_disabled": 0, "is_reserved": 0, "bike_id": "f333bbb6d352c4919fa0e295f9005dea", "lon": -77.04323166666667}, {"fusion_lat": 0.0, "lat": 38.92368366666667, "rental_uris": {"ios": "https://dc.lft.to/lastmile_qr_scan", "android": "https://dc.lft.to/lastmile_qr_scan"}, "name": "52662c2f95432eb2de5ff52f8cc936fa", "type": "electric_scooter", "fusion_lon": 0.0, "is_disabled": 0, "is_reserved": 0, "bike_id": "52662c2f95432eb2de5ff52f8cc936fa", "lon": -77.01905833333333}, {"fusion_lat": 0.0, "lat": 38.9392705, "rental_uris": {"ios": "https://dc.lft.to/lastmile_qr_scan", "android": "https://dc.lft.to/lastmile_qr_scan"}, "name": "9f9beb416c6e6677b5a722269d21225c", "type": "electric_scooter", "fusion_lon": 0.0, "is_disabled": 0, "is_reserved": 0, "bike_id": "9f9beb416c6e6677b5a722269d21225c", "lon": -77.02791866666666}, {"fusion_lat": 0.0, "lat": 38.9062515, "rental_uris": {"ios": "https://dc.lft.to/lastmile_qr_scan", "android": "https://dc.lft.to/lastmile_qr_scan"}, "name": "c4ec3f4e1fc28192cfb210499728c98a", "type": "electric_scooter", "fusion_lon": 0.0, "is_disabled": 0, "is_reserved": 0, "bike_id": "c4ec3f4e1fc28192cfb210499728c98a", "lon": -77.010149}, {"fusion_lat": 0.0, "lat": 38.934311666666666, "rental_uris": {"ios": "https://dc.lft.to/lastmile_qr_scan", "android": "https://dc.lft.to/lastmile_qr_scan"}, "name": "076ed909055b98b8df382551ce9363cc", "type": "electric_scooter", "fusion_lon": 0.0, "is_disabled": 0, "is_reserved": 0, "bike_id": "076ed909055b98b8df382551ce9363cc", "lon": -77.05583266666666}, {"fusion_lat": 0.0, "lat": 38.90085116666667, "rental_uris": {"ios": "https://dc.lft.to/lastmile_qr_scan", "android": "https://dc.lft.to/lastmile_qr_scan"}, "name": "fdedc9ce20c25fb1f7a12626c49ca6db", "type": "electric_scooter", "fusion_lon": 0.0, "is_disabled": 0, "is_reserved": 0, "bike_id": "fdedc9ce20c25fb1f7a12626c49ca6db", "lon": -77.02685833333334}, {"fusion_lat": 0.0, "lat": 38.917122666666664, "rental_uris": {"ios": "https://dc.lft.to/lastmile_qr_scan", "android": "https://dc.lft.to/lastmile_qr_scan"}, "name": "571f5b39d00311c544c9489cc01e0f5e", "type": "electric_scooter", "fusion_lon": 0.0, "is_disabled": 0, "is_reserved": 0, "bike_id": "571f5b39d00311c544c9489cc01e0f5e", "lon": -77.02293883333333}, {"fusion_lat": 0.0, "lat": 38.87712483333333, "rental_uris": {"ios": "https://dc.lft.to/lastmile_qr_scan", "android": "https://dc.lft.to/lastmile_qr_scan"}, "name": "542d5549eae675346a0fd823f3451325", "type": "electric_scooter", "fusion_lon": 0.0, "is_disabled": 0, "is_reserved": 0, "bike_id": "542d5549eae675346a0fd823f3451325", "lon": -77.00430533333333}, {"fusion_lat": 0.0, "lat": 38.89538833333334, "rental_uris": {"ios": "https://dc.lft.to/lastmile_qr_scan", "android": "https://dc.lft.to/lastmile_qr_scan"}, "name": "5ae6fee497312c74af2c12a9cf3b0236", "type": "electric_scooter", "fusion_lon": 0.0, "is_disabled": 0, "is_reserved": 0, "bike_id": "5ae6fee497312c74af2c12a9cf3b0236", "lon": -77.04844916666667}, {"fusion_lat": 0.0, "lat": 38.88746366666667, "rental_uris": {"ios": "https://dc.lft.to/lastmile_qr_scan", "android": "https://dc.lft.to/lastmile_qr_scan"}, "name": "2c18347ceece4f23208daf0401d0a546", "type": "electric_scooter", "fusion_lon": 0.0, "is_disabled": 0, "is_reserved": 0, "bike_id": "2c18347ceece4f23208daf0401d0a546", "lon": -77.02835466666667}, {"fusion_lat": 0.0, "lat": 38.8645015, "rental_uris": {"ios": "https://dc.lft.to/lastmile_qr_scan", "android": "https://dc.lft.to/lastmile_qr_scan"}, "name": "6e1fcde9b16ca102516c744448dbec8d", "type": "electric_bike", "fusion_lon": 0.0, "is_disabled": 0, "is_reserved": 0, "bike_id": "6e1fcde9b16ca102516c744448dbec8d", "lon": -77.10686333333334}, {"fusion_lat": 0.0, "lat": 38.919799166666664, "rental_uris": {"ios": "https://dc.lft.to/lastmile_qr_scan", "android": "https://dc.lft.to/lastmile_qr_scan"}, "name": "0ac0a5fb6f88995df75b13a5d8b75e52", "type": "electric_scooter", "fusion_lon": 0.0, "is_disabled": 0, "is_reserved": 0, "bike_id": "0ac0a5fb6f88995df75b13a5d8b75e52", "lon": -77.0217515}, {"fusion_lat": 0.0, "lat": 38.8769085, "rental_uris": {"ios": "https://dc.lft.to/lastmile_qr_scan", "android": "https://dc.lft.to/lastmile_qr_scan"}, "name": "f615735908bb7dc214cc76a47c8279c6", "type": "electric_scooter", "fusion_lon": 0.0, "is_disabled": 0, "is_reserved": 0, "bike_id": "f615735908bb7dc214cc76a47c8279c6", "lon": -77.004413}, {"fusion_lat": 0.0, "lat": 38.93475883333333, "rental_uris": {"ios": "https://dc.lft.to/lastmile_qr_scan", "android": "https://dc.lft.to/lastmile_qr_scan"}, "name": "99b8311db9f935049d152b68e29bd400", "type": "electric_scooter", "fusion_lon": 0.0, "is_disabled": 0, "is_reserved": 0, "bike_id": "99b8311db9f935049d152b68e29bd400", "lon": -77.08663566666667}, {"fusion_lat": 0.0, "lat": 38.938837666666664, "rental_uris": {"ios": "https://dc.lft.to/lastmile_qr_scan", "android": "https://dc.lft.to/lastmile_qr_scan"}, "name": "311122c0996aeef1998c26e5b6c8c321", "type": "electric_scooter", "fusion_lon": 0.0, "is_disabled": 0, "is_reserved": 0, "bike_id": "311122c0996aeef1998c26e5b6c8c321", "lon": -77.03262283333333}, {"fusion_lat": 0.0, "lat": 38.89730766666667, "rental_uris": {"ios": "https://dc.lft.to/lastmile_qr_scan", "android": "https://dc.lft.to/lastmile_qr_scan"}, "name": "567eb9e4a1b124bc64a4c61b5cd33074", "type": "electric_scooter", "fusion_lon": 0.0, "is_disabled": 0, "is_reserved": 0, "bike_id": "567eb9e4a1b124bc64a4c61b5cd33074", "lon": -77.0437045}, {"fusion_lat": 0.0, "lat": 38.902762333333335, "rental_uris": {"ios": "https://dc.lft.to/lastmile_qr_scan", "android": "https://dc.lft.to/lastmile_qr_scan"}, "name": "aac67acc360096033261235748669271", "type": "electric_scooter", "fusion_lon": 0.0, "is_disabled": 0, "is_reserved": 0, "bike_id": "aac67acc360096033261235748669271", "lon": -77.03531933333333}, {"fusion_lat": 0.0, "lat": 38.905226, "rental_uris": {"ios": "https://dc.lft.to/lastmile_qr_scan", "android": "https://dc.lft.to/lastmile_qr_scan"}, "name": "3c0f2bfec97e38faf9deecb4af4395a5", "type": "electric_scooter", "fusion_lon": 0.0, "is_disabled": 0, "is_reserved": 0, "bike_id": "3c0f2bfec97e38faf9deecb4af4395a5", "lon": -77.06299183333333}, {"fusion_lat": 0.0, "lat": 38.92068316666666, "rental_uris": {"ios": "https://dc.lft.to/lastmile_qr_scan", "android": "https://dc.lft.to/lastmile_qr_scan"}, "name": "04a974186da2e0cf2046bbd0d82571cf", "type": "electric_scooter", "fusion_lon": 0.0, "is_disabled": 0, "is_reserved": 0, "bike_id": "04a974186da2e0cf2046bbd0d82571cf", "lon": -77.037906}, {"fusion_lat": 0.0, "lat": 38.920326833333334, "rental_uris": {"ios": "https://dc.lft.to/lastmile_qr_scan", "android": "https://dc.lft.to/lastmile_qr_scan"}, "name": "32e2c39820f98b29c957c78dc3d95b6f", "type": "electric_scooter", "fusion_lon": 0.0, "is_disabled": 0, "is_reserved": 0, "bike_id": "32e2c39820f98b29c957c78dc3d95b6f", "lon": -77.00298183333334}, {"fusion_lat": 0.0, "lat": 38.88487416666667, "rental_uris": {"ios": "https://dc.lft.to/lastmile_qr_scan", "android": "https://dc.lft.to/lastmile_qr_scan"}, "name": "df2945dea197ec9145e118033c063455", "type": "electric_scooter", "fusion_lon": 0.0, "is_disabled": 0, "is_reserved": 0, "bike_id": "df2945dea197ec9145e118033c063455", "lon": -77.00710216666667}, {"fusion_lat": 0.0, "lat": 38.87244533333333, "rental_uris": {"ios": "https://dc.lft.to/lastmile_qr_scan", "android": "https://dc.lft.to/lastmile_qr_scan"}, "name": "e3bd3d5075594cae2cb44a9d514acc26", "type": "electric_scooter", "fusion_lon": 0.0, "is_disabled": 0, "is_reserved": 0, "bike_id": "e3bd3d5075594cae2cb44a9d514acc26", "lon": -76.97721716666666}, {"fusion_lat": 0.0, "lat": 38.904124, "rental_uris": {"ios": "https://dc.lft.to/lastmile_qr_scan", "android": "https://dc.lft.to/lastmile_qr_scan"}, "name": "7923efbef49866e9f9bc2c104e5d13a1", "type": "electric_scooter", "fusion_lon": 0.0, "is_disabled": 0, "is_reserved": 0, "bike_id": "7923efbef49866e9f9bc2c104e5d13a1", "lon": -76.97326216666667}, {"fusion_lat": 0.0, "lat": 38.98769983333333, "rental_uris": {"ios": "https://dc.lft.to/lastmile_qr_scan", "android": "https://dc.lft.to/lastmile_qr_scan"}, "name": "3f224eebda97dbf68e5ca0de98a49df6", "type": "electric_bike", "fusion_lon": 0.0, "is_disabled": 0, "is_reserved": 0, "bike_id": "3f224eebda97dbf68e5ca0de98a49df6", "lon": -77.1405395}, {"fusion_lat": 0.0, "lat": 38.883121833333334, "rental_uris": {"ios": "https://dc.lft.to/lastmile_qr_scan", "android": "https://dc.lft.to/lastmile_qr_scan"}, "name": "f2af851c577a9eed02dd7eaf574d1fcd", "type": "electric_scooter", "fusion_lon": 0.0, "is_disabled": 0, "is_reserved": 0, "bike_id": "f2af851c577a9eed02dd7eaf574d1fcd", "lon": -77.01776333333333}, {"fusion_lat": 0.0, "lat": 38.914566, "rental_uris": {"ios": "https://dc.lft.to/lastmile_qr_scan", "android": "https://dc.lft.to/lastmile_qr_scan"}, "name": "844f6dbded20f3ab899feb0fa3a40328", "type": "electric_scooter", "fusion_lon": 0.0, "is_disabled": 0, "is_reserved": 0, "bike_id": "844f6dbded20f3ab899feb0fa3a40328", "lon": -77.0020725}, {"fusion_lat": 0.0, "lat": 38.898291666666665, "rental_uris": {"ios": "https://dc.lft.to/lastmile_qr_scan", "android": "https://dc.lft.to/lastmile_qr_scan"}, "name": "a9de92c424be75df4813668ba20e7640", "type": "electric_scooter", "fusion_lon": 0.0, "is_disabled": 0, "is_reserved": 0, "bike_id": "a9de92c424be75df4813668ba20e7640", "lon": -77.03337533333334}, {"fusion_lat": 0.0, "lat": 38.896227, "rental_uris": {"ios": "https://dc.lft.to/lastmile_qr_scan", "android": "https://dc.lft.to/lastmile_qr_scan"}, "name": "05c1c48f1686ad18cc4421a5b2eb88f3", "type": "electric_scooter", "fusion_lon": 0.0, "is_disabled": 0, "is_reserved": 0, "bike_id": "05c1c48f1686ad18cc4421a5b2eb88f3", "lon": -77.00923016666667}, {"fusion_lat": 0.0, "lat": 38.8963935, "rental_uris": {"ios": "https://dc.lft.to/lastmile_qr_scan", "android": "https://dc.lft.to/lastmile_qr_scan"}, "name": "7442e1fda28d36f93fe4cdb4998a75f9", "type": "electric_scooter", "fusion_lon": 0.0, "is_disabled": 0, "is_reserved": 0, "bike_id": "7442e1fda28d36f93fe4cdb4998a75f9", "lon": -77.0260685}, {"fusion_lat": 0.0, "lat": 38.87374916666667, "rental_uris": {"ios": "https://dc.lft.to/lastmile_qr_scan", "android": "https://dc.lft.to/lastmile_qr_scan"}, "name": "210b8da212489adaf20600b3a4b760e8", "type": "electric_scooter", "fusion_lon": 0.0, "is_disabled": 0, "is_reserved": 0, "bike_id": "210b8da212489adaf20600b3a4b760e8", "lon": -76.97002683333334}, {"fusion_lat": 0.0, "lat": 38.93915233333333, "rental_uris": {"ios": "https://dc.lft.to/lastmile_qr_scan", "android": "https://dc.lft.to/lastmile_qr_scan"}, "name": "370fc29b99849fea458369a6ded1cab2", "type": "electric_scooter", "fusion_lon": 0.0, "is_disabled": 0, "is_reserved": 0, "bike_id": "370fc29b99849fea458369a6ded1cab2", "lon": -77.03623966666666}, {"fusion_lat": 0.0, "lat": 38.92059066666667, "rental_uris": {"ios": "https://dc.lft.to/lastmile_qr_scan", "android": "https://dc.lft.to/lastmile_qr_scan"}, "name": "00d7249aabc34e4205785bfe8e507ddd", "type": "electric_scooter", "fusion_lon": 0.0, "is_disabled": 0, "is_reserved": 0, "bike_id": "00d7249aabc34e4205785bfe8e507ddd", "lon": -77.02533133333333}, {"fusion_lat": 0.0, "lat": 39.05255916666667, "rental_uris": {"ios": "https://dc.lft.to/lastmile_qr_scan", "android": "https://dc.lft.to/lastmile_qr_scan"}, "name": "5ec11bd26e303c9777964ec270ed2fff", "type": "electric_bike", "fusion_lon": 0.0, "is_disabled": 0, "is_reserved": 0, "bike_id": "5ec11bd26e303c9777964ec270ed2fff", "lon": -77.08063833333334}, {"fusion_lat": 0.0, "lat": 38.9098585, "rental_uris": {"ios": "https://dc.lft.to/lastmile_qr_scan", "android": "https://dc.lft.to/lastmile_qr_scan"}, "name": "2c97fded42e92359bbf32957615f760e", "type": "electric_scooter", "fusion_lon": 0.0, "is_disabled": 0, "is_reserved": 0, "bike_id": "2c97fded42e92359bbf32957615f760e", "lon": -77.064975}, {"fusion_lat": 0.0, "lat": 38.883460166666666, "rental_uris": {"ios": "https://dc.lft.to/lastmile_qr_scan", "android": "https://dc.lft.to/lastmile_qr_scan"}, "name": "97f46b206d9ef6160fb719daeef2847e", "type": "electric_scooter", "fusion_lon": 0.0, "is_disabled": 0, "is_reserved": 0, "bike_id": "97f46b206d9ef6160fb719daeef2847e", "lon": -77.01741733333333}, {"fusion_lat": 0.0, "lat": 38.912647666666665, "rental_uris": {"ios": "https://dc.lft.to/lastmile_qr_scan", "android": "https://dc.lft.to/lastmile_qr_scan"}, "name": "86110f78c4f4d073f72ada8b19933e75", "type": "electric_scooter", "fusion_lon": 0.0, "is_disabled": 0, "is_reserved": 0, "bike_id": "86110f78c4f4d073f72ada8b19933e75", "lon": -77.04554016666667}, {"fusion_lat": 0.0, "lat": 38.873872666666664, "rental_uris": {"ios": "https://dc.lft.to/lastmile_qr_scan", "android": "https://dc.lft.to/lastmile_qr_scan"}, "name": "b6229f6488c48411cf505ddb6a5ff16f", "type": "electric_scooter", "fusion_lon": 0.0, "is_disabled": 0, "is_reserved": 0, "bike_id": "b6229f6488c48411cf505ddb6a5ff16f", "lon": -77.00190766666667}, {"fusion_lat": 0.0, "lat": 38.9190825, "rental_uris": {"ios": "https://dc.lft.to/lastmile_qr_scan", "android": "https://dc.lft.to/lastmile_qr_scan"}, "name": "cfae504fbbafcf01fa7243fcfd15c064", "type": "electric_scooter", "fusion_lon": 0.0, "is_disabled": 0, "is_reserved": 0, "bike_id": "cfae504fbbafcf01fa7243fcfd15c064", "lon": -77.04106}, {"fusion_lat": 0.0, "lat": 38.902723, "rental_uris": {"ios": "https://dc.lft.to/lastmile_qr_scan", "android": "https://dc.lft.to/lastmile_qr_scan"}, "name": "20be68b5eb48a5dd465a606b5879ca1d", "type": "electric_scooter", "fusion_lon": 0.0, "is_disabled": 0, "is_reserved": 0, "bike_id": "20be68b5eb48a5dd465a606b5879ca1d", "lon": -77.02961683333334}, {"fusion_lat": 0.0, "lat": 38.9128075, "rental_uris": {"ios": "https://dc.lft.to/lastmile_qr_scan", "android": "https://dc.lft.to/lastmile_qr_scan"}, "name": "37360a1da6db835eff4c3b2f319473d7", "type": "electric_scooter", "fusion_lon": 0.0, "is_disabled": 0, "is_reserved": 0, "bike_id": "37360a1da6db835eff4c3b2f319473d7", "lon": -76.98472533333333}, {"fusion_lat": 0.0, "lat": 38.926076333333334, "rental_uris": {"ios": "https://dc.lft.to/lastmile_qr_scan", "android": "https://dc.lft.to/lastmile_qr_scan"}, "name": "3f6eb39ea904dfdc0380bce398a243ef", "type": "electric_scooter", "fusion_lon": 0.0, "is_disabled": 0, "is_reserved": 0, "bike_id": "3f6eb39ea904dfdc0380bce398a243ef", "lon": -77.02152716666667}, {"fusion_lat": 0.0, "lat": 38.92370716666667, "rental_uris": {"ios": "https://dc.lft.to/lastmile_qr_scan", "android": "https://dc.lft.to/lastmile_qr_scan"}, "name": "9838a8c1bd16edb7cfe4438793471e0f", "type": "electric_scooter", "fusion_lon": 0.0, "is_disabled": 0, "is_reserved": 0, "bike_id": "9838a8c1bd16edb7cfe4438793471e0f", "lon": -77.01902333333334}, {"fusion_lat": 0.0, "lat": 38.92366066666666, "rental_uris": {"ios": "https://dc.lft.to/lastmile_qr_scan", "android": "https://dc.lft.to/lastmile_qr_scan"}, "name": "9404ce644fd1b2b2244ed261d2e6b253", "type": "electric_scooter", "fusion_lon": 0.0, "is_disabled": 0, "is_reserved": 0, "bike_id": "9404ce644fd1b2b2244ed261d2e6b253", "lon": -77.05028866666666}, {"fusion_lat": 0.0, "lat": 38.88494333333333, "rental_uris": {"ios": "https://dc.lft.to/lastmile_qr_scan", "android": "https://dc.lft.to/lastmile_qr_scan"}, "name": "a032e615b1dfed402aee812ca7b00bce", "type": "electric_scooter", "fusion_lon": 0.0, "is_disabled": 0, "is_reserved": 0, "bike_id": "a032e615b1dfed402aee812ca7b00bce", "lon": -77.01080466666667}, {"fusion_lat": 0.0, "lat": 38.922107833333335, "rental_uris": {"ios": "https://dc.lft.to/lastmile_qr_scan", "android": "https://dc.lft.to/lastmile_qr_scan"}, "name": "7ea27a9b991c9b1adf5775700552d98f", "type": "electric_scooter", "fusion_lon": 0.0, "is_disabled": 0, "is_reserved": 0, "bike_id": "7ea27a9b991c9b1adf5775700552d98f", "lon": -77.0365605}, {"fusion_lat": 0.0, "lat": 38.944821166666664, "rental_uris": {"ios": "https://dc.lft.to/lastmile_qr_scan", "android": "https://dc.lft.to/lastmile_qr_scan"}, "name": "2fb7cf56d6452c2b819d9aa11bb99a8f", "type": "electric_scooter", "fusion_lon": 0.0, "is_disabled": 0, "is_reserved": 0, "bike_id": "2fb7cf56d6452c2b819d9aa11bb99a8f", "lon": -77.06390883333333}, {"fusion_lat": 0.0, "lat": 38.89627866666667, "rental_uris": {"ios": "https://dc.lft.to/lastmile_qr_scan", "android": "https://dc.lft.to/lastmile_qr_scan"}, "name": "d2e3cc18b97ae85720ba90c16d2ca38d", "type": "electric_scooter", "fusion_lon": 0.0, "is_disabled": 0, "is_reserved": 0, "bike_id": "d2e3cc18b97ae85720ba90c16d2ca38d", "lon": -77.0148955}, {"fusion_lat": 0.0, "lat": 39.003833, "rental_uris": {"ios": "https://dc.lft.to/lastmile_qr_scan", "android": "https://dc.lft.to/lastmile_qr_scan"}, "name": "7e20d9ae7167657c7bbbf6caded56ef8", "type": "electric_bike", "fusion_lon": 0.0, "is_disabled": 0, "is_reserved": 0, "bike_id": "7e20d9ae7167657c7bbbf6caded56ef8", "lon": -77.012869}, {"fusion_lat": 0.0, "lat": 38.898555333333334, "rental_uris": {"ios": "https://dc.lft.to/lastmile_qr_scan", "android": "https://dc.lft.to/lastmile_qr_scan"}, "name": "c1be4bb161f851127aa52c15ef3fe133", "type": "electric_scooter", "fusion_lon": 0.0, "is_disabled": 0, "is_reserved": 0, "bike_id": "c1be4bb161f851127aa52c15ef3fe133", "lon": -77.02890416666666}, {"fusion_lat": 0.0, "lat": 38.8847555, "rental_uris": {"ios": "https://dc.lft.to/lastmile_qr_scan", "android": "https://dc.lft.to/lastmile_qr_scan"}, "name": "fa4e7c1e8d0fed4288cfcf447bc899e3", "type": "electric_scooter", "fusion_lon": 0.0, "is_disabled": 0, "is_reserved": 0, "bike_id": "fa4e7c1e8d0fed4288cfcf447bc899e3", "lon": -77.01540983333334}, {"fusion_lat": 0.0, "lat": 38.890021, "rental_uris": {"ios": "https://dc.lft.to/lastmile_qr_scan", "android": "https://dc.lft.to/lastmile_qr_scan"}, "name": "4bb8e82f34c8d3dc42739e7a2d833a2b", "type": "electric_scooter", "fusion_lon": 0.0, "is_disabled": 0, "is_reserved": 0, "bike_id": "4bb8e82f34c8d3dc42739e7a2d833a2b", "lon": -77.04896083333334}, {"fusion_lat": 0.0, "lat": 38.919337166666665, "rental_uris": {"ios": "https://dc.lft.to/lastmile_qr_scan", "android": "https://dc.lft.to/lastmile_qr_scan"}, "name": "592f7651670028ea3a73286af4fb978f", "type": "electric_scooter", "fusion_lon": 0.0, "is_disabled": 0, "is_reserved": 0, "bike_id": "592f7651670028ea3a73286af4fb978f", "lon": -77.02061083333334}, {"fusion_lat": 0.0, "lat": 39.01227316666667, "rental_uris": {"ios": "https://dc.lft.to/lastmile_qr_scan", "android": "https://dc.lft.to/lastmile_qr_scan"}, "name": "aca4363a17654b0c0497ff5036a654b1", "type": "electric_bike", "fusion_lon": 0.0, "is_disabled": 0, "is_reserved": 0, "bike_id": "aca4363a17654b0c0497ff5036a654b1", "lon": -77.11082066666667}, {"fusion_lat": 0.0, "lat": 38.90522166666667, "rental_uris": {"ios": "https://dc.lft.to/lastmile_qr_scan", "android": "https://dc.lft.to/lastmile_qr_scan"}, "name": "b9f3e8b6eb1fea3a8c4e7a2bbc86e025", "type": "electric_scooter", "fusion_lon": 0.0, "is_disabled": 0, "is_reserved": 0, "bike_id": "b9f3e8b6eb1fea3a8c4e7a2bbc86e025", "lon": -77.05134616666666}, {"fusion_lat": 0.0, "lat": 38.887418833333335, "rental_uris": {"ios": "https://dc.lft.to/lastmile_qr_scan", "android": "https://dc.lft.to/lastmile_qr_scan"}, "name": "535d31c10d155c69ddfbf13cdb3dd1d4", "type": "electric_scooter", "fusion_lon": 0.0, "is_disabled": 0, "is_reserved": 0, "bike_id": "535d31c10d155c69ddfbf13cdb3dd1d4", "lon": -77.03177183333334}, {"fusion_lat": 0.0, "lat": 38.871026666666666, "rental_uris": {"ios": "https://dc.lft.to/lastmile_qr_scan", "android": "https://dc.lft.to/lastmile_qr_scan"}, "name": "bc4b4dae38a341840e5d81152db2bf39", "type": "electric_scooter", "fusion_lon": 0.0, "is_disabled": 0, "is_reserved": 0, "bike_id": "bc4b4dae38a341840e5d81152db2bf39", "lon": -77.00780383333333}, {"fusion_lat": 0.0, "lat": 38.90721516666667, "rental_uris": {"ios": "https://dc.lft.to/lastmile_qr_scan", "android": "https://dc.lft.to/lastmile_qr_scan"}, "name": "995dce463499af04b6f4cfb7f26a1b4d", "type": "electric_scooter", "fusion_lon": 0.0, "is_disabled": 0, "is_reserved": 0, "bike_id": "995dce463499af04b6f4cfb7f26a1b4d", "lon": -77.0250855}, {"fusion_lat": 0.0, "lat": 38.86624316666666, "rental_uris": {"ios": "https://dc.lft.to/lastmile_qr_scan", "android": "https://dc.lft.to/lastmile_qr_scan"}, "name": "794d562255e0e6968f0e08bfe3203ba0", "type": "electric_scooter", "fusion_lon": 0.0, "is_disabled": 0, "is_reserved": 0, "bike_id": "794d562255e0e6968f0e08bfe3203ba0", "lon": -76.987146}, {"fusion_lat": 0.0, "lat": 38.92413616666666, "rental_uris": {"ios": "https://dc.lft.to/lastmile_qr_scan", "android": "https://dc.lft.to/lastmile_qr_scan"}, "name": "d7305f34c61e0d26e54e7da56d1c8718", "type": "electric_scooter", "fusion_lon": 0.0, "is_disabled": 0, "is_reserved": 0, "bike_id": "d7305f34c61e0d26e54e7da56d1c8718", "lon": -77.020115}, {"fusion_lat": 0.0, "lat": 38.8922445, "rental_uris": {"ios": "https://dc.lft.to/lastmile_qr_scan", "android": "https://dc.lft.to/lastmile_qr_scan"}, "name": "19b8da4c62f1f831b16424403febe961", "type": "electric_scooter", "fusion_lon": 0.0, "is_disabled": 0, "is_reserved": 0, "bike_id": "19b8da4c62f1f831b16424403febe961", "lon": -77.0469045}, {"fusion_lat": 0.0, "lat": 38.931640333333334, "rental_uris": {"ios": "https://dc.lft.to/lastmile_qr_scan", "android": "https://dc.lft.to/lastmile_qr_scan"}, "name": "c782034dda9622fbc364b081495b4fe1", "type": "electric_scooter", "fusion_lon": 0.0, "is_disabled": 0, "is_reserved": 0, "bike_id": "c782034dda9622fbc364b081495b4fe1", "lon": -77.07851866666667}, {"fusion_lat": 0.0, "lat": 38.925832166666666, "rental_uris": {"ios": "https://dc.lft.to/lastmile_qr_scan", "android": "https://dc.lft.to/lastmile_qr_scan"}, "name": "f132386245f4e089211166c0b1a58654", "type": "electric_scooter", "fusion_lon": 0.0, "is_disabled": 0, "is_reserved": 0, "bike_id": "f132386245f4e089211166c0b1a58654", "lon": -77.02762533333333}, {"fusion_lat": 0.0, "lat": 38.89273933333333, "rental_uris": {"ios": "https://dc.lft.to/lastmile_qr_scan", "android": "https://dc.lft.to/lastmile_qr_scan"}, "name": "d9e1a6777dfb6a0450868019a6c9d337", "type": "electric_scooter", "fusion_lon": 0.0, "is_disabled": 0, "is_reserved": 0, "bike_id": "d9e1a6777dfb6a0450868019a6c9d337", "lon": -77.05031633333333}, {"fusion_lat": 0.0, "lat": 38.895973833333336, "rental_uris": {"ios": "https://dc.lft.to/lastmile_qr_scan", "android": "https://dc.lft.to/lastmile_qr_scan"}, "name": "0aa94544ea159db692fe7305480ed191", "type": "electric_scooter", "fusion_lon": 0.0, "is_disabled": 0, "is_reserved": 0, "bike_id": "0aa94544ea159db692fe7305480ed191", "lon": -77.0258355}, {"fusion_lat": 0.0, "lat": 38.87577783333333, "rental_uris": {"ios": "https://dc.lft.to/lastmile_qr_scan", "android": "https://dc.lft.to/lastmile_qr_scan"}, "name": "f642865ce08333397ee40e80472b6abe", "type": "electric_bike", "fusion_lon": 0.0, "is_disabled": 0, "is_reserved": 0, "bike_id": "f642865ce08333397ee40e80472b6abe", "lon": -77.23407883333333}, {"fusion_lat": 0.0, "lat": 38.917355666666666, "rental_uris": {"ios": "https://dc.lft.to/lastmile_qr_scan", "android": "https://dc.lft.to/lastmile_qr_scan"}, "name": "da53647939d074ffb4d2ee0bace71f7e", "type": "electric_scooter", "fusion_lon": 0.0, "is_disabled": 0, "is_reserved": 0, "bike_id": "da53647939d074ffb4d2ee0bace71f7e", "lon": -77.0279375}, {"fusion_lat": 0.0, "lat": 38.93475883333333, "rental_uris": {"ios": "https://dc.lft.to/lastmile_qr_scan", "android": "https://dc.lft.to/lastmile_qr_scan"}, "name": "0c5c1d9d60d135ea862645a81820ac43", "type": "electric_scooter", "fusion_lon": 0.0, "is_disabled": 0, "is_reserved": 0, "bike_id": "0c5c1d9d60d135ea862645a81820ac43", "lon": -77.0357685}, {"fusion_lat": 0.0, "lat": 38.917594333333334, "rental_uris": {"ios": "https://dc.lft.to/lastmile_qr_scan", "android": "https://dc.lft.to/lastmile_qr_scan"}, "name": "a127bdd3e8b3cf23e08dc3fea4c2922b", "type": "electric_scooter", "fusion_lon": 0.0, "is_disabled": 0, "is_reserved": 0, "bike_id": "a127bdd3e8b3cf23e08dc3fea4c2922b", "lon": -77.0240255}, {"fusion_lat": 0.0, "lat": 38.885298166666665, "rental_uris": {"ios": "https://dc.lft.to/lastmile_qr_scan", "android": "https://dc.lft.to/lastmile_qr_scan"}, "name": "fdfd81c07463df04773ea4d84149a2e8", "type": "electric_scooter", "fusion_lon": 0.0, "is_disabled": 0, "is_reserved": 0, "bike_id": "fdfd81c07463df04773ea4d84149a2e8", "lon": -76.92918633333333}, {"fusion_lat": 0.0, "lat": 38.90955533333333, "rental_uris": {"ios": "https://dc.lft.to/lastmile_qr_scan", "android": "https://dc.lft.to/lastmile_qr_scan"}, "name": "be6beba76b46ddc95fcd4ddf6311d958", "type": "electric_scooter", "fusion_lon": 0.0, "is_disabled": 0, "is_reserved": 0, "bike_id": "be6beba76b46ddc95fcd4ddf6311d958", "lon": -77.04586533333334}, {"fusion_lat": 0.0, "lat": 38.89709033333333, "rental_uris": {"ios": "https://dc.lft.to/lastmile_qr_scan", "android": "https://dc.lft.to/lastmile_qr_scan"}, "name": "46c8aeac534f1fe7ab019fa3481c8e56", "type": "electric_scooter", "fusion_lon": 0.0, "is_disabled": 0, "is_reserved": 0, "bike_id": "46c8aeac534f1fe7ab019fa3481c8e56", "lon": -77.027846}, {"fusion_lat": 0.0, "lat": 38.860629833333334, "rental_uris": {"ios": "https://dc.lft.to/lastmile_qr_scan", "android": "https://dc.lft.to/lastmile_qr_scan"}, "name": "9a93e51a21576ef5de1d54fdde47af17", "type": "electric_scooter", "fusion_lon": 0.0, "is_disabled": 0, "is_reserved": 0, "bike_id": "9a93e51a21576ef5de1d54fdde47af17", "lon": -76.98505816666666}, {"fusion_lat": 0.0, "lat": 38.916072666666665, "rental_uris": {"ios": "https://dc.lft.to/lastmile_qr_scan", "android": "https://dc.lft.to/lastmile_qr_scan"}, "name": "89757366737588dc78b32cbe1fc43744", "type": "electric_scooter", "fusion_lon": 0.0, "is_disabled": 0, "is_reserved": 0, "bike_id": "89757366737588dc78b32cbe1fc43744", "lon": -77.03138433333334}, {"fusion_lat": 0.0, "lat": 38.897873833333335, "rental_uris": {"ios": "https://dc.lft.to/lastmile_qr_scan", "android": "https://dc.lft.to/lastmile_qr_scan"}, "name": "a59c57ec635de7da74428994590b3a1a", "type": "electric_scooter", "fusion_lon": 0.0, "is_disabled": 0, "is_reserved": 0, "bike_id": "a59c57ec635de7da74428994590b3a1a", "lon": -76.92572966666667}, {"fusion_lat": 0.0, "lat": 38.931358, "rental_uris": {"ios": "https://dc.lft.to/lastmile_qr_scan", "android": "https://dc.lft.to/lastmile_qr_scan"}, "name": "0fde26ce33077fcff20fd521b363374e", "type": "electric_scooter", "fusion_lon": 0.0, "is_disabled": 0, "is_reserved": 0, "bike_id": "0fde26ce33077fcff20fd521b363374e", "lon": -77.032553}, {"fusion_lat": 0.0, "lat": 38.85768133333333, "rental_uris": {"ios": "https://dc.lft.to/lastmile_qr_scan", "android": "https://dc.lft.to/lastmile_qr_scan"}, "name": "00ad71030ee5fd21a9d535897ad00a7e", "type": "electric_bike", "fusion_lon": 0.0, "is_disabled": 0, "is_reserved": 0, "bike_id": "00ad71030ee5fd21a9d535897ad00a7e", "lon": -76.98764933333334}, {"fusion_lat": 0.0, "lat": 38.9025595, "rental_uris": {"ios": "https://dc.lft.to/lastmile_qr_scan", "android": "https://dc.lft.to/lastmile_qr_scan"}, "name": "9740ddd1de3b47f66000908f83fb2471", "type": "electric_scooter", "fusion_lon": 0.0, "is_disabled": 0, "is_reserved": 0, "bike_id": "9740ddd1de3b47f66000908f83fb2471", "lon": -77.03056866666667}, {"fusion_lat": 0.0, "lat": 38.914067833333334, "rental_uris": {"ios": "https://dc.lft.to/lastmile_qr_scan", "android": "https://dc.lft.to/lastmile_qr_scan"}, "name": "de937392f14f070f3b052a1a30fa92fe", "type": "electric_scooter", "fusion_lon": 0.0, "is_disabled": 0, "is_reserved": 0, "bike_id": "de937392f14f070f3b052a1a30fa92fe", "lon": -77.01223483333334}, {"fusion_lat": 0.0, "lat": 38.91238033333333, "rental_uris": {"ios": "https://dc.lft.to/lastmile_qr_scan", "android": "https://dc.lft.to/lastmile_qr_scan"}, "name": "6a2480c0599bc43c6aa9ec410c655d38", "type": "electric_scooter", "fusion_lon": 0.0, "is_disabled": 0, "is_reserved": 0, "bike_id": "6a2480c0599bc43c6aa9ec410c655d38", "lon": -77.04871016666667}, {"fusion_lat": 0.0, "lat": 38.905005833333334, "rental_uris": {"ios": "https://dc.lft.to/lastmile_qr_scan", "android": "https://dc.lft.to/lastmile_qr_scan"}, "name": "9e928e542d18b5339064ca585a1f65f2", "type": "electric_scooter", "fusion_lon": 0.0, "is_disabled": 0, "is_reserved": 0, "bike_id": "9e928e542d18b5339064ca585a1f65f2", "lon": -77.04344966666666}, {"fusion_lat": 0.0, "lat": 38.92870833333333, "rental_uris": {"ios": "https://dc.lft.to/lastmile_qr_scan", "android": "https://dc.lft.to/lastmile_qr_scan"}, "name": "438cdc4a923ee9d5647664b1b5b9bc5b", "type": "electric_scooter", "fusion_lon": 0.0, "is_disabled": 0, "is_reserved": 0, "bike_id": "438cdc4a923ee9d5647664b1b5b9bc5b", "lon": -77.03247233333333}, {"fusion_lat": 0.0, "lat": 38.911076666666666, "rental_uris": {"ios": "https://dc.lft.to/lastmile_qr_scan", "android": "https://dc.lft.to/lastmile_qr_scan"}, "name": "02f2335949217e323206506b39d02542", "type": "electric_scooter", "fusion_lon": 0.0, "is_disabled": 0, "is_reserved": 0, "bike_id": "02f2335949217e323206506b39d02542", "lon": -77.0114655}, {"fusion_lat": 0.0, "lat": 38.906207333333334, "rental_uris": {"ios": "https://dc.lft.to/lastmile_qr_scan", "android": "https://dc.lft.to/lastmile_qr_scan"}, "name": "eaafdae781e630932caec2e1a73e4fe8", "type": "electric_scooter", "fusion_lon": 0.0, "is_disabled": 0, "is_reserved": 0, "bike_id": "eaafdae781e630932caec2e1a73e4fe8", "lon": -77.04209083333333}, {"fusion_lat": 0.0, "lat": 38.9002965, "rental_uris": {"ios": "https://dc.lft.to/lastmile_qr_scan", "android": "https://dc.lft.to/lastmile_qr_scan"}, "name": "0bfff006942a389ad229c3bf9181878e", "type": "electric_scooter", "fusion_lon": 0.0, "is_disabled": 0, "is_reserved": 0, "bike_id": "0bfff006942a389ad229c3bf9181878e", "lon": -76.98698833333333}, {"fusion_lat": 0.0, "lat": 38.9039855, "rental_uris": {"ios": "https://dc.lft.to/lastmile_qr_scan", "android": "https://dc.lft.to/lastmile_qr_scan"}, "name": "defe20d800e68bc41cfc0d6ac375cffa", "type": "electric_scooter", "fusion_lon": 0.0, "is_disabled": 0, "is_reserved": 0, "bike_id": "defe20d800e68bc41cfc0d6ac375cffa", "lon": -77.04355866666667}, {"fusion_lat": 0.0, "lat": 38.929455, "rental_uris": {"ios": "https://dc.lft.to/lastmile_qr_scan", "android": "https://dc.lft.to/lastmile_qr_scan"}, "name": "1a27cff589d0971085d744cbcfc4735b", "type": "electric_scooter", "fusion_lon": 0.0, "is_disabled": 0, "is_reserved": 0, "bike_id": "1a27cff589d0971085d744cbcfc4735b", "lon": -77.01891616666667}, {"fusion_lat": 0.0, "lat": 38.8922265, "rental_uris": {"ios": "https://dc.lft.to/lastmile_qr_scan", "android": "https://dc.lft.to/lastmile_qr_scan"}, "name": "5871d341470d967a30040f271e190f1b", "type": "electric_scooter", "fusion_lon": 0.0, "is_disabled": 0, "is_reserved": 0, "bike_id": "5871d341470d967a30040f271e190f1b", "lon": -77.04195}, {"fusion_lat": 0.0, "lat": 38.920307333333334, "rental_uris": {"ios": "https://dc.lft.to/lastmile_qr_scan", "android": "https://dc.lft.to/lastmile_qr_scan"}, "name": "5b562732fbd1e9e056d72d046d4ac2c0", "type": "electric_scooter", "fusion_lon": 0.0, "is_disabled": 0, "is_reserved": 0, "bike_id": "5b562732fbd1e9e056d72d046d4ac2c0", "lon": -77.01062016666667}, {"fusion_lat": 0.0, "lat": 38.9246435, "rental_uris": {"ios": "https://dc.lft.to/lastmile_qr_scan", "android": "https://dc.lft.to/lastmile_qr_scan"}, "name": "0b2a1adff0434e38810855440ec767fd", "type": "electric_scooter", "fusion_lon": 0.0, "is_disabled": 0, "is_reserved": 0, "bike_id": "0b2a1adff0434e38810855440ec767fd", "lon": -77.02208866666666}, {"fusion_lat": 0.0, "lat": 38.92663666666667, "rental_uris": {"ios": "https://dc.lft.to/lastmile_qr_scan", "android": "https://dc.lft.to/lastmile_qr_scan"}, "name": "27ef9681b40dbbd7ba668d672cb363af", "type": "electric_scooter", "fusion_lon": 0.0, "is_disabled": 0, "is_reserved": 0, "bike_id": "27ef9681b40dbbd7ba668d672cb363af", "lon": -77.02302016666667}, {"fusion_lat": 0.0, "lat": 38.910313, "rental_uris": {"ios": "https://dc.lft.to/lastmile_qr_scan", "android": "https://dc.lft.to/lastmile_qr_scan"}, "name": "200e505b8cff8f43d8ceb4693136919e", "type": "electric_scooter", "fusion_lon": 0.0, "is_disabled": 0, "is_reserved": 0, "bike_id": "200e505b8cff8f43d8ceb4693136919e", "lon": -77.03441633333334}, {"fusion_lat": 0.0, "lat": 38.925518333333336, "rental_uris": {"ios": "https://dc.lft.to/lastmile_qr_scan", "android": "https://dc.lft.to/lastmile_qr_scan"}, "name": "4c134a223558fd41d23e6c75f2b0892c", "type": "electric_scooter", "fusion_lon": 0.0, "is_disabled": 0, "is_reserved": 0, "bike_id": "4c134a223558fd41d23e6c75f2b0892c", "lon": -77.00069066666667}, {"fusion_lat": 0.0, "lat": 38.900492, "rental_uris": {"ios": "https://dc.lft.to/lastmile_qr_scan", "android": "https://dc.lft.to/lastmile_qr_scan"}, "name": "57d75db56a3221f37d010b03c64a24ea", "type": "electric_scooter", "fusion_lon": 0.0, "is_disabled": 0, "is_reserved": 0, "bike_id": "57d75db56a3221f37d010b03c64a24ea", "lon": -77.00120216666667}, {"fusion_lat": 0.0, "lat": 38.9218905, "rental_uris": {"ios": "https://dc.lft.to/lastmile_qr_scan", "android": "https://dc.lft.to/lastmile_qr_scan"}, "name": "349b6987abf5d040a29418d5afd342a6", "type": "electric_scooter", "fusion_lon": 0.0, "is_disabled": 0, "is_reserved": 0, "bike_id": "349b6987abf5d040a29418d5afd342a6", "lon": -77.04339816666666}, {"fusion_lat": 0.0, "lat": 38.95741616666667, "rental_uris": {"ios": "https://dc.lft.to/lastmile_qr_scan", "android": "https://dc.lft.to/lastmile_qr_scan"}, "name": "dcc89610bf5c39dd783fb7b5ee4edb3c", "type": "electric_bike", "fusion_lon": 0.0, "is_disabled": 0, "is_reserved": 0, "bike_id": "dcc89610bf5c39dd783fb7b5ee4edb3c", "lon": -76.97251716666666}, {"fusion_lat": 0.0, "lat": 38.87421233333333, "rental_uris": {"ios": "https://dc.lft.to/lastmile_qr_scan", "android": "https://dc.lft.to/lastmile_qr_scan"}, "name": "92591f22d456a1153fb39f9ce96ed36f", "type": "electric_scooter", "fusion_lon": 0.0, "is_disabled": 0, "is_reserved": 0, "bike_id": "92591f22d456a1153fb39f9ce96ed36f", "lon": -76.999621}, {"fusion_lat": 0.0, "lat": 38.91677383333333, "rental_uris": {"ios": "https://dc.lft.to/lastmile_qr_scan", "android": "https://dc.lft.to/lastmile_qr_scan"}, "name": "30d06d065f55e93ef521b06887e517c9", "type": "electric_scooter", "fusion_lon": 0.0, "is_disabled": 0, "is_reserved": 0, "bike_id": "30d06d065f55e93ef521b06887e517c9", "lon": -77.0228895}, {"fusion_lat": 0.0, "lat": 38.92668583333333, "rental_uris": {"ios": "https://dc.lft.to/lastmile_qr_scan", "android": "https://dc.lft.to/lastmile_qr_scan"}, "name": "b3b8899b45be905a86e034da87583019", "type": "electric_bike", "fusion_lon": 0.0, "is_disabled": 0, "is_reserved": 0, "bike_id": "b3b8899b45be905a86e034da87583019", "lon": -77.09851866666666}, {"fusion_lat": 0.0, "lat": 38.8944215, "rental_uris": {"ios": "https://dc.lft.to/lastmile_qr_scan", "android": "https://dc.lft.to/lastmile_qr_scan"}, "name": "61c18f1cff4a9818cfaf612b7bc10d5a", "type": "electric_scooter", "fusion_lon": 0.0, "is_disabled": 0, "is_reserved": 0, "bike_id": "61c18f1cff4a9818cfaf612b7bc10d5a", "lon": -77.02639033333334}, {"fusion_lat": 0.0, "lat": 38.906708, "rental_uris": {"ios": "https://dc.lft.to/lastmile_qr_scan", "android": "https://dc.lft.to/lastmile_qr_scan"}, "name": "2d63d201b8bc2e363d99fd436041a072", "type": "electric_scooter", "fusion_lon": 0.0, "is_disabled": 0, "is_reserved": 0, "bike_id": "2d63d201b8bc2e363d99fd436041a072", "lon": -77.02594166666667}, {"fusion_lat": 0.0, "lat": 38.93358816666667, "rental_uris": {"ios": "https://dc.lft.to/lastmile_qr_scan", "android": "https://dc.lft.to/lastmile_qr_scan"}, "name": "7596be5771cb0c561a25e8d348dcbce5", "type": "electric_scooter", "fusion_lon": 0.0, "is_disabled": 0, "is_reserved": 0, "bike_id": "7596be5771cb0c561a25e8d348dcbce5", "lon": -77.073608}, {"fusion_lat": 0.0, "lat": 38.957472333333335, "rental_uris": {"ios": "https://dc.lft.to/lastmile_qr_scan", "android": "https://dc.lft.to/lastmile_qr_scan"}, "name": "bd70b844852a678f395878afedc87a19", "type": "electric_bike", "fusion_lon": 0.0, "is_disabled": 0, "is_reserved": 0, "bike_id": "bd70b844852a678f395878afedc87a19", "lon": -76.97253166666667}, {"fusion_lat": 0.0, "lat": 38.914919833333336, "rental_uris": {"ios": "https://dc.lft.to/lastmile_qr_scan", "android": "https://dc.lft.to/lastmile_qr_scan"}, "name": "4b2385d06d05a7851c470da3cac78871", "type": "electric_scooter", "fusion_lon": 0.0, "is_disabled": 0, "is_reserved": 0, "bike_id": "4b2385d06d05a7851c470da3cac78871", "lon": -77.01857316666667}, {"fusion_lat": 0.0, "lat": 38.8975115, "rental_uris": {"ios": "https://dc.lft.to/lastmile_qr_scan", "android": "https://dc.lft.to/lastmile_qr_scan"}, "name": "faa8a8f62e34608b603e5232e1e22916", "type": "electric_scooter", "fusion_lon": 0.0, "is_disabled": 0, "is_reserved": 0, "bike_id": "faa8a8f62e34608b603e5232e1e22916", "lon": -77.02015133333333}, {"fusion_lat": 0.0, "lat": 38.93222083333333, "rental_uris": {"ios": "https://dc.lft.to/lastmile_qr_scan", "android": "https://dc.lft.to/lastmile_qr_scan"}, "name": "0b166b9afe2b0a971101747663dcc7de", "type": "electric_scooter", "fusion_lon": 0.0, "is_disabled": 0, "is_reserved": 0, "bike_id": "0b166b9afe2b0a971101747663dcc7de", "lon": -77.026859}, {"fusion_lat": 0.0, "lat": 38.9043855, "rental_uris": {"ios": "https://dc.lft.to/lastmile_qr_scan", "android": "https://dc.lft.to/lastmile_qr_scan"}, "name": "7fdb14d9a23e73fca66dfdd23fdf0695", "type": "electric_scooter", "fusion_lon": 0.0, "is_disabled": 0, "is_reserved": 0, "bike_id": "7fdb14d9a23e73fca66dfdd23fdf0695", "lon": -77.0435375}, {"fusion_lat": 0.0, "lat": 38.89707533333333, "rental_uris": {"ios": "https://dc.lft.to/lastmile_qr_scan", "android": "https://dc.lft.to/lastmile_qr_scan"}, "name": "dcd81baf2d89c46b0da010f65501a723", "type": "electric_scooter", "fusion_lon": 0.0, "is_disabled": 0, "is_reserved": 0, "bike_id": "dcd81baf2d89c46b0da010f65501a723", "lon": -77.022871}, {"fusion_lat": 0.0, "lat": 38.92220233333333, "rental_uris": {"ios": "https://dc.lft.to/lastmile_qr_scan", "android": "https://dc.lft.to/lastmile_qr_scan"}, "name": "2afcd09d9f9932f28f4df6992e8c46c1", "type": "electric_scooter", "fusion_lon": 0.0, "is_disabled": 0, "is_reserved": 0, "bike_id": "2afcd09d9f9932f28f4df6992e8c46c1", "lon": -77.043316}, {"fusion_lat": 0.0, "lat": 38.9482005, "rental_uris": {"ios": "https://dc.lft.to/lastmile_qr_scan", "android": "https://dc.lft.to/lastmile_qr_scan"}, "name": "a92d2e07695af8d40dcd9e493ba87522", "type": "electric_bike", "fusion_lon": 0.0, "is_disabled": 0, "is_reserved": 0, "bike_id": "a92d2e07695af8d40dcd9e493ba87522", "lon": -77.0297755}, {"fusion_lat": 0.0, "lat": 38.923216, "rental_uris": {"ios": "https://dc.lft.to/lastmile_qr_scan", "android": "https://dc.lft.to/lastmile_qr_scan"}, "name": "6e28a9addf17e1a232a32ad4fb81a3fb", "type": "electric_scooter", "fusion_lon": 0.0, "is_disabled": 0, "is_reserved": 0, "bike_id": "6e28a9addf17e1a232a32ad4fb81a3fb", "lon": -77.04178133333333}, {"fusion_lat": 0.0, "lat": 38.8558365, "rental_uris": {"ios": "https://dc.lft.to/lastmile_qr_scan", "android": "https://dc.lft.to/lastmile_qr_scan"}, "name": "a06ca1b38fde650752c3283eece6860e", "type": "electric_scooter", "fusion_lon": 0.0, "is_disabled": 0, "is_reserved": 0, "bike_id": "a06ca1b38fde650752c3283eece6860e", "lon": -76.96656816666666}, {"fusion_lat": 0.0, "lat": 38.89350233333333, "rental_uris": {"ios": "https://dc.lft.to/lastmile_qr_scan", "android": "https://dc.lft.to/lastmile_qr_scan"}, "name": "f9d7b087db08dda776ad38d12facb04d", "type": "electric_scooter", "fusion_lon": 0.0, "is_disabled": 0, "is_reserved": 0, "bike_id": "f9d7b087db08dda776ad38d12facb04d", "lon": -77.01191983333334}, {"fusion_lat": 0.0, "lat": 38.924590333333335, "rental_uris": {"ios": "https://dc.lft.to/lastmile_qr_scan", "android": "https://dc.lft.to/lastmile_qr_scan"}, "name": "f3161897a441f1d485e63bab3d03c97b", "type": "electric_scooter", "fusion_lon": 0.0, "is_disabled": 0, "is_reserved": 0, "bike_id": "f3161897a441f1d485e63bab3d03c97b", "lon": -77.02151933333333}, {"fusion_lat": 0.0, "lat": 38.900471833333334, "rental_uris": {"ios": "https://dc.lft.to/lastmile_qr_scan", "android": "https://dc.lft.to/lastmile_qr_scan"}, "name": "1558b75771ab173c4378ad56a53ff4e3", "type": "electric_scooter", "fusion_lon": 0.0, "is_disabled": 0, "is_reserved": 0, "bike_id": "1558b75771ab173c4378ad56a53ff4e3", "lon": -76.98281}, {"fusion_lat": 0.0, "lat": 38.923672833333335, "rental_uris": {"ios": "https://dc.lft.to/lastmile_qr_scan", "android": "https://dc.lft.to/lastmile_qr_scan"}, "name": "5a5ce529ff8d8641babc719d7906594e", "type": "electric_scooter", "fusion_lon": 0.0, "is_disabled": 0, "is_reserved": 0, "bike_id": "5a5ce529ff8d8641babc719d7906594e", "lon": -77.05026116666667}, {"fusion_lat": 0.0, "lat": 38.923992, "rental_uris": {"ios": "https://dc.lft.to/lastmile_qr_scan", "android": "https://dc.lft.to/lastmile_qr_scan"}, "name": "2ed7ecf6df068f7558cac31d9c6160d7", "type": "electric_scooter", "fusion_lon": 0.0, "is_disabled": 0, "is_reserved": 0, "bike_id": "2ed7ecf6df068f7558cac31d9c6160d7", "lon": -77.02039683333334}, {"fusion_lat": 0.0, "lat": 38.9155365, "rental_uris": {"ios": "https://dc.lft.to/lastmile_qr_scan", "android": "https://dc.lft.to/lastmile_qr_scan"}, "name": "04c848cc9765031d509af5bb9c61f03b", "type": "electric_scooter", "fusion_lon": 0.0, "is_disabled": 0, "is_reserved": 0, "bike_id": "04c848cc9765031d509af5bb9c61f03b", "lon": -77.031757}, {"fusion_lat": 0.0, "lat": 38.951689333333334, "rental_uris": {"ios": "https://dc.lft.to/lastmile_qr_scan", "android": "https://dc.lft.to/lastmile_qr_scan"}, "name": "8c7a2cd11e6c20d3274395de0d363ec8", "type": "electric_bike", "fusion_lon": 0.0, "is_disabled": 0, "is_reserved": 0, "bike_id": "8c7a2cd11e6c20d3274395de0d363ec8", "lon": -77.06775016666667}, {"fusion_lat": 0.0, "lat": 38.914898, "rental_uris": {"ios": "https://dc.lft.to/lastmile_qr_scan", "android": "https://dc.lft.to/lastmile_qr_scan"}, "name": "cee58ff7ce5227eadb2f1c75ce1850f3", "type": "electric_scooter", "fusion_lon": 0.0, "is_disabled": 0, "is_reserved": 0, "bike_id": "cee58ff7ce5227eadb2f1c75ce1850f3", "lon": -77.04833316666667}, {"fusion_lat": 0.0, "lat": 38.91690466666667, "rental_uris": {"ios": "https://dc.lft.to/lastmile_qr_scan", "android": "https://dc.lft.to/lastmile_qr_scan"}, "name": "3bfa1d1594f2fb4f565969bf075db58b", "type": "electric_scooter", "fusion_lon": 0.0, "is_disabled": 0, "is_reserved": 0, "bike_id": "3bfa1d1594f2fb4f565969bf075db58b", "lon": -77.03438433333334}, {"fusion_lat": 0.0, "lat": 38.824654, "rental_uris": {"ios": "https://dc.lft.to/lastmile_qr_scan", "android": "https://dc.lft.to/lastmile_qr_scan"}, "name": "52d4d4df3889f8972077877f4073fb55", "type": "electric_bike", "fusion_lon": 0.0, "is_disabled": 0, "is_reserved": 0, "bike_id": "52d4d4df3889f8972077877f4073fb55", "lon": -77.00793466666667}, {"fusion_lat": 0.0, "lat": 38.9236195, "rental_uris": {"ios": "https://dc.lft.to/lastmile_qr_scan", "android": "https://dc.lft.to/lastmile_qr_scan"}, "name": "7ea0ddb1ed9c8e9350dac596c507c836", "type": "electric_scooter", "fusion_lon": 0.0, "is_disabled": 0, "is_reserved": 0, "bike_id": "7ea0ddb1ed9c8e9350dac596c507c836", "lon": -77.05049466666667}, {"fusion_lat": 0.0, "lat": 38.900121, "rental_uris": {"ios": "https://dc.lft.to/lastmile_qr_scan", "android": "https://dc.lft.to/lastmile_qr_scan"}, "name": "b869c90d3414860f5b3a71d068e0efe8", "type": "electric_scooter", "fusion_lon": 0.0, "is_disabled": 0, "is_reserved": 0, "bike_id": "b869c90d3414860f5b3a71d068e0efe8", "lon": -77.006826}, {"fusion_lat": 0.0, "lat": 38.86518566666667, "rental_uris": {"ios": "https://dc.lft.to/lastmile_qr_scan", "android": "https://dc.lft.to/lastmile_qr_scan"}, "name": "3388183c9d0c90f3160a531795a999ac", "type": "electric_bike", "fusion_lon": 0.0, "is_disabled": 0, "is_reserved": 0, "bike_id": "3388183c9d0c90f3160a531795a999ac", "lon": -77.12933}, {"fusion_lat": 0.0, "lat": 38.92221983333334, "rental_uris": {"ios": "https://dc.lft.to/lastmile_qr_scan", "android": "https://dc.lft.to/lastmile_qr_scan"}, "name": "8c64ea5e73ae927ece936cb9dc372ff6", "type": "electric_scooter", "fusion_lon": 0.0, "is_disabled": 0, "is_reserved": 0, "bike_id": "8c64ea5e73ae927ece936cb9dc372ff6", "lon": -77.043333}, {"fusion_lat": 0.0, "lat": 38.94912333333333, "rental_uris": {"ios": "https://dc.lft.to/lastmile_qr_scan", "android": "https://dc.lft.to/lastmile_qr_scan"}, "name": "27cd3fe880c01ca6b054f2abef1457b6", "type": "electric_scooter", "fusion_lon": 0.0, "is_disabled": 0, "is_reserved": 0, "bike_id": "27cd3fe880c01ca6b054f2abef1457b6", "lon": -77.06620466666666}, {"fusion_lat": 0.0, "lat": 38.86456616666667, "rental_uris": {"ios": "https://dc.lft.to/lastmile_qr_scan", "android": "https://dc.lft.to/lastmile_qr_scan"}, "name": "2e5f327b65ed02e2ad8a6feda2e9f0cc", "type": "electric_scooter", "fusion_lon": 0.0, "is_disabled": 0, "is_reserved": 0, "bike_id": "2e5f327b65ed02e2ad8a6feda2e9f0cc", "lon": -77.01264066666667}, {"fusion_lat": 0.0, "lat": 38.91267766666667, "rental_uris": {"ios": "https://dc.lft.to/lastmile_qr_scan", "android": "https://dc.lft.to/lastmile_qr_scan"}, "name": "4d40b20618bbd00341f92d4b9801948a", "type": "electric_scooter", "fusion_lon": 0.0, "is_disabled": 0, "is_reserved": 0, "bike_id": "4d40b20618bbd00341f92d4b9801948a", "lon": -77.0079685}, {"fusion_lat": 0.0, "lat": 38.923128166666665, "rental_uris": {"ios": "https://dc.lft.to/lastmile_qr_scan", "android": "https://dc.lft.to/lastmile_qr_scan"},