{"data": {"bikes": [{"is_disabled": 0, "rental_uris": {"android": "https://dc.lft.to/lastmile_qr_scan", "ios": "https://dc.lft.to/lastmile_qr_scan"}, "is_reserved": 0, "name": "87b4de59f1bf9b9d2b6fa1cbd842cc7e", "lon": -76.98095866666667, "type": "electric_scooter", "bike_id": "87b4de59f1bf9b9d2b6fa1cbd842cc7e", "fusion_lon": 0.0, "lat": 38.857203, "fusion_lat": 0.0}, {"is_disabled": 0, "rental_uris": {"android": "https://dc.lft.to/lastmile_qr_scan", "ios": "https://dc.lft.to/lastmile_qr_scan"}, "is_reserved": 0, "name": "e236fdaf463866fac91bd450021ecf83", "lon": -77.0169635, "type": "electric_scooter", "bike_id": "e236fdaf463866fac91bd450021ecf83", "fusion_lon": 0.0, "lat": 38.9749915, "fusion_lat": 0.0}, {"is_disabled": 0, "rental_uris": {"android": "https://dc.lft.to/lastmile_qr_scan", "ios": "https://dc.lft.to/lastmile_qr_scan"}, "is_reserved": 0, "name": "c631340b55df83fc22df60f3cec85835", "lon": -77.01584033333333, "type": "electric_bike", "bike_id": "c631340b55df83fc22df60f3cec85835", "fusion_lon": 0.0, "lat": 39.04634216666667, "fusion_lat": 0.0}, {"is_disabled": 0, "rental_uris": {"android": "https://dc.lft.to/lastmile_qr_scan", "ios": "https://dc.lft.to/lastmile_qr_scan"}, "is_reserved": 0, "name": "c4cc2734999c67c033f7f0e4e17c5f90", "lon": -77.03262216666667, "type": "electric_scooter", "bike_id": "c4cc2734999c67c033f7f0e4e17c5f90", "fusion_lon": 0.0, "lat": 38.91839133333333, "fusion_lat": 0.0}, {"is_disabled": 0, "rental_uris": {"android": "https://dc.lft.to/lastmile_qr_scan", "ios": "https://dc.lft.to/lastmile_qr_scan"}, "is_reserved": 0, "name": "9250e1983782457fe04ba37678e36450", "lon": -77.04345133333334, "type": "electric_scooter", "bike_id": "9250e1983782457fe04ba37678e36450", "fusion_lon": 0.0, "lat": 38.896664, "fusion_lat": 0.0}, {"is_disabled": 0, "rental_uris": {"android": "https://dc.lft.to/lastmile_qr_scan", "ios": "https://dc.lft.to/lastmile_qr_scan"}, "is_reserved": 0, "name": "d8d51cca8219731b383c1edadb04c163", "lon": -77.18295133333334, "type": "electric_bike", "bike_id": "d8d51cca8219731b383c1edadb04c163", "fusion_lon": 0.0, "lat": 38.8834045, "fusion_lat": 0.0}, {"is_disabled": 0, "rental_uris": {"android": "https://dc.lft.to/lastmile_qr_scan", "ios": "https://dc.lft.to/lastmile_qr_scan"}, "is_reserved": 0, "name": "481b4c633c24e20131a5b3cba289a527", "lon": -77.02467583333333, "type": "electric_scooter", "bike_id": "481b4c633c24e20131a5b3cba289a527", "fusion_lon": 0.0, "lat": 38.939056, "fusion_lat": 0.0}, {"is_disabled": 0, "rental_uris": {"android": "https://dc.lft.to/lastmile_qr_scan", "ios": "https://dc.lft.to/lastmile_qr_scan"}, "is_reserved": 0, "name": "b59f424920251480166c71332de9aaf4", "lon": -76.98519166666667, "type": "electric_scooter", "bike_id": "b59f424920251480166c71332de9aaf4", "fusion_lon": 0.0, "lat": 38.860047, "fusion_lat": 0.0}, {"is_disabled": 0, "rental_uris": {"android": "https://dc.lft.to/lastmile_qr_scan", "ios": "https://dc.lft.to/lastmile_qr_scan"}, "is_reserved": 0, "name": "842d12f1e99d871572a0e41660cb84e0", "lon": -76.969217, "type": "electric_scooter", "bike_id": "842d12f1e99d871572a0e41660cb84e0", "fusion_lon": 0.0, "lat": 38.855262, "fusion_lat": 0.0}, {"is_disabled": 0, "rental_uris": {"android": "https://dc.lft.to/lastmile_qr_scan", "ios": "https://dc.lft.to/lastmile_qr_scan"}, "is_reserved": 0, "name": "b98ebf900dea69373e75a0690f365f0c", "lon": -77.05934766666667, "type": "electric_scooter", "bike_id": "b98ebf900dea69373e75a0690f365f0c", "fusion_lon": 0.0, "lat": 38.936651499999996, "fusion_lat": 0.0}, {"is_disabled": 0, "rental_uris": {"android": "https://dc.lft.to/lastmile_qr_scan", "ios": "https://dc.lft.to/lastmile_qr_scan"}, "is_reserved": 0, "name": "60800bc033a76a4c660d5a731b6898f3", "lon": -77.0355245, "type": "electric_scooter", "bike_id": "60800bc033a76a4c660d5a731b6898f3", "fusion_lon": 0.0, "lat": 38.906922, "fusion_lat": 0.0}, {"is_disabled": 0, "rental_uris": {"android": "https://dc.lft.to/lastmile_qr_scan", "ios": "https://dc.lft.to/lastmile_qr_scan"}, "is_reserved": 0, "name": "0a39d35f7e40442508e41ff9de6500cf", "lon": -76.931164, "type": "electric_scooter", "bike_id": "0a39d35f7e40442508e41ff9de6500cf", "fusion_lon": 0.0, "lat": 38.880183833333334, "fusion_lat": 0.0}, {"is_disabled": 0, "rental_uris": {"android": "https://dc.lft.to/lastmile_qr_scan", "ios": "https://dc.lft.to/lastmile_qr_scan"}, "is_reserved": 0, "name": "a6f1a6ae9bd5010377f0c6a4690fad18", "lon": -77.028391, "type": "electric_scooter", "bike_id": "a6f1a6ae9bd5010377f0c6a4690fad18", "fusion_lon": 0.0, "lat": 38.89532716666667, "fusion_lat": 0.0}, {"is_disabled": 0, "rental_uris": {"android": "https://dc.lft.to/lastmile_qr_scan", "ios": "https://dc.lft.to/lastmile_qr_scan"}, "is_reserved": 0, "name": "29e6cd4a6dc8a2363a61b353b7367f85", "lon": -77.0510265, "type": "electric_scooter", "bike_id": "29e6cd4a6dc8a2363a61b353b7367f85", "fusion_lon": 0.0, "lat": 38.92343266666666, "fusion_lat": 0.0}, {"is_disabled": 0, "rental_uris": {"android": "https://dc.lft.to/lastmile_qr_scan", "ios": "https://dc.lft.to/lastmile_qr_scan"}, "is_reserved": 0, "name": "f68c90b0f5a5bc9fa20e3fbedc7e3ae6", "lon": -77.01212966666667, "type": "electric_scooter", "bike_id": "f68c90b0f5a5bc9fa20e3fbedc7e3ae6", "fusion_lon": 0.0, "lat": 38.918208666666665, "fusion_lat": 0.0}, {"is_disabled": 0, "rental_uris": {"android": "https://dc.lft.to/lastmile_qr_scan", "ios": "https://dc.lft.to/lastmile_qr_scan"}, "is_reserved": 0, "name": "70a1c487030beb6b2b878b3a3704a50c", "lon": -77.04337466666667, "type": "electric_scooter", "bike_id": "70a1c487030beb6b2b878b3a3704a50c", "fusion_lon": 0.0, "lat": 38.9233085, "fusion_lat": 0.0}, {"is_disabled": 0, "rental_uris": {"android": "https://dc.lft.to/lastmile_qr_scan", "ios": "https://dc.lft.to/lastmile_qr_scan"}, "is_reserved": 0, "name": "e924a3c21dfe695f52f3ec3d427181ec", "lon": -77.01232433333334, "type": "electric_scooter", "bike_id": "e924a3c21dfe695f52f3ec3d427181ec", "fusion_lon": 0.0, "lat": 38.90720866666667, "fusion_lat": 0.0}, {"is_disabled": 0, "rental_uris": {"android": "https://dc.lft.to/lastmile_qr_scan", "ios": "https://dc.lft.to/lastmile_qr_scan"}, "is_reserved": 0, "name": "d13fd0565c6be0071f9b9b3a5b1316dd", "lon": -77.0344495, "type": "electric_scooter", "bike_id": "d13fd0565c6be0071f9b9b3a5b1316dd", "fusion_lon": 0.0, "lat": 38.90887216666667, "fusion_lat": 0.0}, {"is_disabled": 0, "rental_uris": {"android": "https://dc.lft.to/lastmile_qr_scan", "ios": "https://dc.lft.to/lastmile_qr_scan"}, "is_reserved": 0, "name": "263988d61f06d12a3810be6c80bb0934", "lon": -76.99701916666666, "type": "electric_scooter", "bike_id": "263988d61f06d12a3810be6c80bb0934", "fusion_lon": 0.0, "lat": 38.83866833333333, "fusion_lat": 0.0}, {"is_disabled": 0, "rental_uris": {"android": "https://dc.lft.to/lastmile_qr_scan", "ios": "https://dc.lft.to/lastmile_qr_scan"}, "is_reserved": 0, "name": "334f3a371fd8a674fa94d54713a90917", "lon": -76.93205233333333, "type": "electric_bike", "bike_id": "334f3a371fd8a674fa94d54713a90917", "fusion_lon": 0.0, "lat": 38.87232816666667, "fusion_lat": 0.0}, {"is_disabled": 0, "rental_uris": {"android": "https://dc.lft.to/lastmile_qr_scan", "ios": "https://dc.lft.to/lastmile_qr_scan"}, "is_reserved": 0, "name": "8a1d5f1a70db14fdfd89cb4d1319e164", "lon": -76.98073366666667, "type": "electric_scooter", "bike_id": "8a1d5f1a70db14fdfd89cb4d1319e164", "fusion_lon": 0.0, "lat": 38.91934966666667, "fusion_lat": 0.0}, {"is_disabled": 0, "rental_uris": {"android": "https://dc.lft.to/lastmile_qr_scan", "ios": "https://dc.lft.to/lastmile_qr_scan"}, "is_reserved": 0, "name": "43f117721a7ebc8a29758c5d3442d177", "lon": -77.03904766666666, "type": "electric_scooter", "bike_id": "43f117721a7ebc8a29758c5d3442d177", "fusion_lon": 0.0, "lat": 38.9142795, "fusion_lat": 0.0}, {"is_disabled": 0, "rental_uris": {"android": "https://dc.lft.to/lastmile_qr_scan", "ios": "https://dc.lft.to/lastmile_qr_scan"}, "is_reserved": 0, "name": "d05b4300cd3f63e565a49cb4c2031ef5", "lon": -77.005931, "type": "electric_scooter", "bike_id": "d05b4300cd3f63e565a49cb4c2031ef5", "fusion_lon": 0.0, "lat": 38.92762833333333, "fusion_lat": 0.0}, {"is_disabled": 0, "rental_uris": {"android": "https://dc.lft.to/lastmile_qr_scan", "ios": "https://dc.lft.to/lastmile_qr_scan"}, "is_reserved": 0, "name": "2a3434971897e0700dfcc2c88311fcdd", "lon": -77.0081785, "type": "electric_scooter", "bike_id": "2a3434971897e0700dfcc2c88311fcdd", "fusion_lon": 0.0, "lat": 38.88334283333333, "fusion_lat": 0.0}, {"is_disabled": 0, "rental_uris": {"android": "https://dc.lft.to/lastmile_qr_scan", "ios": "https://dc.lft.to/lastmile_qr_scan"}, "is_reserved": 0, "name": "6d57235b84d465deb482f84aa17de59a", "lon": -77.01853416666667, "type": "electric_scooter", "bike_id": "6d57235b84d465deb482f84aa17de59a", "fusion_lon": 0.0, "lat": 38.95431283333333, "fusion_lat": 0.0}, {"is_disabled": 0, "rental_uris": {"android": "https://dc.lft.to/lastmile_qr_scan", "ios": "https://dc.lft.to/lastmile_qr_scan"}, "is_reserved": 0, "name": "76dcb712fda3824797a2b1361e1f3612", "lon": -77.0008175, "type": "electric_bike", "bike_id": "76dcb712fda3824797a2b1361e1f3612", "fusion_lon": 0.0, "lat": 38.88600683333333, "fusion_lat": 0.0}, {"is_disabled": 0, "rental_uris": {"android": "https://dc.lft.to/lastmile_qr_scan", "ios": "https://dc.lft.to/lastmile_qr_scan"}, "is_reserved": 0, "name": "7e6c754f4472724524815623ce251bdd", "lon": -77.021287, "type": "electric_bike", "bike_id": "7e6c754f4472724524815623ce251bdd", "fusion_lon": 0.0, "lat": 38.935810000000004, "fusion_lat": 0.0}, {"is_disabled": 0, "rental_uris": {"android": "https://dc.lft.to/lastmile_qr_scan", "ios": "https://dc.lft.to/lastmile_qr_scan"}, "is_reserved": 0, "name": "e9e6a93da1d8d383a00cb4f5e02ae072", "lon": -77.03258933333333, "type": "electric_scooter", "bike_id": "e9e6a93da1d8d383a00cb4f5e02ae072", "fusion_lon": 0.0, "lat": 38.921243833333335, "fusion_lat": 0.0}, {"is_disabled": 0, "rental_uris": {"android": "https://dc.lft.to/lastmile_qr_scan", "ios": "https://dc.lft.to/lastmile_qr_scan"}, "is_reserved": 0, "name": "3f930808a9c2e31272a575549f3117fb", "lon": -77.018898, "type": "electric_scooter", "bike_id": "3f930808a9c2e31272a575549f3117fb", "fusion_lon": 0.0, "lat": 38.929494, "fusion_lat": 0.0}, {"is_disabled": 0, "rental_uris": {"android": "https://dc.lft.to/lastmile_qr_scan", "ios": "https://dc.lft.to/lastmile_qr_scan"}, "is_reserved": 0, "name": "d4feb4b7ad0cd1a9cd79a93730ab1817", "lon": -77.0237535, "type": "electric_scooter", "bike_id": "d4feb4b7ad0cd1a9cd79a93730ab1817", "fusion_lon": 0.0, "lat": 38.9191685, "fusion_lat": 0.0}, {"is_disabled": 0, "rental_uris": {"android": "https://dc.lft.to/lastmile_qr_scan", "ios": "https://dc.lft.to/lastmile_qr_scan"}, "is_reserved": 0, "name": "96e95ba892a73a10e1d2fbe1db8b5210", "lon": -76.97920466666666, "type": "electric_scooter", "bike_id": "96e95ba892a73a10e1d2fbe1db8b5210", "fusion_lon": 0.0, "lat": 38.904343833333336, "fusion_lat": 0.0}, {"is_disabled": 0, "rental_uris": {"android": "https://dc.lft.to/lastmile_qr_scan", "ios": "https://dc.lft.to/lastmile_qr_scan"}, "is_reserved": 0, "name": "e29406aad3f6adc528cf85faf9dca5f1", "lon": -77.00880083333334, "type": "electric_scooter", "bike_id": "e29406aad3f6adc528cf85faf9dca5f1", "fusion_lon": 0.0, "lat": 38.905736166666664, "fusion_lat": 0.0}, {"is_disabled": 0, "rental_uris": {"android": "https://dc.lft.to/lastmile_qr_scan", "ios": "https://dc.lft.to/lastmile_qr_scan"}, "is_reserved": 0, "name": "b5108e8056d009fe385bca26274cddab", "lon": -77.06172316666667, "type": "electric_bike", "bike_id": "b5108e8056d009fe385bca26274cddab", "fusion_lon": 0.0, "lat": 38.81270766666667, "fusion_lat": 0.0}, {"is_disabled": 0, "rental_uris": {"android": "https://dc.lft.to/lastmile_qr_scan", "ios": "https://dc.lft.to/lastmile_qr_scan"}, "is_reserved": 0, "name": "3c85a2dfd67144f2d06a7357133df644", "lon": -77.07905183333334, "type": "electric_bike", "bike_id": "3c85a2dfd67144f2d06a7357133df644", "fusion_lon": 0.0, "lat": 38.83930066666667, "fusion_lat": 0.0}, {"is_disabled": 0, "rental_uris": {"android": "https://dc.lft.to/lastmile_qr_scan", "ios": "https://dc.lft.to/lastmile_qr_scan"}, "is_reserved": 0, "name": "82110eaeec3f4c822dffe6dd91274426", "lon": -77.008974, "type": "electric_scooter", "bike_id": "82110eaeec3f4c822dffe6dd91274426", "fusion_lon": 0.0, "lat": 38.895407666666664, "fusion_lat": 0.0}, {"is_disabled": 0, "rental_uris": {"android": "https://dc.lft.to/lastmile_qr_scan", "ios": "https://dc.lft.to/lastmile_qr_scan"}, "is_reserved": 0, "name": "bcbb0f4a5ceee31736ca0fe102871ad8", "lon": -77.03406566666666, "type": "electric_scooter", "bike_id": "bcbb0f4a5ceee31736ca0fe102871ad8", "fusion_lon": 0.0, "lat": 38.91968766666667, "fusion_lat": 0.0}, {"is_disabled": 0, "rental_uris": {"android": "https://dc.lft.to/lastmile_qr_scan", "ios": "https://dc.lft.to/lastmile_qr_scan"}, "is_reserved": 0, "name": "d5bd05faa9acc79154a4840c1bc0a325", "lon": -77.061065, "type": "electric_scooter", "bike_id": "d5bd05faa9acc79154a4840c1bc0a325", "fusion_lon": 0.0, "lat": 38.943698166666664, "fusion_lat": 0.0}, {"is_disabled": 0, "rental_uris": {"android": "https://dc.lft.to/lastmile_qr_scan", "ios": "https://dc.lft.to/lastmile_qr_scan"}, "is_reserved": 0, "name": "32017bfe95b7c68220dd48573c2f8bb6", "lon": -77.024073, "type": "electric_scooter", "bike_id": "32017bfe95b7c68220dd48573c2f8bb6", "fusion_lon": 0.0, "lat": 38.91681483333333, "fusion_lat": 0.0}, {"is_disabled": 0, "rental_uris": {"android": "https://dc.lft.to/lastmile_qr_scan", "ios": "https://dc.lft.to/lastmile_qr_scan"}, "is_reserved": 0, "name": "7d8328c76e6e206a23feb7ec43fa553a", "lon": -77.04677366666667, "type": "electric_scooter", "bike_id": "7d8328c76e6e206a23feb7ec43fa553a", "fusion_lon": 0.0, "lat": 38.90743833333333, "fusion_lat": 0.0}, {"is_disabled": 0, "rental_uris": {"android": "https://dc.lft.to/lastmile_qr_scan", "ios": "https://dc.lft.to/lastmile_qr_scan"}, "is_reserved": 0, "name": "a9d49bcc7e5e15bc4e944741371954b7", "lon": -76.9917285, "type": "electric_bike", "bike_id": "a9d49bcc7e5e15bc4e944741371954b7", "fusion_lon": 0.0, "lat": 38.97256433333333, "fusion_lat": 0.0}, {"is_disabled": 0, "rental_uris": {"android": "https://dc.lft.to/lastmile_qr_scan", "ios": "https://dc.lft.to/lastmile_qr_scan"}, "is_reserved": 0, "name": "cb9ff9eeb09fd5f7fee005e7c93ced43", "lon": -77.01755533333333, "type": "electric_scooter", "bike_id": "cb9ff9eeb09fd5f7fee005e7c93ced43", "fusion_lon": 0.0, "lat": 38.913534166666665, "fusion_lat": 0.0}, {"is_disabled": 0, "rental_uris": {"android": "https://dc.lft.to/lastmile_qr_scan", "ios": "https://dc.lft.to/lastmile_qr_scan"}, "is_reserved": 0, "name": "f2fbe1cee2cf0b387e9d5dfeb29b0f41", "lon": -77.0162345, "type": "electric_scooter", "bike_id": "f2fbe1cee2cf0b387e9d5dfeb29b0f41", "fusion_lon": 0.0, "lat": 38.898562166666665, "fusion_lat": 0.0}, {"is_disabled": 0, "rental_uris": {"android": "https://dc.lft.to/lastmile_qr_scan", "ios": "https://dc.lft.to/lastmile_qr_scan"}, "is_reserved": 0, "name": "9a4c5a395fd20d3fea7db724c8b2daed", "lon": -77.02809116666667, "type": "electric_scooter", "bike_id": "9a4c5a395fd20d3fea7db724c8b2daed", "fusion_lon": 0.0, "lat": 38.917680833333335, "fusion_lat": 0.0}, {"is_disabled": 0, "rental_uris": {"android": "https://dc.lft.to/lastmile_qr_scan", "ios": "https://dc.lft.to/lastmile_qr_scan"}, "is_reserved": 0, "name": "05fddf6de7998d058143e570fdad540b", "lon": -76.99487066666667, "type": "electric_scooter", "bike_id": "05fddf6de7998d058143e570fdad540b", "fusion_lon": 0.0, "lat": 38.93223866666666, "fusion_lat": 0.0}, {"is_disabled": 0, "rental_uris": {"android": "https://dc.lft.to/lastmile_qr_scan", "ios": "https://dc.lft.to/lastmile_qr_scan"}, "is_reserved": 0, "name": "6a4a794941e3ad4bac3d595afc8ac341", "lon": -77.001192, "type": "electric_scooter", "bike_id": "6a4a794941e3ad4bac3d595afc8ac341", "fusion_lon": 0.0, "lat": 38.912538, "fusion_lat": 0.0}, {"is_disabled": 0, "rental_uris": {"android": "https://dc.lft.to/lastmile_qr_scan", "ios": "https://dc.lft.to/lastmile_qr_scan"}, "is_reserved": 0, "name": "c6467bc223a693810cbc7e72599e6d8c", "lon": -77.01017533333334, "type": "electric_scooter", "bike_id": "c6467bc223a693810cbc7e72599e6d8c", "fusion_lon": 0.0, "lat": 38.87966466666666, "fusion_lat": 0.0}, {"is_disabled": 0, "rental_uris": {"android": "https://dc.lft.to/lastmile_qr_scan", "ios": "https://dc.lft.to/lastmile_qr_scan"}, "is_reserved": 0, "name": "e071146421cffe58f29cc1fd63b0c5da", "lon": -76.92919233333333, "type": "electric_bike", "bike_id": "e071146421cffe58f29cc1fd63b0c5da", "fusion_lon": 0.0, "lat": 38.98026266666667, "fusion_lat": 0.0}, {"is_disabled": 0, "rental_uris": {"android": "https://dc.lft.to/lastmile_qr_scan", "ios": "https://dc.lft.to/lastmile_qr_scan"}, "is_reserved": 0, "name": "c56a02962d4b1cdd1f2d83261a03d382", "lon": -77.05069633333333, "type": "electric_scooter", "bike_id": "c56a02962d4b1cdd1f2d83261a03d382", "fusion_lon": 0.0, "lat": 38.900712, "fusion_lat": 0.0}, {"is_disabled": 0, "rental_uris": {"android": "https://dc.lft.to/lastmile_qr_scan", "ios": "https://dc.lft.to/lastmile_qr_scan"}, "is_reserved": 0, "name": "9d5b8bba8ffa84e43fa11f00baf80b4b", "lon": -76.9950615, "type": "electric_scooter", "bike_id": "9d5b8bba8ffa84e43fa11f00baf80b4b", "fusion_lon": 0.0, "lat": 38.898173666666665, "fusion_lat": 0.0}, {"is_disabled": 0, "rental_uris": {"android": "https://dc.lft.to/lastmile_qr_scan", "ios": "https://dc.lft.to/lastmile_qr_scan"}, "is_reserved": 0, "name": "5080c32a082bb585d7b4b8c8c8ef63dd", "lon": -76.94471116666666, "type": "electric_scooter", "bike_id": "5080c32a082bb585d7b4b8c8c8ef63dd", "fusion_lon": 0.0, "lat": 38.90281683333333, "fusion_lat": 0.0}, {"is_disabled": 0, "rental_uris": {"android": "https://dc.lft.to/lastmile_qr_scan", "ios": "https://dc.lft.to/lastmile_qr_scan"}, "is_reserved": 0, "name": "a0b82af9da0174c97e45282ad2aa533a", "lon": -77.04766566666666, "type": "electric_scooter", "bike_id": "a0b82af9da0174c97e45282ad2aa533a", "fusion_lon": 0.0, "lat": 38.9124505, "fusion_lat": 0.0}, {"is_disabled": 0, "rental_uris": {"android": "https://dc.lft.to/lastmile_qr_scan", "ios": "https://dc.lft.to/lastmile_qr_scan"}, "is_reserved": 0, "name": "c3f1313ed6e4555c8d877d7124be984b", "lon": -77.05059016666667, "type": "electric_scooter", "bike_id": "c3f1313ed6e4555c8d877d7124be984b", "fusion_lon": 0.0, "lat": 38.900854333333335, "fusion_lat": 0.0}, {"is_disabled": 0, "rental_uris": {"android": "https://dc.lft.to/lastmile_qr_scan", "ios": "https://dc.lft.to/lastmile_qr_scan"}, "is_reserved": 0, "name": "f6e11a5f8051d171eda362e1a236065e", "lon": -77.047998, "type": "electric_scooter", "bike_id": "f6e11a5f8051d171eda362e1a236065e", "fusion_lon": 0.0, "lat": 38.904619333333336, "fusion_lat": 0.0}, {"is_disabled": 0, "rental_uris": {"android": "https://dc.lft.to/lastmile_qr_scan", "ios": "https://dc.lft.to/lastmile_qr_scan"}, "is_reserved": 0, "name": "85ef2ab998a27c1b5704d3300537b70c", "lon": -76.9464005, "type": "electric_scooter", "bike_id": "85ef2ab998a27c1b5704d3300537b70c", "fusion_lon": 0.0, "lat": 38.898435166666665, "fusion_lat": 0.0}, {"is_disabled": 0, "rental_uris": {"android": "https://dc.lft.to/lastmile_qr_scan", "ios": "https://dc.lft.to/lastmile_qr_scan"}, "is_reserved": 0, "name": "187dc9f1979c853eacd1d2df2019002d", "lon": -77.03525083333334, "type": "electric_scooter", "bike_id": "187dc9f1979c853eacd1d2df2019002d", "fusion_lon": 0.0, "lat": 38.92261466666667, "fusion_lat": 0.0}, {"is_disabled": 0, "rental_uris": {"android": "https://dc.lft.to/lastmile_qr_scan", "ios": "https://dc.lft.to/lastmile_qr_scan"}, "is_reserved": 0, "name": "99f003ac8519e401333803bc60b3fd64", "lon": -77.03443683333333, "type": "electric_scooter", "bike_id": "99f003ac8519e401333803bc60b3fd64", "fusion_lon": 0.0, "lat": 38.908924666666664, "fusion_lat": 0.0}, {"is_disabled": 0, "rental_uris": {"android": "https://dc.lft.to/lastmile_qr_scan", "ios": "https://dc.lft.to/lastmile_qr_scan"}, "is_reserved": 0, "name": "f1d77f3d3d187a1a9bb63f118a715624", "lon": -77.03873683333333, "type": "electric_scooter", "bike_id": "f1d77f3d3d187a1a9bb63f118a715624", "fusion_lon": 0.0, "lat": 38.91571733333333, "fusion_lat": 0.0}, {"is_disabled": 0, "rental_uris": {"android": "https://dc.lft.to/lastmile_qr_scan", "ios": "https://dc.lft.to/lastmile_qr_scan"}, "is_reserved": 0, "name": "279b7f8ac9ac570cfdc53ad213c08901", "lon": -77.03528416666667, "type": "electric_scooter", "bike_id": "279b7f8ac9ac570cfdc53ad213c08901", "fusion_lon": 0.0, "lat": 38.92339533333333, "fusion_lat": 0.0}, {"is_disabled": 0, "rental_uris": {"android": "https://dc.lft.to/lastmile_qr_scan", "ios": "https://dc.lft.to/lastmile_qr_scan"}, "is_reserved": 0, "name": "63df63f87da75f8677b6e8bdf862e430", "lon": -77.0174105, "type": "electric_scooter", "bike_id": "63df63f87da75f8677b6e8bdf862e430", "fusion_lon": 0.0, "lat": 38.91119833333333, "fusion_lat": 0.0}, {"is_disabled": 0, "rental_uris": {"android": "https://dc.lft.to/lastmile_qr_scan", "ios": "https://dc.lft.to/lastmile_qr_scan"}, "is_reserved": 0, "name": "60ce3aca567aac3e2db1aef690b36396", "lon": -77.01710033333333, "type": "electric_scooter", "bike_id": "60ce3aca567aac3e2db1aef690b36396", "fusion_lon": 0.0, "lat": 38.90254483333333, "fusion_lat": 0.0}, {"is_disabled": 0, "rental_uris": {"android": "https://dc.lft.to/lastmile_qr_scan", "ios": "https://dc.lft.to/lastmile_qr_scan"}, "is_reserved": 0, "name": "5ffb990a070245724f7936713a3a175d", "lon": -77.02951966666667, "type": "electric_scooter", "bike_id": "5ffb990a070245724f7936713a3a175d", "fusion_lon": 0.0, "lat": 38.927611, "fusion_lat": 0.0}, {"is_disabled": 0, "rental_uris": {"android": "https://dc.lft.to/lastmile_qr_scan", "ios": "https://dc.lft.to/lastmile_qr_scan"}, "is_reserved": 0, "name": "d56ec5f2c10b33b5049ed592915d19db", "lon": -77.0318085, "type": "electric_scooter", "bike_id": "d56ec5f2c10b33b5049ed592915d19db", "fusion_lon": 0.0, "lat": 38.90105483333333, "fusion_lat": 0.0}, {"is_disabled": 0, "rental_uris": {"android": "https://dc.lft.to/lastmile_qr_scan", "ios": "https://dc.lft.to/lastmile_qr_scan"}, "is_reserved": 0, "name": "055f72d196f0345445ac195edb6a2eab", "lon": -77.02494283333333, "type": "electric_scooter", "bike_id": "055f72d196f0345445ac195edb6a2eab", "fusion_lon": 0.0, "lat": 38.94183016666667, "fusion_lat": 0.0}, {"is_disabled": 0, "rental_uris": {"android": "https://dc.lft.to/lastmile_qr_scan", "ios": "https://dc.lft.to/lastmile_qr_scan"}, "is_reserved": 0, "name": "3639cb39e09457e8e5b12879446c558a", "lon": -77.02541133333334, "type": "electric_scooter", "bike_id": "3639cb39e09457e8e5b12879446c558a", "fusion_lon": 0.0, "lat": 38.92403083333333, "fusion_lat": 0.0}, {"is_disabled": 0, "rental_uris": {"android": "https://dc.lft.to/lastmile_qr_scan", "ios": "https://dc.lft.to/lastmile_qr_scan"}, "is_reserved": 0, "name": "9376e55941a222a1e6f2cf04d6c3b355", "lon": -77.00059316666666, "type": "electric_scooter", "bike_id": "9376e55941a222a1e6f2cf04d6c3b355", "fusion_lon": 0.0, "lat": 38.8885865, "fusion_lat": 0.0}, {"is_disabled": 0, "rental_uris": {"android": "https://dc.lft.to/lastmile_qr_scan", "ios": "https://dc.lft.to/lastmile_qr_scan"}, "is_reserved": 0, "name": "d192708923a4896f37c672177ec6446b", "lon": -77.0450315, "type": "electric_scooter", "bike_id": "d192708923a4896f37c672177ec6446b", "fusion_lon": 0.0, "lat": 38.906695166666665, "fusion_lat": 0.0}, {"is_disabled": 0, "rental_uris": {"android": "https://dc.lft.to/lastmile_qr_scan", "ios": "https://dc.lft.to/lastmile_qr_scan"}, "is_reserved": 0, "name": "54d483968dd54321fab10651334bd438", "lon": -77.02510266666667, "type": "electric_scooter", "bike_id": "54d483968dd54321fab10651334bd438", "fusion_lon": 0.0, "lat": 38.919487333333336, "fusion_lat": 0.0}, {"is_disabled": 0, "rental_uris": {"android": "https://dc.lft.to/lastmile_qr_scan", "ios": "https://dc.lft.to/lastmile_qr_scan"}, "is_reserved": 0, "name": "7f81ef86cca5ec5521771b1dff6b3387", "lon": -76.985742, "type": "electric_scooter", "bike_id": "7f81ef86cca5ec5521771b1dff6b3387", "fusion_lon": 0.0, "lat": 38.896172, "fusion_lat": 0.0}, {"is_disabled": 0, "rental_uris": {"android": "https://dc.lft.to/lastmile_qr_scan", "ios": "https://dc.lft.to/lastmile_qr_scan"}, "is_reserved": 0, "name": "a60a36468fc83d4401b594e38a4fadb1", "lon": -77.0277865, "type": "electric_scooter", "bike_id": "a60a36468fc83d4401b594e38a4fadb1", "fusion_lon": 0.0, "lat": 38.917041166666664, "fusion_lat": 0.0}, {"is_disabled": 0, "rental_uris": {"android": "https://dc.lft.to/lastmile_qr_scan", "ios": "https://dc.lft.to/lastmile_qr_scan"}, "is_reserved": 0, "name": "e33ef66130f213c3e8c79d03023dc950", "lon": -77.02623433333333, "type": "electric_scooter", "bike_id": "e33ef66130f213c3e8c79d03023dc950", "fusion_lon": 0.0, "lat": 38.915665833333335, "fusion_lat": 0.0}, {"is_disabled": 0, "rental_uris": {"android": "https://dc.lft.to/lastmile_qr_scan", "ios": "https://dc.lft.to/lastmile_qr_scan"}, "is_reserved": 0, "name": "58b5388f193c06481e16795d75d67e96", "lon": -77.02656533333334, "type": "electric_scooter", "bike_id": "58b5388f193c06481e16795d75d67e96", "fusion_lon": 0.0, "lat": 38.89601316666667, "fusion_lat": 0.0}, {"is_disabled": 0, "rental_uris": {"android": "https://dc.lft.to/lastmile_qr_scan", "ios": "https://dc.lft.to/lastmile_qr_scan"}, "is_reserved": 0, "name": "433cf16bee00d8fabd5149d76915aae1", "lon": -77.01143566666667, "type": "electric_scooter", "bike_id": "433cf16bee00d8fabd5149d76915aae1", "fusion_lon": 0.0, "lat": 38.920281833333334, "fusion_lat": 0.0}, {"is_disabled": 0, "rental_uris": {"android": "https://dc.lft.to/lastmile_qr_scan", "ios": "https://dc.lft.to/lastmile_qr_scan"}, "is_reserved": 0, "name": "82221455ef0719c1c497efea0532bd4f", "lon": -76.99559583333334, "type": "electric_scooter", "bike_id": "82221455ef0719c1c497efea0532bd4f", "fusion_lon": 0.0, "lat": 38.883834, "fusion_lat": 0.0}, {"is_disabled": 0, "rental_uris": {"android": "https://dc.lft.to/lastmile_qr_scan", "ios": "https://dc.lft.to/lastmile_qr_scan"}, "is_reserved": 0, "name": "c85eaafbbadcc4f5a85235f24a6305af", "lon": -76.94539433333334, "type": "electric_bike", "bike_id": "c85eaafbbadcc4f5a85235f24a6305af", "fusion_lon": 0.0, "lat": 38.86755133333333, "fusion_lat": 0.0}, {"is_disabled": 0, "rental_uris": {"android": "https://dc.lft.to/lastmile_qr_scan", "ios": "https://dc.lft.to/lastmile_qr_scan"}, "is_reserved": 0, "name": "b5bad4dd8090942d66ebcbcb9061982e", "lon": -76.98079133333333, "type": "electric_scooter", "bike_id": "b5bad4dd8090942d66ebcbcb9061982e", "fusion_lon": 0.0, "lat": 38.93649883333333, "fusion_lat": 0.0}, {"is_disabled": 0, "rental_uris": {"android": "https://dc.lft.to/lastmile_qr_scan", "ios": "https://dc.lft.to/lastmile_qr_scan"}, "is_reserved": 0, "name": "5fb5de735d148574baeaa3980eec85df", "lon": -76.99064233333333, "type": "electric_scooter", "bike_id": "5fb5de735d148574baeaa3980eec85df", "fusion_lon": 0.0, "lat": 38.8635395, "fusion_lat": 0.0}, {"is_disabled": 0, "rental_uris": {"android": "https://dc.lft.to/lastmile_qr_scan", "ios": "https://dc.lft.to/lastmile_qr_scan"}, "is_reserved": 0, "name": "b335935ede9daabf5796a662c92dfa33", "lon": -77.020044, "type": "electric_scooter", "bike_id": "b335935ede9daabf5796a662c92dfa33", "fusion_lon": 0.0, "lat": 38.89860983333333, "fusion_lat": 0.0}, {"is_disabled": 0, "rental_uris": {"android": "https://dc.lft.to/lastmile_qr_scan", "ios": "https://dc.lft.to/lastmile_qr_scan"}, "is_reserved": 0, "name": "50addc11b2b46a73c353f549c71f07ad", "lon": -77.0272175, "type": "electric_scooter", "bike_id": "50addc11b2b46a73c353f549c71f07ad", "fusion_lon": 0.0, "lat": 38.909602166666666, "fusion_lat": 0.0}, {"is_disabled": 0, "rental_uris": {"android": "https://dc.lft.to/lastmile_qr_scan", "ios": "https://dc.lft.to/lastmile_qr_scan"}, "is_reserved": 0, "name": "685caf044987c6dc52d4cac6ac99e8fc", "lon": -77.05961183333334, "type": "electric_scooter", "bike_id": "685caf044987c6dc52d4cac6ac99e8fc", "fusion_lon": 0.0, "lat": 38.940845, "fusion_lat": 0.0}, {"is_disabled": 0, "rental_uris": {"android": "https://dc.lft.to/lastmile_qr_scan", "ios": "https://dc.lft.to/lastmile_qr_scan"}, "is_reserved": 0, "name": "496a04a1425b65a56c75fe0887fa7aef", "lon": -77.03664066666667, "type": "electric_scooter", "bike_id": "496a04a1425b65a56c75fe0887fa7aef", "fusion_lon": 0.0, "lat": 38.915923, "fusion_lat": 0.0}, {"is_disabled": 0, "rental_uris": {"android": "https://dc.lft.to/lastmile_qr_scan", "ios": "https://dc.lft.to/lastmile_qr_scan"}, "is_reserved": 0, "name": "505fec745edfddf931a578ccd388f56d", "lon": -76.96560683333334, "type": "electric_scooter", "bike_id": "505fec745edfddf931a578ccd388f56d", "fusion_lon": 0.0, "lat": 38.918389, "fusion_lat": 0.0}, {"is_disabled": 0, "rental_uris": {"android": "https://dc.lft.to/lastmile_qr_scan", "ios": "https://dc.lft.to/lastmile_qr_scan"}, "is_reserved": 0, "name": "a7e566e40285a75478e421cbd005648b", "lon": -77.01745733333334, "type": "electric_scooter", "bike_id": "a7e566e40285a75478e421cbd005648b", "fusion_lon": 0.0, "lat": 38.9144255, "fusion_lat": 0.0}, {"is_disabled": 0, "rental_uris": {"android": "https://dc.lft.to/lastmile_qr_scan", "ios": "https://dc.lft.to/lastmile_qr_scan"}, "is_reserved": 0, "name": "36a4dd139586e26c2014ebc8db05fd63", "lon": -77.0329445, "type": "electric_scooter", "bike_id": "36a4dd139586e26c2014ebc8db05fd63", "fusion_lon": 0.0, "lat": 38.93387383333334, "fusion_lat": 0.0}, {"is_disabled": 0, "rental_uris": {"android": "https://dc.lft.to/lastmile_qr_scan", "ios": "https://dc.lft.to/lastmile_qr_scan"}, "is_reserved": 0, "name": "35ffd49f8ee9d5d8bd495c28780aa584", "lon": -77.0305335, "type": "electric_scooter", "bike_id": "35ffd49f8ee9d5d8bd495c28780aa584", "fusion_lon": 0.0, "lat": 38.899860833333335, "fusion_lat": 0.0}, {"is_disabled": 0, "rental_uris": {"android": "https://dc.lft.to/lastmile_qr_scan", "ios": "https://dc.lft.to/lastmile_qr_scan"}, "is_reserved": 0, "name": "8f39cf86cd315558074cce3796b87492", "lon": -77.07295866666666, "type": "electric_scooter", "bike_id": "8f39cf86cd315558074cce3796b87492", "fusion_lon": 0.0, "lat": 38.9228145, "fusion_lat": 0.0}, {"is_disabled": 0, "rental_uris": {"android": "https://dc.lft.to/lastmile_qr_scan", "ios": "https://dc.lft.to/lastmile_qr_scan"}, "is_reserved": 0, "name": "5321e462698b41578b656444b967e0bc", "lon": -77.0346255, "type": "electric_scooter", "bike_id": "5321e462698b41578b656444b967e0bc", "fusion_lon": 0.0, "lat": 38.910089166666666, "fusion_lat": 0.0}, {"is_disabled": 0, "rental_uris": {"android": "https://dc.lft.to/lastmile_qr_scan", "ios": "https://dc.lft.to/lastmile_qr_scan"}, "is_reserved": 0, "name": "b50f1b7936ae097d469c9644801d86ae", "lon": -77.01460966666667, "type": "electric_scooter", "bike_id": "b50f1b7936ae097d469c9644801d86ae", "fusion_lon": 0.0, "lat": 38.929942833333335, "fusion_lat": 0.0}, {"is_disabled": 0, "rental_uris": {"android": "https://dc.lft.to/lastmile_qr_scan", "ios": "https://dc.lft.to/lastmile_qr_scan"}, "is_reserved": 0, "name": "88bbc1a68c4fe35eba64794a1501a1c1", "lon": -76.98372116666667, "type": "electric_scooter", "bike_id": "88bbc1a68c4fe35eba64794a1501a1c1", "fusion_lon": 0.0, "lat": 38.92199516666667, "fusion_lat": 0.0}, {"is_disabled": 0, "rental_uris": {"android": "https://dc.lft.to/lastmile_qr_scan", "ios": "https://dc.lft.to/lastmile_qr_scan"}, "is_reserved": 0, "name": "f1e06041f36d34b3f06ac318291705e3", "lon": -77.02834283333334, "type": "electric_scooter", "bike_id": "f1e06041f36d34b3f06ac318291705e3", "fusion_lon": 0.0, "lat": 38.9142345, "fusion_lat": 0.0}, {"is_disabled": 0, "rental_uris": {"android": "https://dc.lft.to/lastmile_qr_scan", "ios": "https://dc.lft.to/lastmile_qr_scan"}, "is_reserved": 0, "name": "ab5a56e41fa16271e57fe42efefce9c5", "lon": -77.03199666666667, "type": "electric_scooter", "bike_id": "ab5a56e41fa16271e57fe42efefce9c5", "fusion_lon": 0.0, "lat": 38.93072266666667, "fusion_lat": 0.0}, {"is_disabled": 0, "rental_uris": {"android": "https://dc.lft.to/lastmile_qr_scan", "ios": "https://dc.lft.to/lastmile_qr_scan"}, "is_reserved": 0, "name": "d0d5749a51a89ecf3a9b9fa536f11153", "lon": -77.06364666666667, "type": "electric_scooter", "bike_id": "d0d5749a51a89ecf3a9b9fa536f11153", "fusion_lon": 0.0, "lat": 38.94412633333334, "fusion_lat": 0.0}, {"is_disabled": 0, "rental_uris": {"android": "https://dc.lft.to/lastmile_qr_scan", "ios": "https://dc.lft.to/lastmile_qr_scan"}, "is_reserved": 0, "name": "0cf8cd216afcff27774ad0f0f97cf767", "lon": -77.0557405, "type": "electric_scooter", "bike_id": "0cf8cd216afcff27774ad0f0f97cf767", "fusion_lon": 0.0, "lat": 38.89985683333333, "fusion_lat": 0.0}, {"is_disabled": 0, "rental_uris": {"android": "https://dc.lft.to/lastmile_qr_scan", "ios": "https://dc.lft.to/lastmile_qr_scan"}, "is_reserved": 0, "name": "3d295516106c24d64c606705580def45", "lon": -77.05118766666666, "type": "electric_bike", "bike_id": "3d295516106c24d64c606705580def45", "fusion_lon": 0.0, "lat": 38.945656, "fusion_lat": 0.0}, {"is_disabled": 0, "rental_uris": {"android": "https://dc.lft.to/lastmile_qr_scan", "ios": "https://dc.lft.to/lastmile_qr_scan"}, "is_reserved": 0, "name": "6f9d4ba88481a6e2e812ce3d6389ff1b", "lon": -77.10718733333333, "type": "electric_bike", "bike_id": "6f9d4ba88481a6e2e812ce3d6389ff1b", "fusion_lon": 0.0, "lat": 38.85551616666667, "fusion_lat": 0.0}, {"is_disabled": 0, "rental_uris": {"android": "https://dc.lft.to/lastmile_qr_scan", "ios": "https://dc.lft.to/lastmile_qr_scan"}, "is_reserved": 0, "name": "2bfa002de25f086410ff5384c5add18e", "lon": -77.03187816666667, "type": "electric_scooter", "bike_id": "2bfa002de25f086410ff5384c5add18e", "fusion_lon": 0.0, "lat": 38.91907366666667, "fusion_lat": 0.0}, {"is_disabled": 0, "rental_uris": {"android": "https://dc.lft.to/lastmile_qr_scan", "ios": "https://dc.lft.to/lastmile_qr_scan"}, "is_reserved": 0, "name": "f899a8525bd1d2d7b2b0c20584079539", "lon": -76.99965766666666, "type": "electric_scooter", "bike_id": "f899a8525bd1d2d7b2b0c20584079539", "fusion_lon": 0.0, "lat": 38.903365, "fusion_lat": 0.0}, {"is_disabled": 0, "rental_uris": {"android": "https://dc.lft.to/lastmile_qr_scan", "ios": "https://dc.lft.to/lastmile_qr_scan"}, "is_reserved": 0, "name": "7263bf086e833986a379466b3ed11c7c", "lon": -77.00648983333333, "type": "electric_bike", "bike_id": "7263bf086e833986a379466b3ed11c7c", "fusion_lon": 0.0, "lat": 38.944743833333334, "fusion_lat": 0.0}, {"is_disabled": 0, "rental_uris": {"android": "https://dc.lft.to/lastmile_qr_scan", "ios": "https://dc.lft.to/lastmile_qr_scan"}, "is_reserved": 0, "name": "5ccf0dbbecfcde7aeb3abc16f32929bf", "lon": -77.0387915, "type": "electric_scooter", "bike_id": "5ccf0dbbecfcde7aeb3abc16f32929bf", "fusion_lon": 0.0, "lat": 38.93429, "fusion_lat": 0.0}, {"is_disabled": 0, "rental_uris": {"android": "https://dc.lft.to/lastmile_qr_scan", "ios": "https://dc.lft.to/lastmile_qr_scan"}, "is_reserved": 0, "name": "60eaf4b19a7a3c85ce0614c12ada95b8", "lon": -77.0319285, "type": "electric_scooter", "bike_id": "60eaf4b19a7a3c85ce0614c12ada95b8", "fusion_lon": 0.0, "lat": 38.91912266666667, "fusion_lat": 0.0}, {"is_disabled": 0, "rental_uris": {"android": "https://dc.lft.to/lastmile_qr_scan", "ios": "https://dc.lft.to/lastmile_qr_scan"}, "is_reserved": 0, "name": "3f1a95fd472a151f34695c561bf4519f", "lon": -77.05842883333334, "type": "electric_scooter", "bike_id": "3f1a95fd472a151f34695c561bf4519f", "fusion_lon": 0.0, "lat": 38.93425533333333, "fusion_lat": 0.0}, {"is_disabled": 0, "rental_uris": {"android": "https://dc.lft.to/lastmile_qr_scan", "ios": "https://dc.lft.to/lastmile_qr_scan"}, "is_reserved": 0, "name": "e96047c4f57bea074e09f3d391d38240", "lon": -77.01537683333333, "type": "electric_scooter", "bike_id": "e96047c4f57bea074e09f3d391d38240", "fusion_lon": 0.0, "lat": 38.88739233333333, "fusion_lat": 0.0}, {"is_disabled": 0, "rental_uris": {"android": "https://dc.lft.to/lastmile_qr_scan", "ios": "https://dc.lft.to/lastmile_qr_scan"}, "is_reserved": 0, "name": "4a72d7d6d6cd7b88dc7679f69e880be2", "lon": -77.007201, "type": "electric_scooter", "bike_id": "4a72d7d6d6cd7b88dc7679f69e880be2", "fusion_lon": 0.0, "lat": 38.884964833333335, "fusion_lat": 0.0}, {"is_disabled": 0, "rental_uris": {"android": "https://dc.lft.to/lastmile_qr_scan", "ios": "https://dc.lft.to/lastmile_qr_scan"}, "is_reserved": 0, "name": "bdc23b31c42e3e607d1693c78b7680e6", "lon": -77.0151765, "type": "electric_scooter", "bike_id": "bdc23b31c42e3e607d1693c78b7680e6", "fusion_lon": 0.0, "lat": 38.872716833333335, "fusion_lat": 0.0}, {"is_disabled": 0, "rental_uris": {"android": "https://dc.lft.to/lastmile_qr_scan", "ios": "https://dc.lft.to/lastmile_qr_scan"}, "is_reserved": 0, "name": "a9acf6788d99cdfc76ce086b0b0eb96f", "lon": -77.03989416666667, "type": "electric_bike", "bike_id": "a9acf6788d99cdfc76ce086b0b0eb96f", "fusion_lon": 0.0, "lat": 38.802969833333336, "fusion_lat": 0.0}, {"is_disabled": 0, "rental_uris": {"android": "https://dc.lft.to/lastmile_qr_scan", "ios": "https://dc.lft.to/lastmile_qr_scan"}, "is_reserved": 0, "name": "6ca29016b2df8380ec0de5551eecae8f", "lon": -77.01110233333333, "type": "electric_scooter", "bike_id": "6ca29016b2df8380ec0de5551eecae8f", "fusion_lon": 0.0, "lat": 38.90969833333333, "fusion_lat": 0.0}, {"is_disabled": 0, "rental_uris": {"android": "https://dc.lft.to/lastmile_qr_scan", "ios": "https://dc.lft.to/lastmile_qr_scan"}, "is_reserved": 0, "name": "13fd2ab2ecef852b2a7f1428c1c4da11", "lon": -76.98371316666666, "type": "electric_scooter", "bike_id": "13fd2ab2ecef852b2a7f1428c1c4da11", "fusion_lon": 0.0, "lat": 38.91554133333333, "fusion_lat": 0.0}, {"is_disabled": 0, "rental_uris": {"android": "https://dc.lft.to/lastmile_qr_scan", "ios": "https://dc.lft.to/lastmile_qr_scan"}, "is_reserved": 0, "name": "0326e2afc09d35f533857af93edc7fa4", "lon": -77.03143983333334, "type": "electric_scooter", "bike_id": "0326e2afc09d35f533857af93edc7fa4", "fusion_lon": 0.0, "lat": 38.924839166666665, "fusion_lat": 0.0}, {"is_disabled": 0, "rental_uris": {"android": "https://dc.lft.to/lastmile_qr_scan", "ios": "https://dc.lft.to/lastmile_qr_scan"}, "is_reserved": 0, "name": "72955f143903a6eaa341d08c1cc641e4", "lon": -77.0408755, "type": "electric_scooter", "bike_id": "72955f143903a6eaa341d08c1cc641e4", "fusion_lon": 0.0, "lat": 38.900302833333335, "fusion_lat": 0.0}, {"is_disabled": 0, "rental_uris": {"android": "https://dc.lft.to/lastmile_qr_scan", "ios": "https://dc.lft.to/lastmile_qr_scan"}, "is_reserved": 0, "name": "a47bed101b0c1af2746dddd9fceed02f", "lon": -77.03667683333333, "type": "electric_scooter", "bike_id": "a47bed101b0c1af2746dddd9fceed02f", "fusion_lon": 0.0, "lat": 38.91247466666667, "fusion_lat": 0.0}, {"is_disabled": 0, "rental_uris": {"android": "https://dc.lft.to/lastmile_qr_scan", "ios": "https://dc.lft.to/lastmile_qr_scan"}, "is_reserved": 0, "name": "f32447549d9e375f706c3bdf0542e63d", "lon": -77.09578366666666, "type": "electric_bike", "bike_id": "f32447549d9e375f706c3bdf0542e63d", "fusion_lon": 0.0, "lat": 38.9168135, "fusion_lat": 0.0}, {"is_disabled": 0, "rental_uris": {"android": "https://dc.lft.to/lastmile_qr_scan", "ios": "https://dc.lft.to/lastmile_qr_scan"}, "is_reserved": 0, "name": "f23c8928e884d85cdbf148d0f03557d7", "lon": -76.99539333333334, "type": "electric_scooter", "bike_id": "f23c8928e884d85cdbf148d0f03557d7", "fusion_lon": 0.0, "lat": 38.86254616666667, "fusion_lat": 0.0}, {"is_disabled": 0, "rental_uris": {"android": "https://dc.lft.to/lastmile_qr_scan", "ios": "https://dc.lft.to/lastmile_qr_scan"}, "is_reserved": 0, "name": "09331d2f37613f1d31b8ef622c01dbdb", "lon": -77.03995533333334, "type": "electric_scooter", "bike_id": "09331d2f37613f1d31b8ef622c01dbdb", "fusion_lon": 0.0, "lat": 38.907356666666665, "fusion_lat": 0.0}, {"is_disabled": 0, "rental_uris": {"android": "https://dc.lft.to/lastmile_qr_scan", "ios": "https://dc.lft.to/lastmile_qr_scan"}, "is_reserved": 0, "name": "c416187c60f5dbbf53696ede85aa0050", "lon": -77.02223616666667, "type": "electric_scooter", "bike_id": "c416187c60f5dbbf53696ede85aa0050", "fusion_lon": 0.0, "lat": 38.912696333333336, "fusion_lat": 0.0}, {"is_disabled": 0, "rental_uris": {"android": "https://dc.lft.to/lastmile_qr_scan", "ios": "https://dc.lft.to/lastmile_qr_scan"}, "is_reserved": 0, "name": "ba14180852b17c4fc4e7985d581943ab", "lon": -77.03004766666666, "type": "electric_scooter", "bike_id": "ba14180852b17c4fc4e7985d581943ab", "fusion_lon": 0.0, "lat": 38.924809, "fusion_lat": 0.0}, {"is_disabled": 0, "rental_uris": {"android": "https://dc.lft.to/lastmile_qr_scan", "ios": "https://dc.lft.to/lastmile_qr_scan"}, "is_reserved": 0, "name": "29726067ce80a2e2bf5bf8c34b58ff12", "lon": -77.01779366666666, "type": "electric_scooter", "bike_id": "29726067ce80a2e2bf5bf8c34b58ff12", "fusion_lon": 0.0, "lat": 38.88324433333333, "fusion_lat": 0.0}, {"is_disabled": 0, "rental_uris": {"android": "https://dc.lft.to/lastmile_qr_scan", "ios": "https://dc.lft.to/lastmile_qr_scan"}, "is_reserved": 0, "name": "f9bf209e8125760db9aea4d67085898f", "lon": -77.04382866666667, "type": "electric_scooter", "bike_id": "f9bf209e8125760db9aea4d67085898f", "fusion_lon": 0.0, "lat": 38.90265633333333, "fusion_lat": 0.0}, {"is_disabled": 0, "rental_uris": {"android": "https://dc.lft.to/lastmile_qr_scan", "ios": "https://dc.lft.to/lastmile_qr_scan"}, "is_reserved": 0, "name": "58548585260af3de6043648336b3aa0b", "lon": -77.03163616666667, "type": "electric_scooter", "bike_id": "58548585260af3de6043648336b3aa0b", "fusion_lon": 0.0, "lat": 38.916842, "fusion_lat": 0.0}, {"is_disabled": 0, "rental_uris": {"android": "https://dc.lft.to/lastmile_qr_scan", "ios": "https://dc.lft.to/lastmile_qr_scan"}, "is_reserved": 0, "name": "caaa94aff7194f88eb3f0b2b22d051dc", "lon": -77.04244033333333, "type": "electric_scooter", "bike_id": "caaa94aff7194f88eb3f0b2b22d051dc", "fusion_lon": 0.0, "lat": 38.919233166666665, "fusion_lat": 0.0}, {"is_disabled": 0, "rental_uris": {"android": "https://dc.lft.to/lastmile_qr_scan", "ios": "https://dc.lft.to/lastmile_qr_scan"}, "is_reserved": 0, "name": "ff81052f324cc681ac27bc3eedb8729d", "lon": -77.018793, "type": "electric_scooter", "bike_id": "ff81052f324cc681ac27bc3eedb8729d", "fusion_lon": 0.0, "lat": 38.900485333333336, "fusion_lat": 0.0}, {"is_disabled": 0, "rental_uris": {"android": "https://dc.lft.to/lastmile_qr_scan", "ios": "https://dc.lft.to/lastmile_qr_scan"}, "is_reserved": 0, "name": "b5cc3ae214db480836683b9a55f3758d", "lon": -77.03859016666667, "type": "electric_scooter", "bike_id": "b5cc3ae214db480836683b9a55f3758d", "fusion_lon": 0.0, "lat": 38.90117766666667, "fusion_lat": 0.0}, {"is_disabled": 0, "rental_uris": {"android": "https://dc.lft.to/lastmile_qr_scan", "ios": "https://dc.lft.to/lastmile_qr_scan"}, "is_reserved": 0, "name": "13d2bf2988bc4eba56d959cea642b562", "lon": -77.04167983333333, "type": "electric_scooter", "bike_id": "13d2bf2988bc4eba56d959cea642b562", "fusion_lon": 0.0, "lat": 38.913571, "fusion_lat": 0.0}, {"is_disabled": 0, "rental_uris": {"android": "https://dc.lft.to/lastmile_qr_scan", "ios": "https://dc.lft.to/lastmile_qr_scan"}, "is_reserved": 0, "name": "e5bda7915169ed4972cd0ffc28206269", "lon": -77.0381325, "type": "electric_scooter", "bike_id": "e5bda7915169ed4972cd0ffc28206269", "fusion_lon": 0.0, "lat": 38.915553333333335, "fusion_lat": 0.0}, {"is_disabled": 0, "rental_uris": {"android": "https://dc.lft.to/lastmile_qr_scan", "ios": "https://dc.lft.to/lastmile_qr_scan"}, "is_reserved": 0, "name": "50d1030ab5fdef5eb0ab9b53d7868394", "lon": -76.99650333333334, "type": "electric_scooter", "bike_id": "50d1030ab5fdef5eb0ab9b53d7868394", "fusion_lon": 0.0, "lat": 38.8872215, "fusion_lat": 0.0}, {"is_disabled": 0, "rental_uris": {"android": "https://dc.lft.to/lastmile_qr_scan", "ios": "https://dc.lft.to/lastmile_qr_scan"}, "is_reserved": 0, "name": "d977896424827b8fa189b7e4dcd1d755", "lon": -77.03425233333333, "type": "electric_scooter", "bike_id": "d977896424827b8fa189b7e4dcd1d755", "fusion_lon": 0.0, "lat": 38.91195466666667, "fusion_lat": 0.0}, {"is_disabled": 0, "rental_uris": {"android": "https://dc.lft.to/lastmile_qr_scan", "ios": "https://dc.lft.to/lastmile_qr_scan"}, "is_reserved": 0, "name": "3ebbdc628480989ad54f14f129da2d7e", "lon": -77.03861416666666, "type": "electric_scooter", "bike_id": "3ebbdc628480989ad54f14f129da2d7e", "fusion_lon": 0.0, "lat": 38.916816833333336, "fusion_lat": 0.0}, {"is_disabled": 0, "rental_uris": {"android": "https://dc.lft.to/lastmile_qr_scan", "ios": "https://dc.lft.to/lastmile_qr_scan"}, "is_reserved": 0, "name": "23edce16c7e9a40add58e992956429c5", "lon": -77.01753783333334, "type": "electric_scooter", "bike_id": "23edce16c7e9a40add58e992956429c5", "fusion_lon": 0.0, "lat": 38.903898, "fusion_lat": 0.0}, {"is_disabled": 0, "rental_uris": {"android": "https://dc.lft.to/lastmile_qr_scan", "ios": "https://dc.lft.to/lastmile_qr_scan"}, "is_reserved": 0, "name": "d088efbe3bc42d1626d1f8130fc1e5b4", "lon": -77.03243833333333, "type": "electric_scooter", "bike_id": "d088efbe3bc42d1626d1f8130fc1e5b4", "fusion_lon": 0.0, "lat": 38.904383833333334, "fusion_lat": 0.0}, {"is_disabled": 0, "rental_uris": {"android": "https://dc.lft.to/lastmile_qr_scan", "ios": "https://dc.lft.to/lastmile_qr_scan"}, "is_reserved": 0, "name": "a93dc0e86c16e97b0df65ceeb0d7995b", "lon": -77.04043066666667, "type": "electric_scooter", "bike_id": "a93dc0e86c16e97b0df65ceeb0d7995b", "fusion_lon": 0.0, "lat": 38.90576016666667, "fusion_lat": 0.0}, {"is_disabled": 0, "rental_uris": {"android": "https://dc.lft.to/lastmile_qr_scan", "ios": "https://dc.lft.to/lastmile_qr_scan"}, "is_reserved": 0, "name": "6632e7a294330a5d8b7099cf6c8a8d53", "lon": -77.03174366666667, "type": "electric_scooter", "bike_id": "6632e7a294330a5d8b7099cf6c8a8d53", "fusion_lon": 0.0, "lat": 38.914221, "fusion_lat": 0.0}, {"is_disabled": 0, "rental_uris": {"android": "https://dc.lft.to/lastmile_qr_scan", "ios": "https://dc.lft.to/lastmile_qr_scan"}, "is_reserved": 0, "name": "7277f7fb0df848379b2d1ea756c0fa96", "lon": -77.05752233333334, "type": "electric_scooter", "bike_id": "7277f7fb0df848379b2d1ea756c0fa96", "fusion_lon": 0.0, "lat": 38.93346583333334, "fusion_lat": 0.0}, {"is_disabled": 0, "rental_uris": {"android": "https://dc.lft.to/lastmile_qr_scan", "ios": "https://dc.lft.to/lastmile_qr_scan"}, "is_reserved": 0, "name": "f5746160f5f160891a5ecc3ac4a4ab93", "lon": -77.057894, "type": "electric_scooter", "bike_id": "f5746160f5f160891a5ecc3ac4a4ab93", "fusion_lon": 0.0, "lat": 38.90507, "fusion_lat": 0.0}, {"is_disabled": 0, "rental_uris": {"android": "https://dc.lft.to/lastmile_qr_scan", "ios": "https://dc.lft.to/lastmile_qr_scan"}, "is_reserved": 0, "name": "1600ffb9d1169f1911f7c1f6e80a90f5", "lon": -76.975342, "type": "electric_scooter", "bike_id": "1600ffb9d1169f1911f7c1f6e80a90f5", "fusion_lon": 0.0, "lat": 38.922337166666665, "fusion_lat": 0.0}, {"is_disabled": 0, "rental_uris": {"android": "https://dc.lft.to/lastmile_qr_scan", "ios": "https://dc.lft.to/lastmile_qr_scan"}, "is_reserved": 0, "name": "9ce5b8281943f112328a9a7f7fb1d11c", "lon": -77.0153565, "type": "electric_scooter", "bike_id": "9ce5b8281943f112328a9a7f7fb1d11c", "fusion_lon": 0.0, "lat": 38.88489966666667, "fusion_lat": 0.0}, {"is_disabled": 0, "rental_uris": {"android": "https://dc.lft.to/lastmile_qr_scan", "ios": "https://dc.lft.to/lastmile_qr_scan"}, "is_reserved": 0, "name": "ab661e098f0926a4e54bf689ef464506", "lon": -76.942868, "type": "electric_scooter", "bike_id": "ab661e098f0926a4e54bf689ef464506", "fusion_lon": 0.0, "lat": 38.8830335, "fusion_lat": 0.0}, {"is_disabled": 0, "rental_uris": {"android": "https://dc.lft.to/lastmile_qr_scan", "ios": "https://dc.lft.to/lastmile_qr_scan"}, "is_reserved": 0, "name": "7f62058e89f69f3883357dffdf36b795", "lon": -77.0121015, "type": "electric_scooter", "bike_id": "7f62058e89f69f3883357dffdf36b795", "fusion_lon": 0.0, "lat": 38.9182405, "fusion_lat": 0.0}, {"is_disabled": 0, "rental_uris": {"android": "https://dc.lft.to/lastmile_qr_scan", "ios": "https://dc.lft.to/lastmile_qr_scan"}, "is_reserved": 0, "name": "fbdedfbf41fd492e3cc50969ff623429", "lon": -77.02166, "type": "electric_scooter", "bike_id": "fbdedfbf41fd492e3cc50969ff623429", "fusion_lon": 0.0, "lat": 38.89928966666667, "fusion_lat": 0.0}, {"is_disabled": 0, "rental_uris": {"android": "https://dc.lft.to/lastmile_qr_scan", "ios": "https://dc.lft.to/lastmile_qr_scan"}, "is_reserved": 0, "name": "6b8e1e936f69f20ef8623c84b5719cdd", "lon": -76.9223305, "type": "electric_scooter", "bike_id": "6b8e1e936f69f20ef8623c84b5719cdd", "fusion_lon": 0.0, "lat": 38.89994766666667, "fusion_lat": 0.0}, {"is_disabled": 0, "rental_uris": {"android": "https://dc.lft.to/lastmile_qr_scan", "ios": "https://dc.lft.to/lastmile_qr_scan"}, "is_reserved": 0, "name": "da54edb4cf31375d2f2d456b34924756", "lon": -77.00383233333334, "type": "electric_scooter", "bike_id": "da54edb4cf31375d2f2d456b34924756", "fusion_lon": 0.0, "lat": 38.91067666666667, "fusion_lat": 0.0}, {"is_disabled": 0, "rental_uris": {"android": "https://dc.lft.to/lastmile_qr_scan", "ios": "https://dc.lft.to/lastmile_qr_scan"}, "is_reserved": 0, "name": "a60861e9eb3600791164b2062075442b", "lon": -77.03543633333334, "type": "electric_scooter", "bike_id": "a60861e9eb3600791164b2062075442b", "fusion_lon": 0.0, "lat": 38.92428816666666, "fusion_lat": 0.0}, {"is_disabled": 0, "rental_uris": {"android": "https://dc.lft.to/lastmile_qr_scan", "ios": "https://dc.lft.to/lastmile_qr_scan"}, "is_reserved": 0, "name": "2e388eba6e078ab5586ebf3449047f72", "lon": -76.99494533333333, "type": "electric_scooter", "bike_id": "2e388eba6e078ab5586ebf3449047f72", "fusion_lon": 0.0, "lat": 38.92571683333333, "fusion_lat": 0.0}, {"is_disabled": 0, "rental_uris": {"android": "https://dc.lft.to/lastmile_qr_scan", "ios": "https://dc.lft.to/lastmile_qr_scan"}, "is_reserved": 0, "name": "52762639a802a986e6cd00c2bb855958", "lon": -77.02601933333334, "type": "electric_scooter", "bike_id": "52762639a802a986e6cd00c2bb855958", "fusion_lon": 0.0, "lat": 38.907464833333336, "fusion_lat": 0.0}, {"is_disabled": 0, "rental_uris": {"android": "https://dc.lft.to/lastmile_qr_scan", "ios": "https://dc.lft.to/lastmile_qr_scan"}, "is_reserved": 0, "name": "0aa7f311554b258130b0fee1e917c904", "lon": -76.99007533333334, "type": "electric_scooter", "bike_id": "0aa7f311554b258130b0fee1e917c904", "fusion_lon": 0.0, "lat": 38.86507116666667, "fusion_lat": 0.0}, {"is_disabled": 0, "rental_uris": {"android": "https://dc.lft.to/lastmile_qr_scan", "ios": "https://dc.lft.to/lastmile_qr_scan"}, "is_reserved": 0, "name": "36796f60408d32e4bb9991c786f32779", "lon": -77.028478, "type": "electric_scooter", "bike_id": "36796f60408d32e4bb9991c786f32779", "fusion_lon": 0.0, "lat": 38.922424666666664, "fusion_lat": 0.0}, {"is_disabled": 0, "rental_uris": {"android": "https://dc.lft.to/lastmile_qr_scan", "ios": "https://dc.lft.to/lastmile_qr_scan"}, "is_reserved": 0, "name": "9f400548bc985f43430780e765094359", "lon": -77.01256283333333, "type": "electric_scooter", "bike_id": "9f400548bc985f43430780e765094359", "fusion_lon": 0.0, "lat": 38.90847933333333, "fusion_lat": 0.0}, {"is_disabled": 0, "rental_uris": {"android": "https://dc.lft.to/lastmile_qr_scan", "ios": "https://dc.lft.to/lastmile_qr_scan"}, "is_reserved": 0, "name": "65c464a3a9cefd7f931a21df18e380c9", "lon": -77.02983466666667, "type": "electric_scooter", "bike_id": "65c464a3a9cefd7f931a21df18e380c9", "fusion_lon": 0.0, "lat": 38.90725366666667, "fusion_lat": 0.0}, {"is_disabled": 0, "rental_uris": {"android": "https://dc.lft.to/lastmile_qr_scan", "ios": "https://dc.lft.to/lastmile_qr_scan"}, "is_reserved": 0, "name": "5bbf3b667d7d5bdd7997eb8782a186fe", "lon": -77.03058683333333, "type": "electric_scooter", "bike_id": "5bbf3b667d7d5bdd7997eb8782a186fe", "fusion_lon": 0.0, "lat": 38.899825666666665, "fusion_lat": 0.0}, {"is_disabled": 0, "rental_uris": {"android": "https://dc.lft.to/lastmile_qr_scan", "ios": "https://dc.lft.to/lastmile_qr_scan"}, "is_reserved": 0, "name": "3011c30c8739ba39c65584fab5f67aac", "lon": -77.02376333333333, "type": "electric_scooter", "bike_id": "3011c30c8739ba39c65584fab5f67aac", "fusion_lon": 0.0, "lat": 38.93267766666666, "fusion_lat": 0.0}, {"is_disabled": 0, "rental_uris": {"android": "https://dc.lft.to/lastmile_qr_scan", "ios": "https://dc.lft.to/lastmile_qr_scan"}, "is_reserved": 0, "name": "c8217a3ab5ea12b9c140ea95edee6ae9", "lon": -76.933731, "type": "electric_scooter", "bike_id": "c8217a3ab5ea12b9c140ea95edee6ae9", "fusion_lon": 0.0, "lat": 38.89923566666667, "fusion_lat": 0.0}, {"is_disabled": 0, "rental_uris": {"android": "https://dc.lft.to/lastmile_qr_scan", "ios": "https://dc.lft.to/lastmile_qr_scan"}, "is_reserved": 0, "name": "9b84e0036c700996f3ba7191fadfeee3", "lon": -77.0092045, "type": "electric_scooter", "bike_id": "9b84e0036c700996f3ba7191fadfeee3", "fusion_lon": 0.0, "lat": 38.89553683333333, "fusion_lat": 0.0}, {"is_disabled": 0, "rental_uris": {"android": "https://dc.lft.to/lastmile_qr_scan", "ios": "https://dc.lft.to/lastmile_qr_scan"}, "is_reserved": 0, "name": "546cae7f0ce8e22efdc159994ea3fd0a", "lon": -76.9653155, "type": "electric_scooter", "bike_id": "546cae7f0ce8e22efdc159994ea3fd0a", "fusion_lon": 0.0, "lat": 38.876280666666666, "fusion_lat": 0.0}, {"is_disabled": 0, "rental_uris": {"android": "https://dc.lft.to/lastmile_qr_scan", "ios": "https://dc.lft.to/lastmile_qr_scan"}, "is_reserved": 0, "name": "612515f7e7f4a31bf0a450eae23379ff", "lon": -77.025082, "type": "electric_scooter", "bike_id": "612515f7e7f4a31bf0a450eae23379ff", "fusion_lon": 0.0, "lat": 38.91935683333333, "fusion_lat": 0.0}, {"is_disabled": 0, "rental_uris": {"android": "https://dc.lft.to/lastmile_qr_scan", "ios": "https://dc.lft.to/lastmile_qr_scan"}, "is_reserved": 0, "name": "227cb2e599595a17ffffcda254f6843f", "lon": -77.022591, "type": "electric_scooter", "bike_id": "227cb2e599595a17ffffcda254f6843f", "fusion_lon": 0.0, "lat": 38.886550166666666, "fusion_lat": 0.0}, {"is_disabled": 0, "rental_uris": {"android": "https://dc.lft.to/lastmile_qr_scan", "ios": "https://dc.lft.to/lastmile_qr_scan"}, "is_reserved": 0, "name": "d90ade63f8d13f3de7fc3b173c247417", "lon": -77.03186516666666, "type": "electric_bike", "bike_id": "d90ade63f8d13f3de7fc3b173c247417", "fusion_lon": 0.0, "lat": 38.919943333333336, "fusion_lat": 0.0}, {"is_disabled": 0, "rental_uris": {"android": "https://dc.lft.to/lastmile_qr_scan", "ios": "https://dc.lft.to/lastmile_qr_scan"}, "is_reserved": 0, "name": "d2b2cc908f3c3859cf06af56ccc60206", "lon": -77.02197866666667, "type": "electric_scooter", "bike_id": "d2b2cc908f3c3859cf06af56ccc60206", "fusion_lon": 0.0, "lat": 38.91127316666667, "fusion_lat": 0.0}, {"is_disabled": 0, "rental_uris": {"android": "https://dc.lft.to/lastmile_qr_scan", "ios": "https://dc.lft.to/lastmile_qr_scan"}, "is_reserved": 0, "name": "8af232f401dc6fc9d686d8ba596cfd40", "lon": -77.0313665, "type": "electric_bike", "bike_id": "8af232f401dc6fc9d686d8ba596cfd40", "fusion_lon": 0.0, "lat": 38.9628355, "fusion_lat": 0.0}, {"is_disabled": 0, "rental_uris": {"android": "https://dc.lft.to/lastmile_qr_scan", "ios": "https://dc.lft.to/lastmile_qr_scan"}, "is_reserved": 0, "name": "96daaa6703dc197a271bda8c9ad6cc6a", "lon": -76.94159183333333, "type": "electric_scooter", "bike_id": "96daaa6703dc197a271bda8c9ad6cc6a", "fusion_lon": 0.0, "lat": 38.88366933333333, "fusion_lat": 0.0}, {"is_disabled": 0, "rental_uris": {"android": "https://dc.lft.to/lastmile_qr_scan", "ios": "https://dc.lft.to/lastmile_qr_scan"}, "is_reserved": 0, "name": "00d1ec9431e57694cec3c7d1ed99dab2", "lon": -76.93742433333334, "type": "electric_scooter", "bike_id": "00d1ec9431e57694cec3c7d1ed99dab2", "fusion_lon": 0.0, "lat": 38.89008666666667, "fusion_lat": 0.0}, {"is_disabled": 0, "rental_uris": {"android": "https://dc.lft.to/lastmile_qr_scan", "ios": "https://dc.lft.to/lastmile_qr_scan"}, "is_reserved": 0, "name": "26981575fe7cee5aa51a82c31dbf8b36", "lon": -77.05323916666667, "type": "electric_scooter", "bike_id": "26981575fe7cee5aa51a82c31dbf8b36", "fusion_lon": 0.0, "lat": 38.903158833333336, "fusion_lat": 0.0}, {"is_disabled": 0, "rental_uris": {"android": "https://dc.lft.to/lastmile_qr_scan", "ios": "https://dc.lft.to/lastmile_qr_scan"}, "is_reserved": 0, "name": "bc81bfd38b619e66cec0545c006f1eb4", "lon": -77.03232516666667, "type": "electric_scooter", "bike_id": "bc81bfd38b619e66cec0545c006f1eb4", "fusion_lon": 0.0, "lat": 38.925014833333336, "fusion_lat": 0.0}, {"is_disabled": 0, "rental_uris": {"android": "https://dc.lft.to/lastmile_qr_scan", "ios": "https://dc.lft.to/lastmile_qr_scan"}, "is_reserved": 0, "name": "53a15d91b53b3bfc712c51bcb66e6623", "lon": -77.05294066666667, "type": "electric_scooter", "bike_id": "53a15d91b53b3bfc712c51bcb66e6623", "fusion_lon": 0.0, "lat": 38.90336816666667, "fusion_lat": 0.0}, {"is_disabled": 0, "rental_uris": {"android": "https://dc.lft.to/lastmile_qr_scan", "ios": "https://dc.lft.to/lastmile_qr_scan"}, "is_reserved": 0, "name": "d6c9d94c87e59c1aa2e3b2af97f66e39", "lon": -77.0222615, "type": "electric_scooter", "bike_id": "d6c9d94c87e59c1aa2e3b2af97f66e39", "fusion_lon": 0.0, "lat": 38.9141595, "fusion_lat": 0.0}, {"is_disabled": 0, "rental_uris": {"android": "https://dc.lft.to/lastmile_qr_scan", "ios": "https://dc.lft.to/lastmile_qr_scan"}, "is_reserved": 0, "name": "cdfcee30d6c0df45c5587355c52f4dae", "lon": -77.02259433333333, "type": "electric_scooter", "bike_id": "cdfcee30d6c0df45c5587355c52f4dae", "fusion_lon": 0.0, "lat": 38.928269, "fusion_lat": 0.0}, {"is_disabled": 0, "rental_uris": {"android": "https://dc.lft.to/lastmile_qr_scan", "ios": "https://dc.lft.to/lastmile_qr_scan"}, "is_reserved": 0, "name": "a3115cea0b61ae759c6f007c4477994b", "lon": -77.03664033333334, "type": "electric_scooter", "bike_id": "a3115cea0b61ae759c6f007c4477994b", "fusion_lon": 0.0, "lat": 38.92140966666667, "fusion_lat": 0.0}, {"is_disabled": 0, "rental_uris": {"android": "https://dc.lft.to/lastmile_qr_scan", "ios": "https://dc.lft.to/lastmile_qr_scan"}, "is_reserved": 0, "name": "38181ec2f4fe56ab8c201c827b19653e", "lon": -77.03775516666667, "type": "electric_scooter", "bike_id": "38181ec2f4fe56ab8c201c827b19653e", "fusion_lon": 0.0, "lat": 38.9360445, "fusion_lat": 0.0}, {"is_disabled": 0, "rental_uris": {"android": "https://dc.lft.to/lastmile_qr_scan", "ios": "https://dc.lft.to/lastmile_qr_scan"}, "is_reserved": 0, "name": "e2805c956af495829df58e50e074f78c", "lon": -77.06095283333333, "type": "electric_scooter", "bike_id": "e2805c956af495829df58e50e074f78c", "fusion_lon": 0.0, "lat": 38.94371183333333, "fusion_lat": 0.0}, {"is_disabled": 0, "rental_uris": {"android": "https://dc.lft.to/lastmile_qr_scan", "ios": "https://dc.lft.to/lastmile_qr_scan"}, "is_reserved": 0, "name": "93a7dcf13b96387a4b97bfa4eb07f9ce", "lon": -77.01015666666666, "type": "electric_scooter", "bike_id": "93a7dcf13b96387a4b97bfa4eb07f9ce", "fusion_lon": 0.0, "lat": 38.86718966666667, "fusion_lat": 0.0}, {"is_disabled": 0, "rental_uris": {"android": "https://dc.lft.to/lastmile_qr_scan", "ios": "https://dc.lft.to/lastmile_qr_scan"}, "is_reserved": 0, "name": "ab005f848352cd6936e16ef3d243b414", "lon": -77.03059916666666, "type": "electric_scooter", "bike_id": "ab005f848352cd6936e16ef3d243b414", "fusion_lon": 0.0, "lat": 38.901255166666665, "fusion_lat": 0.0}, {"is_disabled": 0, "rental_uris": {"android": "https://dc.lft.to/lastmile_qr_scan", "ios": "https://dc.lft.to/lastmile_qr_scan"}, "is_reserved": 0, "name": "c8b78901ca0fffd79870f6d5a4b81b6e", "lon": -77.05133283333333, "type": "electric_scooter", "bike_id": "c8b78901ca0fffd79870f6d5a4b81b6e", "fusion_lon": 0.0, "lat": 38.9071095, "fusion_lat": 0.0}, {"is_disabled": 0, "rental_uris": {"android": "https://dc.lft.to/lastmile_qr_scan", "ios": "https://dc.lft.to/lastmile_qr_scan"}, "is_reserved": 0, "name": "74c551179456dbe95689708191680712", "lon": -76.96557633333333, "type": "electric_scooter", "bike_id": "74c551179456dbe95689708191680712", "fusion_lon": 0.0, "lat": 38.91847333333333, "fusion_lat": 0.0}, {"is_disabled": 0, "rental_uris": {"android": "https://dc.lft.to/lastmile_qr_scan", "ios": "https://dc.lft.to/lastmile_qr_scan"}, "is_reserved": 0, "name": "03edb93975853542dd38b517693afff9", "lon": -76.90951366666667, "type": "electric_bike", "bike_id": "03edb93975853542dd38b517693afff9", "fusion_lon": 0.0, "lat": 38.854076666666664, "fusion_lat": 0.0}, {"is_disabled": 0, "rental_uris": {"android": "https://dc.lft.to/lastmile_qr_scan", "ios": "https://dc.lft.to/lastmile_qr_scan"}, "is_reserved": 0, "name": "3a04bc41c7556256453c74acc3a1e8fa", "lon": -77.01408116666667, "type": "electric_scooter", "bike_id": "3a04bc41c7556256453c74acc3a1e8fa", "fusion_lon": 0.0, "lat": 38.928498166666664, "fusion_lat": 0.0}, {"is_disabled": 0, "rental_uris": {"android": "https://dc.lft.to/lastmile_qr_scan", "ios": "https://dc.lft.to/lastmile_qr_scan"}, "is_reserved": 0, "name": "89a57605b88db67e4ca74165490a1c38", "lon": -77.0317795, "type": "electric_scooter", "bike_id": "89a57605b88db67e4ca74165490a1c38", "fusion_lon": 0.0, "lat": 38.91415333333333, "fusion_lat": 0.0}, {"is_disabled": 0, "rental_uris": {"android": "https://dc.lft.to/lastmile_qr_scan", "ios": "https://dc.lft.to/lastmile_qr_scan"}, "is_reserved": 0, "name": "b798d0a09de3b31e3da7bcfc780d4749", "lon": -77.02705316666666, "type": "electric_scooter", "bike_id": "b798d0a09de3b31e3da7bcfc780d4749", "fusion_lon": 0.0, "lat": 38.949814333333336, "fusion_lat": 0.0}, {"is_disabled": 0, "rental_uris": {"android": "https://dc.lft.to/lastmile_qr_scan", "ios": "https://dc.lft.to/lastmile_qr_scan"}, "is_reserved": 0, "name": "e889944913c72645e64ada16fd297114", "lon": -77.00676316666667, "type": "electric_bike", "bike_id": "e889944913c72645e64ada16fd297114", "fusion_lon": 0.0, "lat": 38.945098, "fusion_lat": 0.0}, {"is_disabled": 0, "rental_uris": {"android": "https://dc.lft.to/lastmile_qr_scan", "ios": "https://dc.lft.to/lastmile_qr_scan"}, "is_reserved": 0, "name": "c60b05efe85eda063d96ce103158c359", "lon": -77.0316305, "type": "electric_scooter", "bike_id": "c60b05efe85eda063d96ce103158c359", "fusion_lon": 0.0, "lat": 38.928579666666664, "fusion_lat": 0.0}, {"is_disabled": 0, "rental_uris": {"android": "https://dc.lft.to/lastmile_qr_scan", "ios": "https://dc.lft.to/lastmile_qr_scan"}, "is_reserved": 0, "name": "f7cc71326a539cc27e7e7729bafceb78", "lon": -77.04697933333334, "type": "electric_scooter", "bike_id": "f7cc71326a539cc27e7e7729bafceb78", "fusion_lon": 0.0, "lat": 38.8973985, "fusion_lat": 0.0}, {"is_disabled": 0, "rental_uris": {"android": "https://dc.lft.to/lastmile_qr_scan", "ios": "https://dc.lft.to/lastmile_qr_scan"}, "is_reserved": 0, "name": "7736f7bbb25ad7f4fc05e315381ccdf2", "lon": -77.03637366666666, "type": "electric_scooter", "bike_id": "7736f7bbb25ad7f4fc05e315381ccdf2", "fusion_lon": 0.0, "lat": 38.93048983333333, "fusion_lat": 0.0}, {"is_disabled": 0, "rental_uris": {"android": "https://dc.lft.to/lastmile_qr_scan", "ios": "https://dc.lft.to/lastmile_qr_scan"}, "is_reserved": 0, "name": "e3878fe80c21a017318d4c6b145fc223", "lon": -77.0269375, "type": "electric_scooter", "bike_id": "e3878fe80c21a017318d4c6b145fc223", "fusion_lon": 0.0, "lat": 38.906350333333336, "fusion_lat": 0.0}, {"is_disabled": 0, "rental_uris": {"android": "https://dc.lft.to/lastmile_qr_scan", "ios": "https://dc.lft.to/lastmile_qr_scan"}, "is_reserved": 0, "name": "0a04bb7c46edddd33b065d29853a7dab", "lon": -77.001455, "type": "electric_scooter", "bike_id": "0a04bb7c46edddd33b065d29853a7dab", "fusion_lon": 0.0, "lat": 38.87374783333333, "fusion_lat": 0.0}, {"is_disabled": 0, "rental_uris": {"android": "https://dc.lft.to/lastmile_qr_scan", "ios": "https://dc.lft.to/lastmile_qr_scan"}, "is_reserved": 0, "name": "483ba8f84a0a9fef8a42a8d14a84a136", "lon": -77.04936783333333, "type": "electric_scooter", "bike_id": "483ba8f84a0a9fef8a42a8d14a84a136", "fusion_lon": 0.0, "lat": 38.90725833333333, "fusion_lat": 0.0}, {"is_disabled": 0, "rental_uris": {"android": "https://dc.lft.to/lastmile_qr_scan", "ios": "https://dc.lft.to/lastmile_qr_scan"}, "is_reserved": 0, "name": "f2bbc5881d1b7d844c44e46d37cca90a", "lon": -77.02481783333333, "type": "electric_scooter", "bike_id": "f2bbc5881d1b7d844c44e46d37cca90a", "fusion_lon": 0.0, "lat": 38.938566333333334, "fusion_lat": 0.0}, {"is_disabled": 0, "rental_uris": {"android": "https://dc.lft.to/lastmile_qr_scan", "ios": "https://dc.lft.to/lastmile_qr_scan"}, "is_reserved": 0, "name": "fcce182230d030c2ba64df1ead7a7d9c", "lon": -77.01190266666667, "type": "electric_scooter", "bike_id": "fcce182230d030c2ba64df1ead7a7d9c", "fusion_lon": 0.0, "lat": 38.9037245, "fusion_lat": 0.0}, {"is_disabled": 0, "rental_uris": {"android": "https://dc.lft.to/lastmile_qr_scan", "ios": "https://dc.lft.to/lastmile_qr_scan"}, "is_reserved": 0, "name": "597b73706d7e214985b0126208b88c83", "lon": -77.02887383333334, "type": "electric_scooter", "bike_id": "597b73706d7e214985b0126208b88c83", "fusion_lon": 0.0, "lat": 38.90138683333333, "fusion_lat": 0.0}, {"is_disabled": 0, "rental_uris": {"android": "https://dc.lft.to/lastmile_qr_scan", "ios": "https://dc.lft.to/lastmile_qr_scan"}, "is_reserved": 0, "name": "834c45988f843eab5a68a6a3cf369117", "lon": -77.03386333333333, "type": "electric_scooter", "bike_id": "834c45988f843eab5a68a6a3cf369117", "fusion_lon": 0.0, "lat": 38.92160616666666, "fusion_lat": 0.0}, {"is_disabled": 0, "rental_uris": {"android": "https://dc.lft.to/lastmile_qr_scan", "ios": "https://dc.lft.to/lastmile_qr_scan"}, "is_reserved": 0, "name": "c0bd2952b8c812475655edd687020eac", "lon": -77.02809066666667, "type": "electric_scooter", "bike_id": "c0bd2952b8c812475655edd687020eac", "fusion_lon": 0.0, "lat": 38.96217816666667, "fusion_lat": 0.0}, {"is_disabled": 0, "rental_uris": {"android": "https://dc.lft.to/lastmile_qr_scan", "ios": "https://dc.lft.to/lastmile_qr_scan"}, "is_reserved": 0, "name": "ffa0a79bd17bd13cdd43c175173f282e", "lon": -77.03636116666667, "type": "electric_scooter", "bike_id": "ffa0a79bd17bd13cdd43c175173f282e", "fusion_lon": 0.0, "lat": 38.9428075, "fusion_lat": 0.0}, {"is_disabled": 0, "rental_uris": {"android": "https://dc.lft.to/lastmile_qr_scan", "ios": "https://dc.lft.to/lastmile_qr_scan"}, "is_reserved": 0, "name": "67d5cbcea8ffab56e687dad76ad0072d", "lon": -76.9490005, "type": "electric_scooter", "bike_id": "67d5cbcea8ffab56e687dad76ad0072d", "fusion_lon": 0.0, "lat": 38.89527316666667, "fusion_lat": 0.0}, {"is_disabled": 0, "rental_uris": {"android": "https://dc.lft.to/lastmile_qr_scan", "ios": "https://dc.lft.to/lastmile_qr_scan"}, "is_reserved": 0, "name": "111e3d87128ee7d8a94ea4d07eecb632", "lon": -76.90817866666667, "type": "electric_bike", "bike_id": "111e3d87128ee7d8a94ea4d07eecb632", "fusion_lon": 0.0, "lat": 38.99456416666666, "fusion_lat": 0.0}, {"is_disabled": 0, "rental_uris": {"android": "https://dc.lft.to/lastmile_qr_scan", "ios": "https://dc.lft.to/lastmile_qr_scan"}, "is_reserved": 0, "name": "c69cbd0a665729720794ffbb376fa8ec", "lon": -77.019415, "type": "electric_scooter", "bike_id": "c69cbd0a665729720794ffbb376fa8ec", "fusion_lon": 0.0, "lat": 38.946995666666666, "fusion_lat": 0.0}, {"is_disabled": 0, "rental_uris": {"android": "https://dc.lft.to/lastmile_qr_scan", "ios": "https://dc.lft.to/lastmile_qr_scan"}, "is_reserved": 0, "name": "a4fddcffc5c99d3193835e40cefe6da6", "lon": -77.0344335, "type": "electric_scooter", "bike_id": "a4fddcffc5c99d3193835e40cefe6da6", "fusion_lon": 0.0, "lat": 38.91498, "fusion_lat": 0.0}, {"is_disabled": 0, "rental_uris": {"android": "https://dc.lft.to/lastmile_qr_scan", "ios": "https://dc.lft.to/lastmile_qr_scan"}, "is_reserved": 0, "name": "6492e96e8542e4c13b496411c2926bbe", "lon": -77.040234, "type": "electric_scooter", "bike_id": "6492e96e8542e4c13b496411c2926bbe", "fusion_lon": 0.0, "lat": 38.9241875, "fusion_lat": 0.0}, {"is_disabled": 0, "rental_uris": {"android": "https://dc.lft.to/lastmile_qr_scan", "ios": "https://dc.lft.to/lastmile_qr_scan"}, "is_reserved": 0, "name": "1a6f835afbbc15a7293c226b55098592", "lon": -77.00340416666667, "type": "electric_scooter", "bike_id": "1a6f835afbbc15a7293c226b55098592", "fusion_lon": 0.0, "lat": 38.88316433333333, "fusion_lat": 0.0}, {"is_disabled": 0, "rental_uris": {"android": "https://dc.lft.to/lastmile_qr_scan", "ios": "https://dc.lft.to/lastmile_qr_scan"}, "is_reserved": 0, "name": "8e88d8eabfe4d815bf1795f563f437ce", "lon": -77.03745233333333, "type": "electric_scooter", "bike_id": "8e88d8eabfe4d815bf1795f563f437ce", "fusion_lon": 0.0, "lat": 38.91194766666667, "fusion_lat": 0.0}, {"is_disabled": 0, "rental_uris": {"android": "https://dc.lft.to/lastmile_qr_scan", "ios": "https://dc.lft.to/lastmile_qr_scan"}, "is_reserved": 0, "name": "259340bddd8ed7726f3f69f52388dae2", "lon": -77.03640616666667, "type": "electric_scooter", "bike_id": "259340bddd8ed7726f3f69f52388dae2", "fusion_lon": 0.0, "lat": 38.90279616666667, "fusion_lat": 0.0}, {"is_disabled": 0, "rental_uris": {"android": "https://dc.lft.to/lastmile_qr_scan", "ios": "https://dc.lft.to/lastmile_qr_scan"}, "is_reserved": 0, "name": "46bb3a4ed164fd3169c626788ef84770", "lon": -77.01642833333334, "type": "electric_scooter", "bike_id": "46bb3a4ed164fd3169c626788ef84770", "fusion_lon": 0.0, "lat": 38.8832135, "fusion_lat": 0.0}, {"is_disabled": 0, "rental_uris": {"android": "https://dc.lft.to/lastmile_qr_scan", "ios": "https://dc.lft.to/lastmile_qr_scan"}, "is_reserved": 0, "name": "9c90622438bc1746635c20afe603c56f", "lon": -76.979007, "type": "electric_bike", "bike_id": "9c90622438bc1746635c20afe603c56f", "fusion_lon": 0.0, "lat": 38.854861166666666, "fusion_lat": 0.0}, {"is_disabled": 0, "rental_uris": {"android": "https://dc.lft.to/lastmile_qr_scan", "ios": "https://dc.lft.to/lastmile_qr_scan"}, "is_reserved": 0, "name": "506f53dbb385d3568699c239be7c147a", "lon": -77.0321685, "type": "electric_scooter", "bike_id": "506f53dbb385d3568699c239be7c147a", "fusion_lon": 0.0, "lat": 38.9201795, "fusion_lat": 0.0}, {"is_disabled": 0, "rental_uris": {"android": "https://dc.lft.to/lastmile_qr_scan", "ios": "https://dc.lft.to/lastmile_qr_scan"}, "is_reserved": 0, "name": "d3e1088d52a8979c9b8b3e6384cfcb63", "lon": -77.02705366666666, "type": "electric_scooter", "bike_id": "d3e1088d52a8979c9b8b3e6384cfcb63", "fusion_lon": 0.0, "lat": 38.89988683333333, "fusion_lat": 0.0}, {"is_disabled": 0, "rental_uris": {"android": "https://dc.lft.to/lastmile_qr_scan", "ios": "https://dc.lft.to/lastmile_qr_scan"}, "is_reserved": 0, "name": "a0af8e955a289d832c65e2b8c36b36e7", "lon": -76.91597, "type": "electric_bike", "bike_id": "a0af8e955a289d832c65e2b8c36b36e7", "fusion_lon": 0.0, "lat": 38.8801065, "fusion_lat": 0.0}, {"is_disabled": 0, "rental_uris": {"android": "https://dc.lft.to/lastmile_qr_scan", "ios": "https://dc.lft.to/lastmile_qr_scan"}, "is_reserved": 0, "name": "a0f0c694721a4ad9a51c34c08959cb1a", "lon": -77.0076905, "type": "electric_scooter", "bike_id": "a0f0c694721a4ad9a51c34c08959cb1a", "fusion_lon": 0.0, "lat": 38.871146, "fusion_lat": 0.0}, {"is_disabled": 0, "rental_uris": {"android": "https://dc.lft.to/lastmile_qr_scan", "ios": "https://dc.lft.to/lastmile_qr_scan"}, "is_reserved": 0, "name": "97fd663187adc3afc46fcf4b2797dc7a", "lon": -76.98341033333334, "type": "electric_scooter", "bike_id": "97fd663187adc3afc46fcf4b2797dc7a", "fusion_lon": 0.0, "lat": 38.912731666666666, "fusion_lat": 0.0}, {"is_disabled": 0, "rental_uris": {"android": "https://dc.lft.to/lastmile_qr_scan", "ios": "https://dc.lft.to/lastmile_qr_scan"}, "is_reserved": 0, "name": "b7b1bf75c9f268eb76fd334ba480d349", "lon": -76.99536366666666, "type": "electric_scooter", "bike_id": "b7b1bf75c9f268eb76fd334ba480d349", "fusion_lon": 0.0, "lat": 38.86255633333333, "fusion_lat": 0.0}, {"is_disabled": 0, "rental_uris": {"android": "https://dc.lft.to/lastmile_qr_scan", "ios": "https://dc.lft.to/lastmile_qr_scan"}, "is_reserved": 0, "name": "0c3a5b8059dd43c29324f6b57f24972d", "lon": -77.0510305, "type": "electric_scooter", "bike_id": "0c3a5b8059dd43c29324f6b57f24972d", "fusion_lon": 0.0, "lat": 38.923422333333335, "fusion_lat": 0.0}, {"is_disabled": 0, "rental_uris": {"android": "https://dc.lft.to/lastmile_qr_scan", "ios": "https://dc.lft.to/lastmile_qr_scan"}, "is_reserved": 0, "name": "14c0cf7b159254a34747ab50b99911fd", "lon": -77.04015266666667, "type": "electric_scooter", "bike_id": "14c0cf7b159254a34747ab50b99911fd", "fusion_lon": 0.0, "lat": 38.917981166666664, "fusion_lat": 0.0}, {"is_disabled": 0, "rental_uris": {"android": "https://dc.lft.to/lastmile_qr_scan", "ios": "https://dc.lft.to/lastmile_qr_scan"}, "is_reserved": 0, "name": "55360e15fdb3957b0021bc6a13995c80", "lon": -77.02954016666666, "type": "electric_scooter", "bike_id": "55360e15fdb3957b0021bc6a13995c80", "fusion_lon": 0.0, "lat": 38.904449166666666, "fusion_lat": 0.0}, {"is_disabled": 0, "rental_uris": {"android": "https://dc.lft.to/lastmile_qr_scan", "ios": "https://dc.lft.to/lastmile_qr_scan"}, "is_reserved": 0, "name": "76a62d60a04628382f0b5fea8f316619", "lon": -77.02723, "type": "electric_scooter", "bike_id": "76a62d60a04628382f0b5fea8f316619", "fusion_lon": 0.0, "lat": 38.90957216666666, "fusion_lat": 0.0}, {"is_disabled": 0, "rental_uris": {"android": "https://dc.lft.to/lastmile_qr_scan", "ios": "https://dc.lft.to/lastmile_qr_scan"}, "is_reserved": 0, "name": "d94b7bb45aa871eac3f850ebf536573b", "lon": -77.04656616666666, "type": "electric_scooter", "bike_id": "d94b7bb45aa871eac3f850ebf536573b", "fusion_lon": 0.0, "lat": 38.911812833333336, "fusion_lat": 0.0}, {"is_disabled": 0, "rental_uris": {"android": "https://dc.lft.to/lastmile_qr_scan", "ios": "https://dc.lft.to/lastmile_qr_scan"}, "is_reserved": 0, "name": "494512b9e7caf4a3549a9fc395e20eec", "lon": -76.99170016666666, "type": "electric_scooter", "bike_id": "494512b9e7caf4a3549a9fc395e20eec", "fusion_lon": 0.0, "lat": 38.881443, "fusion_lat": 0.0}, {"is_disabled": 0, "rental_uris": {"android": "https://dc.lft.to/lastmile_qr_scan", "ios": "https://dc.lft.to/lastmile_qr_scan"}, "is_reserved": 0, "name": "007db510413e6bfa14853dec0eeec99b", "lon": -77.015534, "type": "electric_scooter", "bike_id": "007db510413e6bfa14853dec0eeec99b", "fusion_lon": 0.0, "lat": 38.887732666666665, "fusion_lat": 0.0}, {"is_disabled": 0, "rental_uris": {"android": "https://dc.lft.to/lastmile_qr_scan", "ios": "https://dc.lft.to/lastmile_qr_scan"}, "is_reserved": 0, "name": "037f56d1100480ec7f29c20579815510", "lon": -77.04643683333333, "type": "electric_scooter", "bike_id": "037f56d1100480ec7f29c20579815510", "fusion_lon": 0.0, "lat": 38.90583183333333, "fusion_lat": 0.0}, {"is_disabled": 0, "rental_uris": {"android": "https://dc.lft.to/lastmile_qr_scan", "ios": "https://dc.lft.to/lastmile_qr_scan"}, "is_reserved": 0, "name": "52596731975bfd187ec3d93b824e4ed7", "lon": -76.98743116666667, "type": "electric_scooter", "bike_id": "52596731975bfd187ec3d93b824e4ed7", "fusion_lon": 0.0, "lat": 38.8795905, "fusion_lat": 0.0}, {"is_disabled": 0, "rental_uris": {"android": "https://dc.lft.to/lastmile_qr_scan", "ios": "https://dc.lft.to/lastmile_qr_scan"}, "is_reserved": 0, "name": "3ceb023de1f70a5fca13a118d21de827", "lon": -77.04793533333333, "type": "electric_bike", "bike_id": "3ceb023de1f70a5fca13a118d21de827", "fusion_lon": 0.0, "lat": 38.91940483333333, "fusion_lat": 0.0}, {"is_disabled": 0, "rental_uris": {"android": "https://dc.lft.to/lastmile_qr_scan", "ios": "https://dc.lft.to/lastmile_qr_scan"}, "is_reserved": 0, "name": "1d4460bef776e188588c5999b69b3216", "lon": -77.036143, "type": "electric_scooter", "bike_id": "1d4460bef776e188588c5999b69b3216", "fusion_lon": 0.0, "lat": 38.931488333333334, "fusion_lat": 0.0}, {"is_disabled": 0, "rental_uris": {"android": "https://dc.lft.to/lastmile_qr_scan", "ios": "https://dc.lft.to/lastmile_qr_scan"}, "is_reserved": 0, "name": "d1219fa256cf08ebad53a226d5ccdd94", "lon": -77.00124983333333, "type": "electric_bike", "bike_id": "d1219fa256cf08ebad53a226d5ccdd94", "fusion_lon": 0.0, "lat": 38.999339, "fusion_lat": 0.0}, {"is_disabled": 0, "rental_uris": {"android": "https://dc.lft.to/lastmile_qr_scan", "ios": "https://dc.lft.to/lastmile_qr_scan"}, "is_reserved": 0, "name": "c3a5a217f61f676b87f9cf86b296d2bd", "lon": -76.94887216666666, "type": "electric_scooter", "bike_id": "c3a5a217f61f676b87f9cf86b296d2bd", "fusion_lon": 0.0, "lat": 38.89510966666667, "fusion_lat": 0.0}, {"is_disabled": 0, "rental_uris": {"android": "https://dc.lft.to/lastmile_qr_scan", "ios": "https://dc.lft.to/lastmile_qr_scan"}, "is_reserved": 0, "name": "40e0f7a6e9cb0ab4774ad8649b97dfcf", "lon": -76.94702716666667, "type": "electric_scooter", "bike_id": "40e0f7a6e9cb0ab4774ad8649b97dfcf", "fusion_lon": 0.0, "lat": 38.89728233333334, "fusion_lat": 0.0}, {"is_disabled": 0, "rental_uris": {"android": "https://dc.lft.to/lastmile_qr_scan", "ios": "https://dc.lft.to/lastmile_qr_scan"}, "is_reserved": 0, "name": "ccf485652a1076bec8c7b8009cb63ac0", "lon": -77.018515, "type": "electric_scooter", "bike_id": "ccf485652a1076bec8c7b8009cb63ac0", "fusion_lon": 0.0, "lat": 38.90388933333333, "fusion_lat": 0.0}, {"is_disabled": 0, "rental_uris": {"android": "https://dc.lft.to/lastmile_qr_scan", "ios": "https://dc.lft.to/lastmile_qr_scan"}, "is_reserved": 0, "name": "0962e0b797aa399bafd831a52d7b60b3", "lon": -76.99231383333333, "type": "electric_scooter", "bike_id": "0962e0b797aa399bafd831a52d7b60b3", "fusion_lon": 0.0, "lat": 38.89889616666667, "fusion_lat": 0.0}, {"is_disabled": 0, "rental_uris": {"android": "https://dc.lft.to/lastmile_qr_scan", "ios": "https://dc.lft.to/lastmile_qr_scan"}, "is_reserved": 0, "name": "9bc104e42012827650b747eaa0547f23", "lon": -77.0305875, "type": "electric_scooter", "bike_id": "9bc104e42012827650b747eaa0547f23", "fusion_lon": 0.0, "lat": 38.95631933333333, "fusion_lat": 0.0}, {"is_disabled": 0, "rental_uris": {"android": "https://dc.lft.to/lastmile_qr_scan", "ios": "https://dc.lft.to/lastmile_qr_scan"}, "is_reserved": 0, "name": "8dc1244c459a2906c71f04f3431ccdbb", "lon": -76.996887, "type": "electric_scooter", "bike_id": "8dc1244c459a2906c71f04f3431ccdbb", "fusion_lon": 0.0, "lat": 38.860434, "fusion_lat": 0.0}, {"is_disabled": 0, "rental_uris": {"android": "https://dc.lft.to/lastmile_qr_scan", "ios": "https://dc.lft.to/lastmile_qr_scan"}, "is_reserved": 0, "name": "088fe6b596a59421cd30c802905f114e", "lon": -77.14776633333334, "type": "electric_bike", "bike_id": "088fe6b596a59421cd30c802905f114e", "fusion_lon": 0.0, "lat": 39.095954, "fusion_lat": 0.0}, {"is_disabled": 0, "rental_uris": {"android": "https://dc.lft.to/lastmile_qr_scan", "ios": "https://dc.lft.to/lastmile_qr_scan"}, "is_reserved": 0, "name": "d5ebe9d07c90b4bb95eb3c9c56ef4b3d", "lon": -77.04127816666667, "type": "electric_scooter", "bike_id": "d5ebe9d07c90b4bb95eb3c9c56ef4b3d", "fusion_lon": 0.0, "lat": 38.91707183333333, "fusion_lat": 0.0}, {"is_disabled": 0, "rental_uris": {"android": "https://dc.lft.to/lastmile_qr_scan", "ios": "https://dc.lft.to/lastmile_qr_scan"}, "is_reserved": 0, "name": "9eee65432e3fb5378d670d253417019a", "lon": -77.09581516666667, "type": "electric_bike", "bike_id": "9eee65432e3fb5378d670d253417019a", "fusion_lon": 0.0, "lat": 38.83792966666667, "fusion_lat": 0.0}, {"is_disabled": 0, "rental_uris": {"android": "https://dc.lft.to/lastmile_qr_scan", "ios": "https://dc.lft.to/lastmile_qr_scan"}, "is_reserved": 0, "name": "e75a0f11091c2a387cea5ca96c8e9a2e", "lon": -77.025741, "type": "electric_scooter", "bike_id": "e75a0f11091c2a387cea5ca96c8e9a2e", "fusion_lon": 0.0, "lat": 38.8996465, "fusion_lat": 0.0}, {"is_disabled": 0, "rental_uris": {"android": "https://dc.lft.to/lastmile_qr_scan", "ios": "https://dc.lft.to/lastmile_qr_scan"}, "is_reserved": 0, "name": "1dcc1f2c2adfcef8cad2b94527caf951", "lon": -77.00265866666666, "type": "electric_scooter", "bike_id": "1dcc1f2c2adfcef8cad2b94527caf951", "fusion_lon": 0.0, "lat": 38.911937, "fusion_lat": 0.0}, {"is_disabled": 0, "rental_uris": {"android": "https://dc.lft.to/lastmile_qr_scan", "ios": "https://dc.lft.to/lastmile_qr_scan"}, "is_reserved": 0, "name": "20ba1dafe627c45b14e3f2f5efe6edcd", "lon": -77.066479, "type": "electric_scooter", "bike_id": "20ba1dafe627c45b14e3f2f5efe6edcd", "fusion_lon": 0.0, "lat": 38.926899, "fusion_lat": 0.0}, {"is_disabled": 0, "rental_uris": {"android": "https://dc.lft.to/lastmile_qr_scan", "ios": "https://dc.lft.to/lastmile_qr_scan"}, "is_reserved": 0, "name": "aca86f5d0a4890b4daebcc366381feda", "lon": -77.04758783333334, "type": "electric_scooter", "bike_id": "aca86f5d0a4890b4daebcc366381feda", "fusion_lon": 0.0, "lat": 38.907203, "fusion_lat": 0.0}, {"is_disabled": 0, "rental_uris": {"android": "https://dc.lft.to/lastmile_qr_scan", "ios": "https://dc.lft.to/lastmile_qr_scan"}, "is_reserved": 0, "name": "05f9909f7ce91e4937ccb93097db23f0", "lon": -77.00781483333333, "type": "electric_scooter", "bike_id": "05f9909f7ce91e4937ccb93097db23f0", "fusion_lon": 0.0, "lat": 38.907496, "fusion_lat": 0.0}, {"is_disabled": 0, "rental_uris": {"android": "https://dc.lft.to/lastmile_qr_scan", "ios": "https://dc.lft.to/lastmile_qr_scan"}, "is_reserved": 0, "name": "0dd7d74a94a63d9125e87957adc14380", "lon": -77.01981966666666, "type": "electric_scooter", "bike_id": "0dd7d74a94a63d9125e87957adc14380", "fusion_lon": 0.0, "lat": 38.87789933333333, "fusion_lat": 0.0}, {"is_disabled": 0, "rental_uris": {"android": "https://dc.lft.to/lastmile_qr_scan", "ios": "https://dc.lft.to/lastmile_qr_scan"}, "is_reserved": 0, "name": "0a7c1fb659f99ad93113b35f489c0fde", "lon": -77.02394883333334, "type": "electric_scooter", "bike_id": "0a7c1fb659f99ad93113b35f489c0fde", "fusion_lon": 0.0, "lat": 38.916726, "fusion_lat": 0.0}, {"is_disabled": 0, "rental_uris": {"android": "https://dc.lft.to/lastmile_qr_scan", "ios": "https://dc.lft.to/lastmile_qr_scan"}, "is_reserved": 0, "name": "5c26f91e4a26372a5acc4223d1756f75", "lon": -77.03845916666667, "type": "electric_scooter", "bike_id": "5c26f91e4a26372a5acc4223d1756f75", "fusion_lon": 0.0, "lat": 38.926514833333336, "fusion_lat": 0.0}, {"is_disabled": 0, "rental_uris": {"android": "https://dc.lft.to/lastmile_qr_scan", "ios": "https://dc.lft.to/lastmile_qr_scan"}, "is_reserved": 0, "name": "fdd23465e3582f1870bb9ea45343a320", "lon": -77.032121, "type": "electric_scooter", "bike_id": "fdd23465e3582f1870bb9ea45343a320", "fusion_lon": 0.0, "lat": 38.91801683333333, "fusion_lat": 0.0}, {"is_disabled": 0, "rental_uris": {"android": "https://dc.lft.to/lastmile_qr_scan", "ios": "https://dc.lft.to/lastmile_qr_scan"}, "is_reserved": 0, "name": "9abc8178c1288db6423247842a202feb", "lon": -77.02399, "type": "electric_scooter", "bike_id": "9abc8178c1288db6423247842a202feb", "fusion_lon": 0.0, "lat": 38.9309255, "fusion_lat": 0.0}, {"is_disabled": 0, "rental_uris": {"android": "https://dc.lft.to/lastmile_qr_scan", "ios": "https://dc.lft.to/lastmile_qr_scan"}, "is_reserved": 0, "name": "133d83675620bed811af11f85f541a0d", "lon": -77.010206, "type": "electric_scooter", "bike_id": "133d83675620bed811af11f85f541a0d", "fusion_lon": 0.0, "lat": 38.90623683333333, "fusion_lat": 0.0}, {"is_disabled": 0, "rental_uris": {"android": "https://dc.lft.to/lastmile_qr_scan", "ios": "https://dc.lft.to/lastmile_qr_scan"}, "is_reserved": 0, "name": "52439675ea782367bd28898cb23fcd06", "lon": -77.02352266666666, "type": "electric_scooter", "bike_id": "52439675ea782367bd28898cb23fcd06", "fusion_lon": 0.0, "lat": 38.92260683333333, "fusion_lat": 0.0}, {"is_disabled": 0, "rental_uris": {"android": "https://dc.lft.to/lastmile_qr_scan", "ios": "https://dc.lft.to/lastmile_qr_scan"}, "is_reserved": 0, "name": "f858a5d05cb078e6e2c47736f5aedbe8", "lon": -77.00121433333334, "type": "electric_scooter", "bike_id": "f858a5d05cb078e6e2c47736f5aedbe8", "fusion_lon": 0.0, "lat": 38.91253866666667, "fusion_lat": 0.0}, {"is_disabled": 0, "rental_uris": {"android": "https://dc.lft.to/lastmile_qr_scan", "ios": "https://dc.lft.to/lastmile_qr_scan"}, "is_reserved": 0, "name": "6fef3b1064ebbb6a40dba9616eb99628", "lon": -77.0435785, "type": "electric_scooter", "bike_id": "6fef3b1064ebbb6a40dba9616eb99628", "fusion_lon": 0.0, "lat": 38.89846433333334, "fusion_lat": 0.0}, {"is_disabled": 0, "rental_uris": {"android": "https://dc.lft.to/lastmile_qr_scan", "ios": "https://dc.lft.to/lastmile_qr_scan"}, "is_reserved": 0, "name": "3b894f81d49129d3bdb6b99051f07b7c", "lon": -77.028168, "type": "electric_scooter", "bike_id": "3b894f81d49129d3bdb6b99051f07b7c", "fusion_lon": 0.0, "lat": 38.931725666666665, "fusion_lat": 0.0}, {"is_disabled": 0, "rental_uris": {"android": "https://dc.lft.to/lastmile_qr_scan", "ios": "https://dc.lft.to/lastmile_qr_scan"}, "is_reserved": 0, "name": "01140838cc81679f986a77b72ba4fc21", "lon": -76.9872975, "type": "electric_scooter", "bike_id": "01140838cc81679f986a77b72ba4fc21", "fusion_lon": 0.0, "lat": 38.86712216666667, "fusion_lat": 0.0}, {"is_disabled": 0, "rental_uris": {"android": "https://dc.lft.to/lastmile_qr_scan", "ios": "https://dc.lft.to/lastmile_qr_scan"}, "is_reserved": 0, "name": "ff3ef32c3a2c2b803e793ca582239ae0", "lon": -76.95208566666666, "type": "electric_bike", "bike_id": "ff3ef32c3a2c2b803e793ca582239ae0", "fusion_lon": 0.0, "lat": 38.936677833333334, "fusion_lat": 0.0}, {"is_disabled": 0, "rental_uris": {"android": "https://dc.lft.to/lastmile_qr_scan", "ios": "https://dc.lft.to/lastmile_qr_scan"}, "is_reserved": 0, "name": "e64120daf519f0f5cf5735bd2c4629de", "lon": -77.07279266666667, "type": "electric_scooter", "bike_id": "e64120daf519f0f5cf5735bd2c4629de", "fusion_lon": 0.0, "lat": 38.934806, "fusion_lat": 0.0}, {"is_disabled": 0, "rental_uris": {"android": "https://dc.lft.to/lastmile_qr_scan", "ios": "https://dc.lft.to/lastmile_qr_scan"}, "is_reserved": 0, "name": "bd4d771d05b42ebc2c1fdf48e0fa8656", "lon": -77.02784866666667, "type": "electric_scooter", "bike_id": "bd4d771d05b42ebc2c1fdf48e0fa8656", "fusion_lon": 0.0, "lat": 38.91817616666667, "fusion_lat": 0.0}, {"is_disabled": 0, "rental_uris": {"android": "https://dc.lft.to/lastmile_qr_scan", "ios": "https://dc.lft.to/lastmile_qr_scan"}, "is_reserved": 0, "name": "28f00fffae48c32c9cfccf9bc85cac9c", "lon": -77.03260416666667, "type": "electric_scooter", "bike_id": "28f00fffae48c32c9cfccf9bc85cac9c", "fusion_lon": 0.0, "lat": 38.935268, "fusion_lat": 0.0}, {"is_disabled": 0, "rental_uris": {"android": "https://dc.lft.to/lastmile_qr_scan", "ios": "https://dc.lft.to/lastmile_qr_scan"}, "is_reserved": 0, "name": "0029c16a04bd264ba3201772b7e505de", "lon": -76.99166516666666, "type": "electric_scooter", "bike_id": "0029c16a04bd264ba3201772b7e505de", "fusion_lon": 0.0, "lat": 38.89773366666667, "fusion_lat": 0.0}, {"is_disabled": 0, "rental_uris": {"android": "https://dc.lft.to/lastmile_qr_scan", "ios": "https://dc.lft.to/lastmile_qr_scan"}, "is_reserved": 0, "name": "34067a1abcea33ebb21ee319511ca1f0", "lon": -77.053384, "type": "electric_scooter", "bike_id": "34067a1abcea33ebb21ee319511ca1f0", "fusion_lon": 0.0, "lat": 38.9279525, "fusion_lat": 0.0}, {"is_disabled": 0, "rental_uris": {"android": "https://dc.lft.to/lastmile_qr_scan", "ios": "https://dc.lft.to/lastmile_qr_scan"}, "is_reserved": 0, "name": "62c88a673dcf38f5ed8a15987db92403", "lon": -77.028256, "type": "electric_bike", "bike_id": "62c88a673dcf38f5ed8a15987db92403", "fusion_lon": 0.0, "lat": 38.9329415, "fusion_lat": 0.0}, {"is_disabled": 0, "rental_uris": {"android": "https://dc.lft.to/lastmile_qr_scan", "ios": "https://dc.lft.to/lastmile_qr_scan"}, "is_reserved": 0, "name": "a44b477f2108aca610fe5c134f9fcb65", "lon": -77.04110233333333, "type": "electric_scooter", "bike_id": "a44b477f2108aca610fe5c134f9fcb65", "fusion_lon": 0.0, "lat": 38.92446983333333, "fusion_lat": 0.0}, {"is_disabled": 0, "rental_uris": {"android": "https://dc.lft.to/lastmile_qr_scan", "ios": "https://dc.lft.to/lastmile_qr_scan"}, "is_reserved": 0, "name": "da783b40f7ac5f42288c6a773331f90e", "lon": -77.03244966666666, "type": "electric_scooter", "bike_id": "da783b40f7ac5f42288c6a773331f90e", "fusion_lon": 0.0, "lat": 38.91492183333333, "fusion_lat": 0.0}, {"is_disabled": 0, "rental_uris": {"android": "https://dc.lft.to/lastmile_qr_scan", "ios": "https://dc.lft.to/lastmile_qr_scan"}, "is_reserved": 0, "name": "2e9daf5fb93f1cccc9377febff2843c2", "lon": -77.04486233333333, "type": "electric_scooter", "bike_id": "2e9daf5fb93f1cccc9377febff2843c2", "fusion_lon": 0.0, "lat": 38.924282, "fusion_lat": 0.0}, {"is_disabled": 0, "rental_uris": {"android": "https://dc.lft.to/lastmile_qr_scan", "ios": "https://dc.lft.to/lastmile_qr_scan"}, "is_reserved": 0, "name": "35e8175da114397bb67a13a079cc753f", "lon": -76.99454883333334, "type": "electric_scooter", "bike_id": "35e8175da114397bb67a13a079cc753f", "fusion_lon": 0.0, "lat": 38.92280483333333, "fusion_lat": 0.0}, {"is_disabled": 0, "rental_uris": {"android": "https://dc.lft.to/lastmile_qr_scan", "ios": "https://dc.lft.to/lastmile_qr_scan"}, "is_reserved": 0, "name": "5e74944a848de179446af868fea4a76b", "lon": -77.02311633333333, "type": "electric_scooter", "bike_id": "5e74944a848de179446af868fea4a76b", "fusion_lon": 0.0, "lat": 38.895667833333334, "fusion_lat": 0.0}, {"is_disabled": 0, "rental_uris": {"android": "https://dc.lft.to/lastmile_qr_scan", "ios": "https://dc.lft.to/lastmile_qr_scan"}, "is_reserved": 0, "name": "637d72c9a5092068e56c2e20abc193c8", "lon": -77.00187966666667, "type": "electric_scooter", "bike_id": "637d72c9a5092068e56c2e20abc193c8", "fusion_lon": 0.0, "lat": 38.900508333333335, "fusion_lat": 0.0}, {"is_disabled": 0, "rental_uris": {"android": "https://dc.lft.to/lastmile_qr_scan", "ios": "https://dc.lft.to/lastmile_qr_scan"}, "is_reserved": 0, "name": "add85a2f28a91cb9088d8f9a893208a0", "lon": -77.03447366666667, "type": "electric_scooter", "bike_id": "add85a2f28a91cb9088d8f9a893208a0", "fusion_lon": 0.0, "lat": 38.909752166666664, "fusion_lat": 0.0}, {"is_disabled": 0, "rental_uris": {"android": "https://dc.lft.to/lastmile_qr_scan", "ios": "https://dc.lft.to/lastmile_qr_scan"}, "is_reserved": 0, "name": "701b23ad4cafe5a53db30ce2d3ac21d0", "lon": -77.04138616666667, "type": "electric_bike", "bike_id": "701b23ad4cafe5a53db30ce2d3ac21d0", "fusion_lon": 0.0, "lat": 38.943986833333334, "fusion_lat": 0.0}, {"is_disabled": 0, "rental_uris": {"android": "https://dc.lft.to/lastmile_qr_scan", "ios": "https://dc.lft.to/lastmile_qr_scan"}, "is_reserved": 0, "name": "bfa3209440ce419116acc37c56ab84a7", "lon": -77.03211816666666, "type": "electric_scooter", "bike_id": "bfa3209440ce419116acc37c56ab84a7", "fusion_lon": 0.0, "lat": 38.90377216666667, "fusion_lat": 0.0}, {"is_disabled": 0, "rental_uris": {"android": "https://dc.lft.to/lastmile_qr_scan", "ios": "https://dc.lft.to/lastmile_qr_scan"}, "is_reserved": 0, "name": "1838531f0924170f31a8d2e6577e2dcc", "lon": -77.033703, "type": "electric_scooter", "bike_id": "1838531f0924170f31a8d2e6577e2dcc", "fusion_lon": 0.0, "lat": 38.9214875, "fusion_lat": 0.0}, {"is_disabled": 0, "rental_uris": {"android": "https://dc.lft.to/lastmile_qr_scan", "ios": "https://dc.lft.to/lastmile_qr_scan"}, "is_reserved": 0, "name": "ea5a30079c7b3887fb3c282ba62836bc", "lon": -77.02848, "type": "electric_scooter", "bike_id": "ea5a30079c7b3887fb3c282ba62836bc", "fusion_lon": 0.0, "lat": 38.925825, "fusion_lat": 0.0}, {"is_disabled": 0, "rental_uris": {"android": "https://dc.lft.to/lastmile_qr_scan", "ios": "https://dc.lft.to/lastmile_qr_scan"}, "is_reserved": 0, "name": "a4e56da0f94e3f4a49104737717f1472", "lon": -77.02387983333334, "type": "electric_scooter", "bike_id": "a4e56da0f94e3f4a49104737717f1472", "fusion_lon": 0.0, "lat": 38.92794933333333, "fusion_lat": 0.0}, {"is_disabled": 0, "rental_uris": {"android": "https://dc.lft.to/lastmile_qr_scan", "ios": "https://dc.lft.to/lastmile_qr_scan"}, "is_reserved": 0, "name": "58e9e4f65d28818e245792df12ed7296", "lon": -77.00875633333334, "type": "electric_scooter", "bike_id": "58e9e4f65d28818e245792df12ed7296", "fusion_lon": 0.0, "lat": 38.90581866666667, "fusion_lat": 0.0}, {"is_disabled": 0, "rental_uris": {"android": "https://dc.lft.to/lastmile_qr_scan", "ios": "https://dc.lft.to/lastmile_qr_scan"}, "is_reserved": 0, "name": "743ce1b3b7c74f3da8605cd58444b730", "lon": -77.03377633333334, "type": "electric_scooter", "bike_id": "743ce1b3b7c74f3da8605cd58444b730", "fusion_lon": 0.0, "lat": 38.91706333333333, "fusion_lat": 0.0}, {"is_disabled": 0, "rental_uris": {"android": "https://dc.lft.to/lastmile_qr_scan", "ios": "https://dc.lft.to/lastmile_qr_scan"}, "is_reserved": 0, "name": "eb68c7e64da4e4ff61a6f6f15368f694", "lon": -77.0150845, "type": "electric_scooter", "bike_id": "eb68c7e64da4e4ff61a6f6f15368f694", "fusion_lon": 0.0, "lat": 38.91002916666667, "fusion_lat": 0.0}, {"is_disabled": 0, "rental_uris": {"android": "https://dc.lft.to/lastmile_qr_scan", "ios": "https://dc.lft.to/lastmile_qr_scan"}, "is_reserved": 0, "name": "9cb37b3fadb2e57a44a4b698d2326aa5", "lon": -77.0458195, "type": "electric_scooter", "bike_id": "9cb37b3fadb2e57a44a4b698d2326aa5", "fusion_lon": 0.0, "lat": 38.924216333333334, "fusion_lat": 0.0}, {"is_disabled": 0, "rental_uris": {"android": "https://dc.lft.to/lastmile_qr_scan", "ios": "https://dc.lft.to/lastmile_qr_scan"}, "is_reserved": 0, "name": "9148fe234b581c919a7ff334c0a6de8d", "lon": -77.0384725, "type": "electric_scooter", "bike_id": "9148fe234b581c919a7ff334c0a6de8d", "fusion_lon": 0.0, "lat": 38.91467333333333, "fusion_lat": 0.0}, {"is_disabled": 0, "rental_uris": {"android": "https://dc.lft.to/lastmile_qr_scan", "ios": "https://dc.lft.to/lastmile_qr_scan"}, "is_reserved": 0, "name": "ba3e8976f883bc8cfda5546fd989d034", "lon": -77.02215683333333, "type": "electric_scooter", "bike_id": "ba3e8976f883bc8cfda5546fd989d034", "fusion_lon": 0.0, "lat": 38.88742666666667, "fusion_lat": 0.0}, {"is_disabled": 0, "rental_uris": {"android": "https://dc.lft.to/lastmile_qr_scan", "ios": "https://dc.lft.to/lastmile_qr_scan"}, "is_reserved": 0, "name": "a3af26297977f1a25cd14b26b0ed2e38", "lon": -77.025109, "type": "electric_scooter", "bike_id": "a3af26297977f1a25cd14b26b0ed2e38", "fusion_lon": 0.0, "lat": 38.93883183333333, "fusion_lat": 0.0}, {"is_disabled": 0, "rental_uris": {"android": "https://dc.lft.to/lastmile_qr_scan", "ios": "https://dc.lft.to/lastmile_qr_scan"}, "is_reserved": 0, "name": "8e25860c79cc6de7177fbebfdd67dc7c", "lon": -77.03218833333334, "type": "electric_scooter", "bike_id": "8e25860c79cc6de7177fbebfdd67dc7c", "fusion_lon": 0.0, "lat": 38.903785666666664, "fusion_lat": 0.0}, {"is_disabled": 0, "rental_uris": {"android": "https://dc.lft.to/lastmile_qr_scan", "ios": "https://dc.lft.to/lastmile_qr_scan"}, "is_reserved": 0, "name": "f0736a6073ea31c55763284e796556fc", "lon": -77.04118333333334, "type": "electric_scooter", "bike_id": "f0736a6073ea31c55763284e796556fc", "fusion_lon": 0.0, "lat": 38.92253216666667, "fusion_lat": 0.0}, {"is_disabled": 0, "rental_uris": {"android": "https://dc.lft.to/lastmile_qr_scan", "ios": "https://dc.lft.to/lastmile_qr_scan"}, "is_reserved": 0, "name": "5a63b7c2df655e339e3ea711aeeba836", "lon": -76.98363033333334, "type": "electric_scooter", "bike_id": "5a63b7c2df655e339e3ea711aeeba836", "fusion_lon": 0.0, "lat": 38.891788166666664, "fusion_lat": 0.0}, {"is_disabled": 0, "rental_uris": {"android": "https://dc.lft.to/lastmile_qr_scan", "ios": "https://dc.lft.to/lastmile_qr_scan"}, "is_reserved": 0, "name": "90a9971d855a7b9dc52e427303913f19", "lon": -77.06693433333334, "type": "electric_scooter", "bike_id": "90a9971d855a7b9dc52e427303913f19", "fusion_lon": 0.0, "lat": 38.94959216666667, "fusion_lat": 0.0}, {"is_disabled": 0, "rental_uris": {"android": "https://dc.lft.to/lastmile_qr_scan", "ios": "https://dc.lft.to/lastmile_qr_scan"}, "is_reserved": 0, "name": "efc17ce480d5794a31cc21f2905eee66", "lon": -77.04000166666667, "type": "electric_scooter", "bike_id": "efc17ce480d5794a31cc21f2905eee66", "fusion_lon": 0.0, "lat": 38.918119, "fusion_lat": 0.0}, {"is_disabled": 0, "rental_uris": {"android": "https://dc.lft.to/lastmile_qr_scan", "ios": "https://dc.lft.to/lastmile_qr_scan"}, "is_reserved": 0, "name": "10ea28d3f4409a560529040235998a25", "lon": -77.040419, "type": "electric_scooter", "bike_id": "10ea28d3f4409a560529040235998a25", "fusion_lon": 0.0, "lat": 38.909550833333334, "fusion_lat": 0.0}, {"is_disabled": 0, "rental_uris": {"android": "https://dc.lft.to/lastmile_qr_scan", "ios": "https://dc.lft.to/lastmile_qr_scan"}, "is_reserved": 0, "name": "9ba2ead02201ab8deef15b8bc4b5ab4f", "lon": -77.03661, "type": "electric_scooter", "bike_id": "9ba2ead02201ab8deef15b8bc4b5ab4f", "fusion_lon": 0.0, "lat": 38.935827, "fusion_lat": 0.0}, {"is_disabled": 0, "rental_uris": {"android": "https://dc.lft.to/lastmile_qr_scan", "ios": "https://dc.lft.to/lastmile_qr_scan"}, "is_reserved": 0, "name": "760233c0b4fc53b9aad9a47439ac0430", "lon": -77.0418195, "type": "electric_scooter", "bike_id": "760233c0b4fc53b9aad9a47439ac0430", "fusion_lon": 0.0, "lat": 38.916315833333336, "fusion_lat": 0.0}, {"is_disabled": 0, "rental_uris": {"android": "https://dc.lft.to/lastmile_qr_scan", "ios": "https://dc.lft.to/lastmile_qr_scan"}, "is_reserved": 0, "name": "f63e75cc86903ff1cb6f0f8dc3f936d6", "lon": -77.02934733333333, "type": "electric_scooter", "bike_id": "f63e75cc86903ff1cb6f0f8dc3f936d6", "fusion_lon": 0.0, "lat": 38.898380333333336, "fusion_lat": 0.0}, {"is_disabled": 0, "rental_uris": {"android": "https://dc.lft.to/lastmile_qr_scan", "ios": "https://dc.lft.to/lastmile_qr_scan"}, "is_reserved": 0, "name": "7379b6f7e39ae8eee94d3c1fc4c95f75", "lon": -77.02246033333333, "type": "electric_scooter", "bike_id": "7379b6f7e39ae8eee94d3c1fc4c95f75", "fusion_lon": 0.0, "lat": 38.91659116666666, "fusion_lat": 0.0}, {"is_disabled": 0, "rental_uris": {"android": "https://dc.lft.to/lastmile_qr_scan", "ios": "https://dc.lft.to/lastmile_qr_scan"}, "is_reserved": 0, "name": "457a90b40d3a2954dcbad26223c0d052", "lon": -76.98711016666667, "type": "electric_scooter", "bike_id": "457a90b40d3a2954dcbad26223c0d052", "fusion_lon": 0.0, "lat": 38.866961333333336, "fusion_lat": 0.0}, {"is_disabled": 0, "rental_uris": {"android": "https://dc.lft.to/lastmile_qr_scan", "ios": "https://dc.lft.to/lastmile_qr_scan"}, "is_reserved": 0, "name": "44ef903f7509be8247d3aa08c63a69bc", "lon": -76.98730166666667, "type": "electric_scooter", "bike_id": "44ef903f7509be8247d3aa08c63a69bc", "fusion_lon": 0.0, "lat": 38.867142333333334, "fusion_lat": 0.0}, {"is_disabled": 0, "rental_uris": {"android": "https://dc.lft.to/lastmile_qr_scan", "ios": "https://dc.lft.to/lastmile_qr_scan"}, "is_reserved": 0, "name": "ad6de12e4bdfab4e0bcaf498b3cee477", "lon": -76.93155216666666, "type": "electric_scooter", "bike_id": "ad6de12e4bdfab4e0bcaf498b3cee477", "fusion_lon": 0.0, "lat": 38.898475833333336, "fusion_lat": 0.0}, {"is_disabled": 0, "rental_uris": {"android": "https://dc.lft.to/lastmile_qr_scan", "ios": "https://dc.lft.to/lastmile_qr_scan"}, "is_reserved": 0, "name": "ff0981216fbc128cebebd25d37f2a906", "lon": -77.01905716666667, "type": "electric_scooter", "bike_id": "ff0981216fbc128cebebd25d37f2a906", "fusion_lon": 0.0, "lat": 38.912207333333335, "fusion_lat": 0.0}, {"is_disabled": 0, "rental_uris": {"android": "https://dc.lft.to/lastmile_qr_scan", "ios": "https://dc.lft.to/lastmile_qr_scan"}, "is_reserved": 0, "name": "e0a3795bd7dd7a860cc60a6230b6ea39", "lon": -77.022313, "type": "electric_scooter", "bike_id": "e0a3795bd7dd7a860cc60a6230b6ea39", "fusion_lon": 0.0, "lat": 38.90561566666667, "fusion_lat": 0.0}, {"is_disabled": 0, "rental_uris": {"android": "https://dc.lft.to/lastmile_qr_scan", "ios": "https://dc.lft.to/lastmile_qr_scan"}, "is_reserved": 0, "name": "3927b9eccee67b9a83c48ffe2ae0873c", "lon": -77.0385315, "type": "electric_scooter", "bike_id": "3927b9eccee67b9a83c48ffe2ae0873c", "fusion_lon": 0.0, "lat": 38.932409666666665, "fusion_lat": 0.0}, {"is_disabled": 0, "rental_uris": {"android": "https://dc.lft.to/lastmile_qr_scan", "ios": "https://dc.lft.to/lastmile_qr_scan"}, "is_reserved": 0, "name": "13a488021dd4c355b362b16c190a3e8c", "lon": -77.04126916666667, "type": "electric_scooter", "bike_id": "13a488021dd4c355b362b16c190a3e8c", "fusion_lon": 0.0, "lat": 38.93105933333333, "fusion_lat": 0.0},