{"data": {"bikes": [{"is_reserved": 0, "fusion_lon": 0.0, "lon": -77.00889833333333, "fusion_lat": 0.0, "rental_uris": {"ios": "https://dc.lft.to/lastmile_qr_scan", "android": "https://dc.lft.to/lastmile_qr_scan"}, "bike_id": "d98558563575ec618c66403e146a868a", "lat": 38.87670816666667, "type": "electric_scooter", "name": "d98558563575ec618c66403e146a868a", "is_disabled": 0}, {"is_reserved": 0, "fusion_lon": 0.0, "lon": -76.92678433333333, "fusion_lat": 0.0, "rental_uris": {"ios": "https://dc.lft.to/lastmile_qr_scan", "android": "https://dc.lft.to/lastmile_qr_scan"}, "bike_id": "0729840fa105af8a34a63beb313eede0", "lat": 38.88847783333333, "type": "electric_scooter", "name": "0729840fa105af8a34a63beb313eede0", "is_disabled": 0}, {"is_reserved": 0, "fusion_lon": 0.0, "lon": -77.00069716666667, "fusion_lat": 0.0, "rental_uris": {"ios": "https://dc.lft.to/lastmile_qr_scan", "android": "https://dc.lft.to/lastmile_qr_scan"}, "bike_id": "571389113919110bb6352fb307687bbd", "lat": 38.8867755, "type": "electric_scooter", "name": "571389113919110bb6352fb307687bbd", "is_disabled": 0}, {"is_reserved": 0, "fusion_lon": 0.0, "lon": -76.99147366666666, "fusion_lat": 0.0, "rental_uris": {"ios": "https://dc.lft.to/lastmile_qr_scan", "android": "https://dc.lft.to/lastmile_qr_scan"}, "bike_id": "0911ee0b22ed29d97d3be519ad31c198", "lat": 38.885317, "type": "electric_scooter", "name": "0911ee0b22ed29d97d3be519ad31c198", "is_disabled": 0}, {"is_reserved": 0, "fusion_lon": 0.0, "lon": -76.96983683333333, "fusion_lat": 0.0, "rental_uris": {"ios": "https://dc.lft.to/lastmile_qr_scan", "android": "https://dc.lft.to/lastmile_qr_scan"}, "bike_id": "4b6b144927f08fc792c3ee4d1959204c", "lat": 38.878664, "type": "electric_scooter", "name": "4b6b144927f08fc792c3ee4d1959204c", "is_disabled": 0}, {"is_reserved": 0, "fusion_lon": 0.0, "lon": -77.0342565, "fusion_lat": 0.0, "rental_uris": {"ios": "https://dc.lft.to/lastmile_qr_scan", "android": "https://dc.lft.to/lastmile_qr_scan"}, "bike_id": "7fb3d72e4f84abb422e271059e349300", "lat": 38.91915733333333, "type": "electric_scooter", "name": "7fb3d72e4f84abb422e271059e349300", "is_disabled": 0}, {"is_reserved": 0, "fusion_lon": 0.0, "lon": -77.03186733333334, "fusion_lat": 0.0, "rental_uris": {"ios": "https://dc.lft.to/lastmile_qr_scan", "android": "https://dc.lft.to/lastmile_qr_scan"}, "bike_id": "7e9cd8590ae17623894d4c7369cfc99f", "lat": 38.90025933333333, "type": "electric_scooter", "name": "7e9cd8590ae17623894d4c7369cfc99f", "is_disabled": 0}, {"is_reserved": 0, "fusion_lon": 0.0, "lon": -77.01141133333333, "fusion_lat": 0.0, "rental_uris": {"ios": "https://dc.lft.to/lastmile_qr_scan", "android": "https://dc.lft.to/lastmile_qr_scan"}, "bike_id": "a9b9f32991d349bc2f53c6116b5aa5e5", "lat": 38.9001895, "type": "electric_scooter", "name": "a9b9f32991d349bc2f53c6116b5aa5e5", "is_disabled": 0}, {"is_reserved": 0, "fusion_lon": 0.0, "lon": -77.04687816666667, "fusion_lat": 0.0, "rental_uris": {"ios": "https://dc.lft.to/lastmile_qr_scan", "android": "https://dc.lft.to/lastmile_qr_scan"}, "bike_id": "39a0fd147ee6c5d0265d2e22acfb1429", "lat": 38.892188, "type": "electric_scooter", "name": "39a0fd147ee6c5d0265d2e22acfb1429", "is_disabled": 0}, {"is_reserved": 0, "fusion_lon": 0.0, "lon": -76.94257816666666, "fusion_lat": 0.0, "rental_uris": {"ios": "https://dc.lft.to/lastmile_qr_scan", "android": "https://dc.lft.to/lastmile_qr_scan"}, "bike_id": "c199479884626dbe801703bfb45b6bba", "lat": 38.898441, "type": "electric_scooter", "name": "c199479884626dbe801703bfb45b6bba", "is_disabled": 0}, {"is_reserved": 0, "fusion_lon": 0.0, "lon": -77.003249, "fusion_lat": 0.0, "rental_uris": {"ios": "https://dc.lft.to/lastmile_qr_scan", "android": "https://dc.lft.to/lastmile_qr_scan"}, "bike_id": "3fc69c5fbf8e1a66193e2dc361b8e684", "lat": 38.919419500000004, "type": "electric_scooter", "name": "3fc69c5fbf8e1a66193e2dc361b8e684", "is_disabled": 0}, {"is_reserved": 0, "fusion_lon": 0.0, "lon": -77.03408033333334, "fusion_lat": 0.0, "rental_uris": {"ios": "https://dc.lft.to/lastmile_qr_scan", "android": "https://dc.lft.to/lastmile_qr_scan"}, "bike_id": "02535f30c0468cfe012a57939fdfd684", "lat": 38.928732333333336, "type": "electric_scooter", "name": "02535f30c0468cfe012a57939fdfd684", "is_disabled": 0}, {"is_reserved": 0, "fusion_lon": 0.0, "lon": -77.0463015, "fusion_lat": 0.0, "rental_uris": {"ios": "https://dc.lft.to/lastmile_qr_scan", "android": "https://dc.lft.to/lastmile_qr_scan"}, "bike_id": "70e93e6642808cf7267d6c3e7bc124a8", "lat": 38.91803916666667, "type": "electric_scooter", "name": "70e93e6642808cf7267d6c3e7bc124a8", "is_disabled": 0}, {"is_reserved": 0, "fusion_lon": 0.0, "lon": -77.0328735, "fusion_lat": 0.0, "rental_uris": {"ios": "https://dc.lft.to/lastmile_qr_scan", "android": "https://dc.lft.to/lastmile_qr_scan"}, "bike_id": "1b62b1d2ff05f710d8cba3031ca0b953", "lat": 38.928366, "type": "electric_scooter", "name": "1b62b1d2ff05f710d8cba3031ca0b953", "is_disabled": 0}, {"is_reserved": 0, "fusion_lon": 0.0, "lon": -77.06989433333334, "fusion_lat": 0.0, "rental_uris": {"ios": "https://dc.lft.to/lastmile_qr_scan", "android": "https://dc.lft.to/lastmile_qr_scan"}, "bike_id": "63233dd187089809ffebb6b55d416e07", "lat": 38.9552805, "type": "electric_bike", "name": "63233dd187089809ffebb6b55d416e07", "is_disabled": 0}, {"is_reserved": 0, "fusion_lon": 0.0, "lon": -77.03783816666666, "fusion_lat": 0.0, "rental_uris": {"ios": "https://dc.lft.to/lastmile_qr_scan", "android": "https://dc.lft.to/lastmile_qr_scan"}, "bike_id": "07985261a54202e62f39bdfd6c5613ea", "lat": 38.9269825, "type": "electric_scooter", "name": "07985261a54202e62f39bdfd6c5613ea", "is_disabled": 0}, {"is_reserved": 0, "fusion_lon": 0.0, "lon": -76.99659083333333, "fusion_lat": 0.0, "rental_uris": {"ios": "https://dc.lft.to/lastmile_qr_scan", "android": "https://dc.lft.to/lastmile_qr_scan"}, "bike_id": "2047add4e5af286fcb4f9ef44ddd4821", "lat": 38.860081, "type": "electric_scooter", "name": "2047add4e5af286fcb4f9ef44ddd4821", "is_disabled": 0}, {"is_reserved": 0, "fusion_lon": 0.0, "lon": -76.98226433333333, "fusion_lat": 0.0, "rental_uris": {"ios": "https://dc.lft.to/lastmile_qr_scan", "android": "https://dc.lft.to/lastmile_qr_scan"}, "bike_id": "eebd8995caea042bf0fd9fe939e9cecd", "lat": 38.864766, "type": "electric_scooter", "name": "eebd8995caea042bf0fd9fe939e9cecd", "is_disabled": 0}, {"is_reserved": 0, "fusion_lon": 0.0, "lon": -77.00948316666667, "fusion_lat": 0.0, "rental_uris": {"ios": "https://dc.lft.to/lastmile_qr_scan", "android": "https://dc.lft.to/lastmile_qr_scan"}, "bike_id": "538013baa70bb6c4378fcfc06bc0e1c3", "lat": 38.92123516666667, "type": "electric_bike", "name": "538013baa70bb6c4378fcfc06bc0e1c3", "is_disabled": 0}, {"is_reserved": 0, "fusion_lon": 0.0, "lon": -77.00219333333334, "fusion_lat": 0.0, "rental_uris": {"ios": "https://dc.lft.to/lastmile_qr_scan", "android": "https://dc.lft.to/lastmile_qr_scan"}, "bike_id": "e8b0484899051c9c2acea06ebda08846", "lat": 38.900485833333335, "type": "electric_scooter", "name": "e8b0484899051c9c2acea06ebda08846", "is_disabled": 0}, {"is_reserved": 0, "fusion_lon": 0.0, "lon": -77.00459783333334, "fusion_lat": 0.0, "rental_uris": {"ios": "https://dc.lft.to/lastmile_qr_scan", "android": "https://dc.lft.to/lastmile_qr_scan"}, "bike_id": "04f41ce638b787b5ffc4d2630eedf276", "lat": 38.876509166666665, "type": "electric_scooter", "name": "04f41ce638b787b5ffc4d2630eedf276", "is_disabled": 0}, {"is_reserved": 0, "fusion_lon": 0.0, "lon": -77.00749966666666, "fusion_lat": 0.0, "rental_uris": {"ios": "https://dc.lft.to/lastmile_qr_scan", "android": "https://dc.lft.to/lastmile_qr_scan"}, "bike_id": "a6a3099aec1d15f5f83a42c69e6d4651", "lat": 38.8984435, "type": "electric_scooter", "name": "a6a3099aec1d15f5f83a42c69e6d4651", "is_disabled": 0}, {"is_reserved": 0, "fusion_lon": 0.0, "lon": -77.02607533333334, "fusion_lat": 0.0, "rental_uris": {"ios": "https://dc.lft.to/lastmile_qr_scan", "android": "https://dc.lft.to/lastmile_qr_scan"}, "bike_id": "9b0b5e4886ca7815f553404bcad471d9", "lat": 38.928477, "type": "electric_scooter", "name": "9b0b5e4886ca7815f553404bcad471d9", "is_disabled": 0}, {"is_reserved": 0, "fusion_lon": 0.0, "lon": -77.03629916666667, "fusion_lat": 0.0, "rental_uris": {"ios": "https://dc.lft.to/lastmile_qr_scan", "android": "https://dc.lft.to/lastmile_qr_scan"}, "bike_id": "5a3426aa6099c15e9016cfa2365e1354", "lat": 38.901317, "type": "electric_scooter", "name": "5a3426aa6099c15e9016cfa2365e1354", "is_disabled": 0}, {"is_reserved": 0, "fusion_lon": 0.0, "lon": -77.01997516666667, "fusion_lat": 0.0, "rental_uris": {"ios": "https://dc.lft.to/lastmile_qr_scan", "android": "https://dc.lft.to/lastmile_qr_scan"}, "bike_id": "bd77f6e349a0e978ddc6956ac30615f4", "lat": 38.91421316666667, "type": "electric_scooter", "name": "bd77f6e349a0e978ddc6956ac30615f4", "is_disabled": 0}, {"is_reserved": 0, "fusion_lon": 0.0, "lon": -77.0006125, "fusion_lat": 0.0, "rental_uris": {"ios": "https://dc.lft.to/lastmile_qr_scan", "android": "https://dc.lft.to/lastmile_qr_scan"}, "bike_id": "555dbaaa2f1d19202f3e0fad4f77f6fc", "lat": 38.875454, "type": "electric_scooter", "name": "555dbaaa2f1d19202f3e0fad4f77f6fc", "is_disabled": 0}, {"is_reserved": 0, "fusion_lon": 0.0, "lon": -76.935529, "fusion_lat": 0.0, "rental_uris": {"ios": "https://dc.lft.to/lastmile_qr_scan", "android": "https://dc.lft.to/lastmile_qr_scan"}, "bike_id": "139955a9525474700db62ec9896fb892", "lat": 38.882610666666665, "type": "electric_scooter", "name": "139955a9525474700db62ec9896fb892", "is_disabled": 0}, {"is_reserved": 0, "fusion_lon": 0.0, "lon": -77.00223166666666, "fusion_lat": 0.0, "rental_uris": {"ios": "https://dc.lft.to/lastmile_qr_scan", "android": "https://dc.lft.to/lastmile_qr_scan"}, "bike_id": "39013faa5617728cdba2ace465e66ba8", "lat": 38.89483766666667, "type": "electric_scooter", "name": "39013faa5617728cdba2ace465e66ba8", "is_disabled": 0}, {"is_reserved": 0, "fusion_lon": 0.0, "lon": -77.08701866666667, "fusion_lat": 0.0, "rental_uris": {"ios": "https://dc.lft.to/lastmile_qr_scan", "android": "https://dc.lft.to/lastmile_qr_scan"}, "bike_id": "68e62c93d6436947340c7bc606b2dcbe", "lat": 38.935214333333334, "type": "electric_scooter", "name": "68e62c93d6436947340c7bc606b2dcbe", "is_disabled": 0}, {"is_reserved": 0, "fusion_lon": 0.0, "lon": -76.93339633333333, "fusion_lat": 0.0, "rental_uris": {"ios": "https://dc.lft.to/lastmile_qr_scan", "android": "https://dc.lft.to/lastmile_qr_scan"}, "bike_id": "3462378e9bad74478d94df273eb3cdcd", "lat": 38.908683333333336, "type": "electric_scooter", "name": "3462378e9bad74478d94df273eb3cdcd", "is_disabled": 0}, {"is_reserved": 0, "fusion_lon": 0.0, "lon": -77.02489783333333, "fusion_lat": 0.0, "rental_uris": {"ios": "https://dc.lft.to/lastmile_qr_scan", "android": "https://dc.lft.to/lastmile_qr_scan"}, "bike_id": "5279bb7941d97597aa08054992f09003", "lat": 38.94181233333333, "type": "electric_scooter", "name": "5279bb7941d97597aa08054992f09003", "is_disabled": 0}, {"is_reserved": 0, "fusion_lon": 0.0, "lon": -76.98825, "fusion_lat": 0.0, "rental_uris": {"ios": "https://dc.lft.to/lastmile_qr_scan", "android": "https://dc.lft.to/lastmile_qr_scan"}, "bike_id": "3cf9aba049568d687ed1a80a19a404b0", "lat": 38.890775, "type": "electric_scooter", "name": "3cf9aba049568d687ed1a80a19a404b0", "is_disabled": 0}, {"is_reserved": 0, "fusion_lon": 0.0, "lon": -76.98341533333334, "fusion_lat": 0.0, "rental_uris": {"ios": "https://dc.lft.to/lastmile_qr_scan", "android": "https://dc.lft.to/lastmile_qr_scan"}, "bike_id": "da5e401a344a31d61938fec9f11d8790", "lat": 38.89543283333333, "type": "electric_scooter", "name": "da5e401a344a31d61938fec9f11d8790", "is_disabled": 0}, {"is_reserved": 0, "fusion_lon": 0.0, "lon": -77.05109433333334, "fusion_lat": 0.0, "rental_uris": {"ios": "https://dc.lft.to/lastmile_qr_scan", "android": "https://dc.lft.to/lastmile_qr_scan"}, "bike_id": "fdd487ef49ba39f5643b898c38daa484", "lat": 38.9236105, "type": "electric_scooter", "name": "fdd487ef49ba39f5643b898c38daa484", "is_disabled": 0}, {"is_reserved": 0, "fusion_lon": 0.0, "lon": -77.0229655, "fusion_lat": 0.0, "rental_uris": {"ios": "https://dc.lft.to/lastmile_qr_scan", "android": "https://dc.lft.to/lastmile_qr_scan"}, "bike_id": "3b6ce623ec94f26106ce0c29e2d175b8", "lat": 38.917053333333335, "type": "electric_scooter", "name": "3b6ce623ec94f26106ce0c29e2d175b8", "is_disabled": 0}, {"is_reserved": 0, "fusion_lon": 0.0, "lon": -76.976313, "fusion_lat": 0.0, "rental_uris": {"ios": "https://dc.lft.to/lastmile_qr_scan", "android": "https://dc.lft.to/lastmile_qr_scan"}, "bike_id": "0eb690fcfcdcf23220b6de95f629124c", "lat": 38.901584666666665, "type": "electric_scooter", "name": "0eb690fcfcdcf23220b6de95f629124c", "is_disabled": 0}, {"is_reserved": 0, "fusion_lon": 0.0, "lon": -77.0176605, "fusion_lat": 0.0, "rental_uris": {"ios": "https://dc.lft.to/lastmile_qr_scan", "android": "https://dc.lft.to/lastmile_qr_scan"}, "bike_id": "94114f4bce78399754cc357a6d54ea70", "lat": 38.90123416666667, "type": "electric_scooter", "name": "94114f4bce78399754cc357a6d54ea70", "is_disabled": 0}, {"is_reserved": 0, "fusion_lon": 0.0, "lon": -77.05318366666667, "fusion_lat": 0.0, "rental_uris": {"ios": "https://dc.lft.to/lastmile_qr_scan", "android": "https://dc.lft.to/lastmile_qr_scan"}, "bike_id": "ef5091a8d451d0b7b07b7c4aee953cde", "lat": 38.820484666666665, "type": "electric_bike", "name": "ef5091a8d451d0b7b07b7c4aee953cde", "is_disabled": 0}, {"is_reserved": 0, "fusion_lon": 0.0, "lon": -77.03742416666667, "fusion_lat": 0.0, "rental_uris": {"ios": "https://dc.lft.to/lastmile_qr_scan", "android": "https://dc.lft.to/lastmile_qr_scan"}, "bike_id": "22c3377ee75c9da676de312e00a8edad", "lat": 38.916185, "type": "electric_scooter", "name": "22c3377ee75c9da676de312e00a8edad", "is_disabled": 0}, {"is_reserved": 0, "fusion_lon": 0.0, "lon": -77.01169033333333, "fusion_lat": 0.0, "rental_uris": {"ios": "https://dc.lft.to/lastmile_qr_scan", "android": "https://dc.lft.to/lastmile_qr_scan"}, "bike_id": "ea3ee8667b06cfc0b81960e8b1582d4c", "lat": 38.917043666666665, "type": "electric_scooter", "name": "ea3ee8667b06cfc0b81960e8b1582d4c", "is_disabled": 0}, {"is_reserved": 0, "fusion_lon": 0.0, "lon": -77.009403, "fusion_lat": 0.0, "rental_uris": {"ios": "https://dc.lft.to/lastmile_qr_scan", "android": "https://dc.lft.to/lastmile_qr_scan"}, "bike_id": "5ea3338c82075f72f244f986bd15782b", "lat": 38.8750165, "type": "electric_scooter", "name": "5ea3338c82075f72f244f986bd15782b", "is_disabled": 0}, {"is_reserved": 0, "fusion_lon": 0.0, "lon": -77.0252455, "fusion_lat": 0.0, "rental_uris": {"ios": "https://dc.lft.to/lastmile_qr_scan", "android": "https://dc.lft.to/lastmile_qr_scan"}, "bike_id": "83ab90ddf21ed7579dfe69988cb22014", "lat": 38.920772, "type": "electric_scooter", "name": "83ab90ddf21ed7579dfe69988cb22014", "is_disabled": 0}, {"is_reserved": 0, "fusion_lon": 0.0, "lon": -76.99138283333333, "fusion_lat": 0.0, "rental_uris": {"ios": "https://dc.lft.to/lastmile_qr_scan", "android": "https://dc.lft.to/lastmile_qr_scan"}, "bike_id": "e32d55ace0656df87e88b66686937aba", "lat": 38.938191333333336, "type": "electric_bike", "name": "e32d55ace0656df87e88b66686937aba", "is_disabled": 0}, {"is_reserved": 0, "fusion_lon": 0.0, "lon": -77.044801, "fusion_lat": 0.0, "rental_uris": {"ios": "https://dc.lft.to/lastmile_qr_scan", "android": "https://dc.lft.to/lastmile_qr_scan"}, "bike_id": "3a99700a98d72813daa12729ed2b860b", "lat": 38.9187875, "type": "electric_scooter", "name": "3a99700a98d72813daa12729ed2b860b", "is_disabled": 0}, {"is_reserved": 0, "fusion_lon": 0.0, "lon": -77.02405283333333, "fusion_lat": 0.0, "rental_uris": {"ios": "https://dc.lft.to/lastmile_qr_scan", "android": "https://dc.lft.to/lastmile_qr_scan"}, "bike_id": "5eb91e54a5918553d81eca7a1f4ae8fd", "lat": 38.919261, "type": "electric_scooter", "name": "5eb91e54a5918553d81eca7a1f4ae8fd", "is_disabled": 0}, {"is_reserved": 0, "fusion_lon": 0.0, "lon": -77.049887, "fusion_lat": 0.0, "rental_uris": {"ios": "https://dc.lft.to/lastmile_qr_scan", "android": "https://dc.lft.to/lastmile_qr_scan"}, "bike_id": "2ab3f91c1a35a9e8343325f913e014f4", "lat": 38.898371, "type": "electric_scooter", "name": "2ab3f91c1a35a9e8343325f913e014f4", "is_disabled": 0}, {"is_reserved": 0, "fusion_lon": 0.0, "lon": -77.031945, "fusion_lat": 0.0, "rental_uris": {"ios": "https://dc.lft.to/lastmile_qr_scan", "android": "https://dc.lft.to/lastmile_qr_scan"}, "bike_id": "ba44b1910c7f04301b7b8420aa13407e", "lat": 38.9102655, "type": "electric_scooter", "name": "ba44b1910c7f04301b7b8420aa13407e", "is_disabled": 0}, {"is_reserved": 0, "fusion_lon": 0.0, "lon": -77.044406, "fusion_lat": 0.0, "rental_uris": {"ios": "https://dc.lft.to/lastmile_qr_scan", "android": "https://dc.lft.to/lastmile_qr_scan"}, "bike_id": "20fb4abf727842790543968c05a26980", "lat": 38.9125725, "type": "electric_scooter", "name": "20fb4abf727842790543968c05a26980", "is_disabled": 0}, {"is_reserved": 0, "fusion_lon": 0.0, "lon": -77.00848216666667, "fusion_lat": 0.0, "rental_uris": {"ios": "https://dc.lft.to/lastmile_qr_scan", "android": "https://dc.lft.to/lastmile_qr_scan"}, "bike_id": "63f66ece1fb6447e93c38305369173fd", "lat": 38.87656883333333, "type": "electric_scooter", "name": "63f66ece1fb6447e93c38305369173fd", "is_disabled": 0}, {"is_reserved": 0, "fusion_lon": 0.0, "lon": -76.96908333333333, "fusion_lat": 0.0, "rental_uris": {"ios": "https://dc.lft.to/lastmile_qr_scan", "android": "https://dc.lft.to/lastmile_qr_scan"}, "bike_id": "291dc3b1c0d70cfd543f38e6bb1c976e", "lat": 38.87308183333333, "type": "electric_scooter", "name": "291dc3b1c0d70cfd543f38e6bb1c976e", "is_disabled": 0}, {"is_reserved": 0, "fusion_lon": 0.0, "lon": -77.02291866666667, "fusion_lat": 0.0, "rental_uris": {"ios": "https://dc.lft.to/lastmile_qr_scan", "android": "https://dc.lft.to/lastmile_qr_scan"}, "bike_id": "ef0ca7c8ef9cf64183772d804a7f55a4", "lat": 38.89509183333333, "type": "electric_scooter", "name": "ef0ca7c8ef9cf64183772d804a7f55a4", "is_disabled": 0}, {"is_reserved": 0, "fusion_lon": 0.0, "lon": -77.02202233333334, "fusion_lat": 0.0, "rental_uris": {"ios": "https://dc.lft.to/lastmile_qr_scan", "android": "https://dc.lft.to/lastmile_qr_scan"}, "bike_id": "480d1bef786dd864d4d2567aa38fac45", "lat": 38.91978816666666, "type": "electric_scooter", "name": "480d1bef786dd864d4d2567aa38fac45", "is_disabled": 0}, {"is_reserved": 0, "fusion_lon": 0.0, "lon": -77.02232183333334, "fusion_lat": 0.0, "rental_uris": {"ios": "https://dc.lft.to/lastmile_qr_scan", "android": "https://dc.lft.to/lastmile_qr_scan"}, "bike_id": "dba060b9c1374e0dc104521f5e9ce339", "lat": 38.89219683333334, "type": "electric_scooter", "name": "dba060b9c1374e0dc104521f5e9ce339", "is_disabled": 0}, {"is_reserved": 0, "fusion_lon": 0.0, "lon": -77.03205583333333, "fusion_lat": 0.0, "rental_uris": {"ios": "https://dc.lft.to/lastmile_qr_scan", "android": "https://dc.lft.to/lastmile_qr_scan"}, "bike_id": "81eae8d5e019bd5784f225568b9c926a", "lat": 38.91347666666667, "type": "electric_scooter", "name": "81eae8d5e019bd5784f225568b9c926a", "is_disabled": 0}, {"is_reserved": 0, "fusion_lon": 0.0, "lon": -76.94640616666666, "fusion_lat": 0.0, "rental_uris": {"ios": "https://dc.lft.to/lastmile_qr_scan", "android": "https://dc.lft.to/lastmile_qr_scan"}, "bike_id": "42dec521286de2acd046c990f053141c", "lat": 38.89856733333333, "type": "electric_scooter", "name": "42dec521286de2acd046c990f053141c", "is_disabled": 0}, {"is_reserved": 0, "fusion_lon": 0.0, "lon": -76.97169616666666, "fusion_lat": 0.0, "rental_uris": {"ios": "https://dc.lft.to/lastmile_qr_scan", "android": "https://dc.lft.to/lastmile_qr_scan"}, "bike_id": "d101de2bc3960ab63847838227c65bbe", "lat": 38.861397333333336, "type": "electric_scooter", "name": "d101de2bc3960ab63847838227c65bbe", "is_disabled": 0}, {"is_reserved": 0, "fusion_lon": 0.0, "lon": -77.0238155, "fusion_lat": 0.0, "rental_uris": {"ios": "https://dc.lft.to/lastmile_qr_scan", "android": "https://dc.lft.to/lastmile_qr_scan"}, "bike_id": "ca1adbe9373f00a8d40539da682cbb96", "lat": 38.91963116666667, "type": "electric_scooter", "name": "ca1adbe9373f00a8d40539da682cbb96", "is_disabled": 0}, {"is_reserved": 0, "fusion_lon": 0.0, "lon": -77.05726033333333, "fusion_lat": 0.0, "rental_uris": {"ios": "https://dc.lft.to/lastmile_qr_scan", "android": "https://dc.lft.to/lastmile_qr_scan"}, "bike_id": "33fa5b8fd03e7e5a81d371f753c4bee4", "lat": 38.93370016666667, "type": "electric_scooter", "name": "33fa5b8fd03e7e5a81d371f753c4bee4", "is_disabled": 0}, {"is_reserved": 0, "fusion_lon": 0.0, "lon": -77.041993, "fusion_lat": 0.0, "rental_uris": {"ios": "https://dc.lft.to/lastmile_qr_scan", "android": "https://dc.lft.to/lastmile_qr_scan"}, "bike_id": "c534ee58ed009a72495be8b99f4db733", "lat": 38.920988666666666, "type": "electric_scooter", "name": "c534ee58ed009a72495be8b99f4db733", "is_disabled": 0}, {"is_reserved": 0, "fusion_lon": 0.0, "lon": -77.12529516666666, "fusion_lat": 0.0, "rental_uris": {"ios": "https://dc.lft.to/lastmile_qr_scan", "android": "https://dc.lft.to/lastmile_qr_scan"}, "bike_id": "088e4f9db6d44fa1873de985f11ab0d5", "lat": 39.0563355, "type": "electric_bike", "name": "088e4f9db6d44fa1873de985f11ab0d5", "is_disabled": 0}, {"is_reserved": 0, "fusion_lon": 0.0, "lon": -77.02625016666667, "fusion_lat": 0.0, "rental_uris": {"ios": "https://dc.lft.to/lastmile_qr_scan", "android": "https://dc.lft.to/lastmile_qr_scan"}, "bike_id": "441f570aa89091572539989b9f88ca1a", "lat": 38.933384333333336, "type": "electric_scooter", "name": "441f570aa89091572539989b9f88ca1a", "is_disabled": 0}, {"is_reserved": 0, "fusion_lon": 0.0, "lon": -77.04474766666667, "fusion_lat": 0.0, "rental_uris": {"ios": "https://dc.lft.to/lastmile_qr_scan", "android": "https://dc.lft.to/lastmile_qr_scan"}, "bike_id": "05b8402a18de3ecbe7fd46110c41bc44", "lat": 38.918826333333335, "type": "electric_scooter", "name": "05b8402a18de3ecbe7fd46110c41bc44", "is_disabled": 0}, {"is_reserved": 0, "fusion_lon": 0.0, "lon": -77.02175766666667, "fusion_lat": 0.0, "rental_uris": {"ios": "https://dc.lft.to/lastmile_qr_scan", "android": "https://dc.lft.to/lastmile_qr_scan"}, "bike_id": "9d7a42fe5c7fc5e864896969c1dc5147", "lat": 38.90568316666667, "type": "electric_scooter", "name": "9d7a42fe5c7fc5e864896969c1dc5147", "is_disabled": 0}, {"is_reserved": 0, "fusion_lon": 0.0, "lon": -77.04176333333334, "fusion_lat": 0.0, "rental_uris": {"ios": "https://dc.lft.to/lastmile_qr_scan", "android": "https://dc.lft.to/lastmile_qr_scan"}, "bike_id": "d7d9c18d8734510b0180b92ef3035639", "lat": 38.9181575, "type": "electric_scooter", "name": "d7d9c18d8734510b0180b92ef3035639", "is_disabled": 0}, {"is_reserved": 0, "fusion_lon": 0.0, "lon": -77.0281185, "fusion_lat": 0.0, "rental_uris": {"ios": "https://dc.lft.to/lastmile_qr_scan", "android": "https://dc.lft.to/lastmile_qr_scan"}, "bike_id": "3b814c634a801ff831907b48bb7ac150", "lat": 38.8986215, "type": "electric_scooter", "name": "3b814c634a801ff831907b48bb7ac150", "is_disabled": 0}, {"is_reserved": 0, "fusion_lon": 0.0, "lon": -77.04375516666667, "fusion_lat": 0.0, "rental_uris": {"ios": "https://dc.lft.to/lastmile_qr_scan", "android": "https://dc.lft.to/lastmile_qr_scan"}, "bike_id": "b0256e64e2c076894baa0174c65f8d15", "lat": 38.892218, "type": "electric_scooter", "name": "b0256e64e2c076894baa0174c65f8d15", "is_disabled": 0}, {"is_reserved": 0, "fusion_lon": 0.0, "lon": -77.0022585, "fusion_lat": 0.0, "rental_uris": {"ios": "https://dc.lft.to/lastmile_qr_scan", "android": "https://dc.lft.to/lastmile_qr_scan"}, "bike_id": "92a85dc5ee4d9baf661dd0c5c0e8f572", "lat": 38.925091, "type": "electric_scooter", "name": "92a85dc5ee4d9baf661dd0c5c0e8f572", "is_disabled": 0}, {"is_reserved": 0, "fusion_lon": 0.0, "lon": -77.053192, "fusion_lat": 0.0, "rental_uris": {"ios": "https://dc.lft.to/lastmile_qr_scan", "android": "https://dc.lft.to/lastmile_qr_scan"}, "bike_id": "79021f3f2fb4252321cadf14913247b7", "lat": 38.9054375, "type": "electric_scooter", "name": "79021f3f2fb4252321cadf14913247b7", "is_disabled": 0}, {"is_reserved": 0, "fusion_lon": 0.0, "lon": -77.019506, "fusion_lat": 0.0, "rental_uris": {"ios": "https://dc.lft.to/lastmile_qr_scan", "android": "https://dc.lft.to/lastmile_qr_scan"}, "bike_id": "c300ae342dc55efda68ab600479ab2e9", "lat": 38.923268666666665, "type": "electric_scooter", "name": "c300ae342dc55efda68ab600479ab2e9", "is_disabled": 0}, {"is_reserved": 0, "fusion_lon": 0.0, "lon": -77.042069, "fusion_lat": 0.0, "rental_uris": {"ios": "https://dc.lft.to/lastmile_qr_scan", "android": "https://dc.lft.to/lastmile_qr_scan"}, "bike_id": "4a1e832a815710336226682bde3d580a", "lat": 38.9195845, "type": "electric_scooter", "name": "4a1e832a815710336226682bde3d580a", "is_disabled": 0}, {"is_reserved": 0, "fusion_lon": 0.0, "lon": -77.10926816666667, "fusion_lat": 0.0, "rental_uris": {"ios": "https://dc.lft.to/lastmile_qr_scan", "android": "https://dc.lft.to/lastmile_qr_scan"}, "bike_id": "011877911bfc6fdf28702e73f0d3c28f", "lat": 39.05202366666666, "type": "electric_bike", "name": "011877911bfc6fdf28702e73f0d3c28f", "is_disabled": 0}, {"is_reserved": 0, "fusion_lon": 0.0, "lon": -77.03215566666667, "fusion_lat": 0.0, "rental_uris": {"ios": "https://dc.lft.to/lastmile_qr_scan", "android": "https://dc.lft.to/lastmile_qr_scan"}, "bike_id": "c89f9797cc401d5df3a642542e6ba29f", "lat": 38.922746, "type": "electric_scooter", "name": "c89f9797cc401d5df3a642542e6ba29f", "is_disabled": 0}, {"is_reserved": 0, "fusion_lon": 0.0, "lon": -77.03810833333333, "fusion_lat": 0.0, "rental_uris": {"ios": "https://dc.lft.to/lastmile_qr_scan", "android": "https://dc.lft.to/lastmile_qr_scan"}, "bike_id": "01bb2f487578cd0112f65091d244fdbc", "lat": 38.911157, "type": "electric_scooter", "name": "01bb2f487578cd0112f65091d244fdbc", "is_disabled": 0}, {"is_reserved": 0, "fusion_lon": 0.0, "lon": -77.02707833333334, "fusion_lat": 0.0, "rental_uris": {"ios": "https://dc.lft.to/lastmile_qr_scan", "android": "https://dc.lft.to/lastmile_qr_scan"}, "bike_id": "998cf2fd6398053b9ebf5de8f587b878", "lat": 38.918, "type": "electric_scooter", "name": "998cf2fd6398053b9ebf5de8f587b878", "is_disabled": 0}, {"is_reserved": 0, "fusion_lon": 0.0, "lon": -77.01431033333333, "fusion_lat": 0.0, "rental_uris": {"ios": "https://dc.lft.to/lastmile_qr_scan", "android": "https://dc.lft.to/lastmile_qr_scan"}, "bike_id": "170cd35319fa296faf58afed2ccdd64f", "lat": 38.914637166666665, "type": "electric_scooter", "name": "170cd35319fa296faf58afed2ccdd64f", "is_disabled": 0}, {"is_reserved": 0, "fusion_lon": 0.0, "lon": -77.04515333333333, "fusion_lat": 0.0, "rental_uris": {"ios": "https://dc.lft.to/lastmile_qr_scan", "android": "https://dc.lft.to/lastmile_qr_scan"}, "bike_id": "d0cfabb0858e338857e0c4b2e9794f74", "lat": 38.892200833333334, "type": "electric_scooter", "name": "d0cfabb0858e338857e0c4b2e9794f74", "is_disabled": 0}, {"is_reserved": 0, "fusion_lon": 0.0, "lon": -77.020579, "fusion_lat": 0.0, "rental_uris": {"ios": "https://dc.lft.to/lastmile_qr_scan", "android": "https://dc.lft.to/lastmile_qr_scan"}, "bike_id": "6eb69e2738ee3f22461e67deee75df7c", "lat": 38.9155705, "type": "electric_scooter", "name": "6eb69e2738ee3f22461e67deee75df7c", "is_disabled": 0}, {"is_reserved": 0, "fusion_lon": 0.0, "lon": -77.0469145, "fusion_lat": 0.0, "rental_uris": {"ios": "https://dc.lft.to/lastmile_qr_scan", "android": "https://dc.lft.to/lastmile_qr_scan"}, "bike_id": "f5b18008e3daf303924fb068cd794ca1", "lat": 38.89223283333333, "type": "electric_scooter", "name": "f5b18008e3daf303924fb068cd794ca1", "is_disabled": 0}, {"is_reserved": 0, "fusion_lon": 0.0, "lon": -76.98338283333334, "fusion_lat": 0.0, "rental_uris": {"ios": "https://dc.lft.to/lastmile_qr_scan", "android": "https://dc.lft.to/lastmile_qr_scan"}, "bike_id": "7be2a35d1edc687d45d2736ea814e823", "lat": 38.8656495, "type": "electric_scooter", "name": "7be2a35d1edc687d45d2736ea814e823", "is_disabled": 0}, {"is_reserved": 0, "fusion_lon": 0.0, "lon": -77.03454883333333, "fusion_lat": 0.0, "rental_uris": {"ios": "https://dc.lft.to/lastmile_qr_scan", "android": "https://dc.lft.to/lastmile_qr_scan"}, "bike_id": "947a554e2eb908028cd86fe256048d5c", "lat": 38.9028695, "type": "electric_scooter", "name": "947a554e2eb908028cd86fe256048d5c", "is_disabled": 0}, {"is_reserved": 0, "fusion_lon": 0.0, "lon": -76.985133, "fusion_lat": 0.0, "rental_uris": {"ios": "https://dc.lft.to/lastmile_qr_scan", "android": "https://dc.lft.to/lastmile_qr_scan"}, "bike_id": "f6bf30f34f005ff4f93c9e080f865874", "lat": 38.880796333333336, "type": "electric_scooter", "name": "f6bf30f34f005ff4f93c9e080f865874", "is_disabled": 0}, {"is_reserved": 0, "fusion_lon": 0.0, "lon": -77.00348516666666, "fusion_lat": 0.0, "rental_uris": {"ios": "https://dc.lft.to/lastmile_qr_scan", "android": "https://dc.lft.to/lastmile_qr_scan"}, "bike_id": "9cba35079efd20e59b25176e9e57b59a", "lat": 38.899202833333334, "type": "electric_scooter", "name": "9cba35079efd20e59b25176e9e57b59a", "is_disabled": 0}, {"is_reserved": 0, "fusion_lon": 0.0, "lon": -76.99480083333333, "fusion_lat": 0.0, "rental_uris": {"ios": "https://dc.lft.to/lastmile_qr_scan", "android": "https://dc.lft.to/lastmile_qr_scan"}, "bike_id": "4e5f17f31783c1d63c8e8878744508a3", "lat": 38.90011483333333, "type": "electric_scooter", "name": "4e5f17f31783c1d63c8e8878744508a3", "is_disabled": 0}, {"is_reserved": 0, "fusion_lon": 0.0, "lon": -77.01354766666667, "fusion_lat": 0.0, "rental_uris": {"ios": "https://dc.lft.to/lastmile_qr_scan", "android": "https://dc.lft.to/lastmile_qr_scan"}, "bike_id": "74813aa20a36cdd0a34cfa32f3c0237e", "lat": 38.892188833333336, "type": "electric_scooter", "name": "74813aa20a36cdd0a34cfa32f3c0237e", "is_disabled": 0}, {"is_reserved": 0, "fusion_lon": 0.0, "lon": -76.94637833333333, "fusion_lat": 0.0, "rental_uris": {"ios": "https://dc.lft.to/lastmile_qr_scan", "android": "https://dc.lft.to/lastmile_qr_scan"}, "bike_id": "ba47bbc600087950c635b5b2a9dc3afd", "lat": 38.89857933333333, "type": "electric_scooter", "name": "ba47bbc600087950c635b5b2a9dc3afd", "is_disabled": 0}, {"is_reserved": 0, "fusion_lon": 0.0, "lon": -76.9860715, "fusion_lat": 0.0, "rental_uris": {"ios": "https://dc.lft.to/lastmile_qr_scan", "android": "https://dc.lft.to/lastmile_qr_scan"}, "bike_id": "b1d62b246f4713c40c7976e38b2f5da5", "lat": 38.882852166666666, "type": "electric_scooter", "name": "b1d62b246f4713c40c7976e38b2f5da5", "is_disabled": 0}, {"is_reserved": 0, "fusion_lon": 0.0, "lon": -77.03855533333333, "fusion_lat": 0.0, "rental_uris": {"ios": "https://dc.lft.to/lastmile_qr_scan", "android": "https://dc.lft.to/lastmile_qr_scan"}, "bike_id": "dcedd5a9a973fce6725e18d980f8c392", "lat": 38.902768, "type": "electric_scooter", "name": "dcedd5a9a973fce6725e18d980f8c392", "is_disabled": 0}, {"is_reserved": 0, "fusion_lon": 0.0, "lon": -77.02667716666667, "fusion_lat": 0.0, "rental_uris": {"ios": "https://dc.lft.to/lastmile_qr_scan", "android": "https://dc.lft.to/lastmile_qr_scan"}, "bike_id": "96785f48dd45d8d54ed0d69d04a1d119", "lat": 38.9247495, "type": "electric_scooter", "name": "96785f48dd45d8d54ed0d69d04a1d119", "is_disabled": 0}, {"is_reserved": 0, "fusion_lon": 0.0, "lon": -77.0419485, "fusion_lat": 0.0, "rental_uris": {"ios": "https://dc.lft.to/lastmile_qr_scan", "android": "https://dc.lft.to/lastmile_qr_scan"}, "bike_id": "f25a9a29e1eb780ba3cad919ae0e6fa3", "lat": 38.90568966666667, "type": "electric_scooter", "name": "f25a9a29e1eb780ba3cad919ae0e6fa3", "is_disabled": 0}, {"is_reserved": 0, "fusion_lon": 0.0, "lon": -76.9856575, "fusion_lat": 0.0, "rental_uris": {"ios": "https://dc.lft.to/lastmile_qr_scan", "android": "https://dc.lft.to/lastmile_qr_scan"}, "bike_id": "bd406b496433cfb4b8e1c2f75243a2bb", "lat": 38.86682316666667, "type": "electric_scooter", "name": "bd406b496433cfb4b8e1c2f75243a2bb", "is_disabled": 0}, {"is_reserved": 0, "fusion_lon": 0.0, "lon": -77.03766166666666, "fusion_lat": 0.0, "rental_uris": {"ios": "https://dc.lft.to/lastmile_qr_scan", "android": "https://dc.lft.to/lastmile_qr_scan"}, "bike_id": "7b0358c9c42826426705227bd7521a3a", "lat": 38.936006166666665, "type": "electric_scooter", "name": "7b0358c9c42826426705227bd7521a3a", "is_disabled": 0}, {"is_reserved": 0, "fusion_lon": 0.0, "lon": -76.97547883333333, "fusion_lat": 0.0, "rental_uris": {"ios": "https://dc.lft.to/lastmile_qr_scan", "android": "https://dc.lft.to/lastmile_qr_scan"}, "bike_id": "6866f44f2bc15bf9054ffc6698fdf73b", "lat": 38.903203166666664, "type": "electric_scooter", "name": "6866f44f2bc15bf9054ffc6698fdf73b", "is_disabled": 0}, {"is_reserved": 0, "fusion_lon": 0.0, "lon": -77.023952, "fusion_lat": 0.0, "rental_uris": {"ios": "https://dc.lft.to/lastmile_qr_scan", "android": "https://dc.lft.to/lastmile_qr_scan"}, "bike_id": "53d50100fc4bfa51b348f9ccca2fbe1f", "lat": 38.91988083333333, "type": "electric_scooter", "name": "53d50100fc4bfa51b348f9ccca2fbe1f", "is_disabled": 0}, {"is_reserved": 0, "fusion_lon": 0.0, "lon": -77.028265, "fusion_lat": 0.0, "rental_uris": {"ios": "https://dc.lft.to/lastmile_qr_scan", "android": "https://dc.lft.to/lastmile_qr_scan"}, "bike_id": "d5bb275f8481ec9f6dd944d895a8dfa5", "lat": 38.9174465, "type": "electric_scooter", "name": "d5bb275f8481ec9f6dd944d895a8dfa5", "is_disabled": 0}, {"is_reserved": 0, "fusion_lon": 0.0, "lon": -77.07228033333334, "fusion_lat": 0.0, "rental_uris": {"ios": "https://dc.lft.to/lastmile_qr_scan", "android": "https://dc.lft.to/lastmile_qr_scan"}, "bike_id": "a855750988c73c1af5c9868f582e828a", "lat": 38.91361916666666, "type": "electric_scooter", "name": "a855750988c73c1af5c9868f582e828a", "is_disabled": 0}, {"is_reserved": 0, "fusion_lon": 0.0, "lon": -77.028321, "fusion_lat": 0.0, "rental_uris": {"ios": "https://dc.lft.to/lastmile_qr_scan", "android": "https://dc.lft.to/lastmile_qr_scan"}, "bike_id": "96c52847f392109319ae7ba77c41e328", "lat": 38.898916666666665, "type": "electric_scooter", "name": "96c52847f392109319ae7ba77c41e328", "is_disabled": 0}, {"is_reserved": 0, "fusion_lon": 0.0, "lon": -77.02408666666666, "fusion_lat": 0.0, "rental_uris": {"ios": "https://dc.lft.to/lastmile_qr_scan", "android": "https://dc.lft.to/lastmile_qr_scan"}, "bike_id": "3c0264dc71db1df203efe2a82875d0a8", "lat": 38.91919083333333, "type": "electric_scooter", "name": "3c0264dc71db1df203efe2a82875d0a8", "is_disabled": 0}, {"is_reserved": 0, "fusion_lon": 0.0, "lon": -77.01370216666666, "fusion_lat": 0.0, "rental_uris": {"ios": "https://dc.lft.to/lastmile_qr_scan", "android": "https://dc.lft.to/lastmile_qr_scan"}, "bike_id": "343f91cdc052d69d8cf02d7394cab124", "lat": 38.911155666666666, "type": "electric_scooter", "name": "343f91cdc052d69d8cf02d7394cab124", "is_disabled": 0}, {"is_reserved": 0, "fusion_lon": 0.0, "lon": -77.0058775, "fusion_lat": 0.0, "rental_uris": {"ios": "https://dc.lft.to/lastmile_qr_scan", "android": "https://dc.lft.to/lastmile_qr_scan"}, "bike_id": "80a8a868aa6273982e48283353625cf0", "lat": 38.90647583333333, "type": "electric_scooter", "name": "80a8a868aa6273982e48283353625cf0", "is_disabled": 0}, {"is_reserved": 0, "fusion_lon": 0.0, "lon": -77.02330066666667, "fusion_lat": 0.0, "rental_uris": {"ios": "https://dc.lft.to/lastmile_qr_scan", "android": "https://dc.lft.to/lastmile_qr_scan"}, "bike_id": "92c94494a8ea5feb7779d1aab3caebf8", "lat": 38.9287235, "type": "electric_scooter", "name": "92c94494a8ea5feb7779d1aab3caebf8", "is_disabled": 0}, {"is_reserved": 0, "fusion_lon": 0.0, "lon": -77.0653935, "fusion_lat": 0.0, "rental_uris": {"ios": "https://dc.lft.to/lastmile_qr_scan", "android": "https://dc.lft.to/lastmile_qr_scan"}, "bike_id": "0b9eba5bc46a6eef7d44003db2cc9040", "lat": 38.947165166666665, "type": "electric_scooter", "name": "0b9eba5bc46a6eef7d44003db2cc9040", "is_disabled": 0}, {"is_reserved": 0, "fusion_lon": 0.0, "lon": -76.949753, "fusion_lat": 0.0, "rental_uris": {"ios": "https://dc.lft.to/lastmile_qr_scan", "android": "https://dc.lft.to/lastmile_qr_scan"}, "bike_id": "909073533de2930cafbf9f24dafb0ca6", "lat": 38.88469383333333, "type": "electric_scooter", "name": "909073533de2930cafbf9f24dafb0ca6", "is_disabled": 0}, {"is_reserved": 0, "fusion_lon": 0.0, "lon": -76.9981105, "fusion_lat": 0.0, "rental_uris": {"ios": "https://dc.lft.to/lastmile_qr_scan", "android": "https://dc.lft.to/lastmile_qr_scan"}, "bike_id": "97eb1452c9f24096e4755507cf933dae", "lat": 38.932305, "type": "electric_scooter", "name": "97eb1452c9f24096e4755507cf933dae", "is_disabled": 0}, {"is_reserved": 0, "fusion_lon": 0.0, "lon": -76.96682933333334, "fusion_lat": 0.0, "rental_uris": {"ios": "https://dc.lft.to/lastmile_qr_scan", "android": "https://dc.lft.to/lastmile_qr_scan"}, "bike_id": "1a1bb57c78678654da77dfea0cfe5534", "lat": 38.855995666666665, "type": "electric_scooter", "name": "1a1bb57c78678654da77dfea0cfe5534", "is_disabled": 0}, {"is_reserved": 0, "fusion_lon": 0.0, "lon": -77.03203416666666, "fusion_lat": 0.0, "rental_uris": {"ios": "https://dc.lft.to/lastmile_qr_scan", "android": "https://dc.lft.to/lastmile_qr_scan"}, "bike_id": "b1304ed67cb1ba4aa71f6e11e8c9ac88", "lat": 38.913447166666664, "type": "electric_scooter", "name": "b1304ed67cb1ba4aa71f6e11e8c9ac88", "is_disabled": 0}, {"is_reserved": 0, "fusion_lon": 0.0, "lon": -77.02659033333333, "fusion_lat": 0.0, "rental_uris": {"ios": "https://dc.lft.to/lastmile_qr_scan", "android": "https://dc.lft.to/lastmile_qr_scan"}, "bike_id": "333c4b719d753e80240c24d40a7d46d7", "lat": 38.91694566666666, "type": "electric_scooter", "name": "333c4b719d753e80240c24d40a7d46d7", "is_disabled": 0}, {"is_reserved": 0, "fusion_lon": 0.0, "lon": -77.012092, "fusion_lat": 0.0, "rental_uris": {"ios": "https://dc.lft.to/lastmile_qr_scan", "android": "https://dc.lft.to/lastmile_qr_scan"}, "bike_id": "86ef4fffec76daff782bea1b8182fb5d", "lat": 38.896727166666665, "type": "electric_scooter", "name": "86ef4fffec76daff782bea1b8182fb5d", "is_disabled": 0}, {"is_reserved": 0, "fusion_lon": 0.0, "lon": -76.99517633333333, "fusion_lat": 0.0, "rental_uris": {"ios": "https://dc.lft.to/lastmile_qr_scan", "android": "https://dc.lft.to/lastmile_qr_scan"}, "bike_id": "468d577c6be0f0a8f3f99e54608267f9", "lat": 38.8792485, "type": "electric_scooter", "name": "468d577c6be0f0a8f3f99e54608267f9", "is_disabled": 0}, {"is_reserved": 0, "fusion_lon": 0.0, "lon": -77.02293583333334, "fusion_lat": 0.0, "rental_uris": {"ios": "https://dc.lft.to/lastmile_qr_scan", "android": "https://dc.lft.to/lastmile_qr_scan"}, "bike_id": "1135d17baffde84c0888d794c40fc9be", "lat": 38.89706183333333, "type": "electric_scooter", "name": "1135d17baffde84c0888d794c40fc9be", "is_disabled": 0}, {"is_reserved": 0, "fusion_lon": 0.0, "lon": -77.02612383333333, "fusion_lat": 0.0, "rental_uris": {"ios": "https://dc.lft.to/lastmile_qr_scan", "android": "https://dc.lft.to/lastmile_qr_scan"}, "bike_id": "cbdfc67145a340d9e1f0aa2e49624b24", "lat": 38.900015333333336, "type": "electric_scooter", "name": "cbdfc67145a340d9e1f0aa2e49624b24", "is_disabled": 0}, {"is_reserved": 0, "fusion_lon": 0.0, "lon": -76.97854966666667, "fusion_lat": 0.0, "rental_uris": {"ios": "https://dc.lft.to/lastmile_qr_scan", "android": "https://dc.lft.to/lastmile_qr_scan"}, "bike_id": "0a472b44c40dba99cb33364a9c3b30e3", "lat": 38.844714, "type": "electric_bike", "name": "0a472b44c40dba99cb33364a9c3b30e3", "is_disabled": 0}, {"is_reserved": 0, "fusion_lon": 0.0, "lon": -77.00348416666667, "fusion_lat": 0.0, "rental_uris": {"ios": "https://dc.lft.to/lastmile_qr_scan", "android": "https://dc.lft.to/lastmile_qr_scan"}, "bike_id": "04fa578a3a7942b2bfb7dd7e082e7724", "lat": 38.894619666666664, "type": "electric_scooter", "name": "04fa578a3a7942b2bfb7dd7e082e7724", "is_disabled": 0}, {"is_reserved": 0, "fusion_lon": 0.0, "lon": -77.03025133333334, "fusion_lat": 0.0, "rental_uris": {"ios": "https://dc.lft.to/lastmile_qr_scan", "android": "https://dc.lft.to/lastmile_qr_scan"}, "bike_id": "95472fc3728625ebb09609128aa14338", "lat": 38.931094333333334, "type": "electric_scooter", "name": "95472fc3728625ebb09609128aa14338", "is_disabled": 0}, {"is_reserved": 0, "fusion_lon": 0.0, "lon": -77.00301866666666, "fusion_lat": 0.0, "rental_uris": {"ios": "https://dc.lft.to/lastmile_qr_scan", "android": "https://dc.lft.to/lastmile_qr_scan"}, "bike_id": "821c95e9f9771ffd054e8b2557c9c67d", "lat": 38.833729166666664, "type": "electric_bike", "name": "821c95e9f9771ffd054e8b2557c9c67d", "is_disabled": 0}, {"is_reserved": 0, "fusion_lon": 0.0, "lon": -77.03154516666666, "fusion_lat": 0.0, "rental_uris": {"ios": "https://dc.lft.to/lastmile_qr_scan", "android": "https://dc.lft.to/lastmile_qr_scan"}, "bike_id": "ff5692aa58005162ea25be2f3b16cf3c", "lat": 38.91411316666667, "type": "electric_scooter", "name": "ff5692aa58005162ea25be2f3b16cf3c", "is_disabled": 0}, {"is_reserved": 0, "fusion_lon": 0.0, "lon": -77.019104, "fusion_lat": 0.0, "rental_uris": {"ios": "https://dc.lft.to/lastmile_qr_scan", "android": "https://dc.lft.to/lastmile_qr_scan"}, "bike_id": "4b80cdeaa7cb560c485e6651c6a222e2", "lat": 38.901357833333336, "type": "electric_scooter", "name": "4b80cdeaa7cb560c485e6651c6a222e2", "is_disabled": 0}, {"is_reserved": 0, "fusion_lon": 0.0, "lon": -77.03190316666667, "fusion_lat": 0.0, "rental_uris": {"ios": "https://dc.lft.to/lastmile_qr_scan", "android": "https://dc.lft.to/lastmile_qr_scan"}, "bike_id": "ade24ed05db5fa0ac489f206f2024fba", "lat": 38.9158015, "type": "electric_scooter", "name": "ade24ed05db5fa0ac489f206f2024fba", "is_disabled": 0}, {"is_reserved": 0, "fusion_lon": 0.0, "lon": -76.95281633333333, "fusion_lat": 0.0, "rental_uris": {"ios": "https://dc.lft.to/lastmile_qr_scan", "android": "https://dc.lft.to/lastmile_qr_scan"}, "bike_id": "65848ce9ef6c9df9458b180912c7d554", "lat": 38.862357333333335, "type": "electric_bike", "name": "65848ce9ef6c9df9458b180912c7d554", "is_disabled": 0}, {"is_reserved": 0, "fusion_lon": 0.0, "lon": -77.03224816666666, "fusion_lat": 0.0, "rental_uris": {"ios": "https://dc.lft.to/lastmile_qr_scan", "android": "https://dc.lft.to/lastmile_qr_scan"}, "bike_id": "2449a71afed1b71b5b6defd3f62567c2", "lat": 38.91833483333333, "type": "electric_scooter", "name": "2449a71afed1b71b5b6defd3f62567c2", "is_disabled": 0}, {"is_reserved": 0, "fusion_lon": 0.0, "lon": -77.01443983333333, "fusion_lat": 0.0, "rental_uris": {"ios": "https://dc.lft.to/lastmile_qr_scan", "android": "https://dc.lft.to/lastmile_qr_scan"}, "bike_id": "592a377abc4b7e3313a8ce449f5e8e00", "lat": 38.90958033333333, "type": "electric_scooter", "name": "592a377abc4b7e3313a8ce449f5e8e00", "is_disabled": 0}, {"is_reserved": 0, "fusion_lon": 0.0, "lon": -77.0075425, "fusion_lat": 0.0, "rental_uris": {"ios": "https://dc.lft.to/lastmile_qr_scan", "android": "https://dc.lft.to/lastmile_qr_scan"}, "bike_id": "09ba82733ccb2628f37a2aa3b9f75e55", "lat": 38.89831083333333, "type": "electric_scooter", "name": "09ba82733ccb2628f37a2aa3b9f75e55", "is_disabled": 0}, {"is_reserved": 0, "fusion_lon": 0.0, "lon": -77.18749466666667, "fusion_lat": 0.0, "rental_uris": {"ios": "https://dc.lft.to/lastmile_qr_scan", "android": "https://dc.lft.to/lastmile_qr_scan"}, "bike_id": "71f806abdc1354f81659c2ad5c69f57a", "lat": 38.89349683333333, "type": "electric_bike", "name": "71f806abdc1354f81659c2ad5c69f57a", "is_disabled": 0}, {"is_reserved": 0, "fusion_lon": 0.0, "lon": -77.03327866666666, "fusion_lat": 0.0, "rental_uris": {"ios": "https://dc.lft.to/lastmile_qr_scan", "android": "https://dc.lft.to/lastmile_qr_scan"}, "bike_id": "6939c1d2e57e4df7a0984cddbef51a37", "lat": 38.91321716666667, "type": "electric_scooter", "name": "6939c1d2e57e4df7a0984cddbef51a37", "is_disabled": 0}, {"is_reserved": 0, "fusion_lon": 0.0, "lon": -77.04481333333334, "fusion_lat": 0.0, "rental_uris": {"ios": "https://dc.lft.to/lastmile_qr_scan", "android": "https://dc.lft.to/lastmile_qr_scan"}, "bike_id": "0bdb25ac427991087eb81a64a3be404c", "lat": 38.91867466666667, "type": "electric_scooter", "name": "0bdb25ac427991087eb81a64a3be404c", "is_disabled": 0}, {"is_reserved": 0, "fusion_lon": 0.0, "lon": -77.0191595, "fusion_lat": 0.0, "rental_uris": {"ios": "https://dc.lft.to/lastmile_qr_scan", "android": "https://dc.lft.to/lastmile_qr_scan"}, "bike_id": "a8564fb49471fab336b17c0b8deb76f8", "lat": 38.9232045, "type": "electric_scooter", "name": "a8564fb49471fab336b17c0b8deb76f8", "is_disabled": 0}, {"is_reserved": 0, "fusion_lon": 0.0, "lon": -77.00051766666667, "fusion_lat": 0.0, "rental_uris": {"ios": "https://dc.lft.to/lastmile_qr_scan", "android": "https://dc.lft.to/lastmile_qr_scan"}, "bike_id": "f65efa3ccb4d611406ba1330f371668d", "lat": 38.874293, "type": "electric_scooter", "name": "f65efa3ccb4d611406ba1330f371668d", "is_disabled": 0}, {"is_reserved": 0, "fusion_lon": 0.0, "lon": -77.04174766666667, "fusion_lat": 0.0, "rental_uris": {"ios": "https://dc.lft.to/lastmile_qr_scan", "android": "https://dc.lft.to/lastmile_qr_scan"}, "bike_id": "a4742ddd034c0a37142c47c036f7b430", "lat": 38.91702866666667, "type": "electric_scooter", "name": "a4742ddd034c0a37142c47c036f7b430", "is_disabled": 0}, {"is_reserved": 0, "fusion_lon": 0.0, "lon": -77.03616166666667, "fusion_lat": 0.0, "rental_uris": {"ios": "https://dc.lft.to/lastmile_qr_scan", "android": "https://dc.lft.to/lastmile_qr_scan"}, "bike_id": "337702c918f6008ade32ba3e86044b9e", "lat": 38.93149916666667, "type": "electric_scooter", "name": "337702c918f6008ade32ba3e86044b9e", "is_disabled": 0}, {"is_reserved": 0, "fusion_lon": 0.0, "lon": -76.99004083333334, "fusion_lat": 0.0, "rental_uris": {"ios": "https://dc.lft.to/lastmile_qr_scan", "android": "https://dc.lft.to/lastmile_qr_scan"}, "bike_id": "c3fad79381d74d0a06b5a2728c6996fc", "lat": 38.86508533333333, "type": "electric_scooter", "name": "c3fad79381d74d0a06b5a2728c6996fc", "is_disabled": 0}, {"is_reserved": 0, "fusion_lon": 0.0, "lon": -77.03229366666666, "fusion_lat": 0.0, "rental_uris": {"ios": "https://dc.lft.to/lastmile_qr_scan", "android": "https://dc.lft.to/lastmile_qr_scan"}, "bike_id": "21aa32cf6c88c389550211f330180e14", "lat": 38.925862333333335, "type": "electric_scooter", "name": "21aa32cf6c88c389550211f330180e14", "is_disabled": 0}, {"is_reserved": 0, "fusion_lon": 0.0, "lon": -77.07460583333334, "fusion_lat": 0.0, "rental_uris": {"ios": "https://dc.lft.to/lastmile_qr_scan", "android": "https://dc.lft.to/lastmile_qr_scan"}, "bike_id": "7bc479d0e4ce973d9087ba3a26c6010f", "lat": 38.9206925, "type": "electric_bike", "name": "7bc479d0e4ce973d9087ba3a26c6010f", "is_disabled": 0}, {"is_reserved": 0, "fusion_lon": 0.0, "lon": -77.02123183333333, "fusion_lat": 0.0, "rental_uris": {"ios": "https://dc.lft.to/lastmile_qr_scan", "android": "https://dc.lft.to/lastmile_qr_scan"}, "bike_id": "17b6326c7052013e25dc1c8484fad1c4", "lat": 38.9227125, "type": "electric_scooter", "name": "17b6326c7052013e25dc1c8484fad1c4", "is_disabled": 0}, {"is_reserved": 0, "fusion_lon": 0.0, "lon": -77.05494316666666, "fusion_lat": 0.0, "rental_uris": {"ios": "https://dc.lft.to/lastmile_qr_scan", "android": "https://dc.lft.to/lastmile_qr_scan"}, "bike_id": "8f9a087e3b091bc831f21f77425dbaf4", "lat": 38.908443166666665, "type": "electric_scooter", "name": "8f9a087e3b091bc831f21f77425dbaf4", "is_disabled": 0}, {"is_reserved": 0, "fusion_lon": 0.0, "lon": -77.0241985, "fusion_lat": 0.0, "rental_uris": {"ios": "https://dc.lft.to/lastmile_qr_scan", "android": "https://dc.lft.to/lastmile_qr_scan"}, "bike_id": "5cae82cfcb0f7cd505918585f3a884f9", "lat": 38.8969035, "type": "electric_scooter", "name": "5cae82cfcb0f7cd505918585f3a884f9", "is_disabled": 0}, {"is_reserved": 0, "fusion_lon": 0.0, "lon": -77.00300816666666, "fusion_lat": 0.0, "rental_uris": {"ios": "https://dc.lft.to/lastmile_qr_scan", "android": "https://dc.lft.to/lastmile_qr_scan"}, "bike_id": "082b197f5a82a105193b9e425038fc4b", "lat": 38.894926166666664, "type": "electric_scooter", "name": "082b197f5a82a105193b9e425038fc4b", "is_disabled": 0}, {"is_reserved": 0, "fusion_lon": 0.0, "lon": -77.00603983333333, "fusion_lat": 0.0, "rental_uris": {"ios": "https://dc.lft.to/lastmile_qr_scan", "android": "https://dc.lft.to/lastmile_qr_scan"}, "bike_id": "e3faeb3333a2072472a6ebab344967ed", "lat": 38.90669116666667, "type": "electric_scooter", "name": "e3faeb3333a2072472a6ebab344967ed", "is_disabled": 0}, {"is_reserved": 0, "fusion_lon": 0.0, "lon": -77.03711966666667, "fusion_lat": 0.0, "rental_uris": {"ios": "https://dc.lft.to/lastmile_qr_scan", "android": "https://dc.lft.to/lastmile_qr_scan"}, "bike_id": "4acb44b925b6acdb2b7251b6eaee83d1", "lat": 38.92633566666667, "type": "electric_scooter", "name": "4acb44b925b6acdb2b7251b6eaee83d1", "is_disabled": 0}, {"is_reserved": 0, "fusion_lon": 0.0, "lon": -77.0415295, "fusion_lat": 0.0, "rental_uris": {"ios": "https://dc.lft.to/lastmile_qr_scan", "android": "https://dc.lft.to/lastmile_qr_scan"}, "bike_id": "bd1e27ba713f2df92c3d716cdf995ce5", "lat": 38.915450166666666, "type": "electric_scooter", "name": "bd1e27ba713f2df92c3d716cdf995ce5", "is_disabled": 0}, {"is_reserved": 0, "fusion_lon": 0.0, "lon": -77.00936816666666, "fusion_lat": 0.0, "rental_uris": {"ios": "https://dc.lft.to/lastmile_qr_scan", "android": "https://dc.lft.to/lastmile_qr_scan"}, "bike_id": "480548636de702be40a1178186645191", "lat": 38.8760495, "type": "electric_scooter", "name": "480548636de702be40a1178186645191", "is_disabled": 0}, {"is_reserved": 0, "fusion_lon": 0.0, "lon": -77.06056033333333, "fusion_lat": 0.0, "rental_uris": {"ios": "https://dc.lft.to/lastmile_qr_scan", "android": "https://dc.lft.to/lastmile_qr_scan"}, "bike_id": "93d0b2ed6eebf60cc4601d75449fa1c7", "lat": 38.939097333333336, "type": "electric_scooter", "name": "93d0b2ed6eebf60cc4601d75449fa1c7", "is_disabled": 0}, {"is_reserved": 0, "fusion_lon": 0.0, "lon": -77.077221, "fusion_lat": 0.0, "rental_uris": {"ios": "https://dc.lft.to/lastmile_qr_scan", "android": "https://dc.lft.to/lastmile_qr_scan"}, "bike_id": "424fcb301cca9773995ea292ae175aa2", "lat": 38.941052166666665, "type": "electric_scooter", "name": "424fcb301cca9773995ea292ae175aa2", "is_disabled": 0}, {"is_reserved": 0, "fusion_lon": 0.0, "lon": -77.02556783333333, "fusion_lat": 0.0, "rental_uris": {"ios": "https://dc.lft.to/lastmile_qr_scan", "android": "https://dc.lft.to/lastmile_qr_scan"}, "bike_id": "5b0f61b6f6b79b7cdbe5021f6651038c", "lat": 38.941642, "type": "electric_scooter", "name": "5b0f61b6f6b79b7cdbe5021f6651038c", "is_disabled": 0}, {"is_reserved": 0, "fusion_lon": 0.0, "lon": -77.0510675, "fusion_lat": 0.0, "rental_uris": {"ios": "https://dc.lft.to/lastmile_qr_scan", "android": "https://dc.lft.to/lastmile_qr_scan"}, "bike_id": "e69f06cb8aaff0a71507616c1d38e4ac", "lat": 38.92357116666667, "type": "electric_scooter", "name": "e69f06cb8aaff0a71507616c1d38e4ac", "is_disabled": 0}, {"is_reserved": 0, "fusion_lon": 0.0, "lon": -77.03846716666666, "fusion_lat": 0.0, "rental_uris": {"ios": "https://dc.lft.to/lastmile_qr_scan", "android": "https://dc.lft.to/lastmile_qr_scan"}, "bike_id": "0cf982f34f17c93d21dd1f7b369dfc2c", "lat": 38.909824, "type": "electric_scooter", "name": "0cf982f34f17c93d21dd1f7b369dfc2c", "is_disabled": 0}, {"is_reserved": 0, "fusion_lon": 0.0, "lon": -77.02484316666667, "fusion_lat": 0.0, "rental_uris": {"ios": "https://dc.lft.to/lastmile_qr_scan", "android": "https://dc.lft.to/lastmile_qr_scan"}, "bike_id": "39bf65d36a273dd44c79264592d5950d", "lat": 38.93846, "type": "electric_scooter", "name": "39bf65d36a273dd44c79264592d5950d", "is_disabled": 0}, {"is_reserved": 0, "fusion_lon": 0.0, "lon": -77.02276916666666, "fusion_lat": 0.0, "rental_uris": {"ios": "https://dc.lft.to/lastmile_qr_scan", "android": "https://dc.lft.to/lastmile_qr_scan"}, "bike_id": "7892dfd22f8e7e577962e703eecc6392", "lat": 38.914154333333336, "type": "electric_scooter", "name": "7892dfd22f8e7e577962e703eecc6392", "is_disabled": 0}, {"is_reserved": 0, "fusion_lon": 0.0, "lon": -77.03659383333333, "fusion_lat": 0.0, "rental_uris": {"ios": "https://dc.lft.to/lastmile_qr_scan", "android": "https://dc.lft.to/lastmile_qr_scan"}, "bike_id": "2886e8293eb5c9cc7d4aeddf9926ca51", "lat": 38.911302166666665, "type": "electric_scooter", "name": "2886e8293eb5c9cc7d4aeddf9926ca51", "is_disabled": 0}, {"is_reserved": 0, "fusion_lon": 0.0, "lon": -76.98319183333334, "fusion_lat": 0.0, "rental_uris": {"ios": "https://dc.lft.to/lastmile_qr_scan", "android": "https://dc.lft.to/lastmile_qr_scan"}, "bike_id": "4ed4bb6ae830defaa5225e395d539fb0", "lat": 38.90438016666667, "type": "electric_scooter", "name": "4ed4bb6ae830defaa5225e395d539fb0", "is_disabled": 0}, {"is_reserved": 0, "fusion_lon": 0.0, "lon": -77.005976, "fusion_lat": 0.0, "rental_uris": {"ios": "https://dc.lft.to/lastmile_qr_scan", "android": "https://dc.lft.to/lastmile_qr_scan"}, "bike_id": "3d43683e980bd856983bd9c3506bddc0", "lat": 38.876654, "type": "electric_scooter", "name": "3d43683e980bd856983bd9c3506bddc0", "is_disabled": 0}, {"is_reserved": 0, "fusion_lon": 0.0, "lon": -77.0035185, "fusion_lat": 0.0, "rental_uris": {"ios": "https://dc.lft.to/lastmile_qr_scan", "android": "https://dc.lft.to/lastmile_qr_scan"}, "bike_id": "7d226e88e1933b3dc941c558fa321cd9", "lat": 38.89461633333333, "type": "electric_scooter", "name": "7d226e88e1933b3dc941c558fa321cd9", "is_disabled": 0}, {"is_reserved": 0, "fusion_lon": 0.0, "lon": -77.03477283333334, "fusion_lat": 0.0, "rental_uris": {"ios": "https://dc.lft.to/lastmile_qr_scan", "android": "https://dc.lft.to/lastmile_qr_scan"}, "bike_id": "8168f88cebf2fd9e1be9bc588b0b3e98", "lat": 38.91694433333333, "type": "electric_scooter", "name": "8168f88cebf2fd9e1be9bc588b0b3e98", "is_disabled": 0}, {"is_reserved": 0, "fusion_lon": 0.0, "lon": -77.03264783333333, "fusion_lat": 0.0, "rental_uris": {"ios": "https://dc.lft.to/lastmile_qr_scan", "android": "https://dc.lft.to/lastmile_qr_scan"}, "bike_id": "cddf98b0a65ba4f69dfe8e3dd2889000", "lat": 38.93985966666666, "type": "electric_scooter", "name": "cddf98b0a65ba4f69dfe8e3dd2889000", "is_disabled": 0}, {"is_reserved": 0, "fusion_lon": 0.0, "lon": -77.00210833333334, "fusion_lat": 0.0, "rental_uris": {"ios": "https://dc.lft.to/lastmile_qr_scan", "android": "https://dc.lft.to/lastmile_qr_scan"}, "bike_id": "c21c3bf5713f55fa6e52cc9e71aea23b", "lat": 38.895166833333334, "type": "electric_scooter", "name": "c21c3bf5713f55fa6e52cc9e71aea23b", "is_disabled": 0}, {"is_reserved": 0, "fusion_lon": 0.0, "lon": -77.05067666666666, "fusion_lat": 0.0, "rental_uris": {"ios": "https://dc.lft.to/lastmile_qr_scan", "android": "https://dc.lft.to/lastmile_qr_scan"}, "bike_id": "d81068bd7b2b5da06c7e9343301c82c8", "lat": 38.900576666666666, "type": "electric_scooter", "name": "d81068bd7b2b5da06c7e9343301c82c8", "is_disabled": 0}, {"is_reserved": 0, "fusion_lon": 0.0, "lon": -77.04173833333333, "fusion_lat": 0.0, "rental_uris": {"ios": "https://dc.lft.to/lastmile_qr_scan", "android": "https://dc.lft.to/lastmile_qr_scan"}, "bike_id": "7f2c041eda76ffa347848e19fdff74d8", "lat": 38.901315333333336, "type": "electric_scooter", "name": "7f2c041eda76ffa347848e19fdff74d8", "is_disabled": 0}, {"is_reserved": 0, "fusion_lon": 0.0, "lon": -77.026307, "fusion_lat": 0.0, "rental_uris": {"ios": "https://dc.lft.to/lastmile_qr_scan", "android": "https://dc.lft.to/lastmile_qr_scan"}, "bike_id": "acefbb75e71b6c111e5840c4bdc394a1", "lat": 38.8876745, "type": "electric_scooter", "name": "acefbb75e71b6c111e5840c4bdc394a1", "is_disabled": 0}, {"is_reserved": 0, "fusion_lon": 0.0, "lon": -77.05135483333333, "fusion_lat": 0.0, "rental_uris": {"ios": "https://dc.lft.to/lastmile_qr_scan", "android": "https://dc.lft.to/lastmile_qr_scan"}, "bike_id": "fd88b57f15636caa466dccba0df63179", "lat": 38.92518233333333, "type": "electric_scooter", "name": "fd88b57f15636caa466dccba0df63179", "is_disabled": 0}, {"is_reserved": 0, "fusion_lon": 0.0, "lon": -77.00935183333333, "fusion_lat": 0.0, "rental_uris": {"ios": "https://dc.lft.to/lastmile_qr_scan", "android": "https://dc.lft.to/lastmile_qr_scan"}, "bike_id": "d634db20a0e3029763170362adfd7769", "lat": 38.905676, "type": "electric_scooter", "name": "d634db20a0e3029763170362adfd7769", "is_disabled": 0}, {"is_reserved": 0, "fusion_lon": 0.0, "lon": -77.02798116666666, "fusion_lat": 0.0, "rental_uris": {"ios": "https://dc.lft.to/lastmile_qr_scan", "android": "https://dc.lft.to/lastmile_qr_scan"}, "bike_id": "20fb4487590af54900c23da9b7375543", "lat": 38.898570166666666, "type": "electric_scooter", "name": "20fb4487590af54900c23da9b7375543", "is_disabled": 0}, {"is_reserved": 0, "fusion_lon": 0.0, "lon": -77.0238315, "fusion_lat": 0.0, "rental_uris": {"ios": "https://dc.lft.to/lastmile_qr_scan", "android": "https://dc.lft.to/lastmile_qr_scan"}, "bike_id": "2353c72f7e792b5e579d0360f57ea7d3", "lat": 38.919573166666666, "type": "electric_scooter", "name": "2353c72f7e792b5e579d0360f57ea7d3", "is_disabled": 0}, {"is_reserved": 0, "fusion_lon": 0.0, "lon": -76.98359233333333, "fusion_lat": 0.0, "rental_uris": {"ios": "https://dc.lft.to/lastmile_qr_scan", "android": "https://dc.lft.to/lastmile_qr_scan"}, "bike_id": "2323fe77fb91069192d54027fe4036d1", "lat": 38.89436533333333, "type": "electric_scooter", "name": "2323fe77fb91069192d54027fe4036d1", "is_disabled": 0}, {"is_reserved": 0, "fusion_lon": 0.0, "lon": -77.03707566666667, "fusion_lat": 0.0, "rental_uris": {"ios": "https://dc.lft.to/lastmile_qr_scan", "android": "https://dc.lft.to/lastmile_qr_scan"}, "bike_id": "f705cb8664356346c23c687b6f852318", "lat": 38.92636433333333, "type": "electric_scooter", "name": "f705cb8664356346c23c687b6f852318", "is_disabled": 0}, {"is_reserved": 0, "fusion_lon": 0.0, "lon": -77.02234183333333, "fusion_lat": 0.0, "rental_uris": {"ios": "https://dc.lft.to/lastmile_qr_scan", "android": "https://dc.lft.to/lastmile_qr_scan"}, "bike_id": "d1db990ea002127220edf13db82528ff", "lat": 38.908655, "type": "electric_scooter", "name": "d1db990ea002127220edf13db82528ff", "is_disabled": 0}, {"is_reserved": 0, "fusion_lon": 0.0, "lon": -77.02949633333333, "fusion_lat": 0.0, "rental_uris": {"ios": "https://dc.lft.to/lastmile_qr_scan", "android": "https://dc.lft.to/lastmile_qr_scan"}, "bike_id": "f0ea16f61ea427541b66311e1d1737b6", "lat": 38.920381666666664, "type": "electric_scooter", "name": "f0ea16f61ea427541b66311e1d1737b6", "is_disabled": 0}, {"is_reserved": 0, "fusion_lon": 0.0, "lon": -77.0401025, "fusion_lat": 0.0, "rental_uris": {"ios": "https://dc.lft.to/lastmile_qr_scan", "android": "https://dc.lft.to/lastmile_qr_scan"}, "bike_id": "7725ef4fe6aca03f6bd2b31c858ccc79", "lat": 38.89634433333333, "type": "electric_scooter", "name": "7725ef4fe6aca03f6bd2b31c858ccc79", "is_disabled": 0}, {"is_reserved": 0, "fusion_lon": 0.0, "lon": -77.04478616666667, "fusion_lat": 0.0, "rental_uris": {"ios": "https://dc.lft.to/lastmile_qr_scan", "android": "https://dc.lft.to/lastmile_qr_scan"}, "bike_id": "f3d2b754c3bca5d65f1b4837c5c5b2fa", "lat": 38.918669, "type": "electric_scooter", "name": "f3d2b754c3bca5d65f1b4837c5c5b2fa", "is_disabled": 0}, {"is_reserved": 0, "fusion_lon": 0.0, "lon": -77.0066675, "fusion_lat": 0.0, "rental_uris": {"ios": "https://dc.lft.to/lastmile_qr_scan", "android": "https://dc.lft.to/lastmile_qr_scan"}, "bike_id": "f308a6d5d02c2bdc5110e9c5d584836e", "lat": 38.9000615, "type": "electric_scooter", "name": "f308a6d5d02c2bdc5110e9c5d584836e", "is_disabled": 0}, {"is_reserved": 0, "fusion_lon": 0.0, "lon": -76.99549633333334, "fusion_lat": 0.0, "rental_uris": {"ios": "https://dc.lft.to/lastmile_qr_scan", "android": "https://dc.lft.to/lastmile_qr_scan"}, "bike_id": "0835c9fb3bf64596552d5c5acd650d98", "lat": 38.9002235, "type": "electric_scooter", "name": "0835c9fb3bf64596552d5c5acd650d98", "is_disabled": 0}, {"is_reserved": 0, "fusion_lon": 0.0, "lon": -77.002043, "fusion_lat": 0.0, "rental_uris": {"ios": "https://dc.lft.to/lastmile_qr_scan", "android": "https://dc.lft.to/lastmile_qr_scan"}, "bike_id": "2bbb5831c02064f6be403b832a101cd0", "lat": 38.965556166666666, "type": "electric_scooter", "name": "2bbb5831c02064f6be403b832a101cd0", "is_disabled": 0}, {"is_reserved": 0, "fusion_lon": 0.0, "lon": -77.02692566666667, "fusion_lat": 0.0, "rental_uris": {"ios": "https://dc.lft.to/lastmile_qr_scan", "android": "https://dc.lft.to/lastmile_qr_scan"}, "bike_id": "3282efbe55f7e514ba81b1e393a8311d", "lat": 38.8945505, "type": "electric_scooter", "name": "3282efbe55f7e514ba81b1e393a8311d", "is_disabled": 0}, {"is_reserved": 0, "fusion_lon": 0.0, "lon": -76.998087, "fusion_lat": 0.0, "rental_uris": {"ios": "https://dc.lft.to/lastmile_qr_scan", "android": "https://dc.lft.to/lastmile_qr_scan"}, "bike_id": "56dad35f841a8ae98191f9c16573c500", "lat": 38.8197385, "type": "electric_bike", "name": "56dad35f841a8ae98191f9c16573c500", "is_disabled": 0}, {"is_reserved": 0, "fusion_lon": 0.0, "lon": -76.9496215, "fusion_lat": 0.0, "rental_uris": {"ios": "https://dc.lft.to/lastmile_qr_scan", "android": "https://dc.lft.to/lastmile_qr_scan"}, "bike_id": "9a65aedeb53c5875edf8aa2ffa945cdc", "lat": 38.89465283333333, "type": "electric_scooter", "name": "9a65aedeb53c5875edf8aa2ffa945cdc", "is_disabled": 0}, {"is_reserved": 0, "fusion_lon": 0.0, "lon": -77.01945916666666, "fusion_lat": 0.0, "rental_uris": {"ios": "https://dc.lft.to/lastmile_qr_scan", "android": "https://dc.lft.to/lastmile_qr_scan"}, "bike_id": "d530ad403c8138aef7184fc1fccaac0f", "lat": 38.924137, "type": "electric_scooter", "name": "d530ad403c8138aef7184fc1fccaac0f", "is_disabled": 0}, {"is_reserved": 0, "fusion_lon": 0.0, "lon": -77.020004, "fusion_lat": 0.0, "rental_uris": {"ios": "https://dc.lft.to/lastmile_qr_scan", "android": "https://dc.lft.to/lastmile_qr_scan"}, "bike_id": "23ba4cc475bfca7a492b1c7da710b7e2", "lat": 38.91577783333334, "type": "electric_scooter", "name": "23ba4cc475bfca7a492b1c7da710b7e2", "is_disabled": 0}, {"is_reserved": 0, "fusion_lon": 0.0, "lon": -77.03845283333334, "fusion_lat": 0.0, "rental_uris": {"ios": "https://dc.lft.to/lastmile_qr_scan", "android": "https://dc.lft.to/lastmile_qr_scan"}, "bike_id": "7f112af7b3fa9cf478ccd1044306f6b2", "lat": 38.913191833333336, "type": "electric_scooter", "name": "7f112af7b3fa9cf478ccd1044306f6b2", "is_disabled": 0}, {"is_reserved": 0, "fusion_lon": 0.0, "lon": -76.990647, "fusion_lat": 0.0, "rental_uris": {"ios": "https://dc.lft.to/lastmile_qr_scan", "android": "https://dc.lft.to/lastmile_qr_scan"}, "bike_id": "f51e3739aac90b502f8e9d9dd56c61fa", "lat": 38.86371916666667, "type": "electric_scooter", "name": "f51e3739aac90b502f8e9d9dd56c61fa", "is_disabled": 0}, {"is_reserved": 0, "fusion_lon": 0.0, "lon": -77.00766733333333, "fusion_lat": 0.0, "rental_uris": {"ios": "https://dc.lft.to/lastmile_qr_scan", "android": "https://dc.lft.to/lastmile_qr_scan"}, "bike_id": "ed488c9a43a601768b41d984f34383bd", "lat": 38.878713833333336, "type": "electric_scooter", "name": "ed488c9a43a601768b41d984f34383bd", "is_disabled": 0}, {"is_reserved": 0, "fusion_lon": 0.0, "lon": -77.0020815, "fusion_lat": 0.0, "rental_uris": {"ios": "https://dc.lft.to/lastmile_qr_scan", "android": "https://dc.lft.to/lastmile_qr_scan"}, "bike_id": "22f27fa2100b7a0a890132e10afa0820", "lat": 38.902416833333334, "type": "electric_scooter", "name": "22f27fa2100b7a0a890132e10afa0820", "is_disabled": 0}, {"is_reserved": 0, "fusion_lon": 0.0, "lon": -77.041482, "fusion_lat": 0.0, "rental_uris": {"ios": "https://dc.lft.to/lastmile_qr_scan", "android": "https://dc.lft.to/lastmile_qr_scan"}, "bike_id": "7c345a33e37612b48bebcba19a6bcc16", "lat": 38.917094166666665, "type": "electric_scooter", "name": "7c345a33e37612b48bebcba19a6bcc16", "is_disabled": 0}, {"is_reserved": 0, "fusion_lon": 0.0, "lon": -77.00206616666667, "fusion_lat": 0.0, "rental_uris": {"ios": "https://dc.lft.to/lastmile_qr_scan", "android": "https://dc.lft.to/lastmile_qr_scan"}, "bike_id": "46c86bf2ecaff44a76a7c9c03819e5bb", "lat": 38.87382183333333, "type": "electric_scooter", "name": "46c86bf2ecaff44a76a7c9c03819e5bb", "is_disabled": 0}, {"is_reserved": 0, "fusion_lon": 0.0, "lon": -77.02456633333334, "fusion_lat": 0.0, "rental_uris": {"ios": "https://dc.lft.to/lastmile_qr_scan", "android": "https://dc.lft.to/lastmile_qr_scan"}, "bike_id": "20a800ca7ad2e1106ced6b4149957054", "lat": 38.917091666666664, "type": "electric_scooter", "name": "20a800ca7ad2e1106ced6b4149957054", "is_disabled": 0}, {"is_reserved": 0, "fusion_lon": 0.0, "lon": -76.98716383333333, "fusion_lat": 0.0, "rental_uris": {"ios": "https://dc.lft.to/lastmile_qr_scan", "android": "https://dc.lft.to/lastmile_qr_scan"}, "bike_id": "2b187e962c29223d948ddeca3522d041", "lat": 38.86626666666667, "type": "electric_scooter", "name": "2b187e962c29223d948ddeca3522d041", "is_disabled": 0}, {"is_reserved": 0, "fusion_lon": 0.0, "lon": -77.04000383333333, "fusion_lat": 0.0, "rental_uris": {"ios": "https://dc.lft.to/lastmile_qr_scan", "android": "https://dc.lft.to/lastmile_qr_scan"}, "bike_id": "6d23c7a1344a3bb310af9d4189cfd49b", "lat": 38.9342835, "type": "electric_scooter", "name": "6d23c7a1344a3bb310af9d4189cfd49b", "is_disabled": 0}, {"is_reserved": 0, "fusion_lon": 0.0, "lon": -76.9985655, "fusion_lat": 0.0, "rental_uris": {"ios": "https://dc.lft.to/lastmile_qr_scan", "android": "https://dc.lft.to/lastmile_qr_scan"}, "bike_id": "8b0b7c0ef1177e4e7d8e9cea1491e25b", "lat": 38.900527333333336, "type": "electric_scooter", "name": "8b0b7c0ef1177e4e7d8e9cea1491e25b", "is_disabled": 0}, {"is_reserved": 0, "fusion_lon": 0.0, "lon": -77.03284466666666, "fusion_lat": 0.0, "rental_uris": {"ios": "https://dc.lft.to/lastmile_qr_scan", "android": "https://dc.lft.to/lastmile_qr_scan"}, "bike_id": "78d46957c29b129177a87ee5134c4c6f", "lat": 38.94812566666667, "type": "electric_scooter", "name": "78d46957c29b129177a87ee5134c4c6f", "is_disabled": 0}, {"is_reserved": 0, "fusion_lon": 0.0, "lon": -76.95756733333333, "fusion_lat": 0.0, "rental_uris": {"ios": "https://dc.lft.to/lastmile_qr_scan", "android": "https://dc.lft.to/lastmile_qr_scan"}, "bike_id": "26b57962f14563e8b0a689553e3ea230", "lat": 38.884269333333336, "type": "electric_scooter", "name": "26b57962f14563e8b0a689553e3ea230", "is_disabled": 0}, {"is_reserved": 0, "fusion_lon": 0.0, "lon": -76.98865816666667, "fusion_lat": 0.0, "rental_uris": {"ios": "https://dc.lft.to/lastmile_qr_scan", "android": "https://dc.lft.to/lastmile_qr_scan"}, "bike_id": "8dcb1d4cd3be9bea69c4fc3d112bb7e4", "lat": 38.857726, "type": "electric_scooter", "name": "8dcb1d4cd3be9bea69c4fc3d112bb7e4", "is_disabled": 0}, {"is_reserved": 0, "fusion_lon": 0.0, "lon": -76.99805183333334, "fusion_lat": 0.0, "rental_uris": {"ios": "https://dc.lft.to/lastmile_qr_scan", "android": "https://dc.lft.to/lastmile_qr_scan"}, "bike_id": "35a09ccdf938995c4fabe7463268abdd", "lat": 38.901348, "type": "electric_scooter", "name": "35a09ccdf938995c4fabe7463268abdd", "is_disabled": 0}, {"is_reserved": 0, "fusion_lon": 0.0, "lon": -77.043713, "fusion_lat": 0.0, "rental_uris": {"ios": "https://dc.lft.to/lastmile_qr_scan", "android": "https://dc.lft.to/lastmile_qr_scan"}, "bike_id": "c4201fb7b049e4c18190ba89857f7ac8", "lat": 38.90417383333333, "type": "electric_scooter", "name": "c4201fb7b049e4c18190ba89857f7ac8", "is_disabled": 0}, {"is_reserved": 0, "fusion_lon": 0.0, "lon": -76.99541833333333, "fusion_lat": 0.0, "rental_uris": {"ios": "https://dc.lft.to/lastmile_qr_scan", "android": "https://dc.lft.to/lastmile_qr_scan"}, "bike_id": "cdccdae456d00602cbd211f43aac7f5e", "lat": 38.926654166666665, "type": "electric_scooter", "name": "cdccdae456d00602cbd211f43aac7f5e", "is_disabled": 0}, {"is_reserved": 0, "fusion_lon": 0.0, "lon": -77.02390266666667, "fusion_lat": 0.0, "rental_uris": {"ios": "https://dc.lft.to/lastmile_qr_scan", "android": "https://dc.lft.to/lastmile_qr_scan"}, "bike_id": "0fc54fd81fcb0d60b97049acbda5695c", "lat": 38.919832666666665, "type": "electric_scooter", "name": "0fc54fd81fcb0d60b97049acbda5695c", "is_disabled": 0}, {"is_reserved": 0, "fusion_lon": 0.0, "lon": -77.017663, "fusion_lat": 0.0, "rental_uris": {"ios": "https://dc.lft.to/lastmile_qr_scan", "android": "https://dc.lft.to/lastmile_qr_scan"}, "bike_id": "1277eea9ad0b41322baedde684dbde8e", "lat": 38.877109833333336, "type": "electric_scooter", "name": "1277eea9ad0b41322baedde684dbde8e", "is_disabled": 0}, {"is_reserved": 0, "fusion_lon": 0.0, "lon": -77.04301983333333, "fusion_lat": 0.0, "rental_uris": {"ios": "https://dc.lft.to/lastmile_qr_scan", "android": "https://dc.lft.to/lastmile_qr_scan"}, "bike_id": "b105f229cc302808b3731a2d71ed2959", "lat": 38.93187416666667, "type": "electric_scooter", "name": "b105f229cc302808b3731a2d71ed2959", "is_disabled": 0}, {"is_reserved": 0, "fusion_lon": 0.0, "lon": -77.025038, "fusion_lat": 0.0, "rental_uris": {"ios": "https://dc.lft.to/lastmile_qr_scan", "android": "https://dc.lft.to/lastmile_qr_scan"}, "bike_id": "71bab90e6dfb05b7b80a02606f727bfa", "lat": 38.91808316666667, "type": "electric_scooter", "name": "71bab90e6dfb05b7b80a02606f727bfa", "is_disabled": 0}, {"is_reserved": 0, "fusion_lon": 0.0, "lon": -77.0328485, "fusion_lat": 0.0, "rental_uris": {"ios": "https://dc.lft.to/lastmile_qr_scan", "android": "https://dc.lft.to/lastmile_qr_scan"}, "bike_id": "faebcfa6b8d262c9dcadcfec1ed73284", "lat": 38.928813, "type": "electric_scooter", "name": "faebcfa6b8d262c9dcadcfec1ed73284", "is_disabled": 0}, {"is_reserved": 0, "fusion_lon": 0.0, "lon": -77.02207616666666, "fusion_lat": 0.0, "rental_uris": {"ios": "https://dc.lft.to/lastmile_qr_scan", "android": "https://dc.lft.to/lastmile_qr_scan"}, "bike_id": "6fadbf5a62a9aacf23c0e6dab4b8bc8d", "lat": 38.92458083333333, "type": "electric_scooter", "name": "6fadbf5a62a9aacf23c0e6dab4b8bc8d", "is_disabled": 0}, {"is_reserved": 0, "fusion_lon": 0.0, "lon": -76.9558455, "fusion_lat": 0.0, "rental_uris": {"ios": "https://dc.lft.to/lastmile_qr_scan", "android": "https://dc.lft.to/lastmile_qr_scan"}, "bike_id": "708b513276348853d8e3a70dffdc9cf9", "lat": 38.886127333333334, "type": "electric_scooter", "name": "708b513276348853d8e3a70dffdc9cf9", "is_disabled": 0}, {"is_reserved": 0, "fusion_lon": 0.0, "lon": -77.04693016666667, "fusion_lat": 0.0, "rental_uris": {"ios": "https://dc.lft.to/lastmile_qr_scan", "android": "https://dc.lft.to/lastmile_qr_scan"}, "bike_id": "44ca5bb6394f5f3bd7d280ccdfe65cf3", "lat": 38.892216833333336, "type": "electric_scooter", "name": "44ca5bb6394f5f3bd7d280ccdfe65cf3", "is_disabled": 0}, {"is_reserved": 0, "fusion_lon": 0.0, "lon": -76.99608116666667, "fusion_lat": 0.0, "rental_uris": {"ios": "https://dc.lft.to/lastmile_qr_scan", "android": "https://dc.lft.to/lastmile_qr_scan"}, "bike_id": "9b2227f7f573d16380dfce8c3824e501", "lat": 38.890876, "type": "electric_scooter", "name": "9b2227f7f573d16380dfce8c3824e501", "is_disabled": 0}, {"is_reserved": 0, "fusion_lon": 0.0, "lon": -77.0448435, "fusion_lat": 0.0, "rental_uris": {"ios": "https://dc.lft.to/lastmile_qr_scan", "android": "https://dc.lft.to/lastmile_qr_scan"}, "bike_id": "2942ae5061193abdc5bdf5684408ce7a", "lat": 38.895236, "type": "electric_scooter", "name": "2942ae5061193abdc5bdf5684408ce7a", "is_disabled": 0}, {"is_reserved": 0, "fusion_lon": 0.0, "lon": -76.9734465, "fusion_lat": 0.0, "rental_uris": {"ios": "https://dc.lft.to/lastmile_qr_scan", "android": "https://dc.lft.to/lastmile_qr_scan"}, "bike_id": "cf27f959950c70d33187846a16ad4760", "lat": 38.865121333333335, "type": "electric_scooter", "name": "cf27f959950c70d33187846a16ad4760", "is_disabled": 0}, {"is_reserved": 0, "fusion_lon": 0.0, "lon": -76.98828316666666, "fusion_lat": 0.0, "rental_uris": {"ios": "https://dc.lft.to/lastmile_qr_scan", "android": "https://dc.lft.to/lastmile_qr_scan"}, "bike_id": "17e364f0676b33682c3aa1047c3120b0", "lat": 38.890766, "type": "electric_scooter", "name": "17e364f0676b33682c3aa1047c3120b0", "is_disabled": 0}, {"is_reserved": 0, "fusion_lon": 0.0, "lon": -77.0007115, "fusion_lat": 0.0, "rental_uris": {"ios": "https://dc.lft.to/lastmile_qr_scan", "android": "https://dc.lft.to/lastmile_qr_scan"}, "bike_id": "65d219514725305f144dc1050b555ef9", "lat": 38.8743495, "type": "electric_scooter", "name": "65d219514725305f144dc1050b555ef9", "is_disabled": 0}, {"is_reserved": 0, "fusion_lon": 0.0, "lon": -77.02591983333333, "fusion_lat": 0.0, "rental_uris": {"ios": "https://dc.lft.to/lastmile_qr_scan", "android": "https://dc.lft.to/lastmile_qr_scan"}, "bike_id": "1fe4665e3470ebd000e56f475879f5bf", "lat": 38.917267, "type": "electric_scooter", "name": "1fe4665e3470ebd000e56f475879f5bf", "is_disabled": 0}, {"is_reserved": 0, "fusion_lon": 0.0, "lon": -77.02497033333333, "fusion_lat": 0.0, "rental_uris": {"ios": "https://dc.lft.to/lastmile_qr_scan", "android": "https://dc.lft.to/lastmile_qr_scan"}, "bike_id": "d1e688d1317965d2a29c41f237adb784", "lat": 38.9042515, "type": "electric_scooter", "name": "d1e688d1317965d2a29c41f237adb784", "is_disabled": 0}, {"is_reserved": 0, "fusion_lon": 0.0, "lon": -77.05255183333334, "fusion_lat": 0.0, "rental_uris": {"ios": "https://dc.lft.to/lastmile_qr_scan", "android": "https://dc.lft.to/lastmile_qr_scan"}, "bike_id": "3eb3b9ce3dec75530cab4ab80416d5ef", "lat": 38.927827, "type": "electric_scooter", "name": "3eb3b9ce3dec75530cab4ab80416d5ef", "is_disabled": 0}, {"is_reserved": 0, "fusion_lon": 0.0, "lon": -76.98847316666667, "fusion_lat": 0.0, "rental_uris": {"ios": "https://dc.lft.to/lastmile_qr_scan", "android": "https://dc.lft.to/lastmile_qr_scan"}, "bike_id": "e8007961dee1fe2d214aaa77d76f7d36", "lat": 38.90193983333333, "type": "electric_scooter", "name": "e8007961dee1fe2d214aaa77d76f7d36", "is_disabled": 0}, {"is_reserved": 0, "fusion_lon": 0.0, "lon": -77.04639783333333, "fusion_lat": 0.0, "rental_uris": {"ios": "https://dc.lft.to/lastmile_qr_scan", "android": "https://dc.lft.to/lastmile_qr_scan"}, "bike_id": "70a5a54a04c4796013a25b3c288b3227", "lat": 38.892218, "type": "electric_scooter", "name": "70a5a54a04c4796013a25b3c288b3227", "is_disabled": 0}, {"is_reserved": 0, "fusion_lon": 0.0, "lon": -76.9824375, "fusion_lat": 0.0, "rental_uris": {"ios": "https://dc.lft.to/lastmile_qr_scan", "android": "https://dc.lft.to/lastmile_qr_scan"}, "bike_id": "bd6cb55815c337f53401ddd6f5e0c287", "lat": 38.904540833333336, "type": "electric_scooter", "name": "bd6cb55815c337f53401ddd6f5e0c287", "is_disabled": 0}, {"is_reserved": 0, "fusion_lon": 0.0, "lon": -77.07971783333333, "fusion_lat": 0.0, "rental_uris": {"ios": "https://dc.lft.to/lastmile_qr_scan", "android": "https://dc.lft.to/lastmile_qr_scan"}, "bike_id": "2d102cde552637fc743efa08f6da7dbc", "lat": 38.92996466666666, "type": "electric_bike", "name": "2d102cde552637fc743efa08f6da7dbc", "is_disabled": 0}, {"is_reserved": 0, "fusion_lon": 0.0, "lon": -77.02280666666667, "fusion_lat": 0.0, "rental_uris": {"ios": "https://dc.lft.to/lastmile_qr_scan", "android": "https://dc.lft.to/lastmile_qr_scan"}, "bike_id": "5d911da652e6cef1865017b4cffa67f5", "lat": 38.9177925, "type": "electric_scooter", "name": "5d911da652e6cef1865017b4cffa67f5", "is_disabled": 0}, {"is_reserved": 0, "fusion_lon": 0.0, "lon": -77.013594, "fusion_lat": 0.0, "rental_uris": {"ios": "https://dc.lft.to/lastmile_qr_scan", "android": "https://dc.lft.to/lastmile_qr_scan"}, "bike_id": "527c89c2b85bb11d7ee4534c41d46204", "lat": 38.9194255, "type": "electric_scooter", "name": "527c89c2b85bb11d7ee4534c41d46204", "is_disabled": 0}, {"is_reserved": 0, "fusion_lon": 0.0, "lon": -76.99738316666667, "fusion_lat": 0.0, "rental_uris": {"ios": "https://dc.lft.to/lastmile_qr_scan", "android": "https://dc.lft.to/lastmile_qr_scan"}, "bike_id": "24f9f35617f7915fd8a4f07c21258f13", "lat": 39.042357, "type": "electric_bike", "name": "24f9f35617f7915fd8a4f07c21258f13", "is_disabled": 0}, {"is_reserved": 0, "fusion_lon": 0.0, "lon": -77.05671666666667, "fusion_lat": 0.0, "rental_uris": {"ios": "https://dc.lft.to/lastmile_qr_scan", "android": "https://dc.lft.to/lastmile_qr_scan"}, "bike_id": "b299d068fb5ec120af997bdd79a1c5e8", "lat": 38.90491216666667, "type": "electric_scooter", "name": "b299d068fb5ec120af997bdd79a1c5e8", "is_disabled": 0}, {"is_reserved": 0, "fusion_lon": 0.0, "lon": -77.01229483333333, "fusion_lat": 0.0, "rental_uris": {"ios": "https://dc.lft.to/lastmile_qr_scan", "android": "https://dc.lft.to/lastmile_qr_scan"}, "bike_id": "95f34b3160930454d5d86a9366c4d743", "lat": 38.88633383333333, "type": "electric_scooter", "name": "95f34b3160930454d5d86a9366c4d743", "is_disabled": 0}, {"is_reserved": 0, "fusion_lon": 0.0, "lon": -77.04252916666667, "fusion_lat": 0.0, "rental_uris": {"ios": "https://dc.lft.to/lastmile_qr_scan", "android": "https://dc.lft.to/lastmile_qr_scan"}, "bike_id": "3c6f94b4404b04417d79130e6169abb5", "lat": 38.91263716666667, "type": "electric_scooter", "name": "3c6f94b4404b04417d79130e6169abb5", "is_disabled": 0}, {"is_reserved": 0, "fusion_lon": 0.0, "lon": -77.04881816666666, "fusion_lat": 0.0, "rental_uris": {"ios": "https://dc.lft.to/lastmile_qr_scan", "android": "https://dc.lft.to/lastmile_qr_scan"}, "bike_id": "f2805b309e401bcf9d7b6b8805e3d8de", "lat": 38.898406, "type": "electric_scooter", "name": "f2805b309e401bcf9d7b6b8805e3d8de", "is_disabled": 0}, {"is_reserved": 0, "fusion_lon": 0.0, "lon": -77.05176033333333, "fusion_lat": 0.0, "rental_uris": {"ios": "https://dc.lft.to/lastmile_qr_scan", "android": "https://dc.lft.to/lastmile_qr_scan"}, "bike_id": "94c9ba8f90ed53e1f578a34d73be9f2b", "lat": 38.924294, "type": "electric_scooter", "name": "94c9ba8f90ed53e1f578a34d73be9f2b", "is_disabled": 0}, {"is_reserved": 0, "fusion_lon": 0.0, "lon": -77.02198233333333, "fusion_lat": 0.0, "rental_uris": {"ios": "https://dc.lft.to/lastmile_qr_scan", "android": "https://dc.lft.to/lastmile_qr_scan"}, "bike_id": "698233662d88cfd69162329f94786e18", "lat": 38.92482833333333, "type": "electric_scooter", "name": "698233662d88cfd69162329f94786e18", "is_disabled": 0}, {"is_reserved": 0, "fusion_lon": 0.0, "lon": -77.03157083333333, "fusion_lat": 0.0, "rental_uris": {"ios": "https://dc.lft.to/lastmile_qr_scan", "android": "https://dc.lft.to/lastmile_qr_scan"}, "bike_id": "561144a5ef249612166d75479667e31e", "lat": 38.915741, "type": "electric_scooter", "name": "561144a5ef249612166d75479667e31e", "is_disabled": 0}, {"is_reserved": 0, "fusion_lon": 0.0, "lon": -77.01754666666666, "fusion_lat": 0.0, "rental_uris": {"ios": "https://dc.lft.to/lastmile_qr_scan", "android": "https://dc.lft.to/lastmile_qr_scan"}, "bike_id": "fbce8441d064433e1b32db00f1083f9d", "lat": 38.89470133333333, "type": "electric_scooter", "name": "fbce8441d064433e1b32db00f1083f9d", "is_disabled": 0}, {"is_reserved": 0, "fusion_lon": 0.0, "lon": -76.93124683333333, "fusion_lat": 0.0, "rental_uris": {"ios": "https://dc.lft.to/lastmile_qr_scan", "android": "https://dc.lft.to/lastmile_qr_scan"}, "bike_id": "c203151a93e38493c588dad0b39c068d", "lat": 38.897868333333335, "type": "electric_scooter", "name": "c203151a93e38493c588dad0b39c068d", "is_disabled": 0}, {"is_reserved": 0, "fusion_lon": 0.0, "lon": -77.0242005, "fusion_lat": 0.0, "rental_uris": {"ios": "https://dc.lft.to/lastmile_qr_scan", "android": "https://dc.lft.to/lastmile_qr_scan"}, "bike_id": "267bf608f3d9e1c63b6844f74bf521c9", "lat": 38.91141866666667, "type": "electric_scooter", "name": "267bf608f3d9e1c63b6844f74bf521c9", "is_disabled": 0}, {"is_reserved": 0, "fusion_lon": 0.0, "lon": -77.03804316666667, "fusion_lat": 0.0, "rental_uris": {"ios": "https://dc.lft.to/lastmile_qr_scan", "android": "https://dc.lft.to/lastmile_qr_scan"}, "bike_id": "c1ac2980456a47b7df2b3538a92a0eb3", "lat": 38.901246666666665, "type": "electric_scooter", "name": "c1ac2980456a47b7df2b3538a92a0eb3", "is_disabled": 0}, {"is_reserved": 0, "fusion_lon": 0.0, "lon": -77.01813833333334, "fusion_lat": 0.0, "rental_uris": {"ios": "https://dc.lft.to/lastmile_qr_scan", "android": "https://dc.lft.to/lastmile_qr_scan"}, "bike_id": "b62cd3c46cec0c2f9683151b0ba51811", "lat": 38.97375483333333, "type": "electric_scooter", "name": "b62cd3c46cec0c2f9683151b0ba51811", "is_disabled": 0}, {"is_reserved": 0, "fusion_lon": 0.0, "lon": -76.99001066666666, "fusion_lat": 0.0, "rental_uris": {"ios": "https://dc.lft.to/lastmile_qr_scan", "android": "https://dc.lft.to/lastmile_qr_scan"}, "bike_id": "d5853cf04a23e46f52d38998e1141219", "lat": 38.8650205, "type": "electric_scooter", "name": "d5853cf04a23e46f52d38998e1141219", "is_disabled": 0}, {"is_reserved": 0, "fusion_lon": 0.0, "lon": -77.04375383333333, "fusion_lat": 0.0, "rental_uris": {"ios": "https://dc.lft.to/lastmile_qr_scan", "android": "https://dc.lft.to/lastmile_qr_scan"}, "bike_id": "da3ad7a0795b0001d9685cdcc1059b4a", "lat": 38.89218066666667, "type": "electric_scooter", "name": "da3ad7a0795b0001d9685cdcc1059b4a", "is_disabled": 0}, {"is_reserved": 0, "fusion_lon": 0.0, "lon": -76.9879195, "fusion_lat": 0.0, "rental_uris": {"ios": "https://dc.lft.to/lastmile_qr_scan", "android": "https://dc.lft.to/lastmile_qr_scan"}, "bike_id": "98e68a5233876d0f7aa42a4627f23496", "lat": 38.91239383333333, "type": "electric_scooter", "name": "98e68a5233876d0f7aa42a4627f23496", "is_disabled": 0}, {"is_reserved": 0, "fusion_lon": 0.0, "lon": -77.03276316666667, "fusion_lat": 0.0, "rental_uris": {"ios": "https://dc.lft.to/lastmile_qr_scan", "android": "https://dc.lft.to/lastmile_qr_scan"}, "bike_id": "e2a0426d8a8a5fddd2a2ac4af1b5bd5e", "lat": 38.902839, "type": "electric_scooter", "name": "e2a0426d8a8a5fddd2a2ac4af1b5bd5e", "is_disabled": 0}, {"is_reserved": 0, "fusion_lon": 0.0, "lon": -77.03871733333334, "fusion_lat": 0.0, "rental_uris": {"ios": "https://dc.lft.to/lastmile_qr_scan", "android": "https://dc.lft.to/lastmile_qr_scan"}, "bike_id": "ccc80a7e9dea6e0acbc04c5c98c2a933", "lat": 38.92150133333333, "type": "electric_scooter", "name": "ccc80a7e9dea6e0acbc04c5c98c2a933", "is_disabled": 0}, {"is_reserved": 0, "fusion_lon": 0.0, "lon": -77.046442, "fusion_lat": 0.0, "rental_uris": {"ios": "https://dc.lft.to/lastmile_qr_scan", "android": "https://dc.lft.to/lastmile_qr_scan"}, "bike_id": "0adaf4d3787b8cf8dfe3a3bb93e7b528", "lat": 38.892242833333334, "type": "electric_scooter", "name": "0adaf4d3787b8cf8dfe3a3bb93e7b528", "is_disabled": 0}, {"is_reserved": 0, "fusion_lon": 0.0, "lon": -77.073524, "fusion_lat": 0.0, "rental_uris": {"ios": "https://dc.lft.to/lastmile_qr_scan", "android": "https://dc.lft.to/lastmile_qr_scan"}, "bike_id": "6af65f28588fd2a31fbc79d67a569098", "lat": 38.935613833333335, "type": "electric_scooter", "name": "6af65f28588fd2a31fbc79d67a569098", "is_disabled": 0}, {"is_reserved": 0, "fusion_lon": 0.0, "lon": -76.98218366666667, "fusion_lat": 0.0, "rental_uris": {"ios": "https://dc.lft.to/lastmile_qr_scan", "android": "https://dc.lft.to/lastmile_qr_scan"}, "bike_id": "847eb4b926d7ac4b006378d7db768a59", "lat": 38.9850625, "type": "electric_bike", "name": "847eb4b926d7ac4b006378d7db768a59", "is_disabled": 0}, {"is_reserved": 0, "fusion_lon": 0.0, "lon": -77.02711433333333, "fusion_lat": 0.0, "rental_uris": {"ios": "https://dc.lft.to/lastmile_qr_scan", "android": "https://dc.lft.to/lastmile_qr_scan"}, "bike_id": "346c5480be12d5004cc415b2a42b235e", "lat": 38.9077655, "type": "electric_scooter", "name": "346c5480be12d5004cc415b2a42b235e", "is_disabled": 0}, {"is_reserved": 0, "fusion_lon": 0.0, "lon": -77.00714933333333, "fusion_lat": 0.0, "rental_uris": {"ios": "https://dc.lft.to/lastmile_qr_scan", "android": "https://dc.lft.to/lastmile_qr_scan"}, "bike_id": "af2d9ff1b1f48aa7d2a8f399c051e0d3", "lat": 38.88488616666667, "type": "electric_scooter", "name": "af2d9ff1b1f48aa7d2a8f399c051e0d3", "is_disabled": 0}, {"is_reserved": 0, "fusion_lon": 0.0, "lon": -77.02388433333333, "fusion_lat": 0.0, "rental_uris": {"ios": "https://dc.lft.to/lastmile_qr_scan", "android": "https://dc.lft.to/lastmile_qr_scan"}, "bike_id": "6bfd2aad38a802b7765e331be7ece058", "lat": 38.90684916666667, "type": "electric_scooter", "name": "6bfd2aad38a802b7765e331be7ece058", "is_disabled": 0}, {"is_reserved": 0, "fusion_lon": 0.0, "lon": -77.01507816666667, "fusion_lat": 0.0, "rental_uris": {"ios": "https://dc.lft.to/lastmile_qr_scan", "android": "https://dc.lft.to/lastmile_qr_scan"}, "bike_id": "02ab24940321310043f1cbc4a6b32897", "lat": 38.91767316666667, "type": "electric_scooter", "name": "02ab24940321310043f1cbc4a6b32897", "is_disabled": 0}, {"is_reserved": 0, "fusion_lon": 0.0, "lon": -77.03185266666667, "fusion_lat": 0.0, "rental_uris": {"ios": "https://dc.lft.to/lastmile_qr_scan", "android": "https://dc.lft.to/lastmile_qr_scan"}, "bike_id": "d9f52630cbcd584872dd8057de1b907f", "lat": 38.90382283333334, "type": "electric_scooter", "name": "d9f52630cbcd584872dd8057de1b907f", "is_disabled": 0}, {"is_reserved": 0, "fusion_lon": 0.0, "lon": -77.03641533333334, "fusion_lat": 0.0, "rental_uris": {"ios": "https://dc.lft.to/lastmile_qr_scan", "android": "https://dc.lft.to/lastmile_qr_scan"}, "bike_id": "d2eebe17ee91f2bb3574ae8e73baebdc", "lat": 38.936424833333334, "type": "electric_scooter", "name": "d2eebe17ee91f2bb3574ae8e73baebdc", "is_disabled": 0}, {"is_reserved": 0, "fusion_lon": 0.0, "lon": -77.050382, "fusion_lat": 0.0, "rental_uris": {"ios": "https://dc.lft.to/lastmile_qr_scan", "android": "https://dc.lft.to/lastmile_qr_scan"}, "bike_id": "cbb7c0246d0c15068503fe428c4ac4ea", "lat": 38.92362633333333, "type": "electric_scooter", "name": "cbb7c0246d0c15068503fe428c4ac4ea", "is_disabled": 0}, {"is_reserved": 0, "fusion_lon": 0.0, "lon": -77.07169716666667, "fusion_lat": 0.0, "rental_uris": {"ios": "https://dc.lft.to/lastmile_qr_scan", "android": "https://dc.lft.to/lastmile_qr_scan"}, "bike_id": "d4b91c3afb65ea9344706ac5e1548911", "lat": 38.90777716666667, "type": "electric_scooter", "name": "d4b91c3afb65ea9344706ac5e1548911", "is_disabled": 0}, {"is_reserved": 0, "fusion_lon": 0.0, "lon": -77.041639, "fusion_lat": 0.0, "rental_uris": {"ios": "https://dc.lft.to/lastmile_qr_scan", "android": "https://dc.lft.to/lastmile_qr_scan"}, "bike_id": "3e78a6bffe4ee30999e3cec16721ecb5", "lat": 38.91741566666666, "type": "electric_scooter", "name": "3e78a6bffe4ee30999e3cec16721ecb5", "is_disabled": 0}, {"is_reserved": 0, "fusion_lon": 0.0, "lon": -76.96713, "fusion_lat": 0.0, "rental_uris": {"ios": "https://dc.lft.to/lastmile_qr_scan", "android": "https://dc.lft.to/lastmile_qr_scan"}, "bike_id": "0c9469afbe521d1cfbb31d818b7a1fd9", "lat": 38.86034866666667, "type": "electric_scooter", "name": "0c9469afbe521d1cfbb31d818b7a1fd9", "is_disabled": 0}, {"is_reserved": 0, "fusion_lon": 0.0, "lon": -77.00370483333333, "fusion_lat": 0.0, "rental_uris": {"ios": "https://dc.lft.to/lastmile_qr_scan", "android": "https://dc.lft.to/lastmile_qr_scan"}, "bike_id": "180e9af88ed1bf655db3ab2c9af18198", "lat": 38.876354166666665, "type": "electric_scooter", "name": "180e9af88ed1bf655db3ab2c9af18198", "is_disabled": 0}, {"is_reserved": 0, "fusion_lon": 0.0, "lon": -77.03257766666667, "fusion_lat": 0.0, "rental_uris": {"ios": "https://dc.lft.to/lastmile_qr_scan", "android": "https://dc.lft.to/lastmile_qr_scan"}, "bike_id": "491dba7de1ee0be46b74aa30312bbb20", "lat": 38.93134633333333, "type": "electric_scooter", "name": "491dba7de1ee0be46b74aa30312bbb20", "is_disabled": 0}, {"is_reserved": 0, "fusion_lon": 0.0, "lon": -77.01749433333333, "fusion_lat": 0.0, "rental_uris": {"ios": "https://dc.lft.to/lastmile_qr_scan", "android": "https://dc.lft.to/lastmile_qr_scan"}, "bike_id": "641618a2de9511e49947c2c3b65e3aa9", "lat": 38.90118833333333, "type": "electric_scooter", "name": "641618a2de9511e49947c2c3b65e3aa9", "is_disabled": 0}, {"is_reserved": 0, "fusion_lon": 0.0, "lon": -77.09719283333334, "fusion_lat": 0.0, "rental_uris": {"ios": "https://dc.lft.to/lastmile_qr_scan", "android": "https://dc.lft.to/lastmile_qr_scan"}, "bike_id": "f0b4118b36c275dd4684bb51204d2238", "lat": 38.9509805, "type": "electric_scooter", "name": "f0b4118b36c275dd4684bb51204d2238", "is_disabled": 0}, {"is_reserved": 0, "fusion_lon": 0.0, "lon": -77.041823, "fusion_lat": 0.0, "rental_uris": {"ios": "https://dc.lft.to/lastmile_qr_scan", "android": "https://dc.lft.to/lastmile_qr_scan"}, "bike_id": "5baa21280c11ad834cab91985c346788", "lat": 38.89248416666667, "type": "electric_scooter", "name": "5baa21280c11ad834cab91985c346788", "is_disabled": 0}, {"is_reserved": 0, "fusion_lon": 0.0, "lon": -77.23415616666666, "fusion_lat": 0.0, "rental_uris": {"ios": "https://dc.lft.to/lastmile_qr_scan", "android": "https://dc.lft.to/lastmile_qr_scan"}, "bike_id": "ddf4662a779ba892b59f197974ce40ff", "lat": 38.8757565, "type": "electric_bike", "name": "ddf4662a779ba892b59f197974ce40ff", "is_disabled": 0}, {"is_reserved": 0, "fusion_lon": 0.0, "lon": -77.02182233333333, "fusion_lat": 0.0, "rental_uris": {"ios": "https://dc.lft.to/lastmile_qr_scan", "android": "https://dc.lft.to/lastmile_qr_scan"}, "bike_id": "750697acab3b6e7c8bdfe758976285d0", "lat": 38.900245, "type": "electric_scooter", "name": "750697acab3b6e7c8bdfe758976285d0", "is_disabled": 0}, {"is_reserved": 0, "fusion_lon": 0.0, "lon": -77.00983933333333, "fusion_lat": 0.0, "rental_uris": {"ios": "https://dc.lft.to/lastmile_qr_scan", "android": "https://dc.lft.to/lastmile_qr_scan"}, "bike_id": "a68ad025d371aeca6029dd5954d85fe0", "lat": 38.872955, "type": "electric_scooter", "name": "a68ad025d371aeca6029dd5954d85fe0", "is_disabled": 0}, {"is_reserved": 0, "fusion_lon": 0.0, "lon": -77.02216466666667, "fusion_lat": 0.0, "rental_uris": {"ios": "https://dc.lft.to/lastmile_qr_scan", "android": "https://dc.lft.to/lastmile_qr_scan"}, "bike_id": "ac40565732601c20a2fead1631ec4f69", "lat": 38.91412533333333, "type": "electric_scooter", "name": "ac40565732601c20a2fead1631ec4f69", "is_disabled": 0}, {"is_reserved": 0, "fusion_lon": 0.0, "lon": -77.03217083333334, "fusion_lat": 0.0, "rental_uris": {"ios": "https://dc.lft.to/lastmile_qr_scan", "android": "https://dc.lft.to/lastmile_qr_scan"}, "bike_id": "4c111345f670ec469b4bd9b5dbd2534e", "lat": 38.91633916666667, "type": "electric_scooter", "name": "4c111345f670ec469b4bd9b5dbd2534e", "is_disabled": 0}, {"is_reserved": 0, "fusion_lon": 0.0, "lon": -77.03129416666667, "fusion_lat": 0.0, "rental_uris": {"ios": "https://dc.lft.to/lastmile_qr_scan", "android": "https://dc.lft.to/lastmile_qr_scan"}, "bike_id": "89e7ddbbbe1aaa7a9d7be819a1619372", "lat": 38.91601816666667, "type": "electric_scooter", "name": "89e7ddbbbe1aaa7a9d7be819a1619372", "is_disabled": 0}, {"is_reserved": 0, "fusion_lon": 0.0, "lon": -76.94704616666667, "fusion_lat": 0.0, "rental_uris": {"ios": "https://dc.lft.to/lastmile_qr_scan", "android": "https://dc.lft.to/lastmile_qr_scan"}, "bike_id": "83129333e6512343c2a4edf769264ab9", "lat": 38.89362766666667, "type": "electric_scooter", "name": "83129333e6512343c2a4edf769264ab9", "is_disabled": 0}, {"is_reserved": 0, "fusion_lon": 0.0, "lon": -77.043365, "fusion_lat": 0.0, "rental_uris": {"ios": "https://dc.lft.to/lastmile_qr_scan", "android": "https://dc.lft.to/lastmile_qr_scan"}, "bike_id": "50fb96f77c39dd70865208352252a123", "lat": 38.926157333333336, "type": "electric_scooter", "name": "50fb96f77c39dd70865208352252a123", "is_disabled": 0}, {"is_reserved": 0, "fusion_lon": 0.0, "lon": -76.98508533333333, "fusion_lat": 0.0, "rental_uris": {"ios": "https://dc.lft.to/lastmile_qr_scan", "android": "https://dc.lft.to/lastmile_qr_scan"}, "bike_id": "62ad46d0eb1d0805d59f8b36bd7037ae", "lat": 38.860594166666665, "type": "electric_scooter", "name": "62ad46d0eb1d0805d59f8b36bd7037ae", "is_disabled": 0}, {"is_reserved": 0, "fusion_lon": 0.0, "lon": -77.043461, "fusion_lat": 0.0, "rental_uris": {"ios": "https://dc.lft.to/lastmile_qr_scan", "android": "https://dc.lft.to/lastmile_qr_scan"}, "bike_id": "f2cdd5f81c9590dcfa45cb66c3a46a9e", "lat": 38.91035016666667, "type": "electric_scooter", "name": "f2cdd5f81c9590dcfa45cb66c3a46a9e", "is_disabled": 0}, {"is_reserved": 0, "fusion_lon": 0.0, "lon": -77.01210283333333, "fusion_lat": 0.0, "rental_uris": {"ios": "https://dc.lft.to/lastmile_qr_scan", "android": "https://dc.lft.to/lastmile_qr_scan"}, "bike_id": "08cc7325e9d21bb9f84f25052f03933b", "lat": 38.919125333333334, "type": "electric_scooter", "name": "08cc7325e9d21bb9f84f25052f03933b", "is_disabled": 0}, {"is_reserved": 0, "fusion_lon": 0.0, "lon": -77.02699516666667, "fusion_lat": 0.0, "rental_uris": {"ios": "https://dc.lft.to/lastmile_qr_scan", "android": "https://dc.lft.to/lastmile_qr_scan"}, "bike_id": "e475594a99f3119a6c00405db2e33787", "lat": 38.90679033333333, "type": "electric_scooter", "name": "e475594a99f3119a6c00405db2e33787", "is_disabled": 0}, {"is_reserved": 0, "fusion_lon": 0.0, "lon": -77.01995783333334, "fusion_lat": 0.0, "rental_uris": {"ios": "https://dc.lft.to/lastmile_qr_scan", "android": "https://dc.lft.to/lastmile_qr_scan"}, "bike_id": "795e930226504ecebca89a20a2b483d0", "lat": 38.915724, "type": "electric_scooter", "name": "795e930226504ecebca89a20a2b483d0", "is_disabled": 0}, {"is_reserved": 0, "fusion_lon": 0.0, "lon": -77.02214083333334, "fusion_lat": 0.0, "rental_uris": {"ios": "https://dc.lft.to/lastmile_qr_scan", "android": "https://dc.lft.to/lastmile_qr_scan"}, "bike_id": "87e50ac462acbe44dedfe0a8d7d43d1a", "lat": 38.91413, "type": "electric_scooter", "name": "87e50ac462acbe44dedfe0a8d7d43d1a", "is_disabled": 0}, {"is_reserved": 0, "fusion_lon": 0.0, "lon": -76.9307595, "fusion_lat": 0.0, "rental_uris": {"ios": "https://dc.lft.to/lastmile_qr_scan", "android": "https://dc.lft.to/lastmile_qr_scan"}, "bike_id": "ed7c616bb96044ebf733e7d9f060c1ca", "lat": 38.90162016666667, "type": "electric_scooter", "name": "ed7c616bb96044ebf733e7d9f060c1ca", "is_disabled": 0}, {"is_reserved": 0, "fusion_lon": 0.0, "lon": -77.08018766666666, "fusion_lat": 0.0, "rental_uris": {"ios": "https://dc.lft.to/lastmile_qr_scan", "android": "https://dc.lft.to/lastmile_qr_scan"}, "bike_id": "1a73fefa686f25b9a262b2038dfcf68d", "lat": 38.949816, "type": "electric_bike", "name": "1a73fefa686f25b9a262b2038dfcf68d", "is_disabled": 0}, {"is_reserved": 0, "fusion_lon": 0.0, "lon": -76.95273966666667, "fusion_lat": 0.0, "rental_uris": {"ios": "https://dc.lft.to/lastmile_qr_scan", "android": "https://dc.lft.to/lastmile_qr_scan"}, "bike_id": "48ddccf47e51682c28a089e028ce9f69", "lat": 38.889295833333335, "type": "electric_bike", "name": "48ddccf47e51682c28a089e028ce9f69", "is_disabled": 0}, {"is_reserved": 0, "fusion_lon": 0.0, "lon": -77.01742883333333, "fusion_lat": 0.0, "rental_uris": {"ios": "https://dc.lft.to/lastmile_qr_scan", "android": "https://dc.lft.to/lastmile_qr_scan"}, "bike_id": "e2748eeadb8f4a1d04fd2b1242e073d1", "lat": 38.9025865, "type": "electric_scooter", "name": "e2748eeadb8f4a1d04fd2b1242e073d1", "is_disabled": 0}, {"is_reserved": 0, "fusion_lon": 0.0, "lon": -77.0284315, "fusion_lat": 0.0, "rental_uris": {"ios": "https://dc.lft.to/lastmile_qr_scan", "android": "https://dc.lft.to/lastmile_qr_scan"}, "bike_id": "3a769d453ea00b06df9ff25a8931ab20", "lat": 38.91705233333333, "type": "electric_scooter", "name": "3a769d453ea00b06df9ff25a8931ab20", "is_disabled": 0}, {"is_reserved": 0, "fusion_lon": 0.0, "lon": -77.01331866666666, "fusion_lat": 0.0, "rental_uris": {"ios": "https://dc.lft.to/lastmile_qr_scan", "android": "https://dc.lft.to/lastmile_qr_scan"}, "bike_id": "f86db9b8e8672a6a83d7581ab3014756", "lat": 38.9006545, "type": "electric_scooter", "name": "f86db9b8e8672a6a83d7581ab3014756", "is_disabled": 0}, {"is_reserved": 0, "fusion_lon": 0.0, "lon": -77.04795583333333, "fusion_lat": 0.0, "rental_uris": {"ios": "https://dc.lft.to/lastmile_qr_scan", "android": "https://dc.lft.to/lastmile_qr_scan"}, "bike_id": "32fa69997e2d6fddba61f90e6c56e545", "lat": 38.89950116666667, "type": "electric_scooter", "name": "32fa69997e2d6fddba61f90e6c56e545", "is_disabled": 0}, {"is_reserved": 0, "fusion_lon": 0.0, "lon": -77.04993083333333, "fusion_lat": 0.0, "rental_uris": {"ios": "https://dc.lft.to/lastmile_qr_scan", "android": "https://dc.lft.to/lastmile_qr_scan"}, "bike_id": "440187fedf85af6d5328e8a5ad7bd3bc", "lat": 38.837725666666664, "type": "electric_bike", "name": "440187fedf85af6d5328e8a5ad7bd3bc", "is_disabled": 0}, {"is_reserved": 0, "fusion_lon": 0.0, "lon": -77.02693516666666, "fusion_lat": 0.0, "rental_uris": {"ios": "https://dc.lft.to/lastmile_qr_scan", "android": "https://dc.lft.to/lastmile_qr_scan"}, "bike_id": "884ab07c795a3b523acf2dd986cd9d44", "lat": 38.94981333333333, "type": "electric_scooter", "name": "884ab07c795a3b523acf2dd986cd9d44", "is_disabled": 0}, {"is_reserved": 0, "fusion_lon": 0.0, "lon": -77.05162866666667, "fusion_lat": 0.0, "rental_uris": {"ios": "https://dc.lft.to/lastmile_qr_scan", "android": "https://dc.lft.to/lastmile_qr_scan"}, "bike_id": "0a8a9ebfbb0937fa8cd0e3698e092d68", "lat": 38.906821, "type": "electric_scooter", "name": "0a8a9ebfbb0937fa8cd0e3698e092d68", "is_disabled": 0}, {"is_reserved": 0, "fusion_lon": 0.0, "lon": -77.04667683333334, "fusion_lat": 0.0, "rental_uris": {"ios": "https://dc.lft.to/lastmile_qr_scan", "android": "https://dc.lft.to/lastmile_qr_scan"}, "bike_id": "5d84243c31fdef869f967145924470a8", "lat": 38.898992166666666, "type": "electric_scooter", "name": "5d84243c31fdef869f967145924470a8", "is_disabled": 0}, {"is_reserved": 0, "fusion_lon": 0.0, "lon": -77.02630783333333, "fusion_lat": 0.0, "rental_uris": {"ios": "https://dc.lft.to/lastmile_qr_scan", "android": "https://dc.lft.to/lastmile_qr_scan"}, "bike_id": "d70aca3d5aac59948684abebbd8c5d19", "lat": 38.8876645, "type": "electric_scooter", "name": "d70aca3d5aac59948684abebbd8c5d19", "is_disabled": 0}, {"is_reserved": 0, "fusion_lon": 0.0, "lon": -77.027243, "fusion_lat": 0.0, "rental_uris": {"ios": "https://dc.lft.to/lastmile_qr_scan", "android": "https://dc.lft.to/lastmile_qr_scan"}, "bike_id": "be5e238c649e23a54c40dce754f81a09", "lat": 38.951893166666665, "type": "electric_scooter", "name": "be5e238c649e23a54c40dce754f81a09", "is_disabled": 0}, {"is_reserved": 0, "fusion_lon": 0.0, "lon": -77.0318515, "fusion_lat": 0.0, "rental_uris": {"ios": "https://dc.lft.to/lastmile_qr_scan", "android": "https://dc.lft.to/lastmile_qr_scan"}, "bike_id": "d035c0921ea7cc5586d829e82b3257f3", "lat": 38.9132545, "type": "electric_scooter", "name": "d035c0921ea7cc5586d829e82b3257f3", "is_disabled": 0}, {"is_reserved": 0, "fusion_lon": 0.0, "lon": -76.98143216666666, "fusion_lat": 0.0, "rental_uris": {"ios": "https://dc.lft.to/lastmile_qr_scan", "android": "https://dc.lft.to/lastmile_qr_scan"}, "bike_id": "5e7062e0be75e6a97175ee8e21ef060c", "lat": 38.897426333333335, "type": "electric_scooter", "name": "5e7062e0be75e6a97175ee8e21ef060c", "is_disabled": 0}, {"is_reserved": 0, "fusion_lon": 0.0, "lon": -77.03476483333333, "fusion_lat": 0.0, "rental_uris": {"ios": "https://dc.lft.to/lastmile_qr_scan", "android": "https://dc.lft.to/lastmile_qr_scan"}, "bike_id": "9b37d51d2fd6dfebb7edf7ae3e3ad751", "lat": 38.905841333333335, "type": "electric_scooter", "name": "9b37d51d2fd6dfebb7edf7ae3e3ad751", "is_disabled": 0}, {"is_reserved": 0, "fusion_lon": 0.0, "lon": -77.0323385, "fusion_lat": 0.0, "rental_uris": {"ios": "https://dc.lft.to/lastmile_qr_scan", "android": "https://dc.lft.to/lastmile_qr_scan"}, "bike_id": "7d6c8e8ddd0f5d0af6a6d5ea6b895c2c", "lat": 38.92685566666667, "type": "electric_scooter", "name": "7d6c8e8ddd0f5d0af6a6d5ea6b895c2c", "is_disabled": 0}, {"is_reserved": 0, "fusion_lon": 0.0, "lon": -77.0386455, "fusion_lat": 0.0, "rental_uris": {"ios": "https://dc.lft.to/lastmile_qr_scan", "android": "https://dc.lft.to/lastmile_qr_scan"}, "bike_id": "b87f0dcadfc875c91057377f357962c2", "lat": 38.902639666666666, "type": "electric_scooter", "name": "b87f0dcadfc875c91057377f357962c2", "is_disabled": 0}, {"is_reserved": 0, "fusion_lon": 0.0, "lon": -77.04949483333333, "fusion_lat": 0.0, "rental_uris": {"ios": "https://dc.lft.to/lastmile_qr_scan", "android": "https://dc.lft.to/lastmile_qr_scan"}, "bike_id": "95850df2601561e4ceb0c7f017cef363", "lat": 38.8973025, "type": "electric_scooter", "name": "95850df2601561e4ceb0c7f017cef363", "is_disabled": 0}, {"is_reserved": 0, "fusion_lon": 0.0, "lon": -77.04013266666666, "fusion_lat": 0.0, "rental_uris": {"ios": "https://dc.lft.to/lastmile_qr_scan", "android": "https://dc.lft.to/lastmile_qr_scan"}, "bike_id": "7f99f1b493fce82aab89e3da5dafd130", "lat": 38.903213666666666, "type": "electric_scooter", "name": "7f99f1b493fce82aab89e3da5dafd130", "is_disabled": 0},