{"data": {"bikes": [{"is_disabled": 0, "type": "electric_scooter", "fusion_lon": 0.0, "is_reserved": 0, "fusion_lat": 0.0, "lon": -77.02326116666667, "rental_uris": {"ios": "https://dc.lft.to/lastmile_qr_scan", "android": "https://dc.lft.to/lastmile_qr_scan"}, "bike_id": "73b6ca16c8e7061387803c279779bacc", "lat": 38.92089083333333, "name": "73b6ca16c8e7061387803c279779bacc"}, {"is_disabled": 0, "type": "electric_scooter", "fusion_lon": 0.0, "is_reserved": 0, "fusion_lat": 0.0, "lon": -77.04413116666667, "rental_uris": {"ios": "https://dc.lft.to/lastmile_qr_scan", "android": "https://dc.lft.to/lastmile_qr_scan"}, "bike_id": "c18d0cac9e7da23e4ed5f1b3fa1290f2", "lat": 38.89609033333333, "name": "c18d0cac9e7da23e4ed5f1b3fa1290f2"}, {"is_disabled": 0, "type": "electric_scooter", "fusion_lon": 0.0, "is_reserved": 0, "fusion_lat": 0.0, "lon": -77.0060805, "rental_uris": {"ios": "https://dc.lft.to/lastmile_qr_scan", "android": "https://dc.lft.to/lastmile_qr_scan"}, "bike_id": "92643a56b3780a493e49266869f4aede", "lat": 38.911158666666665, "name": "92643a56b3780a493e49266869f4aede"}, {"is_disabled": 0, "type": "electric_scooter", "fusion_lon": 0.0, "is_reserved": 0, "fusion_lat": 0.0, "lon": -77.03185816666667, "rental_uris": {"ios": "https://dc.lft.to/lastmile_qr_scan", "android": "https://dc.lft.to/lastmile_qr_scan"}, "bike_id": "0471f8284c316b511a24d0823a94c604", "lat": 38.892076333333335, "name": "0471f8284c316b511a24d0823a94c604"}, {"is_disabled": 0, "type": "electric_scooter", "fusion_lon": 0.0, "is_reserved": 0, "fusion_lat": 0.0, "lon": -77.02827133333334, "rental_uris": {"ios": "https://dc.lft.to/lastmile_qr_scan", "android": "https://dc.lft.to/lastmile_qr_scan"}, "bike_id": "18dc94a82d3eb129086595e53fadc136", "lat": 38.89944366666667, "name": "18dc94a82d3eb129086595e53fadc136"}, {"is_disabled": 0, "type": "electric_scooter", "fusion_lon": 0.0, "is_reserved": 0, "fusion_lat": 0.0, "lon": -76.95770683333333, "rental_uris": {"ios": "https://dc.lft.to/lastmile_qr_scan", "android": "https://dc.lft.to/lastmile_qr_scan"}, "bike_id": "bdc366adf8dd239aa3ead125f642653d", "lat": 38.88351933333333, "name": "bdc366adf8dd239aa3ead125f642653d"}, {"is_disabled": 0, "type": "electric_scooter", "fusion_lon": 0.0, "is_reserved": 0, "fusion_lat": 0.0, "lon": -77.0533605, "rental_uris": {"ios": "https://dc.lft.to/lastmile_qr_scan", "android": "https://dc.lft.to/lastmile_qr_scan"}, "bike_id": "988c0868075b19efa75aed1ceee5caee", "lat": 38.89872883333334, "name": "988c0868075b19efa75aed1ceee5caee"}, {"is_disabled": 0, "type": "electric_scooter", "fusion_lon": 0.0, "is_reserved": 0, "fusion_lat": 0.0, "lon": -77.03662316666667, "rental_uris": {"ios": "https://dc.lft.to/lastmile_qr_scan", "android": "https://dc.lft.to/lastmile_qr_scan"}, "bike_id": "63d63b9959ff4e8bfba1c65b0d4ee50c", "lat": 38.9275865, "name": "63d63b9959ff4e8bfba1c65b0d4ee50c"}, {"is_disabled": 0, "type": "electric_scooter", "fusion_lon": 0.0, "is_reserved": 0, "fusion_lat": 0.0, "lon": -77.00228566666667, "rental_uris": {"ios": "https://dc.lft.to/lastmile_qr_scan", "android": "https://dc.lft.to/lastmile_qr_scan"}, "bike_id": "cf9751d447d6bcf637a7643aa3413d0d", "lat": 38.8918875, "name": "cf9751d447d6bcf637a7643aa3413d0d"}, {"is_disabled": 0, "type": "electric_scooter", "fusion_lon": 0.0, "is_reserved": 0, "fusion_lat": 0.0, "lon": -77.0390135, "rental_uris": {"ios": "https://dc.lft.to/lastmile_qr_scan", "android": "https://dc.lft.to/lastmile_qr_scan"}, "bike_id": "afb17230d2659ea2682b36240126a2b5", "lat": 38.922370666666666, "name": "afb17230d2659ea2682b36240126a2b5"}, {"is_disabled": 0, "type": "electric_scooter", "fusion_lon": 0.0, "is_reserved": 0, "fusion_lat": 0.0, "lon": -77.04341383333333, "rental_uris": {"ios": "https://dc.lft.to/lastmile_qr_scan", "android": "https://dc.lft.to/lastmile_qr_scan"}, "bike_id": "007fbc89058cdf8e9d0001ef15d896b6", "lat": 38.904231333333335, "name": "007fbc89058cdf8e9d0001ef15d896b6"}, {"is_disabled": 0, "type": "electric_scooter", "fusion_lon": 0.0, "is_reserved": 0, "fusion_lat": 0.0, "lon": -77.045016, "rental_uris": {"ios": "https://dc.lft.to/lastmile_qr_scan", "android": "https://dc.lft.to/lastmile_qr_scan"}, "bike_id": "5a286847e0a6ae20e15fe9a22b40bca5", "lat": 38.899413, "name": "5a286847e0a6ae20e15fe9a22b40bca5"}, {"is_disabled": 0, "type": "electric_bike", "fusion_lon": 0.0, "is_reserved": 0, "fusion_lat": 0.0, "lon": -77.0656855, "rental_uris": {"ios": "https://dc.lft.to/lastmile_qr_scan", "android": "https://dc.lft.to/lastmile_qr_scan"}, "bike_id": "98ada7db34d1e962a979be06095e4fd9", "lat": 38.9326155, "name": "98ada7db34d1e962a979be06095e4fd9"}, {"is_disabled": 0, "type": "electric_scooter", "fusion_lon": 0.0, "is_reserved": 0, "fusion_lat": 0.0, "lon": -77.043709, "rental_uris": {"ios": "https://dc.lft.to/lastmile_qr_scan", "android": "https://dc.lft.to/lastmile_qr_scan"}, "bike_id": "37c4a57cf5846a38e93c4a0f48f7b14d", "lat": 38.898469666666664, "name": "37c4a57cf5846a38e93c4a0f48f7b14d"}, {"is_disabled": 0, "type": "electric_scooter", "fusion_lon": 0.0, "is_reserved": 0, "fusion_lat": 0.0, "lon": -77.04502816666667, "rental_uris": {"ios": "https://dc.lft.to/lastmile_qr_scan", "android": "https://dc.lft.to/lastmile_qr_scan"}, "bike_id": "48d51c19a55ec0222594c1aa5c0ee419", "lat": 38.89944116666667, "name": "48d51c19a55ec0222594c1aa5c0ee419"}, {"is_disabled": 0, "type": "electric_scooter", "fusion_lon": 0.0, "is_reserved": 0, "fusion_lat": 0.0, "lon": -77.02635483333333, "rental_uris": {"ios": "https://dc.lft.to/lastmile_qr_scan", "android": "https://dc.lft.to/lastmile_qr_scan"}, "bike_id": "cb7b20751114860574bb94672f529a86", "lat": 38.9302895, "name": "cb7b20751114860574bb94672f529a86"}, {"is_disabled": 0, "type": "electric_scooter", "fusion_lon": 0.0, "is_reserved": 0, "fusion_lat": 0.0, "lon": -77.02702116666667, "rental_uris": {"ios": "https://dc.lft.to/lastmile_qr_scan", "android": "https://dc.lft.to/lastmile_qr_scan"}, "bike_id": "bc25d71260251b3af5883e4422fb6a6c", "lat": 38.89591033333333, "name": "bc25d71260251b3af5883e4422fb6a6c"}, {"is_disabled": 0, "type": "electric_scooter", "fusion_lon": 0.0, "is_reserved": 0, "fusion_lat": 0.0, "lon": -77.06459016666666, "rental_uris": {"ios": "https://dc.lft.to/lastmile_qr_scan", "android": "https://dc.lft.to/lastmile_qr_scan"}, "bike_id": "d5578e71e1736c7882ab260dbf41bf8d", "lat": 38.910436, "name": "d5578e71e1736c7882ab260dbf41bf8d"}, {"is_disabled": 0, "type": "electric_bike", "fusion_lon": 0.0, "is_reserved": 0, "fusion_lat": 0.0, "lon": -76.98115833333334, "rental_uris": {"ios": "https://dc.lft.to/lastmile_qr_scan", "android": "https://dc.lft.to/lastmile_qr_scan"}, "bike_id": "0db268c16bf6e2aac6a0c8b46ea83715", "lat": 38.88134, "name": "0db268c16bf6e2aac6a0c8b46ea83715"}, {"is_disabled": 0, "type": "electric_scooter", "fusion_lon": 0.0, "is_reserved": 0, "fusion_lat": 0.0, "lon": -77.01956083333333, "rental_uris": {"ios": "https://dc.lft.to/lastmile_qr_scan", "android": "https://dc.lft.to/lastmile_qr_scan"}, "bike_id": "689ff4b5cc1cd3d76c535a73ad74af79", "lat": 38.923267833333334, "name": "689ff4b5cc1cd3d76c535a73ad74af79"}, {"is_disabled": 0, "type": "electric_scooter", "fusion_lon": 0.0, "is_reserved": 0, "fusion_lat": 0.0, "lon": -76.92593516666666, "rental_uris": {"ios": "https://dc.lft.to/lastmile_qr_scan", "android": "https://dc.lft.to/lastmile_qr_scan"}, "bike_id": "28d09346dece28643c9b130f05d447b1", "lat": 38.89723133333333, "name": "28d09346dece28643c9b130f05d447b1"}, {"is_disabled": 0, "type": "electric_scooter", "fusion_lon": 0.0, "is_reserved": 0, "fusion_lat": 0.0, "lon": -77.01919, "rental_uris": {"ios": "https://dc.lft.to/lastmile_qr_scan", "android": "https://dc.lft.to/lastmile_qr_scan"}, "bike_id": "91918f1e7dc50907e843394f9700088a", "lat": 38.923648, "name": "91918f1e7dc50907e843394f9700088a"}, {"is_disabled": 0, "type": "electric_scooter", "fusion_lon": 0.0, "is_reserved": 0, "fusion_lat": 0.0, "lon": -77.02145183333333, "rental_uris": {"ios": "https://dc.lft.to/lastmile_qr_scan", "android": "https://dc.lft.to/lastmile_qr_scan"}, "bike_id": "325830e03ca695f020844f5b1c46d966", "lat": 38.9248495, "name": "325830e03ca695f020844f5b1c46d966"}, {"is_disabled": 0, "type": "electric_scooter", "fusion_lon": 0.0, "is_reserved": 0, "fusion_lat": 0.0, "lon": -77.04818333333333, "rental_uris": {"ios": "https://dc.lft.to/lastmile_qr_scan", "android": "https://dc.lft.to/lastmile_qr_scan"}, "bike_id": "aac341fcc2f295174605cc48a1c8974a", "lat": 38.913285, "name": "aac341fcc2f295174605cc48a1c8974a"}, {"is_disabled": 0, "type": "electric_scooter", "fusion_lon": 0.0, "is_reserved": 0, "fusion_lat": 0.0, "lon": -77.02589483333334, "rental_uris": {"ios": "https://dc.lft.to/lastmile_qr_scan", "android": "https://dc.lft.to/lastmile_qr_scan"}, "bike_id": "0879e62d84ac0c5c82482fa5c3577480", "lat": 38.920297833333336, "name": "0879e62d84ac0c5c82482fa5c3577480"}, {"is_disabled": 0, "type": "electric_scooter", "fusion_lon": 0.0, "is_reserved": 0, "fusion_lat": 0.0, "lon": -77.03177583333333, "rental_uris": {"ios": "https://dc.lft.to/lastmile_qr_scan", "android": "https://dc.lft.to/lastmile_qr_scan"}, "bike_id": "d92c12ea576f4274ba9125076ef4d735", "lat": 38.887038, "name": "d92c12ea576f4274ba9125076ef4d735"}, {"is_disabled": 0, "type": "electric_scooter", "fusion_lon": 0.0, "is_reserved": 0, "fusion_lat": 0.0, "lon": -77.05724533333333, "rental_uris": {"ios": "https://dc.lft.to/lastmile_qr_scan", "android": "https://dc.lft.to/lastmile_qr_scan"}, "bike_id": "8e11a7318b7862cb1d110a1dc76bcebf", "lat": 38.93129716666667, "name": "8e11a7318b7862cb1d110a1dc76bcebf"}, {"is_disabled": 0, "type": "electric_scooter", "fusion_lon": 0.0, "is_reserved": 0, "fusion_lat": 0.0, "lon": -77.00044533333333, "rental_uris": {"ios": "https://dc.lft.to/lastmile_qr_scan", "android": "https://dc.lft.to/lastmile_qr_scan"}, "bike_id": "0a3106a19999ff2996b3553bd1414a80", "lat": 38.878725333333335, "name": "0a3106a19999ff2996b3553bd1414a80"}, {"is_disabled": 0, "type": "electric_scooter", "fusion_lon": 0.0, "is_reserved": 0, "fusion_lat": 0.0, "lon": -77.04220383333333, "rental_uris": {"ios": "https://dc.lft.to/lastmile_qr_scan", "android": "https://dc.lft.to/lastmile_qr_scan"}, "bike_id": "ec46018a9605f8b41d89d02c0744dc4a", "lat": 38.921437833333336, "name": "ec46018a9605f8b41d89d02c0744dc4a"}, {"is_disabled": 0, "type": "electric_scooter", "fusion_lon": 0.0, "is_reserved": 0, "fusion_lat": 0.0, "lon": -77.0012115, "rental_uris": {"ios": "https://dc.lft.to/lastmile_qr_scan", "android": "https://dc.lft.to/lastmile_qr_scan"}, "bike_id": "429bc83a3003ae3c2f9af5ea71636fbd", "lat": 38.87791816666667, "name": "429bc83a3003ae3c2f9af5ea71636fbd"}, {"is_disabled": 0, "type": "electric_scooter", "fusion_lon": 0.0, "is_reserved": 0, "fusion_lat": 0.0, "lon": -77.05246033333333, "rental_uris": {"ios": "https://dc.lft.to/lastmile_qr_scan", "android": "https://dc.lft.to/lastmile_qr_scan"}, "bike_id": "72a2bf8856347828d44adc15de596196", "lat": 38.92463216666667, "name": "72a2bf8856347828d44adc15de596196"}, {"is_disabled": 0, "type": "electric_scooter", "fusion_lon": 0.0, "is_reserved": 0, "fusion_lat": 0.0, "lon": -77.0180525, "rental_uris": {"ios": "https://dc.lft.to/lastmile_qr_scan", "android": "https://dc.lft.to/lastmile_qr_scan"}, "bike_id": "37260f86f29a297156b4592c6b856d93", "lat": 38.92150066666667, "name": "37260f86f29a297156b4592c6b856d93"}, {"is_disabled": 0, "type": "electric_scooter", "fusion_lon": 0.0, "is_reserved": 0, "fusion_lat": 0.0, "lon": -77.02060933333334, "rental_uris": {"ios": "https://dc.lft.to/lastmile_qr_scan", "android": "https://dc.lft.to/lastmile_qr_scan"}, "bike_id": "af77facc290f957b952f5b82e6ff5c73", "lat": 38.91994066666667, "name": "af77facc290f957b952f5b82e6ff5c73"}, {"is_disabled": 0, "type": "electric_scooter", "fusion_lon": 0.0, "is_reserved": 0, "fusion_lat": 0.0, "lon": -77.00917816666667, "rental_uris": {"ios": "https://dc.lft.to/lastmile_qr_scan", "android": "https://dc.lft.to/lastmile_qr_scan"}, "bike_id": "a90a724bab08712a1bd297fc6c2f7b2b", "lat": 38.8954545, "name": "a90a724bab08712a1bd297fc6c2f7b2b"}, {"is_disabled": 0, "type": "electric_bike", "fusion_lon": 0.0, "is_reserved": 0, "fusion_lat": 0.0, "lon": -77.01057666666667, "rental_uris": {"ios": "https://dc.lft.to/lastmile_qr_scan", "android": "https://dc.lft.to/lastmile_qr_scan"}, "bike_id": "374bcd00062fc6c37735f1279d6f3d5f", "lat": 38.966306833333334, "name": "374bcd00062fc6c37735f1279d6f3d5f"}, {"is_disabled": 0, "type": "electric_scooter", "fusion_lon": 0.0, "is_reserved": 0, "fusion_lat": 0.0, "lon": -76.983743, "rental_uris": {"ios": "https://dc.lft.to/lastmile_qr_scan", "android": "https://dc.lft.to/lastmile_qr_scan"}, "bike_id": "a36ece34c418846c451331fb1003e8f4", "lat": 38.887274166666664, "name": "a36ece34c418846c451331fb1003e8f4"}, {"is_disabled": 0, "type": "electric_scooter", "fusion_lon": 0.0, "is_reserved": 0, "fusion_lat": 0.0, "lon": -77.05128, "rental_uris": {"ios": "https://dc.lft.to/lastmile_qr_scan", "android": "https://dc.lft.to/lastmile_qr_scan"}, "bike_id": "fe07634d23881d52b5b46cb6455e643d", "lat": 38.92363183333333, "name": "fe07634d23881d52b5b46cb6455e643d"}, {"is_disabled": 0, "type": "electric_scooter", "fusion_lon": 0.0, "is_reserved": 0, "fusion_lat": 0.0, "lon": -77.05683333333333, "rental_uris": {"ios": "https://dc.lft.to/lastmile_qr_scan", "android": "https://dc.lft.to/lastmile_qr_scan"}, "bike_id": "2a3ac3d44ae610539c7d13c5c67953a9", "lat": 38.923286833333336, "name": "2a3ac3d44ae610539c7d13c5c67953a9"}, {"is_disabled": 0, "type": "electric_scooter", "fusion_lon": 0.0, "is_reserved": 0, "fusion_lat": 0.0, "lon": -77.02818016666667, "rental_uris": {"ios": "https://dc.lft.to/lastmile_qr_scan", "android": "https://dc.lft.to/lastmile_qr_scan"}, "bike_id": "f3f37fb517c90c0f4f9b340601d00a0b", "lat": 38.914295333333335, "name": "f3f37fb517c90c0f4f9b340601d00a0b"}, {"is_disabled": 0, "type": "electric_scooter", "fusion_lon": 0.0, "is_reserved": 0, "fusion_lat": 0.0, "lon": -77.0122125, "rental_uris": {"ios": "https://dc.lft.to/lastmile_qr_scan", "android": "https://dc.lft.to/lastmile_qr_scan"}, "bike_id": "5fe61eb3e205d93dd76dc6fca3a4e2cb", "lat": 38.9059045, "name": "5fe61eb3e205d93dd76dc6fca3a4e2cb"}, {"is_disabled": 0, "type": "electric_scooter", "fusion_lon": 0.0, "is_reserved": 0, "fusion_lat": 0.0, "lon": -77.01216166666667, "rental_uris": {"ios": "https://dc.lft.to/lastmile_qr_scan", "android": "https://dc.lft.to/lastmile_qr_scan"}, "bike_id": "ab83f6827aa484e76d8769d013cd8a24", "lat": 38.900315666666664, "name": "ab83f6827aa484e76d8769d013cd8a24"}, {"is_disabled": 0, "type": "electric_scooter", "fusion_lon": 0.0, "is_reserved": 0, "fusion_lat": 0.0, "lon": -77.04874133333334, "rental_uris": {"ios": "https://dc.lft.to/lastmile_qr_scan", "android": "https://dc.lft.to/lastmile_qr_scan"}, "bike_id": "db48a2648b408eb92af0daffa9b3d688", "lat": 38.89216116666667, "name": "db48a2648b408eb92af0daffa9b3d688"}, {"is_disabled": 0, "type": "electric_scooter", "fusion_lon": 0.0, "is_reserved": 0, "fusion_lat": 0.0, "lon": -76.9914695, "rental_uris": {"ios": "https://dc.lft.to/lastmile_qr_scan", "android": "https://dc.lft.to/lastmile_qr_scan"}, "bike_id": "bce9d58f64166e133c3334ae30a8fc2c", "lat": 38.90040316666666, "name": "bce9d58f64166e133c3334ae30a8fc2c"}, {"is_disabled": 0, "type": "electric_scooter", "fusion_lon": 0.0, "is_reserved": 0, "fusion_lat": 0.0, "lon": -77.02112116666666, "rental_uris": {"ios": "https://dc.lft.to/lastmile_qr_scan", "android": "https://dc.lft.to/lastmile_qr_scan"}, "bike_id": "3e34ef41d723be941d38172c2f473a07", "lat": 38.921593666666666, "name": "3e34ef41d723be941d38172c2f473a07"}, {"is_disabled": 0, "type": "electric_scooter", "fusion_lon": 0.0, "is_reserved": 0, "fusion_lat": 0.0, "lon": -77.0413105, "rental_uris": {"ios": "https://dc.lft.to/lastmile_qr_scan", "android": "https://dc.lft.to/lastmile_qr_scan"}, "bike_id": "6fd14cc400bfe1c54664566c292c32ca", "lat": 38.93211066666667, "name": "6fd14cc400bfe1c54664566c292c32ca"}, {"is_disabled": 0, "type": "electric_scooter", "fusion_lon": 0.0, "is_reserved": 0, "fusion_lat": 0.0, "lon": -77.05006116666667, "rental_uris": {"ios": "https://dc.lft.to/lastmile_qr_scan", "android": "https://dc.lft.to/lastmile_qr_scan"}, "bike_id": "f0808938a587ec5e2e45ffb78c8b5a1b", "lat": 38.892263, "name": "f0808938a587ec5e2e45ffb78c8b5a1b"}, {"is_disabled": 0, "type": "electric_scooter", "fusion_lon": 0.0, "is_reserved": 0, "fusion_lat": 0.0, "lon": -77.024064, "rental_uris": {"ios": "https://dc.lft.to/lastmile_qr_scan", "android": "https://dc.lft.to/lastmile_qr_scan"}, "bike_id": "07b20a84f970f41771c30fa31a49bfce", "lat": 38.941809166666665, "name": "07b20a84f970f41771c30fa31a49bfce"}, {"is_disabled": 0, "type": "electric_scooter", "fusion_lon": 0.0, "is_reserved": 0, "fusion_lat": 0.0, "lon": -77.01701916666667, "rental_uris": {"ios": "https://dc.lft.to/lastmile_qr_scan", "android": "https://dc.lft.to/lastmile_qr_scan"}, "bike_id": "ed123c640c7f717110da56199e41f07f", "lat": 38.907515333333336, "name": "ed123c640c7f717110da56199e41f07f"}, {"is_disabled": 0, "type": "electric_scooter", "fusion_lon": 0.0, "is_reserved": 0, "fusion_lat": 0.0, "lon": -77.035307, "rental_uris": {"ios": "https://dc.lft.to/lastmile_qr_scan", "android": "https://dc.lft.to/lastmile_qr_scan"}, "bike_id": "2d60ae58d44b56c2a12b8637402d54b8", "lat": 38.92375666666667, "name": "2d60ae58d44b56c2a12b8637402d54b8"}, {"is_disabled": 0, "type": "electric_bike", "fusion_lon": 0.0, "is_reserved": 0, "fusion_lat": 0.0, "lon": -77.1487315, "rental_uris": {"ios": "https://dc.lft.to/lastmile_qr_scan", "android": "https://dc.lft.to/lastmile_qr_scan"}, "bike_id": "dba6a66e72262ee1a505420025771542", "lat": 38.877373, "name": "dba6a66e72262ee1a505420025771542"}, {"is_disabled": 0, "type": "electric_scooter", "fusion_lon": 0.0, "is_reserved": 0, "fusion_lat": 0.0, "lon": -77.00332466666667, "rental_uris": {"ios": "https://dc.lft.to/lastmile_qr_scan", "android": "https://dc.lft.to/lastmile_qr_scan"}, "bike_id": "b8d02cb0f49bea70b4681557d2a242b9", "lat": 38.893597666666665, "name": "b8d02cb0f49bea70b4681557d2a242b9"}, {"is_disabled": 0, "type": "electric_scooter", "fusion_lon": 0.0, "is_reserved": 0, "fusion_lat": 0.0, "lon": -76.94889866666666, "rental_uris": {"ios": "https://dc.lft.to/lastmile_qr_scan", "android": "https://dc.lft.to/lastmile_qr_scan"}, "bike_id": "b8156e3f8f281ea01d6515b868c4b12c", "lat": 38.89510716666667, "name": "b8156e3f8f281ea01d6515b868c4b12c"}, {"is_disabled": 0, "type": "electric_scooter", "fusion_lon": 0.0, "is_reserved": 0, "fusion_lat": 0.0, "lon": -77.023009, "rental_uris": {"ios": "https://dc.lft.to/lastmile_qr_scan", "android": "https://dc.lft.to/lastmile_qr_scan"}, "bike_id": "d877558bf8409fd585ffa3e37dc3716f", "lat": 38.95913983333333, "name": "d877558bf8409fd585ffa3e37dc3716f"}, {"is_disabled": 0, "type": "electric_bike", "fusion_lon": 0.0, "is_reserved": 0, "fusion_lat": 0.0, "lon": -76.97299, "rental_uris": {"ios": "https://dc.lft.to/lastmile_qr_scan", "android": "https://dc.lft.to/lastmile_qr_scan"}, "bike_id": "4896618c4190f1c01e774519a9b3c3ff", "lat": 38.86493333333333, "name": "4896618c4190f1c01e774519a9b3c3ff"}, {"is_disabled": 0, "type": "electric_scooter", "fusion_lon": 0.0, "is_reserved": 0, "fusion_lat": 0.0, "lon": -77.03453233333333, "rental_uris": {"ios": "https://dc.lft.to/lastmile_qr_scan", "android": "https://dc.lft.to/lastmile_qr_scan"}, "bike_id": "5dc77ee8910664d335390a6e6e792035", "lat": 38.901013166666665, "name": "5dc77ee8910664d335390a6e6e792035"}, {"is_disabled": 0, "type": "electric_scooter", "fusion_lon": 0.0, "is_reserved": 0, "fusion_lat": 0.0, "lon": -77.07502116666667, "rental_uris": {"ios": "https://dc.lft.to/lastmile_qr_scan", "android": "https://dc.lft.to/lastmile_qr_scan"}, "bike_id": "d2d36ccae84fdcc7ae4836e81d20490a", "lat": 38.911863333333336, "name": "d2d36ccae84fdcc7ae4836e81d20490a"}, {"is_disabled": 0, "type": "electric_bike", "fusion_lon": 0.0, "is_reserved": 0, "fusion_lat": 0.0, "lon": -77.042872, "rental_uris": {"ios": "https://dc.lft.to/lastmile_qr_scan", "android": "https://dc.lft.to/lastmile_qr_scan"}, "bike_id": "be40d545eeaf5e3ced07ebebe185f763", "lat": 38.9002105, "name": "be40d545eeaf5e3ced07ebebe185f763"}, {"is_disabled": 0, "type": "electric_bike", "fusion_lon": 0.0, "is_reserved": 0, "fusion_lat": 0.0, "lon": -77.04978216666666, "rental_uris": {"ios": "https://dc.lft.to/lastmile_qr_scan", "android": "https://dc.lft.to/lastmile_qr_scan"}, "bike_id": "868b8900d65f579c480542144345f39d", "lat": 38.852878833333335, "name": "868b8900d65f579c480542144345f39d"}, {"is_disabled": 0, "type": "electric_scooter", "fusion_lon": 0.0, "is_reserved": 0, "fusion_lat": 0.0, "lon": -76.93389683333334, "rental_uris": {"ios": "https://dc.lft.to/lastmile_qr_scan", "android": "https://dc.lft.to/lastmile_qr_scan"}, "bike_id": "0b6a18ff5d4f09883c43a5c3910fcb86", "lat": 38.89911266666667, "name": "0b6a18ff5d4f09883c43a5c3910fcb86"}, {"is_disabled": 0, "type": "electric_scooter", "fusion_lon": 0.0, "is_reserved": 0, "fusion_lat": 0.0, "lon": -77.030495, "rental_uris": {"ios": "https://dc.lft.to/lastmile_qr_scan", "android": "https://dc.lft.to/lastmile_qr_scan"}, "bike_id": "7cba091d8ffac35a1ade05e5745cf33d", "lat": 38.88420466666667, "name": "7cba091d8ffac35a1ade05e5745cf33d"}, {"is_disabled": 0, "type": "electric_scooter", "fusion_lon": 0.0, "is_reserved": 0, "fusion_lat": 0.0, "lon": -77.0710145, "rental_uris": {"ios": "https://dc.lft.to/lastmile_qr_scan", "android": "https://dc.lft.to/lastmile_qr_scan"}, "bike_id": "d1f5e6d917b8f47b096696ff4031db42", "lat": 38.908578166666665, "name": "d1f5e6d917b8f47b096696ff4031db42"}, {"is_disabled": 0, "type": "electric_scooter", "fusion_lon": 0.0, "is_reserved": 0, "fusion_lat": 0.0, "lon": -77.05398183333334, "rental_uris": {"ios": "https://dc.lft.to/lastmile_qr_scan", "android": "https://dc.lft.to/lastmile_qr_scan"}, "bike_id": "986e2ed99926d9d328dc2934191782b8", "lat": 38.89846466666667, "name": "986e2ed99926d9d328dc2934191782b8"}, {"is_disabled": 0, "type": "electric_scooter", "fusion_lon": 0.0, "is_reserved": 0, "fusion_lat": 0.0, "lon": -77.0370415, "rental_uris": {"ios": "https://dc.lft.to/lastmile_qr_scan", "android": "https://dc.lft.to/lastmile_qr_scan"}, "bike_id": "61dff38ea813e923598ae91ed8c23eed", "lat": 38.931769, "name": "61dff38ea813e923598ae91ed8c23eed"}, {"is_disabled": 0, "type": "electric_scooter", "fusion_lon": 0.0, "is_reserved": 0, "fusion_lat": 0.0, "lon": -77.02609983333333, "rental_uris": {"ios": "https://dc.lft.to/lastmile_qr_scan", "android": "https://dc.lft.to/lastmile_qr_scan"}, "bike_id": "5338981470726f1030ff028cb86ee8d0", "lat": 38.89273466666667, "name": "5338981470726f1030ff028cb86ee8d0"}, {"is_disabled": 0, "type": "electric_scooter", "fusion_lon": 0.0, "is_reserved": 0, "fusion_lat": 0.0, "lon": -77.0407575, "rental_uris": {"ios": "https://dc.lft.to/lastmile_qr_scan", "android": "https://dc.lft.to/lastmile_qr_scan"}, "bike_id": "b6638d1ae7d6ae090c505ddd3831523b", "lat": 38.897305833333334, "name": "b6638d1ae7d6ae090c505ddd3831523b"}, {"is_disabled": 0, "type": "electric_scooter", "fusion_lon": 0.0, "is_reserved": 0, "fusion_lat": 0.0, "lon": -77.05144183333333, "rental_uris": {"ios": "https://dc.lft.to/lastmile_qr_scan", "android": "https://dc.lft.to/lastmile_qr_scan"}, "bike_id": "92dd81d7880b0f895df3ce74770c5faa", "lat": 38.906403166666664, "name": "92dd81d7880b0f895df3ce74770c5faa"}, {"is_disabled": 0, "type": "electric_scooter", "fusion_lon": 0.0, "is_reserved": 0, "fusion_lat": 0.0, "lon": -76.9855805, "rental_uris": {"ios": "https://dc.lft.to/lastmile_qr_scan", "android": "https://dc.lft.to/lastmile_qr_scan"}, "bike_id": "ade9d21c7efd640a1942e0e0d7f97fd3", "lat": 38.89617333333333, "name": "ade9d21c7efd640a1942e0e0d7f97fd3"}, {"is_disabled": 0, "type": "electric_scooter", "fusion_lon": 0.0, "is_reserved": 0, "fusion_lat": 0.0, "lon": -77.05678116666667, "rental_uris": {"ios": "https://dc.lft.to/lastmile_qr_scan", "android": "https://dc.lft.to/lastmile_qr_scan"}, "bike_id": "4fec2fea2d0b4f4f1ef51637c626c39a", "lat": 38.92329516666667, "name": "4fec2fea2d0b4f4f1ef51637c626c39a"}, {"is_disabled": 0, "type": "electric_scooter", "fusion_lon": 0.0, "is_reserved": 0, "fusion_lat": 0.0, "lon": -77.03162833333333, "rental_uris": {"ios": "https://dc.lft.to/lastmile_qr_scan", "android": "https://dc.lft.to/lastmile_qr_scan"}, "bike_id": "6d76c966ab475b8830a154df48f7bc35", "lat": 38.8944805, "name": "6d76c966ab475b8830a154df48f7bc35"}, {"is_disabled": 0, "type": "electric_scooter", "fusion_lon": 0.0, "is_reserved": 0, "fusion_lat": 0.0, "lon": -77.010169, "rental_uris": {"ios": "https://dc.lft.to/lastmile_qr_scan", "android": "https://dc.lft.to/lastmile_qr_scan"}, "bike_id": "fc5b50e1fb53831e5e649bf92acd8a54", "lat": 38.9140035, "name": "fc5b50e1fb53831e5e649bf92acd8a54"}, {"is_disabled": 0, "type": "electric_scooter", "fusion_lon": 0.0, "is_reserved": 0, "fusion_lat": 0.0, "lon": -77.021675, "rental_uris": {"ios": "https://dc.lft.to/lastmile_qr_scan", "android": "https://dc.lft.to/lastmile_qr_scan"}, "bike_id": "19c1a78ca662fa09bcc1207216b837d1", "lat": 38.8921585, "name": "19c1a78ca662fa09bcc1207216b837d1"}, {"is_disabled": 0, "type": "electric_scooter", "fusion_lon": 0.0, "is_reserved": 0, "fusion_lat": 0.0, "lon": -77.0200345, "rental_uris": {"ios": "https://dc.lft.to/lastmile_qr_scan", "android": "https://dc.lft.to/lastmile_qr_scan"}, "bike_id": "6d112994f417c8c7673dbfc78b4d0528", "lat": 38.89861716666667, "name": "6d112994f417c8c7673dbfc78b4d0528"}, {"is_disabled": 0, "type": "electric_scooter", "fusion_lon": 0.0, "is_reserved": 0, "fusion_lat": 0.0, "lon": -77.02222133333333, "rental_uris": {"ios": "https://dc.lft.to/lastmile_qr_scan", "android": "https://dc.lft.to/lastmile_qr_scan"}, "bike_id": "0fa67faa8972564446729b3535f00e9a", "lat": 38.924693166666664, "name": "0fa67faa8972564446729b3535f00e9a"}, {"is_disabled": 0, "type": "electric_scooter", "fusion_lon": 0.0, "is_reserved": 0, "fusion_lat": 0.0, "lon": -77.03800283333334, "rental_uris": {"ios": "https://dc.lft.to/lastmile_qr_scan", "android": "https://dc.lft.to/lastmile_qr_scan"}, "bike_id": "fb2853c309920c798687b0433ba4ba45", "lat": 38.919860166666666, "name": "fb2853c309920c798687b0433ba4ba45"}, {"is_disabled": 0, "type": "electric_scooter", "fusion_lon": 0.0, "is_reserved": 0, "fusion_lat": 0.0, "lon": -77.01497916666666, "rental_uris": {"ios": "https://dc.lft.to/lastmile_qr_scan", "android": "https://dc.lft.to/lastmile_qr_scan"}, "bike_id": "726ac88e421426272f8a725ec1174223", "lat": 38.926673, "name": "726ac88e421426272f8a725ec1174223"}, {"is_disabled": 0, "type": "electric_bike", "fusion_lon": 0.0, "is_reserved": 0, "fusion_lat": 0.0, "lon": -76.9835025, "rental_uris": {"ios": "https://dc.lft.to/lastmile_qr_scan", "android": "https://dc.lft.to/lastmile_qr_scan"}, "bike_id": "50bdeb52e4e1d19f58cfa0139ec61901", "lat": 38.8626865, "name": "50bdeb52e4e1d19f58cfa0139ec61901"}, {"is_disabled": 0, "type": "electric_bike", "fusion_lon": 0.0, "is_reserved": 0, "fusion_lat": 0.0, "lon": -77.12938466666667, "rental_uris": {"ios": "https://dc.lft.to/lastmile_qr_scan", "android": "https://dc.lft.to/lastmile_qr_scan"}, "bike_id": "9d139089b626d2f3f4b6d8c6726418d6", "lat": 38.865762, "name": "9d139089b626d2f3f4b6d8c6726418d6"}, {"is_disabled": 0, "type": "electric_scooter", "fusion_lon": 0.0, "is_reserved": 0, "fusion_lat": 0.0, "lon": -77.02430033333333, "rental_uris": {"ios": "https://dc.lft.to/lastmile_qr_scan", "android": "https://dc.lft.to/lastmile_qr_scan"}, "bike_id": "3192218020e1a1deadcefe7de6226652", "lat": 38.91802966666667, "name": "3192218020e1a1deadcefe7de6226652"}, {"is_disabled": 0, "type": "electric_scooter", "fusion_lon": 0.0, "is_reserved": 0, "fusion_lat": 0.0, "lon": -77.02068733333333, "rental_uris": {"ios": "https://dc.lft.to/lastmile_qr_scan", "android": "https://dc.lft.to/lastmile_qr_scan"}, "bike_id": "211b851dac3e20f83c3de4e4f462b859", "lat": 38.9228745, "name": "211b851dac3e20f83c3de4e4f462b859"}, {"is_disabled": 0, "type": "electric_scooter", "fusion_lon": 0.0, "is_reserved": 0, "fusion_lat": 0.0, "lon": -76.9296665, "rental_uris": {"ios": "https://dc.lft.to/lastmile_qr_scan", "android": "https://dc.lft.to/lastmile_qr_scan"}, "bike_id": "e7553fc28eeec228d0457a223bfdb475", "lat": 38.896291, "name": "e7553fc28eeec228d0457a223bfdb475"}, {"is_disabled": 0, "type": "electric_scooter", "fusion_lon": 0.0, "is_reserved": 0, "fusion_lat": 0.0, "lon": -76.98609983333333, "rental_uris": {"ios": "https://dc.lft.to/lastmile_qr_scan", "android": "https://dc.lft.to/lastmile_qr_scan"}, "bike_id": "704dff67ceceeec62554544c704b425e", "lat": 38.90345033333333, "name": "704dff67ceceeec62554544c704b425e"}, {"is_disabled": 0, "type": "electric_scooter", "fusion_lon": 0.0, "is_reserved": 0, "fusion_lat": 0.0, "lon": -77.05001766666666, "rental_uris": {"ios": "https://dc.lft.to/lastmile_qr_scan", "android": "https://dc.lft.to/lastmile_qr_scan"}, "bike_id": "c24274bade3da45f9e7d342dcc290639", "lat": 38.89230333333333, "name": "c24274bade3da45f9e7d342dcc290639"}, {"is_disabled": 0, "type": "electric_scooter", "fusion_lon": 0.0, "is_reserved": 0, "fusion_lat": 0.0, "lon": -76.97721916666667, "rental_uris": {"ios": "https://dc.lft.to/lastmile_qr_scan", "android": "https://dc.lft.to/lastmile_qr_scan"}, "bike_id": "66626e8403aa2ce80f04add4390b504d", "lat": 38.888186, "name": "66626e8403aa2ce80f04add4390b504d"}, {"is_disabled": 0, "type": "electric_scooter", "fusion_lon": 0.0, "is_reserved": 0, "fusion_lat": 0.0, "lon": -77.021214, "rental_uris": {"ios": "https://dc.lft.to/lastmile_qr_scan", "android": "https://dc.lft.to/lastmile_qr_scan"}, "bike_id": "58ed5ef2872cbc7f7e0233c09017c29d", "lat": 38.917379333333336, "name": "58ed5ef2872cbc7f7e0233c09017c29d"}, {"is_disabled": 0, "type": "electric_scooter", "fusion_lon": 0.0, "is_reserved": 0, "fusion_lat": 0.0, "lon": -77.01591583333334, "rental_uris": {"ios": "https://dc.lft.to/lastmile_qr_scan", "android": "https://dc.lft.to/lastmile_qr_scan"}, "bike_id": "384e277ed6e096ca8ab74b42934fdf6d", "lat": 38.88499783333334, "name": "384e277ed6e096ca8ab74b42934fdf6d"}, {"is_disabled": 0, "type": "electric_scooter", "fusion_lon": 0.0, "is_reserved": 0, "fusion_lat": 0.0, "lon": -76.99155616666667, "rental_uris": {"ios": "https://dc.lft.to/lastmile_qr_scan", "android": "https://dc.lft.to/lastmile_qr_scan"}, "bike_id": "d5e3ea5614476246ba98d20b2328e5c2", "lat": 38.8916175, "name": "d5e3ea5614476246ba98d20b2328e5c2"}, {"is_disabled": 0, "type": "electric_scooter", "fusion_lon": 0.0, "is_reserved": 0, "fusion_lat": 0.0, "lon": -77.02230983333334, "rental_uris": {"ios": "https://dc.lft.to/lastmile_qr_scan", "android": "https://dc.lft.to/lastmile_qr_scan"}, "bike_id": "b375db002649c0312bda67bac976473a", "lat": 38.912667, "name": "b375db002649c0312bda67bac976473a"}, {"is_disabled": 0, "type": "electric_scooter", "fusion_lon": 0.0, "is_reserved": 0, "fusion_lat": 0.0, "lon": -77.00137183333334, "rental_uris": {"ios": "https://dc.lft.to/lastmile_qr_scan", "android": "https://dc.lft.to/lastmile_qr_scan"}, "bike_id": "78703d91b589d090a53486bf24c8f950", "lat": 38.884345333333336, "name": "78703d91b589d090a53486bf24c8f950"}, {"is_disabled": 0, "type": "electric_scooter", "fusion_lon": 0.0, "is_reserved": 0, "fusion_lat": 0.0, "lon": -77.02624066666667, "rental_uris": {"ios": "https://dc.lft.to/lastmile_qr_scan", "android": "https://dc.lft.to/lastmile_qr_scan"}, "bike_id": "53d68a1521ffbe35b9f7a11afa4cb48a", "lat": 38.902591, "name": "53d68a1521ffbe35b9f7a11afa4cb48a"}, {"is_disabled": 0, "type": "electric_scooter", "fusion_lon": 0.0, "is_reserved": 0, "fusion_lat": 0.0, "lon": -77.013914, "rental_uris": {"ios": "https://dc.lft.to/lastmile_qr_scan", "android": "https://dc.lft.to/lastmile_qr_scan"}, "bike_id": "48f4bd209e1be9bac0f5cc0f54bef98a", "lat": 38.878931666666666, "name": "48f4bd209e1be9bac0f5cc0f54bef98a"}, {"is_disabled": 0, "type": "electric_scooter", "fusion_lon": 0.0, "is_reserved": 0, "fusion_lat": 0.0, "lon": -77.04015566666666, "rental_uris": {"ios": "https://dc.lft.to/lastmile_qr_scan", "android": "https://dc.lft.to/lastmile_qr_scan"}, "bike_id": "5e323cc13b38ba087f97fa7b3a372cb2", "lat": 38.9100235, "name": "5e323cc13b38ba087f97fa7b3a372cb2"}, {"is_disabled": 0, "type": "electric_bike", "fusion_lon": 0.0, "is_reserved": 0, "fusion_lat": 0.0, "lon": -76.9774305, "rental_uris": {"ios": "https://dc.lft.to/lastmile_qr_scan", "android": "https://dc.lft.to/lastmile_qr_scan"}, "bike_id": "26ae88889765cb220bb98398c860ba36", "lat": 38.86487666666667, "name": "26ae88889765cb220bb98398c860ba36"}, {"is_disabled": 0, "type": "electric_scooter", "fusion_lon": 0.0, "is_reserved": 0, "fusion_lat": 0.0, "lon": -77.03661466666667, "rental_uris": {"ios": "https://dc.lft.to/lastmile_qr_scan", "android": "https://dc.lft.to/lastmile_qr_scan"}, "bike_id": "04450209a59fcf49ad15366eeaea6307", "lat": 38.903073166666665, "name": "04450209a59fcf49ad15366eeaea6307"}, {"is_disabled": 0, "type": "electric_scooter", "fusion_lon": 0.0, "is_reserved": 0, "fusion_lat": 0.0, "lon": -77.05330533333333, "rental_uris": {"ios": "https://dc.lft.to/lastmile_qr_scan", "android": "https://dc.lft.to/lastmile_qr_scan"}, "bike_id": "015fba0bc6cb12ed0c98e71eaad5c1d8", "lat": 38.904336666666666, "name": "015fba0bc6cb12ed0c98e71eaad5c1d8"}, {"is_disabled": 0, "type": "electric_scooter", "fusion_lon": 0.0, "is_reserved": 0, "fusion_lat": 0.0, "lon": -77.05247033333333, "rental_uris": {"ios": "https://dc.lft.to/lastmile_qr_scan", "android": "https://dc.lft.to/lastmile_qr_scan"}, "bike_id": "3993edd500236f991b9e6a25e2c77d46", "lat": 38.92495233333333, "name": "3993edd500236f991b9e6a25e2c77d46"}, {"is_disabled": 0, "type": "electric_scooter", "fusion_lon": 0.0, "is_reserved": 0, "fusion_lat": 0.0, "lon": -77.05029483333334, "rental_uris": {"ios": "https://dc.lft.to/lastmile_qr_scan", "android": "https://dc.lft.to/lastmile_qr_scan"}, "bike_id": "7ea2bd6053e7bb2b2bba40d03fc55837", "lat": 38.89721, "name": "7ea2bd6053e7bb2b2bba40d03fc55837"}, {"is_disabled": 0, "type": "electric_scooter", "fusion_lon": 0.0, "is_reserved": 0, "fusion_lat": 0.0, "lon": -77.03368216666667, "rental_uris": {"ios": "https://dc.lft.to/lastmile_qr_scan", "android": "https://dc.lft.to/lastmile_qr_scan"}, "bike_id": "091ea18de3a22024aba557c5ca1191ad", "lat": 38.90016333333333, "name": "091ea18de3a22024aba557c5ca1191ad"}, {"is_disabled": 0, "type": "electric_scooter", "fusion_lon": 0.0, "is_reserved": 0, "fusion_lat": 0.0, "lon": -77.0252795, "rental_uris": {"ios": "https://dc.lft.to/lastmile_qr_scan", "android": "https://dc.lft.to/lastmile_qr_scan"}, "bike_id": "907eb228d79670decd6ce3cd7ec74f73", "lat": 38.90319183333333, "name": "907eb228d79670decd6ce3cd7ec74f73"}, {"is_disabled": 0, "type": "electric_scooter", "fusion_lon": 0.0, "is_reserved": 0, "fusion_lat": 0.0, "lon": -77.02709283333333, "rental_uris": {"ios": "https://dc.lft.to/lastmile_qr_scan", "android": "https://dc.lft.to/lastmile_qr_scan"}, "bike_id": "dc27f8fada41a28c1b78240efbce9d2b", "lat": 38.89570333333333, "name": "dc27f8fada41a28c1b78240efbce9d2b"}, {"is_disabled": 0, "type": "electric_scooter", "fusion_lon": 0.0, "is_reserved": 0, "fusion_lat": 0.0, "lon": -77.03162783333333, "rental_uris": {"ios": "https://dc.lft.to/lastmile_qr_scan", "android": "https://dc.lft.to/lastmile_qr_scan"}, "bike_id": "955fddfb3e4622ee23f9bd14d6fe7a51", "lat": 38.89346316666666, "name": "955fddfb3e4622ee23f9bd14d6fe7a51"}, {"is_disabled": 0, "type": "electric_scooter", "fusion_lon": 0.0, "is_reserved": 0, "fusion_lat": 0.0, "lon": -77.02936783333334, "rental_uris": {"ios": "https://dc.lft.to/lastmile_qr_scan", "android": "https://dc.lft.to/lastmile_qr_scan"}, "bike_id": "5dbbd1bd7ce3248403bd2a9d86596e04", "lat": 38.916896333333334, "name": "5dbbd1bd7ce3248403bd2a9d86596e04"}, {"is_disabled": 0, "type": "electric_scooter", "fusion_lon": 0.0, "is_reserved": 0, "fusion_lat": 0.0, "lon": -77.04880266666666, "rental_uris": {"ios": "https://dc.lft.to/lastmile_qr_scan", "android": "https://dc.lft.to/lastmile_qr_scan"}, "bike_id": "a3208747e0b2ee63a6b56d7444b4885c", "lat": 38.89883616666667, "name": "a3208747e0b2ee63a6b56d7444b4885c"}, {"is_disabled": 0, "type": "electric_scooter", "fusion_lon": 0.0, "is_reserved": 0, "fusion_lat": 0.0, "lon": -77.01760416666667, "rental_uris": {"ios": "https://dc.lft.to/lastmile_qr_scan", "android": "https://dc.lft.to/lastmile_qr_scan"}, "bike_id": "3d726dd049249d97b66fec41c922db92", "lat": 38.90263866666667, "name": "3d726dd049249d97b66fec41c922db92"}, {"is_disabled": 0, "type": "electric_scooter", "fusion_lon": 0.0, "is_reserved": 0, "fusion_lat": 0.0, "lon": -76.937364, "rental_uris": {"ios": "https://dc.lft.to/lastmile_qr_scan", "android": "https://dc.lft.to/lastmile_qr_scan"}, "bike_id": "0314cf07a7022245dbacb3efce4a4f45", "lat": 38.890130666666664, "name": "0314cf07a7022245dbacb3efce4a4f45"}, {"is_disabled": 0, "type": "electric_scooter", "fusion_lon": 0.0, "is_reserved": 0, "fusion_lat": 0.0, "lon": -77.0240855, "rental_uris": {"ios": "https://dc.lft.to/lastmile_qr_scan", "android": "https://dc.lft.to/lastmile_qr_scan"}, "bike_id": "d37d59e48c2735c1552afb6050f7f7a2", "lat": 38.920841833333334, "name": "d37d59e48c2735c1552afb6050f7f7a2"}, {"is_disabled": 0, "type": "electric_scooter", "fusion_lon": 0.0, "is_reserved": 0, "fusion_lat": 0.0, "lon": -77.073187, "rental_uris": {"ios": "https://dc.lft.to/lastmile_qr_scan", "android": "https://dc.lft.to/lastmile_qr_scan"}, "bike_id": "e77c4dbefd3452211b97906804734757", "lat": 38.90664233333333, "name": "e77c4dbefd3452211b97906804734757"}, {"is_disabled": 0, "type": "electric_scooter", "fusion_lon": 0.0, "is_reserved": 0, "fusion_lat": 0.0, "lon": -77.0022485, "rental_uris": {"ios": "https://dc.lft.to/lastmile_qr_scan", "android": "https://dc.lft.to/lastmile_qr_scan"}, "bike_id": "9bf1a1f41bbddc8c9deeea38b6ef6f43", "lat": 38.9134025, "name": "9bf1a1f41bbddc8c9deeea38b6ef6f43"}, {"is_disabled": 0, "type": "electric_scooter", "fusion_lon": 0.0, "is_reserved": 0, "fusion_lat": 0.0, "lon": -77.04071733333333, "rental_uris": {"ios": "https://dc.lft.to/lastmile_qr_scan", "android": "https://dc.lft.to/lastmile_qr_scan"}, "bike_id": "634b895c90b049dddf06529cee0dc15a", "lat": 38.923872833333334, "name": "634b895c90b049dddf06529cee0dc15a"}, {"is_disabled": 0, "type": "electric_scooter", "fusion_lon": 0.0, "is_reserved": 0, "fusion_lat": 0.0, "lon": -77.040292, "rental_uris": {"ios": "https://dc.lft.to/lastmile_qr_scan", "android": "https://dc.lft.to/lastmile_qr_scan"}, "bike_id": "9473af5db11dd2c7c9aec79dfe72586d", "lat": 38.898334, "name": "9473af5db11dd2c7c9aec79dfe72586d"}, {"is_disabled": 0, "type": "electric_scooter", "fusion_lon": 0.0, "is_reserved": 0, "fusion_lat": 0.0, "lon": -77.0092345, "rental_uris": {"ios": "https://dc.lft.to/lastmile_qr_scan", "android": "https://dc.lft.to/lastmile_qr_scan"}, "bike_id": "12c2949ec022ed549a99c6dec1c9009a", "lat": 38.895546, "name": "12c2949ec022ed549a99c6dec1c9009a"}, {"is_disabled": 0, "type": "electric_scooter", "fusion_lon": 0.0, "is_reserved": 0, "fusion_lat": 0.0, "lon": -77.03888816666667, "rental_uris": {"ios": "https://dc.lft.to/lastmile_qr_scan", "android": "https://dc.lft.to/lastmile_qr_scan"}, "bike_id": "3fe45187b54aa6f5a3f5544a7f8cd83d", "lat": 38.92042416666666, "name": "3fe45187b54aa6f5a3f5544a7f8cd83d"}, {"is_disabled": 0, "type": "electric_scooter", "fusion_lon": 0.0, "is_reserved": 0, "fusion_lat": 0.0, "lon": -77.02850033333333, "rental_uris": {"ios": "https://dc.lft.to/lastmile_qr_scan", "android": "https://dc.lft.to/lastmile_qr_scan"}, "bike_id": "b9edf4525cb19ad099a0d7b52165b15e", "lat": 38.944927166666666, "name": "b9edf4525cb19ad099a0d7b52165b15e"}, {"is_disabled": 0, "type": "electric_bike", "fusion_lon": 0.0, "is_reserved": 0, "fusion_lat": 0.0, "lon": -76.972247, "rental_uris": {"ios": "https://dc.lft.to/lastmile_qr_scan", "android": "https://dc.lft.to/lastmile_qr_scan"}, "bike_id": "d18f0bedbef52d33eb6dc7fe2f535b51", "lat": 38.900255666666666, "name": "d18f0bedbef52d33eb6dc7fe2f535b51"}, {"is_disabled": 0, "type": "electric_bike", "fusion_lon": 0.0, "is_reserved": 0, "fusion_lat": 0.0, "lon": -76.98118583333333, "rental_uris": {"ios": "https://dc.lft.to/lastmile_qr_scan", "android": "https://dc.lft.to/lastmile_qr_scan"}, "bike_id": "cc8f83f4662f73bd38e37bd435bc80cb", "lat": 38.94565633333333, "name": "cc8f83f4662f73bd38e37bd435bc80cb"}, {"is_disabled": 0, "type": "electric_scooter", "fusion_lon": 0.0, "is_reserved": 0, "fusion_lat": 0.0, "lon": -77.03164533333333, "rental_uris": {"ios": "https://dc.lft.to/lastmile_qr_scan", "android": "https://dc.lft.to/lastmile_qr_scan"}, "bike_id": "87ae913d73d1e5cb81d5f699dd114ace", "lat": 38.89221533333333, "name": "87ae913d73d1e5cb81d5f699dd114ace"}, {"is_disabled": 0, "type": "electric_scooter", "fusion_lon": 0.0, "is_reserved": 0, "fusion_lat": 0.0, "lon": -77.04381633333334, "rental_uris": {"ios": "https://dc.lft.to/lastmile_qr_scan", "android": "https://dc.lft.to/lastmile_qr_scan"}, "bike_id": "71fa238c0ad93dd9be326f29df3ffff8", "lat": 38.920654, "name": "71fa238c0ad93dd9be326f29df3ffff8"}, {"is_disabled": 0, "type": "electric_scooter", "fusion_lon": 0.0, "is_reserved": 0, "fusion_lat": 0.0, "lon": -76.937387, "rental_uris": {"ios": "https://dc.lft.to/lastmile_qr_scan", "android": "https://dc.lft.to/lastmile_qr_scan"}, "bike_id": "36fb25edbde0a4785f89375f7fd6cd7d", "lat": 38.890143333333334, "name": "36fb25edbde0a4785f89375f7fd6cd7d"}, {"is_disabled": 0, "type": "electric_scooter", "fusion_lon": 0.0, "is_reserved": 0, "fusion_lat": 0.0, "lon": -77.06382983333333, "rental_uris": {"ios": "https://dc.lft.to/lastmile_qr_scan", "android": "https://dc.lft.to/lastmile_qr_scan"}, "bike_id": "c2b57a1062020504468ecaedcc7850c9", "lat": 38.906017, "name": "c2b57a1062020504468ecaedcc7850c9"}, {"is_disabled": 0, "type": "electric_scooter", "fusion_lon": 0.0, "is_reserved": 0, "fusion_lat": 0.0, "lon": -77.07244366666667, "rental_uris": {"ios": "https://dc.lft.to/lastmile_qr_scan", "android": "https://dc.lft.to/lastmile_qr_scan"}, "bike_id": "949f2747effe70a99684dc079433e038", "lat": 38.939429, "name": "949f2747effe70a99684dc079433e038"}, {"is_disabled": 0, "type": "electric_scooter", "fusion_lon": 0.0, "is_reserved": 0, "fusion_lat": 0.0, "lon": -77.0236955, "rental_uris": {"ios": "https://dc.lft.to/lastmile_qr_scan", "android": "https://dc.lft.to/lastmile_qr_scan"}, "bike_id": "98af1c8ac8a7b8702ecb55644d3cf770", "lat": 38.923976333333336, "name": "98af1c8ac8a7b8702ecb55644d3cf770"}, {"is_disabled": 0, "type": "electric_scooter", "fusion_lon": 0.0, "is_reserved": 0, "fusion_lat": 0.0, "lon": -77.030176, "rental_uris": {"ios": "https://dc.lft.to/lastmile_qr_scan", "android": "https://dc.lft.to/lastmile_qr_scan"}, "bike_id": "76d10f15d59c9464dd0599447285818f", "lat": 38.96267066666667, "name": "76d10f15d59c9464dd0599447285818f"}, {"is_disabled": 0, "type": "electric_bike", "fusion_lon": 0.0, "is_reserved": 0, "fusion_lat": 0.0, "lon": -76.99600916666667, "rental_uris": {"ios": "https://dc.lft.to/lastmile_qr_scan", "android": "https://dc.lft.to/lastmile_qr_scan"}, "bike_id": "14e71d365ed2988a856afefe13656bad", "lat": 38.9507215, "name": "14e71d365ed2988a856afefe13656bad"}, {"is_disabled": 0, "type": "electric_scooter", "fusion_lon": 0.0, "is_reserved": 0, "fusion_lat": 0.0, "lon": -77.02887766666667, "rental_uris": {"ios": "https://dc.lft.to/lastmile_qr_scan", "android": "https://dc.lft.to/lastmile_qr_scan"}, "bike_id": "50ee4b5d7b9c53434f5b645b45a17cfc", "lat": 38.91632333333333, "name": "50ee4b5d7b9c53434f5b645b45a17cfc"}, {"is_disabled": 0, "type": "electric_scooter", "fusion_lon": 0.0, "is_reserved": 0, "fusion_lat": 0.0, "lon": -77.0315005, "rental_uris": {"ios": "https://dc.lft.to/lastmile_qr_scan", "android": "https://dc.lft.to/lastmile_qr_scan"}, "bike_id": "09f5f996912f6c89820fe3a9aa0e7d06", "lat": 38.88757016666667, "name": "09f5f996912f6c89820fe3a9aa0e7d06"}, {"is_disabled": 0, "type": "electric_scooter", "fusion_lon": 0.0, "is_reserved": 0, "fusion_lat": 0.0, "lon": -76.98801516666667, "rental_uris": {"ios": "https://dc.lft.to/lastmile_qr_scan", "android": "https://dc.lft.to/lastmile_qr_scan"}, "bike_id": "2fae04b5dcdd5fa7a8f7c2a08eb140ab", "lat": 38.9059285, "name": "2fae04b5dcdd5fa7a8f7c2a08eb140ab"}, {"is_disabled": 0, "type": "electric_scooter", "fusion_lon": 0.0, "is_reserved": 0, "fusion_lat": 0.0, "lon": -77.00575866666667, "rental_uris": {"ios": "https://dc.lft.to/lastmile_qr_scan", "android": "https://dc.lft.to/lastmile_qr_scan"}, "bike_id": "5bfcb29eb6e5949b5fa47fb0078d177b", "lat": 38.9063255, "name": "5bfcb29eb6e5949b5fa47fb0078d177b"}, {"is_disabled": 0, "type": "electric_scooter", "fusion_lon": 0.0, "is_reserved": 0, "fusion_lat": 0.0, "lon": -77.0207705, "rental_uris": {"ios": "https://dc.lft.to/lastmile_qr_scan", "android": "https://dc.lft.to/lastmile_qr_scan"}, "bike_id": "73d0c8d65684feec9833b3c3971541cc", "lat": 38.918992, "name": "73d0c8d65684feec9833b3c3971541cc"}, {"is_disabled": 0, "type": "electric_scooter", "fusion_lon": 0.0, "is_reserved": 0, "fusion_lat": 0.0, "lon": -77.040016, "rental_uris": {"ios": "https://dc.lft.to/lastmile_qr_scan", "android": "https://dc.lft.to/lastmile_qr_scan"}, "bike_id": "21a9522c7d69a8a722472c6a14e3b275", "lat": 38.9025735, "name": "21a9522c7d69a8a722472c6a14e3b275"}, {"is_disabled": 0, "type": "electric_scooter", "fusion_lon": 0.0, "is_reserved": 0, "fusion_lat": 0.0, "lon": -77.0399845, "rental_uris": {"ios": "https://dc.lft.to/lastmile_qr_scan", "android": "https://dc.lft.to/lastmile_qr_scan"}, "bike_id": "cb99112abd96b1b1e7023f905da4ee1f", "lat": 38.908352, "name": "cb99112abd96b1b1e7023f905da4ee1f"}, {"is_disabled": 0, "type": "electric_scooter", "fusion_lon": 0.0, "is_reserved": 0, "fusion_lat": 0.0, "lon": -77.05047266666666, "rental_uris": {"ios": "https://dc.lft.to/lastmile_qr_scan", "android": "https://dc.lft.to/lastmile_qr_scan"}, "bike_id": "649198462d9e29918716123448ebca9c", "lat": 38.90306783333333, "name": "649198462d9e29918716123448ebca9c"}, {"is_disabled": 0, "type": "electric_bike", "fusion_lon": 0.0, "is_reserved": 0, "fusion_lat": 0.0, "lon": -76.987856, "rental_uris": {"ios": "https://dc.lft.to/lastmile_qr_scan", "android": "https://dc.lft.to/lastmile_qr_scan"}, "bike_id": "c6e32b090da718a0903bad00691f7abe", "lat": 38.84469566666667, "name": "c6e32b090da718a0903bad00691f7abe"}, {"is_disabled": 0, "type": "electric_scooter", "fusion_lon": 0.0, "is_reserved": 0, "fusion_lat": 0.0, "lon": -77.04173883333333, "rental_uris": {"ios": "https://dc.lft.to/lastmile_qr_scan", "android": "https://dc.lft.to/lastmile_qr_scan"}, "bike_id": "17012c0a7f2d8adf59391020981aa37a", "lat": 38.9176795, "name": "17012c0a7f2d8adf59391020981aa37a"}, {"is_disabled": 0, "type": "electric_bike", "fusion_lon": 0.0, "is_reserved": 0, "fusion_lat": 0.0, "lon": -77.00286133333333, "rental_uris": {"ios": "https://dc.lft.to/lastmile_qr_scan", "android": "https://dc.lft.to/lastmile_qr_scan"}, "bike_id": "17a5f4df1b87291f995a72315bf5a304", "lat": 38.91164, "name": "17a5f4df1b87291f995a72315bf5a304"}, {"is_disabled": 0, "type": "electric_scooter", "fusion_lon": 0.0, "is_reserved": 0, "fusion_lat": 0.0, "lon": -77.04198, "rental_uris": {"ios": "https://dc.lft.to/lastmile_qr_scan", "android": "https://dc.lft.to/lastmile_qr_scan"}, "bike_id": "59778f2b9aa2169fe5c34b06f8703988", "lat": 38.9233745, "name": "59778f2b9aa2169fe5c34b06f8703988"}, {"is_disabled": 0, "type": "electric_scooter", "fusion_lon": 0.0, "is_reserved": 0, "fusion_lat": 0.0, "lon": -76.99459166666666, "rental_uris": {"ios": "https://dc.lft.to/lastmile_qr_scan", "android": "https://dc.lft.to/lastmile_qr_scan"}, "bike_id": "e92fc604044c83adfc7fdcc534da193f", "lat": 38.90821283333333, "name": "e92fc604044c83adfc7fdcc534da193f"}, {"is_disabled": 0, "type": "electric_scooter", "fusion_lon": 0.0, "is_reserved": 0, "fusion_lat": 0.0, "lon": -76.92515233333333, "rental_uris": {"ios": "https://dc.lft.to/lastmile_qr_scan", "android": "https://dc.lft.to/lastmile_qr_scan"}, "bike_id": "87e297733e004f0b0f8408c1fdb8ed1f", "lat": 38.885971, "name": "87e297733e004f0b0f8408c1fdb8ed1f"}, {"is_disabled": 0, "type": "electric_scooter", "fusion_lon": 0.0, "is_reserved": 0, "fusion_lat": 0.0, "lon": -77.00355233333333, "rental_uris": {"ios": "https://dc.lft.to/lastmile_qr_scan", "android": "https://dc.lft.to/lastmile_qr_scan"}, "bike_id": "0729c9d0a25f3e873b5a709e64585397", "lat": 38.89699316666667, "name": "0729c9d0a25f3e873b5a709e64585397"}, {"is_disabled": 0, "type": "electric_scooter", "fusion_lon": 0.0, "is_reserved": 0, "fusion_lat": 0.0, "lon": -76.99505633333334, "rental_uris": {"ios": "https://dc.lft.to/lastmile_qr_scan", "android": "https://dc.lft.to/lastmile_qr_scan"}, "bike_id": "9f5496bc7715cdab7eb8902e84ceeff2", "lat": 38.8808675, "name": "9f5496bc7715cdab7eb8902e84ceeff2"}, {"is_disabled": 0, "type": "electric_scooter", "fusion_lon": 0.0, "is_reserved": 0, "fusion_lat": 0.0, "lon": -77.05703316666667, "rental_uris": {"ios": "https://dc.lft.to/lastmile_qr_scan", "android": "https://dc.lft.to/lastmile_qr_scan"}, "bike_id": "97e92d8cb465e6a8c3cb33bb12e472e1", "lat": 38.91664883333333, "name": "97e92d8cb465e6a8c3cb33bb12e472e1"}, {"is_disabled": 0, "type": "electric_scooter", "fusion_lon": 0.0, "is_reserved": 0, "fusion_lat": 0.0, "lon": -77.01706583333333, "rental_uris": {"ios": "https://dc.lft.to/lastmile_qr_scan", "android": "https://dc.lft.to/lastmile_qr_scan"}, "bike_id": "6f9ce871c2cb84fa02ac5d9be087486a", "lat": 38.872893833333336, "name": "6f9ce871c2cb84fa02ac5d9be087486a"}, {"is_disabled": 0, "type": "electric_scooter", "fusion_lon": 0.0, "is_reserved": 0, "fusion_lat": 0.0, "lon": -77.01175983333333, "rental_uris": {"ios": "https://dc.lft.to/lastmile_qr_scan", "android": "https://dc.lft.to/lastmile_qr_scan"}, "bike_id": "0675f1ec65d62f3d9b41dd831facf3f3", "lat": 38.90014266666667, "name": "0675f1ec65d62f3d9b41dd831facf3f3"}, {"is_disabled": 0, "type": "electric_scooter", "fusion_lon": 0.0, "is_reserved": 0, "fusion_lat": 0.0, "lon": -77.04366316666666, "rental_uris": {"ios": "https://dc.lft.to/lastmile_qr_scan", "android": "https://dc.lft.to/lastmile_qr_scan"}, "bike_id": "f9814f4b731f074efa5dfbd7b75ae4fc", "lat": 38.898418666666664, "name": "f9814f4b731f074efa5dfbd7b75ae4fc"}, {"is_disabled": 0, "type": "electric_scooter", "fusion_lon": 0.0, "is_reserved": 0, "fusion_lat": 0.0, "lon": -77.0276275, "rental_uris": {"ios": "https://dc.lft.to/lastmile_qr_scan", "android": "https://dc.lft.to/lastmile_qr_scan"}, "bike_id": "f3f162deee43f60768ac469d543150bd", "lat": 38.9560855, "name": "f3f162deee43f60768ac469d543150bd"}, {"is_disabled": 0, "type": "electric_scooter", "fusion_lon": 0.0, "is_reserved": 0, "fusion_lat": 0.0, "lon": -77.00051966666666, "rental_uris": {"ios": "https://dc.lft.to/lastmile_qr_scan", "android": "https://dc.lft.to/lastmile_qr_scan"}, "bike_id": "071dade326e357ba0de4e5519db4b25f", "lat": 38.876735333333336, "name": "071dade326e357ba0de4e5519db4b25f"}, {"is_disabled": 0, "type": "electric_scooter", "fusion_lon": 0.0, "is_reserved": 0, "fusion_lat": 0.0, "lon": -77.024662, "rental_uris": {"ios": "https://dc.lft.to/lastmile_qr_scan", "android": "https://dc.lft.to/lastmile_qr_scan"}, "bike_id": "6f8dbf3a52f1b1faea6ddf5553616d6e", "lat": 38.93858683333333, "name": "6f8dbf3a52f1b1faea6ddf5553616d6e"}, {"is_disabled": 0, "type": "electric_scooter", "fusion_lon": 0.0, "is_reserved": 0, "fusion_lat": 0.0, "lon": -77.04359916666667, "rental_uris": {"ios": "https://dc.lft.to/lastmile_qr_scan", "android": "https://dc.lft.to/lastmile_qr_scan"}, "bike_id": "00eda36f15e175cb78646d889bbde5be", "lat": 38.90024783333333, "name": "00eda36f15e175cb78646d889bbde5be"}, {"is_disabled": 0, "type": "electric_scooter", "fusion_lon": 0.0, "is_reserved": 0, "fusion_lat": 0.0, "lon": -76.9973815, "rental_uris": {"ios": "https://dc.lft.to/lastmile_qr_scan", "android": "https://dc.lft.to/lastmile_qr_scan"}, "bike_id": "e5f8005d808a25faf9f066948d5372c5", "lat": 38.896172666666665, "name": "e5f8005d808a25faf9f066948d5372c5"}, {"is_disabled": 0, "type": "electric_scooter", "fusion_lon": 0.0, "is_reserved": 0, "fusion_lat": 0.0, "lon": -77.02531166666667, "rental_uris": {"ios": "https://dc.lft.to/lastmile_qr_scan", "android": "https://dc.lft.to/lastmile_qr_scan"}, "bike_id": "a38f3f0bd6e3144264c7e5f59594a3b7", "lat": 38.94837716666667, "name": "a38f3f0bd6e3144264c7e5f59594a3b7"}, {"is_disabled": 0, "type": "electric_scooter", "fusion_lon": 0.0, "is_reserved": 0, "fusion_lat": 0.0, "lon": -77.030879, "rental_uris": {"ios": "https://dc.lft.to/lastmile_qr_scan", "android": "https://dc.lft.to/lastmile_qr_scan"}, "bike_id": "e8012920bf59892e9d226f50207fd9d9", "lat": 38.89961616666667, "name": "e8012920bf59892e9d226f50207fd9d9"}, {"is_disabled": 0, "type": "electric_scooter", "fusion_lon": 0.0, "is_reserved": 0, "fusion_lat": 0.0, "lon": -77.02230983333334, "rental_uris": {"ios": "https://dc.lft.to/lastmile_qr_scan", "android": "https://dc.lft.to/lastmile_qr_scan"}, "bike_id": "5c7fdbd1aa0938e18f3d2db4d54e74da", "lat": 38.9126725, "name": "5c7fdbd1aa0938e18f3d2db4d54e74da"}, {"is_disabled": 0, "type": "electric_scooter", "fusion_lon": 0.0, "is_reserved": 0, "fusion_lat": 0.0, "lon": -77.04560516666666, "rental_uris": {"ios": "https://dc.lft.to/lastmile_qr_scan", "android": "https://dc.lft.to/lastmile_qr_scan"}, "bike_id": "df1bae92af3557222f8d93dc7466e246", "lat": 38.898339, "name": "df1bae92af3557222f8d93dc7466e246"}, {"is_disabled": 0, "type": "electric_scooter", "fusion_lon": 0.0, "is_reserved": 0, "fusion_lat": 0.0, "lon": -77.04435466666666, "rental_uris": {"ios": "https://dc.lft.to/lastmile_qr_scan", "android": "https://dc.lft.to/lastmile_qr_scan"}, "bike_id": "583d57db2e45de67ae130c11278f4b12", "lat": 38.915408, "name": "583d57db2e45de67ae130c11278f4b12"}, {"is_disabled": 0, "type": "electric_scooter", "fusion_lon": 0.0, "is_reserved": 0, "fusion_lat": 0.0, "lon": -76.991523, "rental_uris": {"ios": "https://dc.lft.to/lastmile_qr_scan", "android": "https://dc.lft.to/lastmile_qr_scan"}, "bike_id": "5a60acda11a510fac51ba7b8c1c3730c", "lat": 38.9003595, "name": "5a60acda11a510fac51ba7b8c1c3730c"}, {"is_disabled": 0, "type": "electric_scooter", "fusion_lon": 0.0, "is_reserved": 0, "fusion_lat": 0.0, "lon": -77.0513015, "rental_uris": {"ios": "https://dc.lft.to/lastmile_qr_scan", "android": "https://dc.lft.to/lastmile_qr_scan"}, "bike_id": "686b414f6ba149db8730e2f1be3d5a0d", "lat": 38.906465, "name": "686b414f6ba149db8730e2f1be3d5a0d"}, {"is_disabled": 0, "type": "electric_scooter", "fusion_lon": 0.0, "is_reserved": 0, "fusion_lat": 0.0, "lon": -76.98378466666666, "rental_uris": {"ios": "https://dc.lft.to/lastmile_qr_scan", "android": "https://dc.lft.to/lastmile_qr_scan"}, "bike_id": "c3301551eac58a17721858b7012fb662", "lat": 38.86027516666667, "name": "c3301551eac58a17721858b7012fb662"}, {"is_disabled": 0, "type": "electric_scooter", "fusion_lon": 0.0, "is_reserved": 0, "fusion_lat": 0.0, "lon": -77.0029825, "rental_uris": {"ios": "https://dc.lft.to/lastmile_qr_scan", "android": "https://dc.lft.to/lastmile_qr_scan"}, "bike_id": "1e6984e3b5a3d5e945803ceb6a8f5088", "lat": 38.876993166666665, "name": "1e6984e3b5a3d5e945803ceb6a8f5088"}, {"is_disabled": 0, "type": "electric_scooter", "fusion_lon": 0.0, "is_reserved": 0, "fusion_lat": 0.0, "lon": -77.02966716666667, "rental_uris": {"ios": "https://dc.lft.to/lastmile_qr_scan", "android": "https://dc.lft.to/lastmile_qr_scan"}, "bike_id": "58472246733344b7c5e7fc6808e7bc24", "lat": 38.9274465, "name": "58472246733344b7c5e7fc6808e7bc24"}, {"is_disabled": 0, "type": "electric_scooter", "fusion_lon": 0.0, "is_reserved": 0, "fusion_lat": 0.0, "lon": -77.05004116666667, "rental_uris": {"ios": "https://dc.lft.to/lastmile_qr_scan", "android": "https://dc.lft.to/lastmile_qr_scan"}, "bike_id": "347433164dd443762e91fbe82834b693", "lat": 38.892285333333334, "name": "347433164dd443762e91fbe82834b693"}, {"is_disabled": 0, "type": "electric_scooter", "fusion_lon": 0.0, "is_reserved": 0, "fusion_lat": 0.0, "lon": -77.00282033333333, "rental_uris": {"ios": "https://dc.lft.to/lastmile_qr_scan", "android": "https://dc.lft.to/lastmile_qr_scan"}, "bike_id": "394c81f1f52f3b3d4bf0b3f1eacb7891", "lat": 38.89197633333333, "name": "394c81f1f52f3b3d4bf0b3f1eacb7891"}, {"is_disabled": 0, "type": "electric_scooter", "fusion_lon": 0.0, "is_reserved": 0, "fusion_lat": 0.0, "lon": -77.00368216666666, "rental_uris": {"ios": "https://dc.lft.to/lastmile_qr_scan", "android": "https://dc.lft.to/lastmile_qr_scan"}, "bike_id": "b379fd110dab72499d283cec7e723b9f", "lat": 38.911020666666666, "name": "b379fd110dab72499d283cec7e723b9f"}, {"is_disabled": 0, "type": "electric_scooter", "fusion_lon": 0.0, "is_reserved": 0, "fusion_lat": 0.0, "lon": -77.00576083333333, "rental_uris": {"ios": "https://dc.lft.to/lastmile_qr_scan", "android": "https://dc.lft.to/lastmile_qr_scan"}, "bike_id": "a98f9c3ad47ee6dda11fef89852ed162", "lat": 38.872103, "name": "a98f9c3ad47ee6dda11fef89852ed162"}, {"is_disabled": 0, "type": "electric_scooter", "fusion_lon": 0.0, "is_reserved": 0, "fusion_lat": 0.0, "lon": -77.01958383333333, "rental_uris": {"ios": "https://dc.lft.to/lastmile_qr_scan", "android": "https://dc.lft.to/lastmile_qr_scan"}, "bike_id": "bbc8941dbbeb04cd50e1aa5582230f5c", "lat": 38.92246016666667, "name": "bbc8941dbbeb04cd50e1aa5582230f5c"}, {"is_disabled": 0, "type": "electric_scooter", "fusion_lon": 0.0, "is_reserved": 0, "fusion_lat": 0.0, "lon": -77.02104533333333, "rental_uris": {"ios": "https://dc.lft.to/lastmile_qr_scan", "android": "https://dc.lft.to/lastmile_qr_scan"}, "bike_id": "ca1079719fc5644a294a5e3d804774d3", "lat": 38.96603116666667, "name": "ca1079719fc5644a294a5e3d804774d3"}, {"is_disabled": 0, "type": "electric_scooter", "fusion_lon": 0.0, "is_reserved": 0, "fusion_lat": 0.0, "lon": -77.026431, "rental_uris": {"ios": "https://dc.lft.to/lastmile_qr_scan", "android": "https://dc.lft.to/lastmile_qr_scan"}, "bike_id": "c661e240ae5dc67bb2cb11dfe5c5a0bb", "lat": 38.91102816666667, "name": "c661e240ae5dc67bb2cb11dfe5c5a0bb"}, {"is_disabled": 0, "type": "electric_scooter", "fusion_lon": 0.0, "is_reserved": 0, "fusion_lat": 0.0, "lon": -77.00187783333334, "rental_uris": {"ios": "https://dc.lft.to/lastmile_qr_scan", "android": "https://dc.lft.to/lastmile_qr_scan"}, "bike_id": "d4549a6a806f7254c772c32f4751156b", "lat": 38.888577166666664, "name": "d4549a6a806f7254c772c32f4751156b"}, {"is_disabled": 0, "type": "electric_scooter", "fusion_lon": 0.0, "is_reserved": 0, "fusion_lat": 0.0, "lon": -77.00336433333334, "rental_uris": {"ios": "https://dc.lft.to/lastmile_qr_scan", "android": "https://dc.lft.to/lastmile_qr_scan"}, "bike_id": "4d80d4c1ae467eb146f1591f7ab95820", "lat": 38.89354083333333, "name": "4d80d4c1ae467eb146f1591f7ab95820"}, {"is_disabled": 0, "type": "electric_scooter", "fusion_lon": 0.0, "is_reserved": 0, "fusion_lat": 0.0, "lon": -77.02239533333334, "rental_uris": {"ios": "https://dc.lft.to/lastmile_qr_scan", "android": "https://dc.lft.to/lastmile_qr_scan"}, "bike_id": "b0e2fefcd62fc6f270ca10d63e020177", "lat": 38.924677, "name": "b0e2fefcd62fc6f270ca10d63e020177"}, {"is_disabled": 0, "type": "electric_scooter", "fusion_lon": 0.0, "is_reserved": 0, "fusion_lat": 0.0, "lon": -77.0588345, "rental_uris": {"ios": "https://dc.lft.to/lastmile_qr_scan", "android": "https://dc.lft.to/lastmile_qr_scan"}, "bike_id": "e0bfdda1abe0a0db5cf732f082ded352", "lat": 38.93555683333334, "name": "e0bfdda1abe0a0db5cf732f082ded352"}, {"is_disabled": 0, "type": "electric_scooter", "fusion_lon": 0.0, "is_reserved": 0, "fusion_lat": 0.0, "lon": -77.02185033333333, "rental_uris": {"ios": "https://dc.lft.to/lastmile_qr_scan", "android": "https://dc.lft.to/lastmile_qr_scan"}, "bike_id": "6a2cad57a822e10b8a18a861b6d4a503", "lat": 38.887120333333336, "name": "6a2cad57a822e10b8a18a861b6d4a503"}, {"is_disabled": 0, "type": "electric_scooter", "fusion_lon": 0.0, "is_reserved": 0, "fusion_lat": 0.0, "lon": -77.06791866666667, "rental_uris": {"ios": "https://dc.lft.to/lastmile_qr_scan", "android": "https://dc.lft.to/lastmile_qr_scan"}, "bike_id": "dbde2921cd234f4b4dda821f20d7c304", "lat": 38.904916, "name": "dbde2921cd234f4b4dda821f20d7c304"}, {"is_disabled": 0, "type": "electric_bike", "fusion_lon": 0.0, "is_reserved": 0, "fusion_lat": 0.0, "lon": -76.97701533333333, "rental_uris": {"ios": "https://dc.lft.to/lastmile_qr_scan", "android": "https://dc.lft.to/lastmile_qr_scan"}, "bike_id": "9000258455590ca3d419cd001c350bfe", "lat": 38.82205316666666, "name": "9000258455590ca3d419cd001c350bfe"}, {"is_disabled": 0, "type": "electric_scooter", "fusion_lon": 0.0, "is_reserved": 0, "fusion_lat": 0.0, "lon": -77.07234016666666, "rental_uris": {"ios": "https://dc.lft.to/lastmile_qr_scan", "android": "https://dc.lft.to/lastmile_qr_scan"}, "bike_id": "25654ea8dc18344e4914845942ab6d61", "lat": 38.92361666666667, "name": "25654ea8dc18344e4914845942ab6d61"}, {"is_disabled": 0, "type": "electric_scooter", "fusion_lon": 0.0, "is_reserved": 0, "fusion_lat": 0.0, "lon": -77.02528683333334, "rental_uris": {"ios": "https://dc.lft.to/lastmile_qr_scan", "android": "https://dc.lft.to/lastmile_qr_scan"}, "bike_id": "f9fd37a3f1675d1615df7b2cdab96d51", "lat": 38.967336, "name": "f9fd37a3f1675d1615df7b2cdab96d51"}, {"is_disabled": 0, "type": "electric_scooter", "fusion_lon": 0.0, "is_reserved": 0, "fusion_lat": 0.0, "lon": -77.00217733333334, "rental_uris": {"ios": "https://dc.lft.to/lastmile_qr_scan", "android": "https://dc.lft.to/lastmile_qr_scan"}, "bike_id": "f654b75fd3730b7cff78df8bc4f4289b", "lat": 38.91100083333333, "name": "f654b75fd3730b7cff78df8bc4f4289b"}, {"is_disabled": 0, "type": "electric_scooter", "fusion_lon": 0.0, "is_reserved": 0, "fusion_lat": 0.0, "lon": -77.04872366666666, "rental_uris": {"ios": "https://dc.lft.to/lastmile_qr_scan", "android": "https://dc.lft.to/lastmile_qr_scan"}, "bike_id": "a702f1b8827bb845f9868a012fa58917", "lat": 38.89216966666667, "name": "a702f1b8827bb845f9868a012fa58917"}, {"is_disabled": 0, "type": "electric_scooter", "fusion_lon": 0.0, "is_reserved": 0, "fusion_lat": 0.0, "lon": -77.0071455, "rental_uris": {"ios": "https://dc.lft.to/lastmile_qr_scan", "android": "https://dc.lft.to/lastmile_qr_scan"}, "bike_id": "2f4b3889c9674748e5bb4bd8b3e31a8b", "lat": 38.884906, "name": "2f4b3889c9674748e5bb4bd8b3e31a8b"}, {"is_disabled": 0, "type": "electric_scooter", "fusion_lon": 0.0, "is_reserved": 0, "fusion_lat": 0.0, "lon": -76.98550333333333, "rental_uris": {"ios": "https://dc.lft.to/lastmile_qr_scan", "android": "https://dc.lft.to/lastmile_qr_scan"}, "bike_id": "38965c1f91717d0c6fd13a87bbde7e29", "lat": 38.90588833333333, "name": "38965c1f91717d0c6fd13a87bbde7e29"}, {"is_disabled": 0, "type": "electric_scooter", "fusion_lon": 0.0, "is_reserved": 0, "fusion_lat": 0.0, "lon": -76.99149133333333, "rental_uris": {"ios": "https://dc.lft.to/lastmile_qr_scan", "android": "https://dc.lft.to/lastmile_qr_scan"}, "bike_id": "598377b5fad9a7cb94933fabf54f9106", "lat": 38.899739, "name": "598377b5fad9a7cb94933fabf54f9106"}, {"is_disabled": 0, "type": "electric_scooter", "fusion_lon": 0.0, "is_reserved": 0, "fusion_lat": 0.0, "lon": -77.03264133333333, "rental_uris": {"ios": "https://dc.lft.to/lastmile_qr_scan", "android": "https://dc.lft.to/lastmile_qr_scan"}, "bike_id": "ecc76d97234e494cbcd9cd1c1c842747", "lat": 38.897027333333334, "name": "ecc76d97234e494cbcd9cd1c1c842747"}, {"is_disabled": 0, "type": "electric_scooter", "fusion_lon": 0.0, "is_reserved": 0, "fusion_lat": 0.0, "lon": -77.03492866666667, "rental_uris": {"ios": "https://dc.lft.to/lastmile_qr_scan", "android": "https://dc.lft.to/lastmile_qr_scan"}, "bike_id": "07d0763de59b22d34fa90b80928693db", "lat": 38.9291575, "name": "07d0763de59b22d34fa90b80928693db"}, {"is_disabled": 0, "type": "electric_scooter", "fusion_lon": 0.0, "is_reserved": 0, "fusion_lat": 0.0, "lon": -77.00605783333333, "rental_uris": {"ios": "https://dc.lft.to/lastmile_qr_scan", "android": "https://dc.lft.to/lastmile_qr_scan"}, "bike_id": "a8392dc29a98a2a9346e4cd07f3db4a1", "lat": 38.90579483333333, "name": "a8392dc29a98a2a9346e4cd07f3db4a1"}, {"is_disabled": 0, "type": "electric_scooter", "fusion_lon": 0.0, "is_reserved": 0, "fusion_lat": 0.0, "lon": -77.03579716666667, "rental_uris": {"ios": "https://dc.lft.to/lastmile_qr_scan", "android": "https://dc.lft.to/lastmile_qr_scan"}, "bike_id": "7642cd867e5cd1d6c5118ff5b411378d", "lat": 38.9081785, "name": "7642cd867e5cd1d6c5118ff5b411378d"}, {"is_disabled": 0, "type": "electric_scooter", "fusion_lon": 0.0, "is_reserved": 0, "fusion_lat": 0.0, "lon": -76.93526416666667, "rental_uris": {"ios": "https://dc.lft.to/lastmile_qr_scan", "android": "https://dc.lft.to/lastmile_qr_scan"}, "bike_id": "8525876c164569d47a7182e067e5091f", "lat": 38.8789425, "name": "8525876c164569d47a7182e067e5091f"}, {"is_disabled": 0, "type": "electric_scooter", "fusion_lon": 0.0, "is_reserved": 0, "fusion_lat": 0.0, "lon": -77.02977683333333, "rental_uris": {"ios": "https://dc.lft.to/lastmile_qr_scan", "android": "https://dc.lft.to/lastmile_qr_scan"}, "bike_id": "784ce4ced26c826ae8305ba8a2740613", "lat": 38.895466666666664, "name": "784ce4ced26c826ae8305ba8a2740613"}, {"is_disabled": 0, "type": "electric_scooter", "fusion_lon": 0.0, "is_reserved": 0, "fusion_lat": 0.0, "lon": -77.02488466666667, "rental_uris": {"ios": "https://dc.lft.to/lastmile_qr_scan", "android": "https://dc.lft.to/lastmile_qr_scan"}, "bike_id": "9a3f0aa70745d64d74d8fe98e5a649f4", "lat": 38.8997255, "name": "9a3f0aa70745d64d74d8fe98e5a649f4"}, {"is_disabled": 0, "type": "electric_scooter", "fusion_lon": 0.0, "is_reserved": 0, "fusion_lat": 0.0, "lon": -76.995771, "rental_uris": {"ios": "https://dc.lft.to/lastmile_qr_scan", "android": "https://dc.lft.to/lastmile_qr_scan"}, "bike_id": "1229747cc8de5718d8753175bbe762a4", "lat": 38.892054333333334, "name": "1229747cc8de5718d8753175bbe762a4"}, {"is_disabled": 0, "type": "electric_scooter", "fusion_lon": 0.0, "is_reserved": 0, "fusion_lat": 0.0, "lon": -77.039624, "rental_uris": {"ios": "https://dc.lft.to/lastmile_qr_scan", "android": "https://dc.lft.to/lastmile_qr_scan"}, "bike_id": "74e2697c61766ce87a86f05d78f2d2d8", "lat": 38.89239233333333, "name": "74e2697c61766ce87a86f05d78f2d2d8"}, {"is_disabled": 0, "type": "electric_bike", "fusion_lon": 0.0, "is_reserved": 0, "fusion_lat": 0.0, "lon": -77.01051933333333, "rental_uris": {"ios": "https://dc.lft.to/lastmile_qr_scan", "android": "https://dc.lft.to/lastmile_qr_scan"}, "bike_id": "7ef3168868b816d8b5c3384bdcc6b871", "lat": 38.8776315, "name": "7ef3168868b816d8b5c3384bdcc6b871"}, {"is_disabled": 0, "type": "electric_scooter", "fusion_lon": 0.0, "is_reserved": 0, "fusion_lat": 0.0, "lon": -77.01503466666666, "rental_uris": {"ios": "https://dc.lft.to/lastmile_qr_scan", "android": "https://dc.lft.to/lastmile_qr_scan"}, "bike_id": "cfd1ea39ba7c084a086e5c0122b1f627", "lat": 38.899631166666666, "name": "cfd1ea39ba7c084a086e5c0122b1f627"}, {"is_disabled": 0, "type": "electric_scooter", "fusion_lon": 0.0, "is_reserved": 0, "fusion_lat": 0.0, "lon": -77.054849, "rental_uris": {"ios": "https://dc.lft.to/lastmile_qr_scan", "android": "https://dc.lft.to/lastmile_qr_scan"}, "bike_id": "ca07cf3b90d835e8ec4ff244ec381f64", "lat": 38.92360033333333, "name": "ca07cf3b90d835e8ec4ff244ec381f64"}, {"is_disabled": 0, "type": "electric_scooter", "fusion_lon": 0.0, "is_reserved": 0, "fusion_lat": 0.0, "lon": -77.03460683333333, "rental_uris": {"ios": "https://dc.lft.to/lastmile_qr_scan", "android": "https://dc.lft.to/lastmile_qr_scan"}, "bike_id": "64eec8d142dfd362a9665009d2138979", "lat": 38.90539666666667, "name": "64eec8d142dfd362a9665009d2138979"}, {"is_disabled": 0, "type": "electric_bike", "fusion_lon": 0.0, "is_reserved": 0, "fusion_lat": 0.0, "lon": -76.99658733333334, "rental_uris": {"ios": "https://dc.lft.to/lastmile_qr_scan", "android": "https://dc.lft.to/lastmile_qr_scan"}, "bike_id": "f79ff7362d79aebdb6183d064f9f455d", "lat": 38.967695166666665, "name": "f79ff7362d79aebdb6183d064f9f455d"}, {"is_disabled": 0, "type": "electric_bike", "fusion_lon": 0.0, "is_reserved": 0, "fusion_lat": 0.0, "lon": -77.0276875, "rental_uris": {"ios": "https://dc.lft.to/lastmile_qr_scan", "android": "https://dc.lft.to/lastmile_qr_scan"}, "bike_id": "c78ae93a70adb189f315e96ff0e94d0c", "lat": 38.898422, "name": "c78ae93a70adb189f315e96ff0e94d0c"}, {"is_disabled": 0, "type": "electric_scooter", "fusion_lon": 0.0, "is_reserved": 0, "fusion_lat": 0.0, "lon": -77.0216455, "rental_uris": {"ios": "https://dc.lft.to/lastmile_qr_scan", "android": "https://dc.lft.to/lastmile_qr_scan"}, "bike_id": "23ee9360058e1e5e1c3010ca53c8c316", "lat": 38.8921825, "name": "23ee9360058e1e5e1c3010ca53c8c316"}, {"is_disabled": 0, "type": "electric_scooter", "fusion_lon": 0.0, "is_reserved": 0, "fusion_lat": 0.0, "lon": -76.93189216666667, "rental_uris": {"ios": "https://dc.lft.to/lastmile_qr_scan", "android": "https://dc.lft.to/lastmile_qr_scan"}, "bike_id": "e4fe089a397c6c75b7faeff035c56029", "lat": 38.89873133333333, "name": "e4fe089a397c6c75b7faeff035c56029"}, {"is_disabled": 0, "type": "electric_scooter", "fusion_lon": 0.0, "is_reserved": 0, "fusion_lat": 0.0, "lon": -77.04164216666666, "rental_uris": {"ios": "https://dc.lft.to/lastmile_qr_scan", "android": "https://dc.lft.to/lastmile_qr_scan"}, "bike_id": "c60603fa9ed2e1d2628cd27a534a539c", "lat": 38.8956115, "name": "c60603fa9ed2e1d2628cd27a534a539c"}, {"is_disabled": 0, "type": "electric_scooter", "fusion_lon": 0.0, "is_reserved": 0, "fusion_lat": 0.0, "lon": -77.07138283333333, "rental_uris": {"ios": "https://dc.lft.to/lastmile_qr_scan", "android": "https://dc.lft.to/lastmile_qr_scan"}, "bike_id": "8c09dc82f86c2000af9bd55912c1a3cf", "lat": 38.92020933333333, "name": "8c09dc82f86c2000af9bd55912c1a3cf"}, {"is_disabled": 0, "type": "electric_bike", "fusion_lon": 0.0, "is_reserved": 0, "fusion_lat": 0.0, "lon": -77.05133233333333, "rental_uris": {"ios": "https://dc.lft.to/lastmile_qr_scan", "android": "https://dc.lft.to/lastmile_qr_scan"}, "bike_id": "be7e3aec5e269ef567bb72dc0e11f61a", "lat": 38.90715266666667, "name": "be7e3aec5e269ef567bb72dc0e11f61a"}, {"is_disabled": 0, "type": "electric_scooter", "fusion_lon": 0.0, "is_reserved": 0, "fusion_lat": 0.0, "lon": -77.07290433333333, "rental_uris": {"ios": "https://dc.lft.to/lastmile_qr_scan", "android": "https://dc.lft.to/lastmile_qr_scan"}, "bike_id": "d5a0f8b604d27be01293aeb084fa9ea2", "lat": 38.92978133333333, "name": "d5a0f8b604d27be01293aeb084fa9ea2"}, {"is_disabled": 0, "type": "electric_bike", "fusion_lon": 0.0, "is_reserved": 0, "fusion_lat": 0.0, "lon": -77.09003383333334, "rental_uris": {"ios": "https://dc.lft.to/lastmile_qr_scan", "android": "https://dc.lft.to/lastmile_qr_scan"}, "bike_id": "a90493c8edd59063c529b8fddbddb00e", "lat": 38.90900633333333, "name": "a90493c8edd59063c529b8fddbddb00e"}, {"is_disabled": 0, "type": "electric_scooter", "fusion_lon": 0.0, "is_reserved": 0, "fusion_lat": 0.0, "lon": -77.03466233333333, "rental_uris": {"ios": "https://dc.lft.to/lastmile_qr_scan", "android": "https://dc.lft.to/lastmile_qr_scan"}, "bike_id": "08b0aceb433d2b96cde9fc5952896611", "lat": 38.902735166666666, "name": "08b0aceb433d2b96cde9fc5952896611"}, {"is_disabled": 0, "type": "electric_scooter", "fusion_lon": 0.0, "is_reserved": 0, "fusion_lat": 0.0, "lon": -77.03853866666667, "rental_uris": {"ios": "https://dc.lft.to/lastmile_qr_scan", "android": "https://dc.lft.to/lastmile_qr_scan"}, "bike_id": "88694a9a129106470eb1975e00f614d6", "lat": 38.919642833333334, "name": "88694a9a129106470eb1975e00f614d6"}, {"is_disabled": 0, "type": "electric_scooter", "fusion_lon": 0.0, "is_reserved": 0, "fusion_lat": 0.0, "lon": -76.94674783333333, "rental_uris": {"ios": "https://dc.lft.to/lastmile_qr_scan", "android": "https://dc.lft.to/lastmile_qr_scan"}, "bike_id": "195980bac77604582b701f3c9739e70d", "lat": 38.898659333333335, "name": "195980bac77604582b701f3c9739e70d"}, {"is_disabled": 0, "type": "electric_scooter", "fusion_lon": 0.0, "is_reserved": 0, "fusion_lat": 0.0, "lon": -77.03292733333333, "rental_uris": {"ios": "https://dc.lft.to/lastmile_qr_scan", "android": "https://dc.lft.to/lastmile_qr_scan"}, "bike_id": "8d5c87ae2bd55995c31181acb65b5c2c", "lat": 38.95648516666667, "name": "8d5c87ae2bd55995c31181acb65b5c2c"}, {"is_disabled": 0, "type": "electric_bike", "fusion_lon": 0.0, "is_reserved": 0, "fusion_lat": 0.0, "lon": -76.968234, "rental_uris": {"ios": "https://dc.lft.to/lastmile_qr_scan", "android": "https://dc.lft.to/lastmile_qr_scan"}, "bike_id": "0ea54fa001803872dfa2b2ff78284708", "lat": 38.955236, "name": "0ea54fa001803872dfa2b2ff78284708"}, {"is_disabled": 0, "type": "electric_scooter", "fusion_lon": 0.0, "is_reserved": 0, "fusion_lat": 0.0, "lon": -76.97720883333334, "rental_uris": {"ios": "https://dc.lft.to/lastmile_qr_scan", "android": "https://dc.lft.to/lastmile_qr_scan"}, "bike_id": "9ed5f42381b13cd710b581c571d630db", "lat": 38.888214833333336, "name": "9ed5f42381b13cd710b581c571d630db"}, {"is_disabled": 0, "type": "electric_scooter", "fusion_lon": 0.0, "is_reserved": 0, "fusion_lat": 0.0, "lon": -77.03210133333333, "rental_uris": {"ios": "https://dc.lft.to/lastmile_qr_scan", "android": "https://dc.lft.to/lastmile_qr_scan"}, "bike_id": "f74e8f21c57df92828b057cc2dce64ce", "lat": 38.8974115, "name": "f74e8f21c57df92828b057cc2dce64ce"}, {"is_disabled": 0, "type": "electric_scooter", "fusion_lon": 0.0, "is_reserved": 0, "fusion_lat": 0.0, "lon": -77.04333333333334, "rental_uris": {"ios": "https://dc.lft.to/lastmile_qr_scan", "android": "https://dc.lft.to/lastmile_qr_scan"}, "bike_id": "df8fc89bafcc15173265459513e581d6", "lat": 38.9057595, "name": "df8fc89bafcc15173265459513e581d6"}, {"is_disabled": 0, "type": "electric_scooter", "fusion_lon": 0.0, "is_reserved": 0, "fusion_lat": 0.0, "lon": -77.03315183333333, "rental_uris": {"ios": "https://dc.lft.to/lastmile_qr_scan", "android": "https://dc.lft.to/lastmile_qr_scan"}, "bike_id": "44642f1fbc6cca3d450ec035889fc2a2", "lat": 38.9001395, "name": "44642f1fbc6cca3d450ec035889fc2a2"}, {"is_disabled": 0, "type": "electric_scooter", "fusion_lon": 0.0, "is_reserved": 0, "fusion_lat": 0.0, "lon": -77.052439, "rental_uris": {"ios": "https://dc.lft.to/lastmile_qr_scan", "android": "https://dc.lft.to/lastmile_qr_scan"}, "bike_id": "c7de39af56894f8fa88b1d9af9fe5e1b", "lat": 38.924688, "name": "c7de39af56894f8fa88b1d9af9fe5e1b"}, {"is_disabled": 0, "type": "electric_scooter", "fusion_lon": 0.0, "is_reserved": 0, "fusion_lat": 0.0, "lon": -76.98570083333334, "rental_uris": {"ios": "https://dc.lft.to/lastmile_qr_scan", "android": "https://dc.lft.to/lastmile_qr_scan"}, "bike_id": "af6dc748b7958a68dc77cc32321765f4", "lat": 38.912740666666664, "name": "af6dc748b7958a68dc77cc32321765f4"}, {"is_disabled": 0, "type": "electric_scooter", "fusion_lon": 0.0, "is_reserved": 0, "fusion_lat": 0.0, "lon": -77.02305183333333, "rental_uris": {"ios": "https://dc.lft.to/lastmile_qr_scan", "android": "https://dc.lft.to/lastmile_qr_scan"}, "bike_id": "46ffa264812953df6929d6026249c606", "lat": 38.93199533333333, "name": "46ffa264812953df6929d6026249c606"}, {"is_disabled": 0, "type": "electric_bike", "fusion_lon": 0.0, "is_reserved": 0, "fusion_lat": 0.0, "lon": -77.08409033333334, "rental_uris": {"ios": "https://dc.lft.to/lastmile_qr_scan", "android": "https://dc.lft.to/lastmile_qr_scan"}, "bike_id": "b7be64bf1d3e5ab6f63061486c3547e9", "lat": 38.83293616666667, "name": "b7be64bf1d3e5ab6f63061486c3547e9"}, {"is_disabled": 0, "type": "electric_scooter", "fusion_lon": 0.0, "is_reserved": 0, "fusion_lat": 0.0, "lon": -77.0314995, "rental_uris": {"ios": "https://dc.lft.to/lastmile_qr_scan", "android": "https://dc.lft.to/lastmile_qr_scan"}, "bike_id": "72ed1bd571d888723462adbc3eb758f3", "lat": 38.941725, "name": "72ed1bd571d888723462adbc3eb758f3"}, {"is_disabled": 0, "type": "electric_scooter", "fusion_lon": 0.0, "is_reserved": 0, "fusion_lat": 0.0, "lon": -77.04342383333334, "rental_uris": {"ios": "https://dc.lft.to/lastmile_qr_scan", "android": "https://dc.lft.to/lastmile_qr_scan"}, "bike_id": "615560337f0fe4e78d33757f749b177c", "lat": 38.903753333333334, "name": "615560337f0fe4e78d33757f749b177c"}, {"is_disabled": 0, "type": "electric_scooter", "fusion_lon": 0.0, "is_reserved": 0, "fusion_lat": 0.0, "lon": -77.01871816666667, "rental_uris": {"ios": "https://dc.lft.to/lastmile_qr_scan", "android": "https://dc.lft.to/lastmile_qr_scan"}, "bike_id": "6cf4100bea6f77243d4fcb235bb46f81", "lat": 38.92909933333333, "name": "6cf4100bea6f77243d4fcb235bb46f81"}, {"is_disabled": 0, "type": "electric_scooter", "fusion_lon": 0.0, "is_reserved": 0, "fusion_lat": 0.0, "lon": -77.06296483333334, "rental_uris": {"ios": "https://dc.lft.to/lastmile_qr_scan", "android": "https://dc.lft.to/lastmile_qr_scan"}, "bike_id": "1fcba77b063a3c550260a91ca3352d95", "lat": 38.90772966666667, "name": "1fcba77b063a3c550260a91ca3352d95"}, {"is_disabled": 0, "type": "electric_scooter", "fusion_lon": 0.0, "is_reserved": 0, "fusion_lat": 0.0, "lon": -77.0296035, "rental_uris": {"ios": "https://dc.lft.to/lastmile_qr_scan", "android": "https://dc.lft.to/lastmile_qr_scan"}, "bike_id": "bbd59a5daa3c69904797e469c86c8a4f", "lat": 38.943017166666664, "name": "bbd59a5daa3c69904797e469c86c8a4f"}, {"is_disabled": 0, "type": "electric_scooter", "fusion_lon": 0.0, "is_reserved": 0, "fusion_lat": 0.0, "lon": -77.01954183333334, "rental_uris": {"ios": "https://dc.lft.to/lastmile_qr_scan", "android": "https://dc.lft.to/lastmile_qr_scan"}, "bike_id": "97bbdefe123c2dd4d738732bbb77c3cf", "lat": 38.92422716666667, "name": "97bbdefe123c2dd4d738732bbb77c3cf"}, {"is_disabled": 0, "type": "electric_bike", "fusion_lon": 0.0, "is_reserved": 0, "fusion_lat": 0.0, "lon": -77.1273335, "rental_uris": {"ios": "https://dc.lft.to/lastmile_qr_scan", "android": "https://dc.lft.to/lastmile_qr_scan"}, "bike_id": "884265871c8caff1b9b952d91fc9b7e4", "lat": 38.895581, "name": "884265871c8caff1b9b952d91fc9b7e4"}, {"is_disabled": 0, "type": "electric_scooter", "fusion_lon": 0.0, "is_reserved": 0, "fusion_lat": 0.0, "lon": -77.03062366666667, "rental_uris": {"ios": "https://dc.lft.to/lastmile_qr_scan", "android": "https://dc.lft.to/lastmile_qr_scan"}, "bike_id": "9370586838492616bdd90e5121859e76", "lat": 38.9238025, "name": "9370586838492616bdd90e5121859e76"}, {"is_disabled": 0, "type": "electric_scooter", "fusion_lon": 0.0, "is_reserved": 0, "fusion_lat": 0.0, "lon": -77.04713766666667, "rental_uris": {"ios": "https://dc.lft.to/lastmile_qr_scan", "android": "https://dc.lft.to/lastmile_qr_scan"}, "bike_id": "eff3f987437c58ab3be4013e97d49c4e", "lat": 38.9224635, "name": "eff3f987437c58ab3be4013e97d49c4e"}, {"is_disabled": 0, "type": "electric_scooter", "fusion_lon": 0.0, "is_reserved": 0, "fusion_lat": 0.0, "lon": -77.0545585, "rental_uris": {"ios": "https://dc.lft.to/lastmile_qr_scan", "android": "https://dc.lft.to/lastmile_qr_scan"}, "bike_id": "9ad500b7701c3a7f37a1b8af434d2879", "lat": 38.914690666666665, "name": "9ad500b7701c3a7f37a1b8af434d2879"}, {"is_disabled": 0, "type": "electric_bike", "fusion_lon": 0.0, "is_reserved": 0, "fusion_lat": 0.0, "lon": -76.94535016666667, "rental_uris": {"ios": "https://dc.lft.to/lastmile_qr_scan", "android": "https://dc.lft.to/lastmile_qr_scan"}, "bike_id": "67f242ce636affc6a86368fbd2c1117b", "lat": 38.867549, "name": "67f242ce636affc6a86368fbd2c1117b"}, {"is_disabled": 0, "type": "electric_scooter", "fusion_lon": 0.0, "is_reserved": 0, "fusion_lat": 0.0, "lon": -77.00289633333334, "rental_uris": {"ios": "https://dc.lft.to/lastmile_qr_scan", "android": "https://dc.lft.to/lastmile_qr_scan"}, "bike_id": "16a01f4d847675fdc14c227ddf3b35c8", "lat": 38.893516, "name": "16a01f4d847675fdc14c227ddf3b35c8"}, {"is_disabled": 0, "type": "electric_scooter", "fusion_lon": 0.0, "is_reserved": 0, "fusion_lat": 0.0, "lon": -77.0221975, "rental_uris": {"ios": "https://dc.lft.to/lastmile_qr_scan", "android": "https://dc.lft.to/lastmile_qr_scan"}, "bike_id": "14d50c3414bea6641a91ca58060b4f05", "lat": 38.90538266666667, "name": "14d50c3414bea6641a91ca58060b4f05"}, {"is_disabled": 0, "type": "electric_scooter", "fusion_lon": 0.0, "is_reserved": 0, "fusion_lat": 0.0, "lon": -77.03517916666667, "rental_uris": {"ios": "https://dc.lft.to/lastmile_qr_scan", "android": "https://dc.lft.to/lastmile_qr_scan"}, "bike_id": "5bbcc563b1837a17ff4ec9f6accb8bb6", "lat": 38.9170215, "name": "5bbcc563b1837a17ff4ec9f6accb8bb6"}, {"is_disabled": 0, "type": "electric_scooter", "fusion_lon": 0.0, "is_reserved": 0, "fusion_lat": 0.0, "lon": -77.06334133333333, "rental_uris": {"ios": "https://dc.lft.to/lastmile_qr_scan", "android": "https://dc.lft.to/lastmile_qr_scan"}, "bike_id": "6594cbf334a4dccfda6bb72f019cfd9d", "lat": 38.94412783333333, "name": "6594cbf334a4dccfda6bb72f019cfd9d"}, {"is_disabled": 0, "type": "electric_scooter", "fusion_lon": 0.0, "is_reserved": 0, "fusion_lat": 0.0, "lon": -77.01289266666667, "rental_uris": {"ios": "https://dc.lft.to/lastmile_qr_scan", "android": "https://dc.lft.to/lastmile_qr_scan"}, "bike_id": "5f80e9a7d77921f7ac3430504cd3f408", "lat": 38.90064916666667, "name": "5f80e9a7d77921f7ac3430504cd3f408"}, {"is_disabled": 0, "type": "electric_scooter", "fusion_lon": 0.0, "is_reserved": 0, "fusion_lat": 0.0, "lon": -77.02559216666667, "rental_uris": {"ios": "https://dc.lft.to/lastmile_qr_scan", "android": "https://dc.lft.to/lastmile_qr_scan"}, "bike_id": "31a042b8c9f0a6d1c298207221ce8f51", "lat": 38.90417633333333, "name": "31a042b8c9f0a6d1c298207221ce8f51"}, {"is_disabled": 0, "type": "electric_scooter", "fusion_lon": 0.0, "is_reserved": 0, "fusion_lat": 0.0, "lon": -77.03348883333334, "rental_uris": {"ios": "https://dc.lft.to/lastmile_qr_scan", "android": "https://dc.lft.to/lastmile_qr_scan"}, "bike_id": "154ff1222ff574a5294b825c9b0cd676", "lat": 38.92871866666667, "name": "154ff1222ff574a5294b825c9b0cd676"}, {"is_disabled": 0, "type": "electric_scooter", "fusion_lon": 0.0, "is_reserved": 0, "fusion_lat": 0.0, "lon": -77.00199483333333, "rental_uris": {"ios": "https://dc.lft.to/lastmile_qr_scan", "android": "https://dc.lft.to/lastmile_qr_scan"}, "bike_id": "7bdb61e6f7bbc6a48438f72b9dd37e56", "lat": 38.930805, "name": "7bdb61e6f7bbc6a48438f72b9dd37e56"}, {"is_disabled": 0, "type": "electric_scooter", "fusion_lon": 0.0, "is_reserved": 0, "fusion_lat": 0.0, "lon": -77.02196733333334, "rental_uris": {"ios": "https://dc.lft.to/lastmile_qr_scan", "android": "https://dc.lft.to/lastmile_qr_scan"}, "bike_id": "542b40044141c71f83de5d11992c6279", "lat": 38.899871166666664, "name": "542b40044141c71f83de5d11992c6279"}, {"is_disabled": 0, "type": "electric_scooter", "fusion_lon": 0.0, "is_reserved": 0, "fusion_lat": 0.0, "lon": -77.02831033333334, "rental_uris": {"ios": "https://dc.lft.to/lastmile_qr_scan", "android": "https://dc.lft.to/lastmile_qr_scan"}, "bike_id": "174a6bc006e4c3488a983e35dced9006", "lat": 38.938806, "name": "174a6bc006e4c3488a983e35dced9006"}, {"is_disabled": 0, "type": "electric_bike", "fusion_lon": 0.0, "is_reserved": 0, "fusion_lat": 0.0, "lon": -77.0853075, "rental_uris": {"ios": "https://dc.lft.to/lastmile_qr_scan", "android": "https://dc.lft.to/lastmile_qr_scan"}, "bike_id": "ca54f967756e2f99faba19975e2dedb6", "lat": 38.85643816666666, "name": "ca54f967756e2f99faba19975e2dedb6"}, {"is_disabled": 0, "type": "electric_scooter", "fusion_lon": 0.0, "is_reserved": 0, "fusion_lat": 0.0, "lon": -77.04042816666667, "rental_uris": {"ios": "https://dc.lft.to/lastmile_qr_scan", "android": "https://dc.lft.to/lastmile_qr_scan"}, "bike_id": "f8d0fdc4e20fc15a3cfbbe2249e002f3", "lat": 38.901583333333335, "name": "f8d0fdc4e20fc15a3cfbbe2249e002f3"}, {"is_disabled": 0, "type": "electric_scooter", "fusion_lon": 0.0, "is_reserved": 0, "fusion_lat": 0.0, "lon": -77.039794, "rental_uris": {"ios": "https://dc.lft.to/lastmile_qr_scan", "android": "https://dc.lft.to/lastmile_qr_scan"}, "bike_id": "abec4bf087d621e5e87826ff695d2b7c", "lat": 38.90136966666667, "name": "abec4bf087d621e5e87826ff695d2b7c"}, {"is_disabled": 0, "type": "electric_scooter", "fusion_lon": 0.0, "is_reserved": 0, "fusion_lat": 0.0, "lon": -77.01392983333334, "rental_uris": {"ios": "https://dc.lft.to/lastmile_qr_scan", "android": "https://dc.lft.to/lastmile_qr_scan"}, "bike_id": "1ad4607f94e60c55b7fc72f4ea8fedd3", "lat": 38.88727983333333, "name": "1ad4607f94e60c55b7fc72f4ea8fedd3"}, {"is_disabled": 0, "type": "electric_scooter", "fusion_lon": 0.0, "is_reserved": 0, "fusion_lat": 0.0, "lon": -77.032051, "rental_uris": {"ios": "https://dc.lft.to/lastmile_qr_scan", "android": "https://dc.lft.to/lastmile_qr_scan"}, "bike_id": "f0d9c5f38e1f4b1384d5b721133d018a", "lat": 38.91570733333333, "name": "f0d9c5f38e1f4b1384d5b721133d018a"}, {"is_disabled": 0, "type": "electric_scooter", "fusion_lon": 0.0, "is_reserved": 0, "fusion_lat": 0.0, "lon": -77.043084, "rental_uris": {"ios": "https://dc.lft.to/lastmile_qr_scan", "android": "https://dc.lft.to/lastmile_qr_scan"}, "bike_id": "f0d9d29b9c74c7a99c9bc368d45fc3cd", "lat": 38.918746666666664, "name": "f0d9d29b9c74c7a99c9bc368d45fc3cd"}, {"is_disabled": 0, "type": "electric_scooter", "fusion_lon": 0.0, "is_reserved": 0, "fusion_lat": 0.0, "lon": -77.03879866666666, "rental_uris": {"ios": "https://dc.lft.to/lastmile_qr_scan", "android": "https://dc.lft.to/lastmile_qr_scan"}, "bike_id": "f0fab5b316d9f75e65024fe9f5392cdb", "lat": 38.90257183333333, "name": "f0fab5b316d9f75e65024fe9f5392cdb"}, {"is_disabled": 0, "type": "electric_scooter", "fusion_lon": 0.0, "is_reserved": 0, "fusion_lat": 0.0, "lon": -77.020543, "rental_uris": {"ios": "https://dc.lft.to/lastmile_qr_scan", "android": "https://dc.lft.to/lastmile_qr_scan"}, "bike_id": "fe78479e3c21008d6a0123c93d556a12", "lat": 38.921726666666665, "name": "fe78479e3c21008d6a0123c93d556a12"}, {"is_disabled": 0, "type": "electric_scooter", "fusion_lon": 0.0, "is_reserved": 0, "fusion_lat": 0.0, "lon": -77.02261116666666, "rental_uris": {"ios": "https://dc.lft.to/lastmile_qr_scan", "android": "https://dc.lft.to/lastmile_qr_scan"}, "bike_id": "006de2c8fbf8165639c598dbdcc1697c", "lat": 38.925813833333336, "name": "006de2c8fbf8165639c598dbdcc1697c"}, {"is_disabled": 0, "type": "electric_bike", "fusion_lon": 0.0, "is_reserved": 0, "fusion_lat": 0.0, "lon": -77.0399185, "rental_uris": {"ios": "https://dc.lft.to/lastmile_qr_scan", "android": "https://dc.lft.to/lastmile_qr_scan"}, "bike_id": "84b6a1c59db9bc4f3ec2ee63b34e1145", "lat": 38.89840233333334, "name": "84b6a1c59db9bc4f3ec2ee63b34e1145"}, {"is_disabled": 0, "type": "electric_scooter", "fusion_lon": 0.0, "is_reserved": 0, "fusion_lat": 0.0, "lon": -77.02708433333333, "rental_uris": {"ios": "https://dc.lft.to/lastmile_qr_scan", "android": "https://dc.lft.to/lastmile_qr_scan"}, "bike_id": "d63843e9bbadc92eba520632c358e631", "lat": 38.916626666666666, "name": "d63843e9bbadc92eba520632c358e631"}, {"is_disabled": 0, "type": "electric_scooter", "fusion_lon": 0.0, "is_reserved": 0, "fusion_lat": 0.0, "lon": -77.0130865, "rental_uris": {"ios": "https://dc.lft.to/lastmile_qr_scan", "android": "https://dc.lft.to/lastmile_qr_scan"}, "bike_id": "7059a92bfcbfe48f4c067c57547df28a", "lat": 38.89700333333333, "name": "7059a92bfcbfe48f4c067c57547df28a"}, {"is_disabled": 0, "type": "electric_bike", "fusion_lon": 0.0, "is_reserved": 0, "fusion_lat": 0.0, "lon": -76.94157833333334, "rental_uris": {"ios": "https://dc.lft.to/lastmile_qr_scan", "android": "https://dc.lft.to/lastmile_qr_scan"}, "bike_id": "896284a926b56659da4042362abe8bbb", "lat": 38.86547266666667, "name": "896284a926b56659da4042362abe8bbb"}, {"is_disabled": 0, "type": "electric_scooter", "fusion_lon": 0.0, "is_reserved": 0, "fusion_lat": 0.0, "lon": -77.02061716666667, "rental_uris": {"ios": "https://dc.lft.to/lastmile_qr_scan", "android": "https://dc.lft.to/lastmile_qr_scan"}, "bike_id": "5dc5eeb0b6f8bdffecddcd1d0e5c5063", "lat": 38.92353166666667, "name": "5dc5eeb0b6f8bdffecddcd1d0e5c5063"}, {"is_disabled": 0, "type": "electric_scooter", "fusion_lon": 0.0, "is_reserved": 0, "fusion_lat": 0.0, "lon": -77.0284615, "rental_uris": {"ios": "https://dc.lft.to/lastmile_qr_scan", "android": "https://dc.lft.to/lastmile_qr_scan"}, "bike_id": "b5bb88376f379b264243c686ecf1044a", "lat": 38.944994333333334, "name": "b5bb88376f379b264243c686ecf1044a"}, {"is_disabled": 0, "type": "electric_scooter", "fusion_lon": 0.0, "is_reserved": 0, "fusion_lat": 0.0, "lon": -77.03342016666667, "rental_uris": {"ios": "https://dc.lft.to/lastmile_qr_scan", "android": "https://dc.lft.to/lastmile_qr_scan"}, "bike_id": "ad0ddd67da2ab46e11df673a415b3e82", "lat": 38.902770333333336, "name": "ad0ddd67da2ab46e11df673a415b3e82"}, {"is_disabled": 0, "type": "electric_scooter", "fusion_lon": 0.0, "is_reserved": 0, "fusion_lat": 0.0, "lon": -76.988759, "rental_uris": {"ios": "https://dc.lft.to/lastmile_qr_scan", "android": "https://dc.lft.to/lastmile_qr_scan"}, "bike_id": "249dd1c8a5781dd23eff1b5bc6845cb1", "lat": 38.93466083333333, "name": "249dd1c8a5781dd23eff1b5bc6845cb1"}, {"is_disabled": 0, "type": "electric_scooter", "fusion_lon": 0.0, "is_reserved": 0, "fusion_lat": 0.0, "lon": -77.0177875, "rental_uris": {"ios": "https://dc.lft.to/lastmile_qr_scan", "android": "https://dc.lft.to/lastmile_qr_scan"}, "bike_id": "a0a12d55400e58e5b0814f1f1200157b", "lat": 38.92147766666667, "name": "a0a12d55400e58e5b0814f1f1200157b"}, {"is_disabled": 0, "type": "electric_scooter", "fusion_lon": 0.0, "is_reserved": 0, "fusion_lat": 0.0, "lon": -77.03917966666667, "rental_uris": {"ios": "https://dc.lft.to/lastmile_qr_scan", "android": "https://dc.lft.to/lastmile_qr_scan"}, "bike_id": "f333985f47f17eb5db648b7eac316f02", "lat": 38.899023666666665, "name": "f333985f47f17eb5db648b7eac316f02"}, {"is_disabled": 0, "type": "electric_scooter", "fusion_lon": 0.0, "is_reserved": 0, "fusion_lat": 0.0, "lon": -77.0225555, "rental_uris": {"ios": "https://dc.lft.to/lastmile_qr_scan", "android": "https://dc.lft.to/lastmile_qr_scan"}, "bike_id": "7109d75309e94e24baff02a0deff0747", "lat": 38.896080833333336, "name": "7109d75309e94e24baff02a0deff0747"}, {"is_disabled": 0, "type": "electric_scooter", "fusion_lon": 0.0, "is_reserved": 0, "fusion_lat": 0.0, "lon": -77.0253965, "rental_uris": {"ios": "https://dc.lft.to/lastmile_qr_scan", "android": "https://dc.lft.to/lastmile_qr_scan"}, "bike_id": "280079f874b628ea74beb7f263b81b64", "lat": 38.8922525, "name": "280079f874b628ea74beb7f263b81b64"}, {"is_disabled": 0, "type": "electric_scooter", "fusion_lon": 0.0, "is_reserved": 0, "fusion_lat": 0.0, "lon": -77.02677066666666, "rental_uris": {"ios": "https://dc.lft.to/lastmile_qr_scan", "android": "https://dc.lft.to/lastmile_qr_scan"}, "bike_id": "3dcae73cd75c87920a2b6c8b130fa210", "lat": 38.921723166666666, "name": "3dcae73cd75c87920a2b6c8b130fa210"}, {"is_disabled": 0, "type": "electric_scooter", "fusion_lon": 0.0, "is_reserved": 0, "fusion_lat": 0.0, "lon": -77.03815316666666, "rental_uris": {"ios": "https://dc.lft.to/lastmile_qr_scan", "android": "https://dc.lft.to/lastmile_qr_scan"}, "bike_id": "f21c226ec8a31bd587f14af22e0b4b5b", "lat": 38.930189166666665, "name": "f21c226ec8a31bd587f14af22e0b4b5b"}, {"is_disabled": 0, "type": "electric_bike", "fusion_lon": 0.0, "is_reserved": 0, "fusion_lat": 0.0, "lon": -76.95163133333334, "rental_uris": {"ios": "https://dc.lft.to/lastmile_qr_scan", "android": "https://dc.lft.to/lastmile_qr_scan"}, "bike_id": "22712f7c7bd4626013785d6ad22a37b9", "lat": 39.084304333333336, "name": "22712f7c7bd4626013785d6ad22a37b9"}, {"is_disabled": 0, "type": "electric_scooter", "fusion_lon": 0.0, "is_reserved": 0, "fusion_lat": 0.0, "lon": -76.935922, "rental_uris": {"ios": "https://dc.lft.to/lastmile_qr_scan", "android": "https://dc.lft.to/lastmile_qr_scan"}, "bike_id": "3bdecf623223f539b48d74c547d1afd7", "lat": 38.909481166666666, "name": "3bdecf623223f539b48d74c547d1afd7"}, {"is_disabled": 0, "type": "electric_scooter", "fusion_lon": 0.0, "is_reserved": 0, "fusion_lat": 0.0, "lon": -77.03211566666667, "rental_uris": {"ios": "https://dc.lft.to/lastmile_qr_scan", "android": "https://dc.lft.to/lastmile_qr_scan"}, "bike_id": "89babe248d27a6c0347e2a80bcd6e00c", "lat": 38.91674316666667, "name": "89babe248d27a6c0347e2a80bcd6e00c"}, {"is_disabled": 0, "type": "electric_scooter", "fusion_lon": 0.0, "is_reserved": 0, "fusion_lat": 0.0, "lon": -77.02446483333334, "rental_uris": {"ios": "https://dc.lft.to/lastmile_qr_scan", "android": "https://dc.lft.to/lastmile_qr_scan"}, "bike_id": "901b77f2a1f3927db24c075a48d0b05e", "lat": 38.897408666666664, "name": "901b77f2a1f3927db24c075a48d0b05e"}, {"is_disabled": 0, "type": "electric_scooter", "fusion_lon": 0.0, "is_reserved": 0, "fusion_lat": 0.0, "lon": -77.0057, "rental_uris": {"ios": "https://dc.lft.to/lastmile_qr_scan", "android": "https://dc.lft.to/lastmile_qr_scan"}, "bike_id": "b5f318b6ef8002dab95e5e5937732da4", "lat": 38.88502733333333, "name": "b5f318b6ef8002dab95e5e5937732da4"}, {"is_disabled": 0, "type": "electric_scooter", "fusion_lon": 0.0, "is_reserved": 0, "fusion_lat": 0.0, "lon": -77.05252583333333, "rental_uris": {"ios": "https://dc.lft.to/lastmile_qr_scan", "android": "https://dc.lft.to/lastmile_qr_scan"}, "bike_id": "4eae003df0aaf459a1145f963bc35148", "lat": 38.924935, "name": "4eae003df0aaf459a1145f963bc35148"}, {"is_disabled": 0, "type": "electric_scooter", "fusion_lon": 0.0, "is_reserved": 0, "fusion_lat": 0.0, "lon": -77.03842783333333, "rental_uris": {"ios": "https://dc.lft.to/lastmile_qr_scan", "android": "https://dc.lft.to/lastmile_qr_scan"}, "bike_id": "35aa5c4e5947bbd17a0f1809a5a6f23b", "lat": 38.902648166666665, "name": "35aa5c4e5947bbd17a0f1809a5a6f23b"}, {"is_disabled": 0, "type": "electric_scooter", "fusion_lon": 0.0, "is_reserved": 0, "fusion_lat": 0.0, "lon": -77.04337566666666, "rental_uris": {"ios": "https://dc.lft.to/lastmile_qr_scan", "android": "https://dc.lft.to/lastmile_qr_scan"}, "bike_id": "9d7d9e4b2872676f4c2a1873c65594c1", "lat": 38.903125, "name": "9d7d9e4b2872676f4c2a1873c65594c1"}, {"is_disabled": 0, "type": "electric_scooter", "fusion_lon": 0.0, "is_reserved": 0, "fusion_lat": 0.0, "lon": -77.00123716666667, "rental_uris": {"ios": "https://dc.lft.to/lastmile_qr_scan", "android": "https://dc.lft.to/lastmile_qr_scan"}, "bike_id": "85532306d4aa6e03b4c0057b1e86b428", "lat": 38.905538166666666, "name": "85532306d4aa6e03b4c0057b1e86b428"}, {"is_disabled": 0, "type": "electric_scooter", "fusion_lon": 0.0, "is_reserved": 0, "fusion_lat": 0.0, "lon": -77.04100366666667, "rental_uris": {"ios": "https://dc.lft.to/lastmile_qr_scan", "android": "https://dc.lft.to/lastmile_qr_scan"}, "bike_id": "29d83f0a375fe1b08aa73d398a016f41", "lat": 38.901233833333336, "name": "29d83f0a375fe1b08aa73d398a016f41"}, {"is_disabled": 0, "type": "electric_bike", "fusion_lon": 0.0, "is_reserved": 0, "fusion_lat": 0.0, "lon": -77.23411683333333, "rental_uris": {"ios": "https://dc.lft.to/lastmile_qr_scan", "android": "https://dc.lft.to/lastmile_qr_scan"}, "bike_id": "a6db1383da53b99494a92bd829aa31f6", "lat": 38.87574716666666, "name": "a6db1383da53b99494a92bd829aa31f6"}, {"is_disabled": 0, "type": "electric_scooter", "fusion_lon": 0.0, "is_reserved": 0, "fusion_lat": 0.0, "lon": -76.96821683333333, "rental_uris": {"ios": "https://dc.lft.to/lastmile_qr_scan", "android": "https://dc.lft.to/lastmile_qr_scan"}, "bike_id": "47e19ef4a18e97d56184bb80374051a4", "lat": 38.84712183333333, "name": "47e19ef4a18e97d56184bb80374051a4"}, {"is_disabled": 0, "type": "electric_scooter", "fusion_lon": 0.0, "is_reserved": 0, "fusion_lat": 0.0, "lon": -76.9489425, "rental_uris": {"ios": "https://dc.lft.to/lastmile_qr_scan", "android": "https://dc.lft.to/lastmile_qr_scan"}, "bike_id": "eb63c5c63bf456397d7a560f2339c509", "lat": 38.8953535, "name": "eb63c5c63bf456397d7a560f2339c509"}, {"is_disabled": 0, "type": "electric_scooter", "fusion_lon": 0.0, "is_reserved": 0, "fusion_lat": 0.0, "lon": -76.97910266666666, "rental_uris": {"ios": "https://dc.lft.to/lastmile_qr_scan", "android": "https://dc.lft.to/lastmile_qr_scan"}, "bike_id": "cae020754a91e655d1da6f8e492f42a1", "lat": 38.8885975, "name": "cae020754a91e655d1da6f8e492f42a1"}, {"is_disabled": 0, "type": "electric_scooter", "fusion_lon": 0.0, "is_reserved": 0, "fusion_lat": 0.0, "lon": -77.00715383333333, "rental_uris": {"ios": "https://dc.lft.to/lastmile_qr_scan", "android": "https://dc.lft.to/lastmile_qr_scan"}, "bike_id": "058bb3116e95a4aa8b1111d372a48359", "lat": 38.88488683333333, "name": "058bb3116e95a4aa8b1111d372a48359"}, {"is_disabled": 0, "type": "electric_scooter", "fusion_lon": 0.0, "is_reserved": 0, "fusion_lat": 0.0, "lon": -77.00340583333333, "rental_uris": {"ios": "https://dc.lft.to/lastmile_qr_scan", "android": "https://dc.lft.to/lastmile_qr_scan"}, "bike_id": "b2cba4d2107447068c32231ff46584a0", "lat": 38.893524, "name": "b2cba4d2107447068c32231ff46584a0"}, {"is_disabled": 0, "type": "electric_scooter", "fusion_lon": 0.0, "is_reserved": 0, "fusion_lat": 0.0, "lon": -77.0089265, "rental_uris": {"ios": "https://dc.lft.to/lastmile_qr_scan", "android": "https://dc.lft.to/lastmile_qr_scan"}, "bike_id": "46ed58e29147cd401330c970e4490dc6", "lat": 38.90978166666667, "name": "46ed58e29147cd401330c970e4490dc6"}, {"is_disabled": 0, "type": "electric_scooter", "fusion_lon": 0.0, "is_reserved": 0, "fusion_lat": 0.0, "lon": -77.04079333333334, "rental_uris": {"ios": "https://dc.lft.to/lastmile_qr_scan", "android": "https://dc.lft.to/lastmile_qr_scan"}, "bike_id": "ebbf95563d384846057ed1da30f2416b", "lat": 38.903748, "name": "ebbf95563d384846057ed1da30f2416b"}, {"is_disabled": 0, "type": "electric_scooter", "fusion_lon": 0.0, "is_reserved": 0, "fusion_lat": 0.0, "lon": -77.0005265, "rental_uris": {"ios": "https://dc.lft.to/lastmile_qr_scan", "android": "https://dc.lft.to/lastmile_qr_scan"}, "bike_id": "9d1cc0b29bd5f7cb47969a8eab201a6d", "lat": 38.8787885, "name": "9d1cc0b29bd5f7cb47969a8eab201a6d"}, {"is_disabled": 0, "type": "electric_scooter", "fusion_lon": 0.0, "is_reserved": 0, "fusion_lat": 0.0, "lon": -76.98980716666667, "rental_uris": {"ios": "https://dc.lft.to/lastmile_qr_scan", "android": "https://dc.lft.to/lastmile_qr_scan"}, "bike_id": "509a5623c3fabe6e63f8bdad87f31d37", "lat": 38.89046533333333, "name": "509a5623c3fabe6e63f8bdad87f31d37"}, {"is_disabled": 0, "type": "electric_scooter", "fusion_lon": 0.0, "is_reserved": 0, "fusion_lat": 0.0, "lon": -77.03164216666667, "rental_uris": {"ios": "https://dc.lft.to/lastmile_qr_scan", "android": "https://dc.lft.to/lastmile_qr_scan"}, "bike_id": "9342cb3db51a513c5961011e6669cc13", "lat": 38.897805166666664, "name": "9342cb3db51a513c5961011e6669cc13"}, {"is_disabled": 0, "type": "electric_scooter", "fusion_lon": 0.0, "is_reserved": 0, "fusion_lat": 0.0, "lon": -77.02678083333333, "rental_uris": {"ios": "https://dc.lft.to/lastmile_qr_scan", "android": "https://dc.lft.to/lastmile_qr_scan"}, "bike_id": "d5c602c58e2214322cf07760f0135ae6", "lat": 38.927707, "name": "d5c602c58e2214322cf07760f0135ae6"}, {"is_disabled": 0, "type": "electric_scooter", "fusion_lon": 0.0, "is_reserved": 0, "fusion_lat": 0.0, "lon": -77.0769985, "rental_uris": {"ios": "https://dc.lft.to/lastmile_qr_scan", "android": "https://dc.lft.to/lastmile_qr_scan"}, "bike_id": "f8231b380caa9574dc6a3c10a90f6a6c", "lat": 38.92244066666667, "name": "f8231b380caa9574dc6a3c10a90f6a6c"}, {"is_disabled": 0, "type": "electric_scooter", "fusion_lon": 0.0, "is_reserved": 0, "fusion_lat": 0.0, "lon": -77.08191683333334, "rental_uris": {"ios": "https://dc.lft.to/lastmile_qr_scan", "android": "https://dc.lft.to/lastmile_qr_scan"}, "bike_id": "44c35b5093cba5a974676370e2a00878", "lat": 38.93547233333334, "name": "44c35b5093cba5a974676370e2a00878"}, {"is_disabled": 0, "type": "electric_scooter", "fusion_lon": 0.0, "is_reserved": 0, "fusion_lat": 0.0, "lon": -77.02083666666667, "rental_uris": {"ios": "https://dc.lft.to/lastmile_qr_scan", "android": "https://dc.lft.to/lastmile_qr_scan"}, "bike_id": "fd7eb6b6dcd178c957bcd365ddd8472e", "lat": 38.918942333333334, "name": "fd7eb6b6dcd178c957bcd365ddd8472e"},