{"data": {"bikes": [{"name": "2c42804159e0ca578e7877b7b2f9270e", "fusion_lat": 0.0, "type": "electric_scooter", "lat": 38.8848615, "is_reserved": 0, "is_disabled": 0, "fusion_lon": 0.0, "bike_id": "2c42804159e0ca578e7877b7b2f9270e", "lon": -77.00709716666667, "rental_uris": {"ios": "https://dc.lft.to/lastmile_qr_scan", "android": "https://dc.lft.to/lastmile_qr_scan"}}, {"name": "9c321ca0b50753af16c4179f5b0b6406", "fusion_lat": 0.0, "type": "electric_bike", "lat": 38.84571733333333, "is_reserved": 0, "is_disabled": 0, "fusion_lon": 0.0, "bike_id": "9c321ca0b50753af16c4179f5b0b6406", "lon": -77.09623583333334, "rental_uris": {"ios": "https://dc.lft.to/lastmile_qr_scan", "android": "https://dc.lft.to/lastmile_qr_scan"}}, {"name": "9b1eb1ad2cb9748377ad67b368dc056c", "fusion_lat": 0.0, "type": "electric_scooter", "lat": 38.883151, "is_reserved": 0, "is_disabled": 0, "fusion_lon": 0.0, "bike_id": "9b1eb1ad2cb9748377ad67b368dc056c", "lon": -77.006005, "rental_uris": {"ios": "https://dc.lft.to/lastmile_qr_scan", "android": "https://dc.lft.to/lastmile_qr_scan"}}, {"name": "28e8f2653de63d5bc34926bad8f68f1d", "fusion_lat": 0.0, "type": "electric_bike", "lat": 38.973814833333336, "is_reserved": 0, "is_disabled": 0, "fusion_lon": 0.0, "bike_id": "28e8f2653de63d5bc34926bad8f68f1d", "lon": -77.0646765, "rental_uris": {"ios": "https://dc.lft.to/lastmile_qr_scan", "android": "https://dc.lft.to/lastmile_qr_scan"}}, {"name": "d1f01ca9036c3380a21334dc2ec044bf", "fusion_lat": 0.0, "type": "electric_scooter", "lat": 38.922263, "is_reserved": 0, "is_disabled": 0, "fusion_lon": 0.0, "bike_id": "d1f01ca9036c3380a21334dc2ec044bf", "lon": -77.04700933333334, "rental_uris": {"ios": "https://dc.lft.to/lastmile_qr_scan", "android": "https://dc.lft.to/lastmile_qr_scan"}}, {"name": "ba53811a8ed984e901d286b51059b898", "fusion_lat": 0.0, "type": "electric_scooter", "lat": 38.879017166666664, "is_reserved": 0, "is_disabled": 0, "fusion_lon": 0.0, "bike_id": "ba53811a8ed984e901d286b51059b898", "lon": -77.00129383333334, "rental_uris": {"ios": "https://dc.lft.to/lastmile_qr_scan", "android": "https://dc.lft.to/lastmile_qr_scan"}}, {"name": "0a036d0dbdee7f19790aed4f6a64d56e", "fusion_lat": 0.0, "type": "electric_bike", "lat": 38.99908516666667, "is_reserved": 0, "is_disabled": 0, "fusion_lon": 0.0, "bike_id": "0a036d0dbdee7f19790aed4f6a64d56e", "lon": -77.0462985, "rental_uris": {"ios": "https://dc.lft.to/lastmile_qr_scan", "android": "https://dc.lft.to/lastmile_qr_scan"}}, {"name": "fca4d001fe0ca423b1793d53948b9e8e", "fusion_lat": 0.0, "type": "electric_scooter", "lat": 38.921045, "is_reserved": 0, "is_disabled": 0, "fusion_lon": 0.0, "bike_id": "fca4d001fe0ca423b1793d53948b9e8e", "lon": -77.02206483333333, "rental_uris": {"ios": "https://dc.lft.to/lastmile_qr_scan", "android": "https://dc.lft.to/lastmile_qr_scan"}}, {"name": "605888410e6813d81ae73233aa812ce0", "fusion_lat": 0.0, "type": "electric_scooter", "lat": 38.86671283333333, "is_reserved": 0, "is_disabled": 0, "fusion_lon": 0.0, "bike_id": "605888410e6813d81ae73233aa812ce0", "lon": -77.01103533333334, "rental_uris": {"ios": "https://dc.lft.to/lastmile_qr_scan", "android": "https://dc.lft.to/lastmile_qr_scan"}}, {"name": "9fc8f41975a4142c1f26626644456b82", "fusion_lat": 0.0, "type": "electric_scooter", "lat": 38.93700233333333, "is_reserved": 0, "is_disabled": 0, "fusion_lon": 0.0, "bike_id": "9fc8f41975a4142c1f26626644456b82", "lon": -77.0610155, "rental_uris": {"ios": "https://dc.lft.to/lastmile_qr_scan", "android": "https://dc.lft.to/lastmile_qr_scan"}}, {"name": "c758ce9ca91f1be793fe4fee03eb06ac", "fusion_lat": 0.0, "type": "electric_scooter", "lat": 38.884251166666665, "is_reserved": 0, "is_disabled": 0, "fusion_lon": 0.0, "bike_id": "c758ce9ca91f1be793fe4fee03eb06ac", "lon": -77.03047583333333, "rental_uris": {"ios": "https://dc.lft.to/lastmile_qr_scan", "android": "https://dc.lft.to/lastmile_qr_scan"}}, {"name": "10dfeee6624f5b1ce988aa9643e99474", "fusion_lat": 0.0, "type": "electric_scooter", "lat": 38.899160333333334, "is_reserved": 0, "is_disabled": 0, "fusion_lon": 0.0, "bike_id": "10dfeee6624f5b1ce988aa9643e99474", "lon": -76.93388583333333, "rental_uris": {"ios": "https://dc.lft.to/lastmile_qr_scan", "android": "https://dc.lft.to/lastmile_qr_scan"}}, {"name": "867193897cc6d0ce964d8920c6bc509d", "fusion_lat": 0.0, "type": "electric_scooter", "lat": 38.903272, "is_reserved": 0, "is_disabled": 0, "fusion_lon": 0.0, "bike_id": "867193897cc6d0ce964d8920c6bc509d", "lon": -77.051629, "rental_uris": {"ios": "https://dc.lft.to/lastmile_qr_scan", "android": "https://dc.lft.to/lastmile_qr_scan"}}, {"name": "36a0dcae63a7a4f06679ed8604bba8db", "fusion_lat": 0.0, "type": "electric_scooter", "lat": 38.91720333333333, "is_reserved": 0, "is_disabled": 0, "fusion_lon": 0.0, "bike_id": "36a0dcae63a7a4f06679ed8604bba8db", "lon": -77.03836833333334, "rental_uris": {"ios": "https://dc.lft.to/lastmile_qr_scan", "android": "https://dc.lft.to/lastmile_qr_scan"}}, {"name": "1063620b3de98a413f1574421b01901b", "fusion_lat": 0.0, "type": "electric_bike", "lat": 38.8244475, "is_reserved": 0, "is_disabled": 0, "fusion_lon": 0.0, "bike_id": "1063620b3de98a413f1574421b01901b", "lon": -77.07050283333334, "rental_uris": {"ios": "https://dc.lft.to/lastmile_qr_scan", "android": "https://dc.lft.to/lastmile_qr_scan"}}, {"name": "678aa65e89871204355ceaf2d474e83a", "fusion_lat": 0.0, "type": "electric_scooter", "lat": 38.93246516666667, "is_reserved": 0, "is_disabled": 0, "fusion_lon": 0.0, "bike_id": "678aa65e89871204355ceaf2d474e83a", "lon": -77.02376633333333, "rental_uris": {"ios": "https://dc.lft.to/lastmile_qr_scan", "android": "https://dc.lft.to/lastmile_qr_scan"}}, {"name": "96e323eafaf48bffd1df89ad25b6ecf9", "fusion_lat": 0.0, "type": "electric_bike", "lat": 38.91849083333334, "is_reserved": 0, "is_disabled": 0, "fusion_lon": 0.0, "bike_id": "96e323eafaf48bffd1df89ad25b6ecf9", "lon": -76.9609245, "rental_uris": {"ios": "https://dc.lft.to/lastmile_qr_scan", "android": "https://dc.lft.to/lastmile_qr_scan"}}, {"name": "3b01bf06dc5c5914d75c9583022ea611", "fusion_lat": 0.0, "type": "electric_scooter", "lat": 38.923094, "is_reserved": 0, "is_disabled": 0, "fusion_lon": 0.0, "bike_id": "3b01bf06dc5c5914d75c9583022ea611", "lon": -77.02978966666667, "rental_uris": {"ios": "https://dc.lft.to/lastmile_qr_scan", "android": "https://dc.lft.to/lastmile_qr_scan"}}, {"name": "ba65341d00127d098e1e703ad26f35a5", "fusion_lat": 0.0, "type": "electric_scooter", "lat": 38.90749866666667, "is_reserved": 0, "is_disabled": 0, "fusion_lon": 0.0, "bike_id": "ba65341d00127d098e1e703ad26f35a5", "lon": -77.028149, "rental_uris": {"ios": "https://dc.lft.to/lastmile_qr_scan", "android": "https://dc.lft.to/lastmile_qr_scan"}}, {"name": "54ac167f4c826d71924c23cca097f211", "fusion_lat": 0.0, "type": "electric_scooter", "lat": 38.897248, "is_reserved": 0, "is_disabled": 0, "fusion_lon": 0.0, "bike_id": "54ac167f4c826d71924c23cca097f211", "lon": -77.04647516666667, "rental_uris": {"ios": "https://dc.lft.to/lastmile_qr_scan", "android": "https://dc.lft.to/lastmile_qr_scan"}}, {"name": "8bfca688c836165c2ec3f51f06e67c8f", "fusion_lat": 0.0, "type": "electric_scooter", "lat": 38.88465516666667, "is_reserved": 0, "is_disabled": 0, "fusion_lon": 0.0, "bike_id": "8bfca688c836165c2ec3f51f06e67c8f", "lon": -77.0217065, "rental_uris": {"ios": "https://dc.lft.to/lastmile_qr_scan", "android": "https://dc.lft.to/lastmile_qr_scan"}}, {"name": "e62bbe85d6d871fb861e4b8a479236c7", "fusion_lat": 0.0, "type": "electric_bike", "lat": 38.99453316666666, "is_reserved": 0, "is_disabled": 0, "fusion_lon": 0.0, "bike_id": "e62bbe85d6d871fb861e4b8a479236c7", "lon": -76.908152, "rental_uris": {"ios": "https://dc.lft.to/lastmile_qr_scan", "android": "https://dc.lft.to/lastmile_qr_scan"}}, {"name": "2e5d1ba9248ed3d71627c52fb7b62646", "fusion_lat": 0.0, "type": "electric_scooter", "lat": 38.91741, "is_reserved": 0, "is_disabled": 0, "fusion_lon": 0.0, "bike_id": "2e5d1ba9248ed3d71627c52fb7b62646", "lon": -77.03189466666667, "rental_uris": {"ios": "https://dc.lft.to/lastmile_qr_scan", "android": "https://dc.lft.to/lastmile_qr_scan"}}, {"name": "3fd2182309dd3d1ea7f4cccec3622416", "fusion_lat": 0.0, "type": "electric_scooter", "lat": 38.922381333333334, "is_reserved": 0, "is_disabled": 0, "fusion_lon": 0.0, "bike_id": "3fd2182309dd3d1ea7f4cccec3622416", "lon": -77.03090566666667, "rental_uris": {"ios": "https://dc.lft.to/lastmile_qr_scan", "android": "https://dc.lft.to/lastmile_qr_scan"}}, {"name": "94c31fd971b4d61c34aba38a05bbad16", "fusion_lat": 0.0, "type": "electric_scooter", "lat": 38.91165183333333, "is_reserved": 0, "is_disabled": 0, "fusion_lon": 0.0, "bike_id": "94c31fd971b4d61c34aba38a05bbad16", "lon": -77.0319645, "rental_uris": {"ios": "https://dc.lft.to/lastmile_qr_scan", "android": "https://dc.lft.to/lastmile_qr_scan"}}, {"name": "67cc9130000638517e8f99d229610781", "fusion_lat": 0.0, "type": "electric_scooter", "lat": 38.902755666666664, "is_reserved": 0, "is_disabled": 0, "fusion_lon": 0.0, "bike_id": "67cc9130000638517e8f99d229610781", "lon": -77.03843883333333, "rental_uris": {"ios": "https://dc.lft.to/lastmile_qr_scan", "android": "https://dc.lft.to/lastmile_qr_scan"}}, {"name": "a062fc537c36ea1c9a2dddb907bb1008", "fusion_lat": 0.0, "type": "electric_scooter", "lat": 38.90547083333333, "is_reserved": 0, "is_disabled": 0, "fusion_lon": 0.0, "bike_id": "a062fc537c36ea1c9a2dddb907bb1008", "lon": -77.05008933333333, "rental_uris": {"ios": "https://dc.lft.to/lastmile_qr_scan", "android": "https://dc.lft.to/lastmile_qr_scan"}}, {"name": "13b645ca974f7d34c1f6228088bc1970", "fusion_lat": 0.0, "type": "electric_scooter", "lat": 38.885046833333334, "is_reserved": 0, "is_disabled": 0, "fusion_lon": 0.0, "bike_id": "13b645ca974f7d34c1f6228088bc1970", "lon": -77.0057155, "rental_uris": {"ios": "https://dc.lft.to/lastmile_qr_scan", "android": "https://dc.lft.to/lastmile_qr_scan"}}, {"name": "ea4d0efbab08bb5d45232b24182483ba", "fusion_lat": 0.0, "type": "electric_scooter", "lat": 38.915648166666664, "is_reserved": 0, "is_disabled": 0, "fusion_lon": 0.0, "bike_id": "ea4d0efbab08bb5d45232b24182483ba", "lon": -77.04282416666666, "rental_uris": {"ios": "https://dc.lft.to/lastmile_qr_scan", "android": "https://dc.lft.to/lastmile_qr_scan"}}, {"name": "92983538e8a11b9402cb900b8b47b208", "fusion_lat": 0.0, "type": "electric_scooter", "lat": 38.921101666666665, "is_reserved": 0, "is_disabled": 0, "fusion_lon": 0.0, "bike_id": "92983538e8a11b9402cb900b8b47b208", "lon": -77.01783483333334, "rental_uris": {"ios": "https://dc.lft.to/lastmile_qr_scan", "android": "https://dc.lft.to/lastmile_qr_scan"}}, {"name": "5de2bf7856e5e3ada7b6d002e2e2e06a", "fusion_lat": 0.0, "type": "electric_bike", "lat": 38.81936866666667, "is_reserved": 0, "is_disabled": 0, "fusion_lon": 0.0, "bike_id": "5de2bf7856e5e3ada7b6d002e2e2e06a", "lon": -77.00206733333333, "rental_uris": {"ios": "https://dc.lft.to/lastmile_qr_scan", "android": "https://dc.lft.to/lastmile_qr_scan"}}, {"name": "8e4f4155f151580c95fd8e4ad1e546bd", "fusion_lat": 0.0, "type": "electric_bike", "lat": 38.8869645, "is_reserved": 0, "is_disabled": 0, "fusion_lon": 0.0, "bike_id": "8e4f4155f151580c95fd8e4ad1e546bd", "lon": -77.002223, "rental_uris": {"ios": "https://dc.lft.to/lastmile_qr_scan", "android": "https://dc.lft.to/lastmile_qr_scan"}}, {"name": "ca7c92a65e6f199676ddccb93cd208fb", "fusion_lat": 0.0, "type": "electric_scooter", "lat": 38.92061283333334, "is_reserved": 0, "is_disabled": 0, "fusion_lon": 0.0, "bike_id": "ca7c92a65e6f199676ddccb93cd208fb", "lon": -77.02423733333333, "rental_uris": {"ios": "https://dc.lft.to/lastmile_qr_scan", "android": "https://dc.lft.to/lastmile_qr_scan"}}, {"name": "6f4b71aecd26f54c65aec8bbdf4ff2de", "fusion_lat": 0.0, "type": "electric_scooter", "lat": 38.89486616666667, "is_reserved": 0, "is_disabled": 0, "fusion_lon": 0.0, "bike_id": "6f4b71aecd26f54c65aec8bbdf4ff2de", "lon": -77.01009466666666, "rental_uris": {"ios": "https://dc.lft.to/lastmile_qr_scan", "android": "https://dc.lft.to/lastmile_qr_scan"}}, {"name": "f37cd172a8f2135c12162d9d4b77c2b3", "fusion_lat": 0.0, "type": "electric_bike", "lat": 38.965325, "is_reserved": 0, "is_disabled": 0, "fusion_lon": 0.0, "bike_id": "f37cd172a8f2135c12162d9d4b77c2b3", "lon": -77.03518266666667, "rental_uris": {"ios": "https://dc.lft.to/lastmile_qr_scan", "android": "https://dc.lft.to/lastmile_qr_scan"}}, {"name": "51178be447ef2a36b03db8d60f2f7350", "fusion_lat": 0.0, "type": "electric_scooter", "lat": 38.90254316666667, "is_reserved": 0, "is_disabled": 0, "fusion_lon": 0.0, "bike_id": "51178be447ef2a36b03db8d60f2f7350", "lon": -77.040629, "rental_uris": {"ios": "https://dc.lft.to/lastmile_qr_scan", "android": "https://dc.lft.to/lastmile_qr_scan"}}, {"name": "b3569c3994b271b699c4b0a88ddde0f7", "fusion_lat": 0.0, "type": "electric_scooter", "lat": 38.907058166666665, "is_reserved": 0, "is_disabled": 0, "fusion_lon": 0.0, "bike_id": "b3569c3994b271b699c4b0a88ddde0f7", "lon": -76.98694516666667, "rental_uris": {"ios": "https://dc.lft.to/lastmile_qr_scan", "android": "https://dc.lft.to/lastmile_qr_scan"}}, {"name": "5fcde1b5da473a68f3225bf92871d425", "fusion_lat": 0.0, "type": "electric_scooter", "lat": 38.9098775, "is_reserved": 0, "is_disabled": 0, "fusion_lon": 0.0, "bike_id": "5fcde1b5da473a68f3225bf92871d425", "lon": -77.033814, "rental_uris": {"ios": "https://dc.lft.to/lastmile_qr_scan", "android": "https://dc.lft.to/lastmile_qr_scan"}}, {"name": "8e8095014e25b153592d73ef4f40efc1", "fusion_lat": 0.0, "type": "electric_scooter", "lat": 38.9348775, "is_reserved": 0, "is_disabled": 0, "fusion_lon": 0.0, "bike_id": "8e8095014e25b153592d73ef4f40efc1", "lon": -77.07264516666666, "rental_uris": {"ios": "https://dc.lft.to/lastmile_qr_scan", "android": "https://dc.lft.to/lastmile_qr_scan"}}, {"name": "2ea98531634b18c914ca0c3c0e52d2a4", "fusion_lat": 0.0, "type": "electric_scooter", "lat": 38.90315716666667, "is_reserved": 0, "is_disabled": 0, "fusion_lon": 0.0, "bike_id": "2ea98531634b18c914ca0c3c0e52d2a4", "lon": -77.05310633333333, "rental_uris": {"ios": "https://dc.lft.to/lastmile_qr_scan", "android": "https://dc.lft.to/lastmile_qr_scan"}}, {"name": "c191fbd9474e2fa4c5eccc70c2e8288c", "fusion_lat": 0.0, "type": "electric_scooter", "lat": 38.93464733333333, "is_reserved": 0, "is_disabled": 0, "fusion_lon": 0.0, "bike_id": "c191fbd9474e2fa4c5eccc70c2e8288c", "lon": -77.08632316666667, "rental_uris": {"ios": "https://dc.lft.to/lastmile_qr_scan", "android": "https://dc.lft.to/lastmile_qr_scan"}}, {"name": "73d43db201dd66222434d46a00ba5fd8", "fusion_lat": 0.0, "type": "electric_scooter", "lat": 38.88780783333333, "is_reserved": 0, "is_disabled": 0, "fusion_lon": 0.0, "bike_id": "73d43db201dd66222434d46a00ba5fd8", "lon": -76.95534266666667, "rental_uris": {"ios": "https://dc.lft.to/lastmile_qr_scan", "android": "https://dc.lft.to/lastmile_qr_scan"}}, {"name": "5066670fca89486faa91cc5611819f76", "fusion_lat": 0.0, "type": "electric_scooter", "lat": 38.90564783333333, "is_reserved": 0, "is_disabled": 0, "fusion_lon": 0.0, "bike_id": "5066670fca89486faa91cc5611819f76", "lon": -77.05714033333334, "rental_uris": {"ios": "https://dc.lft.to/lastmile_qr_scan", "android": "https://dc.lft.to/lastmile_qr_scan"}}, {"name": "287ce7c6c651536670f358cd38883bfe", "fusion_lat": 0.0, "type": "electric_scooter", "lat": 38.8691775, "is_reserved": 0, "is_disabled": 0, "fusion_lon": 0.0, "bike_id": "287ce7c6c651536670f358cd38883bfe", "lon": -76.97500483333333, "rental_uris": {"ios": "https://dc.lft.to/lastmile_qr_scan", "android": "https://dc.lft.to/lastmile_qr_scan"}}, {"name": "28e639db91612a9d10cf74296d000d6e", "fusion_lat": 0.0, "type": "electric_scooter", "lat": 38.8956325, "is_reserved": 0, "is_disabled": 0, "fusion_lon": 0.0, "bike_id": "28e639db91612a9d10cf74296d000d6e", "lon": -77.046773, "rental_uris": {"ios": "https://dc.lft.to/lastmile_qr_scan", "android": "https://dc.lft.to/lastmile_qr_scan"}}, {"name": "6c0044191e80830eb853868f6867e92c", "fusion_lat": 0.0, "type": "electric_scooter", "lat": 38.94338283333333, "is_reserved": 0, "is_disabled": 0, "fusion_lon": 0.0, "bike_id": "6c0044191e80830eb853868f6867e92c", "lon": -77.060455, "rental_uris": {"ios": "https://dc.lft.to/lastmile_qr_scan", "android": "https://dc.lft.to/lastmile_qr_scan"}}, {"name": "5bcc9181f34500cfaaf9b72c88e3927d", "fusion_lat": 0.0, "type": "electric_scooter", "lat": 38.870800333333335, "is_reserved": 0, "is_disabled": 0, "fusion_lon": 0.0, "bike_id": "5bcc9181f34500cfaaf9b72c88e3927d", "lon": -77.011253, "rental_uris": {"ios": "https://dc.lft.to/lastmile_qr_scan", "android": "https://dc.lft.to/lastmile_qr_scan"}}, {"name": "e6a537222e99183995250eebc5314005", "fusion_lat": 0.0, "type": "electric_scooter", "lat": 38.91632716666667, "is_reserved": 0, "is_disabled": 0, "fusion_lon": 0.0, "bike_id": "e6a537222e99183995250eebc5314005", "lon": -77.00096483333333, "rental_uris": {"ios": "https://dc.lft.to/lastmile_qr_scan", "android": "https://dc.lft.to/lastmile_qr_scan"}}, {"name": "4385f932439a58de7fe457fa2cc55a0b", "fusion_lat": 0.0, "type": "electric_bike", "lat": 38.812423833333334, "is_reserved": 0, "is_disabled": 0, "fusion_lon": 0.0, "bike_id": "4385f932439a58de7fe457fa2cc55a0b", "lon": -77.1177815, "rental_uris": {"ios": "https://dc.lft.to/lastmile_qr_scan", "android": "https://dc.lft.to/lastmile_qr_scan"}}, {"name": "2af23d0ea4cddb79eed773d3a88895e9", "fusion_lat": 0.0, "type": "electric_scooter", "lat": 38.90376416666667, "is_reserved": 0, "is_disabled": 0, "fusion_lon": 0.0, "bike_id": "2af23d0ea4cddb79eed773d3a88895e9", "lon": -77.0344755, "rental_uris": {"ios": "https://dc.lft.to/lastmile_qr_scan", "android": "https://dc.lft.to/lastmile_qr_scan"}}, {"name": "2c23ebd585b7fc310298e37085e9da8d", "fusion_lat": 0.0, "type": "electric_bike", "lat": 38.9211215, "is_reserved": 0, "is_disabled": 0, "fusion_lon": 0.0, "bike_id": "2c23ebd585b7fc310298e37085e9da8d", "lon": -77.02910366666667, "rental_uris": {"ios": "https://dc.lft.to/lastmile_qr_scan", "android": "https://dc.lft.to/lastmile_qr_scan"}}, {"name": "cf29fb06e3148c3af622c859e8527b2e", "fusion_lat": 0.0, "type": "electric_scooter", "lat": 38.916886833333336, "is_reserved": 0, "is_disabled": 0, "fusion_lon": 0.0, "bike_id": "cf29fb06e3148c3af622c859e8527b2e", "lon": -77.03762366666666, "rental_uris": {"ios": "https://dc.lft.to/lastmile_qr_scan", "android": "https://dc.lft.to/lastmile_qr_scan"}}, {"name": "a1f38be2cb11b9ff27a0619f31c05d14", "fusion_lat": 0.0, "type": "electric_scooter", "lat": 38.93099016666667, "is_reserved": 0, "is_disabled": 0, "fusion_lon": 0.0, "bike_id": "a1f38be2cb11b9ff27a0619f31c05d14", "lon": -77.02449416666667, "rental_uris": {"ios": "https://dc.lft.to/lastmile_qr_scan", "android": "https://dc.lft.to/lastmile_qr_scan"}}, {"name": "b918f911e51c767283196208a5d0b263", "fusion_lat": 0.0, "type": "electric_scooter", "lat": 38.918297, "is_reserved": 0, "is_disabled": 0, "fusion_lon": 0.0, "bike_id": "b918f911e51c767283196208a5d0b263", "lon": -77.0240715, "rental_uris": {"ios": "https://dc.lft.to/lastmile_qr_scan", "android": "https://dc.lft.to/lastmile_qr_scan"}}, {"name": "88dfc4bbec3c224b3cb294bacd1cc3cb", "fusion_lat": 0.0, "type": "electric_scooter", "lat": 38.93961866666667, "is_reserved": 0, "is_disabled": 0, "fusion_lon": 0.0, "bike_id": "88dfc4bbec3c224b3cb294bacd1cc3cb", "lon": -77.02748433333333, "rental_uris": {"ios": "https://dc.lft.to/lastmile_qr_scan", "android": "https://dc.lft.to/lastmile_qr_scan"}}, {"name": "8182cc083df264039882bad5486a46d7", "fusion_lat": 0.0, "type": "electric_scooter", "lat": 38.9305885, "is_reserved": 0, "is_disabled": 0, "fusion_lon": 0.0, "bike_id": "8182cc083df264039882bad5486a46d7", "lon": -77.029746, "rental_uris": {"ios": "https://dc.lft.to/lastmile_qr_scan", "android": "https://dc.lft.to/lastmile_qr_scan"}}, {"name": "127768cae5aa9293b467ac6c0af5ddd3", "fusion_lat": 0.0, "type": "electric_scooter", "lat": 38.924485833333335, "is_reserved": 0, "is_disabled": 0, "fusion_lon": 0.0, "bike_id": "127768cae5aa9293b467ac6c0af5ddd3", "lon": -77.05242683333333, "rental_uris": {"ios": "https://dc.lft.to/lastmile_qr_scan", "android": "https://dc.lft.to/lastmile_qr_scan"}}, {"name": "a1a134456d25b232ffe08ae246f9c61b", "fusion_lat": 0.0, "type": "electric_bike", "lat": 38.856842666666665, "is_reserved": 0, "is_disabled": 0, "fusion_lon": 0.0, "bike_id": "a1a134456d25b232ffe08ae246f9c61b", "lon": -77.08538383333334, "rental_uris": {"ios": "https://dc.lft.to/lastmile_qr_scan", "android": "https://dc.lft.to/lastmile_qr_scan"}}, {"name": "3a63298e32cd7050d67fb0805141a0be", "fusion_lat": 0.0, "type": "electric_scooter", "lat": 38.93533433333333, "is_reserved": 0, "is_disabled": 0, "fusion_lon": 0.0, "bike_id": "3a63298e32cd7050d67fb0805141a0be", "lon": -77.02349183333334, "rental_uris": {"ios": "https://dc.lft.to/lastmile_qr_scan", "android": "https://dc.lft.to/lastmile_qr_scan"}}, {"name": "dd2bd9cce10692757e4628728a173ef6", "fusion_lat": 0.0, "type": "electric_bike", "lat": 38.99089883333333, "is_reserved": 0, "is_disabled": 0, "fusion_lon": 0.0, "bike_id": "dd2bd9cce10692757e4628728a173ef6", "lon": -76.87493483333333, "rental_uris": {"ios": "https://dc.lft.to/lastmile_qr_scan", "android": "https://dc.lft.to/lastmile_qr_scan"}}, {"name": "997f08f97d4e56e27940a017523bc3ea", "fusion_lat": 0.0, "type": "electric_scooter", "lat": 38.88404833333333, "is_reserved": 0, "is_disabled": 0, "fusion_lon": 0.0, "bike_id": "997f08f97d4e56e27940a017523bc3ea", "lon": -77.01536983333334, "rental_uris": {"ios": "https://dc.lft.to/lastmile_qr_scan", "android": "https://dc.lft.to/lastmile_qr_scan"}}, {"name": "8b82bac301f0681e38d5590841ebd19d", "fusion_lat": 0.0, "type": "electric_bike", "lat": 38.828739, "is_reserved": 0, "is_disabled": 0, "fusion_lon": 0.0, "bike_id": "8b82bac301f0681e38d5590841ebd19d", "lon": -77.11215933333334, "rental_uris": {"ios": "https://dc.lft.to/lastmile_qr_scan", "android": "https://dc.lft.to/lastmile_qr_scan"}}, {"name": "f8c3301a9809d1eb265be36b602c2baa", "fusion_lat": 0.0, "type": "electric_scooter", "lat": 38.897097333333335, "is_reserved": 0, "is_disabled": 0, "fusion_lon": 0.0, "bike_id": "f8c3301a9809d1eb265be36b602c2baa", "lon": -77.00841616666666, "rental_uris": {"ios": "https://dc.lft.to/lastmile_qr_scan", "android": "https://dc.lft.to/lastmile_qr_scan"}}, {"name": "4d01e6040bd1b180a5cb56eaafb59570", "fusion_lat": 0.0, "type": "electric_scooter", "lat": 38.89967383333333, "is_reserved": 0, "is_disabled": 0, "fusion_lon": 0.0, "bike_id": "4d01e6040bd1b180a5cb56eaafb59570", "lon": -77.057053, "rental_uris": {"ios": "https://dc.lft.to/lastmile_qr_scan", "android": "https://dc.lft.to/lastmile_qr_scan"}}, {"name": "8bbbfc93d92c659eac16c37609067835", "fusion_lat": 0.0, "type": "electric_scooter", "lat": 38.9101245, "is_reserved": 0, "is_disabled": 0, "fusion_lon": 0.0, "bike_id": "8bbbfc93d92c659eac16c37609067835", "lon": -77.03180183333333, "rental_uris": {"ios": "https://dc.lft.to/lastmile_qr_scan", "android": "https://dc.lft.to/lastmile_qr_scan"}}, {"name": "6d96604d23ef75a4409d9ff9c29fe350", "fusion_lat": 0.0, "type": "electric_scooter", "lat": 38.9110915, "is_reserved": 0, "is_disabled": 0, "fusion_lon": 0.0, "bike_id": "6d96604d23ef75a4409d9ff9c29fe350", "lon": -77.04502516666666, "rental_uris": {"ios": "https://dc.lft.to/lastmile_qr_scan", "android": "https://dc.lft.to/lastmile_qr_scan"}}, {"name": "db4fd25d656f7816b11fd64bc0bc643b", "fusion_lat": 0.0, "type": "electric_scooter", "lat": 38.900213666666666, "is_reserved": 0, "is_disabled": 0, "fusion_lon": 0.0, "bike_id": "db4fd25d656f7816b11fd64bc0bc643b", "lon": -77.04873883333333, "rental_uris": {"ios": "https://dc.lft.to/lastmile_qr_scan", "android": "https://dc.lft.to/lastmile_qr_scan"}}, {"name": "871be4a777eef49bc956e775150ecb84", "fusion_lat": 0.0, "type": "electric_scooter", "lat": 38.93106616666667, "is_reserved": 0, "is_disabled": 0, "fusion_lon": 0.0, "bike_id": "871be4a777eef49bc956e775150ecb84", "lon": -77.0240055, "rental_uris": {"ios": "https://dc.lft.to/lastmile_qr_scan", "android": "https://dc.lft.to/lastmile_qr_scan"}}, {"name": "2fb7337135cd96eb96e201751b0f6cb4", "fusion_lat": 0.0, "type": "electric_scooter", "lat": 38.9023965, "is_reserved": 0, "is_disabled": 0, "fusion_lon": 0.0, "bike_id": "2fb7337135cd96eb96e201751b0f6cb4", "lon": -76.99936816666667, "rental_uris": {"ios": "https://dc.lft.to/lastmile_qr_scan", "android": "https://dc.lft.to/lastmile_qr_scan"}}, {"name": "8abefeaed506527dfeefe05d9ef906e7", "fusion_lat": 0.0, "type": "electric_scooter", "lat": 38.93565666666667, "is_reserved": 0, "is_disabled": 0, "fusion_lon": 0.0, "bike_id": "8abefeaed506527dfeefe05d9ef906e7", "lon": -77.02137916666666, "rental_uris": {"ios": "https://dc.lft.to/lastmile_qr_scan", "android": "https://dc.lft.to/lastmile_qr_scan"}}, {"name": "00f2a71a2d8ef988712c945de2742836", "fusion_lat": 0.0, "type": "electric_scooter", "lat": 38.93567933333333, "is_reserved": 0, "is_disabled": 0, "fusion_lon": 0.0, "bike_id": "00f2a71a2d8ef988712c945de2742836", "lon": -77.02122716666666, "rental_uris": {"ios": "https://dc.lft.to/lastmile_qr_scan", "android": "https://dc.lft.to/lastmile_qr_scan"}}, {"name": "9ad3aa9cb7357e81661efc3f06593041", "fusion_lat": 0.0, "type": "electric_scooter", "lat": 38.90360416666667, "is_reserved": 0, "is_disabled": 0, "fusion_lon": 0.0, "bike_id": "9ad3aa9cb7357e81661efc3f06593041", "lon": -77.04000416666666, "rental_uris": {"ios": "https://dc.lft.to/lastmile_qr_scan", "android": "https://dc.lft.to/lastmile_qr_scan"}}, {"name": "37964a407e4fd5046b5f3b95ddf011c6", "fusion_lat": 0.0, "type": "electric_bike", "lat": 38.89770733333334, "is_reserved": 0, "is_disabled": 0, "fusion_lon": 0.0, "bike_id": "37964a407e4fd5046b5f3b95ddf011c6", "lon": -76.9043845, "rental_uris": {"ios": "https://dc.lft.to/lastmile_qr_scan", "android": "https://dc.lft.to/lastmile_qr_scan"}}, {"name": "874cb7506bbdf23c607252457cb55040", "fusion_lat": 0.0, "type": "electric_scooter", "lat": 38.90577783333333, "is_reserved": 0, "is_disabled": 0, "fusion_lon": 0.0, "bike_id": "874cb7506bbdf23c607252457cb55040", "lon": -77.00603866666667, "rental_uris": {"ios": "https://dc.lft.to/lastmile_qr_scan", "android": "https://dc.lft.to/lastmile_qr_scan"}}, {"name": "8d65e35907d53e6c8658ab5743b2f253", "fusion_lat": 0.0, "type": "electric_scooter", "lat": 38.9077735, "is_reserved": 0, "is_disabled": 0, "fusion_lon": 0.0, "bike_id": "8d65e35907d53e6c8658ab5743b2f253", "lon": -77.038176, "rental_uris": {"ios": "https://dc.lft.to/lastmile_qr_scan", "android": "https://dc.lft.to/lastmile_qr_scan"}}, {"name": "d2f701056d61c110f881f36c09f61d87", "fusion_lat": 0.0, "type": "electric_scooter", "lat": 38.89517566666667, "is_reserved": 0, "is_disabled": 0, "fusion_lon": 0.0, "bike_id": "d2f701056d61c110f881f36c09f61d87", "lon": -77.024316, "rental_uris": {"ios": "https://dc.lft.to/lastmile_qr_scan", "android": "https://dc.lft.to/lastmile_qr_scan"}}, {"name": "d8b9c98182db063f32c917f041c38d68", "fusion_lat": 0.0, "type": "electric_scooter", "lat": 38.93896133333333, "is_reserved": 0, "is_disabled": 0, "fusion_lon": 0.0, "bike_id": "d8b9c98182db063f32c917f041c38d68", "lon": -77.03283283333333, "rental_uris": {"ios": "https://dc.lft.to/lastmile_qr_scan", "android": "https://dc.lft.to/lastmile_qr_scan"}}, {"name": "cfc582ac7efba70ce039a0768eca6c55", "fusion_lat": 0.0, "type": "electric_scooter", "lat": 38.898421, "is_reserved": 0, "is_disabled": 0, "fusion_lon": 0.0, "bike_id": "cfc582ac7efba70ce039a0768eca6c55", "lon": -77.007387, "rental_uris": {"ios": "https://dc.lft.to/lastmile_qr_scan", "android": "https://dc.lft.to/lastmile_qr_scan"}}, {"name": "6fbe1b78e0900cac805d6be5840b60c9", "fusion_lat": 0.0, "type": "electric_scooter", "lat": 38.90880716666667, "is_reserved": 0, "is_disabled": 0, "fusion_lon": 0.0, "bike_id": "6fbe1b78e0900cac805d6be5840b60c9", "lon": -77.04668166666667, "rental_uris": {"ios": "https://dc.lft.to/lastmile_qr_scan", "android": "https://dc.lft.to/lastmile_qr_scan"}}, {"name": "fbe520bc4b8a2b8467b29d08a41981b6", "fusion_lat": 0.0, "type": "electric_scooter", "lat": 38.880350666666665, "is_reserved": 0, "is_disabled": 0, "fusion_lon": 0.0, "bike_id": "fbe520bc4b8a2b8467b29d08a41981b6", "lon": -76.92730383333334, "rental_uris": {"ios": "https://dc.lft.to/lastmile_qr_scan", "android": "https://dc.lft.to/lastmile_qr_scan"}}, {"name": "d5d0cec610b65579dd2158b658095519", "fusion_lat": 0.0, "type": "electric_scooter", "lat": 38.904926333333336, "is_reserved": 0, "is_disabled": 0, "fusion_lon": 0.0, "bike_id": "d5d0cec610b65579dd2158b658095519", "lon": -77.04341433333333, "rental_uris": {"ios": "https://dc.lft.to/lastmile_qr_scan", "android": "https://dc.lft.to/lastmile_qr_scan"}}, {"name": "86224d065ea4d65d4c1a084375897a6d", "fusion_lat": 0.0, "type": "electric_bike", "lat": 38.880387666666664, "is_reserved": 0, "is_disabled": 0, "fusion_lon": 0.0, "bike_id": "86224d065ea4d65d4c1a084375897a6d", "lon": -77.01321283333333, "rental_uris": {"ios": "https://dc.lft.to/lastmile_qr_scan", "android": "https://dc.lft.to/lastmile_qr_scan"}}, {"name": "77f747ea2845655eb6a02f7473f5f244", "fusion_lat": 0.0, "type": "electric_scooter", "lat": 38.90608116666667, "is_reserved": 0, "is_disabled": 0, "fusion_lon": 0.0, "bike_id": "77f747ea2845655eb6a02f7473f5f244", "lon": -77.036677, "rental_uris": {"ios": "https://dc.lft.to/lastmile_qr_scan", "android": "https://dc.lft.to/lastmile_qr_scan"}}, {"name": "5fd484563018b22ac1c5bdf986f9e680", "fusion_lat": 0.0, "type": "electric_scooter", "lat": 38.914079666666666, "is_reserved": 0, "is_disabled": 0, "fusion_lon": 0.0, "bike_id": "5fd484563018b22ac1c5bdf986f9e680", "lon": -77.0456555, "rental_uris": {"ios": "https://dc.lft.to/lastmile_qr_scan", "android": "https://dc.lft.to/lastmile_qr_scan"}}, {"name": "17178bb918263ac03e48eafd801ddfc1", "fusion_lat": 0.0, "type": "electric_bike", "lat": 38.90432533333333, "is_reserved": 0, "is_disabled": 0, "fusion_lon": 0.0, "bike_id": "17178bb918263ac03e48eafd801ddfc1", "lon": -77.0485935, "rental_uris": {"ios": "https://dc.lft.to/lastmile_qr_scan", "android": "https://dc.lft.to/lastmile_qr_scan"}}, {"name": "d536dfd4978ecd3e04fc1a3bf93895db", "fusion_lat": 0.0, "type": "electric_scooter", "lat": 38.9113425, "is_reserved": 0, "is_disabled": 0, "fusion_lon": 0.0, "bike_id": "d536dfd4978ecd3e04fc1a3bf93895db", "lon": -77.04194816666667, "rental_uris": {"ios": "https://dc.lft.to/lastmile_qr_scan", "android": "https://dc.lft.to/lastmile_qr_scan"}}, {"name": "46be917e3e6e86f6ed7b6f0e239ca0ee", "fusion_lat": 0.0, "type": "electric_bike", "lat": 38.852230166666665, "is_reserved": 0, "is_disabled": 0, "fusion_lon": 0.0, "bike_id": "46be917e3e6e86f6ed7b6f0e239ca0ee", "lon": -77.10336883333333, "rental_uris": {"ios": "https://dc.lft.to/lastmile_qr_scan", "android": "https://dc.lft.to/lastmile_qr_scan"}}, {"name": "bb2ec63220790a6cf56bde777c5906d8", "fusion_lat": 0.0, "type": "electric_scooter", "lat": 38.9339675, "is_reserved": 0, "is_disabled": 0, "fusion_lon": 0.0, "bike_id": "bb2ec63220790a6cf56bde777c5906d8", "lon": -77.02724433333333, "rental_uris": {"ios": "https://dc.lft.to/lastmile_qr_scan", "android": "https://dc.lft.to/lastmile_qr_scan"}}, {"name": "52399a9721c7e47ff2b00f35f18f28a9", "fusion_lat": 0.0, "type": "electric_scooter", "lat": 38.90278216666667, "is_reserved": 0, "is_disabled": 0, "fusion_lon": 0.0, "bike_id": "52399a9721c7e47ff2b00f35f18f28a9", "lon": -77.0460165, "rental_uris": {"ios": "https://dc.lft.to/lastmile_qr_scan", "android": "https://dc.lft.to/lastmile_qr_scan"}}, {"name": "27e026647c60e5c870e556e178cb630c", "fusion_lat": 0.0, "type": "electric_bike", "lat": 38.93771683333333, "is_reserved": 0, "is_disabled": 0, "fusion_lon": 0.0, "bike_id": "27e026647c60e5c870e556e178cb630c", "lon": -77.0191095, "rental_uris": {"ios": "https://dc.lft.to/lastmile_qr_scan", "android": "https://dc.lft.to/lastmile_qr_scan"}}, {"name": "f661ba58efc34db15afe83993a16a2d8", "fusion_lat": 0.0, "type": "electric_scooter", "lat": 38.9012645, "is_reserved": 0, "is_disabled": 0, "fusion_lon": 0.0, "bike_id": "f661ba58efc34db15afe83993a16a2d8", "lon": -77.04998333333333, "rental_uris": {"ios": "https://dc.lft.to/lastmile_qr_scan", "android": "https://dc.lft.to/lastmile_qr_scan"}}, {"name": "c6bb877602b5b7d280135f91a1e30e34", "fusion_lat": 0.0, "type": "electric_scooter", "lat": 38.89288033333333, "is_reserved": 0, "is_disabled": 0, "fusion_lon": 0.0, "bike_id": "c6bb877602b5b7d280135f91a1e30e34", "lon": -77.01372933333333, "rental_uris": {"ios": "https://dc.lft.to/lastmile_qr_scan", "android": "https://dc.lft.to/lastmile_qr_scan"}}, {"name": "63774c22d2986fee8140de22e727a149", "fusion_lat": 0.0, "type": "electric_scooter", "lat": 38.9338875, "is_reserved": 0, "is_disabled": 0, "fusion_lon": 0.0, "bike_id": "63774c22d2986fee8140de22e727a149", "lon": -77.0315265, "rental_uris": {"ios": "https://dc.lft.to/lastmile_qr_scan", "android": "https://dc.lft.to/lastmile_qr_scan"}}, {"name": "4a8429d002c1b7a6d1dc98b000879cc7", "fusion_lat": 0.0, "type": "electric_scooter", "lat": 38.90349033333333, "is_reserved": 0, "is_disabled": 0, "fusion_lon": 0.0, "bike_id": "4a8429d002c1b7a6d1dc98b000879cc7", "lon": -77.0382465, "rental_uris": {"ios": "https://dc.lft.to/lastmile_qr_scan", "android": "https://dc.lft.to/lastmile_qr_scan"}}, {"name": "bf330df17c2929582c9f57dfa940c7ef", "fusion_lat": 0.0, "type": "electric_scooter", "lat": 38.904311166666666, "is_reserved": 0, "is_disabled": 0, "fusion_lon": 0.0, "bike_id": "bf330df17c2929582c9f57dfa940c7ef", "lon": -77.03467966666666, "rental_uris": {"ios": "https://dc.lft.to/lastmile_qr_scan", "android": "https://dc.lft.to/lastmile_qr_scan"}}, {"name": "615746bb09ef08bba11c2d0e1616c1ee", "fusion_lat": 0.0, "type": "electric_scooter", "lat": 38.87644483333333, "is_reserved": 0, "is_disabled": 0, "fusion_lon": 0.0, "bike_id": "615746bb09ef08bba11c2d0e1616c1ee", "lon": -76.96504583333333, "rental_uris": {"ios": "https://dc.lft.to/lastmile_qr_scan", "android": "https://dc.lft.to/lastmile_qr_scan"}}, {"name": "4cb607fe349685971ca3ec3963f1e1b1", "fusion_lat": 0.0, "type": "electric_scooter", "lat": 38.890210833333335, "is_reserved": 0, "is_disabled": 0, "fusion_lon": 0.0, "bike_id": "4cb607fe349685971ca3ec3963f1e1b1", "lon": -76.93506816666667, "rental_uris": {"ios": "https://dc.lft.to/lastmile_qr_scan", "android": "https://dc.lft.to/lastmile_qr_scan"}}, {"name": "0c51f5f5ca1896edc9b508df140076eb", "fusion_lat": 0.0, "type": "electric_scooter", "lat": 38.921511833333334, "is_reserved": 0, "is_disabled": 0, "fusion_lon": 0.0, "bike_id": "0c51f5f5ca1896edc9b508df140076eb", "lon": -77.03867866666667, "rental_uris": {"ios": "https://dc.lft.to/lastmile_qr_scan", "android": "https://dc.lft.to/lastmile_qr_scan"}}, {"name": "b1a955e40685d97b1e3934e54306900d", "fusion_lat": 0.0, "type": "electric_scooter", "lat": 38.90505533333334, "is_reserved": 0, "is_disabled": 0, "fusion_lon": 0.0, "bike_id": "b1a955e40685d97b1e3934e54306900d", "lon": -76.994468, "rental_uris": {"ios": "https://dc.lft.to/lastmile_qr_scan", "android": "https://dc.lft.to/lastmile_qr_scan"}}, {"name": "12a261771ff043d28fa189b254796274", "fusion_lat": 0.0, "type": "electric_scooter", "lat": 38.906693833333335, "is_reserved": 0, "is_disabled": 0, "fusion_lon": 0.0, "bike_id": "12a261771ff043d28fa189b254796274", "lon": -77.02695866666667, "rental_uris": {"ios": "https://dc.lft.to/lastmile_qr_scan", "android": "https://dc.lft.to/lastmile_qr_scan"}}, {"name": "7ae738807644184c54a35aff2897b032", "fusion_lat": 0.0, "type": "electric_bike", "lat": 38.928026333333335, "is_reserved": 0, "is_disabled": 0, "fusion_lon": 0.0, "bike_id": "7ae738807644184c54a35aff2897b032", "lon": -77.04364583333333, "rental_uris": {"ios": "https://dc.lft.to/lastmile_qr_scan", "android": "https://dc.lft.to/lastmile_qr_scan"}}, {"name": "0b3c062bcb2fd392316fe34daac7c42d", "fusion_lat": 0.0, "type": "electric_scooter", "lat": 38.866536833333335, "is_reserved": 0, "is_disabled": 0, "fusion_lon": 0.0, "bike_id": "0b3c062bcb2fd392316fe34daac7c42d", "lon": -76.98890033333333, "rental_uris": {"ios": "https://dc.lft.to/lastmile_qr_scan", "android": "https://dc.lft.to/lastmile_qr_scan"}}, {"name": "b22bdb0da1f4f600f6f50e9dd6d19017", "fusion_lat": 0.0, "type": "electric_scooter", "lat": 38.881046833333336, "is_reserved": 0, "is_disabled": 0, "fusion_lon": 0.0, "bike_id": "b22bdb0da1f4f600f6f50e9dd6d19017", "lon": -77.01208583333333, "rental_uris": {"ios": "https://dc.lft.to/lastmile_qr_scan", "android": "https://dc.lft.to/lastmile_qr_scan"}}, {"name": "5603365c02887dea895fb8a8e338c700", "fusion_lat": 0.0, "type": "electric_scooter", "lat": 38.90026, "is_reserved": 0, "is_disabled": 0, "fusion_lon": 0.0, "bike_id": "5603365c02887dea895fb8a8e338c700", "lon": -76.99858916666666, "rental_uris": {"ios": "https://dc.lft.to/lastmile_qr_scan", "android": "https://dc.lft.to/lastmile_qr_scan"}}, {"name": "7e36b488b258923a428963acb2d082e8", "fusion_lat": 0.0, "type": "electric_scooter", "lat": 38.898504333333335, "is_reserved": 0, "is_disabled": 0, "fusion_lon": 0.0, "bike_id": "7e36b488b258923a428963acb2d082e8", "lon": -77.01610383333333, "rental_uris": {"ios": "https://dc.lft.to/lastmile_qr_scan", "android": "https://dc.lft.to/lastmile_qr_scan"}}, {"name": "4c5708d23bab2f456094126c0e3bb3b1", "fusion_lat": 0.0, "type": "electric_scooter", "lat": 38.87157766666667, "is_reserved": 0, "is_disabled": 0, "fusion_lon": 0.0, "bike_id": "4c5708d23bab2f456094126c0e3bb3b1", "lon": -77.00601983333334, "rental_uris": {"ios": "https://dc.lft.to/lastmile_qr_scan", "android": "https://dc.lft.to/lastmile_qr_scan"}}, {"name": "ff894c57428e4dd3a9b99b990e101be2", "fusion_lat": 0.0, "type": "electric_scooter", "lat": 38.927437833333336, "is_reserved": 0, "is_disabled": 0, "fusion_lon": 0.0, "bike_id": "ff894c57428e4dd3a9b99b990e101be2", "lon": -77.0249445, "rental_uris": {"ios": "https://dc.lft.to/lastmile_qr_scan", "android": "https://dc.lft.to/lastmile_qr_scan"}}, {"name": "9b4c8e0b1dfddd974fc675952036b648", "fusion_lat": 0.0, "type": "electric_bike", "lat": 38.918735, "is_reserved": 0, "is_disabled": 0, "fusion_lon": 0.0, "bike_id": "9b4c8e0b1dfddd974fc675952036b648", "lon": -77.03504666666667, "rental_uris": {"ios": "https://dc.lft.to/lastmile_qr_scan", "android": "https://dc.lft.to/lastmile_qr_scan"}}, {"name": "2f3151c849954f37e72be1f7b4e14d1b", "fusion_lat": 0.0, "type": "electric_scooter", "lat": 38.936162, "is_reserved": 0, "is_disabled": 0, "fusion_lon": 0.0, "bike_id": "2f3151c849954f37e72be1f7b4e14d1b", "lon": -77.0320895, "rental_uris": {"ios": "https://dc.lft.to/lastmile_qr_scan", "android": "https://dc.lft.to/lastmile_qr_scan"}}, {"name": "3e1abf2486f56232f1dd171cdc752153", "fusion_lat": 0.0, "type": "electric_scooter", "lat": 38.910122666666666, "is_reserved": 0, "is_disabled": 0, "fusion_lon": 0.0, "bike_id": "3e1abf2486f56232f1dd171cdc752153", "lon": -76.99672033333333, "rental_uris": {"ios": "https://dc.lft.to/lastmile_qr_scan", "android": "https://dc.lft.to/lastmile_qr_scan"}}, {"name": "cde5bbaf26901811a544c057a78023e1", "fusion_lat": 0.0, "type": "electric_scooter", "lat": 38.9370235, "is_reserved": 0, "is_disabled": 0, "fusion_lon": 0.0, "bike_id": "cde5bbaf26901811a544c057a78023e1", "lon": -77.061018, "rental_uris": {"ios": "https://dc.lft.to/lastmile_qr_scan", "android": "https://dc.lft.to/lastmile_qr_scan"}}, {"name": "47c9f82de28edda1dc95acb638647778", "fusion_lat": 0.0, "type": "electric_scooter", "lat": 38.944044166666664, "is_reserved": 0, "is_disabled": 0, "fusion_lon": 0.0, "bike_id": "47c9f82de28edda1dc95acb638647778", "lon": -77.06334616666666, "rental_uris": {"ios": "https://dc.lft.to/lastmile_qr_scan", "android": "https://dc.lft.to/lastmile_qr_scan"}}, {"name": "72e5a78bdd48939810b21207fd78257e", "fusion_lat": 0.0, "type": "electric_scooter", "lat": 38.9312525, "is_reserved": 0, "is_disabled": 0, "fusion_lon": 0.0, "bike_id": "72e5a78bdd48939810b21207fd78257e", "lon": -77.03604916666667, "rental_uris": {"ios": "https://dc.lft.to/lastmile_qr_scan", "android": "https://dc.lft.to/lastmile_qr_scan"}}, {"name": "a0a17ea192a756331070f6b159831b34", "fusion_lat": 0.0, "type": "electric_scooter", "lat": 38.896286, "is_reserved": 0, "is_disabled": 0, "fusion_lon": 0.0, "bike_id": "a0a17ea192a756331070f6b159831b34", "lon": -77.04662683333333, "rental_uris": {"ios": "https://dc.lft.to/lastmile_qr_scan", "android": "https://dc.lft.to/lastmile_qr_scan"}}, {"name": "a677d0f231eb966fa2fbe2824def79f2", "fusion_lat": 0.0, "type": "electric_bike", "lat": 38.869093666666664, "is_reserved": 0, "is_disabled": 0, "fusion_lon": 0.0, "bike_id": "a677d0f231eb966fa2fbe2824def79f2", "lon": -77.13177216666666, "rental_uris": {"ios": "https://dc.lft.to/lastmile_qr_scan", "android": "https://dc.lft.to/lastmile_qr_scan"}}, {"name": "40327db2a7e628ec73f17caca7146cde", "fusion_lat": 0.0, "type": "electric_scooter", "lat": 38.9069395, "is_reserved": 0, "is_disabled": 0, "fusion_lon": 0.0, "bike_id": "40327db2a7e628ec73f17caca7146cde", "lon": -77.02399066666666, "rental_uris": {"ios": "https://dc.lft.to/lastmile_qr_scan", "android": "https://dc.lft.to/lastmile_qr_scan"}}, {"name": "07c3950e1f24cf2ba79f8e0a6eee9d77", "fusion_lat": 0.0, "type": "electric_scooter", "lat": 38.917573833333336, "is_reserved": 0, "is_disabled": 0, "fusion_lon": 0.0, "bike_id": "07c3950e1f24cf2ba79f8e0a6eee9d77", "lon": -77.02710366666666, "rental_uris": {"ios": "https://dc.lft.to/lastmile_qr_scan", "android": "https://dc.lft.to/lastmile_qr_scan"}}, {"name": "31b58c8f89d0fc8397d03eba27afcba2", "fusion_lat": 0.0, "type": "electric_scooter", "lat": 38.909673166666664, "is_reserved": 0, "is_disabled": 0, "fusion_lon": 0.0, "bike_id": "31b58c8f89d0fc8397d03eba27afcba2", "lon": -77.02176216666666, "rental_uris": {"ios": "https://dc.lft.to/lastmile_qr_scan", "android": "https://dc.lft.to/lastmile_qr_scan"}}, {"name": "891f64a5a28c5eaa6c6240cce0153cef", "fusion_lat": 0.0, "type": "electric_scooter", "lat": 38.84426933333334, "is_reserved": 0, "is_disabled": 0, "fusion_lon": 0.0, "bike_id": "891f64a5a28c5eaa6c6240cce0153cef", "lon": -76.9977815, "rental_uris": {"ios": "https://dc.lft.to/lastmile_qr_scan", "android": "https://dc.lft.to/lastmile_qr_scan"}}, {"name": "a749d37845576d054990a53df9097155", "fusion_lat": 0.0, "type": "electric_bike", "lat": 38.90797766666667, "is_reserved": 0, "is_disabled": 0, "fusion_lon": 0.0, "bike_id": "a749d37845576d054990a53df9097155", "lon": -77.03187816666667, "rental_uris": {"ios": "https://dc.lft.to/lastmile_qr_scan", "android": "https://dc.lft.to/lastmile_qr_scan"}}, {"name": "78583441a59aeb09048058027caf76db", "fusion_lat": 0.0, "type": "electric_bike", "lat": 38.834361, "is_reserved": 0, "is_disabled": 0, "fusion_lon": 0.0, "bike_id": "78583441a59aeb09048058027caf76db", "lon": -77.008241, "rental_uris": {"ios": "https://dc.lft.to/lastmile_qr_scan", "android": "https://dc.lft.to/lastmile_qr_scan"}}, {"name": "15799611929c2241d644d496fe65de37", "fusion_lat": 0.0, "type": "electric_scooter", "lat": 38.89363683333333, "is_reserved": 0, "is_disabled": 0, "fusion_lon": 0.0, "bike_id": "15799611929c2241d644d496fe65de37", "lon": -76.94981383333334, "rental_uris": {"ios": "https://dc.lft.to/lastmile_qr_scan", "android": "https://dc.lft.to/lastmile_qr_scan"}}, {"name": "350f6ad92aa51fc576e83ba9bd2a3b1c", "fusion_lat": 0.0, "type": "electric_scooter", "lat": 38.8922105, "is_reserved": 0, "is_disabled": 0, "fusion_lon": 0.0, "bike_id": "350f6ad92aa51fc576e83ba9bd2a3b1c", "lon": -77.01373083333333, "rental_uris": {"ios": "https://dc.lft.to/lastmile_qr_scan", "android": "https://dc.lft.to/lastmile_qr_scan"}}, {"name": "6673c4878c0e72dc6a1fbe34b40a10ee", "fusion_lat": 0.0, "type": "electric_scooter", "lat": 38.9104635, "is_reserved": 0, "is_disabled": 0, "fusion_lon": 0.0, "bike_id": "6673c4878c0e72dc6a1fbe34b40a10ee", "lon": -77.0425535, "rental_uris": {"ios": "https://dc.lft.to/lastmile_qr_scan", "android": "https://dc.lft.to/lastmile_qr_scan"}}, {"name": "c521d3e089e3a534361289d13d16b651", "fusion_lat": 0.0, "type": "electric_scooter", "lat": 38.900422166666665, "is_reserved": 0, "is_disabled": 0, "fusion_lon": 0.0, "bike_id": "c521d3e089e3a534361289d13d16b651", "lon": -76.9881515, "rental_uris": {"ios": "https://dc.lft.to/lastmile_qr_scan", "android": "https://dc.lft.to/lastmile_qr_scan"}}, {"name": "5be35e2f31df04ce94da008ba2cebddc", "fusion_lat": 0.0, "type": "electric_scooter", "lat": 38.91109566666667, "is_reserved": 0, "is_disabled": 0, "fusion_lon": 0.0, "bike_id": "5be35e2f31df04ce94da008ba2cebddc", "lon": -77.03918416666667, "rental_uris": {"ios": "https://dc.lft.to/lastmile_qr_scan", "android": "https://dc.lft.to/lastmile_qr_scan"}}, {"name": "2479b656b92acacf711f691dd62a75dd", "fusion_lat": 0.0, "type": "electric_scooter", "lat": 38.9315545, "is_reserved": 0, "is_disabled": 0, "fusion_lon": 0.0, "bike_id": "2479b656b92acacf711f691dd62a75dd", "lon": -77.02963933333334, "rental_uris": {"ios": "https://dc.lft.to/lastmile_qr_scan", "android": "https://dc.lft.to/lastmile_qr_scan"}}, {"name": "103125cba470fdd8d05559219a5930ab", "fusion_lat": 0.0, "type": "electric_scooter", "lat": 38.874777, "is_reserved": 0, "is_disabled": 0, "fusion_lon": 0.0, "bike_id": "103125cba470fdd8d05559219a5930ab", "lon": -77.01068816666667, "rental_uris": {"ios": "https://dc.lft.to/lastmile_qr_scan", "android": "https://dc.lft.to/lastmile_qr_scan"}}, {"name": "e46131d82821ab27c314530ad42b837e", "fusion_lat": 0.0, "type": "electric_scooter", "lat": 38.90391, "is_reserved": 0, "is_disabled": 0, "fusion_lon": 0.0, "bike_id": "e46131d82821ab27c314530ad42b837e", "lon": -76.98943083333333, "rental_uris": {"ios": "https://dc.lft.to/lastmile_qr_scan", "android": "https://dc.lft.to/lastmile_qr_scan"}}, {"name": "35b6435caf2032d58030ed035c5821e0", "fusion_lat": 0.0, "type": "electric_bike", "lat": 38.8964845, "is_reserved": 0, "is_disabled": 0, "fusion_lon": 0.0, "bike_id": "35b6435caf2032d58030ed035c5821e0", "lon": -77.10453616666666, "rental_uris": {"ios": "https://dc.lft.to/lastmile_qr_scan", "android": "https://dc.lft.to/lastmile_qr_scan"}}, {"name": "9dfc8c477fdfa77646bd211d633c4a95", "fusion_lat": 0.0, "type": "electric_scooter", "lat": 38.896756833333335, "is_reserved": 0, "is_disabled": 0, "fusion_lon": 0.0, "bike_id": "9dfc8c477fdfa77646bd211d633c4a95", "lon": -76.94730916666667, "rental_uris": {"ios": "https://dc.lft.to/lastmile_qr_scan", "android": "https://dc.lft.to/lastmile_qr_scan"}}, {"name": "8b13d41302d5a112c55118d33f004626", "fusion_lat": 0.0, "type": "electric_scooter", "lat": 38.914092, "is_reserved": 0, "is_disabled": 0, "fusion_lon": 0.0, "bike_id": "8b13d41302d5a112c55118d33f004626", "lon": -77.00975066666666, "rental_uris": {"ios": "https://dc.lft.to/lastmile_qr_scan", "android": "https://dc.lft.to/lastmile_qr_scan"}}, {"name": "a0c9aa72fb9407f48cdf4d971283a7d8", "fusion_lat": 0.0, "type": "electric_scooter", "lat": 38.911099166666666, "is_reserved": 0, "is_disabled": 0, "fusion_lon": 0.0, "bike_id": "a0c9aa72fb9407f48cdf4d971283a7d8", "lon": -77.04506616666667, "rental_uris": {"ios": "https://dc.lft.to/lastmile_qr_scan", "android": "https://dc.lft.to/lastmile_qr_scan"}}, {"name": "87773641ea3f58f23b08604c608c254c", "fusion_lat": 0.0, "type": "electric_bike", "lat": 38.86869733333333, "is_reserved": 0, "is_disabled": 0, "fusion_lon": 0.0, "bike_id": "87773641ea3f58f23b08604c608c254c", "lon": -76.9166185, "rental_uris": {"ios": "https://dc.lft.to/lastmile_qr_scan", "android": "https://dc.lft.to/lastmile_qr_scan"}}, {"name": "1be27f94e18a165732ae23c80589cc56", "fusion_lat": 0.0, "type": "electric_scooter", "lat": 38.896572, "is_reserved": 0, "is_disabled": 0, "fusion_lon": 0.0, "bike_id": "1be27f94e18a165732ae23c80589cc56", "lon": -76.948416, "rental_uris": {"ios": "https://dc.lft.to/lastmile_qr_scan", "android": "https://dc.lft.to/lastmile_qr_scan"}}, {"name": "78a9bd3c6683f76263fa846649bad77c", "fusion_lat": 0.0, "type": "electric_scooter", "lat": 38.879196666666665, "is_reserved": 0, "is_disabled": 0, "fusion_lon": 0.0, "bike_id": "78a9bd3c6683f76263fa846649bad77c", "lon": -76.99256483333333, "rental_uris": {"ios": "https://dc.lft.to/lastmile_qr_scan", "android": "https://dc.lft.to/lastmile_qr_scan"}}, {"name": "22a7b546aa9c3337e76ac6c43451c727", "fusion_lat": 0.0, "type": "electric_scooter", "lat": 38.918729, "is_reserved": 0, "is_disabled": 0, "fusion_lon": 0.0, "bike_id": "22a7b546aa9c3337e76ac6c43451c727", "lon": -77.023063, "rental_uris": {"ios": "https://dc.lft.to/lastmile_qr_scan", "android": "https://dc.lft.to/lastmile_qr_scan"}}, {"name": "38ffb91ca21b23d5c54d610e0647c169", "fusion_lat": 0.0, "type": "electric_scooter", "lat": 38.8741815, "is_reserved": 0, "is_disabled": 0, "fusion_lon": 0.0, "bike_id": "38ffb91ca21b23d5c54d610e0647c169", "lon": -76.9608865, "rental_uris": {"ios": "https://dc.lft.to/lastmile_qr_scan", "android": "https://dc.lft.to/lastmile_qr_scan"}}, {"name": "4941e6e56bb597df3bb6763cbfa8789c", "fusion_lat": 0.0, "type": "electric_scooter", "lat": 38.918221, "is_reserved": 0, "is_disabled": 0, "fusion_lon": 0.0, "bike_id": "4941e6e56bb597df3bb6763cbfa8789c", "lon": -77.0383765, "rental_uris": {"ios": "https://dc.lft.to/lastmile_qr_scan", "android": "https://dc.lft.to/lastmile_qr_scan"}}, {"name": "9f8f063105c4bea0b04e92ff38550bef", "fusion_lat": 0.0, "type": "electric_scooter", "lat": 38.94291583333333, "is_reserved": 0, "is_disabled": 0, "fusion_lon": 0.0, "bike_id": "9f8f063105c4bea0b04e92ff38550bef", "lon": -77.0217065, "rental_uris": {"ios": "https://dc.lft.to/lastmile_qr_scan", "android": "https://dc.lft.to/lastmile_qr_scan"}}, {"name": "b8d5e0aa467e60e92ae344ec7050ce58", "fusion_lat": 0.0, "type": "electric_scooter", "lat": 38.909794833333336, "is_reserved": 0, "is_disabled": 0, "fusion_lon": 0.0, "bike_id": "b8d5e0aa467e60e92ae344ec7050ce58", "lon": -77.06713066666667, "rental_uris": {"ios": "https://dc.lft.to/lastmile_qr_scan", "android": "https://dc.lft.to/lastmile_qr_scan"}}, {"name": "28961ea2b5976a1fa933c374a8d155d9", "fusion_lat": 0.0, "type": "electric_scooter", "lat": 38.89221333333333, "is_reserved": 0, "is_disabled": 0, "fusion_lon": 0.0, "bike_id": "28961ea2b5976a1fa933c374a8d155d9", "lon": -77.03017783333334, "rental_uris": {"ios": "https://dc.lft.to/lastmile_qr_scan", "android": "https://dc.lft.to/lastmile_qr_scan"}}, {"name": "7d01c52ba64d7f5e49c34292810841d3", "fusion_lat": 0.0, "type": "electric_scooter", "lat": 38.905593333333336, "is_reserved": 0, "is_disabled": 0, "fusion_lon": 0.0, "bike_id": "7d01c52ba64d7f5e49c34292810841d3", "lon": -77.00187816666667, "rental_uris": {"ios": "https://dc.lft.to/lastmile_qr_scan", "android": "https://dc.lft.to/lastmile_qr_scan"}}, {"name": "fc008c1aee1a18e4941b6fe2da22623c", "fusion_lat": 0.0, "type": "electric_scooter", "lat": 38.88601933333333, "is_reserved": 0, "is_disabled": 0, "fusion_lon": 0.0, "bike_id": "fc008c1aee1a18e4941b6fe2da22623c", "lon": -77.02186983333333, "rental_uris": {"ios": "https://dc.lft.to/lastmile_qr_scan", "android": "https://dc.lft.to/lastmile_qr_scan"}}, {"name": "c9944e29801f52f24ce1f59d4c53b58b", "fusion_lat": 0.0, "type": "electric_bike", "lat": 38.940711666666665, "is_reserved": 0, "is_disabled": 0, "fusion_lon": 0.0, "bike_id": "c9944e29801f52f24ce1f59d4c53b58b", "lon": -77.038231, "rental_uris": {"ios": "https://dc.lft.to/lastmile_qr_scan", "android": "https://dc.lft.to/lastmile_qr_scan"}}, {"name": "6c573dfe7f49c54b3ea83f4fe2531200", "fusion_lat": 0.0, "type": "electric_scooter", "lat": 38.89965733333333, "is_reserved": 0, "is_disabled": 0, "fusion_lon": 0.0, "bike_id": "6c573dfe7f49c54b3ea83f4fe2531200", "lon": -77.02963266666667, "rental_uris": {"ios": "https://dc.lft.to/lastmile_qr_scan", "android": "https://dc.lft.to/lastmile_qr_scan"}}, {"name": "1ed376f4bce38c27a298ada8850c9990", "fusion_lat": 0.0, "type": "electric_scooter", "lat": 38.904184666666666, "is_reserved": 0, "is_disabled": 0, "fusion_lon": 0.0, "bike_id": "1ed376f4bce38c27a298ada8850c9990", "lon": -77.05320783333333, "rental_uris": {"ios": "https://dc.lft.to/lastmile_qr_scan", "android": "https://dc.lft.to/lastmile_qr_scan"}}, {"name": "abc073b89e810ff26eafe7edce1d24f9", "fusion_lat": 0.0, "type": "electric_scooter", "lat": 38.860692, "is_reserved": 0, "is_disabled": 0, "fusion_lon": 0.0, "bike_id": "abc073b89e810ff26eafe7edce1d24f9", "lon": -76.96737233333333, "rental_uris": {"ios": "https://dc.lft.to/lastmile_qr_scan", "android": "https://dc.lft.to/lastmile_qr_scan"}}, {"name": "b1f8592e0ba1c320012d67370dee5b89", "fusion_lat": 0.0, "type": "electric_scooter", "lat": 38.91936166666667, "is_reserved": 0, "is_disabled": 0, "fusion_lon": 0.0, "bike_id": "b1f8592e0ba1c320012d67370dee5b89", "lon": -77.04548266666667, "rental_uris": {"ios": "https://dc.lft.to/lastmile_qr_scan", "android": "https://dc.lft.to/lastmile_qr_scan"}}, {"name": "c981dc067af6acc7c91b56298dec023d", "fusion_lat": 0.0, "type": "electric_scooter", "lat": 38.911943, "is_reserved": 0, "is_disabled": 0, "fusion_lon": 0.0, "bike_id": "c981dc067af6acc7c91b56298dec023d", "lon": -77.03842883333333, "rental_uris": {"ios": "https://dc.lft.to/lastmile_qr_scan", "android": "https://dc.lft.to/lastmile_qr_scan"}}, {"name": "38a56bf1ada47cf6e43b5f479da9d572", "fusion_lat": 0.0, "type": "electric_scooter", "lat": 38.90119283333333, "is_reserved": 0, "is_disabled": 0, "fusion_lon": 0.0, "bike_id": "38a56bf1ada47cf6e43b5f479da9d572", "lon": -77.049961, "rental_uris": {"ios": "https://dc.lft.to/lastmile_qr_scan", "android": "https://dc.lft.to/lastmile_qr_scan"}}, {"name": "092826447b43f5bee72608a658d5ff45", "fusion_lat": 0.0, "type": "electric_scooter", "lat": 38.934818666666665, "is_reserved": 0, "is_disabled": 0, "fusion_lon": 0.0, "bike_id": "092826447b43f5bee72608a658d5ff45", "lon": -77.07264016666667, "rental_uris": {"ios": "https://dc.lft.to/lastmile_qr_scan", "android": "https://dc.lft.to/lastmile_qr_scan"}}, {"name": "883860fb49fce3d5443d3cd741262fe6", "fusion_lat": 0.0, "type": "electric_scooter", "lat": 38.9066345, "is_reserved": 0, "is_disabled": 0, "fusion_lon": 0.0, "bike_id": "883860fb49fce3d5443d3cd741262fe6", "lon": -77.0270865, "rental_uris": {"ios": "https://dc.lft.to/lastmile_qr_scan", "android": "https://dc.lft.to/lastmile_qr_scan"}}, {"name": "ee0165f82fca51e1daf7b9136164c579", "fusion_lat": 0.0, "type": "electric_scooter", "lat": 38.914727666666664, "is_reserved": 0, "is_disabled": 0, "fusion_lon": 0.0, "bike_id": "ee0165f82fca51e1daf7b9136164c579", "lon": -76.98110266666667, "rental_uris": {"ios": "https://dc.lft.to/lastmile_qr_scan", "android": "https://dc.lft.to/lastmile_qr_scan"}}, {"name": "d3ba0ee167bfb5eba4cc443ef4ae8549", "fusion_lat": 0.0, "type": "electric_scooter", "lat": 38.93355366666667, "is_reserved": 0, "is_disabled": 0, "fusion_lon": 0.0, "bike_id": "d3ba0ee167bfb5eba4cc443ef4ae8549", "lon": -77.03448866666666, "rental_uris": {"ios": "https://dc.lft.to/lastmile_qr_scan", "android": "https://dc.lft.to/lastmile_qr_scan"}}, {"name": "787b55cfa39af7f7e684992a23ba8e46", "fusion_lat": 0.0, "type": "electric_scooter", "lat": 38.92208266666667, "is_reserved": 0, "is_disabled": 0, "fusion_lon": 0.0, "bike_id": "787b55cfa39af7f7e684992a23ba8e46", "lon": -77.04309866666667, "rental_uris": {"ios": "https://dc.lft.to/lastmile_qr_scan", "android": "https://dc.lft.to/lastmile_qr_scan"}}, {"name": "66dea3eea1d6c55d5f5ab763aea9e6f8", "fusion_lat": 0.0, "type": "electric_scooter", "lat": 38.91693316666667, "is_reserved": 0, "is_disabled": 0, "fusion_lon": 0.0, "bike_id": "66dea3eea1d6c55d5f5ab763aea9e6f8", "lon": -77.04337533333333, "rental_uris": {"ios": "https://dc.lft.to/lastmile_qr_scan", "android": "https://dc.lft.to/lastmile_qr_scan"}}, {"name": "54bee817c8956d6acc158ccf782c0360", "fusion_lat": 0.0, "type": "electric_scooter", "lat": 38.928226333333335, "is_reserved": 0, "is_disabled": 0, "fusion_lon": 0.0, "bike_id": "54bee817c8956d6acc158ccf782c0360", "lon": -77.02258983333333, "rental_uris": {"ios": "https://dc.lft.to/lastmile_qr_scan", "android": "https://dc.lft.to/lastmile_qr_scan"}}, {"name": "16a86a3dcd30abd68bd085ce7ede9f24", "fusion_lat": 0.0, "type": "electric_scooter", "lat": 38.89999433333333, "is_reserved": 0, "is_disabled": 0, "fusion_lon": 0.0, "bike_id": "16a86a3dcd30abd68bd085ce7ede9f24", "lon": -77.053393, "rental_uris": {"ios": "https://dc.lft.to/lastmile_qr_scan", "android": "https://dc.lft.to/lastmile_qr_scan"}}, {"name": "5e6b594451086efaac7981c0ab8fc883", "fusion_lat": 0.0, "type": "electric_scooter", "lat": 38.9078275, "is_reserved": 0, "is_disabled": 0, "fusion_lon": 0.0, "bike_id": "5e6b594451086efaac7981c0ab8fc883", "lon": -77.07247916666667, "rental_uris": {"ios": "https://dc.lft.to/lastmile_qr_scan", "android": "https://dc.lft.to/lastmile_qr_scan"}}, {"name": "be7d5f5f996859eed63c977b3fa76348", "fusion_lat": 0.0, "type": "electric_scooter", "lat": 38.9286915, "is_reserved": 0, "is_disabled": 0, "fusion_lon": 0.0, "bike_id": "be7d5f5f996859eed63c977b3fa76348", "lon": -77.034374, "rental_uris": {"ios": "https://dc.lft.to/lastmile_qr_scan", "android": "https://dc.lft.to/lastmile_qr_scan"}}, {"name": "1640a7ca5ad5200b0024d1e55b8ea742", "fusion_lat": 0.0, "type": "electric_scooter", "lat": 38.895531, "is_reserved": 0, "is_disabled": 0, "fusion_lon": 0.0, "bike_id": "1640a7ca5ad5200b0024d1e55b8ea742", "lon": -76.9487725, "rental_uris": {"ios": "https://dc.lft.to/lastmile_qr_scan", "android": "https://dc.lft.to/lastmile_qr_scan"}}, {"name": "37fbfc3f4db4265d7528434654a1d5e9", "fusion_lat": 0.0, "type": "electric_bike", "lat": 38.959316, "is_reserved": 0, "is_disabled": 0, "fusion_lon": 0.0, "bike_id": "37fbfc3f4db4265d7528434654a1d5e9", "lon": -76.92531216666667, "rental_uris": {"ios": "https://dc.lft.to/lastmile_qr_scan", "android": "https://dc.lft.to/lastmile_qr_scan"}}, {"name": "16d71f2b6ba360f98733c11225b2d4b9", "fusion_lat": 0.0, "type": "electric_scooter", "lat": 38.912329, "is_reserved": 0, "is_disabled": 0, "fusion_lon": 0.0, "bike_id": "16d71f2b6ba360f98733c11225b2d4b9", "lon": -77.04883266666667, "rental_uris": {"ios": "https://dc.lft.to/lastmile_qr_scan", "android": "https://dc.lft.to/lastmile_qr_scan"}}, {"name": "e5a83c8618c15845eff2bab214606697", "fusion_lat": 0.0, "type": "electric_scooter", "lat": 38.92644633333333, "is_reserved": 0, "is_disabled": 0, "fusion_lon": 0.0, "bike_id": "e5a83c8618c15845eff2bab214606697", "lon": -77.03727383333333, "rental_uris": {"ios": "https://dc.lft.to/lastmile_qr_scan", "android": "https://dc.lft.to/lastmile_qr_scan"}}, {"name": "77a5a835edd5a8bda86619827fdcb7cf", "fusion_lat": 0.0, "type": "electric_scooter", "lat": 38.909852, "is_reserved": 0, "is_disabled": 0, "fusion_lon": 0.0, "bike_id": "77a5a835edd5a8bda86619827fdcb7cf", "lon": -77.02308733333334, "rental_uris": {"ios": "https://dc.lft.to/lastmile_qr_scan", "android": "https://dc.lft.to/lastmile_qr_scan"}}, {"name": "7cd6bd6137b46f8780cc1f07c7c20b5d", "fusion_lat": 0.0, "type": "electric_bike", "lat": 38.939531, "is_reserved": 0, "is_disabled": 0, "fusion_lon": 0.0, "bike_id": "7cd6bd6137b46f8780cc1f07c7c20b5d", "lon": -77.36100416666666, "rental_uris": {"ios": "https://dc.lft.to/lastmile_qr_scan", "android": "https://dc.lft.to/lastmile_qr_scan"}}, {"name": "54f9da303d9e3149103cd4be866f0c3f", "fusion_lat": 0.0, "type": "electric_scooter", "lat": 38.90315583333334, "is_reserved": 0, "is_disabled": 0, "fusion_lon": 0.0, "bike_id": "54f9da303d9e3149103cd4be866f0c3f", "lon": -77.05018266666667, "rental_uris": {"ios": "https://dc.lft.to/lastmile_qr_scan", "android": "https://dc.lft.to/lastmile_qr_scan"}}, {"name": "abf7e9d8285465e25030c854e024a086", "fusion_lat": 0.0, "type": "electric_scooter", "lat": 38.876831833333334, "is_reserved": 0, "is_disabled": 0, "fusion_lon": 0.0, "bike_id": "abf7e9d8285465e25030c854e024a086", "lon": -77.01754716666666, "rental_uris": {"ios": "https://dc.lft.to/lastmile_qr_scan", "android": "https://dc.lft.to/lastmile_qr_scan"}}, {"name": "2bf384bbe37ca99d64373517bf3ccc1c", "fusion_lat": 0.0, "type": "electric_bike", "lat": 38.92690916666667, "is_reserved": 0, "is_disabled": 0, "fusion_lon": 0.0, "bike_id": "2bf384bbe37ca99d64373517bf3ccc1c", "lon": -77.00785566666667, "rental_uris": {"ios": "https://dc.lft.to/lastmile_qr_scan", "android": "https://dc.lft.to/lastmile_qr_scan"}}, {"name": "8532ccd68b7a363c2e947161bbaecdce", "fusion_lat": 0.0, "type": "electric_bike", "lat": 38.845922, "is_reserved": 0, "is_disabled": 0, "fusion_lon": 0.0, "bike_id": "8532ccd68b7a363c2e947161bbaecdce", "lon": -76.96872316666666, "rental_uris": {"ios": "https://dc.lft.to/lastmile_qr_scan", "android": "https://dc.lft.to/lastmile_qr_scan"}}, {"name": "c060cd417c8dd320461b927623ba1f6c", "fusion_lat": 0.0, "type": "electric_scooter", "lat": 38.90363216666667, "is_reserved": 0, "is_disabled": 0, "fusion_lon": 0.0, "bike_id": "c060cd417c8dd320461b927623ba1f6c", "lon": -77.01757816666667, "rental_uris": {"ios": "https://dc.lft.to/lastmile_qr_scan", "android": "https://dc.lft.to/lastmile_qr_scan"}}, {"name": "2aae07d05960e3d7b8acf2b64449017a", "fusion_lat": 0.0, "type": "electric_bike", "lat": 38.877528833333336, "is_reserved": 0, "is_disabled": 0, "fusion_lon": 0.0, "bike_id": "2aae07d05960e3d7b8acf2b64449017a", "lon": -76.97984366666667, "rental_uris": {"ios": "https://dc.lft.to/lastmile_qr_scan", "android": "https://dc.lft.to/lastmile_qr_scan"}}, {"name": "b580854b8369b2f7b5e7c4737543ede7", "fusion_lat": 0.0, "type": "electric_scooter", "lat": 38.908169666666666, "is_reserved": 0, "is_disabled": 0, "fusion_lon": 0.0, "bike_id": "b580854b8369b2f7b5e7c4737543ede7", "lon": -77.0394645, "rental_uris": {"ios": "https://dc.lft.to/lastmile_qr_scan", "android": "https://dc.lft.to/lastmile_qr_scan"}}, {"name": "a847e68bf29bf2d2847cd7caa649ef86", "fusion_lat": 0.0, "type": "electric_scooter", "lat": 38.909567, "is_reserved": 0, "is_disabled": 0, "fusion_lon": 0.0, "bike_id": "a847e68bf29bf2d2847cd7caa649ef86", "lon": -77.03420516666667, "rental_uris": {"ios": "https://dc.lft.to/lastmile_qr_scan", "android": "https://dc.lft.to/lastmile_qr_scan"}}, {"name": "a2aa1bfea8bef7ab0324f01d875ed7e4", "fusion_lat": 0.0, "type": "electric_scooter", "lat": 38.91043616666666, "is_reserved": 0, "is_disabled": 0, "fusion_lon": 0.0, "bike_id": "a2aa1bfea8bef7ab0324f01d875ed7e4", "lon": -77.043786, "rental_uris": {"ios": "https://dc.lft.to/lastmile_qr_scan", "android": "https://dc.lft.to/lastmile_qr_scan"}}, {"name": "255a3831594921dbaa1d9e7a5ec3ec82", "fusion_lat": 0.0, "type": "electric_scooter", "lat": 38.88592833333333, "is_reserved": 0, "is_disabled": 0, "fusion_lon": 0.0, "bike_id": "255a3831594921dbaa1d9e7a5ec3ec82", "lon": -77.02203466666667, "rental_uris": {"ios": "https://dc.lft.to/lastmile_qr_scan", "android": "https://dc.lft.to/lastmile_qr_scan"}}, {"name": "f89a8b1b115d8236b0abb4b8308b5672", "fusion_lat": 0.0, "type": "electric_scooter", "lat": 38.898521, "is_reserved": 0, "is_disabled": 0, "fusion_lon": 0.0, "bike_id": "f89a8b1b115d8236b0abb4b8308b5672", "lon": -77.016133, "rental_uris": {"ios": "https://dc.lft.to/lastmile_qr_scan", "android": "https://dc.lft.to/lastmile_qr_scan"}}, {"name": "5b6c54aa902a768e4596a7bc940e98d4", "fusion_lat": 0.0, "type": "electric_scooter", "lat": 38.920031333333334, "is_reserved": 0, "is_disabled": 0, "fusion_lon": 0.0, "bike_id": "5b6c54aa902a768e4596a7bc940e98d4", "lon": -77.08196033333333, "rental_uris": {"ios": "https://dc.lft.to/lastmile_qr_scan", "android": "https://dc.lft.to/lastmile_qr_scan"}}, {"name": "78b3d920280d1a3758dcd3ef3a9b2d86", "fusion_lat": 0.0, "type": "electric_bike", "lat": 38.88344566666667, "is_reserved": 0, "is_disabled": 0, "fusion_lon": 0.0, "bike_id": "78b3d920280d1a3758dcd3ef3a9b2d86", "lon": -77.182918, "rental_uris": {"ios": "https://dc.lft.to/lastmile_qr_scan", "android": "https://dc.lft.to/lastmile_qr_scan"}}, {"name": "005519d2b684c93a8b56f676be835f1b", "fusion_lat": 0.0, "type": "electric_scooter", "lat": 38.89371883333333, "is_reserved": 0, "is_disabled": 0, "fusion_lon": 0.0, "bike_id": "005519d2b684c93a8b56f676be835f1b", "lon": -76.94998366666667, "rental_uris": {"ios": "https://dc.lft.to/lastmile_qr_scan", "android": "https://dc.lft.to/lastmile_qr_scan"}}, {"name": "355d627ce6fa0a68baa891cab8e6a1bd", "fusion_lat": 0.0, "type": "electric_scooter", "lat": 38.9002855, "is_reserved": 0, "is_disabled": 0, "fusion_lon": 0.0, "bike_id": "355d627ce6fa0a68baa891cab8e6a1bd", "lon": -76.998609, "rental_uris": {"ios": "https://dc.lft.to/lastmile_qr_scan", "android": "https://dc.lft.to/lastmile_qr_scan"}}, {"name": "e9c6a77227849cd999e6d5ba49da8e04", "fusion_lat": 0.0, "type": "electric_scooter", "lat": 38.891951, "is_reserved": 0, "is_disabled": 0, "fusion_lon": 0.0, "bike_id": "e9c6a77227849cd999e6d5ba49da8e04", "lon": -77.030262, "rental_uris": {"ios": "https://dc.lft.to/lastmile_qr_scan", "android": "https://dc.lft.to/lastmile_qr_scan"}}, {"name": "657fc8e3669d5878fed73ee7ef287cf5", "fusion_lat": 0.0, "type": "electric_scooter", "lat": 38.89747933333334, "is_reserved": 0, "is_disabled": 0, "fusion_lon": 0.0, "bike_id": "657fc8e3669d5878fed73ee7ef287cf5", "lon": -77.0202915, "rental_uris": {"ios": "https://dc.lft.to/lastmile_qr_scan", "android": "https://dc.lft.to/lastmile_qr_scan"}}, {"name": "bcdf4b1ebb60a061d625dd0f64c03013", "fusion_lat": 0.0, "type": "electric_scooter", "lat": 38.90201616666667, "is_reserved": 0, "is_disabled": 0, "fusion_lon": 0.0, "bike_id": "bcdf4b1ebb60a061d625dd0f64c03013", "lon": -77.02177166666667, "rental_uris": {"ios": "https://dc.lft.to/lastmile_qr_scan", "android": "https://dc.lft.to/lastmile_qr_scan"}}, {"name": "8de6911c7380d6d38ab24d9294f880e2", "fusion_lat": 0.0, "type": "electric_scooter", "lat": 38.943964666666666, "is_reserved": 0, "is_disabled": 0, "fusion_lon": 0.0, "bike_id": "8de6911c7380d6d38ab24d9294f880e2", "lon": -77.06339183333333, "rental_uris": {"ios": "https://dc.lft.to/lastmile_qr_scan", "android": "https://dc.lft.to/lastmile_qr_scan"}}, {"name": "9958a42600aa45d21695ef5bb59f676d", "fusion_lat": 0.0, "type": "electric_scooter", "lat": 38.9187125, "is_reserved": 0, "is_disabled": 0, "fusion_lon": 0.0, "bike_id": "9958a42600aa45d21695ef5bb59f676d", "lon": -77.04138933333333, "rental_uris": {"ios": "https://dc.lft.to/lastmile_qr_scan", "android": "https://dc.lft.to/lastmile_qr_scan"}}, {"name": "c4e00d5106a4ab83d3e6f2d22fdfc59d", "fusion_lat": 0.0, "type": "electric_scooter", "lat": 38.90428983333334, "is_reserved": 0, "is_disabled": 0, "fusion_lon": 0.0, "bike_id": "c4e00d5106a4ab83d3e6f2d22fdfc59d", "lon": -77.03453716666667, "rental_uris": {"ios": "https://dc.lft.to/lastmile_qr_scan", "android": "https://dc.lft.to/lastmile_qr_scan"}}, {"name": "67990ff638ae7d927a58fb07be93d80f", "fusion_lat": 0.0, "type": "electric_bike", "lat": 39.038807, "is_reserved": 0, "is_disabled": 0, "fusion_lon": 0.0, "bike_id": "67990ff638ae7d927a58fb07be93d80f", "lon": -76.99044583333334, "rental_uris": {"ios": "https://dc.lft.to/lastmile_qr_scan", "android": "https://dc.lft.to/lastmile_qr_scan"}}, {"name": "56db9c91bf48102cdd78ec4f155d5576", "fusion_lat": 0.0, "type": "electric_bike", "lat": 38.878773333333335, "is_reserved": 0, "is_disabled": 0, "fusion_lon": 0.0, "bike_id": "56db9c91bf48102cdd78ec4f155d5576", "lon": -77.10898166666666, "rental_uris": {"ios": "https://dc.lft.to/lastmile_qr_scan", "android": "https://dc.lft.to/lastmile_qr_scan"}}, {"name": "8b88849b25ee3a2aa4cd84a3c2f38e7b", "fusion_lat": 0.0, "type": "electric_scooter", "lat": 38.898328166666666, "is_reserved": 0, "is_disabled": 0, "fusion_lon": 0.0, "bike_id": "8b88849b25ee3a2aa4cd84a3c2f38e7b", "lon": -76.94642333333333, "rental_uris": {"ios": "https://dc.lft.to/lastmile_qr_scan", "android": "https://dc.lft.to/lastmile_qr_scan"}}, {"name": "89325cadcc2e734bca339a4de9a9794c", "fusion_lat": 0.0, "type": "electric_scooter", "lat": 38.899745, "is_reserved": 0, "is_disabled": 0, "fusion_lon": 0.0, "bike_id": "89325cadcc2e734bca339a4de9a9794c", "lon": -77.03942816666667, "rental_uris": {"ios": "https://dc.lft.to/lastmile_qr_scan", "android": "https://dc.lft.to/lastmile_qr_scan"}}, {"name": "e4263d1a2e41822afa9624942e22ad05", "fusion_lat": 0.0, "type": "electric_scooter", "lat": 38.92256616666667, "is_reserved": 0, "is_disabled": 0, "fusion_lon": 0.0, "bike_id": "e4263d1a2e41822afa9624942e22ad05", "lon": -77.03527016666666, "rental_uris": {"ios": "https://dc.lft.to/lastmile_qr_scan", "android": "https://dc.lft.to/lastmile_qr_scan"}}, {"name": "a885517a934eecab898a035c1522a2c7", "fusion_lat": 0.0, "type": "electric_scooter", "lat": 38.92483566666667, "is_reserved": 0, "is_disabled": 0, "fusion_lon": 0.0, "bike_id": "a885517a934eecab898a035c1522a2c7", "lon": -77.02999266666667, "rental_uris": {"ios": "https://dc.lft.to/lastmile_qr_scan", "android": "https://dc.lft.to/lastmile_qr_scan"}}, {"name": "0613678744e2431b131edfde45e6693f", "fusion_lat": 0.0, "type": "electric_scooter", "lat": 38.925943333333336, "is_reserved": 0, "is_disabled": 0, "fusion_lon": 0.0, "bike_id": "0613678744e2431b131edfde45e6693f", "lon": -77.008549, "rental_uris": {"ios": "https://dc.lft.to/lastmile_qr_scan", "android": "https://dc.lft.to/lastmile_qr_scan"}}, {"name": "f4bcbd87b167d78f3e112bee3ad1cc9e", "fusion_lat": 0.0, "type": "electric_scooter", "lat": 38.9389495, "is_reserved": 0, "is_disabled": 0, "fusion_lon": 0.0, "bike_id": "f4bcbd87b167d78f3e112bee3ad1cc9e", "lon": -77.017589, "rental_uris": {"ios": "https://dc.lft.to/lastmile_qr_scan", "android": "https://dc.lft.to/lastmile_qr_scan"}}, {"name": "55111a8d63ddc402ed88deed92621539", "fusion_lat": 0.0, "type": "electric_scooter", "lat": 38.93033583333333, "is_reserved": 0, "is_disabled": 0, "fusion_lon": 0.0, "bike_id": "55111a8d63ddc402ed88deed92621539", "lon": -77.0836515, "rental_uris": {"ios": "https://dc.lft.to/lastmile_qr_scan", "android": "https://dc.lft.to/lastmile_qr_scan"}}, {"name": "ca1bc773509711cdcaa6101e26f19c81", "fusion_lat": 0.0, "type": "electric_scooter", "lat": 38.91411316666667, "is_reserved": 0, "is_disabled": 0, "fusion_lon": 0.0, "bike_id": "ca1bc773509711cdcaa6101e26f19c81", "lon": -77.04497866666667, "rental_uris": {"ios": "https://dc.lft.to/lastmile_qr_scan", "android": "https://dc.lft.to/lastmile_qr_scan"}}, {"name": "2e57446ca758011d53a7120b59ecc7fa", "fusion_lat": 0.0, "type": "electric_scooter", "lat": 38.915501166666665, "is_reserved": 0, "is_disabled": 0, "fusion_lon": 0.0, "bike_id": "2e57446ca758011d53a7120b59ecc7fa", "lon": -77.03238183333333, "rental_uris": {"ios": "https://dc.lft.to/lastmile_qr_scan", "android": "https://dc.lft.to/lastmile_qr_scan"}}, {"name": "50f9051c7af78fc59517d3353a8f446b", "fusion_lat": 0.0, "type": "electric_scooter", "lat": 38.887017166666666, "is_reserved": 0, "is_disabled": 0, "fusion_lon": 0.0, "bike_id": "50f9051c7af78fc59517d3353a8f446b", "lon": -77.02826333333333, "rental_uris": {"ios": "https://dc.lft.to/lastmile_qr_scan", "android": "https://dc.lft.to/lastmile_qr_scan"}}, {"name": "befc829ee383cf14d27440e4008b198f", "fusion_lat": 0.0, "type": "electric_scooter", "lat": 38.91283133333334, "is_reserved": 0, "is_disabled": 0, "fusion_lon": 0.0, "bike_id": "befc829ee383cf14d27440e4008b198f", "lon": -76.93792483333333, "rental_uris": {"ios": "https://dc.lft.to/lastmile_qr_scan", "android": "https://dc.lft.to/lastmile_qr_scan"}}, {"name": "39c8cf97890cac0d78ed736cef734204", "fusion_lat": 0.0, "type": "electric_scooter", "lat": 38.905611, "is_reserved": 0, "is_disabled": 0, "fusion_lon": 0.0, "bike_id": "39c8cf97890cac0d78ed736cef734204", "lon": -77.034566, "rental_uris": {"ios": "https://dc.lft.to/lastmile_qr_scan", "android": "https://dc.lft.to/lastmile_qr_scan"}}, {"name": "46ff5a084733f4dac0e309909f5d854b", "fusion_lat": 0.0, "type": "electric_scooter", "lat": 38.92670716666667, "is_reserved": 0, "is_disabled": 0, "fusion_lon": 0.0, "bike_id": "46ff5a084733f4dac0e309909f5d854b", "lon": -76.99547333333334, "rental_uris": {"ios": "https://dc.lft.to/lastmile_qr_scan", "android": "https://dc.lft.to/lastmile_qr_scan"}}, {"name": "c4cedb6b15e13eb9b64410d80e34eaa0", "fusion_lat": 0.0, "type": "electric_scooter", "lat": 38.904127333333335, "is_reserved": 0, "is_disabled": 0, "fusion_lon": 0.0, "bike_id": "c4cedb6b15e13eb9b64410d80e34eaa0", "lon": -76.990678, "rental_uris": {"ios": "https://dc.lft.to/lastmile_qr_scan", "android": "https://dc.lft.to/lastmile_qr_scan"}}, {"name": "e794d61b8fe820876e497bad32a981da", "fusion_lat": 0.0, "type": "electric_bike", "lat": 39.003726666666665, "is_reserved": 0, "is_disabled": 0, "fusion_lon": 0.0, "bike_id": "e794d61b8fe820876e497bad32a981da", "lon": -77.013009, "rental_uris": {"ios": "https://dc.lft.to/lastmile_qr_scan", "android": "https://dc.lft.to/lastmile_qr_scan"}}, {"name": "5c9ea924ab08fac5a28d8134d1492b61", "fusion_lat": 0.0, "type": "electric_scooter", "lat": 38.923452166666664, "is_reserved": 0, "is_disabled": 0, "fusion_lon": 0.0, "bike_id": "5c9ea924ab08fac5a28d8134d1492b61", "lon": -77.054345, "rental_uris": {"ios": "https://dc.lft.to/lastmile_qr_scan", "android": "https://dc.lft.to/lastmile_qr_scan"}}, {"name": "ca70f086f40308a1644637e267672634", "fusion_lat": 0.0, "type": "electric_scooter", "lat": 38.85832683333334, "is_reserved": 0, "is_disabled": 0, "fusion_lon": 0.0, "bike_id": "ca70f086f40308a1644637e267672634", "lon": -76.98896516666667, "rental_uris": {"ios": "https://dc.lft.to/lastmile_qr_scan", "android": "https://dc.lft.to/lastmile_qr_scan"}}, {"name": "55fbf0f6513cab9fcb0cd96b9711afc3", "fusion_lat": 0.0, "type": "electric_scooter", "lat": 38.901217833333334, "is_reserved": 0, "is_disabled": 0, "fusion_lon": 0.0, "bike_id": "55fbf0f6513cab9fcb0cd96b9711afc3", "lon": -77.04410166666666, "rental_uris": {"ios": "https://dc.lft.to/lastmile_qr_scan", "android": "https://dc.lft.to/lastmile_qr_scan"}}, {"name": "cda4461300fc38f4de16c803b5d7ae6c", "fusion_lat": 0.0, "type": "electric_scooter", "lat": 38.93204816666667, "is_reserved": 0, "is_disabled": 0, "fusion_lon": 0.0, "bike_id": "cda4461300fc38f4de16c803b5d7ae6c", "lon": -77.03662283333334, "rental_uris": {"ios": "https://dc.lft.to/lastmile_qr_scan", "android": "https://dc.lft.to/lastmile_qr_scan"}}, {"name": "8952922fd7b8577e4d58b9bec1db0482", "fusion_lat": 0.0, "type": "electric_bike", "lat": 38.807896, "is_reserved": 0, "is_disabled": 0, "fusion_lon": 0.0, "bike_id": "8952922fd7b8577e4d58b9bec1db0482", "lon": -77.12963433333333, "rental_uris": {"ios": "https://dc.lft.to/lastmile_qr_scan", "android": "https://dc.lft.to/lastmile_qr_scan"}}, {"name": "3b137a527919357cc6788519290eb461", "fusion_lat": 0.0, "type": "electric_scooter", "lat": 38.95907533333333, "is_reserved": 0, "is_disabled": 0, "fusion_lon": 0.0, "bike_id": "3b137a527919357cc6788519290eb461", "lon": -77.0807465, "rental_uris": {"ios": "https://dc.lft.to/lastmile_qr_scan", "android": "https://dc.lft.to/lastmile_qr_scan"}}, {"name": "f7453ddc4b176db6c230c3d07bb0a122", "fusion_lat": 0.0, "type": "electric_scooter", "lat": 38.894071833333335, "is_reserved": 0, "is_disabled": 0, "fusion_lon": 0.0, "bike_id": "f7453ddc4b176db6c230c3d07bb0a122", "lon": -76.93240383333334, "rental_uris": {"ios": "https://dc.lft.to/lastmile_qr_scan", "android": "https://dc.lft.to/lastmile_qr_scan"}}, {"name": "490304736428f3038549dd5bac789081", "fusion_lat": 0.0, "type": "electric_scooter", "lat": 38.9470535, "is_reserved": 0, "is_disabled": 0, "fusion_lon": 0.0, "bike_id": "490304736428f3038549dd5bac789081", "lon": -77.0193815, "rental_uris": {"ios": "https://dc.lft.to/lastmile_qr_scan", "android": "https://dc.lft.to/lastmile_qr_scan"}}, {"name": "9d1e024b25644622839ed52fb4022245", "fusion_lat": 0.0, "type": "electric_scooter", "lat": 38.9024135, "is_reserved": 0, "is_disabled": 0, "fusion_lon": 0.0, "bike_id": "9d1e024b25644622839ed52fb4022245", "lon": -77.04473333333334, "rental_uris": {"ios": "https://dc.lft.to/lastmile_qr_scan", "android": "https://dc.lft.to/lastmile_qr_scan"}}, {"name": "f70d075f0a730c39ca865f4c25e6cc96", "fusion_lat": 0.0, "type": "electric_scooter", "lat": 38.92100033333333, "is_reserved": 0, "is_disabled": 0, "fusion_lon": 0.0, "bike_id": "f70d075f0a730c39ca865f4c25e6cc96", "lon": -76.9919085, "rental_uris": {"ios": "https://dc.lft.to/lastmile_qr_scan", "android": "https://dc.lft.to/lastmile_qr_scan"}}, {"name": "6fe2919ebb42157fbc4aec8246addaf5", "fusion_lat": 0.0, "type": "electric_bike", "lat": 38.957125, "is_reserved": 0, "is_disabled": 0, "fusion_lon": 0.0, "bike_id": "6fe2919ebb42157fbc4aec8246addaf5", "lon": -77.01476233333334, "rental_uris": {"ios": "https://dc.lft.to/lastmile_qr_scan", "android": "https://dc.lft.to/lastmile_qr_scan"}}, {"name": "17f3c85ec5d58d707dc385bcc1250163", "fusion_lat": 0.0, "type": "electric_scooter", "lat": 38.90326916666667, "is_reserved": 0, "is_disabled": 0, "fusion_lon": 0.0, "bike_id": "17f3c85ec5d58d707dc385bcc1250163", "lon": -77.04479083333334, "rental_uris": {"ios": "https://dc.lft.to/lastmile_qr_scan", "android": "https://dc.lft.to/lastmile_qr_scan"}}, {"name": "24f0563728c31a8715b5f60f1c06e036", "fusion_lat": 0.0, "type": "electric_scooter", "lat": 38.917256333333334, "is_reserved": 0, "is_disabled": 0, "fusion_lon": 0.0, "bike_id": "24f0563728c31a8715b5f60f1c06e036", "lon": -77.03439766666666, "rental_uris": {"ios": "https://dc.lft.to/lastmile_qr_scan", "android": "https://dc.lft.to/lastmile_qr_scan"}}, {"name": "72f407065edeb162c15e8d7bc08363b1", "fusion_lat": 0.0, "type": "electric_scooter", "lat": 38.89239333333333, "is_reserved": 0, "is_disabled": 0, "fusion_lon": 0.0, "bike_id": "72f407065edeb162c15e8d7bc08363b1", "lon": -77.01530633333333, "rental_uris": {"ios": "https://dc.lft.to/lastmile_qr_scan", "android": "https://dc.lft.to/lastmile_qr_scan"}}, {"name": "bc2cd7ae55f8089b4ac41db5febddc05", "fusion_lat": 0.0, "type": "electric_bike", "lat": 38.97080916666667, "is_reserved": 0, "is_disabled": 0, "fusion_lon": 0.0, "bike_id": "bc2cd7ae55f8089b4ac41db5febddc05", "lon": -77.06966266666667, "rental_uris": {"ios": "https://dc.lft.to/lastmile_qr_scan", "android": "https://dc.lft.to/lastmile_qr_scan"}}, {"name": "eb1891a52a857d1f3ec337e7ffcf8a67", "fusion_lat": 0.0, "type": "electric_scooter", "lat": 38.9062325, "is_reserved": 0, "is_disabled": 0, "fusion_lon": 0.0, "bike_id": "eb1891a52a857d1f3ec337e7ffcf8a67", "lon": -76.97672383333334, "rental_uris": {"ios": "https://dc.lft.to/lastmile_qr_scan", "android": "https://dc.lft.to/lastmile_qr_scan"}}, {"name": "adb2af76a53673f296ba2f4dacc57bf9", "fusion_lat": 0.0, "type": "electric_scooter", "lat": 38.9167555, "is_reserved": 0, "is_disabled": 0, "fusion_lon": 0.0, "bike_id": "adb2af76a53673f296ba2f4dacc57bf9", "lon": -77.02378533333334, "rental_uris": {"ios": "https://dc.lft.to/lastmile_qr_scan", "android": "https://dc.lft.to/lastmile_qr_scan"}}, {"name": "aa7ceee2102987e1e9af31140b3d38e0", "fusion_lat": 0.0, "type": "electric_scooter", "lat": 38.910638666666664, "is_reserved": 0, "is_disabled": 0, "fusion_lon": 0.0, "bike_id": "aa7ceee2102987e1e9af31140b3d38e0", "lon": -77.00761283333334, "rental_uris": {"ios": "https://dc.lft.to/lastmile_qr_scan", "android": "https://dc.lft.to/lastmile_qr_scan"}}, {"name": "b8fa5e40ddfd36b65f594b709ef48137", "fusion_lat": 0.0, "type": "electric_bike", "lat": 38.863746, "is_reserved": 0, "is_disabled": 0, "fusion_lon": 0.0, "bike_id": "b8fa5e40ddfd36b65f594b709ef48137", "lon": -77.12901833333333, "rental_uris": {"ios": "https://dc.lft.to/lastmile_qr_scan", "android": "https://dc.lft.to/lastmile_qr_scan"}}, {"name": "3cd874bccc6b7068fd2cbb28e782709e", "fusion_lat": 0.0, "type": "electric_scooter", "lat": 38.92620733333333, "is_reserved": 0, "is_disabled": 0, "fusion_lon": 0.0, "bike_id": "3cd874bccc6b7068fd2cbb28e782709e", "lon": -77.03796683333333, "rental_uris": {"ios": "https://dc.lft.to/lastmile_qr_scan", "android": "https://dc.lft.to/lastmile_qr_scan"}}, {"name": "d01cbebe83c2be50200ba4a4cd441c92", "fusion_lat": 0.0, "type": "electric_scooter", "lat": 38.9021935, "is_reserved": 0, "is_disabled": 0, "fusion_lon": 0.0, "bike_id": "d01cbebe83c2be50200ba4a4cd441c92", "lon": -77.04581933333333, "rental_uris": {"ios": "https://dc.lft.to/lastmile_qr_scan", "android": "https://dc.lft.to/lastmile_qr_scan"}}, {"name": "c7247b6ed15ed152b3daf39eeb5eccfe", "fusion_lat": 0.0, "type": "electric_scooter", "lat": 38.9119955, "is_reserved": 0, "is_disabled": 0, "fusion_lon": 0.0, "bike_id": "c7247b6ed15ed152b3daf39eeb5eccfe", "lon": -77.04539866666667, "rental_uris": {"ios": "https://dc.lft.to/lastmile_qr_scan", "android": "https://dc.lft.to/lastmile_qr_scan"}}, {"name": "e471dc4da953bd218aa471e34d287d8a", "fusion_lat": 0.0, "type": "electric_scooter", "lat": 38.876486666666665, "is_reserved": 0, "is_disabled": 0, "fusion_lon": 0.0, "bike_id": "e471dc4da953bd218aa471e34d287d8a", "lon": -77.00419366666667, "rental_uris": {"ios": "https://dc.lft.to/lastmile_qr_scan", "android": "https://dc.lft.to/lastmile_qr_scan"}}, {"name": "9ddff9879c4a650f80945ff7eb5ba511", "fusion_lat": 0.0, "type": "electric_scooter", "lat": 38.91333133333333, "is_reserved": 0, "is_disabled": 0, "fusion_lon": 0.0, "bike_id": "9ddff9879c4a650f80945ff7eb5ba511", "lon": -77.04869566666666, "rental_uris": {"ios": "https://dc.lft.to/lastmile_qr_scan", "android": "https://dc.lft.to/lastmile_qr_scan"}}, {"name": "e17c73028127fd8b35f2bcaa12986e38", "fusion_lat": 0.0, "type": "electric_bike", "lat": 38.870721, "is_reserved": 0, "is_disabled": 0, "fusion_lon": 0.0, "bike_id": "e17c73028127fd8b35f2bcaa12986e38", "lon": -77.11056183333334, "rental_uris": {"ios": "https://dc.lft.to/lastmile_qr_scan", "android": "https://dc.lft.to/lastmile_qr_scan"}}, {"name": "3a171ff99ebb8b0119b87243cb7fbeec", "fusion_lat": 0.0, "type": "electric_scooter", "lat": 38.877506, "is_reserved": 0, "is_disabled": 0, "fusion_lon": 0.0, "bike_id": "3a171ff99ebb8b0119b87243cb7fbeec", "lon": -76.97238016666667, "rental_uris": {"ios": "https://dc.lft.to/lastmile_qr_scan", "android": "https://dc.lft.to/lastmile_qr_scan"}}, {"name": "358e369aeafa0fea60d829f07b5df87a", "fusion_lat": 0.0, "type": "electric_scooter", "lat": 38.948341666666664, "is_reserved": 0, "is_disabled": 0, "fusion_lon": 0.0, "bike_id": "358e369aeafa0fea60d829f07b5df87a", "lon": -77.02552216666666, "rental_uris": {"ios": "https://dc.lft.to/lastmile_qr_scan", "android": "https://dc.lft.to/lastmile_qr_scan"}}, {"name": "fc168d64faa8b820ce9123c4445a4354", "fusion_lat": 0.0, "type": "electric_scooter", "lat": 38.916306166666665, "is_reserved": 0, "is_disabled": 0, "fusion_lon": 0.0, "bike_id": "fc168d64faa8b820ce9123c4445a4354", "lon": -77.03219216666666, "rental_uris": {"ios": "https://dc.lft.to/lastmile_qr_scan", "android": "https://dc.lft.to/lastmile_qr_scan"}}, {"name": "9855d24e8541ac9f73188e61ae7c5a59", "fusion_lat": 0.0, "type": "electric_scooter", "lat": 38.92315983333334, "is_reserved": 0, "is_disabled": 0, "fusion_lon": 0.0, "bike_id": "9855d24e8541ac9f73188e61ae7c5a59", "lon": -77.04107883333333, "rental_uris": {"ios": "https://dc.lft.to/lastmile_qr_scan", "android": "https://dc.lft.to/lastmile_qr_scan"}}, {"name": "46d5e581a97f60760f811cc06dd570e5", "fusion_lat": 0.0, "type": "electric_scooter", "lat": 38.923628, "is_reserved": 0, "is_disabled": 0, "fusion_lon": 0.0, "bike_id": "46d5e581a97f60760f811cc06dd570e5", "lon": -77.01907883333334, "rental_uris": {"ios": "https://dc.lft.to/lastmile_qr_scan", "android": "https://dc.lft.to/lastmile_qr_scan"}}, {"name": "ff5fc7833dcfebb29d11f07dc7075207", "fusion_lat": 0.0, "type": "electric_scooter", "lat": 38.8898865, "is_reserved": 0, "is_disabled": 0, "fusion_lon": 0.0, "bike_id": "ff5fc7833dcfebb29d11f07dc7075207", "lon": -77.001158, "rental_uris": {"ios": "https://dc.lft.to/lastmile_qr_scan", "android": "https://dc.lft.to/lastmile_qr_scan"}}, {"name": "3211583ba8d8c4abbd487878ffe4714f", "fusion_lat": 0.0, "type": "electric_scooter", "lat": 38.886932, "is_reserved": 0, "is_disabled": 0, "fusion_lon": 0.0, "bike_id": "3211583ba8d8c4abbd487878ffe4714f", "lon": -77.0337025, "rental_uris": {"ios": "https://dc.lft.to/lastmile_qr_scan", "android": "https://dc.lft.to/lastmile_qr_scan"}}, {"name": "62744511780b7ec5042853226541edd8", "fusion_lat": 0.0, "type": "electric_scooter", "lat": 38.93190883333333, "is_reserved": 0, "is_disabled": 0, "fusion_lon": 0.0, "bike_id": "62744511780b7ec5042853226541edd8", "lon": -77.03456366666667, "rental_uris": {"ios": "https://dc.lft.to/lastmile_qr_scan", "android": "https://dc.lft.to/lastmile_qr_scan"}}, {"name": "4f441baa1bc513549a4a938a99acf97d", "fusion_lat": 0.0, "type": "electric_scooter", "lat": 38.91934416666667, "is_reserved": 0, "is_disabled": 0, "fusion_lon": 0.0, "bike_id": "4f441baa1bc513549a4a938a99acf97d", "lon": -77.02376783333334, "rental_uris": {"ios": "https://dc.lft.to/lastmile_qr_scan", "android": "https://dc.lft.to/lastmile_qr_scan"}}, {"name": "22d9a3f947d902a62098042f986708d0", "fusion_lat": 0.0, "type": "electric_scooter", "lat": 38.907390166666666, "is_reserved": 0, "is_disabled": 0, "fusion_lon": 0.0, "bike_id": "22d9a3f947d902a62098042f986708d0", "lon": -77.02687833333333, "rental_uris": {"ios": "https://dc.lft.to/lastmile_qr_scan", "android": "https://dc.lft.to/lastmile_qr_scan"}}, {"name": "02813e0558582f694460b01cc8afa070", "fusion_lat": 0.0, "type": "electric_scooter", "lat": 38.899716833333336, "is_reserved": 0, "is_disabled": 0, "fusion_lon": 0.0, "bike_id": "02813e0558582f694460b01cc8afa070", "lon": -77.01937133333334, "rental_uris": {"ios": "https://dc.lft.to/lastmile_qr_scan", "android": "https://dc.lft.to/lastmile_qr_scan"}}, {"name": "229d14e41473b52bb2151a3dbb90fe9d", "fusion_lat": 0.0, "type": "electric_scooter", "lat": 38.892393, "is_reserved": 0, "is_disabled": 0, "fusion_lon": 0.0, "bike_id": "229d14e41473b52bb2151a3dbb90fe9d", "lon": -77.033849, "rental_uris": {"ios": "https://dc.lft.to/lastmile_qr_scan", "android": "https://dc.lft.to/lastmile_qr_scan"}}, {"name": "9ec16ae872b5866b56d1a777c73f554e", "fusion_lat": 0.0, "type": "electric_scooter", "lat": 38.930827666666666, "is_reserved": 0, "is_disabled": 0, "fusion_lon": 0.0, "bike_id": "9ec16ae872b5866b56d1a777c73f554e", "lon": -77.02508333333333, "rental_uris": {"ios": "https://dc.lft.to/lastmile_qr_scan", "android": "https://dc.lft.to/lastmile_qr_scan"}}, {"name": "23e7c6c625df802869dc1a29beb28cea", "fusion_lat": 0.0, "type": "electric_scooter", "lat": 38.91264833333334, "is_reserved": 0, "is_disabled": 0, "fusion_lon": 0.0, "bike_id": "23e7c6c625df802869dc1a29beb28cea", "lon": -77.026169, "rental_uris": {"ios": "https://dc.lft.to/lastmile_qr_scan", "android": "https://dc.lft.to/lastmile_qr_scan"}}, {"name": "883e4d43edd43f03ee2525f20aafcb74", "fusion_lat": 0.0, "type": "electric_scooter", "lat": 38.91539066666667, "is_reserved": 0, "is_disabled": 0, "fusion_lon": 0.0, "bike_id": "883e4d43edd43f03ee2525f20aafcb74", "lon": -77.03192816666666, "rental_uris": {"ios": "https://dc.lft.to/lastmile_qr_scan", "android": "https://dc.lft.to/lastmile_qr_scan"}}, {"name": "365a745ac9e95dfefc28f6494f8eddc0", "fusion_lat": 0.0, "type": "electric_scooter", "lat": 38.906037, "is_reserved": 0, "is_disabled": 0, "fusion_lon": 0.0, "bike_id": "365a745ac9e95dfefc28f6494f8eddc0", "lon": -77.0465645, "rental_uris": {"ios": "https://dc.lft.to/lastmile_qr_scan", "android": "https://dc.lft.to/lastmile_qr_scan"}}, {"name": "fb4bc220577e985088fe8945360d4c4c", "fusion_lat": 0.0, "type": "electric_scooter", "lat": 38.9217955, "is_reserved": 0, "is_disabled": 0, "fusion_lon": 0.0, "bike_id": "fb4bc220577e985088fe8945360d4c4c", "lon": -77.04282783333333, "rental_uris": {"ios": "https://dc.lft.to/lastmile_qr_scan", "android": "https://dc.lft.to/lastmile_qr_scan"}}, {"name": "78806b029d5073d8be2c51c45b289184", "fusion_lat": 0.0, "type": "electric_scooter", "lat": 38.905443166666664, "is_reserved": 0, "is_disabled": 0, "fusion_lon": 0.0, "bike_id": "78806b029d5073d8be2c51c45b289184", "lon": -77.04564266666667, "rental_uris": {"ios": "https://dc.lft.to/lastmile_qr_scan", "android": "https://dc.lft.to/lastmile_qr_scan"}}, {"name": "c80834836e25fffced713394bb050f9d", "fusion_lat": 0.0, "type": "electric_scooter", "lat": 38.91812016666667, "is_reserved": 0, "is_disabled": 0, "fusion_lon": 0.0, "bike_id": "c80834836e25fffced713394bb050f9d", "lon": -77.04624066666666, "rental_uris": {"ios": "https://dc.lft.to/lastmile_qr_scan", "android": "https://dc.lft.to/lastmile_qr_scan"}}, {"name": "dcc0d4d2fe5108a87da0ed0f3c9a2e53", "fusion_lat": 0.0, "type": "electric_scooter", "lat": 38.90237716666667, "is_reserved": 0, "is_disabled": 0, "fusion_lon": 0.0, "bike_id": "dcc0d4d2fe5108a87da0ed0f3c9a2e53", "lon": -76.97416033333333, "rental_uris": {"ios": "https://dc.lft.to/lastmile_qr_scan", "android": "https://dc.lft.to/lastmile_qr_scan"}}, {"name": "f3546cb6a110d34ba5746ea12e8ee8db", "fusion_lat": 0.0, "type": "electric_scooter", "lat": 38.90822266666667, "is_reserved": 0, "is_disabled": 0, "fusion_lon": 0.0, "bike_id": "f3546cb6a110d34ba5746ea12e8ee8db", "lon": -76.99710933333333, "rental_uris": {"ios": "https://dc.lft.to/lastmile_qr_scan", "android": "https://dc.lft.to/lastmile_qr_scan"}}, {"name": "0ac5ce5cacc9007aefde436abd0acbb0", "fusion_lat": 0.0, "type": "electric_scooter", "lat": 38.914017666666666, "is_reserved": 0, "is_disabled": 0, "fusion_lon": 0.0, "bike_id": "0ac5ce5cacc9007aefde436abd0acbb0", "lon": -77.00807283333333, "rental_uris": {"ios": "https://dc.lft.to/lastmile_qr_scan", "android": "https://dc.lft.to/lastmile_qr_scan"}}, {"name": "4f60cd0911478ce598f972c0f8e51763", "fusion_lat": 0.0, "type": "electric_scooter", "lat": 38.901202833333336, "is_reserved": 0, "is_disabled": 0, "fusion_lon": 0.0, "bike_id": "4f60cd0911478ce598f972c0f8e51763", "lon": -77.03977233333333, "rental_uris": {"ios": "https://dc.lft.to/lastmile_qr_scan", "android": "https://dc.lft.to/lastmile_qr_scan"}}, {"name": "bac319563f18a2b77b8b974dabd9e908", "fusion_lat": 0.0, "type": "electric_scooter", "lat": 38.883384, "is_reserved": 0, "is_disabled": 0, "fusion_lon": 0.0, "bike_id": "bac319563f18a2b77b8b974dabd9e908", "lon": -77.02311316666666, "rental_uris": {"ios": "https://dc.lft.to/lastmile_qr_scan", "android": "https://dc.lft.to/lastmile_qr_scan"}}, {"name": "17feacdd4a827de1fd643ddb33806875", "fusion_lat": 0.0, "type": "electric_scooter", "lat": 38.908624, "is_reserved": 0, "is_disabled": 0, "fusion_lon": 0.0, "bike_id": "17feacdd4a827de1fd643ddb33806875", "lon": -77.03222533333333, "rental_uris": {"ios": "https://dc.lft.to/lastmile_qr_scan", "android": "https://dc.lft.to/lastmile_qr_scan"}}, {"name": "b2943169828f5f41cc92b9a98a190813", "fusion_lat": 0.0, "type": "electric_scooter", "lat": 38.921761833333335, "is_reserved": 0, "is_disabled": 0, "fusion_lon": 0.0, "bike_id": "b2943169828f5f41cc92b9a98a190813", "lon": -77.02657283333333, "rental_uris": {"ios": "https://dc.lft.to/lastmile_qr_scan", "android": "https://dc.lft.to/lastmile_qr_scan"}}, {"name": "9de21774e00489867fe16c648fa7c6f1", "fusion_lat": 0.0, "type": "electric_bike", "lat": 38.967616666666665, "is_reserved": 0, "is_disabled": 0, "fusion_lon": 0.0, "bike_id": "9de21774e00489867fe16c648fa7c6f1", "lon": -77.09159083333333, "rental_uris": {"ios": "https://dc.lft.to/lastmile_qr_scan", "android": "https://dc.lft.to/lastmile_qr_scan"}}, {"name": "86672e73fd65a3cb720f52e21bdd4d0d", "fusion_lat": 0.0, "type": "electric_scooter", "lat": 38.9260205, "is_reserved": 0, "is_disabled": 0, "fusion_lon": 0.0, "bike_id": "86672e73fd65a3cb720f52e21bdd4d0d", "lon": -77.0215055, "rental_uris": {"ios": "https://dc.lft.to/lastmile_qr_scan", "android": "https://dc.lft.to/lastmile_qr_scan"}}, {"name": "7e604a51b04733eabe24801aa175ade2", "fusion_lat": 0.0, "type": "electric_bike", "lat": 38.86159116666666, "is_reserved": 0, "is_disabled": 0, "fusion_lon": 0.0, "bike_id": "7e604a51b04733eabe24801aa175ade2", "lon": -77.130935, "rental_uris": {"ios": "https://dc.lft.to/lastmile_qr_scan", "android": "https://dc.lft.to/lastmile_qr_scan"}}, {"name": "a1bbca939f4ded04f35ceee77d0cf64a", "fusion_lat": 0.0, "type": "electric_scooter", "lat": 38.871872833333335, "is_reserved": 0, "is_disabled": 0, "fusion_lon": 0.0, "bike_id": "a1bbca939f4ded04f35ceee77d0cf64a", "lon": -77.00597, "rental_uris": {"ios": "https://dc.lft.to/lastmile_qr_scan", "android": "https://dc.lft.to/lastmile_qr_scan"}}, {"name": "ceb609d3a2c17012571c49ad8385bb3a", "fusion_lat": 0.0, "type": "electric_scooter", "lat": 38.88739133333333, "is_reserved": 0, "is_disabled": 0, "fusion_lon": 0.0, "bike_id": "ceb609d3a2c17012571c49ad8385bb3a", "lon": -77.01541983333334, "rental_uris": {"ios": "https://dc.lft.to/lastmile_qr_scan", "android": "https://dc.lft.to/lastmile_qr_scan"}}, {"name": "93112eee2704f2acb8bf6c1bb045f549", "fusion_lat": 0.0, "type": "electric_scooter", "lat": 38.892429, "is_reserved": 0, "is_disabled": 0, "fusion_lon": 0.0, "bike_id": "93112eee2704f2acb8bf6c1bb045f549", "lon": -77.0177785, "rental_uris": {"ios": "https://dc.lft.to/lastmile_qr_scan", "android": "https://dc.lft.to/lastmile_qr_scan"}}, {"name": "98e234feacfd8f089bdb7afc44a0b9d1", "fusion_lat": 0.0, "type": "electric_bike", "lat": 38.87293833333333, "is_reserved": 0, "is_disabled": 0, "fusion_lon": 0.0, "bike_id": "98e234feacfd8f089bdb7afc44a0b9d1", "lon": -77.010977, "rental_uris": {"ios": "https://dc.lft.to/lastmile_qr_scan", "android": "https://dc.lft.to/lastmile_qr_scan"}}, {"name": "5cdf7e13f5ed4ce8cff2b3a9d69217e9", "fusion_lat": 0.0, "type": "electric_scooter", "lat": 38.89907483333333, "is_reserved": 0, "is_disabled": 0, "fusion_lon": 0.0, "bike_id": "5cdf7e13f5ed4ce8cff2b3a9d69217e9", "lon": -77.03929983333333, "rental_uris": {"ios": "https://dc.lft.to/lastmile_qr_scan", "android": "https://dc.lft.to/lastmile_qr_scan"}}, {"name": "ffe755ead2ef1bbaec160f35f6adcbae", "fusion_lat": 0.0, "type": "electric_scooter", "lat": 38.911827833333334, "is_reserved": 0, "is_disabled": 0, "fusion_lon": 0.0, "bike_id": "ffe755ead2ef1bbaec160f35f6adcbae", "lon": -77.0314935, "rental_uris": {"ios": "https://dc.lft.to/lastmile_qr_scan", "android": "https://dc.lft.to/lastmile_qr_scan"}}, {"name": "81b69c994472e07166a753f79f654681", "fusion_lat": 0.0, "type": "electric_scooter", "lat": 38.90846883333333, "is_reserved": 0, "is_disabled": 0, "fusion_lon": 0.0, "bike_id": "81b69c994472e07166a753f79f654681", "lon": -77.04338916666667, "rental_uris": {"ios": "https://dc.lft.to/lastmile_qr_scan", "android": "https://dc.lft.to/lastmile_qr_scan"}}, {"name": "8ad9c0d00275179bfacc2fd7a08e5f45", "fusion_lat": 0.0, "type": "electric_scooter", "lat": 38.89611416666666, "is_reserved": 0, "is_disabled": 0, "fusion_lon": 0.0, "bike_id": "8ad9c0d00275179bfacc2fd7a08e5f45", "lon": -77.02673866666666, "rental_uris": {"ios": "https://dc.lft.to/lastmile_qr_scan", "android": "https://dc.lft.to/lastmile_qr_scan"}}, {"name": "dbe2488c46ec17bb2b83c6223553a4f4", "fusion_lat": 0.0, "type": "electric_scooter", "lat": 38.899145833333336, "is_reserved": 0, "is_disabled": 0, "fusion_lon": 0.0, "bike_id": "dbe2488c46ec17bb2b83c6223553a4f4", "lon": -77.032159, "rental_uris": {"ios": "https://dc.lft.to/lastmile_qr_scan", "android": "https://dc.lft.to/lastmile_qr_scan"}}, {"name": "26affe6575254f6038579f3ef64750fd", "fusion_lat": 0.0, "type": "electric_scooter", "lat": 38.917031, "is_reserved": 0, "is_disabled": 0, "fusion_lon": 0.0, "bike_id": "26affe6575254f6038579f3ef64750fd", "lon": -77.03122916666666, "rental_uris": {"ios": "https://dc.lft.to/lastmile_qr_scan", "android": "https://dc.lft.to/lastmile_qr_scan"}}, {"name": "4953fb534a403ac591034b8c0d60e62f", "fusion_lat": 0.0, "type": "electric_scooter", "lat": 38.90649783333333, "is_reserved": 0, "is_disabled": 0, "fusion_lon": 0.0, "bike_id": "4953fb534a403ac591034b8c0d60e62f", "lon": -77.0532175, "rental_uris": {"ios": "https://dc.lft.to/lastmile_qr_scan", "android": "https://dc.lft.to/lastmile_qr_scan"}}, {"name": "d9cf3b543ee648b48037c4857a0af549", "fusion_lat": 0.0, "type": "electric_scooter", "lat": 38.8985075, "is_reserved": 0, "is_disabled": 0, "fusion_lon": 0.0, "bike_id": "d9cf3b543ee648b48037c4857a0af549", "lon": -77.01612783333333, "rental_uris": {"ios": "https://dc.lft.to/lastmile_qr_scan", "android": "https://dc.lft.to/lastmile_qr_scan"}}, {"name": "299cd86f4cf6218c99cfbe3400cca725", "fusion_lat": 0.0, "type": "electric_scooter", "lat": 38.880491166666665, "is_reserved": 0, "is_disabled": 0, "fusion_lon": 0.0, "bike_id": "299cd86f4cf6218c99cfbe3400cca725", "lon": -77.0132415, "rental_uris": {"ios": "https://dc.lft.to/lastmile_qr_scan", "android": "https://dc.lft.to/lastmile_qr_scan"}}, {"name": "83586c6533fcd94dca732e8a241f33bd", "fusion_lat": 0.0, "type": "electric_scooter", "lat": 38.90562833333333, "is_reserved": 0, "is_disabled": 0, "fusion_lon": 0.0, "bike_id": "83586c6533fcd94dca732e8a241f33bd", "lon": -77.00600666666666, "rental_uris": {"ios": "https://dc.lft.to/lastmile_qr_scan", "android": "https://dc.lft.to/lastmile_qr_scan"}}, {"name": "31f6bc504f0109f7e5ae2bd970ec1e2c", "fusion_lat": 0.0, "type": "electric_scooter", "lat": 38.915492666666665, "is_reserved": 0, "is_disabled": 0, "fusion_lon": 0.0, "bike_id": "31f6bc504f0109f7e5ae2bd970ec1e2c", "lon": -77.03509, "rental_uris": {"ios": "https://dc.lft.to/lastmile_qr_scan", "android": "https://dc.lft.to/lastmile_qr_scan"}}, {"name": "be8029984e06abebe56399bb38eddb8e", "fusion_lat": 0.0, "type": "electric_bike", "lat": 38.9462465, "is_reserved": 0, "is_disabled": 0, "fusion_lon": 0.0, "bike_id": "be8029984e06abebe56399bb38eddb8e", "lon": -76.94628166666666, "rental_uris": {"ios": "https://dc.lft.to/lastmile_qr_scan", "android": "https://dc.lft.to/lastmile_qr_scan"}}, {"name": "cc0573cf6bf817223a5bbaad8cfc32ec", "fusion_lat": 0.0, "type": "electric_scooter", "lat": 38.916874666666665, "is_reserved": 0, "is_disabled": 0, "fusion_lon": 0.0, "bike_id": "cc0573cf6bf817223a5bbaad8cfc32ec", "lon": -77.03764033333333, "rental_uris": {"ios": "https://dc.lft.to/lastmile_qr_scan", "android": "https://dc.lft.to/lastmile_qr_scan"}}, {"name": "09acecfcdfedfce29650ff37467a5c87", "fusion_lat": 0.0, "type": "electric_scooter", "lat": 38.9205865, "is_reserved": 0, "is_disabled": 0, "fusion_lon": 0.0, "bike_id": "09acecfcdfedfce29650ff37467a5c87", "lon": -76.99843966666667, "rental_uris": {"ios": "https://dc.lft.to/lastmile_qr_scan", "android": "https://dc.lft.to/lastmile_qr_scan"}}, {"name": "6c471acac5b599e546e25648ffbac20a", "fusion_lat": 0.0, "type": "electric_scooter", "lat": 38.91105133333333, "is_reserved": 0, "is_disabled": 0, "fusion_lon": 0.0, "bike_id": "6c471acac5b599e546e25648ffbac20a", "lon": -77.03731733333333, "rental_uris": {"ios": "https://dc.lft.to/lastmile_qr_scan", "android": "https://dc.lft.to/lastmile_qr_scan"}}, {"name": "7f5f49c7ca4c7767c97f8f5e75242c58", "fusion_lat": 0.0, "type": "electric_scooter", "lat": 38.928426333333334, "is_reserved": 0, "is_disabled": 0, "fusion_lon": 0.0, "bike_id": "7f5f49c7ca4c7767c97f8f5e75242c58", "lon": -77.03257883333333, "rental_uris": {"ios": "https://dc.lft.to/lastmile_qr_scan", "android": "https://dc.lft.to/lastmile_qr_scan"}}, {"name": "4b5eb91b3590d4eaf90c9bfccf23ca3d", "fusion_lat": 0.0, "type": "electric_scooter", "lat": 38.933545333333335, "is_reserved": 0, "is_disabled": 0, "fusion_lon": 0.0, "bike_id": "4b5eb91b3590d4eaf90c9bfccf23ca3d", "lon": -77.03455383333333, "rental_uris": {"ios": "https://dc.lft.to/lastmile_qr_scan", "android": "https://dc.lft.to/lastmile_qr_scan"}}, {"name": "faa86e162cba6376e43692181797ae95", "fusion_lat": 0.0, "type": "electric_scooter", "lat": 38.891967, "is_reserved": 0, "is_disabled": 0, "fusion_lon": 0.0, "bike_id": "faa86e162cba6376e43692181797ae95", "lon": -77.002932, "rental_uris": {"ios": "https://dc.lft.to/lastmile_qr_scan", "android": "https://dc.lft.to/lastmile_qr_scan"}}, {"name": "a0091a8e80a091694c0146778b471f9f", "fusion_lat": 0.0, "type": "electric_scooter", "lat": 38.92154283333333, "is_reserved": 0, "is_disabled": 0, "fusion_lon": 0.0, "bike_id": "a0091a8e80a091694c0146778b471f9f", "lon": -77.03440783333333, "rental_uris": {"ios": "https://dc.lft.to/lastmile_qr_scan", "android": "https://dc.lft.to/lastmile_qr_scan"}},