{"data": {"bikes": [{"is_reserved": 0, "type": "electric_scooter", "bike_id": "692866d637b6c5eae06a1fe56edc91b5", "lat": 38.90575183333333, "lon": -77.04607816666666, "rental_uris": {"android": "https://dc.lft.to/lastmile_qr_scan", "ios": "https://dc.lft.to/lastmile_qr_scan"}, "is_disabled": 0, "fusion_lat": 0.0, "name": "692866d637b6c5eae06a1fe56edc91b5", "fusion_lon": 0.0}, {"is_reserved": 0, "type": "electric_scooter", "bike_id": "5e0fd8fe43a4fc136a26367adaa35ba8", "lat": 38.898096, "lon": -77.029324, "rental_uris": {"android": "https://dc.lft.to/lastmile_qr_scan", "ios": "https://dc.lft.to/lastmile_qr_scan"}, "is_disabled": 0, "fusion_lat": 0.0, "name": "5e0fd8fe43a4fc136a26367adaa35ba8", "fusion_lon": 0.0}, {"is_reserved": 0, "type": "electric_scooter", "bike_id": "fc1a97d0e67707d3f5a741307d48a400", "lat": 38.879274, "lon": -77.005812, "rental_uris": {"android": "https://dc.lft.to/lastmile_qr_scan", "ios": "https://dc.lft.to/lastmile_qr_scan"}, "is_disabled": 0, "fusion_lat": 0.0, "name": "fc1a97d0e67707d3f5a741307d48a400", "fusion_lon": 0.0}, {"is_reserved": 0, "type": "electric_scooter", "bike_id": "a210ce66ed803c37ce62d9eef9e17b1f", "lat": 38.90573283333333, "lon": -77.00570883333333, "rental_uris": {"android": "https://dc.lft.to/lastmile_qr_scan", "ios": "https://dc.lft.to/lastmile_qr_scan"}, "is_disabled": 0, "fusion_lat": 0.0, "name": "a210ce66ed803c37ce62d9eef9e17b1f", "fusion_lon": 0.0}, {"is_reserved": 0, "type": "electric_scooter", "bike_id": "c0b8f67137b4afeb09b067642daa47dc", "lat": 38.90859483333333, "lon": -77.02352633333334, "rental_uris": {"android": "https://dc.lft.to/lastmile_qr_scan", "ios": "https://dc.lft.to/lastmile_qr_scan"}, "is_disabled": 0, "fusion_lat": 0.0, "name": "c0b8f67137b4afeb09b067642daa47dc", "fusion_lon": 0.0}, {"is_reserved": 0, "type": "electric_bike", "bike_id": "5dc453a5e8327225e8fd03de4443bbf4", "lat": 38.90336516666667, "lon": -77.05207383333334, "rental_uris": {"android": "https://dc.lft.to/lastmile_qr_scan", "ios": "https://dc.lft.to/lastmile_qr_scan"}, "is_disabled": 0, "fusion_lat": 0.0, "name": "5dc453a5e8327225e8fd03de4443bbf4", "fusion_lon": 0.0}, {"is_reserved": 0, "type": "electric_scooter", "bike_id": "33bb6d35d4151ea23349d28706909164", "lat": 38.918088833333336, "lon": -77.0329055, "rental_uris": {"android": "https://dc.lft.to/lastmile_qr_scan", "ios": "https://dc.lft.to/lastmile_qr_scan"}, "is_disabled": 0, "fusion_lat": 0.0, "name": "33bb6d35d4151ea23349d28706909164", "fusion_lon": 0.0}, {"is_reserved": 0, "type": "electric_scooter", "bike_id": "effea63a053cac8b3655f34c5f403536", "lat": 38.89961, "lon": -77.015986, "rental_uris": {"android": "https://dc.lft.to/lastmile_qr_scan", "ios": "https://dc.lft.to/lastmile_qr_scan"}, "is_disabled": 0, "fusion_lat": 0.0, "name": "effea63a053cac8b3655f34c5f403536", "fusion_lon": 0.0}, {"is_reserved": 0, "type": "electric_scooter", "bike_id": "b189c720b1f3fb0e849b2e4b9fc5e2ed", "lat": 38.956295833333336, "lon": -77.027807, "rental_uris": {"android": "https://dc.lft.to/lastmile_qr_scan", "ios": "https://dc.lft.to/lastmile_qr_scan"}, "is_disabled": 0, "fusion_lat": 0.0, "name": "b189c720b1f3fb0e849b2e4b9fc5e2ed", "fusion_lon": 0.0}, {"is_reserved": 0, "type": "electric_scooter", "bike_id": "b9972a2852ffdec739a6e0ff05a2be74", "lat": 38.92450083333333, "lon": -77.0439595, "rental_uris": {"android": "https://dc.lft.to/lastmile_qr_scan", "ios": "https://dc.lft.to/lastmile_qr_scan"}, "is_disabled": 0, "fusion_lat": 0.0, "name": "b9972a2852ffdec739a6e0ff05a2be74", "fusion_lon": 0.0}, {"is_reserved": 0, "type": "electric_scooter", "bike_id": "065c69c4bd96828ef2700262df06b72e", "lat": 38.923327666666665, "lon": -77.04382433333333, "rental_uris": {"android": "https://dc.lft.to/lastmile_qr_scan", "ios": "https://dc.lft.to/lastmile_qr_scan"}, "is_disabled": 0, "fusion_lat": 0.0, "name": "065c69c4bd96828ef2700262df06b72e", "fusion_lon": 0.0}, {"is_reserved": 0, "type": "electric_bike", "bike_id": "9d70f2cfbcfedbcc62915e546662bc0b", "lat": 38.92369133333333, "lon": -77.04028666666666, "rental_uris": {"android": "https://dc.lft.to/lastmile_qr_scan", "ios": "https://dc.lft.to/lastmile_qr_scan"}, "is_disabled": 0, "fusion_lat": 0.0, "name": "9d70f2cfbcfedbcc62915e546662bc0b", "fusion_lon": 0.0}, {"is_reserved": 0, "type": "electric_scooter", "bike_id": "73a319a61ca55ace5f0520fc468b8626", "lat": 38.908604833333335, "lon": -77.00369216666667, "rental_uris": {"android": "https://dc.lft.to/lastmile_qr_scan", "ios": "https://dc.lft.to/lastmile_qr_scan"}, "is_disabled": 0, "fusion_lat": 0.0, "name": "73a319a61ca55ace5f0520fc468b8626", "fusion_lon": 0.0}, {"is_reserved": 0, "type": "electric_scooter", "bike_id": "82014670bb881c4158fbbc32e34eef3a", "lat": 38.912250666666665, "lon": -77.02687866666666, "rental_uris": {"android": "https://dc.lft.to/lastmile_qr_scan", "ios": "https://dc.lft.to/lastmile_qr_scan"}, "is_disabled": 0, "fusion_lat": 0.0, "name": "82014670bb881c4158fbbc32e34eef3a", "fusion_lon": 0.0}, {"is_reserved": 0, "type": "electric_scooter", "bike_id": "8ad1927b700731cc6acb4995f04932c2", "lat": 38.89596616666667, "lon": -76.929842, "rental_uris": {"android": "https://dc.lft.to/lastmile_qr_scan", "ios": "https://dc.lft.to/lastmile_qr_scan"}, "is_disabled": 0, "fusion_lat": 0.0, "name": "8ad1927b700731cc6acb4995f04932c2", "fusion_lon": 0.0}, {"is_reserved": 0, "type": "electric_scooter", "bike_id": "553ec9ff05fd91929da69466fc4348d3", "lat": 38.89857, "lon": -77.02216133333333, "rental_uris": {"android": "https://dc.lft.to/lastmile_qr_scan", "ios": "https://dc.lft.to/lastmile_qr_scan"}, "is_disabled": 0, "fusion_lat": 0.0, "name": "553ec9ff05fd91929da69466fc4348d3", "fusion_lon": 0.0}, {"is_reserved": 0, "type": "electric_bike", "bike_id": "6199053d9d40e9d87e6dafc8e9807322", "lat": 38.949107166666664, "lon": -77.02417066666666, "rental_uris": {"android": "https://dc.lft.to/lastmile_qr_scan", "ios": "https://dc.lft.to/lastmile_qr_scan"}, "is_disabled": 0, "fusion_lat": 0.0, "name": "6199053d9d40e9d87e6dafc8e9807322", "fusion_lon": 0.0}, {"is_reserved": 0, "type": "electric_scooter", "bike_id": "e59e722437d88a576e3aec7114002802", "lat": 38.93504983333333, "lon": -77.0241615, "rental_uris": {"android": "https://dc.lft.to/lastmile_qr_scan", "ios": "https://dc.lft.to/lastmile_qr_scan"}, "is_disabled": 0, "fusion_lat": 0.0, "name": "e59e722437d88a576e3aec7114002802", "fusion_lon": 0.0}, {"is_reserved": 0, "type": "electric_scooter", "bike_id": "434c4ba06f7ed9e29b16566be70f7aa4", "lat": 38.867227, "lon": -76.9791255, "rental_uris": {"android": "https://dc.lft.to/lastmile_qr_scan", "ios": "https://dc.lft.to/lastmile_qr_scan"}, "is_disabled": 0, "fusion_lat": 0.0, "name": "434c4ba06f7ed9e29b16566be70f7aa4", "fusion_lon": 0.0}, {"is_reserved": 0, "type": "electric_scooter", "bike_id": "7acf71194ab7bf85eab55f811d3c557b", "lat": 38.87893733333333, "lon": -77.02203433333334, "rental_uris": {"android": "https://dc.lft.to/lastmile_qr_scan", "ios": "https://dc.lft.to/lastmile_qr_scan"}, "is_disabled": 0, "fusion_lat": 0.0, "name": "7acf71194ab7bf85eab55f811d3c557b", "fusion_lon": 0.0}, {"is_reserved": 0, "type": "electric_scooter", "bike_id": "163fe109894f3c40d0731face366964f", "lat": 38.926265, "lon": -77.03790166666667, "rental_uris": {"android": "https://dc.lft.to/lastmile_qr_scan", "ios": "https://dc.lft.to/lastmile_qr_scan"}, "is_disabled": 0, "fusion_lat": 0.0, "name": "163fe109894f3c40d0731face366964f", "fusion_lon": 0.0}, {"is_reserved": 0, "type": "electric_scooter", "bike_id": "104cbd70ad825daf2e63844e7e8e05d9", "lat": 38.900376333333334, "lon": -76.99737316666666, "rental_uris": {"android": "https://dc.lft.to/lastmile_qr_scan", "ios": "https://dc.lft.to/lastmile_qr_scan"}, "is_disabled": 0, "fusion_lat": 0.0, "name": "104cbd70ad825daf2e63844e7e8e05d9", "fusion_lon": 0.0}, {"is_reserved": 0, "type": "electric_scooter", "bike_id": "35582283f19985e9b680716f8f83f14d", "lat": 38.91403183333333, "lon": -77.03319016666667, "rental_uris": {"android": "https://dc.lft.to/lastmile_qr_scan", "ios": "https://dc.lft.to/lastmile_qr_scan"}, "is_disabled": 0, "fusion_lat": 0.0, "name": "35582283f19985e9b680716f8f83f14d", "fusion_lon": 0.0}, {"is_reserved": 0, "type": "electric_scooter", "bike_id": "9dcfb8d50bf0def7ee6302ea89cb44bf", "lat": 38.92790083333333, "lon": -77.03719233333334, "rental_uris": {"android": "https://dc.lft.to/lastmile_qr_scan", "ios": "https://dc.lft.to/lastmile_qr_scan"}, "is_disabled": 0, "fusion_lat": 0.0, "name": "9dcfb8d50bf0def7ee6302ea89cb44bf", "fusion_lon": 0.0}, {"is_reserved": 0, "type": "electric_scooter", "bike_id": "6a2f8ad52c7b7a36bffbd1501c53646d", "lat": 38.883038, "lon": -76.92921833333334, "rental_uris": {"android": "https://dc.lft.to/lastmile_qr_scan", "ios": "https://dc.lft.to/lastmile_qr_scan"}, "is_disabled": 0, "fusion_lat": 0.0, "name": "6a2f8ad52c7b7a36bffbd1501c53646d", "fusion_lon": 0.0}, {"is_reserved": 0, "type": "electric_scooter", "bike_id": "064fa33b7b16ca3b1d936e99082a8f06", "lat": 38.93068133333333, "lon": -77.02818916666666, "rental_uris": {"android": "https://dc.lft.to/lastmile_qr_scan", "ios": "https://dc.lft.to/lastmile_qr_scan"}, "is_disabled": 0, "fusion_lat": 0.0, "name": "064fa33b7b16ca3b1d936e99082a8f06", "fusion_lon": 0.0}, {"is_reserved": 0, "type": "electric_bike", "bike_id": "19df823e7586e4a3331605a34d7ed2c2", "lat": 38.803826, "lon": -76.98814516666667, "rental_uris": {"android": "https://dc.lft.to/lastmile_qr_scan", "ios": "https://dc.lft.to/lastmile_qr_scan"}, "is_disabled": 0, "fusion_lat": 0.0, "name": "19df823e7586e4a3331605a34d7ed2c2", "fusion_lon": 0.0}, {"is_reserved": 0, "type": "electric_scooter", "bike_id": "56dc1188bb30786f470bd1dfb53bc015", "lat": 38.90264633333334, "lon": -77.05406166666667, "rental_uris": {"android": "https://dc.lft.to/lastmile_qr_scan", "ios": "https://dc.lft.to/lastmile_qr_scan"}, "is_disabled": 0, "fusion_lat": 0.0, "name": "56dc1188bb30786f470bd1dfb53bc015", "fusion_lon": 0.0}, {"is_reserved": 0, "type": "electric_bike", "bike_id": "710964bddb41eb53d91f1ca18ee69a87", "lat": 38.8026095, "lon": -77.121714, "rental_uris": {"android": "https://dc.lft.to/lastmile_qr_scan", "ios": "https://dc.lft.to/lastmile_qr_scan"}, "is_disabled": 0, "fusion_lat": 0.0, "name": "710964bddb41eb53d91f1ca18ee69a87", "fusion_lon": 0.0}, {"is_reserved": 0, "type": "electric_bike", "bike_id": "71432a251ae125b88735b6a225068f87", "lat": 38.887108833333336, "lon": -77.0964575, "rental_uris": {"android": "https://dc.lft.to/lastmile_qr_scan", "ios": "https://dc.lft.to/lastmile_qr_scan"}, "is_disabled": 0, "fusion_lat": 0.0, "name": "71432a251ae125b88735b6a225068f87", "fusion_lon": 0.0}, {"is_reserved": 0, "type": "electric_scooter", "bike_id": "022287ef566008b711f3eb796b6ad1ac", "lat": 38.92165933333333, "lon": -77.0335885, "rental_uris": {"android": "https://dc.lft.to/lastmile_qr_scan", "ios": "https://dc.lft.to/lastmile_qr_scan"}, "is_disabled": 0, "fusion_lat": 0.0, "name": "022287ef566008b711f3eb796b6ad1ac", "fusion_lon": 0.0}, {"is_reserved": 0, "type": "electric_scooter", "bike_id": "4f7172cd9d567591d18fcdbc6c99086b", "lat": 38.9260435, "lon": -77.0570815, "rental_uris": {"android": "https://dc.lft.to/lastmile_qr_scan", "ios": "https://dc.lft.to/lastmile_qr_scan"}, "is_disabled": 0, "fusion_lat": 0.0, "name": "4f7172cd9d567591d18fcdbc6c99086b", "fusion_lon": 0.0}, {"is_reserved": 0, "type": "electric_scooter", "bike_id": "5a5ef20a81c749d93b5d2a91dfc37b9a", "lat": 38.9068135, "lon": -77.0347455, "rental_uris": {"android": "https://dc.lft.to/lastmile_qr_scan", "ios": "https://dc.lft.to/lastmile_qr_scan"}, "is_disabled": 0, "fusion_lat": 0.0, "name": "5a5ef20a81c749d93b5d2a91dfc37b9a", "fusion_lon": 0.0}, {"is_reserved": 0, "type": "electric_bike", "bike_id": "fd507dab7c445e7d6d3fd5761d7b1c5f", "lat": 38.973108, "lon": -76.99481133333333, "rental_uris": {"android": "https://dc.lft.to/lastmile_qr_scan", "ios": "https://dc.lft.to/lastmile_qr_scan"}, "is_disabled": 0, "fusion_lat": 0.0, "name": "fd507dab7c445e7d6d3fd5761d7b1c5f", "fusion_lon": 0.0}, {"is_reserved": 0, "type": "electric_scooter", "bike_id": "be7feba0603b36a6fd66aaebac908027", "lat": 38.89536733333333, "lon": -77.030164, "rental_uris": {"android": "https://dc.lft.to/lastmile_qr_scan", "ios": "https://dc.lft.to/lastmile_qr_scan"}, "is_disabled": 0, "fusion_lat": 0.0, "name": "be7feba0603b36a6fd66aaebac908027", "fusion_lon": 0.0}, {"is_reserved": 0, "type": "electric_scooter", "bike_id": "836b51fd5e1bea0f816a9735214daa69", "lat": 38.8978135, "lon": -77.0320045, "rental_uris": {"android": "https://dc.lft.to/lastmile_qr_scan", "ios": "https://dc.lft.to/lastmile_qr_scan"}, "is_disabled": 0, "fusion_lat": 0.0, "name": "836b51fd5e1bea0f816a9735214daa69", "fusion_lon": 0.0}, {"is_reserved": 0, "type": "electric_scooter", "bike_id": "a3e27334e7904f6341b818c3114823c1", "lat": 38.91476183333333, "lon": -77.03186766666667, "rental_uris": {"android": "https://dc.lft.to/lastmile_qr_scan", "ios": "https://dc.lft.to/lastmile_qr_scan"}, "is_disabled": 0, "fusion_lat": 0.0, "name": "a3e27334e7904f6341b818c3114823c1", "fusion_lon": 0.0}, {"is_reserved": 0, "type": "electric_scooter", "bike_id": "5ef7d08752d7049a800c92ae185cface", "lat": 38.92009566666667, "lon": -77.0419115, "rental_uris": {"android": "https://dc.lft.to/lastmile_qr_scan", "ios": "https://dc.lft.to/lastmile_qr_scan"}, "is_disabled": 0, "fusion_lat": 0.0, "name": "5ef7d08752d7049a800c92ae185cface", "fusion_lon": 0.0}, {"is_reserved": 0, "type": "electric_scooter", "bike_id": "eaf1c6f5741c1235b4b96ed056a4f983", "lat": 38.89678333333333, "lon": -77.01206283333333, "rental_uris": {"android": "https://dc.lft.to/lastmile_qr_scan", "ios": "https://dc.lft.to/lastmile_qr_scan"}, "is_disabled": 0, "fusion_lat": 0.0, "name": "eaf1c6f5741c1235b4b96ed056a4f983", "fusion_lon": 0.0}, {"is_reserved": 0, "type": "electric_scooter", "bike_id": "5dca5f678d0c71395cbbe9d81e095a0e", "lat": 38.914183333333334, "lon": -77.02242716666667, "rental_uris": {"android": "https://dc.lft.to/lastmile_qr_scan", "ios": "https://dc.lft.to/lastmile_qr_scan"}, "is_disabled": 0, "fusion_lat": 0.0, "name": "5dca5f678d0c71395cbbe9d81e095a0e", "fusion_lon": 0.0}, {"is_reserved": 0, "type": "electric_scooter", "bike_id": "8241dcaa8addca0ada6c5bba2fa79995", "lat": 38.935912333333334, "lon": -77.03369283333333, "rental_uris": {"android": "https://dc.lft.to/lastmile_qr_scan", "ios": "https://dc.lft.to/lastmile_qr_scan"}, "is_disabled": 0, "fusion_lat": 0.0, "name": "8241dcaa8addca0ada6c5bba2fa79995", "fusion_lon": 0.0}, {"is_reserved": 0, "type": "electric_scooter", "bike_id": "363043e17e51f9c607a26b4150ca7344", "lat": 38.89897066666666, "lon": -76.98000316666666, "rental_uris": {"android": "https://dc.lft.to/lastmile_qr_scan", "ios": "https://dc.lft.to/lastmile_qr_scan"}, "is_disabled": 0, "fusion_lat": 0.0, "name": "363043e17e51f9c607a26b4150ca7344", "fusion_lon": 0.0}, {"is_reserved": 0, "type": "electric_scooter", "bike_id": "d8262a64dcf6021b624bcfce39c259c5", "lat": 38.929353666666664, "lon": -77.03771133333333, "rental_uris": {"android": "https://dc.lft.to/lastmile_qr_scan", "ios": "https://dc.lft.to/lastmile_qr_scan"}, "is_disabled": 0, "fusion_lat": 0.0, "name": "d8262a64dcf6021b624bcfce39c259c5", "fusion_lon": 0.0}, {"is_reserved": 0, "type": "electric_scooter", "bike_id": "aa455ea502fa6f31527e659a3f427545", "lat": 38.864891166666666, "lon": -76.97742366666667, "rental_uris": {"android": "https://dc.lft.to/lastmile_qr_scan", "ios": "https://dc.lft.to/lastmile_qr_scan"}, "is_disabled": 0, "fusion_lat": 0.0, "name": "aa455ea502fa6f31527e659a3f427545", "fusion_lon": 0.0}, {"is_reserved": 0, "type": "electric_bike", "bike_id": "9eb09837144d05d24fe1e75f098960ca", "lat": 38.89614516666666, "lon": -76.9073305, "rental_uris": {"android": "https://dc.lft.to/lastmile_qr_scan", "ios": "https://dc.lft.to/lastmile_qr_scan"}, "is_disabled": 0, "fusion_lat": 0.0, "name": "9eb09837144d05d24fe1e75f098960ca", "fusion_lon": 0.0}, {"is_reserved": 0, "type": "electric_scooter", "bike_id": "4ada41f4bf7d7b21c0b3afeb67b9a019", "lat": 38.8948715, "lon": -76.99578116666666, "rental_uris": {"android": "https://dc.lft.to/lastmile_qr_scan", "ios": "https://dc.lft.to/lastmile_qr_scan"}, "is_disabled": 0, "fusion_lat": 0.0, "name": "4ada41f4bf7d7b21c0b3afeb67b9a019", "fusion_lon": 0.0}, {"is_reserved": 0, "type": "electric_scooter", "bike_id": "d1fada36466d1c08ae17464facb71db7", "lat": 38.8942095, "lon": -77.05600616666666, "rental_uris": {"android": "https://dc.lft.to/lastmile_qr_scan", "ios": "https://dc.lft.to/lastmile_qr_scan"}, "is_disabled": 0, "fusion_lat": 0.0, "name": "d1fada36466d1c08ae17464facb71db7", "fusion_lon": 0.0}, {"is_reserved": 0, "type": "electric_scooter", "bike_id": "f3b47e9ee65762c0b664d75fedcbd313", "lat": 38.893519166666664, "lon": -77.01732583333333, "rental_uris": {"android": "https://dc.lft.to/lastmile_qr_scan", "ios": "https://dc.lft.to/lastmile_qr_scan"}, "is_disabled": 0, "fusion_lat": 0.0, "name": "f3b47e9ee65762c0b664d75fedcbd313", "fusion_lon": 0.0}, {"is_reserved": 0, "type": "electric_scooter", "bike_id": "14ea9ad6af53aba8877ff095029c1d36", "lat": 38.88525533333333, "lon": -76.99718483333334, "rental_uris": {"android": "https://dc.lft.to/lastmile_qr_scan", "ios": "https://dc.lft.to/lastmile_qr_scan"}, "is_disabled": 0, "fusion_lat": 0.0, "name": "14ea9ad6af53aba8877ff095029c1d36", "fusion_lon": 0.0}, {"is_reserved": 0, "type": "electric_scooter", "bike_id": "2b1ba1e50c137b5a21d17d5bd150dff7", "lat": 38.893426833333336, "lon": -77.0500465, "rental_uris": {"android": "https://dc.lft.to/lastmile_qr_scan", "ios": "https://dc.lft.to/lastmile_qr_scan"}, "is_disabled": 0, "fusion_lat": 0.0, "name": "2b1ba1e50c137b5a21d17d5bd150dff7", "fusion_lon": 0.0}, {"is_reserved": 0, "type": "electric_scooter", "bike_id": "7d9f842b3671ba1e3063e04e79af72be", "lat": 38.911859166666666, "lon": -77.03222316666667, "rental_uris": {"android": "https://dc.lft.to/lastmile_qr_scan", "ios": "https://dc.lft.to/lastmile_qr_scan"}, "is_disabled": 0, "fusion_lat": 0.0, "name": "7d9f842b3671ba1e3063e04e79af72be", "fusion_lon": 0.0}, {"is_reserved": 0, "type": "electric_scooter", "bike_id": "c4e5d0acaa5f26c12ec85d8248a0342f", "lat": 38.92050066666667, "lon": -77.025801, "rental_uris": {"android": "https://dc.lft.to/lastmile_qr_scan", "ios": "https://dc.lft.to/lastmile_qr_scan"}, "is_disabled": 0, "fusion_lat": 0.0, "name": "c4e5d0acaa5f26c12ec85d8248a0342f", "fusion_lon": 0.0}, {"is_reserved": 0, "type": "electric_bike", "bike_id": "1a70b8b0d61cbb0ba9e1b64bfcc01f8e", "lat": 38.9675345, "lon": -77.07789533333333, "rental_uris": {"android": "https://dc.lft.to/lastmile_qr_scan", "ios": "https://dc.lft.to/lastmile_qr_scan"}, "is_disabled": 0, "fusion_lat": 0.0, "name": "1a70b8b0d61cbb0ba9e1b64bfcc01f8e", "fusion_lon": 0.0}, {"is_reserved": 0, "type": "electric_scooter", "bike_id": "8d8bbfce5526e4063539e00ed1b9292a", "lat": 38.917101833333334, "lon": -77.02464033333334, "rental_uris": {"android": "https://dc.lft.to/lastmile_qr_scan", "ios": "https://dc.lft.to/lastmile_qr_scan"}, "is_disabled": 0, "fusion_lat": 0.0, "name": "8d8bbfce5526e4063539e00ed1b9292a", "fusion_lon": 0.0}, {"is_reserved": 0, "type": "electric_scooter", "bike_id": "1a65c5401f3cdb11cae2ac63cd2308f9", "lat": 38.90857283333333, "lon": -77.00180266666666, "rental_uris": {"android": "https://dc.lft.to/lastmile_qr_scan", "ios": "https://dc.lft.to/lastmile_qr_scan"}, "is_disabled": 0, "fusion_lat": 0.0, "name": "1a65c5401f3cdb11cae2ac63cd2308f9", "fusion_lon": 0.0}, {"is_reserved": 0, "type": "electric_scooter", "bike_id": "401c76b527b70c63550f66e8e6a22cc4", "lat": 38.926191, "lon": -77.05654016666666, "rental_uris": {"android": "https://dc.lft.to/lastmile_qr_scan", "ios": "https://dc.lft.to/lastmile_qr_scan"}, "is_disabled": 0, "fusion_lat": 0.0, "name": "401c76b527b70c63550f66e8e6a22cc4", "fusion_lon": 0.0}, {"is_reserved": 0, "type": "electric_scooter", "bike_id": "daf0bc119841c836703fbb63f85e4381", "lat": 38.922286666666665, "lon": -77.04325116666666, "rental_uris": {"android": "https://dc.lft.to/lastmile_qr_scan", "ios": "https://dc.lft.to/lastmile_qr_scan"}, "is_disabled": 0, "fusion_lat": 0.0, "name": "daf0bc119841c836703fbb63f85e4381", "fusion_lon": 0.0}, {"is_reserved": 0, "type": "electric_scooter", "bike_id": "a487a72a766fcb9984fc31958464f4a0", "lat": 38.8991255, "lon": -77.0398075, "rental_uris": {"android": "https://dc.lft.to/lastmile_qr_scan", "ios": "https://dc.lft.to/lastmile_qr_scan"}, "is_disabled": 0, "fusion_lat": 0.0, "name": "a487a72a766fcb9984fc31958464f4a0", "fusion_lon": 0.0}, {"is_reserved": 0, "type": "electric_scooter", "bike_id": "bc952d2fa718992d7f120a1d98ebbe2a", "lat": 38.9107865, "lon": -77.0162315, "rental_uris": {"android": "https://dc.lft.to/lastmile_qr_scan", "ios": "https://dc.lft.to/lastmile_qr_scan"}, "is_disabled": 0, "fusion_lat": 0.0, "name": "bc952d2fa718992d7f120a1d98ebbe2a", "fusion_lon": 0.0}, {"is_reserved": 0, "type": "electric_scooter", "bike_id": "556611c208889b92408d42119bdd3f03", "lat": 38.89527416666667, "lon": -76.9920875, "rental_uris": {"android": "https://dc.lft.to/lastmile_qr_scan", "ios": "https://dc.lft.to/lastmile_qr_scan"}, "is_disabled": 0, "fusion_lat": 0.0, "name": "556611c208889b92408d42119bdd3f03", "fusion_lon": 0.0}, {"is_reserved": 0, "type": "electric_scooter", "bike_id": "d174c225df20bdc7b08c999c6694138c", "lat": 38.93704816666666, "lon": -77.055929, "rental_uris": {"android": "https://dc.lft.to/lastmile_qr_scan", "ios": "https://dc.lft.to/lastmile_qr_scan"}, "is_disabled": 0, "fusion_lat": 0.0, "name": "d174c225df20bdc7b08c999c6694138c", "fusion_lon": 0.0}, {"is_reserved": 0, "type": "electric_scooter", "bike_id": "773a94c43125a7823793fa662ec4bf8a", "lat": 38.908719166666664, "lon": -77.03472016666667, "rental_uris": {"android": "https://dc.lft.to/lastmile_qr_scan", "ios": "https://dc.lft.to/lastmile_qr_scan"}, "is_disabled": 0, "fusion_lat": 0.0, "name": "773a94c43125a7823793fa662ec4bf8a", "fusion_lon": 0.0}, {"is_reserved": 0, "type": "electric_scooter", "bike_id": "9f9b01ac0775deadd4fc971f905f4af0", "lat": 38.90542033333333, "lon": -77.0592015, "rental_uris": {"android": "https://dc.lft.to/lastmile_qr_scan", "ios": "https://dc.lft.to/lastmile_qr_scan"}, "is_disabled": 0, "fusion_lat": 0.0, "name": "9f9b01ac0775deadd4fc971f905f4af0", "fusion_lon": 0.0}, {"is_reserved": 0, "type": "electric_scooter", "bike_id": "c6f102499a3974f42185c5857e46c33d", "lat": 38.897953, "lon": -77.0487105, "rental_uris": {"android": "https://dc.lft.to/lastmile_qr_scan", "ios": "https://dc.lft.to/lastmile_qr_scan"}, "is_disabled": 0, "fusion_lat": 0.0, "name": "c6f102499a3974f42185c5857e46c33d", "fusion_lon": 0.0}, {"is_reserved": 0, "type": "electric_scooter", "bike_id": "77652896c958e714f2dfb3d5f2327985", "lat": 38.941813833333335, "lon": -77.0256605, "rental_uris": {"android": "https://dc.lft.to/lastmile_qr_scan", "ios": "https://dc.lft.to/lastmile_qr_scan"}, "is_disabled": 0, "fusion_lat": 0.0, "name": "77652896c958e714f2dfb3d5f2327985", "fusion_lon": 0.0}, {"is_reserved": 0, "type": "electric_scooter", "bike_id": "afc5186983689206c63cc4a8e361e337", "lat": 38.8969825, "lon": -77.027004, "rental_uris": {"android": "https://dc.lft.to/lastmile_qr_scan", "ios": "https://dc.lft.to/lastmile_qr_scan"}, "is_disabled": 0, "fusion_lat": 0.0, "name": "afc5186983689206c63cc4a8e361e337", "fusion_lon": 0.0}, {"is_reserved": 0, "type": "electric_scooter", "bike_id": "dd8e982a9c01e8fd31a03245827fa6c0", "lat": 38.924259166666666, "lon": -77.01943383333334, "rental_uris": {"android": "https://dc.lft.to/lastmile_qr_scan", "ios": "https://dc.lft.to/lastmile_qr_scan"}, "is_disabled": 0, "fusion_lat": 0.0, "name": "dd8e982a9c01e8fd31a03245827fa6c0", "fusion_lon": 0.0}, {"is_reserved": 0, "type": "electric_scooter", "bike_id": "3a1edd3dc2a37dc59fb9176fc73f67d4", "lat": 38.907295, "lon": -77.00783783333334, "rental_uris": {"android": "https://dc.lft.to/lastmile_qr_scan", "ios": "https://dc.lft.to/lastmile_qr_scan"}, "is_disabled": 0, "fusion_lat": 0.0, "name": "3a1edd3dc2a37dc59fb9176fc73f67d4", "fusion_lon": 0.0}, {"is_reserved": 0, "type": "electric_scooter", "bike_id": "b30834ea5415a1603b6c8634d769e13c", "lat": 38.92437366666667, "lon": -77.02032183333333, "rental_uris": {"android": "https://dc.lft.to/lastmile_qr_scan", "ios": "https://dc.lft.to/lastmile_qr_scan"}, "is_disabled": 0, "fusion_lat": 0.0, "name": "b30834ea5415a1603b6c8634d769e13c", "fusion_lon": 0.0}, {"is_reserved": 0, "type": "electric_scooter", "bike_id": "397aed238627702dfe1e93d4b559c47d", "lat": 38.91134316666667, "lon": -77.032917, "rental_uris": {"android": "https://dc.lft.to/lastmile_qr_scan", "ios": "https://dc.lft.to/lastmile_qr_scan"}, "is_disabled": 0, "fusion_lat": 0.0, "name": "397aed238627702dfe1e93d4b559c47d", "fusion_lon": 0.0}, {"is_reserved": 0, "type": "electric_scooter", "bike_id": "0571beb92d17d802a26221ca46d1aeba", "lat": 38.87868233333333, "lon": -76.96263566666667, "rental_uris": {"android": "https://dc.lft.to/lastmile_qr_scan", "ios": "https://dc.lft.to/lastmile_qr_scan"}, "is_disabled": 0, "fusion_lat": 0.0, "name": "0571beb92d17d802a26221ca46d1aeba", "fusion_lon": 0.0}, {"is_reserved": 0, "type": "electric_bike", "bike_id": "228abe1c0b3c00e894d7132864d02d47", "lat": 38.958453666666664, "lon": -76.98612866666667, "rental_uris": {"android": "https://dc.lft.to/lastmile_qr_scan", "ios": "https://dc.lft.to/lastmile_qr_scan"}, "is_disabled": 0, "fusion_lat": 0.0, "name": "228abe1c0b3c00e894d7132864d02d47", "fusion_lon": 0.0}, {"is_reserved": 0, "type": "electric_scooter", "bike_id": "011b403bb33367538b122178631c33c3", "lat": 38.923138, "lon": -77.04456016666667, "rental_uris": {"android": "https://dc.lft.to/lastmile_qr_scan", "ios": "https://dc.lft.to/lastmile_qr_scan"}, "is_disabled": 0, "fusion_lat": 0.0, "name": "011b403bb33367538b122178631c33c3", "fusion_lon": 0.0}, {"is_reserved": 0, "type": "electric_bike", "bike_id": "305a9263f88b82076e176b22fac52f49", "lat": 38.92115183333333, "lon": -76.988836, "rental_uris": {"android": "https://dc.lft.to/lastmile_qr_scan", "ios": "https://dc.lft.to/lastmile_qr_scan"}, "is_disabled": 0, "fusion_lat": 0.0, "name": "305a9263f88b82076e176b22fac52f49", "fusion_lon": 0.0}, {"is_reserved": 0, "type": "electric_scooter", "bike_id": "5cb8496fbe85f5d61085edb5ec8f05bb", "lat": 38.88755466666667, "lon": -76.996192, "rental_uris": {"android": "https://dc.lft.to/lastmile_qr_scan", "ios": "https://dc.lft.to/lastmile_qr_scan"}, "is_disabled": 0, "fusion_lat": 0.0, "name": "5cb8496fbe85f5d61085edb5ec8f05bb", "fusion_lon": 0.0}, {"is_reserved": 0, "type": "electric_bike", "bike_id": "9fa6790fe1970dee7bfaba5180dde4e0", "lat": 38.92134883333333, "lon": -77.00403433333334, "rental_uris": {"android": "https://dc.lft.to/lastmile_qr_scan", "ios": "https://dc.lft.to/lastmile_qr_scan"}, "is_disabled": 0, "fusion_lat": 0.0, "name": "9fa6790fe1970dee7bfaba5180dde4e0", "fusion_lon": 0.0}, {"is_reserved": 0, "type": "electric_scooter", "bike_id": "94950bb1fb236024d22f216abfa77daf", "lat": 38.9333245, "lon": -77.02914733333333, "rental_uris": {"android": "https://dc.lft.to/lastmile_qr_scan", "ios": "https://dc.lft.to/lastmile_qr_scan"}, "is_disabled": 0, "fusion_lat": 0.0, "name": "94950bb1fb236024d22f216abfa77daf", "fusion_lon": 0.0}, {"is_reserved": 0, "type": "electric_scooter", "bike_id": "d747440120da9de8d47f3b6204a71617", "lat": 38.94978033333334, "lon": -77.0244705, "rental_uris": {"android": "https://dc.lft.to/lastmile_qr_scan", "ios": "https://dc.lft.to/lastmile_qr_scan"}, "is_disabled": 0, "fusion_lat": 0.0, "name": "d747440120da9de8d47f3b6204a71617", "fusion_lon": 0.0}, {"is_reserved": 0, "type": "electric_scooter", "bike_id": "81cebb3b02e0216c5b9616c9ccc5137a", "lat": 38.93310483333333, "lon": -76.99601216666667, "rental_uris": {"android": "https://dc.lft.to/lastmile_qr_scan", "ios": "https://dc.lft.to/lastmile_qr_scan"}, "is_disabled": 0, "fusion_lat": 0.0, "name": "81cebb3b02e0216c5b9616c9ccc5137a", "fusion_lon": 0.0}, {"is_reserved": 0, "type": "electric_scooter", "bike_id": "a573201be19eb77f87d7584e8191bf4f", "lat": 38.904798666666665, "lon": -76.981432, "rental_uris": {"android": "https://dc.lft.to/lastmile_qr_scan", "ios": "https://dc.lft.to/lastmile_qr_scan"}, "is_disabled": 0, "fusion_lat": 0.0, "name": "a573201be19eb77f87d7584e8191bf4f", "fusion_lon": 0.0}, {"is_reserved": 0, "type": "electric_scooter", "bike_id": "661810d2f76027ea9af563bd235b52dc", "lat": 38.920787833333335, "lon": -77.02431666666666, "rental_uris": {"android": "https://dc.lft.to/lastmile_qr_scan", "ios": "https://dc.lft.to/lastmile_qr_scan"}, "is_disabled": 0, "fusion_lat": 0.0, "name": "661810d2f76027ea9af563bd235b52dc", "fusion_lon": 0.0}, {"is_reserved": 0, "type": "electric_scooter", "bike_id": "c65c9db6f1784e33ef09c60fc5844329", "lat": 38.900802666666664, "lon": -77.048613, "rental_uris": {"android": "https://dc.lft.to/lastmile_qr_scan", "ios": "https://dc.lft.to/lastmile_qr_scan"}, "is_disabled": 0, "fusion_lat": 0.0, "name": "c65c9db6f1784e33ef09c60fc5844329", "fusion_lon": 0.0}, {"is_reserved": 0, "type": "electric_scooter", "bike_id": "dce19ec60d40fd51af827ea567195eb1", "lat": 38.917578, "lon": -77.004468, "rental_uris": {"android": "https://dc.lft.to/lastmile_qr_scan", "ios": "https://dc.lft.to/lastmile_qr_scan"}, "is_disabled": 0, "fusion_lat": 0.0, "name": "dce19ec60d40fd51af827ea567195eb1", "fusion_lon": 0.0}, {"is_reserved": 0, "type": "electric_scooter", "bike_id": "3b5194281c66e780689d6c0c6dce49e2", "lat": 38.90532016666667, "lon": -77.06001616666667, "rental_uris": {"android": "https://dc.lft.to/lastmile_qr_scan", "ios": "https://dc.lft.to/lastmile_qr_scan"}, "is_disabled": 0, "fusion_lat": 0.0, "name": "3b5194281c66e780689d6c0c6dce49e2", "fusion_lon": 0.0}, {"is_reserved": 0, "type": "electric_scooter", "bike_id": "576345d63506e824cf0ad118c1ff79c6", "lat": 38.876522666666666, "lon": -77.00750866666667, "rental_uris": {"android": "https://dc.lft.to/lastmile_qr_scan", "ios": "https://dc.lft.to/lastmile_qr_scan"}, "is_disabled": 0, "fusion_lat": 0.0, "name": "576345d63506e824cf0ad118c1ff79c6", "fusion_lon": 0.0}, {"is_reserved": 0, "type": "electric_bike", "bike_id": "67afc844cddd85a7d60a83dd91ca120b", "lat": 38.90234933333333, "lon": -77.01312883333334, "rental_uris": {"android": "https://dc.lft.to/lastmile_qr_scan", "ios": "https://dc.lft.to/lastmile_qr_scan"}, "is_disabled": 0, "fusion_lat": 0.0, "name": "67afc844cddd85a7d60a83dd91ca120b", "fusion_lon": 0.0}, {"is_reserved": 0, "type": "electric_bike", "bike_id": "0a689c9c1c90694e2733049c1ecfde51", "lat": 38.9386325, "lon": -77.02633166666666, "rental_uris": {"android": "https://dc.lft.to/lastmile_qr_scan", "ios": "https://dc.lft.to/lastmile_qr_scan"}, "is_disabled": 0, "fusion_lat": 0.0, "name": "0a689c9c1c90694e2733049c1ecfde51", "fusion_lon": 0.0}, {"is_reserved": 0, "type": "electric_scooter", "bike_id": "aeb5b7d916f74c340f0058e17bfb4617", "lat": 38.91106816666667, "lon": -77.044468, "rental_uris": {"android": "https://dc.lft.to/lastmile_qr_scan", "ios": "https://dc.lft.to/lastmile_qr_scan"}, "is_disabled": 0, "fusion_lat": 0.0, "name": "aeb5b7d916f74c340f0058e17bfb4617", "fusion_lon": 0.0}, {"is_reserved": 0, "type": "electric_scooter", "bike_id": "6d9604b0dc7910dbb4e1d5c22f3e3c93", "lat": 38.91745983333333, "lon": -77.01714283333334, "rental_uris": {"android": "https://dc.lft.to/lastmile_qr_scan", "ios": "https://dc.lft.to/lastmile_qr_scan"}, "is_disabled": 0, "fusion_lat": 0.0, "name": "6d9604b0dc7910dbb4e1d5c22f3e3c93", "fusion_lon": 0.0}, {"is_reserved": 0, "type": "electric_scooter", "bike_id": "e0dd2a04d3f1a19d3d9fd6b063826d69", "lat": 38.90276383333333, "lon": -77.0363345, "rental_uris": {"android": "https://dc.lft.to/lastmile_qr_scan", "ios": "https://dc.lft.to/lastmile_qr_scan"}, "is_disabled": 0, "fusion_lat": 0.0, "name": "e0dd2a04d3f1a19d3d9fd6b063826d69", "fusion_lon": 0.0}, {"is_reserved": 0, "type": "electric_scooter", "bike_id": "9c85c4afbb8410dc596f13c2a317b8dc", "lat": 38.9096545, "lon": -77.02375466666666, "rental_uris": {"android": "https://dc.lft.to/lastmile_qr_scan", "ios": "https://dc.lft.to/lastmile_qr_scan"}, "is_disabled": 0, "fusion_lat": 0.0, "name": "9c85c4afbb8410dc596f13c2a317b8dc", "fusion_lon": 0.0}, {"is_reserved": 0, "type": "electric_scooter", "bike_id": "7d02e682e1a1c34bb729bd839fd294a1", "lat": 38.927459, "lon": -77.05388766666667, "rental_uris": {"android": "https://dc.lft.to/lastmile_qr_scan", "ios": "https://dc.lft.to/lastmile_qr_scan"}, "is_disabled": 0, "fusion_lat": 0.0, "name": "7d02e682e1a1c34bb729bd839fd294a1", "fusion_lon": 0.0}, {"is_reserved": 0, "type": "electric_scooter", "bike_id": "8f63ba649ce41c227aea01f7ae5474c7", "lat": 38.88438266666667, "lon": -77.02555516666666, "rental_uris": {"android": "https://dc.lft.to/lastmile_qr_scan", "ios": "https://dc.lft.to/lastmile_qr_scan"}, "is_disabled": 0, "fusion_lat": 0.0, "name": "8f63ba649ce41c227aea01f7ae5474c7", "fusion_lon": 0.0}, {"is_reserved": 0, "type": "electric_scooter", "bike_id": "1eae5141eaf501f9d6b40b4d271b1c77", "lat": 38.87838633333333, "lon": -77.02274733333333, "rental_uris": {"android": "https://dc.lft.to/lastmile_qr_scan", "ios": "https://dc.lft.to/lastmile_qr_scan"}, "is_disabled": 0, "fusion_lat": 0.0, "name": "1eae5141eaf501f9d6b40b4d271b1c77", "fusion_lon": 0.0}, {"is_reserved": 0, "type": "electric_scooter", "bike_id": "c30ede261c37af433766af07ea68eb31", "lat": 38.9155655, "lon": -77.01005683333334, "rental_uris": {"android": "https://dc.lft.to/lastmile_qr_scan", "ios": "https://dc.lft.to/lastmile_qr_scan"}, "is_disabled": 0, "fusion_lat": 0.0, "name": "c30ede261c37af433766af07ea68eb31", "fusion_lon": 0.0}, {"is_reserved": 0, "type": "electric_scooter", "bike_id": "901d9d97c798bb9415f3496125a7a0d1", "lat": 38.89488166666667, "lon": -77.05003483333333, "rental_uris": {"android": "https://dc.lft.to/lastmile_qr_scan", "ios": "https://dc.lft.to/lastmile_qr_scan"}, "is_disabled": 0, "fusion_lat": 0.0, "name": "901d9d97c798bb9415f3496125a7a0d1", "fusion_lon": 0.0}, {"is_reserved": 0, "type": "electric_bike", "bike_id": "8f81e1d17331d376d0b87091a126fd2a", "lat": 38.94261516666667, "lon": -76.990725, "rental_uris": {"android": "https://dc.lft.to/lastmile_qr_scan", "ios": "https://dc.lft.to/lastmile_qr_scan"}, "is_disabled": 0, "fusion_lat": 0.0, "name": "8f81e1d17331d376d0b87091a126fd2a", "fusion_lon": 0.0}, {"is_reserved": 0, "type": "electric_scooter", "bike_id": "c40f3231c19157ffc039243d03c52ac5", "lat": 38.917970833333335, "lon": -77.04163083333333, "rental_uris": {"android": "https://dc.lft.to/lastmile_qr_scan", "ios": "https://dc.lft.to/lastmile_qr_scan"}, "is_disabled": 0, "fusion_lat": 0.0, "name": "c40f3231c19157ffc039243d03c52ac5", "fusion_lon": 0.0}, {"is_reserved": 0, "type": "electric_scooter", "bike_id": "8a3e2dd7ad84e8a00e845c07e9647844", "lat": 38.92044383333333, "lon": -77.02579166666666, "rental_uris": {"android": "https://dc.lft.to/lastmile_qr_scan", "ios": "https://dc.lft.to/lastmile_qr_scan"}, "is_disabled": 0, "fusion_lat": 0.0, "name": "8a3e2dd7ad84e8a00e845c07e9647844", "fusion_lon": 0.0}, {"is_reserved": 0, "type": "electric_scooter", "bike_id": "9c5672749153e8adcce708a5ada9ddb8", "lat": 38.8984125, "lon": -77.05019366666667, "rental_uris": {"android": "https://dc.lft.to/lastmile_qr_scan", "ios": "https://dc.lft.to/lastmile_qr_scan"}, "is_disabled": 0, "fusion_lat": 0.0, "name": "9c5672749153e8adcce708a5ada9ddb8", "fusion_lon": 0.0}, {"is_reserved": 0, "type": "electric_scooter", "bike_id": "3ea81c822e04053b64bff8ef490212df", "lat": 38.92183633333333, "lon": -76.99737566666667, "rental_uris": {"android": "https://dc.lft.to/lastmile_qr_scan", "ios": "https://dc.lft.to/lastmile_qr_scan"}, "is_disabled": 0, "fusion_lat": 0.0, "name": "3ea81c822e04053b64bff8ef490212df", "fusion_lon": 0.0}, {"is_reserved": 0, "type": "electric_scooter", "bike_id": "17da0dfa9de10dcbf35d5fa23f1b4614", "lat": 38.89629716666666, "lon": -77.01150016666666, "rental_uris": {"android": "https://dc.lft.to/lastmile_qr_scan", "ios": "https://dc.lft.to/lastmile_qr_scan"}, "is_disabled": 0, "fusion_lat": 0.0, "name": "17da0dfa9de10dcbf35d5fa23f1b4614", "fusion_lon": 0.0}, {"is_reserved": 0, "type": "electric_scooter", "bike_id": "ca2d047c0451e93c038eed6caf469ffd", "lat": 38.923959833333335, "lon": -77.0505665, "rental_uris": {"android": "https://dc.lft.to/lastmile_qr_scan", "ios": "https://dc.lft.to/lastmile_qr_scan"}, "is_disabled": 0, "fusion_lat": 0.0, "name": "ca2d047c0451e93c038eed6caf469ffd", "fusion_lon": 0.0}, {"is_reserved": 0, "type": "electric_scooter", "bike_id": "00465759ea5bd4ce2a3eae46fbf2dddf", "lat": 38.909736333333335, "lon": -77.02204683333333, "rental_uris": {"android": "https://dc.lft.to/lastmile_qr_scan", "ios": "https://dc.lft.to/lastmile_qr_scan"}, "is_disabled": 0, "fusion_lat": 0.0, "name": "00465759ea5bd4ce2a3eae46fbf2dddf", "fusion_lon": 0.0}, {"is_reserved": 0, "type": "electric_scooter", "bike_id": "df9e6412201f2518abd046f0b873d935", "lat": 38.894596, "lon": -77.04186116666666, "rental_uris": {"android": "https://dc.lft.to/lastmile_qr_scan", "ios": "https://dc.lft.to/lastmile_qr_scan"}, "is_disabled": 0, "fusion_lat": 0.0, "name": "df9e6412201f2518abd046f0b873d935", "fusion_lon": 0.0}, {"is_reserved": 0, "type": "electric_scooter", "bike_id": "19978014da59ed8d06d137943d1442af", "lat": 38.9056765, "lon": -77.0156705, "rental_uris": {"android": "https://dc.lft.to/lastmile_qr_scan", "ios": "https://dc.lft.to/lastmile_qr_scan"}, "is_disabled": 0, "fusion_lat": 0.0, "name": "19978014da59ed8d06d137943d1442af", "fusion_lon": 0.0}, {"is_reserved": 0, "type": "electric_scooter", "bike_id": "e27becd4a51a0318654ef71ffaf11e3e", "lat": 38.9112585, "lon": -77.02193, "rental_uris": {"android": "https://dc.lft.to/lastmile_qr_scan", "ios": "https://dc.lft.to/lastmile_qr_scan"}, "is_disabled": 0, "fusion_lat": 0.0, "name": "e27becd4a51a0318654ef71ffaf11e3e", "fusion_lon": 0.0}, {"is_reserved": 0, "type": "electric_scooter", "bike_id": "be209390b7253f3eaba3ce772ff0c5f2", "lat": 38.89922633333333, "lon": -77.03206216666666, "rental_uris": {"android": "https://dc.lft.to/lastmile_qr_scan", "ios": "https://dc.lft.to/lastmile_qr_scan"}, "is_disabled": 0, "fusion_lat": 0.0, "name": "be209390b7253f3eaba3ce772ff0c5f2", "fusion_lon": 0.0}, {"is_reserved": 0, "type": "electric_bike", "bike_id": "ab53bc13e25b4639375a3ee4c5e6812a", "lat": 38.840531666666664, "lon": -77.055992, "rental_uris": {"android": "https://dc.lft.to/lastmile_qr_scan", "ios": "https://dc.lft.to/lastmile_qr_scan"}, "is_disabled": 0, "fusion_lat": 0.0, "name": "ab53bc13e25b4639375a3ee4c5e6812a", "fusion_lon": 0.0}, {"is_reserved": 0, "type": "electric_scooter", "bike_id": "69884512fe247a1451d3b40ba6f60cb4", "lat": 38.92369733333334, "lon": -77.03653316666667, "rental_uris": {"android": "https://dc.lft.to/lastmile_qr_scan", "ios": "https://dc.lft.to/lastmile_qr_scan"}, "is_disabled": 0, "fusion_lat": 0.0, "name": "69884512fe247a1451d3b40ba6f60cb4", "fusion_lon": 0.0}, {"is_reserved": 0, "type": "electric_scooter", "bike_id": "efd53b8061ccbea11403ca0b98a982ce", "lat": 38.92078733333334, "lon": -77.02533983333333, "rental_uris": {"android": "https://dc.lft.to/lastmile_qr_scan", "ios": "https://dc.lft.to/lastmile_qr_scan"}, "is_disabled": 0, "fusion_lat": 0.0, "name": "efd53b8061ccbea11403ca0b98a982ce", "fusion_lon": 0.0}, {"is_reserved": 0, "type": "electric_scooter", "bike_id": "833a33aaf4f4150c82de82868c640d42", "lat": 38.924037, "lon": -77.02543483333334, "rental_uris": {"android": "https://dc.lft.to/lastmile_qr_scan", "ios": "https://dc.lft.to/lastmile_qr_scan"}, "is_disabled": 0, "fusion_lat": 0.0, "name": "833a33aaf4f4150c82de82868c640d42", "fusion_lon": 0.0}, {"is_reserved": 0, "type": "electric_scooter", "bike_id": "a674883f5c8983abe1c919a7bab4d9a0", "lat": 38.897564333333335, "lon": -77.027229, "rental_uris": {"android": "https://dc.lft.to/lastmile_qr_scan", "ios": "https://dc.lft.to/lastmile_qr_scan"}, "is_disabled": 0, "fusion_lat": 0.0, "name": "a674883f5c8983abe1c919a7bab4d9a0", "fusion_lon": 0.0}, {"is_reserved": 0, "type": "electric_scooter", "bike_id": "4fac6b0cdf324948633ce6ef6f885a70", "lat": 38.866024, "lon": -76.97452983333334, "rental_uris": {"android": "https://dc.lft.to/lastmile_qr_scan", "ios": "https://dc.lft.to/lastmile_qr_scan"}, "is_disabled": 0, "fusion_lat": 0.0, "name": "4fac6b0cdf324948633ce6ef6f885a70", "fusion_lon": 0.0}, {"is_reserved": 0, "type": "electric_scooter", "bike_id": "c73ec28f00c305c794c56bf42156e360", "lat": 38.896860833333335, "lon": -77.00498933333333, "rental_uris": {"android": "https://dc.lft.to/lastmile_qr_scan", "ios": "https://dc.lft.to/lastmile_qr_scan"}, "is_disabled": 0, "fusion_lat": 0.0, "name": "c73ec28f00c305c794c56bf42156e360", "fusion_lon": 0.0}, {"is_reserved": 0, "type": "electric_scooter", "bike_id": "b896fc5a829c632a9b97561a33f40fc0", "lat": 38.886704, "lon": -77.00201816666667, "rental_uris": {"android": "https://dc.lft.to/lastmile_qr_scan", "ios": "https://dc.lft.to/lastmile_qr_scan"}, "is_disabled": 0, "fusion_lat": 0.0, "name": "b896fc5a829c632a9b97561a33f40fc0", "fusion_lon": 0.0}, {"is_reserved": 0, "type": "electric_bike", "bike_id": "28936c1c6d27ceba40c7902374da62dc", "lat": 38.895938666666666, "lon": -76.90688583333333, "rental_uris": {"android": "https://dc.lft.to/lastmile_qr_scan", "ios": "https://dc.lft.to/lastmile_qr_scan"}, "is_disabled": 0, "fusion_lat": 0.0, "name": "28936c1c6d27ceba40c7902374da62dc", "fusion_lon": 0.0}, {"is_reserved": 0, "type": "electric_scooter", "bike_id": "9781110a32f1153c454c966c14958aab", "lat": 38.916930666666666, "lon": -77.02440616666667, "rental_uris": {"android": "https://dc.lft.to/lastmile_qr_scan", "ios": "https://dc.lft.to/lastmile_qr_scan"}, "is_disabled": 0, "fusion_lat": 0.0, "name": "9781110a32f1153c454c966c14958aab", "fusion_lon": 0.0}, {"is_reserved": 0, "type": "electric_scooter", "bike_id": "3972398f0a9b13ea12abd9d0df9a3bed", "lat": 38.91071766666666, "lon": -77.0319655, "rental_uris": {"android": "https://dc.lft.to/lastmile_qr_scan", "ios": "https://dc.lft.to/lastmile_qr_scan"}, "is_disabled": 0, "fusion_lat": 0.0, "name": "3972398f0a9b13ea12abd9d0df9a3bed", "fusion_lon": 0.0}, {"is_reserved": 0, "type": "electric_scooter", "bike_id": "17786967b2cd37f7530eea6cc9e19a02", "lat": 38.9256235, "lon": -77.02284033333333, "rental_uris": {"android": "https://dc.lft.to/lastmile_qr_scan", "ios": "https://dc.lft.to/lastmile_qr_scan"}, "is_disabled": 0, "fusion_lat": 0.0, "name": "17786967b2cd37f7530eea6cc9e19a02", "fusion_lon": 0.0}, {"is_reserved": 0, "type": "electric_scooter", "bike_id": "5cbd3bffdaddd53db83cdda05fe06f3e", "lat": 38.867199166666666, "lon": -76.98074283333334, "rental_uris": {"android": "https://dc.lft.to/lastmile_qr_scan", "ios": "https://dc.lft.to/lastmile_qr_scan"}, "is_disabled": 0, "fusion_lat": 0.0, "name": "5cbd3bffdaddd53db83cdda05fe06f3e", "fusion_lon": 0.0}, {"is_reserved": 0, "type": "electric_scooter", "bike_id": "3cfba305bcd8921de4ed4a97cd61d126", "lat": 38.90504333333333, "lon": -77.02955733333333, "rental_uris": {"android": "https://dc.lft.to/lastmile_qr_scan", "ios": "https://dc.lft.to/lastmile_qr_scan"}, "is_disabled": 0, "fusion_lat": 0.0, "name": "3cfba305bcd8921de4ed4a97cd61d126", "fusion_lon": 0.0}, {"is_reserved": 0, "type": "electric_scooter", "bike_id": "a104e73ec3219b8c97d744d6a7006fa2", "lat": 38.881068, "lon": -76.9950365, "rental_uris": {"android": "https://dc.lft.to/lastmile_qr_scan", "ios": "https://dc.lft.to/lastmile_qr_scan"}, "is_disabled": 0, "fusion_lat": 0.0, "name": "a104e73ec3219b8c97d744d6a7006fa2", "fusion_lon": 0.0}, {"is_reserved": 0, "type": "electric_scooter", "bike_id": "6023ed937f9c0403fa4f5f12cd20ce94", "lat": 38.912292666666666, "lon": -77.0321795, "rental_uris": {"android": "https://dc.lft.to/lastmile_qr_scan", "ios": "https://dc.lft.to/lastmile_qr_scan"}, "is_disabled": 0, "fusion_lat": 0.0, "name": "6023ed937f9c0403fa4f5f12cd20ce94", "fusion_lon": 0.0}, {"is_reserved": 0, "type": "electric_scooter", "bike_id": "0be10dd82bed67c868ebd2c54a159783", "lat": 38.880971333333335, "lon": -76.9951085, "rental_uris": {"android": "https://dc.lft.to/lastmile_qr_scan", "ios": "https://dc.lft.to/lastmile_qr_scan"}, "is_disabled": 0, "fusion_lat": 0.0, "name": "0be10dd82bed67c868ebd2c54a159783", "fusion_lon": 0.0}, {"is_reserved": 0, "type": "electric_scooter", "bike_id": "4e6414d4790d69b93dcba65b9494c88a", "lat": 38.91660533333334, "lon": -77.0247545, "rental_uris": {"android": "https://dc.lft.to/lastmile_qr_scan", "ios": "https://dc.lft.to/lastmile_qr_scan"}, "is_disabled": 0, "fusion_lat": 0.0, "name": "4e6414d4790d69b93dcba65b9494c88a", "fusion_lon": 0.0}, {"is_reserved": 0, "type": "electric_scooter", "bike_id": "4f4ed73a12704c342c62cdc2c14fbb91", "lat": 38.91958, "lon": -77.04348016666667, "rental_uris": {"android": "https://dc.lft.to/lastmile_qr_scan", "ios": "https://dc.lft.to/lastmile_qr_scan"}, "is_disabled": 0, "fusion_lat": 0.0, "name": "4f4ed73a12704c342c62cdc2c14fbb91", "fusion_lon": 0.0}, {"is_reserved": 0, "type": "electric_scooter", "bike_id": "143978c2752a5f02cea58a401720b326", "lat": 38.8861095, "lon": -77.01995916666667, "rental_uris": {"android": "https://dc.lft.to/lastmile_qr_scan", "ios": "https://dc.lft.to/lastmile_qr_scan"}, "is_disabled": 0, "fusion_lat": 0.0, "name": "143978c2752a5f02cea58a401720b326", "fusion_lon": 0.0}, {"is_reserved": 0, "type": "electric_scooter", "bike_id": "1c454f9ec758796a4bd9cc4bfd6885da", "lat": 38.97516516666666, "lon": -77.01739966666666, "rental_uris": {"android": "https://dc.lft.to/lastmile_qr_scan", "ios": "https://dc.lft.to/lastmile_qr_scan"}, "is_disabled": 0, "fusion_lat": 0.0, "name": "1c454f9ec758796a4bd9cc4bfd6885da", "fusion_lon": 0.0}, {"is_reserved": 0, "type": "electric_scooter", "bike_id": "0c1ff1fa99c5df3ba2d10da34ce9d8a6", "lat": 38.9090075, "lon": -76.9962225, "rental_uris": {"android": "https://dc.lft.to/lastmile_qr_scan", "ios": "https://dc.lft.to/lastmile_qr_scan"}, "is_disabled": 0, "fusion_lat": 0.0, "name": "0c1ff1fa99c5df3ba2d10da34ce9d8a6", "fusion_lon": 0.0}, {"is_reserved": 0, "type": "electric_scooter", "bike_id": "7bc9db4f7f4ca81ee306b0f17ec4c9c8", "lat": 38.92630366666667, "lon": -77.04254533333334, "rental_uris": {"android": "https://dc.lft.to/lastmile_qr_scan", "ios": "https://dc.lft.to/lastmile_qr_scan"}, "is_disabled": 0, "fusion_lat": 0.0, "name": "7bc9db4f7f4ca81ee306b0f17ec4c9c8", "fusion_lon": 0.0}, {"is_reserved": 0, "type": "electric_scooter", "bike_id": "c90d59effedb797eaa09053eb590cd8e", "lat": 38.915646333333335, "lon": -77.022797, "rental_uris": {"android": "https://dc.lft.to/lastmile_qr_scan", "ios": "https://dc.lft.to/lastmile_qr_scan"}, "is_disabled": 0, "fusion_lat": 0.0, "name": "c90d59effedb797eaa09053eb590cd8e", "fusion_lon": 0.0}, {"is_reserved": 0, "type": "electric_scooter", "bike_id": "60c059de9ccbb8666c2dd0560fc24839", "lat": 38.902849833333335, "lon": -77.01872, "rental_uris": {"android": "https://dc.lft.to/lastmile_qr_scan", "ios": "https://dc.lft.to/lastmile_qr_scan"}, "is_disabled": 0, "fusion_lat": 0.0, "name": "60c059de9ccbb8666c2dd0560fc24839", "fusion_lon": 0.0}, {"is_reserved": 0, "type": "electric_scooter", "bike_id": "6042058244b4a225a5995f0be7cf62b9", "lat": 38.92110366666667, "lon": -77.047024, "rental_uris": {"android": "https://dc.lft.to/lastmile_qr_scan", "ios": "https://dc.lft.to/lastmile_qr_scan"}, "is_disabled": 0, "fusion_lat": 0.0, "name": "6042058244b4a225a5995f0be7cf62b9", "fusion_lon": 0.0}, {"is_reserved": 0, "type": "electric_scooter", "bike_id": "43cfb18bece1cbb4c238ad51739db9f8", "lat": 38.952494333333334, "lon": -77.00918166666666, "rental_uris": {"android": "https://dc.lft.to/lastmile_qr_scan", "ios": "https://dc.lft.to/lastmile_qr_scan"}, "is_disabled": 0, "fusion_lat": 0.0, "name": "43cfb18bece1cbb4c238ad51739db9f8", "fusion_lon": 0.0}, {"is_reserved": 0, "type": "electric_scooter", "bike_id": "777e7f0027b939b500ea7fd8974634cf", "lat": 38.93038983333334, "lon": -77.05540433333333, "rental_uris": {"android": "https://dc.lft.to/lastmile_qr_scan", "ios": "https://dc.lft.to/lastmile_qr_scan"}, "is_disabled": 0, "fusion_lat": 0.0, "name": "777e7f0027b939b500ea7fd8974634cf", "fusion_lon": 0.0}, {"is_reserved": 0, "type": "electric_scooter", "bike_id": "e6b8cffd465b6935fce1b6860e090aeb", "lat": 38.95284766666666, "lon": -77.06853466666666, "rental_uris": {"android": "https://dc.lft.to/lastmile_qr_scan", "ios": "https://dc.lft.to/lastmile_qr_scan"}, "is_disabled": 0, "fusion_lat": 0.0, "name": "e6b8cffd465b6935fce1b6860e090aeb", "fusion_lon": 0.0}, {"is_reserved": 0, "type": "electric_scooter", "bike_id": "290610a4f6bc787ba09e047be001365d", "lat": 38.943278166666666, "lon": -77.012569, "rental_uris": {"android": "https://dc.lft.to/lastmile_qr_scan", "ios": "https://dc.lft.to/lastmile_qr_scan"}, "is_disabled": 0, "fusion_lat": 0.0, "name": "290610a4f6bc787ba09e047be001365d", "fusion_lon": 0.0}, {"is_reserved": 0, "type": "electric_scooter", "bike_id": "c173e11905a4aa44ac4d5d4927df5671", "lat": 38.9240535, "lon": -77.04265066666666, "rental_uris": {"android": "https://dc.lft.to/lastmile_qr_scan", "ios": "https://dc.lft.to/lastmile_qr_scan"}, "is_disabled": 0, "fusion_lat": 0.0, "name": "c173e11905a4aa44ac4d5d4927df5671", "fusion_lon": 0.0}, {"is_reserved": 0, "type": "electric_scooter", "bike_id": "1ece3d9abae1e9c9502cb263027181bd", "lat": 38.864832166666666, "lon": -76.97742783333334, "rental_uris": {"android": "https://dc.lft.to/lastmile_qr_scan", "ios": "https://dc.lft.to/lastmile_qr_scan"}, "is_disabled": 0, "fusion_lat": 0.0, "name": "1ece3d9abae1e9c9502cb263027181bd", "fusion_lon": 0.0}, {"is_reserved": 0, "type": "electric_scooter", "bike_id": "f9b5e00c4c4fa0ecb9edee243464a393", "lat": 38.90021266666667, "lon": -77.012107, "rental_uris": {"android": "https://dc.lft.to/lastmile_qr_scan", "ios": "https://dc.lft.to/lastmile_qr_scan"}, "is_disabled": 0, "fusion_lat": 0.0, "name": "f9b5e00c4c4fa0ecb9edee243464a393", "fusion_lon": 0.0}, {"is_reserved": 0, "type": "electric_bike", "bike_id": "bc87339d9bfcfead927d8ee256453aba", "lat": 38.8893305, "lon": -76.91322816666667, "rental_uris": {"android": "https://dc.lft.to/lastmile_qr_scan", "ios": "https://dc.lft.to/lastmile_qr_scan"}, "is_disabled": 0, "fusion_lat": 0.0, "name": "bc87339d9bfcfead927d8ee256453aba", "fusion_lon": 0.0}, {"is_reserved": 0, "type": "electric_scooter", "bike_id": "e1746aadfc3ff0039bf0abdaf045cd86", "lat": 38.92077283333333, "lon": -77.04373983333333, "rental_uris": {"android": "https://dc.lft.to/lastmile_qr_scan", "ios": "https://dc.lft.to/lastmile_qr_scan"}, "is_disabled": 0, "fusion_lat": 0.0, "name": "e1746aadfc3ff0039bf0abdaf045cd86", "fusion_lon": 0.0}, {"is_reserved": 0, "type": "electric_scooter", "bike_id": "2910df2f5170050560fefe1fc76bdc01", "lat": 38.897290166666664, "lon": -77.022945, "rental_uris": {"android": "https://dc.lft.to/lastmile_qr_scan", "ios": "https://dc.lft.to/lastmile_qr_scan"}, "is_disabled": 0, "fusion_lat": 0.0, "name": "2910df2f5170050560fefe1fc76bdc01", "fusion_lon": 0.0}, {"is_reserved": 0, "type": "electric_scooter", "bike_id": "9261338a443321f8bca8c57476b23138", "lat": 38.8971665, "lon": -77.02058483333333, "rental_uris": {"android": "https://dc.lft.to/lastmile_qr_scan", "ios": "https://dc.lft.to/lastmile_qr_scan"}, "is_disabled": 0, "fusion_lat": 0.0, "name": "9261338a443321f8bca8c57476b23138", "fusion_lon": 0.0}, {"is_reserved": 0, "type": "electric_scooter", "bike_id": "006d1ade1acf900e13824135de3c5d30", "lat": 38.91709816666667, "lon": -77.02946616666667, "rental_uris": {"android": "https://dc.lft.to/lastmile_qr_scan", "ios": "https://dc.lft.to/lastmile_qr_scan"}, "is_disabled": 0, "fusion_lat": 0.0, "name": "006d1ade1acf900e13824135de3c5d30", "fusion_lon": 0.0}, {"is_reserved": 0, "type": "electric_scooter", "bike_id": "353274199b4bd38834796f7eb956160f", "lat": 38.90812616666667, "lon": -77.0365305, "rental_uris": {"android": "https://dc.lft.to/lastmile_qr_scan", "ios": "https://dc.lft.to/lastmile_qr_scan"}, "is_disabled": 0, "fusion_lat": 0.0, "name": "353274199b4bd38834796f7eb956160f", "fusion_lon": 0.0}, {"is_reserved": 0, "type": "electric_scooter", "bike_id": "438938a52d6b3cd5b76a0d5327f95ed0", "lat": 38.91705366666667, "lon": -77.02718016666667, "rental_uris": {"android": "https://dc.lft.to/lastmile_qr_scan", "ios": "https://dc.lft.to/lastmile_qr_scan"}, "is_disabled": 0, "fusion_lat": 0.0, "name": "438938a52d6b3cd5b76a0d5327f95ed0", "fusion_lon": 0.0}, {"is_reserved": 0, "type": "electric_scooter", "bike_id": "35bb33f0c5556b2fea766b65be908b11", "lat": 38.88659616666666, "lon": -76.93673316666667, "rental_uris": {"android": "https://dc.lft.to/lastmile_qr_scan", "ios": "https://dc.lft.to/lastmile_qr_scan"}, "is_disabled": 0, "fusion_lat": 0.0, "name": "35bb33f0c5556b2fea766b65be908b11", "fusion_lon": 0.0}, {"is_reserved": 0, "type": "electric_bike", "bike_id": "ca59624cc3c94d229b1a32b52b2333b2", "lat": 38.81942466666667, "lon": -77.0020175, "rental_uris": {"android": "https://dc.lft.to/lastmile_qr_scan", "ios": "https://dc.lft.to/lastmile_qr_scan"}, "is_disabled": 0, "fusion_lat": 0.0, "name": "ca59624cc3c94d229b1a32b52b2333b2", "fusion_lon": 0.0}, {"is_reserved": 0, "type": "electric_bike", "bike_id": "33b6f0a14d3580f014ce5e4696a1a6fd", "lat": 38.945469833333334, "lon": -77.34452716666667, "rental_uris": {"android": "https://dc.lft.to/lastmile_qr_scan", "ios": "https://dc.lft.to/lastmile_qr_scan"}, "is_disabled": 0, "fusion_lat": 0.0, "name": "33b6f0a14d3580f014ce5e4696a1a6fd", "fusion_lon": 0.0}, {"is_reserved": 0, "type": "electric_scooter", "bike_id": "c2a11b6e683af1930dc1438c1335cf81", "lat": 38.9052915, "lon": -77.040155, "rental_uris": {"android": "https://dc.lft.to/lastmile_qr_scan", "ios": "https://dc.lft.to/lastmile_qr_scan"}, "is_disabled": 0, "fusion_lat": 0.0, "name": "c2a11b6e683af1930dc1438c1335cf81", "fusion_lon": 0.0}, {"is_reserved": 0, "type": "electric_scooter", "bike_id": "79f31aebb8ed82ce4e86f251b7d1fe00", "lat": 38.86120016666667, "lon": -76.98381766666667, "rental_uris": {"android": "https://dc.lft.to/lastmile_qr_scan", "ios": "https://dc.lft.to/lastmile_qr_scan"}, "is_disabled": 0, "fusion_lat": 0.0, "name": "79f31aebb8ed82ce4e86f251b7d1fe00", "fusion_lon": 0.0}, {"is_reserved": 0, "type": "electric_scooter", "bike_id": "a6724595275a9f5d3470ecb3e3fbbcf7", "lat": 38.9245125, "lon": -77.021621, "rental_uris": {"android": "https://dc.lft.to/lastmile_qr_scan", "ios": "https://dc.lft.to/lastmile_qr_scan"}, "is_disabled": 0, "fusion_lat": 0.0, "name": "a6724595275a9f5d3470ecb3e3fbbcf7", "fusion_lon": 0.0}, {"is_reserved": 0, "type": "electric_scooter", "bike_id": "0deb29cbbb305de11136ee63bdac88a7", "lat": 38.90807366666667, "lon": -77.0436285, "rental_uris": {"android": "https://dc.lft.to/lastmile_qr_scan", "ios": "https://dc.lft.to/lastmile_qr_scan"}, "is_disabled": 0, "fusion_lat": 0.0, "name": "0deb29cbbb305de11136ee63bdac88a7", "fusion_lon": 0.0}, {"is_reserved": 0, "type": "electric_bike", "bike_id": "93e4073b2a7dd98f0a6fa715703bcc49", "lat": 39.08434716666667, "lon": -76.9514735, "rental_uris": {"android": "https://dc.lft.to/lastmile_qr_scan", "ios": "https://dc.lft.to/lastmile_qr_scan"}, "is_disabled": 0, "fusion_lat": 0.0, "name": "93e4073b2a7dd98f0a6fa715703bcc49", "fusion_lon": 0.0}, {"is_reserved": 0, "type": "electric_scooter", "bike_id": "22bc6932831c4e78d5b0b688641047b4", "lat": 38.8871375, "lon": -76.996092, "rental_uris": {"android": "https://dc.lft.to/lastmile_qr_scan", "ios": "https://dc.lft.to/lastmile_qr_scan"}, "is_disabled": 0, "fusion_lat": 0.0, "name": "22bc6932831c4e78d5b0b688641047b4", "fusion_lon": 0.0}, {"is_reserved": 0, "type": "electric_scooter", "bike_id": "11d5d8188229fce24caacb0e1edab75f", "lat": 38.93015883333333, "lon": -77.02779333333334, "rental_uris": {"android": "https://dc.lft.to/lastmile_qr_scan", "ios": "https://dc.lft.to/lastmile_qr_scan"}, "is_disabled": 0, "fusion_lat": 0.0, "name": "11d5d8188229fce24caacb0e1edab75f", "fusion_lon": 0.0}, {"is_reserved": 0, "type": "electric_scooter", "bike_id": "403f17178d6a8f2bc72ea868ea116bfc", "lat": 38.9170315, "lon": -77.023111, "rental_uris": {"android": "https://dc.lft.to/lastmile_qr_scan", "ios": "https://dc.lft.to/lastmile_qr_scan"}, "is_disabled": 0, "fusion_lat": 0.0, "name": "403f17178d6a8f2bc72ea868ea116bfc", "fusion_lon": 0.0}, {"is_reserved": 0, "type": "electric_scooter", "bike_id": "dc25343ba89f98f613caade2fa84110b", "lat": 38.88281966666667, "lon": -76.9948595, "rental_uris": {"android": "https://dc.lft.to/lastmile_qr_scan", "ios": "https://dc.lft.to/lastmile_qr_scan"}, "is_disabled": 0, "fusion_lat": 0.0, "name": "dc25343ba89f98f613caade2fa84110b", "fusion_lon": 0.0}, {"is_reserved": 0, "type": "electric_scooter", "bike_id": "3ce005644d15ab8aac30e1b8d205c830", "lat": 38.924515666666665, "lon": -77.05197066666666, "rental_uris": {"android": "https://dc.lft.to/lastmile_qr_scan", "ios": "https://dc.lft.to/lastmile_qr_scan"}, "is_disabled": 0, "fusion_lat": 0.0, "name": "3ce005644d15ab8aac30e1b8d205c830", "fusion_lon": 0.0}, {"is_reserved": 0, "type": "electric_scooter", "bike_id": "f2d46151b056a50aa31e68e0e0f41217", "lat": 38.896740666666666, "lon": -77.0324405, "rental_uris": {"android": "https://dc.lft.to/lastmile_qr_scan", "ios": "https://dc.lft.to/lastmile_qr_scan"}, "is_disabled": 0, "fusion_lat": 0.0, "name": "f2d46151b056a50aa31e68e0e0f41217", "fusion_lon": 0.0}, {"is_reserved": 0, "type": "electric_scooter", "bike_id": "f98fdd55ae0267edf05cff3c3fa56f7a", "lat": 38.911312333333335, "lon": -77.044216, "rental_uris": {"android": "https://dc.lft.to/lastmile_qr_scan", "ios": "https://dc.lft.to/lastmile_qr_scan"}, "is_disabled": 0, "fusion_lat": 0.0, "name": "f98fdd55ae0267edf05cff3c3fa56f7a", "fusion_lon": 0.0}, {"is_reserved": 0, "type": "electric_scooter", "bike_id": "90317123a769c1e71c872da94009473b", "lat": 38.8993985, "lon": -76.976992, "rental_uris": {"android": "https://dc.lft.to/lastmile_qr_scan", "ios": "https://dc.lft.to/lastmile_qr_scan"}, "is_disabled": 0, "fusion_lat": 0.0, "name": "90317123a769c1e71c872da94009473b", "fusion_lon": 0.0}, {"is_reserved": 0, "type": "electric_bike", "bike_id": "a3d62ada2cb0b0693423e360c6b9f2a9", "lat": 39.000299, "lon": -77.0474375, "rental_uris": {"android": "https://dc.lft.to/lastmile_qr_scan", "ios": "https://dc.lft.to/lastmile_qr_scan"}, "is_disabled": 0, "fusion_lat": 0.0, "name": "a3d62ada2cb0b0693423e360c6b9f2a9", "fusion_lon": 0.0}, {"is_reserved": 0, "type": "electric_scooter", "bike_id": "63a352a070224b45c07913bc1ee0878f", "lat": 38.897188, "lon": -77.03278966666667, "rental_uris": {"android": "https://dc.lft.to/lastmile_qr_scan", "ios": "https://dc.lft.to/lastmile_qr_scan"}, "is_disabled": 0, "fusion_lat": 0.0, "name": "63a352a070224b45c07913bc1ee0878f", "fusion_lon": 0.0}, {"is_reserved": 0, "type": "electric_scooter", "bike_id": "330edb5d0e5dad456be007e8f720a5f6", "lat": 38.863771166666666, "lon": -76.9906075, "rental_uris": {"android": "https://dc.lft.to/lastmile_qr_scan", "ios": "https://dc.lft.to/lastmile_qr_scan"}, "is_disabled": 0, "fusion_lat": 0.0, "name": "330edb5d0e5dad456be007e8f720a5f6", "fusion_lon": 0.0}, {"is_reserved": 0, "type": "electric_scooter", "bike_id": "ab7e1b8864ed3eed0d64b2d8f18985e4", "lat": 38.896185, "lon": -77.02146716666667, "rental_uris": {"android": "https://dc.lft.to/lastmile_qr_scan", "ios": "https://dc.lft.to/lastmile_qr_scan"}, "is_disabled": 0, "fusion_lat": 0.0, "name": "ab7e1b8864ed3eed0d64b2d8f18985e4", "fusion_lon": 0.0}, {"is_reserved": 0, "type": "electric_scooter", "bike_id": "d9d585722d6d7b03fbab811a3497e44a", "lat": 38.911182333333336, "lon": -77.02237116666667, "rental_uris": {"android": "https://dc.lft.to/lastmile_qr_scan", "ios": "https://dc.lft.to/lastmile_qr_scan"}, "is_disabled": 0, "fusion_lat": 0.0, "name": "d9d585722d6d7b03fbab811a3497e44a", "fusion_lon": 0.0}, {"is_reserved": 0, "type": "electric_scooter", "bike_id": "98b2d2c8bb623264e4388461ce1de703", "lat": 38.9538075, "lon": -77.0018195, "rental_uris": {"android": "https://dc.lft.to/lastmile_qr_scan", "ios": "https://dc.lft.to/lastmile_qr_scan"}, "is_disabled": 0, "fusion_lat": 0.0, "name": "98b2d2c8bb623264e4388461ce1de703", "fusion_lon": 0.0}, {"is_reserved": 0, "type": "electric_scooter", "bike_id": "ca1e835fe68392bb1cea301acd554331", "lat": 38.894938, "lon": -77.02147183333334, "rental_uris": {"android": "https://dc.lft.to/lastmile_qr_scan", "ios": "https://dc.lft.to/lastmile_qr_scan"}, "is_disabled": 0, "fusion_lat": 0.0, "name": "ca1e835fe68392bb1cea301acd554331", "fusion_lon": 0.0}, {"is_reserved": 0, "type": "electric_scooter", "bike_id": "2f26f33448868ad447e65a7d87e441bf", "lat": 38.91462933333333, "lon": -76.98432933333333, "rental_uris": {"android": "https://dc.lft.to/lastmile_qr_scan", "ios": "https://dc.lft.to/lastmile_qr_scan"}, "is_disabled": 0, "fusion_lat": 0.0, "name": "2f26f33448868ad447e65a7d87e441bf", "fusion_lon": 0.0}, {"is_reserved": 0, "type": "electric_scooter", "bike_id": "b991376bdae800cbc06229d1fd5ba94c", "lat": 38.91541866666667, "lon": -77.04462283333334, "rental_uris": {"android": "https://dc.lft.to/lastmile_qr_scan", "ios": "https://dc.lft.to/lastmile_qr_scan"}, "is_disabled": 0, "fusion_lat": 0.0, "name": "b991376bdae800cbc06229d1fd5ba94c", "fusion_lon": 0.0}, {"is_reserved": 0, "type": "electric_scooter", "bike_id": "7b51907105a8df35dacba7684d726653", "lat": 38.87736683333333, "lon": -77.0190135, "rental_uris": {"android": "https://dc.lft.to/lastmile_qr_scan", "ios": "https://dc.lft.to/lastmile_qr_scan"}, "is_disabled": 0, "fusion_lat": 0.0, "name": "7b51907105a8df35dacba7684d726653", "fusion_lon": 0.0}, {"is_reserved": 0, "type": "electric_scooter", "bike_id": "870f5958683c30f98942afcd8d773c2c", "lat": 38.9375575, "lon": -77.02839833333333, "rental_uris": {"android": "https://dc.lft.to/lastmile_qr_scan", "ios": "https://dc.lft.to/lastmile_qr_scan"}, "is_disabled": 0, "fusion_lat": 0.0, "name": "870f5958683c30f98942afcd8d773c2c", "fusion_lon": 0.0}, {"is_reserved": 0, "type": "electric_scooter", "bike_id": "c76666a1b10d648ffebd695428857ca7", "lat": 38.91554083333333, "lon": -77.03308533333333, "rental_uris": {"android": "https://dc.lft.to/lastmile_qr_scan", "ios": "https://dc.lft.to/lastmile_qr_scan"}, "is_disabled": 0, "fusion_lat": 0.0, "name": "c76666a1b10d648ffebd695428857ca7", "fusion_lon": 0.0}, {"is_reserved": 0, "type": "electric_scooter", "bike_id": "8241b816b11614bd8723fb43634e5264", "lat": 38.905673, "lon": -77.007818, "rental_uris": {"android": "https://dc.lft.to/lastmile_qr_scan", "ios": "https://dc.lft.to/lastmile_qr_scan"}, "is_disabled": 0, "fusion_lat": 0.0, "name": "8241b816b11614bd8723fb43634e5264", "fusion_lon": 0.0}, {"is_reserved": 0, "type": "electric_scooter", "bike_id": "8843ee3c04d707ce725cd35c89dfeb67", "lat": 38.88153883333333, "lon": -76.99497583333333, "rental_uris": {"android": "https://dc.lft.to/lastmile_qr_scan", "ios": "https://dc.lft.to/lastmile_qr_scan"}, "is_disabled": 0, "fusion_lat": 0.0, "name": "8843ee3c04d707ce725cd35c89dfeb67", "fusion_lon": 0.0}, {"is_reserved": 0, "type": "electric_scooter", "bike_id": "826023ee5d5ab4b18696334209e10b45", "lat": 38.889718333333334, "lon": -76.9994055, "rental_uris": {"android": "https://dc.lft.to/lastmile_qr_scan", "ios": "https://dc.lft.to/lastmile_qr_scan"}, "is_disabled": 0, "fusion_lat": 0.0, "name": "826023ee5d5ab4b18696334209e10b45", "fusion_lon": 0.0}, {"is_reserved": 0, "type": "electric_scooter", "bike_id": "b48a1b75bb6634e645b9efc92f0f72d7", "lat": 38.8991615, "lon": -77.03205433333333, "rental_uris": {"android": "https://dc.lft.to/lastmile_qr_scan", "ios": "https://dc.lft.to/lastmile_qr_scan"}, "is_disabled": 0, "fusion_lat": 0.0, "name": "b48a1b75bb6634e645b9efc92f0f72d7", "fusion_lon": 0.0}, {"is_reserved": 0, "type": "electric_scooter", "bike_id": "e1052063dbaec1c1d42b3e5da4a8276d", "lat": 38.899356833333336, "lon": -77.00362183333333, "rental_uris": {"android": "https://dc.lft.to/lastmile_qr_scan", "ios": "https://dc.lft.to/lastmile_qr_scan"}, "is_disabled": 0, "fusion_lat": 0.0, "name": "e1052063dbaec1c1d42b3e5da4a8276d", "fusion_lon": 0.0}, {"is_reserved": 0, "type": "electric_scooter", "bike_id": "6ee717d27354af2fe761644d99eef6d9", "lat": 38.903669, "lon": -76.984889, "rental_uris": {"android": "https://dc.lft.to/lastmile_qr_scan", "ios": "https://dc.lft.to/lastmile_qr_scan"}, "is_disabled": 0, "fusion_lat": 0.0, "name": "6ee717d27354af2fe761644d99eef6d9", "fusion_lon": 0.0}, {"is_reserved": 0, "type": "electric_scooter", "bike_id": "447de042534a8277b3d80344abeffe14", "lat": 38.905168333333336, "lon": -77.061004, "rental_uris": {"android": "https://dc.lft.to/lastmile_qr_scan", "ios": "https://dc.lft.to/lastmile_qr_scan"}, "is_disabled": 0, "fusion_lat": 0.0, "name": "447de042534a8277b3d80344abeffe14", "fusion_lon": 0.0}, {"is_reserved": 0, "type": "electric_scooter", "bike_id": "c30e86402af8a54e7ce799a89079ea68", "lat": 38.887700333333335, "lon": -76.93264333333333, "rental_uris": {"android": "https://dc.lft.to/lastmile_qr_scan", "ios": "https://dc.lft.to/lastmile_qr_scan"}, "is_disabled": 0, "fusion_lat": 0.0, "name": "c30e86402af8a54e7ce799a89079ea68", "fusion_lon": 0.0}, {"is_reserved": 0, "type": "electric_scooter", "bike_id": "9427fa49685c30323a63bdc58823b1d9", "lat": 38.92020933333333, "lon": -76.98547733333334, "rental_uris": {"android": "https://dc.lft.to/lastmile_qr_scan", "ios": "https://dc.lft.to/lastmile_qr_scan"}, "is_disabled": 0, "fusion_lat": 0.0, "name": "9427fa49685c30323a63bdc58823b1d9", "fusion_lon": 0.0}, {"is_reserved": 0, "type": "electric_scooter", "bike_id": "f002ecbf31dc018a04c46c725ce1f1d9", "lat": 38.92152433333333, "lon": -77.038648, "rental_uris": {"android": "https://dc.lft.to/lastmile_qr_scan", "ios": "https://dc.lft.to/lastmile_qr_scan"}, "is_disabled": 0, "fusion_lat": 0.0, "name": "f002ecbf31dc018a04c46c725ce1f1d9", "fusion_lon": 0.0}, {"is_reserved": 0, "type": "electric_scooter", "bike_id": "b8add401eb786b5a87c9776cd88f81fd", "lat": 38.9054525, "lon": -77.02693666666667, "rental_uris": {"android": "https://dc.lft.to/lastmile_qr_scan", "ios": "https://dc.lft.to/lastmile_qr_scan"}, "is_disabled": 0, "fusion_lat": 0.0, "name": "b8add401eb786b5a87c9776cd88f81fd", "fusion_lon": 0.0}, {"is_reserved": 0, "type": "electric_scooter", "bike_id": "5c2edd085027589bf795953e40e2a538", "lat": 38.9111325, "lon": -77.03245016666666, "rental_uris": {"android": "https://dc.lft.to/lastmile_qr_scan", "ios": "https://dc.lft.to/lastmile_qr_scan"}, "is_disabled": 0, "fusion_lat": 0.0, "name": "5c2edd085027589bf795953e40e2a538", "fusion_lon": 0.0}, {"is_reserved": 0, "type": "electric_bike", "bike_id": "9ed3d0ef13345a74c3811e4ef6afc89f", "lat": 38.86754783333333, "lon": -76.94529466666667, "rental_uris": {"android": "https://dc.lft.to/lastmile_qr_scan", "ios": "https://dc.lft.to/lastmile_qr_scan"}, "is_disabled": 0, "fusion_lat": 0.0, "name": "9ed3d0ef13345a74c3811e4ef6afc89f", "fusion_lon": 0.0}, {"is_reserved": 0, "type": "electric_bike", "bike_id": "b9beb8f087f97940f83c53e692b2640c", "lat": 38.932032166666666, "lon": -77.02337433333334, "rental_uris": {"android": "https://dc.lft.to/lastmile_qr_scan", "ios": "https://dc.lft.to/lastmile_qr_scan"}, "is_disabled": 0, "fusion_lat": 0.0, "name": "b9beb8f087f97940f83c53e692b2640c", "fusion_lon": 0.0}, {"is_reserved": 0, "type": "electric_scooter", "bike_id": "a71c02d533201f1c17e5368e838215d5", "lat": 38.92255683333333, "lon": -77.04302066666666, "rental_uris": {"android": "https://dc.lft.to/lastmile_qr_scan", "ios": "https://dc.lft.to/lastmile_qr_scan"}, "is_disabled": 0, "fusion_lat": 0.0, "name": "a71c02d533201f1c17e5368e838215d5", "fusion_lon": 0.0}, {"is_reserved": 0, "type": "electric_scooter", "bike_id": "081ecfcbee98771208fdfc08e4a2dbc8", "lat": 38.9069085, "lon": -77.0344825, "rental_uris": {"android": "https://dc.lft.to/lastmile_qr_scan", "ios": "https://dc.lft.to/lastmile_qr_scan"}, "is_disabled": 0, "fusion_lat": 0.0, "name": "081ecfcbee98771208fdfc08e4a2dbc8", "fusion_lon": 0.0}, {"is_reserved": 0, "type": "electric_scooter", "bike_id": "14ee2083e07f18aeadc8e7bb45c26aa7", "lat": 38.924187, "lon": -77.0201305, "rental_uris": {"android": "https://dc.lft.to/lastmile_qr_scan", "ios": "https://dc.lft.to/lastmile_qr_scan"}, "is_disabled": 0, "fusion_lat": 0.0, "name": "14ee2083e07f18aeadc8e7bb45c26aa7", "fusion_lon": 0.0}, {"is_reserved": 0, "type": "electric_scooter", "bike_id": "9ff68d5e7346dd0d704d0962f12d72bd", "lat": 38.92767666666667, "lon": -77.027624, "rental_uris": {"android": "https://dc.lft.to/lastmile_qr_scan", "ios": "https://dc.lft.to/lastmile_qr_scan"}, "is_disabled": 0, "fusion_lat": 0.0, "name": "9ff68d5e7346dd0d704d0962f12d72bd", "fusion_lon": 0.0}, {"is_reserved": 0, "type": "electric_scooter", "bike_id": "be242382ad592dacfb592d6886892449", "lat": 38.902204166666664, "lon": -77.02153083333333, "rental_uris": {"android": "https://dc.lft.to/lastmile_qr_scan", "ios": "https://dc.lft.to/lastmile_qr_scan"}, "is_disabled": 0, "fusion_lat": 0.0, "name": "be242382ad592dacfb592d6886892449", "fusion_lon": 0.0}, {"is_reserved": 0, "type": "electric_scooter", "bike_id": "e32af88591a6d7f0fb8d5a09ea1e7550", "lat": 38.905684666666666, "lon": -77.04135816666667, "rental_uris": {"android": "https://dc.lft.to/lastmile_qr_scan", "ios": "https://dc.lft.to/lastmile_qr_scan"}, "is_disabled": 0, "fusion_lat": 0.0, "name": "e32af88591a6d7f0fb8d5a09ea1e7550", "fusion_lon": 0.0}, {"is_reserved": 0, "type": "electric_scooter", "bike_id": "452f18bdbeeef545b0126e89dbf7beb0", "lat": 38.93502816666667, "lon": -77.04285966666667, "rental_uris": {"android": "https://dc.lft.to/lastmile_qr_scan", "ios": "https://dc.lft.to/lastmile_qr_scan"}, "is_disabled": 0, "fusion_lat": 0.0, "name": "452f18bdbeeef545b0126e89dbf7beb0", "fusion_lon": 0.0}, {"is_reserved": 0, "type": "electric_scooter", "bike_id": "a5f7847f005e18dfe101eb686525dbed", "lat": 38.912865, "lon": -77.022055, "rental_uris": {"android": "https://dc.lft.to/lastmile_qr_scan", "ios": "https://dc.lft.to/lastmile_qr_scan"}, "is_disabled": 0, "fusion_lat": 0.0, "name": "a5f7847f005e18dfe101eb686525dbed", "fusion_lon": 0.0}, {"is_reserved": 0, "type": "electric_scooter", "bike_id": "56e4672661398f0cce5ae10b7cd62cb5", "lat": 38.9003215, "lon": -76.98841533333334, "rental_uris": {"android": "https://dc.lft.to/lastmile_qr_scan", "ios": "https://dc.lft.to/lastmile_qr_scan"}, "is_disabled": 0, "fusion_lat": 0.0, "name": "56e4672661398f0cce5ae10b7cd62cb5", "fusion_lon": 0.0}, {"is_reserved": 0, "type": "electric_scooter", "bike_id": "bf840d71583a7e872a2062ffa33f2090", "lat": 38.92397016666666, "lon": -77.05042833333333, "rental_uris": {"android": "https://dc.lft.to/lastmile_qr_scan", "ios": "https://dc.lft.to/lastmile_qr_scan"}, "is_disabled": 0, "fusion_lat": 0.0, "name": "bf840d71583a7e872a2062ffa33f2090", "fusion_lon": 0.0}, {"is_reserved": 0, "type": "electric_scooter", "bike_id": "5338eccfa3fefe9f6c47dcc287c61e9e", "lat": 38.91280866666666, "lon": -77.07284166666666, "rental_uris": {"android": "https://dc.lft.to/lastmile_qr_scan", "ios": "https://dc.lft.to/lastmile_qr_scan"}, "is_disabled": 0, "fusion_lat": 0.0, "name": "5338eccfa3fefe9f6c47dcc287c61e9e", "fusion_lon": 0.0}, {"is_reserved": 0, "type": "electric_scooter", "bike_id": "cba3c3c1942312f52b1747fa711cad37", "lat": 38.90401166666667, "lon": -77.02008616666667, "rental_uris": {"android": "https://dc.lft.to/lastmile_qr_scan", "ios": "https://dc.lft.to/lastmile_qr_scan"}, "is_disabled": 0, "fusion_lat": 0.0, "name": "cba3c3c1942312f52b1747fa711cad37", "fusion_lon": 0.0}, {"is_reserved": 0, "type": "electric_scooter", "bike_id": "115feb0a5206e58b41b3cc32c76dde98", "lat": 38.85651633333333, "lon": -76.99676316666667, "rental_uris": {"android": "https://dc.lft.to/lastmile_qr_scan", "ios": "https://dc.lft.to/lastmile_qr_scan"}, "is_disabled": 0, "fusion_lat": 0.0, "name": "115feb0a5206e58b41b3cc32c76dde98", "fusion_lon": 0.0}, {"is_reserved": 0, "type": "electric_bike", "bike_id": "b2ea58ebd3da24ddf3046e5ffb4e0f53", "lat": 38.894656166666664, "lon": -77.10362866666667, "rental_uris": {"android": "https://dc.lft.to/lastmile_qr_scan", "ios": "https://dc.lft.to/lastmile_qr_scan"}, "is_disabled": 0, "fusion_lat": 0.0, "name": "b2ea58ebd3da24ddf3046e5ffb4e0f53", "fusion_lon": 0.0}, {"is_reserved": 0, "type": "electric_scooter", "bike_id": "2555a52e8ae6c4bed731341b0f74649c", "lat": 38.92457016666667, "lon": -77.020312, "rental_uris": {"android": "https://dc.lft.to/lastmile_qr_scan", "ios": "https://dc.lft.to/lastmile_qr_scan"}, "is_disabled": 0, "fusion_lat": 0.0, "name": "2555a52e8ae6c4bed731341b0f74649c", "fusion_lon": 0.0}, {"is_reserved": 0, "type": "electric_scooter", "bike_id": "d75319dca9b858f2cd6c8cde435fd820", "lat": 38.90451233333334, "lon": -76.99635466666666, "rental_uris": {"android": "https://dc.lft.to/lastmile_qr_scan", "ios": "https://dc.lft.to/lastmile_qr_scan"}, "is_disabled": 0, "fusion_lat": 0.0, "name": "d75319dca9b858f2cd6c8cde435fd820", "fusion_lon": 0.0}, {"is_reserved": 0, "type": "electric_scooter", "bike_id": "1120806e1a0ed7f3c7f446a9e65e0c04", "lat": 38.915888833333334, "lon": -77.02089216666667, "rental_uris": {"android": "https://dc.lft.to/lastmile_qr_scan", "ios": "https://dc.lft.to/lastmile_qr_scan"}, "is_disabled": 0, "fusion_lat": 0.0, "name": "1120806e1a0ed7f3c7f446a9e65e0c04", "fusion_lon": 0.0}, {"is_reserved": 0, "type": "electric_scooter", "bike_id": "58b39af866e5a58e3e46ec8bd602dcb8", "lat": 38.92390483333333, "lon": -77.05056616666667, "rental_uris": {"android": "https://dc.lft.to/lastmile_qr_scan", "ios": "https://dc.lft.to/lastmile_qr_scan"}, "is_disabled": 0, "fusion_lat": 0.0, "name": "58b39af866e5a58e3e46ec8bd602dcb8", "fusion_lon": 0.0}, {"is_reserved": 0, "type": "electric_scooter", "bike_id": "2fea87166ceab6cf7adeb994020f0753", "lat": 38.905459666666665, "lon": -77.057116, "rental_uris": {"android": "https://dc.lft.to/lastmile_qr_scan", "ios": "https://dc.lft.to/lastmile_qr_scan"}, "is_disabled": 0, "fusion_lat": 0.0, "name": "2fea87166ceab6cf7adeb994020f0753", "fusion_lon": 0.0}, {"is_reserved": 0, "type": "electric_scooter", "bike_id": "6b49c666964dead811c23ffe6affe254", "lat": 38.931776666666664, "lon": -77.0385145, "rental_uris": {"android": "https://dc.lft.to/lastmile_qr_scan", "ios": "https://dc.lft.to/lastmile_qr_scan"}, "is_disabled": 0, "fusion_lat": 0.0, "name": "6b49c666964dead811c23ffe6affe254", "fusion_lon": 0.0}, {"is_reserved": 0, "type": "electric_scooter", "bike_id": "c6ae7b9079ba0dc72803d807acf43ad0", "lat": 38.907279333333335, "lon": -77.03199483333333, "rental_uris": {"android": "https://dc.lft.to/lastmile_qr_scan", "ios": "https://dc.lft.to/lastmile_qr_scan"}, "is_disabled": 0, "fusion_lat": 0.0, "name": "c6ae7b9079ba0dc72803d807acf43ad0", "fusion_lon": 0.0}, {"is_reserved": 0, "type": "electric_scooter", "bike_id": "7ae88d0d6927575c37597e3a7449af68", "lat": 38.89367933333333, "lon": -77.0282075, "rental_uris": {"android": "https://dc.lft.to/lastmile_qr_scan", "ios": "https://dc.lft.to/lastmile_qr_scan"}, "is_disabled": 0, "fusion_lat": 0.0, "name": "7ae88d0d6927575c37597e3a7449af68", "fusion_lon": 0.0}, {"is_reserved": 0, "type": "electric_bike", "bike_id": "cb35851f786990349146b18b11be2852", "lat": 38.949677, "lon": -76.96091733333333, "rental_uris": {"android": "https://dc.lft.to/lastmile_qr_scan", "ios": "https://dc.lft.to/lastmile_qr_scan"}, "is_disabled": 0, "fusion_lat": 0.0, "name": "cb35851f786990349146b18b11be2852", "fusion_lon": 0.0}, {"is_reserved": 0, "type": "electric_scooter", "bike_id": "5750b5449debb76ce184466de2956999", "lat": 38.938613333333336, "lon": -77.026501, "rental_uris": {"android": "https://dc.lft.to/lastmile_qr_scan", "ios": "https://dc.lft.to/lastmile_qr_scan"}, "is_disabled": 0, "fusion_lat": 0.0, "name": "5750b5449debb76ce184466de2956999", "fusion_lon": 0.0}, {"is_reserved": 0, "type": "electric_scooter", "bike_id": "3d495a061a326036cf72f62b047933df", "lat": 38.9155585, "lon": -77.02360483333334, "rental_uris": {"android": "https://dc.lft.to/lastmile_qr_scan", "ios": "https://dc.lft.to/lastmile_qr_scan"}, "is_disabled": 0, "fusion_lat": 0.0, "name": "3d495a061a326036cf72f62b047933df", "fusion_lon": 0.0}, {"is_reserved": 0, "type": "electric_scooter", "bike_id": "4af7f837db3308648572fe03de25a0a8", "lat": 38.90514916666667, "lon": -77.056683, "rental_uris": {"android": "https://dc.lft.to/lastmile_qr_scan", "ios": "https://dc.lft.to/lastmile_qr_scan"}, "is_disabled": 0, "fusion_lat": 0.0, "name": "4af7f837db3308648572fe03de25a0a8", "fusion_lon": 0.0}, {"is_reserved": 0, "type": "electric_scooter", "bike_id": "60c7b23f58569893802897a4dcb1ad5e", "lat": 38.87265883333333, "lon": -77.01709566666666, "rental_uris": {"android": "https://dc.lft.to/lastmile_qr_scan", "ios": "https://dc.lft.to/lastmile_qr_scan"}, "is_disabled": 0, "fusion_lat": 0.0, "name": "60c7b23f58569893802897a4dcb1ad5e", "fusion_lon": 0.0}, {"is_reserved": 0, "type": "electric_bike", "bike_id": "5bb43828338501d754ce2d2f5c917130", "lat": 38.8086495, "lon": -77.112603, "rental_uris": {"android": "https://dc.lft.to/lastmile_qr_scan", "ios": "https://dc.lft.to/lastmile_qr_scan"}, "is_disabled": 0, "fusion_lat": 0.0, "name": "5bb43828338501d754ce2d2f5c917130", "fusion_lon": 0.0}, {"is_reserved": 0, "type": "electric_scooter", "bike_id": "acaba4dae896092b033ee68604d886f5", "lat": 38.871651166666666, "lon": -77.01318316666666, "rental_uris": {"android": "https://dc.lft.to/lastmile_qr_scan", "ios": "https://dc.lft.to/lastmile_qr_scan"}, "is_disabled": 0, "fusion_lat": 0.0, "name": "acaba4dae896092b033ee68604d886f5", "fusion_lon": 0.0}, {"is_reserved": 0, "type": "electric_scooter", "bike_id": "93fb3b3ce6014bac508eb27a7c994605", "lat": 38.906845, "lon": -77.06266016666666, "rental_uris": {"android": "https://dc.lft.to/lastmile_qr_scan", "ios": "https://dc.lft.to/lastmile_qr_scan"}, "is_disabled": 0, "fusion_lat": 0.0, "name": "93fb3b3ce6014bac508eb27a7c994605", "fusion_lon": 0.0}, {"is_reserved": 0, "type": "electric_scooter", "bike_id": "cd75c1b5a748a34c8d0d2dc1b2456ae5", "lat": 38.923728, "lon": -77.01914533333333, "rental_uris": {"android": "https://dc.lft.to/lastmile_qr_scan", "ios": "https://dc.lft.to/lastmile_qr_scan"}, "is_disabled": 0, "fusion_lat": 0.0, "name": "cd75c1b5a748a34c8d0d2dc1b2456ae5", "fusion_lon": 0.0}, {"is_reserved": 0, "type": "electric_bike", "bike_id": "641a32747555d580825ceed4f9ed5f98", "lat": 38.900486, "lon": -76.97781966666666, "rental_uris": {"android": "https://dc.lft.to/lastmile_qr_scan", "ios": "https://dc.lft.to/lastmile_qr_scan"}, "is_disabled": 0, "fusion_lat": 0.0, "name": "641a32747555d580825ceed4f9ed5f98", "fusion_lon": 0.0}, {"is_reserved": 0, "type": "electric_scooter", "bike_id": "b928cb5123fe147d88a16625ff204173", "lat": 38.90810583333333, "lon": -77.03672383333334, "rental_uris": {"android": "https://dc.lft.to/lastmile_qr_scan", "ios": "https://dc.lft.to/lastmile_qr_scan"}, "is_disabled": 0, "fusion_lat": 0.0, "name": "b928cb5123fe147d88a16625ff204173", "fusion_lon": 0.0}, {"is_reserved": 0, "type": "electric_scooter", "bike_id": "45381a26a3f4a609a7a890a4057b9103", "lat": 38.89908916666667, "lon": -77.00367816666666, "rental_uris": {"android": "https://dc.lft.to/lastmile_qr_scan", "ios": "https://dc.lft.to/lastmile_qr_scan"}, "is_disabled": 0, "fusion_lat": 0.0, "name": "45381a26a3f4a609a7a890a4057b9103", "fusion_lon": 0.0}, {"is_reserved": 0, "type": "electric_scooter", "bike_id": "d0c343a7f26bf7c4b726e459f624a9e3", "lat": 38.921522333333336, "lon": -77.0435745, "rental_uris": {"android": "https://dc.lft.to/lastmile_qr_scan", "ios": "https://dc.lft.to/lastmile_qr_scan"}, "is_disabled": 0, "fusion_lat": 0.0, "name": "d0c343a7f26bf7c4b726e459f624a9e3", "fusion_lon": 0.0}, {"is_reserved": 0, "type": "electric_scooter", "bike_id": "e61031b44ea3ecec20c6fa525a0713c7", "lat": 38.909591, "lon": -77.02276283333333, "rental_uris": {"android": "https://dc.lft.to/lastmile_qr_scan", "ios": "https://dc.lft.to/lastmile_qr_scan"}, "is_disabled": 0, "fusion_lat": 0.0, "name": "e61031b44ea3ecec20c6fa525a0713c7", "fusion_lon": 0.0}, {"is_reserved": 0, "type": "electric_bike", "bike_id": "48759eae974375ba715a805482932b8b", "lat": 38.92913266666667, "lon": -77.09744883333333, "rental_uris": {"android": "https://dc.lft.to/lastmile_qr_scan", "ios": "https://dc.lft.to/lastmile_qr_scan"}, "is_disabled": 0, "fusion_lat": 0.0, "name": "48759eae974375ba715a805482932b8b", "fusion_lon": 0.0}, {"is_reserved": 0, "type": "electric_scooter", "bike_id": "cd715976318d6d47b121fe04aba04516", "lat": 38.9003695, "lon": -77.01229166666667, "rental_uris": {"android": "https://dc.lft.to/lastmile_qr_scan", "ios": "https://dc.lft.to/lastmile_qr_scan"}, "is_disabled": 0, "fusion_lat": 0.0, "name": "cd715976318d6d47b121fe04aba04516", "fusion_lon": 0.0}, {"is_reserved": 0, "type": "electric_scooter", "bike_id": "4e465702b699577cce1cac0a593d7851", "lat": 38.87882533333333, "lon": -77.0052175, "rental_uris": {"android": "https://dc.lft.to/lastmile_qr_scan", "ios": "https://dc.lft.to/lastmile_qr_scan"}, "is_disabled": 0, "fusion_lat": 0.0, "name": "4e465702b699577cce1cac0a593d7851", "fusion_lon": 0.0}, {"is_reserved": 0, "type": "electric_scooter", "bike_id": "491c31c59e1c3321989d86b214d20832", "lat": 38.909091, "lon": -77.04514666666667, "rental_uris": {"android": "https://dc.lft.to/lastmile_qr_scan", "ios": "https://dc.lft.to/lastmile_qr_scan"}, "is_disabled": 0, "fusion_lat": 0.0, "name": "491c31c59e1c3321989d86b214d20832", "fusion_lon": 0.0}, {"is_reserved": 0, "type": "electric_scooter", "bike_id": "81a8c63acd22accc9bc53936232285d1", "lat": 38.898415166666666, "lon": -77.02811883333334, "rental_uris": {"android": "https://dc.lft.to/lastmile_qr_scan", "ios": "https://dc.lft.to/lastmile_qr_scan"}, "is_disabled": 0, "fusion_lat": 0.0, "name": "81a8c63acd22accc9bc53936232285d1", "fusion_lon": 0.0}, {"is_reserved": 0, "type": "electric_scooter", "bike_id": "40ac5b2ce0a318eb5854dc45c0da5fd7", "lat": 38.91708883333333, "lon": -77.02715366666666, "rental_uris": {"android": "https://dc.lft.to/lastmile_qr_scan", "ios": "https://dc.lft.to/lastmile_qr_scan"}, "is_disabled": 0, "fusion_lat": 0.0, "name": "40ac5b2ce0a318eb5854dc45c0da5fd7", "fusion_lon": 0.0}, {"is_reserved": 0, "type": "electric_scooter", "bike_id": "349d7b705dec9b4811f3dc9871498ed1", "lat": 38.90562366666666, "lon": -77.00899483333333, "rental_uris": {"android": "https://dc.lft.to/lastmile_qr_scan", "ios": "https://dc.lft.to/lastmile_qr_scan"}, "is_disabled": 0, "fusion_lat": 0.0, "name": "349d7b705dec9b4811f3dc9871498ed1", "fusion_lon": 0.0}, {"is_reserved": 0, "type": "electric_scooter", "bike_id": "226a2830778e27d13135d433d751f975", "lat": 38.931395, "lon": -77.03839266666667, "rental_uris": {"android": "https://dc.lft.to/lastmile_qr_scan", "ios": "https://dc.lft.to/lastmile_qr_scan"}, "is_disabled": 0, "fusion_lat": 0.0, "name": "226a2830778e27d13135d433d751f975", "fusion_lon": 0.0}, {"is_reserved": 0, "type": "electric_scooter", "bike_id": "7cab39f50a37c7dbfedf994e2b5076c7", "lat": 38.895484333333336, "lon": -76.98334166666666, "rental_uris": {"android": "https://dc.lft.to/lastmile_qr_scan", "ios": "https://dc.lft.to/lastmile_qr_scan"}, "is_disabled": 0, "fusion_lat": 0.0, "name": "7cab39f50a37c7dbfedf994e2b5076c7", "fusion_lon": 0.0}, {"is_reserved": 0, "type": "electric_scooter", "bike_id": "9724ebf0623a5c0323f86ca92564fd23", "lat": 38.90141666666667, "lon": -76.991199, "rental_uris": {"android": "https://dc.lft.to/lastmile_qr_scan", "ios": "https://dc.lft.to/lastmile_qr_scan"}, "is_disabled": 0, "fusion_lat": 0.0, "name": "9724ebf0623a5c0323f86ca92564fd23", "fusion_lon": 0.0}, {"is_reserved": 0, "type": "electric_scooter", "bike_id": "0d13e9f3f8514a6fc3a71c5f9d107ab2", "lat": 38.9374945, "lon": -77.02439783333334, "rental_uris": {"android": "https://dc.lft.to/lastmile_qr_scan", "ios": "https://dc.lft.to/lastmile_qr_scan"}, "is_disabled": 0, "fusion_lat": 0.0, "name": "0d13e9f3f8514a6fc3a71c5f9d107ab2", "fusion_lon": 0.0}, {"is_reserved": 0, "type": "electric_scooter", "bike_id": "3bffe6beec72d2d3b7e06ea5dbeafa9d", "lat": 38.90863316666667, "lon": -77.04655166666667, "rental_uris": {"android": "https://dc.lft.to/lastmile_qr_scan", "ios": "https://dc.lft.to/lastmile_qr_scan"}, "is_disabled": 0, "fusion_lat": 0.0, "name": "3bffe6beec72d2d3b7e06ea5dbeafa9d", "fusion_lon": 0.0}, {"is_reserved": 0, "type": "electric_scooter", "bike_id": "106bc3f15decf1ffca8a70dda735ee3a", "lat": 38.9141605, "lon": -77.022778, "rental_uris": {"android": "https://dc.lft.to/lastmile_qr_scan", "ios": "https://dc.lft.to/lastmile_qr_scan"}, "is_disabled": 0, "fusion_lat": 0.0, "name": "106bc3f15decf1ffca8a70dda735ee3a", "fusion_lon": 0.0}, {"is_reserved": 0, "type": "electric_scooter", "bike_id": "5b88b315f0189df8a98aacfc7dcc8134", "lat": 38.938858, "lon": -77.032347, "rental_uris": {"android": "https://dc.lft.to/lastmile_qr_scan", "ios": "https://dc.lft.to/lastmile_qr_scan"}, "is_disabled": 0, "fusion_lat": 0.0, "name": "5b88b315f0189df8a98aacfc7dcc8134", "fusion_lon": 0.0}, {"is_reserved": 0, "type": "electric_scooter", "bike_id": "e67a064bd53fb894463571afbc8bbfe9", "lat": 38.9353515, "lon": -77.02353616666667, "rental_uris": {"android": "https://dc.lft.to/lastmile_qr_scan", "ios": "https://dc.lft.to/lastmile_qr_scan"}, "is_disabled": 0, "fusion_lat": 0.0, "name": "e67a064bd53fb894463571afbc8bbfe9", "fusion_lon": 0.0}, {"is_reserved": 0, "type": "electric_scooter", "bike_id": "8fc1f8f7e09bbe109f99b7bf42837a3c", "lat": 38.90806166666667, "lon": -77.0637075, "rental_uris": {"android": "https://dc.lft.to/lastmile_qr_scan", "ios": "https://dc.lft.to/lastmile_qr_scan"}, "is_disabled": 0, "fusion_lat": 0.0, "name": "8fc1f8f7e09bbe109f99b7bf42837a3c", "fusion_lon": 0.0}, {"is_reserved": 0, "type": "electric_scooter", "bike_id": "15aea90993ab4844d6941a101f75724f", "lat": 38.905657833333336, "lon": -77.0292885, "rental_uris": {"android": "https://dc.lft.to/lastmile_qr_scan", "ios": "https://dc.lft.to/lastmile_qr_scan"}, "is_disabled": 0, "fusion_lat": 0.0, "name": "15aea90993ab4844d6941a101f75724f", "fusion_lon": 0.0}, {"is_reserved": 0, "type": "electric_scooter", "bike_id": "57a850d1828d3a679f897377884152a7", "lat": 38.8960175, "lon": -76.98317983333334, "rental_uris": {"android": "https://dc.lft.to/lastmile_qr_scan", "ios": "https://dc.lft.to/lastmile_qr_scan"}, "is_disabled": 0, "fusion_lat": 0.0, "name": "57a850d1828d3a679f897377884152a7", "fusion_lon": 0.0}, {"is_reserved": 0, "type": "electric_scooter", "bike_id": "869ef405aa2f9c63fe5e8d83eec993d1", "lat": 38.921664666666665, "lon": -77.03640766666666, "rental_uris": {"android": "https://dc.lft.to/lastmile_qr_scan", "ios": "https://dc.lft.to/lastmile_qr_scan"}, "is_disabled": 0, "fusion_lat": 0.0, "name": "869ef405aa2f9c63fe5e8d83eec993d1", "fusion_lon": 0.0}, {"is_reserved": 0, "type": "electric_scooter", "bike_id": "267a7594effdc70b324c6f5b506173ce", "lat": 38.94442883333333, "lon": -77.0290995, "rental_uris": {"android": "https://dc.lft.to/lastmile_qr_scan", "ios": "https://dc.lft.to/lastmile_qr_scan"}, "is_disabled": 0, "fusion_lat": 0.0, "name": "267a7594effdc70b324c6f5b506173ce", "fusion_lon": 0.0}, {"is_reserved": 0, "type": "electric_scooter", "bike_id": "606116ad7fe924a5c1503c3e2fe2cc7f", "lat": 38.8985165, "lon": -76.92750433333333, "rental_uris": {"android": "https://dc.lft.to/lastmile_qr_scan", "ios": "https://dc.lft.to/lastmile_qr_scan"}, "is_disabled": 0, "fusion_lat": 0.0, "name": "606116ad7fe924a5c1503c3e2fe2cc7f", "fusion_lon": 0.0}, {"is_reserved": 0, "type": "electric_scooter", "bike_id": "8a1f2bf2fbac61068e45c1e5cea96270", "lat": 38.936964333333336, "lon": -77.02714933333333, "rental_uris": {"android": "https://dc.lft.to/lastmile_qr_scan", "ios": "https://dc.lft.to/lastmile_qr_scan"}, "is_disabled": 0, "fusion_lat": 0.0, "name": "8a1f2bf2fbac61068e45c1e5cea96270", "fusion_lon": 0.0}, {"is_reserved": 0, "type": "electric_scooter", "bike_id": "eb8a6edff9209cc4370a9e057f5601ad", "lat": 38.8998895, "lon": -76.99494616666667, "rental_uris": {"android": "https://dc.lft.to/lastmile_qr_scan", "ios": "https://dc.lft.to/lastmile_qr_scan"}, "is_disabled": 0, "fusion_lat": 0.0, "name": "eb8a6edff9209cc4370a9e057f5601ad", "fusion_lon": 0.0}, {"is_reserved": 0, "type": "electric_scooter", "bike_id": "b38c946602e7507b66c087ba9b033371", "lat": 38.89228383333333, "lon": -77.03186016666666, "rental_uris": {"android": "https://dc.lft.to/lastmile_qr_scan", "ios": "https://dc.lft.to/lastmile_qr_scan"}, "is_disabled": 0, "fusion_lat": 0.0, "name": "b38c946602e7507b66c087ba9b033371", "fusion_lon": 0.0}, {"is_reserved": 0, "type": "electric_scooter", "bike_id": "8b547dccc37e37f2f516765f28ae4e24", "lat": 38.925626, "lon": -76.97001166666666, "rental_uris": {"android": "https://dc.lft.to/lastmile_qr_scan", "ios": "https://dc.lft.to/lastmile_qr_scan"}, "is_disabled": 0, "fusion_lat": 0.0, "name": "8b547dccc37e37f2f516765f28ae4e24", "fusion_lon": 0.0}, {"is_reserved": 0, "type": "electric_scooter", "bike_id": "8c2b62604caf01803df2e0a3d1899d5a", "lat": 38.9183595, "lon": -77.02284983333334, "rental_uris": {"android": "https://dc.lft.to/lastmile_qr_scan", "ios": "https://dc.lft.to/lastmile_qr_scan"}, "is_disabled": 0, "fusion_lat": 0.0, "name": "8c2b62604caf01803df2e0a3d1899d5a", "fusion_lon": 0.0}, {"is_reserved": 0, "type": "electric_scooter", "bike_id": "cc5a69b573c3f886893b2946a494188c", "lat": 38.8715965, "lon": -77.01353533333334, "rental_uris": {"android": "https://dc.lft.to/lastmile_qr_scan", "ios": "https://dc.lft.to/lastmile_qr_scan"}, "is_disabled": 0, "fusion_lat": 0.0, "name": "cc5a69b573c3f886893b2946a494188c", "fusion_lon": 0.0}, {"is_reserved": 0, "type": "electric_scooter", "bike_id": "ef349cd129036b99c0f44003f7ed59a8", "lat": 38.921405166666666, "lon": -77.03653983333334, "rental_uris": {"android": "https://dc.lft.to/lastmile_qr_scan", "ios": "https://dc.lft.to/lastmile_qr_scan"}, "is_disabled": 0, "fusion_lat": 0.0, "name": "ef349cd129036b99c0f44003f7ed59a8", "fusion_lon": 0.0}, {"is_reserved": 0, "type": "electric_scooter", "bike_id": "0609157daa7f67f21f7750588acdbbc7", "lat": 38.88719283333333, "lon": -77.019788, "rental_uris": {"android": "https://dc.lft.to/lastmile_qr_scan", "ios": "https://dc.lft.to/lastmile_qr_scan"}, "is_disabled": 0, "fusion_lat": 0.0, "name": "0609157daa7f67f21f7750588acdbbc7", "fusion_lon": 0.0}, {"is_reserved": 0, "type": "electric_scooter", "bike_id": "3b25c892a6f4eb88e847282166c7a690", "lat": 38.89265916666667, "lon": -76.92998766666666, "rental_uris": {"android": "https://dc.lft.to/lastmile_qr_scan", "ios": "https://dc.lft.to/lastmile_qr_scan"}, "is_disabled": 0, "fusion_lat": 0.0, "name": "3b25c892a6f4eb88e847282166c7a690", "fusion_lon": 0.0}, {"is_reserved": 0, "type": "electric_scooter", "bike_id": "6eca31bd402944f1c16a800c0a57b8a4", "lat": 38.901829, "lon": -77.0298225, "rental_uris": {"android": "https://dc.lft.to/lastmile_qr_scan", "ios": "https://dc.lft.to/lastmile_qr_scan"}, "is_disabled": 0, "fusion_lat": 0.0, "name": "6eca31bd402944f1c16a800c0a57b8a4", "fusion_lon": 0.0}, {"is_reserved": 0, "type": "electric_scooter", "bike_id": "55051c2f6acf8b76a0b1e2c0d598fb2c", "lat": 38.90883316666667, "lon": -76.9913035, "rental_uris": {"android": "https://dc.lft.to/lastmile_qr_scan", "ios": "https://dc.lft.to/lastmile_qr_scan"}, "is_disabled": 0, "fusion_lat": 0.0, "name": "55051c2f6acf8b76a0b1e2c0d598fb2c", "fusion_lon": 0.0}, {"is_reserved": 0, "type": "electric_scooter", "bike_id": "2dcdf899de81f7ef36ff47d01b4c4968", "lat": 38.920420666666665, "lon": -77.04205216666666, "rental_uris": {"android": "https://dc.lft.to/lastmile_qr_scan", "ios": "https://dc.lft.to/lastmile_qr_scan"}, "is_disabled": 0, "fusion_lat": 0.0, "name": "2dcdf899de81f7ef36ff47d01b4c4968", "fusion_lon": 0.0}, {"is_reserved": 0, "type": "electric_scooter", "bike_id": "1b3c49d80734f13761abc2c02f473757", "lat": 38.883947166666665, "lon": -76.93047666666666, "rental_uris": {"android": "https://dc.lft.to/lastmile_qr_scan", "ios": "https://dc.lft.to/lastmile_qr_scan"}, "is_disabled": 0, "fusion_lat": 0.0, "name": "1b3c49d80734f13761abc2c02f473757", "fusion_lon": 0.0}, {"is_reserved": 0, "type": "electric_scooter", "bike_id": "d9b1689b67a86eec747bad14ee828b6d", "lat": 38.90570533333333, "lon": -77.02645016666666, "rental_uris": {"android": "https://dc.lft.to/lastmile_qr_scan", "ios": "https://dc.lft.to/lastmile_qr_scan"}, "is_disabled": 0, "fusion_lat": 0.0, "name": "d9b1689b67a86eec747bad14ee828b6d", "fusion_lon": 0.0}, {"is_reserved": 0, "type": "electric_scooter", "bike_id": "9d13b8ad6e367b1a795d454025640e98", "lat": 38.896465, "lon": -76.990328, "rental_uris": {"android": "https://dc.lft.to/lastmile_qr_scan", "ios": "https://dc.lft.to/lastmile_qr_scan"}, "is_disabled": 0, "fusion_lat": 0.0, "name": "9d13b8ad6e367b1a795d454025640e98", "fusion_lon": 0.0}, {"is_reserved": 0, "type": "electric_scooter", "bike_id": "fce2854acb0292b3975052dab45bc903", "lat": 38.931825833333335, "lon": -77.0384435, "rental_uris": {"android": "https://dc.lft.to/lastmile_qr_scan", "ios": "https://dc.lft.to/lastmile_qr_scan"}, "is_disabled": 0, "fusion_lat": 0.0, "name": "fce2854acb0292b3975052dab45bc903", "fusion_lon": 0.0}, {"is_reserved": 0, "type": "electric_scooter", "bike_id": "c7656438120ec763199c3c4057af642d", "lat": 38.896226, "lon": -76.97681416666667, "rental_uris": {"android": "https://dc.lft.to/lastmile_qr_scan", "ios": "https://dc.lft.to/lastmile_qr_scan"}, "is_disabled": 0, "fusion_lat": 0.0, "name": "c7656438120ec763199c3c4057af642d", "fusion_lon": 0.0}, {"is_reserved": 0, "type": "electric_scooter", "bike_id": "5ee865b80981ff1720eef0f4414c0c6d", "lat": 38.897473, "lon": -77.03029233333334, "rental_uris": {"android": "https://dc.lft.to/lastmile_qr_scan", "ios": "https://dc.lft.to/lastmile_qr_scan"}, "is_disabled": 0, "fusion_lat": 0.0, "name": "5ee865b80981ff1720eef0f4414c0c6d", "fusion_lon": 0.0}, {"is_reserved": 0, "type": "electric_scooter", "bike_id": "4eaedb991a712947f5a42c54a661d826", "lat": 38.927431, "lon": -77.069588, "rental_uris": {"android": "https://dc.lft.to/lastmile_qr_scan", "ios": "https://dc.lft.to/lastmile_qr_scan"}, "is_disabled": 0, "fusion_lat": 0.0, "name": "4eaedb991a712947f5a42c54a661d826", "fusion_lon": 0.0}, {"is_reserved": 0, "type": "electric_scooter", "bike_id": "5d49d807d1680056fc1e821a3028e587", "lat": 38.92374, "lon": -77.08053466666667, "rental_uris": {"android": "https://dc.lft.to/lastmile_qr_scan", "ios": "https://dc.lft.to/lastmile_qr_scan"}, "is_disabled": 0, "fusion_lat": 0.0, "name": "5d49d807d1680056fc1e821a3028e587", "fusion_lon": 0.0}, {"is_reserved": 0, "type": "electric_scooter", "bike_id": "dd43440b5433bac400d5042f940988a1", "lat": 38.93056816666667, "lon": -77.02826333333333, "rental_uris": {"android": "https://dc.lft.to/lastmile_qr_scan", "ios": "https://dc.lft.to/lastmile_qr_scan"}, "is_disabled": 0, "fusion_lat": 0.0, "name": "dd43440b5433bac400d5042f940988a1", "fusion_lon": 0.0}, {"is_reserved": 0, "type": "electric_scooter", "bike_id": "e2e67b7357d004de48027fa42be05fed", "lat": 38.92486383333333, "lon": -77.028146, "rental_uris": {"android": "https://dc.lft.to/lastmile_qr_scan", "ios": "https://dc.lft.to/lastmile_qr_scan"}, "is_disabled": 0, "fusion_lat": 0.0, "name": "e2e67b7357d004de48027fa42be05fed", "fusion_lon": 0.0}, {"is_reserved": 0, "type": "electric_scooter", "bike_id": "8158affec0ec65a91698a49c391d3d0c", "lat": 38.895323166666664, "lon": -77.03352166666667, "rental_uris": {"android": "https://dc.lft.to/lastmile_qr_scan", "ios": "https://dc.lft.to/lastmile_qr_scan"}, "is_disabled": 0, "fusion_lat": 0.0, "name": "8158affec0ec65a91698a49c391d3d0c", "fusion_lon": 0.0}, {"is_reserved": 0, "type": "electric_scooter", "bike_id": "d9d44137528d02c2a47ee6f16be191a4", "lat": 38.9053305, "lon": -77.06148783333333, "rental_uris": {"android": "https://dc.lft.to/lastmile_qr_scan", "ios": "https://dc.lft.to/lastmile_qr_scan"}, "is_disabled": 0, "fusion_lat": 0.0, "name": "d9d44137528d02c2a47ee6f16be191a4", "fusion_lon": 0.0}, {"is_reserved": 0, "type": "electric_scooter", "bike_id": "46db67a9dcd39eb11acd5bd124cbc2d5", "lat": 38.93645133333333, "lon": -77.060068, "rental_uris": {"android": "https://dc.lft.to/lastmile_qr_scan", "ios": "https://dc.lft.to/lastmile_qr_scan"}, "is_disabled": 0, "fusion_lat": 0.0, "name": "46db67a9dcd39eb11acd5bd124cbc2d5", "fusion_lon": 0.0}, {"is_reserved": 0, "type": "electric_scooter", "bike_id": "bfd28805e3215b719865fee227cc303d", "lat": 38.97296983333333, "lon": -77.0362615, "rental_uris": {"android": "https://dc.lft.to/lastmile_qr_scan", "ios": "https://dc.lft.to/lastmile_qr_scan"}, "is_disabled": 0, "fusion_lat": 0.0, "name": "bfd28805e3215b719865fee227cc303d", "fusion_lon": 0.0}, {"is_reserved": 0, "type": "electric_scooter", "bike_id": "4b37f2fe8fc301f766c7745ea656d540", "lat": 38.876526166666665, "lon": -77.00245016666666, "rental_uris": {"android": "https://dc.lft.to/lastmile_qr_scan", "ios": "https://dc.lft.to/lastmile_qr_scan"}, "is_disabled": 0, "fusion_lat": 0.0, "name": "4b37f2fe8fc301f766c7745ea656d540", "fusion_lon": 0.0}, {"is_reserved": 0, "type": "electric_scooter", "bike_id": "97495262415cb6654eaa2fe1993f5229", "lat": 38.9192755, "lon": -77.0197455, "rental_uris": {"android": "https://dc.lft.to/lastmile_qr_scan", "ios": "https://dc.lft.to/lastmile_qr_scan"}, "is_disabled": 0, "fusion_lat": 0.0, "name": "97495262415cb6654eaa2fe1993f5229", "fusion_lon": 0.0}, {"is_reserved": 0, "type": "electric_bike", "bike_id": "feea535f9f1a07e4040c072423993346", "lat": 39.09449, "lon": -77.1346155, "rental_uris": {"android": "https://dc.lft.to/lastmile_qr_scan", "ios": "https://dc.lft.to/lastmile_qr_scan"}, "is_disabled": 0, "fusion_lat": 0.0, "name": "feea535f9f1a07e4040c072423993346", "fusion_lon": 0.0}, {"is_reserved": 0, "type": "electric_scooter", "bike_id": "3ed4bd1ca44e37a5d62d2427ecd80f45", "lat": 38.905695, "lon": -77.0280435, "rental_uris": {"android": "https://dc.lft.to/lastmile_qr_scan", "ios": "https://dc.lft.to/lastmile_qr_scan"}, "is_disabled": 0, "fusion_lat": 0.0, "name": "3ed4bd1ca44e37a5d62d2427ecd80f45", "fusion_lon": 0.0}, {"is_reserved": 0, "type": "electric_scooter", "bike_id": "d60069828d74b5f80272c6a4fc376f9d", "lat": 38.93022233333333, "lon": -77.0378505, "rental_uris": {"android": "https://dc.lft.to/lastmile_qr_scan", "ios": "https://dc.lft.to/lastmile_qr_scan"}, "is_disabled": 0, "fusion_lat": 0.0, "name": "d60069828d74b5f80272c6a4fc376f9d", "fusion_lon": 0.0}, {"is_reserved": 0, "type": "electric_scooter", "bike_id": "f06ebdfc19ef25f8504a59806ced2843", "lat": 38.92792133333333, "lon": -77.036073, "rental_uris": {"android": "https://dc.lft.to/lastmile_qr_scan", "ios": "https://dc.lft.to/lastmile_qr_scan"}, "is_disabled": 0, "fusion_lat": 0.0, "name": "f06ebdfc19ef25f8504a59806ced2843", "fusion_lon": 0.0}, {"is_reserved": 0, "type": "electric_scooter", "bike_id": "c8bd727693f5dfe91fd87fde3cd25a98", "lat": 38.864504, "lon": -76.99118566666667, "rental_uris": {"android": "https://dc.lft.to/lastmile_qr_scan", "ios": "https://dc.lft.to/lastmile_qr_scan"}, "is_disabled": 0, "fusion_lat": 0.0, "name": "c8bd727693f5dfe91fd87fde3cd25a98", "fusion_lon": 0.0}, {"is_reserved": 0, "type": "electric_scooter", "bike_id": "578b917fcef48ef5fa957db3168b9c27", "lat": 38.928852166666665, "lon": -77.032012, "rental_uris": {"android": "https://dc.lft.to/lastmile_qr_scan", "ios": "https://dc.lft.to/lastmile_qr_scan"}, "is_disabled": 0, "fusion_lat": 0.0, "name": "578b917fcef48ef5fa957db3168b9c27", "fusion_lon": 0.0}, {"is_reserved": 0, "type": "electric_scooter", "bike_id": "2b03498f0d2a1ffd96ed0c41741c3ffa", "lat": 38.908441, "lon": -76.9344965, "rental_uris": {"android": "https://dc.lft.to/lastmile_qr_scan", "ios": "https://dc.lft.to/lastmile_qr_scan"}, "is_disabled": 0, "fusion_lat": 0.0, "name": "2b03498f0d2a1ffd96ed0c41741c3ffa", "fusion_lon": 0.0}, {"is_reserved": 0, "type": "electric_scooter", "bike_id": "36a0604f7524cad2a5ade0846ad68eda", "lat": 38.932840666666664, "lon": -77.03939433333333, "rental_uris": {"android": "https://dc.lft.to/lastmile_qr_scan", "ios": "https://dc.lft.to/lastmile_qr_scan"},