{"data": {"bikes": [{"lon": -77.04412983333333, "lat": 38.90592933333333, "name": "e266412395a64fabd13a6c11a408b324", "fusion_lat": 0.0, "fusion_lon": 0.0, "rental_uris": {"android": "https://dc.lft.to/lastmile_qr_scan", "ios": "https://dc.lft.to/lastmile_qr_scan"}, "is_reserved": 0, "is_disabled": 0, "type": "electric_scooter", "bike_id": "e266412395a64fabd13a6c11a408b324"}, {"lon": -77.04797983333333, "lat": 38.893754333333334, "name": "1c68050f746bf92b2a848802fed399c4", "fusion_lat": 0.0, "fusion_lon": 0.0, "rental_uris": {"android": "https://dc.lft.to/lastmile_qr_scan", "ios": "https://dc.lft.to/lastmile_qr_scan"}, "is_reserved": 0, "is_disabled": 0, "type": "electric_scooter", "bike_id": "1c68050f746bf92b2a848802fed399c4"}, {"lon": -77.0544215, "lat": 38.896066, "name": "077785520f9a2a15f1958311990d6cd0", "fusion_lat": 0.0, "fusion_lon": 0.0, "rental_uris": {"android": "https://dc.lft.to/lastmile_qr_scan", "ios": "https://dc.lft.to/lastmile_qr_scan"}, "is_reserved": 0, "is_disabled": 0, "type": "electric_scooter", "bike_id": "077785520f9a2a15f1958311990d6cd0"}, {"lon": -77.03664933333333, "lat": 38.9255815, "name": "025b6137ba9a7d8b2c02eff67c7617c0", "fusion_lat": 0.0, "fusion_lon": 0.0, "rental_uris": {"android": "https://dc.lft.to/lastmile_qr_scan", "ios": "https://dc.lft.to/lastmile_qr_scan"}, "is_reserved": 0, "is_disabled": 0, "type": "electric_scooter", "bike_id": "025b6137ba9a7d8b2c02eff67c7617c0"}, {"lon": -77.02379033333334, "lat": 38.902059333333334, "name": "7dd93ed4c586adf1ce97c3d86375a006", "fusion_lat": 0.0, "fusion_lon": 0.0, "rental_uris": {"android": "https://dc.lft.to/lastmile_qr_scan", "ios": "https://dc.lft.to/lastmile_qr_scan"}, "is_reserved": 0, "is_disabled": 0, "type": "electric_scooter", "bike_id": "7dd93ed4c586adf1ce97c3d86375a006"}, {"lon": -77.02189633333333, "lat": 38.90192016666666, "name": "7c93a8fb86af5a7abb30e07eedaca171", "fusion_lat": 0.0, "fusion_lon": 0.0, "rental_uris": {"android": "https://dc.lft.to/lastmile_qr_scan", "ios": "https://dc.lft.to/lastmile_qr_scan"}, "is_reserved": 0, "is_disabled": 0, "type": "electric_scooter", "bike_id": "7c93a8fb86af5a7abb30e07eedaca171"}, {"lon": -77.0165195, "lat": 38.953289833333336, "name": "9b4bf9c39cff61917009d18193e3afc0", "fusion_lat": 0.0, "fusion_lon": 0.0, "rental_uris": {"android": "https://dc.lft.to/lastmile_qr_scan", "ios": "https://dc.lft.to/lastmile_qr_scan"}, "is_reserved": 0, "is_disabled": 0, "type": "electric_scooter", "bike_id": "9b4bf9c39cff61917009d18193e3afc0"}, {"lon": -77.01837833333333, "lat": 38.908812, "name": "d1b6dd259aa91c16f39039157d3754a0", "fusion_lat": 0.0, "fusion_lon": 0.0, "rental_uris": {"android": "https://dc.lft.to/lastmile_qr_scan", "ios": "https://dc.lft.to/lastmile_qr_scan"}, "is_reserved": 0, "is_disabled": 0, "type": "electric_scooter", "bike_id": "d1b6dd259aa91c16f39039157d3754a0"}, {"lon": -77.01197083333334, "lat": 38.90026016666667, "name": "00c9fedffa1eb8223e9c8304c7bee83a", "fusion_lat": 0.0, "fusion_lon": 0.0, "rental_uris": {"android": "https://dc.lft.to/lastmile_qr_scan", "ios": "https://dc.lft.to/lastmile_qr_scan"}, "is_reserved": 0, "is_disabled": 0, "type": "electric_scooter", "bike_id": "00c9fedffa1eb8223e9c8304c7bee83a"}, {"lon": -77.00263116666666, "lat": 38.87749016666667, "name": "198fc3c3b3985645f31d3bcbe53ccd9f", "fusion_lat": 0.0, "fusion_lon": 0.0, "rental_uris": {"android": "https://dc.lft.to/lastmile_qr_scan", "ios": "https://dc.lft.to/lastmile_qr_scan"}, "is_reserved": 0, "is_disabled": 0, "type": "electric_scooter", "bike_id": "198fc3c3b3985645f31d3bcbe53ccd9f"}, {"lon": -76.9826765, "lat": 38.86355566666667, "name": "0f94b5a33bc1498bad0c6eec84de9584", "fusion_lat": 0.0, "fusion_lon": 0.0, "rental_uris": {"android": "https://dc.lft.to/lastmile_qr_scan", "ios": "https://dc.lft.to/lastmile_qr_scan"}, "is_reserved": 0, "is_disabled": 0, "type": "electric_scooter", "bike_id": "0f94b5a33bc1498bad0c6eec84de9584"}, {"lon": -77.04233933333333, "lat": 38.9386465, "name": "7bf594069f754b8a1a90fdc564aba401", "fusion_lat": 0.0, "fusion_lon": 0.0, "rental_uris": {"android": "https://dc.lft.to/lastmile_qr_scan", "ios": "https://dc.lft.to/lastmile_qr_scan"}, "is_reserved": 0, "is_disabled": 0, "type": "electric_bike", "bike_id": "7bf594069f754b8a1a90fdc564aba401"}, {"lon": -77.02888333333334, "lat": 38.90719, "name": "84a1d2421cee31257257f5dd472d47c6", "fusion_lat": 0.0, "fusion_lon": 0.0, "rental_uris": {"android": "https://dc.lft.to/lastmile_qr_scan", "ios": "https://dc.lft.to/lastmile_qr_scan"}, "is_reserved": 0, "is_disabled": 0, "type": "electric_bike", "bike_id": "84a1d2421cee31257257f5dd472d47c6"}, {"lon": -77.03382066666667, "lat": 38.9384475, "name": "cfc2a2f116184f81f87f2970f7323c34", "fusion_lat": 0.0, "fusion_lon": 0.0, "rental_uris": {"android": "https://dc.lft.to/lastmile_qr_scan", "ios": "https://dc.lft.to/lastmile_qr_scan"}, "is_reserved": 0, "is_disabled": 0, "type": "electric_scooter", "bike_id": "cfc2a2f116184f81f87f2970f7323c34"}, {"lon": -77.03174033333333, "lat": 38.89994133333333, "name": "bf875421a0dd9a4cc452b47d4785a65b", "fusion_lat": 0.0, "fusion_lon": 0.0, "rental_uris": {"android": "https://dc.lft.to/lastmile_qr_scan", "ios": "https://dc.lft.to/lastmile_qr_scan"}, "is_reserved": 0, "is_disabled": 0, "type": "electric_scooter", "bike_id": "bf875421a0dd9a4cc452b47d4785a65b"}, {"lon": -77.02253766666666, "lat": 38.924991166666665, "name": "178a3e66a034b9b7d2f74daca3fd183e", "fusion_lat": 0.0, "fusion_lon": 0.0, "rental_uris": {"android": "https://dc.lft.to/lastmile_qr_scan", "ios": "https://dc.lft.to/lastmile_qr_scan"}, "is_reserved": 0, "is_disabled": 0, "type": "electric_scooter", "bike_id": "178a3e66a034b9b7d2f74daca3fd183e"}, {"lon": -77.03652466666666, "lat": 38.954907666666664, "name": "eaf2ce4aced0b1667f897c7ee447b7bc", "fusion_lat": 0.0, "fusion_lon": 0.0, "rental_uris": {"android": "https://dc.lft.to/lastmile_qr_scan", "ios": "https://dc.lft.to/lastmile_qr_scan"}, "is_reserved": 0, "is_disabled": 0, "type": "electric_scooter", "bike_id": "eaf2ce4aced0b1667f897c7ee447b7bc"}, {"lon": -77.0894005, "lat": 38.8410225, "name": "ce77e821762b4b342376c13ad317c4d4", "fusion_lat": 0.0, "fusion_lon": 0.0, "rental_uris": {"android": "https://dc.lft.to/lastmile_qr_scan", "ios": "https://dc.lft.to/lastmile_qr_scan"}, "is_reserved": 0, "is_disabled": 0, "type": "electric_bike", "bike_id": "ce77e821762b4b342376c13ad317c4d4"}, {"lon": -77.028187, "lat": 38.92372233333333, "name": "84d8bf8f5556c5b4b61fd6fb2c11e87a", "fusion_lat": 0.0, "fusion_lon": 0.0, "rental_uris": {"android": "https://dc.lft.to/lastmile_qr_scan", "ios": "https://dc.lft.to/lastmile_qr_scan"}, "is_reserved": 0, "is_disabled": 0, "type": "electric_scooter", "bike_id": "84d8bf8f5556c5b4b61fd6fb2c11e87a"}, {"lon": -77.0312515, "lat": 38.959312833333335, "name": "939f6a65cfc8d2445eabbbeb5a8aaf06", "fusion_lat": 0.0, "fusion_lon": 0.0, "rental_uris": {"android": "https://dc.lft.to/lastmile_qr_scan", "ios": "https://dc.lft.to/lastmile_qr_scan"}, "is_reserved": 0, "is_disabled": 0, "type": "electric_scooter", "bike_id": "939f6a65cfc8d2445eabbbeb5a8aaf06"}, {"lon": -77.00085616666667, "lat": 38.8749385, "name": "25c8820d1e9e25a452d3ed73c2857d46", "fusion_lat": 0.0, "fusion_lon": 0.0, "rental_uris": {"android": "https://dc.lft.to/lastmile_qr_scan", "ios": "https://dc.lft.to/lastmile_qr_scan"}, "is_reserved": 0, "is_disabled": 0, "type": "electric_scooter", "bike_id": "25c8820d1e9e25a452d3ed73c2857d46"}, {"lon": -77.02717816666667, "lat": 38.91815883333334, "name": "a8a165623a11867b35e2d283d6432951", "fusion_lat": 0.0, "fusion_lon": 0.0, "rental_uris": {"android": "https://dc.lft.to/lastmile_qr_scan", "ios": "https://dc.lft.to/lastmile_qr_scan"}, "is_reserved": 0, "is_disabled": 0, "type": "electric_scooter", "bike_id": "a8a165623a11867b35e2d283d6432951"}, {"lon": -77.0197855, "lat": 38.90230716666667, "name": "d242052d75060987142da952fc0c4e83", "fusion_lat": 0.0, "fusion_lon": 0.0, "rental_uris": {"android": "https://dc.lft.to/lastmile_qr_scan", "ios": "https://dc.lft.to/lastmile_qr_scan"}, "is_reserved": 0, "is_disabled": 0, "type": "electric_scooter", "bike_id": "d242052d75060987142da952fc0c4e83"}, {"lon": -77.040731, "lat": 38.812352, "name": "29affd3b7f9aa26794ce926ee62c230f", "fusion_lat": 0.0, "fusion_lon": 0.0, "rental_uris": {"android": "https://dc.lft.to/lastmile_qr_scan", "ios": "https://dc.lft.to/lastmile_qr_scan"}, "is_reserved": 0, "is_disabled": 0, "type": "electric_bike", "bike_id": "29affd3b7f9aa26794ce926ee62c230f"}, {"lon": -76.93894216666666, "lat": 38.883280166666665, "name": "9ebf14602b802af4ea34e0db9c868080", "fusion_lat": 0.0, "fusion_lon": 0.0, "rental_uris": {"android": "https://dc.lft.to/lastmile_qr_scan", "ios": "https://dc.lft.to/lastmile_qr_scan"}, "is_reserved": 0, "is_disabled": 0, "type": "electric_bike", "bike_id": "9ebf14602b802af4ea34e0db9c868080"}, {"lon": -77.031579, "lat": 38.9118885, "name": "f500e2614ffe876a8ee1d8d1b6bee307", "fusion_lat": 0.0, "fusion_lon": 0.0, "rental_uris": {"android": "https://dc.lft.to/lastmile_qr_scan", "ios": "https://dc.lft.to/lastmile_qr_scan"}, "is_reserved": 0, "is_disabled": 0, "type": "electric_scooter", "bike_id": "f500e2614ffe876a8ee1d8d1b6bee307"}, {"lon": -76.99383283333333, "lat": 38.900616, "name": "6ca19e02a1f792b236aecd06250622b1", "fusion_lat": 0.0, "fusion_lon": 0.0, "rental_uris": {"android": "https://dc.lft.to/lastmile_qr_scan", "ios": "https://dc.lft.to/lastmile_qr_scan"}, "is_reserved": 0, "is_disabled": 0, "type": "electric_scooter", "bike_id": "6ca19e02a1f792b236aecd06250622b1"}, {"lon": -77.03285116666666, "lat": 38.936838333333334, "name": "e9bfd3cfa14ab7532b31c0e24c21770f", "fusion_lat": 0.0, "fusion_lon": 0.0, "rental_uris": {"android": "https://dc.lft.to/lastmile_qr_scan", "ios": "https://dc.lft.to/lastmile_qr_scan"}, "is_reserved": 0, "is_disabled": 0, "type": "electric_scooter", "bike_id": "e9bfd3cfa14ab7532b31c0e24c21770f"}, {"lon": -77.027186, "lat": 38.9095385, "name": "518aff5e224a0a6fd1b1fa7a46c8fb60", "fusion_lat": 0.0, "fusion_lon": 0.0, "rental_uris": {"android": "https://dc.lft.to/lastmile_qr_scan", "ios": "https://dc.lft.to/lastmile_qr_scan"}, "is_reserved": 0, "is_disabled": 0, "type": "electric_scooter", "bike_id": "518aff5e224a0a6fd1b1fa7a46c8fb60"}, {"lon": -77.02988266666667, "lat": 38.9562785, "name": "95733d4de82d8389658038a4d5d2bbfd", "fusion_lat": 0.0, "fusion_lon": 0.0, "rental_uris": {"android": "https://dc.lft.to/lastmile_qr_scan", "ios": "https://dc.lft.to/lastmile_qr_scan"}, "is_reserved": 0, "is_disabled": 0, "type": "electric_scooter", "bike_id": "95733d4de82d8389658038a4d5d2bbfd"}, {"lon": -77.04131183333334, "lat": 38.92346083333333, "name": "206bee090a545e38b803859e0e148853", "fusion_lat": 0.0, "fusion_lon": 0.0, "rental_uris": {"android": "https://dc.lft.to/lastmile_qr_scan", "ios": "https://dc.lft.to/lastmile_qr_scan"}, "is_reserved": 0, "is_disabled": 0, "type": "electric_scooter", "bike_id": "206bee090a545e38b803859e0e148853"}, {"lon": -77.01196833333333, "lat": 38.900279833333336, "name": "d04555fb42112b1269dd1acc9a079ed3", "fusion_lat": 0.0, "fusion_lon": 0.0, "rental_uris": {"android": "https://dc.lft.to/lastmile_qr_scan", "ios": "https://dc.lft.to/lastmile_qr_scan"}, "is_reserved": 0, "is_disabled": 0, "type": "electric_scooter", "bike_id": "d04555fb42112b1269dd1acc9a079ed3"}, {"lon": -77.0451715, "lat": 38.892205833333335, "name": "56faf766816ab8dc0557827271e73e8d", "fusion_lat": 0.0, "fusion_lon": 0.0, "rental_uris": {"android": "https://dc.lft.to/lastmile_qr_scan", "ios": "https://dc.lft.to/lastmile_qr_scan"}, "is_reserved": 0, "is_disabled": 0, "type": "electric_scooter", "bike_id": "56faf766816ab8dc0557827271e73e8d"}, {"lon": -76.9961475, "lat": 38.90285983333333, "name": "28eed6f7a0197d75b09c680994ba846c", "fusion_lat": 0.0, "fusion_lon": 0.0, "rental_uris": {"android": "https://dc.lft.to/lastmile_qr_scan", "ios": "https://dc.lft.to/lastmile_qr_scan"}, "is_reserved": 0, "is_disabled": 0, "type": "electric_scooter", "bike_id": "28eed6f7a0197d75b09c680994ba846c"}, {"lon": -77.03336233333333, "lat": 38.921567333333336, "name": "ae69a134636d17cad5adb2411a6e3e59", "fusion_lat": 0.0, "fusion_lon": 0.0, "rental_uris": {"android": "https://dc.lft.to/lastmile_qr_scan", "ios": "https://dc.lft.to/lastmile_qr_scan"}, "is_reserved": 0, "is_disabled": 0, "type": "electric_scooter", "bike_id": "ae69a134636d17cad5adb2411a6e3e59"}, {"lon": -77.0167395, "lat": 38.8771205, "name": "dde0cba813283319ee959a9d0014bb24", "fusion_lat": 0.0, "fusion_lon": 0.0, "rental_uris": {"android": "https://dc.lft.to/lastmile_qr_scan", "ios": "https://dc.lft.to/lastmile_qr_scan"}, "is_reserved": 0, "is_disabled": 0, "type": "electric_scooter", "bike_id": "dde0cba813283319ee959a9d0014bb24"}, {"lon": -76.94217266666666, "lat": 38.896691833333335, "name": "139d46ec5a3548bad87ae93c7cf31bf6", "fusion_lat": 0.0, "fusion_lon": 0.0, "rental_uris": {"android": "https://dc.lft.to/lastmile_qr_scan", "ios": "https://dc.lft.to/lastmile_qr_scan"}, "is_reserved": 0, "is_disabled": 0, "type": "electric_scooter", "bike_id": "139d46ec5a3548bad87ae93c7cf31bf6"}, {"lon": -77.1296205, "lat": 38.85215, "name": "d8367c4765d4200032f45af8dfa426de", "fusion_lat": 0.0, "fusion_lon": 0.0, "rental_uris": {"android": "https://dc.lft.to/lastmile_qr_scan", "ios": "https://dc.lft.to/lastmile_qr_scan"}, "is_reserved": 0, "is_disabled": 0, "type": "electric_bike", "bike_id": "d8367c4765d4200032f45af8dfa426de"}, {"lon": -77.041517, "lat": 38.919289, "name": "7d002eb94b244836d4d4b93bbbb4925e", "fusion_lat": 0.0, "fusion_lon": 0.0, "rental_uris": {"android": "https://dc.lft.to/lastmile_qr_scan", "ios": "https://dc.lft.to/lastmile_qr_scan"}, "is_reserved": 0, "is_disabled": 0, "type": "electric_scooter", "bike_id": "7d002eb94b244836d4d4b93bbbb4925e"}, {"lon": -76.99516383333334, "lat": 38.8947755, "name": "4a7e50d7c5cf85dd1b72fda196155046", "fusion_lat": 0.0, "fusion_lon": 0.0, "rental_uris": {"android": "https://dc.lft.to/lastmile_qr_scan", "ios": "https://dc.lft.to/lastmile_qr_scan"}, "is_reserved": 0, "is_disabled": 0, "type": "electric_scooter", "bike_id": "4a7e50d7c5cf85dd1b72fda196155046"}, {"lon": -77.00338433333333, "lat": 38.893554, "name": "2a1803352dcd755561c7b60808dfbc5a", "fusion_lat": 0.0, "fusion_lon": 0.0, "rental_uris": {"android": "https://dc.lft.to/lastmile_qr_scan", "ios": "https://dc.lft.to/lastmile_qr_scan"}, "is_reserved": 0, "is_disabled": 0, "type": "electric_scooter", "bike_id": "2a1803352dcd755561c7b60808dfbc5a"}, {"lon": -77.04058333333333, "lat": 38.89539466666667, "name": "0016f9d0db9eb79e0620d40b85c115a1", "fusion_lat": 0.0, "fusion_lon": 0.0, "rental_uris": {"android": "https://dc.lft.to/lastmile_qr_scan", "ios": "https://dc.lft.to/lastmile_qr_scan"}, "is_reserved": 0, "is_disabled": 0, "type": "electric_scooter", "bike_id": "0016f9d0db9eb79e0620d40b85c115a1"}, {"lon": -77.046365, "lat": 38.892197, "name": "9d9b463255490ee1d9c641c84b62b7fb", "fusion_lat": 0.0, "fusion_lon": 0.0, "rental_uris": {"android": "https://dc.lft.to/lastmile_qr_scan", "ios": "https://dc.lft.to/lastmile_qr_scan"}, "is_reserved": 0, "is_disabled": 0, "type": "electric_scooter", "bike_id": "9d9b463255490ee1d9c641c84b62b7fb"}, {"lon": -77.0222195, "lat": 38.912570833333334, "name": "2a34ac67e9c6bc23ef07c70b56af9176", "fusion_lat": 0.0, "fusion_lon": 0.0, "rental_uris": {"android": "https://dc.lft.to/lastmile_qr_scan", "ios": "https://dc.lft.to/lastmile_qr_scan"}, "is_reserved": 0, "is_disabled": 0, "type": "electric_scooter", "bike_id": "2a34ac67e9c6bc23ef07c70b56af9176"}, {"lon": -76.9969545, "lat": 38.90075733333333, "name": "173bd28605d3dd954bb8b07c88d54a9c", "fusion_lat": 0.0, "fusion_lon": 0.0, "rental_uris": {"android": "https://dc.lft.to/lastmile_qr_scan", "ios": "https://dc.lft.to/lastmile_qr_scan"}, "is_reserved": 0, "is_disabled": 0, "type": "electric_scooter", "bike_id": "173bd28605d3dd954bb8b07c88d54a9c"}, {"lon": -77.09203616666667, "lat": 38.94135716666667, "name": "ea4b58fb5b7060ebeb54e36283e42962", "fusion_lat": 0.0, "fusion_lon": 0.0, "rental_uris": {"android": "https://dc.lft.to/lastmile_qr_scan", "ios": "https://dc.lft.to/lastmile_qr_scan"}, "is_reserved": 0, "is_disabled": 0, "type": "electric_scooter", "bike_id": "ea4b58fb5b7060ebeb54e36283e42962"}, {"lon": -76.93233633333334, "lat": 38.8659435, "name": "3bbdb7f2513772bd79bded8c114fd050", "fusion_lat": 0.0, "fusion_lon": 0.0, "rental_uris": {"android": "https://dc.lft.to/lastmile_qr_scan", "ios": "https://dc.lft.to/lastmile_qr_scan"}, "is_reserved": 0, "is_disabled": 0, "type": "electric_bike", "bike_id": "3bbdb7f2513772bd79bded8c114fd050"}, {"lon": -77.00665383333333, "lat": 38.95565666666667, "name": "9a73800902a57534f4ff0bc6b0519f10", "fusion_lat": 0.0, "fusion_lon": 0.0, "rental_uris": {"android": "https://dc.lft.to/lastmile_qr_scan", "ios": "https://dc.lft.to/lastmile_qr_scan"}, "is_reserved": 0, "is_disabled": 0, "type": "electric_scooter", "bike_id": "9a73800902a57534f4ff0bc6b0519f10"}, {"lon": -77.02495666666667, "lat": 38.918074, "name": "ebd4e9490daadb17cec7193c8a7a6248", "fusion_lat": 0.0, "fusion_lon": 0.0, "rental_uris": {"android": "https://dc.lft.to/lastmile_qr_scan", "ios": "https://dc.lft.to/lastmile_qr_scan"}, "is_reserved": 0, "is_disabled": 0, "type": "electric_scooter", "bike_id": "ebd4e9490daadb17cec7193c8a7a6248"}, {"lon": -76.9970435, "lat": 38.908372166666666, "name": "3492bd4e33ba69feb931d7def846a82d", "fusion_lat": 0.0, "fusion_lon": 0.0, "rental_uris": {"android": "https://dc.lft.to/lastmile_qr_scan", "ios": "https://dc.lft.to/lastmile_qr_scan"}, "is_reserved": 0, "is_disabled": 0, "type": "electric_scooter", "bike_id": "3492bd4e33ba69feb931d7def846a82d"}, {"lon": -77.003365, "lat": 38.89359616666667, "name": "4031077e6bfff6d497e9071c2c3aee21", "fusion_lat": 0.0, "fusion_lon": 0.0, "rental_uris": {"android": "https://dc.lft.to/lastmile_qr_scan", "ios": "https://dc.lft.to/lastmile_qr_scan"}, "is_reserved": 0, "is_disabled": 0, "type": "electric_scooter", "bike_id": "4031077e6bfff6d497e9071c2c3aee21"}, {"lon": -77.04691916666667, "lat": 38.921321, "name": "ce0d2a6713025a024f089591a9a1b875", "fusion_lat": 0.0, "fusion_lon": 0.0, "rental_uris": {"android": "https://dc.lft.to/lastmile_qr_scan", "ios": "https://dc.lft.to/lastmile_qr_scan"}, "is_reserved": 0, "is_disabled": 0, "type": "electric_scooter", "bike_id": "ce0d2a6713025a024f089591a9a1b875"}, {"lon": -77.04739083333334, "lat": 38.91255966666667, "name": "c50b720e320600a9fc79a923a8417404", "fusion_lat": 0.0, "fusion_lon": 0.0, "rental_uris": {"android": "https://dc.lft.to/lastmile_qr_scan", "ios": "https://dc.lft.to/lastmile_qr_scan"}, "is_reserved": 0, "is_disabled": 0, "type": "electric_scooter", "bike_id": "c50b720e320600a9fc79a923a8417404"}, {"lon": -77.03946516666667, "lat": 38.908125, "name": "08760b076b0c5e766de80556c4a16412", "fusion_lat": 0.0, "fusion_lon": 0.0, "rental_uris": {"android": "https://dc.lft.to/lastmile_qr_scan", "ios": "https://dc.lft.to/lastmile_qr_scan"}, "is_reserved": 0, "is_disabled": 0, "type": "electric_scooter", "bike_id": "08760b076b0c5e766de80556c4a16412"}, {"lon": -77.02622216666667, "lat": 38.896457, "name": "5ace0a5c670e20e0ae9348ca6e8fd2b7", "fusion_lat": 0.0, "fusion_lon": 0.0, "rental_uris": {"android": "https://dc.lft.to/lastmile_qr_scan", "ios": "https://dc.lft.to/lastmile_qr_scan"}, "is_reserved": 0, "is_disabled": 0, "type": "electric_scooter", "bike_id": "5ace0a5c670e20e0ae9348ca6e8fd2b7"}, {"lon": -77.0209345, "lat": 38.934475, "name": "6987aaf4ec9cb625b17717b6e238130a", "fusion_lat": 0.0, "fusion_lon": 0.0, "rental_uris": {"android": "https://dc.lft.to/lastmile_qr_scan", "ios": "https://dc.lft.to/lastmile_qr_scan"}, "is_reserved": 0, "is_disabled": 0, "type": "electric_scooter", "bike_id": "6987aaf4ec9cb625b17717b6e238130a"}, {"lon": -76.946661, "lat": 38.89869266666667, "name": "d0d91d4b8914cf223c011d29728a7549", "fusion_lat": 0.0, "fusion_lon": 0.0, "rental_uris": {"android": "https://dc.lft.to/lastmile_qr_scan", "ios": "https://dc.lft.to/lastmile_qr_scan"}, "is_reserved": 0, "is_disabled": 0, "type": "electric_scooter", "bike_id": "d0d91d4b8914cf223c011d29728a7549"}, {"lon": -77.032991, "lat": 38.909679, "name": "1bdf1d5f77af499cdc04762c085bc60d", "fusion_lat": 0.0, "fusion_lon": 0.0, "rental_uris": {"android": "https://dc.lft.to/lastmile_qr_scan", "ios": "https://dc.lft.to/lastmile_qr_scan"}, "is_reserved": 0, "is_disabled": 0, "type": "electric_scooter", "bike_id": "1bdf1d5f77af499cdc04762c085bc60d"}, {"lon": -76.97330983333333, "lat": 38.904798, "name": "1416fb47bafd5b96ea7c283f298e7e32", "fusion_lat": 0.0, "fusion_lon": 0.0, "rental_uris": {"android": "https://dc.lft.to/lastmile_qr_scan", "ios": "https://dc.lft.to/lastmile_qr_scan"}, "is_reserved": 0, "is_disabled": 0, "type": "electric_scooter", "bike_id": "1416fb47bafd5b96ea7c283f298e7e32"}, {"lon": -77.01233666666667, "lat": 38.928770666666665, "name": "f24fbd3b8a1d5e42e4f1913000e6efcd", "fusion_lat": 0.0, "fusion_lon": 0.0, "rental_uris": {"android": "https://dc.lft.to/lastmile_qr_scan", "ios": "https://dc.lft.to/lastmile_qr_scan"}, "is_reserved": 0, "is_disabled": 0, "type": "electric_bike", "bike_id": "f24fbd3b8a1d5e42e4f1913000e6efcd"}, {"lon": -77.043371, "lat": 38.90875316666666, "name": "a7edf7c2d9d200975ae6ddede86db9fe", "fusion_lat": 0.0, "fusion_lon": 0.0, "rental_uris": {"android": "https://dc.lft.to/lastmile_qr_scan", "ios": "https://dc.lft.to/lastmile_qr_scan"}, "is_reserved": 0, "is_disabled": 0, "type": "electric_scooter", "bike_id": "a7edf7c2d9d200975ae6ddede86db9fe"}, {"lon": -77.042096, "lat": 38.92112083333333, "name": "0c0438cc453eb4d6bd4751c324140bbe", "fusion_lat": 0.0, "fusion_lon": 0.0, "rental_uris": {"android": "https://dc.lft.to/lastmile_qr_scan", "ios": "https://dc.lft.to/lastmile_qr_scan"}, "is_reserved": 0, "is_disabled": 0, "type": "electric_scooter", "bike_id": "0c0438cc453eb4d6bd4751c324140bbe"}, {"lon": -77.0259955, "lat": 38.898316666666666, "name": "34b2e64017fa086a946e3e98f880676f", "fusion_lat": 0.0, "fusion_lon": 0.0, "rental_uris": {"android": "https://dc.lft.to/lastmile_qr_scan", "ios": "https://dc.lft.to/lastmile_qr_scan"}, "is_reserved": 0, "is_disabled": 0, "type": "electric_scooter", "bike_id": "34b2e64017fa086a946e3e98f880676f"}, {"lon": -76.9915665, "lat": 38.88238333333334, "name": "34801c81bbf85c2ce8efe53c3cb91baf", "fusion_lat": 0.0, "fusion_lon": 0.0, "rental_uris": {"android": "https://dc.lft.to/lastmile_qr_scan", "ios": "https://dc.lft.to/lastmile_qr_scan"}, "is_reserved": 0, "is_disabled": 0, "type": "electric_scooter", "bike_id": "34801c81bbf85c2ce8efe53c3cb91baf"}, {"lon": -77.02951033333333, "lat": 38.89843, "name": "fe6974464f62b0323b6bc9949f49f19e", "fusion_lat": 0.0, "fusion_lon": 0.0, "rental_uris": {"android": "https://dc.lft.to/lastmile_qr_scan", "ios": "https://dc.lft.to/lastmile_qr_scan"}, "is_reserved": 0, "is_disabled": 0, "type": "electric_scooter", "bike_id": "fe6974464f62b0323b6bc9949f49f19e"}, {"lon": -77.01110183333333, "lat": 38.9630015, "name": "8a1d9fa86a26156d46d33e1357ed3992", "fusion_lat": 0.0, "fusion_lon": 0.0, "rental_uris": {"android": "https://dc.lft.to/lastmile_qr_scan", "ios": "https://dc.lft.to/lastmile_qr_scan"}, "is_reserved": 0, "is_disabled": 0, "type": "electric_bike", "bike_id": "8a1d9fa86a26156d46d33e1357ed3992"}, {"lon": -77.10898166666666, "lat": 38.8303775, "name": "d843945b68436653a767d6274eef4208", "fusion_lat": 0.0, "fusion_lon": 0.0, "rental_uris": {"android": "https://dc.lft.to/lastmile_qr_scan", "ios": "https://dc.lft.to/lastmile_qr_scan"}, "is_reserved": 0, "is_disabled": 0, "type": "electric_bike", "bike_id": "d843945b68436653a767d6274eef4208"}, {"lon": -77.00133916666667, "lat": 38.904116, "name": "eebedac229a469005e0eb9fbf537b01e", "fusion_lat": 0.0, "fusion_lon": 0.0, "rental_uris": {"android": "https://dc.lft.to/lastmile_qr_scan", "ios": "https://dc.lft.to/lastmile_qr_scan"}, "is_reserved": 0, "is_disabled": 0, "type": "electric_scooter", "bike_id": "eebedac229a469005e0eb9fbf537b01e"}, {"lon": -77.02177733333333, "lat": 38.914018, "name": "11553f589661bbe50f2593508d6a4bb3", "fusion_lat": 0.0, "fusion_lon": 0.0, "rental_uris": {"android": "https://dc.lft.to/lastmile_qr_scan", "ios": "https://dc.lft.to/lastmile_qr_scan"}, "is_reserved": 0, "is_disabled": 0, "type": "electric_scooter", "bike_id": "11553f589661bbe50f2593508d6a4bb3"}, {"lon": -77.0410245, "lat": 38.92369633333333, "name": "4cd5bae7f360c3270bcf6a5b6f551148", "fusion_lat": 0.0, "fusion_lon": 0.0, "rental_uris": {"android": "https://dc.lft.to/lastmile_qr_scan", "ios": "https://dc.lft.to/lastmile_qr_scan"}, "is_reserved": 0, "is_disabled": 0, "type": "electric_scooter", "bike_id": "4cd5bae7f360c3270bcf6a5b6f551148"}, {"lon": -77.01485883333334, "lat": 38.918675, "name": "4612b00c619a16b25bd060e456c48460", "fusion_lat": 0.0, "fusion_lon": 0.0, "rental_uris": {"android": "https://dc.lft.to/lastmile_qr_scan", "ios": "https://dc.lft.to/lastmile_qr_scan"}, "is_reserved": 0, "is_disabled": 0, "type": "electric_scooter", "bike_id": "4612b00c619a16b25bd060e456c48460"}, {"lon": -77.02569933333334, "lat": 38.88747033333333, "name": "975a6bd72249e0bb03d9bedcc50a3fd1", "fusion_lat": 0.0, "fusion_lon": 0.0, "rental_uris": {"android": "https://dc.lft.to/lastmile_qr_scan", "ios": "https://dc.lft.to/lastmile_qr_scan"}, "is_reserved": 0, "is_disabled": 0, "type": "electric_scooter", "bike_id": "975a6bd72249e0bb03d9bedcc50a3fd1"}, {"lon": -77.01214716666667, "lat": 38.87080666666667, "name": "60716a9a73e32e959f9080a1acd79e00", "fusion_lat": 0.0, "fusion_lon": 0.0, "rental_uris": {"android": "https://dc.lft.to/lastmile_qr_scan", "ios": "https://dc.lft.to/lastmile_qr_scan"}, "is_reserved": 0, "is_disabled": 0, "type": "electric_bike", "bike_id": "60716a9a73e32e959f9080a1acd79e00"}, {"lon": -77.03207666666667, "lat": 38.91635266666667, "name": "0707c88c717bc75d7a608847e1a754bf", "fusion_lat": 0.0, "fusion_lon": 0.0, "rental_uris": {"android": "https://dc.lft.to/lastmile_qr_scan", "ios": "https://dc.lft.to/lastmile_qr_scan"}, "is_reserved": 0, "is_disabled": 0, "type": "electric_scooter", "bike_id": "0707c88c717bc75d7a608847e1a754bf"}, {"lon": -76.9801945, "lat": 38.90378066666667, "name": "8c3d7726aeb56294a1ea2cff3070e415", "fusion_lat": 0.0, "fusion_lon": 0.0, "rental_uris": {"android": "https://dc.lft.to/lastmile_qr_scan", "ios": "https://dc.lft.to/lastmile_qr_scan"}, "is_reserved": 0, "is_disabled": 0, "type": "electric_scooter", "bike_id": "8c3d7726aeb56294a1ea2cff3070e415"}, {"lon": -76.998387, "lat": 38.8391675, "name": "43e450cdf264e93b6e1c06b2bc5b26e5", "fusion_lat": 0.0, "fusion_lon": 0.0, "rental_uris": {"android": "https://dc.lft.to/lastmile_qr_scan", "ios": "https://dc.lft.to/lastmile_qr_scan"}, "is_reserved": 0, "is_disabled": 0, "type": "electric_bike", "bike_id": "43e450cdf264e93b6e1c06b2bc5b26e5"}, {"lon": -77.00508066666667, "lat": 38.87534683333333, "name": "fa456c292a86b065f4cb41fdff388337", "fusion_lat": 0.0, "fusion_lon": 0.0, "rental_uris": {"android": "https://dc.lft.to/lastmile_qr_scan", "ios": "https://dc.lft.to/lastmile_qr_scan"}, "is_reserved": 0, "is_disabled": 0, "type": "electric_scooter", "bike_id": "fa456c292a86b065f4cb41fdff388337"}, {"lon": -77.03002733333334, "lat": 38.93452, "name": "cffee9064611812855a1d2908a698d16", "fusion_lat": 0.0, "fusion_lon": 0.0, "rental_uris": {"android": "https://dc.lft.to/lastmile_qr_scan", "ios": "https://dc.lft.to/lastmile_qr_scan"}, "is_reserved": 0, "is_disabled": 0, "type": "electric_scooter", "bike_id": "cffee9064611812855a1d2908a698d16"}, {"lon": -76.93572616666667, "lat": 38.8852745, "name": "938dbbbf9055b87c396430047c4d0062", "fusion_lat": 0.0, "fusion_lon": 0.0, "rental_uris": {"android": "https://dc.lft.to/lastmile_qr_scan", "ios": "https://dc.lft.to/lastmile_qr_scan"}, "is_reserved": 0, "is_disabled": 0, "type": "electric_bike", "bike_id": "938dbbbf9055b87c396430047c4d0062"}, {"lon": -77.01333566666666, "lat": 38.9169405, "name": "44bf742d5f4b84a0d827a088ed902025", "fusion_lat": 0.0, "fusion_lon": 0.0, "rental_uris": {"android": "https://dc.lft.to/lastmile_qr_scan", "ios": "https://dc.lft.to/lastmile_qr_scan"}, "is_reserved": 0, "is_disabled": 0, "type": "electric_scooter", "bike_id": "44bf742d5f4b84a0d827a088ed902025"}, {"lon": -77.045017, "lat": 38.9111425, "name": "2779fcbc62ce038cc2250673b7008a72", "fusion_lat": 0.0, "fusion_lon": 0.0, "rental_uris": {"android": "https://dc.lft.to/lastmile_qr_scan", "ios": "https://dc.lft.to/lastmile_qr_scan"}, "is_reserved": 0, "is_disabled": 0, "type": "electric_scooter", "bike_id": "2779fcbc62ce038cc2250673b7008a72"}, {"lon": -77.000632, "lat": 38.906799, "name": "7f0ccd231c72662a2bc067611a2eac46", "fusion_lat": 0.0, "fusion_lon": 0.0, "rental_uris": {"android": "https://dc.lft.to/lastmile_qr_scan", "ios": "https://dc.lft.to/lastmile_qr_scan"}, "is_reserved": 0, "is_disabled": 0, "type": "electric_scooter", "bike_id": "7f0ccd231c72662a2bc067611a2eac46"}, {"lon": -76.98614883333333, "lat": 38.854616666666665, "name": "c5a52644d06de4c7077359e4023c2e14", "fusion_lat": 0.0, "fusion_lon": 0.0, "rental_uris": {"android": "https://dc.lft.to/lastmile_qr_scan", "ios": "https://dc.lft.to/lastmile_qr_scan"}, "is_reserved": 0, "is_disabled": 0, "type": "electric_scooter", "bike_id": "c5a52644d06de4c7077359e4023c2e14"}, {"lon": -77.01075616666667, "lat": 38.9626245, "name": "34746b4393cc4ae57f7ad9af566bde06", "fusion_lat": 0.0, "fusion_lon": 0.0, "rental_uris": {"android": "https://dc.lft.to/lastmile_qr_scan", "ios": "https://dc.lft.to/lastmile_qr_scan"}, "is_reserved": 0, "is_disabled": 0, "type": "electric_bike", "bike_id": "34746b4393cc4ae57f7ad9af566bde06"}, {"lon": -77.01207766666667, "lat": 38.8932335, "name": "bc3ca937eb1dfabf31dc57ddc522d149", "fusion_lat": 0.0, "fusion_lon": 0.0, "rental_uris": {"android": "https://dc.lft.to/lastmile_qr_scan", "ios": "https://dc.lft.to/lastmile_qr_scan"}, "is_reserved": 0, "is_disabled": 0, "type": "electric_scooter", "bike_id": "bc3ca937eb1dfabf31dc57ddc522d149"}, {"lon": -77.02655416666667, "lat": 38.9386105, "name": "d4eb7e3a9d19bb234b19c43f5b024b34", "fusion_lat": 0.0, "fusion_lon": 0.0, "rental_uris": {"android": "https://dc.lft.to/lastmile_qr_scan", "ios": "https://dc.lft.to/lastmile_qr_scan"}, "is_reserved": 0, "is_disabled": 0, "type": "electric_scooter", "bike_id": "d4eb7e3a9d19bb234b19c43f5b024b34"}, {"lon": -76.99039483333334, "lat": 38.85872283333333, "name": "edac3d9085b9b532a317c6ccd2d76197", "fusion_lat": 0.0, "fusion_lon": 0.0, "rental_uris": {"android": "https://dc.lft.to/lastmile_qr_scan", "ios": "https://dc.lft.to/lastmile_qr_scan"}, "is_reserved": 0, "is_disabled": 0, "type": "electric_scooter", "bike_id": "edac3d9085b9b532a317c6ccd2d76197"}, {"lon": -77.02321366666666, "lat": 38.887358, "name": "7f51a594edae809ccd89af419868f2d6", "fusion_lat": 0.0, "fusion_lon": 0.0, "rental_uris": {"android": "https://dc.lft.to/lastmile_qr_scan", "ios": "https://dc.lft.to/lastmile_qr_scan"}, "is_reserved": 0, "is_disabled": 0, "type": "electric_scooter", "bike_id": "7f51a594edae809ccd89af419868f2d6"}, {"lon": -77.02004416666666, "lat": 38.892467, "name": "40c815a0a0d95eb7f6da0767c9a20dfb", "fusion_lat": 0.0, "fusion_lon": 0.0, "rental_uris": {"android": "https://dc.lft.to/lastmile_qr_scan", "ios": "https://dc.lft.to/lastmile_qr_scan"}, "is_reserved": 0, "is_disabled": 0, "type": "electric_scooter", "bike_id": "40c815a0a0d95eb7f6da0767c9a20dfb"}, {"lon": -77.10926233333333, "lat": 39.052051666666664, "name": "08afb5f17817af3267d7b0c57e261af8", "fusion_lat": 0.0, "fusion_lon": 0.0, "rental_uris": {"android": "https://dc.lft.to/lastmile_qr_scan", "ios": "https://dc.lft.to/lastmile_qr_scan"}, "is_reserved": 0, "is_disabled": 0, "type": "electric_bike", "bike_id": "08afb5f17817af3267d7b0c57e261af8"}, {"lon": -77.02228816666667, "lat": 38.8863275, "name": "7d24d7a56fa5d0ddbb436fc2d630ef8b", "fusion_lat": 0.0, "fusion_lon": 0.0, "rental_uris": {"android": "https://dc.lft.to/lastmile_qr_scan", "ios": "https://dc.lft.to/lastmile_qr_scan"}, "is_reserved": 0, "is_disabled": 0, "type": "electric_bike", "bike_id": "7d24d7a56fa5d0ddbb436fc2d630ef8b"}, {"lon": -77.000928, "lat": 38.873740833333336, "name": "79a6a249bf64e7cdee32215e63b07efd", "fusion_lat": 0.0, "fusion_lon": 0.0, "rental_uris": {"android": "https://dc.lft.to/lastmile_qr_scan", "ios": "https://dc.lft.to/lastmile_qr_scan"}, "is_reserved": 0, "is_disabled": 0, "type": "electric_scooter", "bike_id": "79a6a249bf64e7cdee32215e63b07efd"}, {"lon": -76.97611366666666, "lat": 38.91314066666666, "name": "984e20e79dadf3bbe703f60df88ceeea", "fusion_lat": 0.0, "fusion_lon": 0.0, "rental_uris": {"android": "https://dc.lft.to/lastmile_qr_scan", "ios": "https://dc.lft.to/lastmile_qr_scan"}, "is_reserved": 0, "is_disabled": 0, "type": "electric_bike", "bike_id": "984e20e79dadf3bbe703f60df88ceeea"}, {"lon": -77.0438855, "lat": 38.922731666666664, "name": "cea690fea3901a239b66b96ae3faedb0", "fusion_lat": 0.0, "fusion_lon": 0.0, "rental_uris": {"android": "https://dc.lft.to/lastmile_qr_scan", "ios": "https://dc.lft.to/lastmile_qr_scan"}, "is_reserved": 0, "is_disabled": 0, "type": "electric_scooter", "bike_id": "cea690fea3901a239b66b96ae3faedb0"}, {"lon": -77.0240525, "lat": 38.88739566666667, "name": "0e00fe21fbf5408a8511ed94071fbb16", "fusion_lat": 0.0, "fusion_lon": 0.0, "rental_uris": {"android": "https://dc.lft.to/lastmile_qr_scan", "ios": "https://dc.lft.to/lastmile_qr_scan"}, "is_reserved": 0, "is_disabled": 0, "type": "electric_scooter", "bike_id": "0e00fe21fbf5408a8511ed94071fbb16"}, {"lon": -76.97189833333333, "lat": 38.91262583333334, "name": "e61e2ad8b2c6fe1f2eae2aae5696d54d", "fusion_lat": 0.0, "fusion_lon": 0.0, "rental_uris": {"android": "https://dc.lft.to/lastmile_qr_scan", "ios": "https://dc.lft.to/lastmile_qr_scan"}, "is_reserved": 0, "is_disabled": 0, "type": "electric_scooter", "bike_id": "e61e2ad8b2c6fe1f2eae2aae5696d54d"}, {"lon": -77.01821433333333, "lat": 38.908113666666665, "name": "5fb532a4eba33aab8a28f4134b1033b1", "fusion_lat": 0.0, "fusion_lon": 0.0, "rental_uris": {"android": "https://dc.lft.to/lastmile_qr_scan", "ios": "https://dc.lft.to/lastmile_qr_scan"}, "is_reserved": 0, "is_disabled": 0, "type": "electric_scooter", "bike_id": "5fb532a4eba33aab8a28f4134b1033b1"}, {"lon": -77.01073566666666, "lat": 38.871052166666665, "name": "0db990a64b9f29dd7be6dbfb0634d38e", "fusion_lat": 0.0, "fusion_lon": 0.0, "rental_uris": {"android": "https://dc.lft.to/lastmile_qr_scan", "ios": "https://dc.lft.to/lastmile_qr_scan"}, "is_reserved": 0, "is_disabled": 0, "type": "electric_scooter", "bike_id": "0db990a64b9f29dd7be6dbfb0634d38e"}, {"lon": -77.04119433333334, "lat": 38.92524816666667, "name": "e2059edf5a744a59d374a016319cff1a", "fusion_lat": 0.0, "fusion_lon": 0.0, "rental_uris": {"android": "https://dc.lft.to/lastmile_qr_scan", "ios": "https://dc.lft.to/lastmile_qr_scan"}, "is_reserved": 0, "is_disabled": 0, "type": "electric_scooter", "bike_id": "e2059edf5a744a59d374a016319cff1a"}, {"lon": -77.13599433333333, "lat": 39.05342916666667, "name": "395203b807805900260bf0f51cf97eef", "fusion_lat": 0.0, "fusion_lon": 0.0, "rental_uris": {"android": "https://dc.lft.to/lastmile_qr_scan", "ios": "https://dc.lft.to/lastmile_qr_scan"}, "is_reserved": 0, "is_disabled": 0, "type": "electric_bike", "bike_id": "395203b807805900260bf0f51cf97eef"}, {"lon": -77.03655583333334, "lat": 38.92909983333333, "name": "ee06eb4f24ee613b6576dd6497bef385", "fusion_lat": 0.0, "fusion_lon": 0.0, "rental_uris": {"android": "https://dc.lft.to/lastmile_qr_scan", "ios": "https://dc.lft.to/lastmile_qr_scan"}, "is_reserved": 0, "is_disabled": 0, "type": "electric_scooter", "bike_id": "ee06eb4f24ee613b6576dd6497bef385"}, {"lon": -76.98628733333334, "lat": 38.86818916666667, "name": "84230bfc3ceaf0577d232e29bde7d99a", "fusion_lat": 0.0, "fusion_lon": 0.0, "rental_uris": {"android": "https://dc.lft.to/lastmile_qr_scan", "ios": "https://dc.lft.to/lastmile_qr_scan"}, "is_reserved": 0, "is_disabled": 0, "type": "electric_scooter", "bike_id": "84230bfc3ceaf0577d232e29bde7d99a"}, {"lon": -77.03247366666666, "lat": 38.911977666666665, "name": "49f8cc1479a897f8872a05784bfd6bf4", "fusion_lat": 0.0, "fusion_lon": 0.0, "rental_uris": {"android": "https://dc.lft.to/lastmile_qr_scan", "ios": "https://dc.lft.to/lastmile_qr_scan"}, "is_reserved": 0, "is_disabled": 0, "type": "electric_scooter", "bike_id": "49f8cc1479a897f8872a05784bfd6bf4"}, {"lon": -76.98758016666666, "lat": 38.845004333333335, "name": "bacae5c26e5ff88d4ddac9fbae4045ba", "fusion_lat": 0.0, "fusion_lon": 0.0, "rental_uris": {"android": "https://dc.lft.to/lastmile_qr_scan", "ios": "https://dc.lft.to/lastmile_qr_scan"}, "is_reserved": 0, "is_disabled": 0, "type": "electric_scooter", "bike_id": "bacae5c26e5ff88d4ddac9fbae4045ba"}, {"lon": -77.01440183333334, "lat": 38.877695333333335, "name": "88d8283d38f82be26f1b27d09e0cd5de", "fusion_lat": 0.0, "fusion_lon": 0.0, "rental_uris": {"android": "https://dc.lft.to/lastmile_qr_scan", "ios": "https://dc.lft.to/lastmile_qr_scan"}, "is_reserved": 0, "is_disabled": 0, "type": "electric_scooter", "bike_id": "88d8283d38f82be26f1b27d09e0cd5de"}, {"lon": -77.01258716666666, "lat": 38.89964416666667, "name": "8d2491951f4cbcc1d21e11042f6abefa", "fusion_lat": 0.0, "fusion_lon": 0.0, "rental_uris": {"android": "https://dc.lft.to/lastmile_qr_scan", "ios": "https://dc.lft.to/lastmile_qr_scan"}, "is_reserved": 0, "is_disabled": 0, "type": "electric_scooter", "bike_id": "8d2491951f4cbcc1d21e11042f6abefa"}, {"lon": -77.042983, "lat": 38.922621166666666, "name": "9e13513b78bbfca488c6973e4088e8f3", "fusion_lat": 0.0, "fusion_lon": 0.0, "rental_uris": {"android": "https://dc.lft.to/lastmile_qr_scan", "ios": "https://dc.lft.to/lastmile_qr_scan"}, "is_reserved": 0, "is_disabled": 0, "type": "electric_scooter", "bike_id": "9e13513b78bbfca488c6973e4088e8f3"}, {"lon": -77.04899316666666, "lat": 38.892297666666664, "name": "4a60e351977a48c02ec776c9734efd80", "fusion_lat": 0.0, "fusion_lon": 0.0, "rental_uris": {"android": "https://dc.lft.to/lastmile_qr_scan", "ios": "https://dc.lft.to/lastmile_qr_scan"}, "is_reserved": 0, "is_disabled": 0, "type": "electric_scooter", "bike_id": "4a60e351977a48c02ec776c9734efd80"}, {"lon": -76.94872233333334, "lat": 38.894602166666665, "name": "c303a68f595639005508774a2e739101", "fusion_lat": 0.0, "fusion_lon": 0.0, "rental_uris": {"android": "https://dc.lft.to/lastmile_qr_scan", "ios": "https://dc.lft.to/lastmile_qr_scan"}, "is_reserved": 0, "is_disabled": 0, "type": "electric_scooter", "bike_id": "c303a68f595639005508774a2e739101"}, {"lon": -77.0191175, "lat": 38.9024485, "name": "ca750d89126059701e8c780ff0d5bbfa", "fusion_lat": 0.0, "fusion_lon": 0.0, "rental_uris": {"android": "https://dc.lft.to/lastmile_qr_scan", "ios": "https://dc.lft.to/lastmile_qr_scan"}, "is_reserved": 0, "is_disabled": 0, "type": "electric_scooter", "bike_id": "ca750d89126059701e8c780ff0d5bbfa"}, {"lon": -76.99501016666666, "lat": 38.88102883333333, "name": "d6fbc3690c579b7076902fe389a7fa8d", "fusion_lat": 0.0, "fusion_lon": 0.0, "rental_uris": {"android": "https://dc.lft.to/lastmile_qr_scan", "ios": "https://dc.lft.to/lastmile_qr_scan"}, "is_reserved": 0, "is_disabled": 0, "type": "electric_scooter", "bike_id": "d6fbc3690c579b7076902fe389a7fa8d"}, {"lon": -77.053156, "lat": 38.9029165, "name": "c334efb4d6c5345f430f25f91993e35d", "fusion_lat": 0.0, "fusion_lon": 0.0, "rental_uris": {"android": "https://dc.lft.to/lastmile_qr_scan", "ios": "https://dc.lft.to/lastmile_qr_scan"}, "is_reserved": 0, "is_disabled": 0, "type": "electric_scooter", "bike_id": "c334efb4d6c5345f430f25f91993e35d"}, {"lon": -77.03319866666666, "lat": 38.89893516666667, "name": "f42118a85a1135b66a88b17d35b0ab33", "fusion_lat": 0.0, "fusion_lon": 0.0, "rental_uris": {"android": "https://dc.lft.to/lastmile_qr_scan", "ios": "https://dc.lft.to/lastmile_qr_scan"}, "is_reserved": 0, "is_disabled": 0, "type": "electric_scooter", "bike_id": "f42118a85a1135b66a88b17d35b0ab33"}, {"lon": -77.03252833333333, "lat": 38.9039755, "name": "45829ccc8d7ece0c8ab2a9831905bb2d", "fusion_lat": 0.0, "fusion_lon": 0.0, "rental_uris": {"android": "https://dc.lft.to/lastmile_qr_scan", "ios": "https://dc.lft.to/lastmile_qr_scan"}, "is_reserved": 0, "is_disabled": 0, "type": "electric_scooter", "bike_id": "45829ccc8d7ece0c8ab2a9831905bb2d"}, {"lon": -77.0465805, "lat": 38.89337066666667, "name": "6375da45d7647ce571919f55afd03ca8", "fusion_lat": 0.0, "fusion_lon": 0.0, "rental_uris": {"android": "https://dc.lft.to/lastmile_qr_scan", "ios": "https://dc.lft.to/lastmile_qr_scan"}, "is_reserved": 0, "is_disabled": 0, "type": "electric_scooter", "bike_id": "6375da45d7647ce571919f55afd03ca8"}, {"lon": -76.93177666666666, "lat": 38.8988525, "name": "287887f6a3b132698529316bdb15ddd2", "fusion_lat": 0.0, "fusion_lon": 0.0, "rental_uris": {"android": "https://dc.lft.to/lastmile_qr_scan", "ios": "https://dc.lft.to/lastmile_qr_scan"}, "is_reserved": 0, "is_disabled": 0, "type": "electric_scooter", "bike_id": "287887f6a3b132698529316bdb15ddd2"}, {"lon": -77.03170316666667, "lat": 38.8862765, "name": "78a0e1c060d837fbdb2cb5829d01ac99", "fusion_lat": 0.0, "fusion_lon": 0.0, "rental_uris": {"android": "https://dc.lft.to/lastmile_qr_scan", "ios": "https://dc.lft.to/lastmile_qr_scan"}, "is_reserved": 0, "is_disabled": 0, "type": "electric_scooter", "bike_id": "78a0e1c060d837fbdb2cb5829d01ac99"}, {"lon": -77.00208316666667, "lat": 38.9022285, "name": "96b9f4c43411003a19f8f055b91c098b", "fusion_lat": 0.0, "fusion_lon": 0.0, "rental_uris": {"android": "https://dc.lft.to/lastmile_qr_scan", "ios": "https://dc.lft.to/lastmile_qr_scan"}, "is_reserved": 0, "is_disabled": 0, "type": "electric_scooter", "bike_id": "96b9f4c43411003a19f8f055b91c098b"}, {"lon": -77.05375433333333, "lat": 38.92328666666667, "name": "cde88952103c3cac733fce10852beda6", "fusion_lat": 0.0, "fusion_lon": 0.0, "rental_uris": {"android": "https://dc.lft.to/lastmile_qr_scan", "ios": "https://dc.lft.to/lastmile_qr_scan"}, "is_reserved": 0, "is_disabled": 0, "type": "electric_scooter", "bike_id": "cde88952103c3cac733fce10852beda6"}, {"lon": -77.03862883333333, "lat": 38.93211933333333, "name": "05660426fe890669d42e511213362148", "fusion_lat": 0.0, "fusion_lon": 0.0, "rental_uris": {"android": "https://dc.lft.to/lastmile_qr_scan", "ios": "https://dc.lft.to/lastmile_qr_scan"}, "is_reserved": 0, "is_disabled": 0, "type": "electric_scooter", "bike_id": "05660426fe890669d42e511213362148"}, {"lon": -77.00348766666667, "lat": 38.8915735, "name": "f9c4550b3edbccd6e4b2b1ef83c56c53", "fusion_lat": 0.0, "fusion_lon": 0.0, "rental_uris": {"android": "https://dc.lft.to/lastmile_qr_scan", "ios": "https://dc.lft.to/lastmile_qr_scan"}, "is_reserved": 0, "is_disabled": 0, "type": "electric_scooter", "bike_id": "f9c4550b3edbccd6e4b2b1ef83c56c53"}, {"lon": -77.02949983333333, "lat": 38.9114905, "name": "78089bb5b19c6eebfc3171fbe1b6e38c", "fusion_lat": 0.0, "fusion_lon": 0.0, "rental_uris": {"android": "https://dc.lft.to/lastmile_qr_scan", "ios": "https://dc.lft.to/lastmile_qr_scan"}, "is_reserved": 0, "is_disabled": 0, "type": "electric_bike", "bike_id": "78089bb5b19c6eebfc3171fbe1b6e38c"}, {"lon": -77.149884, "lat": 39.0946085, "name": "f2b0e4bb26a1e2ea3e3fdbe4b95b7333", "fusion_lat": 0.0, "fusion_lon": 0.0, "rental_uris": {"android": "https://dc.lft.to/lastmile_qr_scan", "ios": "https://dc.lft.to/lastmile_qr_scan"}, "is_reserved": 0, "is_disabled": 0, "type": "electric_bike", "bike_id": "f2b0e4bb26a1e2ea3e3fdbe4b95b7333"}, {"lon": -77.00654483333334, "lat": 38.9086165, "name": "da3186c509c507eafd0869d1d0f59034", "fusion_lat": 0.0, "fusion_lon": 0.0, "rental_uris": {"android": "https://dc.lft.to/lastmile_qr_scan", "ios": "https://dc.lft.to/lastmile_qr_scan"}, "is_reserved": 0, "is_disabled": 0, "type": "electric_scooter", "bike_id": "da3186c509c507eafd0869d1d0f59034"}, {"lon": -77.06914316666666, "lat": 38.91277, "name": "ea6a82cf4e27fa71312579a014d0d771", "fusion_lat": 0.0, "fusion_lon": 0.0, "rental_uris": {"android": "https://dc.lft.to/lastmile_qr_scan", "ios": "https://dc.lft.to/lastmile_qr_scan"}, "is_reserved": 0, "is_disabled": 0, "type": "electric_scooter", "bike_id": "ea6a82cf4e27fa71312579a014d0d771"}, {"lon": -77.199107, "lat": 38.875300833333334, "name": "02c6adbff8233d45189d1101ffab0edb", "fusion_lat": 0.0, "fusion_lon": 0.0, "rental_uris": {"android": "https://dc.lft.to/lastmile_qr_scan", "ios": "https://dc.lft.to/lastmile_qr_scan"}, "is_reserved": 0, "is_disabled": 0, "type": "electric_bike", "bike_id": "02c6adbff8233d45189d1101ffab0edb"}, {"lon": -77.0363395, "lat": 38.949140166666666, "name": "b23a3a41a2a6d76ae7c1878b26a4f8f6", "fusion_lat": 0.0, "fusion_lon": 0.0, "rental_uris": {"android": "https://dc.lft.to/lastmile_qr_scan", "ios": "https://dc.lft.to/lastmile_qr_scan"}, "is_reserved": 0, "is_disabled": 0, "type": "electric_scooter", "bike_id": "b23a3a41a2a6d76ae7c1878b26a4f8f6"}, {"lon": -77.068334, "lat": 38.91175916666667, "name": "54eb8229cfc53f89c6cda14d1bd6b113", "fusion_lat": 0.0, "fusion_lon": 0.0, "rental_uris": {"android": "https://dc.lft.to/lastmile_qr_scan", "ios": "https://dc.lft.to/lastmile_qr_scan"}, "is_reserved": 0, "is_disabled": 0, "type": "electric_scooter", "bike_id": "54eb8229cfc53f89c6cda14d1bd6b113"}, {"lon": -77.04227816666666, "lat": 38.90927683333334, "name": "58222f10175db3d4af575ef3e9c019ac", "fusion_lat": 0.0, "fusion_lon": 0.0, "rental_uris": {"android": "https://dc.lft.to/lastmile_qr_scan", "ios": "https://dc.lft.to/lastmile_qr_scan"}, "is_reserved": 0, "is_disabled": 0, "type": "electric_bike", "bike_id": "58222f10175db3d4af575ef3e9c019ac"}, {"lon": -76.90969166666666, "lat": 38.854243833333335, "name": "4d1b7a9c6b47f05756f26473fe475160", "fusion_lat": 0.0, "fusion_lon": 0.0, "rental_uris": {"android": "https://dc.lft.to/lastmile_qr_scan", "ios": "https://dc.lft.to/lastmile_qr_scan"}, "is_reserved": 0, "is_disabled": 0, "type": "electric_bike", "bike_id": "4d1b7a9c6b47f05756f26473fe475160"}, {"lon": -77.00118016666667, "lat": 38.917059, "name": "5755c5fe4096dde9d345aa0dd5da8252", "fusion_lat": 0.0, "fusion_lon": 0.0, "rental_uris": {"android": "https://dc.lft.to/lastmile_qr_scan", "ios": "https://dc.lft.to/lastmile_qr_scan"}, "is_reserved": 0, "is_disabled": 0, "type": "electric_scooter", "bike_id": "5755c5fe4096dde9d345aa0dd5da8252"}, {"lon": -77.041759, "lat": 38.9146265, "name": "8eac1abbcc17e9fe728ee9abd0e5cc25", "fusion_lat": 0.0, "fusion_lon": 0.0, "rental_uris": {"android": "https://dc.lft.to/lastmile_qr_scan", "ios": "https://dc.lft.to/lastmile_qr_scan"}, "is_reserved": 0, "is_disabled": 0, "type": "electric_scooter", "bike_id": "8eac1abbcc17e9fe728ee9abd0e5cc25"}, {"lon": -77.02410033333334, "lat": 38.93694933333333, "name": "2189942f1d5434e447eadae797a3d9e7", "fusion_lat": 0.0, "fusion_lon": 0.0, "rental_uris": {"android": "https://dc.lft.to/lastmile_qr_scan", "ios": "https://dc.lft.to/lastmile_qr_scan"}, "is_reserved": 0, "is_disabled": 0, "type": "electric_bike", "bike_id": "2189942f1d5434e447eadae797a3d9e7"}, {"lon": -77.02886933333333, "lat": 38.91124583333333, "name": "04824fc21b17694afe2408137b8476c4", "fusion_lat": 0.0, "fusion_lon": 0.0, "rental_uris": {"android": "https://dc.lft.to/lastmile_qr_scan", "ios": "https://dc.lft.to/lastmile_qr_scan"}, "is_reserved": 0, "is_disabled": 0, "type": "electric_scooter", "bike_id": "04824fc21b17694afe2408137b8476c4"}, {"lon": -77.04377016666666, "lat": 38.8922635, "name": "5ae1dd6fab6d57461a069ba4b3adfb8b", "fusion_lat": 0.0, "fusion_lon": 0.0, "rental_uris": {"android": "https://dc.lft.to/lastmile_qr_scan", "ios": "https://dc.lft.to/lastmile_qr_scan"}, "is_reserved": 0, "is_disabled": 0, "type": "electric_scooter", "bike_id": "5ae1dd6fab6d57461a069ba4b3adfb8b"}, {"lon": -77.018748, "lat": 38.887480833333335, "name": "a876119d38248510e8e2dc61c82c15ac", "fusion_lat": 0.0, "fusion_lon": 0.0, "rental_uris": {"android": "https://dc.lft.to/lastmile_qr_scan", "ios": "https://dc.lft.to/lastmile_qr_scan"}, "is_reserved": 0, "is_disabled": 0, "type": "electric_scooter", "bike_id": "a876119d38248510e8e2dc61c82c15ac"}, {"lon": -77.0193465, "lat": 38.90242816666667, "name": "8bec801b999c2dad3f1c8fdfc9e9a9b2", "fusion_lat": 0.0, "fusion_lon": 0.0, "rental_uris": {"android": "https://dc.lft.to/lastmile_qr_scan", "ios": "https://dc.lft.to/lastmile_qr_scan"}, "is_reserved": 0, "is_disabled": 0, "type": "electric_scooter", "bike_id": "8bec801b999c2dad3f1c8fdfc9e9a9b2"}, {"lon": -76.99710716666667, "lat": 38.9003015, "name": "34fab99aa38134c3e855eb0213241574", "fusion_lat": 0.0, "fusion_lon": 0.0, "rental_uris": {"android": "https://dc.lft.to/lastmile_qr_scan", "ios": "https://dc.lft.to/lastmile_qr_scan"}, "is_reserved": 0, "is_disabled": 0, "type": "electric_scooter", "bike_id": "34fab99aa38134c3e855eb0213241574"}, {"lon": -77.02609733333334, "lat": 38.904849, "name": "fc2c62eb9edacad5fe50d32962225a78", "fusion_lat": 0.0, "fusion_lon": 0.0, "rental_uris": {"android": "https://dc.lft.to/lastmile_qr_scan", "ios": "https://dc.lft.to/lastmile_qr_scan"}, "is_reserved": 0, "is_disabled": 0, "type": "electric_scooter", "bike_id": "fc2c62eb9edacad5fe50d32962225a78"}, {"lon": -77.04907133333333, "lat": 38.88838966666667, "name": "0cc162f3de7600b1041c503e041e7496", "fusion_lat": 0.0, "fusion_lon": 0.0, "rental_uris": {"android": "https://dc.lft.to/lastmile_qr_scan", "ios": "https://dc.lft.to/lastmile_qr_scan"}, "is_reserved": 0, "is_disabled": 0, "type": "electric_scooter", "bike_id": "0cc162f3de7600b1041c503e041e7496"}, {"lon": -77.02201383333333, "lat": 38.91122766666667, "name": "94802d485f65c48f3c845bfd6d56e33d", "fusion_lat": 0.0, "fusion_lon": 0.0, "rental_uris": {"android": "https://dc.lft.to/lastmile_qr_scan", "ios": "https://dc.lft.to/lastmile_qr_scan"}, "is_reserved": 0, "is_disabled": 0, "type": "electric_scooter", "bike_id": "94802d485f65c48f3c845bfd6d56e33d"}, {"lon": -77.02784633333333, "lat": 38.9181175, "name": "c70be2172c41c9f56d25586a1fe8a435", "fusion_lat": 0.0, "fusion_lon": 0.0, "rental_uris": {"android": "https://dc.lft.to/lastmile_qr_scan", "ios": "https://dc.lft.to/lastmile_qr_scan"}, "is_reserved": 0, "is_disabled": 0, "type": "electric_scooter", "bike_id": "c70be2172c41c9f56d25586a1fe8a435"}, {"lon": -77.02975933333333, "lat": 38.895696666666666, "name": "2e1ed4a6fdff32eac4c5e37a76b70757", "fusion_lat": 0.0, "fusion_lon": 0.0, "rental_uris": {"android": "https://dc.lft.to/lastmile_qr_scan", "ios": "https://dc.lft.to/lastmile_qr_scan"}, "is_reserved": 0, "is_disabled": 0, "type": "electric_scooter", "bike_id": "2e1ed4a6fdff32eac4c5e37a76b70757"}, {"lon": -77.11411866666667, "lat": 38.842776, "name": "6ee6b231866072b0ef38f193612483cb", "fusion_lat": 0.0, "fusion_lon": 0.0, "rental_uris": {"android": "https://dc.lft.to/lastmile_qr_scan", "ios": "https://dc.lft.to/lastmile_qr_scan"}, "is_reserved": 0, "is_disabled": 0, "type": "electric_bike", "bike_id": "6ee6b231866072b0ef38f193612483cb"}, {"lon": -77.050895, "lat": 38.81331566666667, "name": "74bfad4dfd6e4c65e757ede8a87e6bba", "fusion_lat": 0.0, "fusion_lon": 0.0, "rental_uris": {"android": "https://dc.lft.to/lastmile_qr_scan", "ios": "https://dc.lft.to/lastmile_qr_scan"}, "is_reserved": 0, "is_disabled": 0, "type": "electric_bike", "bike_id": "74bfad4dfd6e4c65e757ede8a87e6bba"}, {"lon": -77.01127333333334, "lat": 38.913325666666665, "name": "ccf623c8ef101fafe1da4944c0a98893", "fusion_lat": 0.0, "fusion_lon": 0.0, "rental_uris": {"android": "https://dc.lft.to/lastmile_qr_scan", "ios": "https://dc.lft.to/lastmile_qr_scan"}, "is_reserved": 0, "is_disabled": 0, "type": "electric_scooter", "bike_id": "ccf623c8ef101fafe1da4944c0a98893"}, {"lon": -76.99968383333334, "lat": 38.9087925, "name": "e47532b1c8222859e131db45c7060e05", "fusion_lat": 0.0, "fusion_lon": 0.0, "rental_uris": {"android": "https://dc.lft.to/lastmile_qr_scan", "ios": "https://dc.lft.to/lastmile_qr_scan"}, "is_reserved": 0, "is_disabled": 0, "type": "electric_scooter", "bike_id": "e47532b1c8222859e131db45c7060e05"}, {"lon": -77.03705733333334, "lat": 38.91659683333334, "name": "19c19b738248be11ce9f716e2e9e1d93", "fusion_lat": 0.0, "fusion_lon": 0.0, "rental_uris": {"android": "https://dc.lft.to/lastmile_qr_scan", "ios": "https://dc.lft.to/lastmile_qr_scan"}, "is_reserved": 0, "is_disabled": 0, "type": "electric_scooter", "bike_id": "19c19b738248be11ce9f716e2e9e1d93"}, {"lon": -77.0289835, "lat": 38.884205333333334, "name": "e7849e9bbe1faeb91e3583deb582f9fe", "fusion_lat": 0.0, "fusion_lon": 0.0, "rental_uris": {"android": "https://dc.lft.to/lastmile_qr_scan", "ios": "https://dc.lft.to/lastmile_qr_scan"}, "is_reserved": 0, "is_disabled": 0, "type": "electric_scooter", "bike_id": "e7849e9bbe1faeb91e3583deb582f9fe"}, {"lon": -77.015309, "lat": 38.887372666666664, "name": "bb0d522e98165da9ce2e55158c5b9b93", "fusion_lat": 0.0, "fusion_lon": 0.0, "rental_uris": {"android": "https://dc.lft.to/lastmile_qr_scan", "ios": "https://dc.lft.to/lastmile_qr_scan"}, "is_reserved": 0, "is_disabled": 0, "type": "electric_scooter", "bike_id": "bb0d522e98165da9ce2e55158c5b9b93"}, {"lon": -77.07900083333334, "lat": 38.8393165, "name": "3c5687acdc330b3845238643995fee48", "fusion_lat": 0.0, "fusion_lon": 0.0, "rental_uris": {"android": "https://dc.lft.to/lastmile_qr_scan", "ios": "https://dc.lft.to/lastmile_qr_scan"}, "is_reserved": 0, "is_disabled": 0, "type": "electric_bike", "bike_id": "3c5687acdc330b3845238643995fee48"}, {"lon": -77.00090733333333, "lat": 38.873667166666664, "name": "c10c32460c1411336bb2f497c75079fb", "fusion_lat": 0.0, "fusion_lon": 0.0, "rental_uris": {"android": "https://dc.lft.to/lastmile_qr_scan", "ios": "https://dc.lft.to/lastmile_qr_scan"}, "is_reserved": 0, "is_disabled": 0, "type": "electric_scooter", "bike_id": "c10c32460c1411336bb2f497c75079fb"}, {"lon": -77.03183516666667, "lat": 38.91427866666667, "name": "46f4f81facf4939d358eb8ce00775ec3", "fusion_lat": 0.0, "fusion_lon": 0.0, "rental_uris": {"android": "https://dc.lft.to/lastmile_qr_scan", "ios": "https://dc.lft.to/lastmile_qr_scan"}, "is_reserved": 0, "is_disabled": 0, "type": "electric_scooter", "bike_id": "46f4f81facf4939d358eb8ce00775ec3"}, {"lon": -77.129019, "lat": 38.86376633333333, "name": "ba5c00b7dc904c5bdcbc480987da1827", "fusion_lat": 0.0, "fusion_lon": 0.0, "rental_uris": {"android": "https://dc.lft.to/lastmile_qr_scan", "ios": "https://dc.lft.to/lastmile_qr_scan"}, "is_reserved": 0, "is_disabled": 0, "type": "electric_bike", "bike_id": "ba5c00b7dc904c5bdcbc480987da1827"}, {"lon": -77.01839783333334, "lat": 38.877034, "name": "52fdc6ec3f0b9923f7d22936d2967ec0", "fusion_lat": 0.0, "fusion_lon": 0.0, "rental_uris": {"android": "https://dc.lft.to/lastmile_qr_scan", "ios": "https://dc.lft.to/lastmile_qr_scan"}, "is_reserved": 0, "is_disabled": 0, "type": "electric_scooter", "bike_id": "52fdc6ec3f0b9923f7d22936d2967ec0"}, {"lon": -77.05721066666666, "lat": 38.904863, "name": "d63bd3106563335cad679ac6b51e8c50", "fusion_lat": 0.0, "fusion_lon": 0.0, "rental_uris": {"android": "https://dc.lft.to/lastmile_qr_scan", "ios": "https://dc.lft.to/lastmile_qr_scan"}, "is_reserved": 0, "is_disabled": 0, "type": "electric_scooter", "bike_id": "d63bd3106563335cad679ac6b51e8c50"}, {"lon": -77.04806433333333, "lat": 38.909712666666664, "name": "bdd74c316880cc89aab8863f2678e513", "fusion_lat": 0.0, "fusion_lon": 0.0, "rental_uris": {"android": "https://dc.lft.to/lastmile_qr_scan", "ios": "https://dc.lft.to/lastmile_qr_scan"}, "is_reserved": 0, "is_disabled": 0, "type": "electric_scooter", "bike_id": "bdd74c316880cc89aab8863f2678e513"}, {"lon": -77.060413, "lat": 38.939247, "name": "a8165b94f509cd9db9035b66987cdca7", "fusion_lat": 0.0, "fusion_lon": 0.0, "rental_uris": {"android": "https://dc.lft.to/lastmile_qr_scan", "ios": "https://dc.lft.to/lastmile_qr_scan"}, "is_reserved": 0, "is_disabled": 0, "type": "electric_scooter", "bike_id": "a8165b94f509cd9db9035b66987cdca7"}, {"lon": -77.03389566666667, "lat": 38.8866135, "name": "fe932677f9a3cebf3c80c7289c9ab1c9", "fusion_lat": 0.0, "fusion_lon": 0.0, "rental_uris": {"android": "https://dc.lft.to/lastmile_qr_scan", "ios": "https://dc.lft.to/lastmile_qr_scan"}, "is_reserved": 0, "is_disabled": 0, "type": "electric_scooter", "bike_id": "fe932677f9a3cebf3c80c7289c9ab1c9"}, {"lon": -76.990677, "lat": 38.8635755, "name": "a7507a8d99523a7ea925d5633333d734", "fusion_lat": 0.0, "fusion_lon": 0.0, "rental_uris": {"android": "https://dc.lft.to/lastmile_qr_scan", "ios": "https://dc.lft.to/lastmile_qr_scan"}, "is_reserved": 0, "is_disabled": 0, "type": "electric_scooter", "bike_id": "a7507a8d99523a7ea925d5633333d734"}, {"lon": -77.036524, "lat": 38.90677216666667, "name": "a02d3fc9b3950491096d8a72d7831f57", "fusion_lat": 0.0, "fusion_lon": 0.0, "rental_uris": {"android": "https://dc.lft.to/lastmile_qr_scan", "ios": "https://dc.lft.to/lastmile_qr_scan"}, "is_reserved": 0, "is_disabled": 0, "type": "electric_scooter", "bike_id": "a02d3fc9b3950491096d8a72d7831f57"}, {"lon": -77.06631816666666, "lat": 38.913676333333335, "name": "bf14f30aa9a43e9cfa84ce6135eb7d51", "fusion_lat": 0.0, "fusion_lon": 0.0, "rental_uris": {"android": "https://dc.lft.to/lastmile_qr_scan", "ios": "https://dc.lft.to/lastmile_qr_scan"}, "is_reserved": 0, "is_disabled": 0, "type": "electric_scooter", "bike_id": "bf14f30aa9a43e9cfa84ce6135eb7d51"}, {"lon": -77.02930366666666, "lat": 38.942766, "name": "6e123e43b193519974b4b3e7d6170094", "fusion_lat": 0.0, "fusion_lon": 0.0, "rental_uris": {"android": "https://dc.lft.to/lastmile_qr_scan", "ios": "https://dc.lft.to/lastmile_qr_scan"}, "is_reserved": 0, "is_disabled": 0, "type": "electric_scooter", "bike_id": "6e123e43b193519974b4b3e7d6170094"}, {"lon": -77.02980716666667, "lat": 38.90503916666667, "name": "5f65083e7cd2720df437c63038d28b21", "fusion_lat": 0.0, "fusion_lon": 0.0, "rental_uris": {"android": "https://dc.lft.to/lastmile_qr_scan", "ios": "https://dc.lft.to/lastmile_qr_scan"}, "is_reserved": 0, "is_disabled": 0, "type": "electric_scooter", "bike_id": "5f65083e7cd2720df437c63038d28b21"}, {"lon": -77.0504265, "lat": 38.9240995, "name": "7d521eae5a3a224c0650fea426b954bd", "fusion_lat": 0.0, "fusion_lon": 0.0, "rental_uris": {"android": "https://dc.lft.to/lastmile_qr_scan", "ios": "https://dc.lft.to/lastmile_qr_scan"}, "is_reserved": 0, "is_disabled": 0, "type": "electric_scooter", "bike_id": "7d521eae5a3a224c0650fea426b954bd"}, {"lon": -77.02216383333334, "lat": 38.91553, "name": "242ad44a77680ca28002cd392ff320b2", "fusion_lat": 0.0, "fusion_lon": 0.0, "rental_uris": {"android": "https://dc.lft.to/lastmile_qr_scan", "ios": "https://dc.lft.to/lastmile_qr_scan"}, "is_reserved": 0, "is_disabled": 0, "type": "electric_scooter", "bike_id": "242ad44a77680ca28002cd392ff320b2"}, {"lon": -77.0235375, "lat": 38.9227715, "name": "690f0bfba064a2c0106dca8bc86f06d8", "fusion_lat": 0.0, "fusion_lon": 0.0, "rental_uris": {"android": "https://dc.lft.to/lastmile_qr_scan", "ios": "https://dc.lft.to/lastmile_qr_scan"}, "is_reserved": 0, "is_disabled": 0, "type": "electric_scooter", "bike_id": "690f0bfba064a2c0106dca8bc86f06d8"}, {"lon": -77.06784283333333, "lat": 38.95209833333333, "name": "853b0451d3b3a5be130a3a7e3252eb9f", "fusion_lat": 0.0, "fusion_lon": 0.0, "rental_uris": {"android": "https://dc.lft.to/lastmile_qr_scan", "ios": "https://dc.lft.to/lastmile_qr_scan"}, "is_reserved": 0, "is_disabled": 0, "type": "electric_scooter", "bike_id": "853b0451d3b3a5be130a3a7e3252eb9f"}, {"lon": -77.032217, "lat": 38.91996566666667, "name": "810bf541da2eab53d2c7ffecacc55ed7", "fusion_lat": 0.0, "fusion_lon": 0.0, "rental_uris": {"android": "https://dc.lft.to/lastmile_qr_scan", "ios": "https://dc.lft.to/lastmile_qr_scan"}, "is_reserved": 0, "is_disabled": 0, "type": "electric_scooter", "bike_id": "810bf541da2eab53d2c7ffecacc55ed7"}, {"lon": -77.033641, "lat": 38.928612333333334, "name": "b8fdca1530421f32013d2f54fe9af92b", "fusion_lat": 0.0, "fusion_lon": 0.0, "rental_uris": {"android": "https://dc.lft.to/lastmile_qr_scan", "ios": "https://dc.lft.to/lastmile_qr_scan"}, "is_reserved": 0, "is_disabled": 0, "type": "electric_scooter", "bike_id": "b8fdca1530421f32013d2f54fe9af92b"}, {"lon": -77.002125, "lat": 38.9021825, "name": "fa396eecd3a46ab2d0f7313f8cc1a81b", "fusion_lat": 0.0, "fusion_lon": 0.0, "rental_uris": {"android": "https://dc.lft.to/lastmile_qr_scan", "ios": "https://dc.lft.to/lastmile_qr_scan"}, "is_reserved": 0, "is_disabled": 0, "type": "electric_scooter", "bike_id": "fa396eecd3a46ab2d0f7313f8cc1a81b"}, {"lon": -77.0325745, "lat": 38.9355945, "name": "ccdac86ba99bf4d9c06491067a7d82b9", "fusion_lat": 0.0, "fusion_lon": 0.0, "rental_uris": {"android": "https://dc.lft.to/lastmile_qr_scan", "ios": "https://dc.lft.to/lastmile_qr_scan"}, "is_reserved": 0, "is_disabled": 0, "type": "electric_scooter", "bike_id": "ccdac86ba99bf4d9c06491067a7d82b9"}, {"lon": -77.00741933333333, "lat": 38.9552375, "name": "7963f5dcaaab12197574ce3db5ef0152", "fusion_lat": 0.0, "fusion_lon": 0.0, "rental_uris": {"android": "https://dc.lft.to/lastmile_qr_scan", "ios": "https://dc.lft.to/lastmile_qr_scan"}, "is_reserved": 0, "is_disabled": 0, "type": "electric_scooter", "bike_id": "7963f5dcaaab12197574ce3db5ef0152"}, {"lon": -77.02476733333333, "lat": 38.93962533333333, "name": "25387decfa33d47d1fca29e2c6791926", "fusion_lat": 0.0, "fusion_lon": 0.0, "rental_uris": {"android": "https://dc.lft.to/lastmile_qr_scan", "ios": "https://dc.lft.to/lastmile_qr_scan"}, "is_reserved": 0, "is_disabled": 0, "type": "electric_scooter", "bike_id": "25387decfa33d47d1fca29e2c6791926"}, {"lon": -77.02590916666666, "lat": 38.905217, "name": "a6da9383b4af0e8a6d90c9069c27aa30", "fusion_lat": 0.0, "fusion_lon": 0.0, "rental_uris": {"android": "https://dc.lft.to/lastmile_qr_scan", "ios": "https://dc.lft.to/lastmile_qr_scan"}, "is_reserved": 0, "is_disabled": 0, "type": "electric_scooter", "bike_id": "a6da9383b4af0e8a6d90c9069c27aa30"}, {"lon": -77.03910933333333, "lat": 38.91749516666667, "name": "d2fe4c48397e441fb3b76735c3a9bb1a", "fusion_lat": 0.0, "fusion_lon": 0.0, "rental_uris": {"android": "https://dc.lft.to/lastmile_qr_scan", "ios": "https://dc.lft.to/lastmile_qr_scan"}, "is_reserved": 0, "is_disabled": 0, "type": "electric_scooter", "bike_id": "d2fe4c48397e441fb3b76735c3a9bb1a"}, {"lon": -77.03857816666667, "lat": 38.931982166666664, "name": "8a2de821987ec8e301ad5a08c94f7ac5", "fusion_lat": 0.0, "fusion_lon": 0.0, "rental_uris": {"android": "https://dc.lft.to/lastmile_qr_scan", "ios": "https://dc.lft.to/lastmile_qr_scan"}, "is_reserved": 0, "is_disabled": 0, "type": "electric_scooter", "bike_id": "8a2de821987ec8e301ad5a08c94f7ac5"}, {"lon": -77.01888, "lat": 38.911917833333334, "name": "352894bf5942f50749248b65988480cf", "fusion_lat": 0.0, "fusion_lon": 0.0, "rental_uris": {"android": "https://dc.lft.to/lastmile_qr_scan", "ios": "https://dc.lft.to/lastmile_qr_scan"}, "is_reserved": 0, "is_disabled": 0, "type": "electric_scooter", "bike_id": "352894bf5942f50749248b65988480cf"}, {"lon": -76.98514666666667, "lat": 38.906094833333334, "name": "e4d94b056b13fbfbd0e401caef4859a1", "fusion_lat": 0.0, "fusion_lon": 0.0, "rental_uris": {"android": "https://dc.lft.to/lastmile_qr_scan", "ios": "https://dc.lft.to/lastmile_qr_scan"}, "is_reserved": 0, "is_disabled": 0, "type": "electric_scooter", "bike_id": "e4d94b056b13fbfbd0e401caef4859a1"}, {"lon": -77.036647, "lat": 38.922790166666665, "name": "ce9fd8526beeb8812a6d71fd3827e513", "fusion_lat": 0.0, "fusion_lon": 0.0, "rental_uris": {"android": "https://dc.lft.to/lastmile_qr_scan", "ios": "https://dc.lft.to/lastmile_qr_scan"}, "is_reserved": 0, "is_disabled": 0, "type": "electric_scooter", "bike_id": "ce9fd8526beeb8812a6d71fd3827e513"}, {"lon": -77.04341116666667, "lat": 38.89644583333333, "name": "9b470a2688b74841a19298e06bfcf3d0", "fusion_lat": 0.0, "fusion_lon": 0.0, "rental_uris": {"android": "https://dc.lft.to/lastmile_qr_scan", "ios": "https://dc.lft.to/lastmile_qr_scan"}, "is_reserved": 0, "is_disabled": 0, "type": "electric_scooter", "bike_id": "9b470a2688b74841a19298e06bfcf3d0"}, {"lon": -77.04209283333333, "lat": 38.92112816666667, "name": "958b74b0940911b1f54462b930c8de6f", "fusion_lat": 0.0, "fusion_lon": 0.0, "rental_uris": {"android": "https://dc.lft.to/lastmile_qr_scan", "ios": "https://dc.lft.to/lastmile_qr_scan"}, "is_reserved": 0, "is_disabled": 0, "type": "electric_scooter", "bike_id": "958b74b0940911b1f54462b930c8de6f"}, {"lon": -77.05239766666666, "lat": 38.92459266666667, "name": "fadc9a608e05d54042953547092883d8", "fusion_lat": 0.0, "fusion_lon": 0.0, "rental_uris": {"android": "https://dc.lft.to/lastmile_qr_scan", "ios": "https://dc.lft.to/lastmile_qr_scan"}, "is_reserved": 0, "is_disabled": 0, "type": "electric_scooter", "bike_id": "fadc9a608e05d54042953547092883d8"}, {"lon": -77.03234216666667, "lat": 38.9147825, "name": "6cd48569fd8dd86238242d13455697b6", "fusion_lat": 0.0, "fusion_lon": 0.0, "rental_uris": {"android": "https://dc.lft.to/lastmile_qr_scan", "ios": "https://dc.lft.to/lastmile_qr_scan"}, "is_reserved": 0, "is_disabled": 0, "type": "electric_scooter", "bike_id": "6cd48569fd8dd86238242d13455697b6"}, {"lon": -76.99963483333333, "lat": 38.90870366666667, "name": "7e97b0cb2e59d3030b0b2fa511c8b484", "fusion_lat": 0.0, "fusion_lon": 0.0, "rental_uris": {"android": "https://dc.lft.to/lastmile_qr_scan", "ios": "https://dc.lft.to/lastmile_qr_scan"}, "is_reserved": 0, "is_disabled": 0, "type": "electric_scooter", "bike_id": "7e97b0cb2e59d3030b0b2fa511c8b484"}, {"lon": -77.02737116666667, "lat": 38.92846316666667, "name": "3c08efea8d6b93801f81321b380a2584", "fusion_lat": 0.0, "fusion_lon": 0.0, "rental_uris": {"android": "https://dc.lft.to/lastmile_qr_scan", "ios": "https://dc.lft.to/lastmile_qr_scan"}, "is_reserved": 0, "is_disabled": 0, "type": "electric_scooter", "bike_id": "3c08efea8d6b93801f81321b380a2584"}, {"lon": -76.9855705, "lat": 38.883927, "name": "f0c982607d422887eb34765f1da5a9ee", "fusion_lat": 0.0, "fusion_lon": 0.0, "rental_uris": {"android": "https://dc.lft.to/lastmile_qr_scan", "ios": "https://dc.lft.to/lastmile_qr_scan"}, "is_reserved": 0, "is_disabled": 0, "type": "electric_scooter", "bike_id": "f0c982607d422887eb34765f1da5a9ee"}, {"lon": -77.02550566666666, "lat": 38.884315, "name": "034cc9ec9100e185cf4ab88fe3428e04", "fusion_lat": 0.0, "fusion_lon": 0.0, "rental_uris": {"android": "https://dc.lft.to/lastmile_qr_scan", "ios": "https://dc.lft.to/lastmile_qr_scan"}, "is_reserved": 0, "is_disabled": 0, "type": "electric_scooter", "bike_id": "034cc9ec9100e185cf4ab88fe3428e04"}, {"lon": -76.9982145, "lat": 38.888746, "name": "a5662a6bc70fdc53917a2fa9c5cd7925", "fusion_lat": 0.0, "fusion_lon": 0.0, "rental_uris": {"android": "https://dc.lft.to/lastmile_qr_scan", "ios": "https://dc.lft.to/lastmile_qr_scan"}, "is_reserved": 0, "is_disabled": 0, "type": "electric_scooter", "bike_id": "a5662a6bc70fdc53917a2fa9c5cd7925"}, {"lon": -77.03184383333334, "lat": 38.918212833333335, "name": "bd090cad95491a8afad2d954b731f3d9", "fusion_lat": 0.0, "fusion_lon": 0.0, "rental_uris": {"android": "https://dc.lft.to/lastmile_qr_scan", "ios": "https://dc.lft.to/lastmile_qr_scan"}, "is_reserved": 0, "is_disabled": 0, "type": "electric_scooter", "bike_id": "bd090cad95491a8afad2d954b731f3d9"}, {"lon": -76.92715783333334, "lat": 38.88767716666667, "name": "cd330c48285371cb3e5fcec3107764de", "fusion_lat": 0.0, "fusion_lon": 0.0, "rental_uris": {"android": "https://dc.lft.to/lastmile_qr_scan", "ios": "https://dc.lft.to/lastmile_qr_scan"}, "is_reserved": 0, "is_disabled": 0, "type": "electric_scooter", "bike_id": "cd330c48285371cb3e5fcec3107764de"}, {"lon": -77.017482, "lat": 38.8872995, "name": "8c5942d860c088d1c4163c065c2991ae", "fusion_lat": 0.0, "fusion_lon": 0.0, "rental_uris": {"android": "https://dc.lft.to/lastmile_qr_scan", "ios": "https://dc.lft.to/lastmile_qr_scan"}, "is_reserved": 0, "is_disabled": 0, "type": "electric_scooter", "bike_id": "8c5942d860c088d1c4163c065c2991ae"}, {"lon": -76.997587, "lat": 38.90023033333333, "name": "9c5b974fb009bfc51bee61500585da51", "fusion_lat": 0.0, "fusion_lon": 0.0, "rental_uris": {"android": "https://dc.lft.to/lastmile_qr_scan", "ios": "https://dc.lft.to/lastmile_qr_scan"}, "is_reserved": 0, "is_disabled": 0, "type": "electric_scooter", "bike_id": "9c5b974fb009bfc51bee61500585da51"}, {"lon": -77.16239033333333, "lat": 38.88658016666667, "name": "e1792c5760689454091f1af5fd7212d6", "fusion_lat": 0.0, "fusion_lon": 0.0, "rental_uris": {"android": "https://dc.lft.to/lastmile_qr_scan", "ios": "https://dc.lft.to/lastmile_qr_scan"}, "is_reserved": 0, "is_disabled": 0, "type": "electric_bike", "bike_id": "e1792c5760689454091f1af5fd7212d6"}, {"lon": -76.989084, "lat": 38.866958, "name": "5e33ba428c1ea9dcc1d006be4a54192b", "fusion_lat": 0.0, "fusion_lon": 0.0, "rental_uris": {"android": "https://dc.lft.to/lastmile_qr_scan", "ios": "https://dc.lft.to/lastmile_qr_scan"}, "is_reserved": 0, "is_disabled": 0, "type": "electric_scooter", "bike_id": "5e33ba428c1ea9dcc1d006be4a54192b"}, {"lon": -77.05598666666667, "lat": 38.93699433333333, "name": "ecc03e5824604c628a18251ce4b4405f", "fusion_lat": 0.0, "fusion_lon": 0.0, "rental_uris": {"android": "https://dc.lft.to/lastmile_qr_scan", "ios": "https://dc.lft.to/lastmile_qr_scan"}, "is_reserved": 0, "is_disabled": 0, "type": "electric_scooter", "bike_id": "ecc03e5824604c628a18251ce4b4405f"}, {"lon": -77.046362, "lat": 38.91916033333333, "name": "3209fa65baf6d81dbac7eaa9daa21f96", "fusion_lat": 0.0, "fusion_lon": 0.0, "rental_uris": {"android": "https://dc.lft.to/lastmile_qr_scan", "ios": "https://dc.lft.to/lastmile_qr_scan"}, "is_reserved": 0, "is_disabled": 0, "type": "electric_scooter", "bike_id": "3209fa65baf6d81dbac7eaa9daa21f96"}, {"lon": -76.99411033333334, "lat": 38.91007833333333, "name": "73791ba84aae4233d0c3755b9b0329c1", "fusion_lat": 0.0, "fusion_lon": 0.0, "rental_uris": {"android": "https://dc.lft.to/lastmile_qr_scan", "ios": "https://dc.lft.to/lastmile_qr_scan"}, "is_reserved": 0, "is_disabled": 0, "type": "electric_scooter", "bike_id": "73791ba84aae4233d0c3755b9b0329c1"}, {"lon": -76.99633383333334, "lat": 38.84617866666667, "name": "a665f15d7bd22812f95345bbe0d00714", "fusion_lat": 0.0, "fusion_lon": 0.0, "rental_uris": {"android": "https://dc.lft.to/lastmile_qr_scan", "ios": "https://dc.lft.to/lastmile_qr_scan"}, "is_reserved": 0, "is_disabled": 0, "type": "electric_scooter", "bike_id": "a665f15d7bd22812f95345bbe0d00714"}, {"lon": -77.02696183333333, "lat": 38.9094365, "name": "7d386fd95b0de19479a304fa51249d01", "fusion_lat": 0.0, "fusion_lon": 0.0, "rental_uris": {"android": "https://dc.lft.to/lastmile_qr_scan", "ios": "https://dc.lft.to/lastmile_qr_scan"}, "is_reserved": 0, "is_disabled": 0, "type": "electric_scooter", "bike_id": "7d386fd95b0de19479a304fa51249d01"}, {"lon": -77.06634483333333, "lat": 38.928019666666664, "name": "90fd265a7adfd3439198d2368d665400", "fusion_lat": 0.0, "fusion_lon": 0.0, "rental_uris": {"android": "https://dc.lft.to/lastmile_qr_scan", "ios": "https://dc.lft.to/lastmile_qr_scan"}, "is_reserved": 0, "is_disabled": 0, "type": "electric_scooter", "bike_id": "90fd265a7adfd3439198d2368d665400"}, {"lon": -77.012311, "lat": 38.930446833333335, "name": "1be47507a09e6bec5ab03a88f6af7bc9", "fusion_lat": 0.0, "fusion_lon": 0.0, "rental_uris": {"android": "https://dc.lft.to/lastmile_qr_scan", "ios": "https://dc.lft.to/lastmile_qr_scan"}, "is_reserved": 0, "is_disabled": 0, "type": "electric_scooter", "bike_id": "1be47507a09e6bec5ab03a88f6af7bc9"}, {"lon": -77.04245233333333, "lat": 38.922748, "name": "5539728c62f9ce44d39dbef43809e7ca", "fusion_lat": 0.0, "fusion_lon": 0.0, "rental_uris": {"android": "https://dc.lft.to/lastmile_qr_scan", "ios": "https://dc.lft.to/lastmile_qr_scan"}, "is_reserved": 0, "is_disabled": 0, "type": "electric_scooter", "bike_id": "5539728c62f9ce44d39dbef43809e7ca"}, {"lon": -77.00712633333333, "lat": 38.88489633333333, "name": "eef0e29a634dc2b088953bdf6011d73e", "fusion_lat": 0.0, "fusion_lon": 0.0, "rental_uris": {"android": "https://dc.lft.to/lastmile_qr_scan", "ios": "https://dc.lft.to/lastmile_qr_scan"}, "is_reserved": 0, "is_disabled": 0, "type": "electric_scooter", "bike_id": "eef0e29a634dc2b088953bdf6011d73e"}, {"lon": -76.98838683333334, "lat": 38.90178183333333, "name": "2d8fa6e46b9575d879760623f1cb4469", "fusion_lat": 0.0, "fusion_lon": 0.0, "rental_uris": {"android": "https://dc.lft.to/lastmile_qr_scan", "ios": "https://dc.lft.to/lastmile_qr_scan"}, "is_reserved": 0, "is_disabled": 0, "type": "electric_scooter", "bike_id": "2d8fa6e46b9575d879760623f1cb4469"}, {"lon": -77.02758616666667, "lat": 38.956171166666664, "name": "fdba1991fef5eb80f5d9324d33b4ba4d", "fusion_lat": 0.0, "fusion_lon": 0.0, "rental_uris": {"android": "https://dc.lft.to/lastmile_qr_scan", "ios": "https://dc.lft.to/lastmile_qr_scan"}, "is_reserved": 0, "is_disabled": 0, "type": "electric_scooter", "bike_id": "fdba1991fef5eb80f5d9324d33b4ba4d"}, {"lon": -77.04740333333334, "lat": 38.9111935, "name": "7db87662dca73fee556ef50d70e7262e", "fusion_lat": 0.0, "fusion_lon": 0.0, "rental_uris": {"android": "https://dc.lft.to/lastmile_qr_scan", "ios": "https://dc.lft.to/lastmile_qr_scan"}, "is_reserved": 0, "is_disabled": 0, "type": "electric_scooter", "bike_id": "7db87662dca73fee556ef50d70e7262e"}, {"lon": -77.0296545, "lat": 38.954227333333336, "name": "a6a01c7f405a044435fdc50b0b9c1c12", "fusion_lat": 0.0, "fusion_lon": 0.0, "rental_uris": {"android": "https://dc.lft.to/lastmile_qr_scan", "ios": "https://dc.lft.to/lastmile_qr_scan"}, "is_reserved": 0, "is_disabled": 0, "type": "electric_scooter", "bike_id": "a6a01c7f405a044435fdc50b0b9c1c12"}, {"lon": -77.02275533333334, "lat": 38.916741333333334, "name": "fac3e59c5a6334d0a8eaae18d4716257", "fusion_lat": 0.0, "fusion_lon": 0.0, "rental_uris": {"android": "https://dc.lft.to/lastmile_qr_scan", "ios": "https://dc.lft.to/lastmile_qr_scan"}, "is_reserved": 0, "is_disabled": 0, "type": "electric_scooter", "bike_id": "fac3e59c5a6334d0a8eaae18d4716257"}, {"lon": -77.06952066666666, "lat": 38.9904195, "name": "4da7856281e5cee36356656bb62c25c2", "fusion_lat": 0.0, "fusion_lon": 0.0, "rental_uris": {"android": "https://dc.lft.to/lastmile_qr_scan", "ios": "https://dc.lft.to/lastmile_qr_scan"}, "is_reserved": 0, "is_disabled": 0, "type": "electric_bike", "bike_id": "4da7856281e5cee36356656bb62c25c2"}, {"lon": -76.99046216666666, "lat": 38.902947166666664, "name": "7933564b4dfc73086070ba99c129e146", "fusion_lat": 0.0, "fusion_lon": 0.0, "rental_uris": {"android": "https://dc.lft.to/lastmile_qr_scan", "ios": "https://dc.lft.to/lastmile_qr_scan"}, "is_reserved": 0, "is_disabled": 0, "type": "electric_bike", "bike_id": "7933564b4dfc73086070ba99c129e146"}, {"lon": -77.049021, "lat": 38.88840283333333, "name": "900363f3ba440e5ac2b2174bb40d470f", "fusion_lat": 0.0, "fusion_lon": 0.0, "rental_uris": {"android": "https://dc.lft.to/lastmile_qr_scan", "ios": "https://dc.lft.to/lastmile_qr_scan"}, "is_reserved": 0, "is_disabled": 0, "type": "electric_scooter", "bike_id": "900363f3ba440e5ac2b2174bb40d470f"}, {"lon": -77.03351333333333, "lat": 38.928619833333336, "name": "68da19165a5b1b177f287304189ce47c", "fusion_lat": 0.0, "fusion_lon": 0.0, "rental_uris": {"android": "https://dc.lft.to/lastmile_qr_scan", "ios": "https://dc.lft.to/lastmile_qr_scan"}, "is_reserved": 0, "is_disabled": 0, "type": "electric_scooter", "bike_id": "68da19165a5b1b177f287304189ce47c"}, {"lon": -77.03898683333334, "lat": 38.9170575, "name": "5948bb8d2d82b263c98c78b2abd97b16", "fusion_lat": 0.0, "fusion_lon": 0.0, "rental_uris": {"android": "https://dc.lft.to/lastmile_qr_scan", "ios": "https://dc.lft.to/lastmile_qr_scan"}, "is_reserved": 0, "is_disabled": 0, "type": "electric_scooter", "bike_id": "5948bb8d2d82b263c98c78b2abd97b16"}, {"lon": -77.03434366666667, "lat": 38.939743, "name": "99c45621fb0234857f23d39faa59fde5", "fusion_lat": 0.0, "fusion_lon": 0.0, "rental_uris": {"android": "https://dc.lft.to/lastmile_qr_scan", "ios": "https://dc.lft.to/lastmile_qr_scan"}, "is_reserved": 0, "is_disabled": 0, "type": "electric_scooter", "bike_id": "99c45621fb0234857f23d39faa59fde5"}, {"lon": -77.0468115, "lat": 38.900785166666665, "name": "f34c750505a5a3e8226748b5d52ddec7", "fusion_lat": 0.0, "fusion_lon": 0.0, "rental_uris": {"android": "https://dc.lft.to/lastmile_qr_scan", "ios": "https://dc.lft.to/lastmile_qr_scan"}, "is_reserved": 0, "is_disabled": 0, "type": "electric_scooter", "bike_id": "f34c750505a5a3e8226748b5d52ddec7"}, {"lon": -77.04096466666667, "lat": 38.9125675, "name": "ff852701ccce6676c47f3dc45cc34320", "fusion_lat": 0.0, "fusion_lon": 0.0, "rental_uris": {"android": "https://dc.lft.to/lastmile_qr_scan", "ios": "https://dc.lft.to/lastmile_qr_scan"}, "is_reserved": 0, "is_disabled": 0, "type": "electric_scooter", "bike_id": "ff852701ccce6676c47f3dc45cc34320"}, {"lon": -77.10032383333333, "lat": 38.990645, "name": "784627dc75345c29595f61a4706fa098", "fusion_lat": 0.0, "fusion_lon": 0.0, "rental_uris": {"android": "https://dc.lft.to/lastmile_qr_scan", "ios": "https://dc.lft.to/lastmile_qr_scan"}, "is_reserved": 0, "is_disabled": 0, "type": "electric_bike", "bike_id": "784627dc75345c29595f61a4706fa098"}, {"lon": -77.02133433333333, "lat": 38.903123666666666, "name": "e275393dd96ac8bacf79ee2e2523a922", "fusion_lat": 0.0, "fusion_lon": 0.0, "rental_uris": {"android": "https://dc.lft.to/lastmile_qr_scan", "ios": "https://dc.lft.to/lastmile_qr_scan"}, "is_reserved": 0, "is_disabled": 0, "type": "electric_scooter", "bike_id": "e275393dd96ac8bacf79ee2e2523a922"}, {"lon": -76.9465575, "lat": 38.898256833333335, "name": "31615c7f1eb76c4df6d94c5d1a013e98", "fusion_lat": 0.0, "fusion_lon": 0.0, "rental_uris": {"android": "https://dc.lft.to/lastmile_qr_scan", "ios": "https://dc.lft.to/lastmile_qr_scan"}, "is_reserved": 0, "is_disabled": 0, "type": "electric_scooter", "bike_id": "31615c7f1eb76c4df6d94c5d1a013e98"}, {"lon": -76.98575783333334, "lat": 38.89893033333333, "name": "711fc08c4b2a0c8e0fdf9e640793004f", "fusion_lat": 0.0, "fusion_lon": 0.0, "rental_uris": {"android": "https://dc.lft.to/lastmile_qr_scan", "ios": "https://dc.lft.to/lastmile_qr_scan"}, "is_reserved": 0, "is_disabled": 0, "type": "electric_scooter", "bike_id": "711fc08c4b2a0c8e0fdf9e640793004f"}, {"lon": -77.04685016666667, "lat": 38.89223616666666, "name": "52579a329696fea4c55da6800f407637", "fusion_lat": 0.0, "fusion_lon": 0.0, "rental_uris": {"android": "https://dc.lft.to/lastmile_qr_scan", "ios": "https://dc.lft.to/lastmile_qr_scan"}, "is_reserved": 0, "is_disabled": 0, "type": "electric_scooter", "bike_id": "52579a329696fea4c55da6800f407637"}, {"lon": -77.01814866666666, "lat": 38.91193083333334, "name": "9e8c85c13980736963c9e399931e39ac", "fusion_lat": 0.0, "fusion_lon": 0.0, "rental_uris": {"android": "https://dc.lft.to/lastmile_qr_scan", "ios": "https://dc.lft.to/lastmile_qr_scan"}, "is_reserved": 0, "is_disabled": 0, "type": "electric_scooter", "bike_id": "9e8c85c13980736963c9e399931e39ac"}, {"lon": -77.00469933333333, "lat": 38.877608, "name": "32adbbe78521ece49fdce6bc4e2d1d9a", "fusion_lat": 0.0, "fusion_lon": 0.0, "rental_uris": {"android": "https://dc.lft.to/lastmile_qr_scan", "ios": "https://dc.lft.to/lastmile_qr_scan"}, "is_reserved": 0, "is_disabled": 0, "type": "electric_scooter", "bike_id": "32adbbe78521ece49fdce6bc4e2d1d9a"}, {"lon": -77.04904516666667, "lat": 38.87490183333333, "name": "218819acdc2d0ada39d11a2d66827093", "fusion_lat": 0.0, "fusion_lon": 0.0, "rental_uris": {"android": "https://dc.lft.to/lastmile_qr_scan", "ios": "https://dc.lft.to/lastmile_qr_scan"}, "is_reserved": 0, "is_disabled": 0, "type": "electric_bike", "bike_id": "218819acdc2d0ada39d11a2d66827093"}, {"lon": -77.03801416666667, "lat": 38.912151333333334, "name": "3c891ef437977d9f31f9cab019074633", "fusion_lat": 0.0, "fusion_lon": 0.0, "rental_uris": {"android": "https://dc.lft.to/lastmile_qr_scan", "ios": "https://dc.lft.to/lastmile_qr_scan"}, "is_reserved": 0, "is_disabled": 0, "type": "electric_scooter", "bike_id": "3c891ef437977d9f31f9cab019074633"}, {"lon": -77.05125583333333, "lat": 38.9054775, "name": "a0bd37a97caecbf29c2731f3ae4162d0", "fusion_lat": 0.0, "fusion_lon": 0.0, "rental_uris": {"android": "https://dc.lft.to/lastmile_qr_scan", "ios": "https://dc.lft.to/lastmile_qr_scan"}, "is_reserved": 0, "is_disabled": 0, "type": "electric_scooter", "bike_id": "a0bd37a97caecbf29c2731f3ae4162d0"}, {"lon": -77.0384585, "lat": 38.910216, "name": "36cae69ee2235065b01d1f17bba7a85e", "fusion_lat": 0.0, "fusion_lon": 0.0, "rental_uris": {"android": "https://dc.lft.to/lastmile_qr_scan", "ios": "https://dc.lft.to/lastmile_qr_scan"}, "is_reserved": 0, "is_disabled": 0, "type": "electric_scooter", "bike_id": "36cae69ee2235065b01d1f17bba7a85e"}, {"lon": -77.02719133333333, "lat": 38.91812733333333, "name": "4a48f5334e1c7577e8f01fdb30b780c5", "fusion_lat": 0.0, "fusion_lon": 0.0, "rental_uris": {"android": "https://dc.lft.to/lastmile_qr_scan", "ios": "https://dc.lft.to/lastmile_qr_scan"}, "is_reserved": 0, "is_disabled": 0, "type": "electric_scooter", "bike_id": "4a48f5334e1c7577e8f01fdb30b780c5"}, {"lon": -77.0437635, "lat": 38.925732333333336, "name": "67d45e57042cd5ccec6b6422363f9cb5", "fusion_lat": 0.0, "fusion_lon": 0.0, "rental_uris": {"android": "https://dc.lft.to/lastmile_qr_scan", "ios": "https://dc.lft.to/lastmile_qr_scan"}, "is_reserved": 0, "is_disabled": 0, "type": "electric_scooter", "bike_id": "67d45e57042cd5ccec6b6422363f9cb5"}, {"lon": -77.01936716666667, "lat": 38.949295166666666, "name": "972a15db63ffa334cf9273aed7678d93", "fusion_lat": 0.0, "fusion_lon": 0.0, "rental_uris": {"android": "https://dc.lft.to/lastmile_qr_scan", "ios": "https://dc.lft.to/lastmile_qr_scan"}, "is_reserved": 0, "is_disabled": 0, "type": "electric_scooter", "bike_id": "972a15db63ffa334cf9273aed7678d93"}, {"lon": -77.02236016666667, "lat": 38.911196, "name": "40663661a8c7b0b2645b37c851174d18", "fusion_lat": 0.0, "fusion_lon": 0.0, "rental_uris": {"android": "https://dc.lft.to/lastmile_qr_scan", "ios": "https://dc.lft.to/lastmile_qr_scan"}, "is_reserved": 0, "is_disabled": 0, "type": "electric_scooter", "bike_id": "40663661a8c7b0b2645b37c851174d18"}, {"lon": -77.0381125, "lat": 38.9205965, "name": "245f0f811e8b02f7f8ed04999c2683a7", "fusion_lat": 0.0, "fusion_lon": 0.0, "rental_uris": {"android": "https://dc.lft.to/lastmile_qr_scan", "ios": "https://dc.lft.to/lastmile_qr_scan"}, "is_reserved": 0, "is_disabled": 0, "type": "electric_scooter", "bike_id": "245f0f811e8b02f7f8ed04999c2683a7"}, {"lon": -77.02702433333333, "lat": 38.906690166666664, "name": "5285b0a4f824a4fa7925328df57f7576", "fusion_lat": 0.0, "fusion_lon": 0.0, "rental_uris": {"android": "https://dc.lft.to/lastmile_qr_scan", "ios": "https://dc.lft.to/lastmile_qr_scan"}, "is_reserved": 0, "is_disabled": 0, "type": "electric_scooter", "bike_id": "5285b0a4f824a4fa7925328df57f7576"}, {"lon": -77.03329766666667, "lat": 38.89845016666666, "name": "4cb12f6337c5a6a851f0aea6c798d0bd", "fusion_lat": 0.0, "fusion_lon": 0.0, "rental_uris": {"android": "https://dc.lft.to/lastmile_qr_scan", "ios": "https://dc.lft.to/lastmile_qr_scan"}, "is_reserved": 0, "is_disabled": 0, "type": "electric_scooter", "bike_id": "4cb12f6337c5a6a851f0aea6c798d0bd"}, {"lon": -77.005122, "lat": 38.9119735, "name": "b787aa4711f94a5466ddcd750757650b", "fusion_lat": 0.0, "fusion_lon": 0.0, "rental_uris": {"android": "https://dc.lft.to/lastmile_qr_scan", "ios": "https://dc.lft.to/lastmile_qr_scan"}, "is_reserved": 0, "is_disabled": 0, "type": "electric_scooter", "bike_id": "b787aa4711f94a5466ddcd750757650b"}, {"lon": -77.0448465, "lat": 38.91064, "name": "7e99829cc09a6c4856a06a8bf9cd7828", "fusion_lat": 0.0, "fusion_lon": 0.0, "rental_uris": {"android": "https://dc.lft.to/lastmile_qr_scan", "ios": "https://dc.lft.to/lastmile_qr_scan"}, "is_reserved": 0, "is_disabled": 0, "type": "electric_scooter", "bike_id": "7e99829cc09a6c4856a06a8bf9cd7828"}, {"lon": -77.03859366666667, "lat": 38.91210433333333, "name": "db5db8fb742da03eeb8435d0ac7da03e", "fusion_lat": 0.0, "fusion_lon": 0.0, "rental_uris": {"android": "https://dc.lft.to/lastmile_qr_scan", "ios": "https://dc.lft.to/lastmile_qr_scan"}, "is_reserved": 0, "is_disabled": 0, "type": "electric_scooter", "bike_id": "db5db8fb742da03eeb8435d0ac7da03e"}, {"lon": -77.0243785, "lat": 38.927010333333335, "name": "af60ed2c4374d9b290d984d0a95b1fd9", "fusion_lat": 0.0, "fusion_lon": 0.0, "rental_uris": {"android": "https://dc.lft.to/lastmile_qr_scan", "ios": "https://dc.lft.to/lastmile_qr_scan"}, "is_reserved": 0, "is_disabled": 0, "type": "electric_scooter", "bike_id": "af60ed2c4374d9b290d984d0a95b1fd9"}, {"lon": -76.99061616666667, "lat": 38.9265915, "name": "cfd545f71e3eb1b830241b2d7ca503fb", "fusion_lat": 0.0, "fusion_lon": 0.0, "rental_uris": {"android": "https://dc.lft.to/lastmile_qr_scan", "ios": "https://dc.lft.to/lastmile_qr_scan"}, "is_reserved": 0, "is_disabled": 0, "type": "electric_scooter", "bike_id": "cfd545f71e3eb1b830241b2d7ca503fb"}, {"lon": -77.057597, "lat": 38.904973166666664, "name": "1704de5459bf19822475686167aa520b", "fusion_lat": 0.0, "fusion_lon": 0.0, "rental_uris": {"android": "https://dc.lft.to/lastmile_qr_scan", "ios": "https://dc.lft.to/lastmile_qr_scan"}, "is_reserved": 0, "is_disabled": 0, "type": "electric_scooter", "bike_id": "1704de5459bf19822475686167aa520b"}, {"lon": -77.02339133333334, "lat": 38.936005, "name": "7b3d955e27bc757fc331385fbf706618", "fusion_lat": 0.0, "fusion_lon": 0.0, "rental_uris": {"android": "https://dc.lft.to/lastmile_qr_scan", "ios": "https://dc.lft.to/lastmile_qr_scan"}, "is_reserved": 0, "is_disabled": 0, "type": "electric_scooter", "bike_id": "7b3d955e27bc757fc331385fbf706618"}, {"lon": -76.98685483333334, "lat": 38.8821215, "name": "215fbe96a047c62a3c9c954a6c56eca6", "fusion_lat": 0.0, "fusion_lon": 0.0, "rental_uris": {"android": "https://dc.lft.to/lastmile_qr_scan", "ios": "https://dc.lft.to/lastmile_qr_scan"}, "is_reserved": 0, "is_disabled": 0, "type": "electric_scooter", "bike_id": "215fbe96a047c62a3c9c954a6c56eca6"}, {"lon": -76.979594, "lat": 38.903798333333334, "name": "8aaf12cac1128ade220baca531056183", "fusion_lat": 0.0, "fusion_lon": 0.0, "rental_uris": {"android": "https://dc.lft.to/lastmile_qr_scan", "ios": "https://dc.lft.to/lastmile_qr_scan"}, "is_reserved": 0, "is_disabled": 0, "type": "electric_scooter", "bike_id": "8aaf12cac1128ade220baca531056183"}, {"lon": -77.02430416666667, "lat": 38.9155285, "name": "7d951ee02942f990baa14ea55d18198e", "fusion_lat": 0.0, "fusion_lon": 0.0, "rental_uris": {"android": "https://dc.lft.to/lastmile_qr_scan", "ios": "https://dc.lft.to/lastmile_qr_scan"}, "is_reserved": 0, "is_disabled": 0, "type": "electric_scooter", "bike_id": "7d951ee02942f990baa14ea55d18198e"}, {"lon": -77.046937, "lat": 38.92098133333333, "name": "2e6c873000293fbcd2daede894914258", "fusion_lat": 0.0, "fusion_lon": 0.0, "rental_uris": {"android": "https://dc.lft.to/lastmile_qr_scan", "ios": "https://dc.lft.to/lastmile_qr_scan"}, "is_reserved": 0, "is_disabled": 0, "type": "electric_scooter", "bike_id": "2e6c873000293fbcd2daede894914258"}, {"lon": -77.032825, "lat": 38.939873666666664, "name": "941cf61095f04dd5a3e3a726d9ba7823", "fusion_lat": 0.0, "fusion_lon": 0.0, "rental_uris": {"android": "https://dc.lft.to/lastmile_qr_scan", "ios": "https://dc.lft.to/lastmile_qr_scan"}, "is_reserved": 0, "is_disabled": 0, "type": "electric_scooter", "bike_id": "941cf61095f04dd5a3e3a726d9ba7823"}, {"lon": -77.03466716666667, "lat": 38.91810916666667, "name": "52c831a858d666d8885f78cf8ff0f9bf", "fusion_lat": 0.0, "fusion_lon": 0.0, "rental_uris": {"android": "https://dc.lft.to/lastmile_qr_scan", "ios": "https://dc.lft.to/lastmile_qr_scan"}, "is_reserved": 0, "is_disabled": 0, "type": "electric_scooter", "bike_id": "52c831a858d666d8885f78cf8ff0f9bf"}, {"lon": -77.00054483333334, "lat": 38.87377, "name": "0b0f2bbbcc4011c97fbba774a8db5a18", "fusion_lat": 0.0, "fusion_lon": 0.0, "rental_uris": {"android": "https://dc.lft.to/lastmile_qr_scan", "ios": "https://dc.lft.to/lastmile_qr_scan"}, "is_reserved": 0, "is_disabled": 0, "type": "electric_scooter", "bike_id": "0b0f2bbbcc4011c97fbba774a8db5a18"}, {"lon": -77.02216016666667, "lat": 38.9208745, "name": "febe8c896c65f6193bf9d2bb327198ed", "fusion_lat": 0.0, "fusion_lon": 0.0, "rental_uris": {"android": "https://dc.lft.to/lastmile_qr_scan", "ios": "https://dc.lft.to/lastmile_qr_scan"}, "is_reserved": 0, "is_disabled": 0, "type": "electric_scooter", "bike_id": "febe8c896c65f6193bf9d2bb327198ed"}, {"lon": -77.02406483333333, "lat": 38.920870666666666, "name": "e1fb35bccff7e450e6da046fba6793f9", "fusion_lat": 0.0, "fusion_lon": 0.0, "rental_uris": {"android": "https://dc.lft.to/lastmile_qr_scan", "ios": "https://dc.lft.to/lastmile_qr_scan"}, "is_reserved": 0, "is_disabled": 0, "type": "electric_scooter", "bike_id": "e1fb35bccff7e450e6da046fba6793f9"}, {"lon": -77.00215866666667, "lat": 38.900543166666665, "name": "7f810378d40de68abb9d0660c4bd17b6", "fusion_lat": 0.0, "fusion_lon": 0.0, "rental_uris": {"android": "https://dc.lft.to/lastmile_qr_scan", "ios": "https://dc.lft.to/lastmile_qr_scan"}, "is_reserved": 0, "is_disabled": 0, "type": "electric_scooter", "bike_id": "7f810378d40de68abb9d0660c4bd17b6"}, {"lon": -77.04812566666666, "lat": 38.9005385, "name": "7e7ff65affdee774f081fa7db3415a22", "fusion_lat": 0.0, "fusion_lon": 0.0, "rental_uris": {"android": "https://dc.lft.to/lastmile_qr_scan", "ios": "https://dc.lft.to/lastmile_qr_scan"}, "is_reserved": 0, "is_disabled": 0, "type": "electric_scooter", "bike_id": "7e7ff65affdee774f081fa7db3415a22"}, {"lon": -77.1412395, "lat": 38.81602, "name": "e5c5d5fddd876f2b2c6344064453ec3a", "fusion_lat": 0.0, "fusion_lon": 0.0, "rental_uris": {"android": "https://dc.lft.to/lastmile_qr_scan", "ios": "https://dc.lft.to/lastmile_qr_scan"}, "is_reserved": 0, "is_disabled": 0, "type": "electric_bike", "bike_id": "e5c5d5fddd876f2b2c6344064453ec3a"}, {"lon": -77.024727, "lat": 38.94193216666667, "name": "11050ae845552473cd2f2ba7ee4048e2", "fusion_lat": 0.0, "fusion_lon": 0.0, "rental_uris": {"android": "https://dc.lft.to/lastmile_qr_scan", "ios": "https://dc.lft.to/lastmile_qr_scan"}, "is_reserved": 0, "is_disabled": 0, "type": "electric_scooter", "bike_id": "11050ae845552473cd2f2ba7ee4048e2"}, {"lon": -77.0066035, "lat": 38.87474266666667, "name": "8ee5aa4def053fc24d218716565d0e7c", "fusion_lat": 0.0, "fusion_lon": 0.0, "rental_uris": {"android": "https://dc.lft.to/lastmile_qr_scan", "ios": "https://dc.lft.to/lastmile_qr_scan"}, "is_reserved": 0, "is_disabled": 0, "type": "electric_scooter", "bike_id": "8ee5aa4def053fc24d218716565d0e7c"}, {"lon": -77.02764283333333, "lat": 38.89202183333333, "name": "71ab0258d7a570981a4cf456c8f660c8", "fusion_lat": 0.0, "fusion_lon": 0.0, "rental_uris": {"android": "https://dc.lft.to/lastmile_qr_scan", "ios": "https://dc.lft.to/lastmile_qr_scan"}, "is_reserved": 0, "is_disabled": 0, "type": "electric_scooter", "bike_id": "71ab0258d7a570981a4cf456c8f660c8"}, {"lon": -77.033233, "lat": 38.901246, "name": "b8d8ab9b57a7bc144a7d49f67466d897", "fusion_lat": 0.0, "fusion_lon": 0.0, "rental_uris": {"android": "https://dc.lft.to/lastmile_qr_scan", "ios": "https://dc.lft.to/lastmile_qr_scan"}, "is_reserved": 0, "is_disabled": 0, "type": "electric_scooter", "bike_id": "b8d8ab9b57a7bc144a7d49f67466d897"}, {"lon": -77.04797283333333, "lat": 38.91871716666667, "name": "5e495e9eaeb2cc2d68f6014ae92b7ff3", "fusion_lat": 0.0, "fusion_lon": 0.0, "rental_uris": {"android": "https://dc.lft.to/lastmile_qr_scan", "ios": "https://dc.lft.to/lastmile_qr_scan"}, "is_reserved": 0, "is_disabled": 0, "type": "electric_scooter", "bike_id": "5e495e9eaeb2cc2d68f6014ae92b7ff3"}, {"lon": -76.991512, "lat": 38.90032816666667, "name": "3427cd8e77ea915ebf8280f15ed95cff", "fusion_lat": 0.0, "fusion_lon": 0.0, "rental_uris": {"android": "https://dc.lft.to/lastmile_qr_scan", "ios": "https://dc.lft.to/lastmile_qr_scan"}, "is_reserved": 0, "is_disabled": 0, "type": "electric_scooter", "bike_id": "3427cd8e77ea915ebf8280f15ed95cff"}, {"lon": -77.01088066666667, "lat": 38.893958, "name": "8690736973c44897e847ea7719e73122", "fusion_lat": 0.0, "fusion_lon": 0.0, "rental_uris": {"android": "https://dc.lft.to/lastmile_qr_scan", "ios": "https://dc.lft.to/lastmile_qr_scan"}, "is_reserved": 0, "is_disabled": 0, "type": "electric_scooter", "bike_id": "8690736973c44897e847ea7719e73122"}, {"lon": -77.03226033333333, "lat": 38.8922285, "name": "5113b4dccb15813f90ae732b193ac2fb", "fusion_lat": 0.0, "fusion_lon": 0.0, "rental_uris": {"android": "https://dc.lft.to/lastmile_qr_scan", "ios": "https://dc.lft.to/lastmile_qr_scan"}, "is_reserved": 0, "is_disabled": 0, "type": "electric_scooter", "bike_id": "5113b4dccb15813f90ae732b193ac2fb"}, {"lon": -77.0307505, "lat": 38.90799033333333, "name": "59ee5816ab18c44532a0d5f56444b540", "fusion_lat": 0.0, "fusion_lon": 0.0, "rental_uris": {"android": "https://dc.lft.to/lastmile_qr_scan", "ios": "https://dc.lft.to/lastmile_qr_scan"}, "is_reserved": 0, "is_disabled": 0, "type": "electric_scooter", "bike_id": "59ee5816ab18c44532a0d5f56444b540"}, {"lon": -77.0427345, "lat": 38.90272816666667, "name": "3a5f22b622e70fc554ff9b5342fea80b", "fusion_lat": 0.0, "fusion_lon": 0.0, "rental_uris": {"android": "https://dc.lft.to/lastmile_qr_scan", "ios": "https://dc.lft.to/lastmile_qr_scan"}, "is_reserved": 0, "is_disabled": 0, "type": "electric_scooter", "bike_id": "3a5f22b622e70fc554ff9b5342fea80b"}, {"lon": -77.106841, "lat": 38.93582, "name": "3b1869210afd10a12d9c61eb28488c86", "fusion_lat": 0.0, "fusion_lon": 0.0, "rental_uris": {"android": "https://dc.lft.to/lastmile_qr_scan", "ios": "https://dc.lft.to/lastmile_qr_scan"}, "is_reserved": 0, "is_disabled": 0, "type": "electric_bike", "bike_id": "3b1869210afd10a12d9c61eb28488c86"}, {"lon": -77.048985, "lat": 38.90538933333333, "name": "f8b74d2d3daaaf2ac146e28722c71072", "fusion_lat": 0.0, "fusion_lon": 0.0, "rental_uris": {"android": "https://dc.lft.to/lastmile_qr_scan", "ios": "https://dc.lft.to/lastmile_qr_scan"}, "is_reserved": 0, "is_disabled": 0, "type": "electric_scooter", "bike_id": "f8b74d2d3daaaf2ac146e28722c71072"}, {"lon": -77.044691, "lat": 38.912088, "name": "f5107f76d812e7316dde2e55ea2d1e60", "fusion_lat": 0.0, "fusion_lon": 0.0, "rental_uris": {"android": "https://dc.lft.to/lastmile_qr_scan", "ios": "https://dc.lft.to/lastmile_qr_scan"}, "is_reserved": 0, "is_disabled": 0, "type": "electric_scooter", "bike_id": "f5107f76d812e7316dde2e55ea2d1e60"}, {"lon": -77.02707783333334, "lat": 38.906685833333334, "name": "fd3062f2effa8b241fc4b605b80caf21", "fusion_lat": 0.0, "fusion_lon": 0.0, "rental_uris": {"android": "https://dc.lft.to/lastmile_qr_scan", "ios": "https://dc.lft.to/lastmile_qr_scan"}, "is_reserved": 0, "is_disabled": 0, "type": "electric_scooter", "bike_id": "fd3062f2effa8b241fc4b605b80caf21"}, {"lon": -77.02410983333333, "lat": 38.904131, "name": "8caf493130c604767d2046f78aa69843", "fusion_lat": 0.0, "fusion_lon": 0.0, "rental_uris": {"android": "https://dc.lft.to/lastmile_qr_scan", "ios": "https://dc.lft.to/lastmile_qr_scan"}, "is_reserved": 0, "is_disabled": 0, "type": "electric_scooter", "bike_id": "8caf493130c604767d2046f78aa69843"}, {"lon": -77.04660816666667, "lat": 38.89336816666667, "name": "c17cd30e0dc35e5ff9c73c45f01dbd14", "fusion_lat": 0.0, "fusion_lon": 0.0, "rental_uris": {"android": "https://dc.lft.to/lastmile_qr_scan", "ios": "https://dc.lft.to/lastmile_qr_scan"}, "is_reserved": 0, "is_disabled": 0, "type": "electric_scooter", "bike_id": "c17cd30e0dc35e5ff9c73c45f01dbd14"}, {"lon": -77.031828, "lat": 38.89383316666667, "name": "c73264cdaf2a2dd8852025bdfcf61955", "fusion_lat": 0.0, "fusion_lon": 0.0, "rental_uris": {"android": "https://dc.lft.to/lastmile_qr_scan", "ios": "https://dc.lft.to/lastmile_qr_scan"}, "is_reserved": 0, "is_disabled": 0, "type": "electric_scooter", "bike_id": "c73264cdaf2a2dd8852025bdfcf61955"}, {"lon": -76.98560016666667, "lat": 38.868882666666664, "name": "8f040d6d19d45766755422ecde12b0da", "fusion_lat": 0.0, "fusion_lon": 0.0, "rental_uris": {"android": "https://dc.lft.to/lastmile_qr_scan", "ios": "https://dc.lft.to/lastmile_qr_scan"}, "is_reserved": 0, "is_disabled": 0, "type": "electric_bike", "bike_id": "8f040d6d19d45766755422ecde12b0da"}, {"lon": -77.0328775, "lat": 38.92867616666667, "name": "39ddeadb3cd937c3a5cc09a6e2c59a8e", "fusion_lat": 0.0, "fusion_lon": 0.0, "rental_uris": {"android": "https://dc.lft.to/lastmile_qr_scan", "ios": "https://dc.lft.to/lastmile_qr_scan"}, "is_reserved": 0, "is_disabled": 0, "type": "electric_scooter", "bike_id": "39ddeadb3cd937c3a5cc09a6e2c59a8e"}, {"lon": -77.01839466666667, "lat": 38.91341283333333, "name": "28115adb3840c98537adbd3600b14245", "fusion_lat": 0.0, "fusion_lon": 0.0, "rental_uris": {"android": "https://dc.lft.to/lastmile_qr_scan", "ios": "https://dc.lft.to/lastmile_qr_scan"}, "is_reserved": 0, "is_disabled": 0, "type": "electric_scooter", "bike_id": "28115adb3840c98537adbd3600b14245"}, {"lon": -77.02691233333333, "lat": 38.90936283333333, "name": "5e289a988980c4dd9f1c528b92f9b392", "fusion_lat": 0.0, "fusion_lon": 0.0, "rental_uris": {"android": "https://dc.lft.to/lastmile_qr_scan", "ios": "https://dc.lft.to/lastmile_qr_scan"}, "is_reserved": 0, "is_disabled": 0, "type": "electric_scooter", "bike_id": "5e289a988980c4dd9f1c528b92f9b392"}, {"lon": -77.02199116666667, "lat": 38.91689433333333, "name": "28ffbf4b8327857a46aa07ad7b516d7e", "fusion_lat": 0.0, "fusion_lon": 0.0, "rental_uris": {"android": "https://dc.lft.to/lastmile_qr_scan", "ios": "https://dc.lft.to/lastmile_qr_scan"}, "is_reserved": 0, "is_disabled": 0, "type": "electric_scooter", "bike_id": "28ffbf4b8327857a46aa07ad7b516d7e"}, {"lon": -77.04229416666666, "lat": 38.91110116666667, "name": "fdddec0dc23d3c1eabff90c083f3572e", "fusion_lat": 0.0, "fusion_lon": 0.0, "rental_uris": {"android": "https://dc.lft.to/lastmile_qr_scan", "ios": "https://dc.lft.to/lastmile_qr_scan"}, "is_reserved": 0, "is_disabled": 0, "type": "electric_scooter", "bike_id": "fdddec0dc23d3c1eabff90c083f3572e"}, {"lon": -77.05157966666667, "lat": 38.9058165, "name": "d12ec41a8f3a4af4d50f9e5751e1557d", "fusion_lat": 0.0, "fusion_lon": 0.0, "rental_uris": {"android": "https://dc.lft.to/lastmile_qr_scan", "ios": "https://dc.lft.to/lastmile_qr_scan"}, "is_reserved": 0, "is_disabled": 0, "type": "electric_scooter", "bike_id": "d12ec41a8f3a4af4d50f9e5751e1557d"}, {"lon": -76.98123083333333, "lat": 38.8919365, "name": "68f70320b6d922a77b18a04152f43457", "fusion_lat": 0.0, "fusion_lon": 0.0, "rental_uris": {"android": "https://dc.lft.to/lastmile_qr_scan", "ios": "https://dc.lft.to/lastmile_qr_scan"}, "is_reserved": 0, "is_disabled": 0, "type": "electric_scooter", "bike_id": "68f70320b6d922a77b18a04152f43457"}, {"lon": -77.04641433333333, "lat": 38.892306833333336, "name": "710193d2fb6a42cda33b29f4b5cca3ae", "fusion_lat": 0.0, "fusion_lon": 0.0, "rental_uris": {"android": "https://dc.lft.to/lastmile_qr_scan", "ios": "https://dc.lft.to/lastmile_qr_scan"}, "is_reserved": 0, "is_disabled": 0, "type": "electric_scooter", "bike_id": "710193d2fb6a42cda33b29f4b5cca3ae"}, {"lon": -77.03236416666667, "lat": 38.920606166666666, "name": "a1a7e15efd445496afdbf12056c21e3c", "fusion_lat": 0.0, "fusion_lon": 0.0, "rental_uris": {"android": "https://dc.lft.to/lastmile_qr_scan", "ios": "https://dc.lft.to/lastmile_qr_scan"}, "is_reserved": 0, "is_disabled": 0, "type": "electric_scooter", "bike_id": "a1a7e15efd445496afdbf12056c21e3c"}, {"lon": -76.99781733333333, "lat": 38.88550733333334, "name": "5a923c09514b7f48b2490725ac355476", "fusion_lat": 0.0, "fusion_lon": 0.0, "rental_uris": {"android": "https://dc.lft.to/lastmile_qr_scan", "ios": "https://dc.lft.to/lastmile_qr_scan"}, "is_reserved": 0, "is_disabled": 0, "type": "electric_scooter", "bike_id": "5a923c09514b7f48b2490725ac355476"}, {"lon": -76.95519016666667, "lat": 38.89055116666667, "name": "9ee5443e702308594727ca3e16234a4b", "fusion_lat": 0.0, "fusion_lon": 0.0, "rental_uris": {"android": "https://dc.lft.to/lastmile_qr_scan", "ios": "https://dc.lft.to/lastmile_qr_scan"}, "is_reserved": 0, "is_disabled": 0, "type": "electric_scooter", "bike_id": "9ee5443e702308594727ca3e16234a4b"},