{"data": {"bikes": [{"lat": 38.9418435, "type": "electric_scooter", "is_disabled": 0, "rental_uris": {"android": "https://dc.lft.to/lastmile_qr_scan", "ios": "https://dc.lft.to/lastmile_qr_scan"}, "is_reserved": 0, "bike_id": "b9219c82187fa0a3f83858a9de932501", "name": "b9219c82187fa0a3f83858a9de932501", "fusion_lon": 0.0, "lon": -77.033256, "fusion_lat": 0.0}, {"lat": 38.90389316666667, "type": "electric_scooter", "is_disabled": 0, "rental_uris": {"android": "https://dc.lft.to/lastmile_qr_scan", "ios": "https://dc.lft.to/lastmile_qr_scan"}, "is_reserved": 0, "bike_id": "2b2d743dc994861fee22059152cada32", "name": "2b2d743dc994861fee22059152cada32", "fusion_lon": 0.0, "lon": -77.04475233333334, "fusion_lat": 0.0}, {"lat": 38.921287, "type": "electric_scooter", "is_disabled": 0, "rental_uris": {"android": "https://dc.lft.to/lastmile_qr_scan", "ios": "https://dc.lft.to/lastmile_qr_scan"}, "is_reserved": 0, "bike_id": "3060074af04785f1cbbbc517fff1c0fe", "name": "3060074af04785f1cbbbc517fff1c0fe", "fusion_lon": 0.0, "lon": -76.9939645, "fusion_lat": 0.0}, {"lat": 38.90433216666667, "type": "electric_scooter", "is_disabled": 0, "rental_uris": {"android": "https://dc.lft.to/lastmile_qr_scan", "ios": "https://dc.lft.to/lastmile_qr_scan"}, "is_reserved": 0, "bike_id": "7f6c8b4616956d35d66b50e111f42b0d", "name": "7f6c8b4616956d35d66b50e111f42b0d", "fusion_lon": 0.0, "lon": -77.05153466666667, "fusion_lat": 0.0}, {"lat": 38.927909, "type": "electric_scooter", "is_disabled": 0, "rental_uris": {"android": "https://dc.lft.to/lastmile_qr_scan", "ios": "https://dc.lft.to/lastmile_qr_scan"}, "is_reserved": 0, "bike_id": "58923d6c3417f631436f8dab289ed6da", "name": "58923d6c3417f631436f8dab289ed6da", "fusion_lon": 0.0, "lon": -77.03113833333333, "fusion_lat": 0.0}, {"lat": 38.9083695, "type": "electric_scooter", "is_disabled": 0, "rental_uris": {"android": "https://dc.lft.to/lastmile_qr_scan", "ios": "https://dc.lft.to/lastmile_qr_scan"}, "is_reserved": 0, "bike_id": "295fac032c8b96a18619550d5e4da60a", "name": "295fac032c8b96a18619550d5e4da60a", "fusion_lon": 0.0, "lon": -77.04880916666667, "fusion_lat": 0.0}, {"lat": 38.907347666666666, "type": "electric_scooter", "is_disabled": 0, "rental_uris": {"android": "https://dc.lft.to/lastmile_qr_scan", "ios": "https://dc.lft.to/lastmile_qr_scan"}, "is_reserved": 0, "bike_id": "7374f7426487d9b5331246cb239f9912", "name": "7374f7426487d9b5331246cb239f9912", "fusion_lon": 0.0, "lon": -77.02599633333334, "fusion_lat": 0.0}, {"lat": 38.95402033333333, "type": "electric_scooter", "is_disabled": 0, "rental_uris": {"android": "https://dc.lft.to/lastmile_qr_scan", "ios": "https://dc.lft.to/lastmile_qr_scan"}, "is_reserved": 0, "bike_id": "346da2e75b42708720abcc554ed95762", "name": "346da2e75b42708720abcc554ed95762", "fusion_lon": 0.0, "lon": -77.0275225, "fusion_lat": 0.0}, {"lat": 38.95613316666667, "type": "electric_scooter", "is_disabled": 0, "rental_uris": {"android": "https://dc.lft.to/lastmile_qr_scan", "ios": "https://dc.lft.to/lastmile_qr_scan"}, "is_reserved": 0, "bike_id": "3892186d16b5c78d2977fb1295a21341", "name": "3892186d16b5c78d2977fb1295a21341", "fusion_lon": 0.0, "lon": -77.0328, "fusion_lat": 0.0}, {"lat": 38.910700166666665, "type": "electric_scooter", "is_disabled": 0, "rental_uris": {"android": "https://dc.lft.to/lastmile_qr_scan", "ios": "https://dc.lft.to/lastmile_qr_scan"}, "is_reserved": 0, "bike_id": "1b8c5924a882b20c3fdab6f52fa3d015", "name": "1b8c5924a882b20c3fdab6f52fa3d015", "fusion_lon": 0.0, "lon": -77.00450283333333, "fusion_lat": 0.0}, {"lat": 38.904043, "type": "electric_bike", "is_disabled": 0, "rental_uris": {"android": "https://dc.lft.to/lastmile_qr_scan", "ios": "https://dc.lft.to/lastmile_qr_scan"}, "is_reserved": 0, "bike_id": "2a531659dec1ba2698d868f149840e25", "name": "2a531659dec1ba2698d868f149840e25", "fusion_lon": 0.0, "lon": -77.03478766666667, "fusion_lat": 0.0}, {"lat": 38.93572266666666, "type": "electric_scooter", "is_disabled": 0, "rental_uris": {"android": "https://dc.lft.to/lastmile_qr_scan", "ios": "https://dc.lft.to/lastmile_qr_scan"}, "is_reserved": 0, "bike_id": "5639a7a189b44841b9069a81cc2e4798", "name": "5639a7a189b44841b9069a81cc2e4798", "fusion_lon": 0.0, "lon": -77.02124416666666, "fusion_lat": 0.0}, {"lat": 38.880222, "type": "electric_scooter", "is_disabled": 0, "rental_uris": {"android": "https://dc.lft.to/lastmile_qr_scan", "ios": "https://dc.lft.to/lastmile_qr_scan"}, "is_reserved": 0, "bike_id": "8910c4acc4f676c355f8857e09abb1f5", "name": "8910c4acc4f676c355f8857e09abb1f5", "fusion_lon": 0.0, "lon": -77.02482066666667, "fusion_lat": 0.0}, {"lat": 38.857897333333334, "type": "electric_bike", "is_disabled": 0, "rental_uris": {"android": "https://dc.lft.to/lastmile_qr_scan", "ios": "https://dc.lft.to/lastmile_qr_scan"}, "is_reserved": 0, "bike_id": "63a7b7efc42d7754ba2a9bcd09b0e750", "name": "63a7b7efc42d7754ba2a9bcd09b0e750", "fusion_lon": 0.0, "lon": -76.98766583333334, "fusion_lat": 0.0}, {"lat": 38.89869633333333, "type": "electric_scooter", "is_disabled": 0, "rental_uris": {"android": "https://dc.lft.to/lastmile_qr_scan", "ios": "https://dc.lft.to/lastmile_qr_scan"}, "is_reserved": 0, "bike_id": "96ea3ee8a01b10e0acab2499fded49be", "name": "96ea3ee8a01b10e0acab2499fded49be", "fusion_lon": 0.0, "lon": -77.03341033333334, "fusion_lat": 0.0}, {"lat": 38.9260655, "type": "electric_scooter", "is_disabled": 0, "rental_uris": {"android": "https://dc.lft.to/lastmile_qr_scan", "ios": "https://dc.lft.to/lastmile_qr_scan"}, "is_reserved": 0, "bike_id": "65aaed79ee1d62df72d9c1d259f0c0df", "name": "65aaed79ee1d62df72d9c1d259f0c0df", "fusion_lon": 0.0, "lon": -77.02158316666667, "fusion_lat": 0.0}, {"lat": 38.9085265, "type": "electric_scooter", "is_disabled": 0, "rental_uris": {"android": "https://dc.lft.to/lastmile_qr_scan", "ios": "https://dc.lft.to/lastmile_qr_scan"}, "is_reserved": 0, "bike_id": "b826de301f493c7e71f06b58995fab77", "name": "b826de301f493c7e71f06b58995fab77", "fusion_lon": 0.0, "lon": -76.99798466666667, "fusion_lat": 0.0}, {"lat": 38.90529516666667, "type": "electric_scooter", "is_disabled": 0, "rental_uris": {"android": "https://dc.lft.to/lastmile_qr_scan", "ios": "https://dc.lft.to/lastmile_qr_scan"}, "is_reserved": 0, "bike_id": "7f42d05ab3ab1cfbf63ac8f646899a5e", "name": "7f42d05ab3ab1cfbf63ac8f646899a5e", "fusion_lon": 0.0, "lon": -77.050084, "fusion_lat": 0.0}, {"lat": 38.899153166666665, "type": "electric_scooter", "is_disabled": 0, "rental_uris": {"android": "https://dc.lft.to/lastmile_qr_scan", "ios": "https://dc.lft.to/lastmile_qr_scan"}, "is_reserved": 0, "bike_id": "7902270cbe26102f0260cc9c6b8e5f19", "name": "7902270cbe26102f0260cc9c6b8e5f19", "fusion_lon": 0.0, "lon": -77.0329515, "fusion_lat": 0.0}, {"lat": 38.899199, "type": "electric_scooter", "is_disabled": 0, "rental_uris": {"android": "https://dc.lft.to/lastmile_qr_scan", "ios": "https://dc.lft.to/lastmile_qr_scan"}, "is_reserved": 0, "bike_id": "a3bcc89926a2cd2c835f07fe83484440", "name": "a3bcc89926a2cd2c835f07fe83484440", "fusion_lon": 0.0, "lon": -76.93370133333333, "fusion_lat": 0.0}, {"lat": 38.905642, "type": "electric_scooter", "is_disabled": 0, "rental_uris": {"android": "https://dc.lft.to/lastmile_qr_scan", "ios": "https://dc.lft.to/lastmile_qr_scan"}, "is_reserved": 0, "bike_id": "b0b900f3b1ed694f22ccb13fc52a929d", "name": "b0b900f3b1ed694f22ccb13fc52a929d", "fusion_lon": 0.0, "lon": -77.0261335, "fusion_lat": 0.0}, {"lat": 38.896711, "type": "electric_scooter", "is_disabled": 0, "rental_uris": {"android": "https://dc.lft.to/lastmile_qr_scan", "ios": "https://dc.lft.to/lastmile_qr_scan"}, "is_reserved": 0, "bike_id": "1b1aadb92e7c99bc888e9416dfb0650d", "name": "1b1aadb92e7c99bc888e9416dfb0650d", "fusion_lon": 0.0, "lon": -77.05034783333333, "fusion_lat": 0.0}, {"lat": 38.92244983333333, "type": "electric_scooter", "is_disabled": 0, "rental_uris": {"android": "https://dc.lft.to/lastmile_qr_scan", "ios": "https://dc.lft.to/lastmile_qr_scan"}, "is_reserved": 0, "bike_id": "b737b5addbf5f4111bdc948c3ec47168", "name": "b737b5addbf5f4111bdc948c3ec47168", "fusion_lon": 0.0, "lon": -77.0307495, "fusion_lat": 0.0}, {"lat": 38.90308983333333, "type": "electric_scooter", "is_disabled": 0, "rental_uris": {"android": "https://dc.lft.to/lastmile_qr_scan", "ios": "https://dc.lft.to/lastmile_qr_scan"}, "is_reserved": 0, "bike_id": "2be8a009bdccd0839b318eccf3c3e0a4", "name": "2be8a009bdccd0839b318eccf3c3e0a4", "fusion_lon": 0.0, "lon": -77.03477066666666, "fusion_lat": 0.0}, {"lat": 38.96653716666667, "type": "electric_bike", "is_disabled": 0, "rental_uris": {"android": "https://dc.lft.to/lastmile_qr_scan", "ios": "https://dc.lft.to/lastmile_qr_scan"}, "is_reserved": 0, "bike_id": "97ff72182c2a47d2c3afddfbfc2066cd", "name": "97ff72182c2a47d2c3afddfbfc2066cd", "fusion_lon": 0.0, "lon": -76.930238, "fusion_lat": 0.0}, {"lat": 38.89720766666667, "type": "electric_scooter", "is_disabled": 0, "rental_uris": {"android": "https://dc.lft.to/lastmile_qr_scan", "ios": "https://dc.lft.to/lastmile_qr_scan"}, "is_reserved": 0, "bike_id": "9a9715ae6ca9865d5d62cf200f94c22b", "name": "9a9715ae6ca9865d5d62cf200f94c22b", "fusion_lon": 0.0, "lon": -77.0198455, "fusion_lat": 0.0}, {"lat": 38.918879, "type": "electric_scooter", "is_disabled": 0, "rental_uris": {"android": "https://dc.lft.to/lastmile_qr_scan", "ios": "https://dc.lft.to/lastmile_qr_scan"}, "is_reserved": 0, "bike_id": "1aa806ec688ce79ce9b9a83beb484609", "name": "1aa806ec688ce79ce9b9a83beb484609", "fusion_lon": 0.0, "lon": -77.041748, "fusion_lat": 0.0}, {"lat": 38.9058385, "type": "electric_scooter", "is_disabled": 0, "rental_uris": {"android": "https://dc.lft.to/lastmile_qr_scan", "ios": "https://dc.lft.to/lastmile_qr_scan"}, "is_reserved": 0, "bike_id": "c5b60f9bcb5e984fbacf9ee627cf9933", "name": "c5b60f9bcb5e984fbacf9ee627cf9933", "fusion_lon": 0.0, "lon": -77.05166566666666, "fusion_lat": 0.0}, {"lat": 38.89614, "type": "electric_scooter", "is_disabled": 0, "rental_uris": {"android": "https://dc.lft.to/lastmile_qr_scan", "ios": "https://dc.lft.to/lastmile_qr_scan"}, "is_reserved": 0, "bike_id": "49bf5fec4e19c976b748e84afbaa3612", "name": "49bf5fec4e19c976b748e84afbaa3612", "fusion_lon": 0.0, "lon": -77.0091045, "fusion_lat": 0.0}, {"lat": 38.97678583333333, "type": "electric_bike", "is_disabled": 0, "rental_uris": {"android": "https://dc.lft.to/lastmile_qr_scan", "ios": "https://dc.lft.to/lastmile_qr_scan"}, "is_reserved": 0, "bike_id": "572bb488e5e4ea8797cf9047cb165ced", "name": "572bb488e5e4ea8797cf9047cb165ced", "fusion_lon": 0.0, "lon": -76.97165966666667, "fusion_lat": 0.0}, {"lat": 38.89241483333333, "type": "electric_scooter", "is_disabled": 0, "rental_uris": {"android": "https://dc.lft.to/lastmile_qr_scan", "ios": "https://dc.lft.to/lastmile_qr_scan"}, "is_reserved": 0, "bike_id": "515906101a99a8bd67fb4081ed8c8aea", "name": "515906101a99a8bd67fb4081ed8c8aea", "fusion_lon": 0.0, "lon": -77.03177983333333, "fusion_lat": 0.0}, {"lat": 38.9248495, "type": "electric_scooter", "is_disabled": 0, "rental_uris": {"android": "https://dc.lft.to/lastmile_qr_scan", "ios": "https://dc.lft.to/lastmile_qr_scan"}, "is_reserved": 0, "bike_id": "bba2489b115976932243917739ed14ca", "name": "bba2489b115976932243917739ed14ca", "fusion_lon": 0.0, "lon": -77.02722783333333, "fusion_lat": 0.0}, {"lat": 38.89238066666667, "type": "electric_bike", "is_disabled": 0, "rental_uris": {"android": "https://dc.lft.to/lastmile_qr_scan", "ios": "https://dc.lft.to/lastmile_qr_scan"}, "is_reserved": 0, "bike_id": "ff601f23700b5b1b4fc7371905dc0d9d", "name": "ff601f23700b5b1b4fc7371905dc0d9d", "fusion_lon": 0.0, "lon": -76.95220233333333, "fusion_lat": 0.0}, {"lat": 38.9541315, "type": "electric_scooter", "is_disabled": 0, "rental_uris": {"android": "https://dc.lft.to/lastmile_qr_scan", "ios": "https://dc.lft.to/lastmile_qr_scan"}, "is_reserved": 0, "bike_id": "b95bbe076bfc3d89bb6987772c2cfa41", "name": "b95bbe076bfc3d89bb6987772c2cfa41", "fusion_lon": 0.0, "lon": -77.02844616666667, "fusion_lat": 0.0}, {"lat": 38.92592883333333, "type": "electric_bike", "is_disabled": 0, "rental_uris": {"android": "https://dc.lft.to/lastmile_qr_scan", "ios": "https://dc.lft.to/lastmile_qr_scan"}, "is_reserved": 0, "bike_id": "1f021c6658c322e59fb2b7d8d53422ba", "name": "1f021c6658c322e59fb2b7d8d53422ba", "fusion_lon": 0.0, "lon": -76.88911083333333, "fusion_lat": 0.0}, {"lat": 38.928427, "type": "electric_scooter", "is_disabled": 0, "rental_uris": {"android": "https://dc.lft.to/lastmile_qr_scan", "ios": "https://dc.lft.to/lastmile_qr_scan"}, "is_reserved": 0, "bike_id": "3d9cb15046b3da5999c5f9a551ed173c", "name": "3d9cb15046b3da5999c5f9a551ed173c", "fusion_lon": 0.0, "lon": -77.0140765, "fusion_lat": 0.0}, {"lat": 38.91409383333333, "type": "electric_scooter", "is_disabled": 0, "rental_uris": {"android": "https://dc.lft.to/lastmile_qr_scan", "ios": "https://dc.lft.to/lastmile_qr_scan"}, "is_reserved": 0, "bike_id": "67110186f5e701c79c0bb7e3368d2ed3", "name": "67110186f5e701c79c0bb7e3368d2ed3", "fusion_lon": 0.0, "lon": -77.00805916666667, "fusion_lat": 0.0}, {"lat": 38.9151525, "type": "electric_scooter", "is_disabled": 0, "rental_uris": {"android": "https://dc.lft.to/lastmile_qr_scan", "ios": "https://dc.lft.to/lastmile_qr_scan"}, "is_reserved": 0, "bike_id": "ab976f9c02ba3fb758b6c37d83649b6a", "name": "ab976f9c02ba3fb758b6c37d83649b6a", "fusion_lon": 0.0, "lon": -77.01582366666666, "fusion_lat": 0.0}, {"lat": 38.90409066666667, "type": "electric_scooter", "is_disabled": 0, "rental_uris": {"android": "https://dc.lft.to/lastmile_qr_scan", "ios": "https://dc.lft.to/lastmile_qr_scan"}, "is_reserved": 0, "bike_id": "3bcdc1610cfccf14275380d21c21231a", "name": "3bcdc1610cfccf14275380d21c21231a", "fusion_lon": 0.0, "lon": -77.0218515, "fusion_lat": 0.0}, {"lat": 38.89919583333333, "type": "electric_scooter", "is_disabled": 0, "rental_uris": {"android": "https://dc.lft.to/lastmile_qr_scan", "ios": "https://dc.lft.to/lastmile_qr_scan"}, "is_reserved": 0, "bike_id": "175f72a30f75924e72fa134bd1afd963", "name": "175f72a30f75924e72fa134bd1afd963", "fusion_lon": 0.0, "lon": -77.05424716666667, "fusion_lat": 0.0}, {"lat": 38.901576166666665, "type": "electric_scooter", "is_disabled": 0, "rental_uris": {"android": "https://dc.lft.to/lastmile_qr_scan", "ios": "https://dc.lft.to/lastmile_qr_scan"}, "is_reserved": 0, "bike_id": "1437d85d6b0d14953da87d09079adea4", "name": "1437d85d6b0d14953da87d09079adea4", "fusion_lon": 0.0, "lon": -77.03982833333333, "fusion_lat": 0.0}, {"lat": 38.89361616666667, "type": "electric_scooter", "is_disabled": 0, "rental_uris": {"android": "https://dc.lft.to/lastmile_qr_scan", "ios": "https://dc.lft.to/lastmile_qr_scan"}, "is_reserved": 0, "bike_id": "459872ff914cf95416ed568cf57da971", "name": "459872ff914cf95416ed568cf57da971", "fusion_lon": 0.0, "lon": -76.98467133333334, "fusion_lat": 0.0}, {"lat": 38.901163, "type": "electric_scooter", "is_disabled": 0, "rental_uris": {"android": "https://dc.lft.to/lastmile_qr_scan", "ios": "https://dc.lft.to/lastmile_qr_scan"}, "is_reserved": 0, "bike_id": "77d420db068e71b085f25a7b05fc7e5f", "name": "77d420db068e71b085f25a7b05fc7e5f", "fusion_lon": 0.0, "lon": -76.991462, "fusion_lat": 0.0}, {"lat": 38.918218, "type": "electric_scooter", "is_disabled": 0, "rental_uris": {"android": "https://dc.lft.to/lastmile_qr_scan", "ios": "https://dc.lft.to/lastmile_qr_scan"}, "is_reserved": 0, "bike_id": "589bbdc1aee476d23d32504cf15c92c5", "name": "589bbdc1aee476d23d32504cf15c92c5", "fusion_lon": 0.0, "lon": -77.024737, "fusion_lat": 0.0}, {"lat": 38.91417283333333, "type": "electric_scooter", "is_disabled": 0, "rental_uris": {"android": "https://dc.lft.to/lastmile_qr_scan", "ios": "https://dc.lft.to/lastmile_qr_scan"}, "is_reserved": 0, "bike_id": "d46f7276403ab9a7d2e6c93fd8727105", "name": "d46f7276403ab9a7d2e6c93fd8727105", "fusion_lon": 0.0, "lon": -77.03995883333333, "fusion_lat": 0.0}, {"lat": 38.90737033333333, "type": "electric_scooter", "is_disabled": 0, "rental_uris": {"android": "https://dc.lft.to/lastmile_qr_scan", "ios": "https://dc.lft.to/lastmile_qr_scan"}, "is_reserved": 0, "bike_id": "6e8d6fd531524d31070c1fe68e5f81bb", "name": "6e8d6fd531524d31070c1fe68e5f81bb", "fusion_lon": 0.0, "lon": -77.03447133333333, "fusion_lat": 0.0}, {"lat": 38.919670333333336, "type": "electric_scooter", "is_disabled": 0, "rental_uris": {"android": "https://dc.lft.to/lastmile_qr_scan", "ios": "https://dc.lft.to/lastmile_qr_scan"}, "is_reserved": 0, "bike_id": "b2fe20bd1cb47372d765a4fa617d7d0f", "name": "b2fe20bd1cb47372d765a4fa617d7d0f", "fusion_lon": 0.0, "lon": -77.04142683333333, "fusion_lat": 0.0}, {"lat": 38.907341833333334, "type": "electric_scooter", "is_disabled": 0, "rental_uris": {"android": "https://dc.lft.to/lastmile_qr_scan", "ios": "https://dc.lft.to/lastmile_qr_scan"}, "is_reserved": 0, "bike_id": "119df0ab2529c82c08001411295d6769", "name": "119df0ab2529c82c08001411295d6769", "fusion_lon": 0.0, "lon": -77.0228495, "fusion_lat": 0.0}, {"lat": 38.88225466666667, "type": "electric_bike", "is_disabled": 0, "rental_uris": {"android": "https://dc.lft.to/lastmile_qr_scan", "ios": "https://dc.lft.to/lastmile_qr_scan"}, "is_reserved": 0, "bike_id": "1458526002d376bcd5bd667649f65e33", "name": "1458526002d376bcd5bd667649f65e33", "fusion_lon": 0.0, "lon": -77.11516033333334, "fusion_lat": 0.0}, {"lat": 38.886697, "type": "electric_scooter", "is_disabled": 0, "rental_uris": {"android": "https://dc.lft.to/lastmile_qr_scan", "ios": "https://dc.lft.to/lastmile_qr_scan"}, "is_reserved": 0, "bike_id": "1b894ca2c0640cb924bea4009a8db222", "name": "1b894ca2c0640cb924bea4009a8db222", "fusion_lon": 0.0, "lon": -77.03389533333333, "fusion_lat": 0.0}, {"lat": 38.90811016666667, "type": "electric_scooter", "is_disabled": 0, "rental_uris": {"android": "https://dc.lft.to/lastmile_qr_scan", "ios": "https://dc.lft.to/lastmile_qr_scan"}, "is_reserved": 0, "bike_id": "21ef5be1d517e27f4c57cb8faa5d0b47", "name": "21ef5be1d517e27f4c57cb8faa5d0b47", "fusion_lon": 0.0, "lon": -77.033869, "fusion_lat": 0.0}, {"lat": 38.9171725, "type": "electric_scooter", "is_disabled": 0, "rental_uris": {"android": "https://dc.lft.to/lastmile_qr_scan", "ios": "https://dc.lft.to/lastmile_qr_scan"}, "is_reserved": 0, "bike_id": "46f00dca7a9e5cef27c90f6bdd99e00c", "name": "46f00dca7a9e5cef27c90f6bdd99e00c", "fusion_lon": 0.0, "lon": -77.02720183333334, "fusion_lat": 0.0}, {"lat": 38.9501395, "type": "electric_bike", "is_disabled": 0, "rental_uris": {"android": "https://dc.lft.to/lastmile_qr_scan", "ios": "https://dc.lft.to/lastmile_qr_scan"}, "is_reserved": 0, "bike_id": "f98974054f28334f1d8ba5be09414950", "name": "f98974054f28334f1d8ba5be09414950", "fusion_lon": 0.0, "lon": -77.35305116666666, "fusion_lat": 0.0}, {"lat": 38.915783, "type": "electric_scooter", "is_disabled": 0, "rental_uris": {"android": "https://dc.lft.to/lastmile_qr_scan", "ios": "https://dc.lft.to/lastmile_qr_scan"}, "is_reserved": 0, "bike_id": "2d14d2ddb5966dfb09897fd35fa09d56", "name": "2d14d2ddb5966dfb09897fd35fa09d56", "fusion_lon": 0.0, "lon": -77.04677216666667, "fusion_lat": 0.0}, {"lat": 38.924602666666665, "type": "electric_scooter", "is_disabled": 0, "rental_uris": {"android": "https://dc.lft.to/lastmile_qr_scan", "ios": "https://dc.lft.to/lastmile_qr_scan"}, "is_reserved": 0, "bike_id": "696131773f823b76be2388be5b74d725", "name": "696131773f823b76be2388be5b74d725", "fusion_lon": 0.0, "lon": -76.99737066666667, "fusion_lat": 0.0}, {"lat": 38.88747016666667, "type": "electric_scooter", "is_disabled": 0, "rental_uris": {"android": "https://dc.lft.to/lastmile_qr_scan", "ios": "https://dc.lft.to/lastmile_qr_scan"}, "is_reserved": 0, "bike_id": "d181243d2eb5e211803558243e00d3a4", "name": "d181243d2eb5e211803558243e00d3a4", "fusion_lon": 0.0, "lon": -77.0222395, "fusion_lat": 0.0}, {"lat": 38.898669, "type": "electric_scooter", "is_disabled": 0, "rental_uris": {"android": "https://dc.lft.to/lastmile_qr_scan", "ios": "https://dc.lft.to/lastmile_qr_scan"}, "is_reserved": 0, "bike_id": "2e2469071071f1644c0e16bf4b40ed90", "name": "2e2469071071f1644c0e16bf4b40ed90", "fusion_lon": 0.0, "lon": -77.01624933333333, "fusion_lat": 0.0}, {"lat": 38.90809816666667, "type": "electric_scooter", "is_disabled": 0, "rental_uris": {"android": "https://dc.lft.to/lastmile_qr_scan", "ios": "https://dc.lft.to/lastmile_qr_scan"}, "is_reserved": 0, "bike_id": "bda82c0f606e6dbc83d510930be2cd93", "name": "bda82c0f606e6dbc83d510930be2cd93", "fusion_lon": 0.0, "lon": -77.038564, "fusion_lat": 0.0}, {"lat": 38.9015965, "type": "electric_scooter", "is_disabled": 0, "rental_uris": {"android": "https://dc.lft.to/lastmile_qr_scan", "ios": "https://dc.lft.to/lastmile_qr_scan"}, "is_reserved": 0, "bike_id": "e378d1d6d8fb64e0f08a8d54a13b1453", "name": "e378d1d6d8fb64e0f08a8d54a13b1453", "fusion_lon": 0.0, "lon": -77.04390816666667, "fusion_lat": 0.0}, {"lat": 38.939170833333336, "type": "electric_scooter", "is_disabled": 0, "rental_uris": {"android": "https://dc.lft.to/lastmile_qr_scan", "ios": "https://dc.lft.to/lastmile_qr_scan"}, "is_reserved": 0, "bike_id": "34bf5e83e83bb0ea720f8840ab58ae26", "name": "34bf5e83e83bb0ea720f8840ab58ae26", "fusion_lon": 0.0, "lon": -77.02482866666666, "fusion_lat": 0.0}, {"lat": 38.907295, "type": "electric_scooter", "is_disabled": 0, "rental_uris": {"android": "https://dc.lft.to/lastmile_qr_scan", "ios": "https://dc.lft.to/lastmile_qr_scan"}, "is_reserved": 0, "bike_id": "a5d7beec73d6670020a457447a39c952", "name": "a5d7beec73d6670020a457447a39c952", "fusion_lon": 0.0, "lon": -77.04337916666667, "fusion_lat": 0.0}, {"lat": 38.926155333333334, "type": "electric_scooter", "is_disabled": 0, "rental_uris": {"android": "https://dc.lft.to/lastmile_qr_scan", "ios": "https://dc.lft.to/lastmile_qr_scan"}, "is_reserved": 0, "bike_id": "edf34770067c036e72c266746ec0afa6", "name": "edf34770067c036e72c266746ec0afa6", "fusion_lon": 0.0, "lon": -77.02163533333334, "fusion_lat": 0.0}, {"lat": 38.904765, "type": "electric_scooter", "is_disabled": 0, "rental_uris": {"android": "https://dc.lft.to/lastmile_qr_scan", "ios": "https://dc.lft.to/lastmile_qr_scan"}, "is_reserved": 0, "bike_id": "aaad37642a31d6df38811867d5195f11", "name": "aaad37642a31d6df38811867d5195f11", "fusion_lon": 0.0, "lon": -77.03569016666667, "fusion_lat": 0.0}, {"lat": 38.897513833333335, "type": "electric_scooter", "is_disabled": 0, "rental_uris": {"android": "https://dc.lft.to/lastmile_qr_scan", "ios": "https://dc.lft.to/lastmile_qr_scan"}, "is_reserved": 0, "bike_id": "670814262e1c52193c3b91e8cefad587", "name": "670814262e1c52193c3b91e8cefad587", "fusion_lon": 0.0, "lon": -77.021016, "fusion_lat": 0.0}, {"lat": 38.94577616666667, "type": "electric_bike", "is_disabled": 0, "rental_uris": {"android": "https://dc.lft.to/lastmile_qr_scan", "ios": "https://dc.lft.to/lastmile_qr_scan"}, "is_reserved": 0, "bike_id": "e2a36630253a1e094e95c20b041f4eb8", "name": "e2a36630253a1e094e95c20b041f4eb8", "fusion_lon": 0.0, "lon": -76.98778416666667, "fusion_lat": 0.0}, {"lat": 38.9007105, "type": "electric_scooter", "is_disabled": 0, "rental_uris": {"android": "https://dc.lft.to/lastmile_qr_scan", "ios": "https://dc.lft.to/lastmile_qr_scan"}, "is_reserved": 0, "bike_id": "b32adf43ec5964c1c4584f27086ea4be", "name": "b32adf43ec5964c1c4584f27086ea4be", "fusion_lon": 0.0, "lon": -77.04877983333333, "fusion_lat": 0.0}, {"lat": 38.9317495, "type": "electric_scooter", "is_disabled": 0, "rental_uris": {"android": "https://dc.lft.to/lastmile_qr_scan", "ios": "https://dc.lft.to/lastmile_qr_scan"}, "is_reserved": 0, "bike_id": "d8c8c5301f65b29b08635aac4f054f6f", "name": "d8c8c5301f65b29b08635aac4f054f6f", "fusion_lon": 0.0, "lon": -77.03640933333334, "fusion_lat": 0.0}, {"lat": 38.88801216666667, "type": "electric_scooter", "is_disabled": 0, "rental_uris": {"android": "https://dc.lft.to/lastmile_qr_scan", "ios": "https://dc.lft.to/lastmile_qr_scan"}, "is_reserved": 0, "bike_id": "89cd9fd2d7708f13f24ddebfed8f79ee", "name": "89cd9fd2d7708f13f24ddebfed8f79ee", "fusion_lon": 0.0, "lon": -76.9335425, "fusion_lat": 0.0}, {"lat": 38.846208, "type": "electric_scooter", "is_disabled": 0, "rental_uris": {"android": "https://dc.lft.to/lastmile_qr_scan", "ios": "https://dc.lft.to/lastmile_qr_scan"}, "is_reserved": 0, "bike_id": "fccc8caaa808ba1f8e1c673c81a2de41", "name": "fccc8caaa808ba1f8e1c673c81a2de41", "fusion_lon": 0.0, "lon": -76.99631083333334, "fusion_lat": 0.0}, {"lat": 38.892262833333334, "type": "electric_scooter", "is_disabled": 0, "rental_uris": {"android": "https://dc.lft.to/lastmile_qr_scan", "ios": "https://dc.lft.to/lastmile_qr_scan"}, "is_reserved": 0, "bike_id": "db6f44ef15e18288e19b5b5bf911039a", "name": "db6f44ef15e18288e19b5b5bf911039a", "fusion_lon": 0.0, "lon": -77.03185666666667, "fusion_lat": 0.0}, {"lat": 38.91595316666667, "type": "electric_scooter", "is_disabled": 0, "rental_uris": {"android": "https://dc.lft.to/lastmile_qr_scan", "ios": "https://dc.lft.to/lastmile_qr_scan"}, "is_reserved": 0, "bike_id": "30232fb9fd78e02109e2c01f7bb638e0", "name": "30232fb9fd78e02109e2c01f7bb638e0", "fusion_lon": 0.0, "lon": -77.05005333333334, "fusion_lat": 0.0}, {"lat": 38.876547, "type": "electric_scooter", "is_disabled": 0, "rental_uris": {"android": "https://dc.lft.to/lastmile_qr_scan", "ios": "https://dc.lft.to/lastmile_qr_scan"}, "is_reserved": 0, "bike_id": "58adde83e7a44e9659b43a385ad0ec06", "name": "58adde83e7a44e9659b43a385ad0ec06", "fusion_lon": 0.0, "lon": -77.00746, "fusion_lat": 0.0}, {"lat": 38.876993666666664, "type": "electric_scooter", "is_disabled": 0, "rental_uris": {"android": "https://dc.lft.to/lastmile_qr_scan", "ios": "https://dc.lft.to/lastmile_qr_scan"}, "is_reserved": 0, "bike_id": "3f0841d0822ddf51dc6b1374beb43d40", "name": "3f0841d0822ddf51dc6b1374beb43d40", "fusion_lon": 0.0, "lon": -77.01784933333333, "fusion_lat": 0.0}, {"lat": 38.8428615, "type": "electric_scooter", "is_disabled": 0, "rental_uris": {"android": "https://dc.lft.to/lastmile_qr_scan", "ios": "https://dc.lft.to/lastmile_qr_scan"}, "is_reserved": 0, "bike_id": "2a1ed160a032240287444e62908328c8", "name": "2a1ed160a032240287444e62908328c8", "fusion_lon": 0.0, "lon": -76.99960266666666, "fusion_lat": 0.0}, {"lat": 38.83814066666667, "type": "electric_scooter", "is_disabled": 0, "rental_uris": {"android": "https://dc.lft.to/lastmile_qr_scan", "ios": "https://dc.lft.to/lastmile_qr_scan"}, "is_reserved": 0, "bike_id": "479bf6b23528b9d7c80a5c9814c8dd24", "name": "479bf6b23528b9d7c80a5c9814c8dd24", "fusion_lon": 0.0, "lon": -77.00432016666667, "fusion_lat": 0.0}, {"lat": 38.88614233333333, "type": "electric_scooter", "is_disabled": 0, "rental_uris": {"android": "https://dc.lft.to/lastmile_qr_scan", "ios": "https://dc.lft.to/lastmile_qr_scan"}, "is_reserved": 0, "bike_id": "7d02bf3d571b63ae8472a60bad30c387", "name": "7d02bf3d571b63ae8472a60bad30c387", "fusion_lon": 0.0, "lon": -76.99503333333334, "fusion_lat": 0.0}, {"lat": 38.88156333333333, "type": "electric_bike", "is_disabled": 0, "rental_uris": {"android": "https://dc.lft.to/lastmile_qr_scan", "ios": "https://dc.lft.to/lastmile_qr_scan"}, "is_reserved": 0, "bike_id": "affb80cd668359543a1bfc770e8b5c07", "name": "affb80cd668359543a1bfc770e8b5c07", "fusion_lon": 0.0, "lon": -77.1147255, "fusion_lat": 0.0}, {"lat": 38.905469, "type": "electric_scooter", "is_disabled": 0, "rental_uris": {"android": "https://dc.lft.to/lastmile_qr_scan", "ios": "https://dc.lft.to/lastmile_qr_scan"}, "is_reserved": 0, "bike_id": "6f4c1c8ecc998fb376eb45767787b892", "name": "6f4c1c8ecc998fb376eb45767787b892", "fusion_lon": 0.0, "lon": -77.040919, "fusion_lat": 0.0}, {"lat": 38.901597833333334, "type": "electric_scooter", "is_disabled": 0, "rental_uris": {"android": "https://dc.lft.to/lastmile_qr_scan", "ios": "https://dc.lft.to/lastmile_qr_scan"}, "is_reserved": 0, "bike_id": "f5707c1f27e0fb3975fbac099a100525", "name": "f5707c1f27e0fb3975fbac099a100525", "fusion_lon": 0.0, "lon": -77.04387, "fusion_lat": 0.0}, {"lat": 38.91575183333333, "type": "electric_scooter", "is_disabled": 0, "rental_uris": {"android": "https://dc.lft.to/lastmile_qr_scan", "ios": "https://dc.lft.to/lastmile_qr_scan"}, "is_reserved": 0, "bike_id": "eaf7de4926c9574ed2bda3a37db5f6b0", "name": "eaf7de4926c9574ed2bda3a37db5f6b0", "fusion_lon": 0.0, "lon": -77.0417385, "fusion_lat": 0.0}, {"lat": 38.91622233333333, "type": "electric_scooter", "is_disabled": 0, "rental_uris": {"android": "https://dc.lft.to/lastmile_qr_scan", "ios": "https://dc.lft.to/lastmile_qr_scan"}, "is_reserved": 0, "bike_id": "787d2262e1a861413b959a3a5ddeb32a", "name": "787d2262e1a861413b959a3a5ddeb32a", "fusion_lon": 0.0, "lon": -77.03118016666667, "fusion_lat": 0.0}, {"lat": 38.9350545, "type": "electric_bike", "is_disabled": 0, "rental_uris": {"android": "https://dc.lft.to/lastmile_qr_scan", "ios": "https://dc.lft.to/lastmile_qr_scan"}, "is_reserved": 0, "bike_id": "27fcdb4ebe2d76d3940a0af48a5578ed", "name": "27fcdb4ebe2d76d3940a0af48a5578ed", "fusion_lon": 0.0, "lon": -76.94954033333333, "fusion_lat": 0.0}, {"lat": 38.90247083333333, "type": "electric_scooter", "is_disabled": 0, "rental_uris": {"android": "https://dc.lft.to/lastmile_qr_scan", "ios": "https://dc.lft.to/lastmile_qr_scan"}, "is_reserved": 0, "bike_id": "6e60f2cafc1415d077819fb2871359f7", "name": "6e60f2cafc1415d077819fb2871359f7", "fusion_lon": 0.0, "lon": -76.989643, "fusion_lat": 0.0}, {"lat": 38.91060133333333, "type": "electric_scooter", "is_disabled": 0, "rental_uris": {"android": "https://dc.lft.to/lastmile_qr_scan", "ios": "https://dc.lft.to/lastmile_qr_scan"}, "is_reserved": 0, "bike_id": "0959b00c3b96972165379cad8de9854b", "name": "0959b00c3b96972165379cad8de9854b", "fusion_lon": 0.0, "lon": -77.0218205, "fusion_lat": 0.0}, {"lat": 38.905417166666666, "type": "electric_scooter", "is_disabled": 0, "rental_uris": {"android": "https://dc.lft.to/lastmile_qr_scan", "ios": "https://dc.lft.to/lastmile_qr_scan"}, "is_reserved": 0, "bike_id": "fd83833e707c204a55f99ea4f22875be", "name": "fd83833e707c204a55f99ea4f22875be", "fusion_lon": 0.0, "lon": -77.04758133333333, "fusion_lat": 0.0}, {"lat": 38.907158, "type": "electric_scooter", "is_disabled": 0, "rental_uris": {"android": "https://dc.lft.to/lastmile_qr_scan", "ios": "https://dc.lft.to/lastmile_qr_scan"}, "is_reserved": 0, "bike_id": "11bbeb13794317d89625fd695479371a", "name": "11bbeb13794317d89625fd695479371a", "fusion_lon": 0.0, "lon": -77.02398266666667, "fusion_lat": 0.0}, {"lat": 38.89740416666667, "type": "electric_scooter", "is_disabled": 0, "rental_uris": {"android": "https://dc.lft.to/lastmile_qr_scan", "ios": "https://dc.lft.to/lastmile_qr_scan"}, "is_reserved": 0, "bike_id": "667ebd6312f725423411ff6c845d15b1", "name": "667ebd6312f725423411ff6c845d15b1", "fusion_lon": 0.0, "lon": -77.0159805, "fusion_lat": 0.0}, {"lat": 38.92504183333333, "type": "electric_scooter", "is_disabled": 0, "rental_uris": {"android": "https://dc.lft.to/lastmile_qr_scan", "ios": "https://dc.lft.to/lastmile_qr_scan"}, "is_reserved": 0, "bike_id": "3c398b703618ad5b3f0f410c16a01c12", "name": "3c398b703618ad5b3f0f410c16a01c12", "fusion_lon": 0.0, "lon": -77.03549483333333, "fusion_lat": 0.0}, {"lat": 38.916362666666664, "type": "electric_scooter", "is_disabled": 0, "rental_uris": {"android": "https://dc.lft.to/lastmile_qr_scan", "ios": "https://dc.lft.to/lastmile_qr_scan"}, "is_reserved": 0, "bike_id": "4624d2a8081c2eed88062f07db47bff9", "name": "4624d2a8081c2eed88062f07db47bff9", "fusion_lon": 0.0, "lon": -77.05059133333333, "fusion_lat": 0.0}, {"lat": 38.931916333333334, "type": "electric_scooter", "is_disabled": 0, "rental_uris": {"android": "https://dc.lft.to/lastmile_qr_scan", "ios": "https://dc.lft.to/lastmile_qr_scan"}, "is_reserved": 0, "bike_id": "9a5865f878862fd32af4eb15e071aeb3", "name": "9a5865f878862fd32af4eb15e071aeb3", "fusion_lon": 0.0, "lon": -77.0283685, "fusion_lat": 0.0}, {"lat": 38.90094033333333, "type": "electric_scooter", "is_disabled": 0, "rental_uris": {"android": "https://dc.lft.to/lastmile_qr_scan", "ios": "https://dc.lft.to/lastmile_qr_scan"}, "is_reserved": 0, "bike_id": "cb4ea0cd5ed13ffeed9d0c70832e0038", "name": "cb4ea0cd5ed13ffeed9d0c70832e0038", "fusion_lon": 0.0, "lon": -77.03933283333333, "fusion_lat": 0.0}, {"lat": 38.90939083333333, "type": "electric_scooter", "is_disabled": 0, "rental_uris": {"android": "https://dc.lft.to/lastmile_qr_scan", "ios": "https://dc.lft.to/lastmile_qr_scan"}, "is_reserved": 0, "bike_id": "a15576e65b1542590ac2b8196d9059ad", "name": "a15576e65b1542590ac2b8196d9059ad", "fusion_lon": 0.0, "lon": -76.99221883333334, "fusion_lat": 0.0}, {"lat": 38.89787166666667, "type": "electric_scooter", "is_disabled": 0, "rental_uris": {"android": "https://dc.lft.to/lastmile_qr_scan", "ios": "https://dc.lft.to/lastmile_qr_scan"}, "is_reserved": 0, "bike_id": "0796d5278b7f024c80705a304dd3acf2", "name": "0796d5278b7f024c80705a304dd3acf2", "fusion_lon": 0.0, "lon": -76.97098183333334, "fusion_lat": 0.0}, {"lat": 38.8953645, "type": "electric_scooter", "is_disabled": 0, "rental_uris": {"android": "https://dc.lft.to/lastmile_qr_scan", "ios": "https://dc.lft.to/lastmile_qr_scan"}, "is_reserved": 0, "bike_id": "3ccdbdde7bbb27dad019b105b2a1bce5", "name": "3ccdbdde7bbb27dad019b105b2a1bce5", "fusion_lon": 0.0, "lon": -77.00342983333333, "fusion_lat": 0.0}, {"lat": 38.99937333333333, "type": "electric_bike", "is_disabled": 0, "rental_uris": {"android": "https://dc.lft.to/lastmile_qr_scan", "ios": "https://dc.lft.to/lastmile_qr_scan"}, "is_reserved": 0, "bike_id": "4d7fb503d1aa58b5e0f085d3f3885800", "name": "4d7fb503d1aa58b5e0f085d3f3885800", "fusion_lon": 0.0, "lon": -77.0012025, "fusion_lat": 0.0}, {"lat": 38.90860816666667, "type": "electric_scooter", "is_disabled": 0, "rental_uris": {"android": "https://dc.lft.to/lastmile_qr_scan", "ios": "https://dc.lft.to/lastmile_qr_scan"}, "is_reserved": 0, "bike_id": "b40c1d61b62e450af15969dbfc465ee5", "name": "b40c1d61b62e450af15969dbfc465ee5", "fusion_lon": 0.0, "lon": -77.00365333333333, "fusion_lat": 0.0}, {"lat": 38.90582766666667, "type": "electric_scooter", "is_disabled": 0, "rental_uris": {"android": "https://dc.lft.to/lastmile_qr_scan", "ios": "https://dc.lft.to/lastmile_qr_scan"}, "is_reserved": 0, "bike_id": "8a36d3ea23e846e675317ad90d59eebd", "name": "8a36d3ea23e846e675317ad90d59eebd", "fusion_lon": 0.0, "lon": -77.0055375, "fusion_lat": 0.0}, {"lat": 38.860343, "type": "electric_scooter", "is_disabled": 0, "rental_uris": {"android": "https://dc.lft.to/lastmile_qr_scan", "ios": "https://dc.lft.to/lastmile_qr_scan"}, "is_reserved": 0, "bike_id": "274f6b23ed16536da40f4b0dadf6bdea", "name": "274f6b23ed16536da40f4b0dadf6bdea", "fusion_lon": 0.0, "lon": -76.99687766666666, "fusion_lat": 0.0}, {"lat": 38.931543166666664, "type": "electric_scooter", "is_disabled": 0, "rental_uris": {"android": "https://dc.lft.to/lastmile_qr_scan", "ios": "https://dc.lft.to/lastmile_qr_scan"}, "is_reserved": 0, "bike_id": "99e4873be3fb797feb33da0eb1dfbe29", "name": "99e4873be3fb797feb33da0eb1dfbe29", "fusion_lon": 0.0, "lon": -77.03609783333333, "fusion_lat": 0.0}, {"lat": 38.8556015, "type": "electric_bike", "is_disabled": 0, "rental_uris": {"android": "https://dc.lft.to/lastmile_qr_scan", "ios": "https://dc.lft.to/lastmile_qr_scan"}, "is_reserved": 0, "bike_id": "fd9ae30ac4f6407acc9a75a6cec6bf01", "name": "fd9ae30ac4f6407acc9a75a6cec6bf01", "fusion_lon": 0.0, "lon": -77.1071125, "fusion_lat": 0.0}, {"lat": 38.84195066666667, "type": "electric_bike", "is_disabled": 0, "rental_uris": {"android": "https://dc.lft.to/lastmile_qr_scan", "ios": "https://dc.lft.to/lastmile_qr_scan"}, "is_reserved": 0, "bike_id": "992a828ad5ccb8a9a0e05905119bb112", "name": "992a828ad5ccb8a9a0e05905119bb112", "fusion_lon": 0.0, "lon": -77.077474, "fusion_lat": 0.0}, {"lat": 38.897331, "type": "electric_scooter", "is_disabled": 0, "rental_uris": {"android": "https://dc.lft.to/lastmile_qr_scan", "ios": "https://dc.lft.to/lastmile_qr_scan"}, "is_reserved": 0, "bike_id": "7aa427488e1ae6a82858b43f4a377fe3", "name": "7aa427488e1ae6a82858b43f4a377fe3", "fusion_lon": 0.0, "lon": -76.94702116666667, "fusion_lat": 0.0}, {"lat": 38.90023266666667, "type": "electric_scooter", "is_disabled": 0, "rental_uris": {"android": "https://dc.lft.to/lastmile_qr_scan", "ios": "https://dc.lft.to/lastmile_qr_scan"}, "is_reserved": 0, "bike_id": "0895dce9c7b935c9d214fcad254c2b03", "name": "0895dce9c7b935c9d214fcad254c2b03", "fusion_lon": 0.0, "lon": -76.995906, "fusion_lat": 0.0}, {"lat": 38.898461, "type": "electric_scooter", "is_disabled": 0, "rental_uris": {"android": "https://dc.lft.to/lastmile_qr_scan", "ios": "https://dc.lft.to/lastmile_qr_scan"}, "is_reserved": 0, "bike_id": "54b8a0d6155514d815d17fd4475482fc", "name": "54b8a0d6155514d815d17fd4475482fc", "fusion_lon": 0.0, "lon": -77.0195855, "fusion_lat": 0.0}, {"lat": 39.09597766666667, "type": "electric_bike", "is_disabled": 0, "rental_uris": {"android": "https://dc.lft.to/lastmile_qr_scan", "ios": "https://dc.lft.to/lastmile_qr_scan"}, "is_reserved": 0, "bike_id": "11bbeb2e3701b8efa52e43bdb1ccfd5c", "name": "11bbeb2e3701b8efa52e43bdb1ccfd5c", "fusion_lon": 0.0, "lon": -77.1477735, "fusion_lat": 0.0}, {"lat": 38.89224, "type": "electric_scooter", "is_disabled": 0, "rental_uris": {"android": "https://dc.lft.to/lastmile_qr_scan", "ios": "https://dc.lft.to/lastmile_qr_scan"}, "is_reserved": 0, "bike_id": "b66b091ccc244a33044fa9512198bf3e", "name": "b66b091ccc244a33044fa9512198bf3e", "fusion_lon": 0.0, "lon": -77.022601, "fusion_lat": 0.0}, {"lat": 38.895134166666665, "type": "electric_scooter", "is_disabled": 0, "rental_uris": {"android": "https://dc.lft.to/lastmile_qr_scan", "ios": "https://dc.lft.to/lastmile_qr_scan"}, "is_reserved": 0, "bike_id": "318c02bcd73007fa20a0afb7d4682af9", "name": "318c02bcd73007fa20a0afb7d4682af9", "fusion_lon": 0.0, "lon": -76.948841, "fusion_lat": 0.0}, {"lat": 38.911033833333335, "type": "electric_scooter", "is_disabled": 0, "rental_uris": {"android": "https://dc.lft.to/lastmile_qr_scan", "ios": "https://dc.lft.to/lastmile_qr_scan"}, "is_reserved": 0, "bike_id": "178e756eaa2a671f217d49031fa49385", "name": "178e756eaa2a671f217d49031fa49385", "fusion_lon": 0.0, "lon": -77.031793, "fusion_lat": 0.0}, {"lat": 38.90352583333333, "type": "electric_scooter", "is_disabled": 0, "rental_uris": {"android": "https://dc.lft.to/lastmile_qr_scan", "ios": "https://dc.lft.to/lastmile_qr_scan"}, "is_reserved": 0, "bike_id": "041995c26f2729957efc8e27c6ee342f", "name": "041995c26f2729957efc8e27c6ee342f", "fusion_lon": 0.0, "lon": -77.01117166666667, "fusion_lat": 0.0}, {"lat": 38.87587216666667, "type": "electric_scooter", "is_disabled": 0, "rental_uris": {"android": "https://dc.lft.to/lastmile_qr_scan", "ios": "https://dc.lft.to/lastmile_qr_scan"}, "is_reserved": 0, "bike_id": "261f23e8103ad51208badfd360c2ba8e", "name": "261f23e8103ad51208badfd360c2ba8e", "fusion_lon": 0.0, "lon": -77.02088733333333, "fusion_lat": 0.0}, {"lat": 38.912201333333336, "type": "electric_scooter", "is_disabled": 0, "rental_uris": {"android": "https://dc.lft.to/lastmile_qr_scan", "ios": "https://dc.lft.to/lastmile_qr_scan"}, "is_reserved": 0, "bike_id": "c24f85411cd8e80902a524458152d2bb", "name": "c24f85411cd8e80902a524458152d2bb", "fusion_lon": 0.0, "lon": -77.02717266666667, "fusion_lat": 0.0}, {"lat": 38.996741666666665, "type": "electric_bike", "is_disabled": 0, "rental_uris": {"android": "https://dc.lft.to/lastmile_qr_scan", "ios": "https://dc.lft.to/lastmile_qr_scan"}, "is_reserved": 0, "bike_id": "59d90fb8def363ad1882b0f525a304e3", "name": "59d90fb8def363ad1882b0f525a304e3", "fusion_lon": 0.0, "lon": -76.99137983333334, "fusion_lat": 0.0}, {"lat": 38.898409666666666, "type": "electric_scooter", "is_disabled": 0, "rental_uris": {"android": "https://dc.lft.to/lastmile_qr_scan", "ios": "https://dc.lft.to/lastmile_qr_scan"}, "is_reserved": 0, "bike_id": "ee497eaf8e07b32fb5b02f85e432774c", "name": "ee497eaf8e07b32fb5b02f85e432774c", "fusion_lon": 0.0, "lon": -77.024767, "fusion_lat": 0.0}, {"lat": 38.912519833333334, "type": "electric_scooter", "is_disabled": 0, "rental_uris": {"android": "https://dc.lft.to/lastmile_qr_scan", "ios": "https://dc.lft.to/lastmile_qr_scan"}, "is_reserved": 0, "bike_id": "ec11708e04abba1a0e95fa140307a288", "name": "ec11708e04abba1a0e95fa140307a288", "fusion_lon": 0.0, "lon": -77.02429833333333, "fusion_lat": 0.0}, {"lat": 38.90203016666667, "type": "electric_scooter", "is_disabled": 0, "rental_uris": {"android": "https://dc.lft.to/lastmile_qr_scan", "ios": "https://dc.lft.to/lastmile_qr_scan"}, "is_reserved": 0, "bike_id": "54aefdcba69aec230144c363ee5f15eb", "name": "54aefdcba69aec230144c363ee5f15eb", "fusion_lon": 0.0, "lon": -77.04795066666667, "fusion_lat": 0.0}, {"lat": 38.91681483333333, "type": "electric_scooter", "is_disabled": 0, "rental_uris": {"android": "https://dc.lft.to/lastmile_qr_scan", "ios": "https://dc.lft.to/lastmile_qr_scan"}, "is_reserved": 0, "bike_id": "9a6b92d5e298daae901ccacd682fd040", "name": "9a6b92d5e298daae901ccacd682fd040", "fusion_lon": 0.0, "lon": -77.01574516666666, "fusion_lat": 0.0}, {"lat": 38.95893016666667, "type": "electric_bike", "is_disabled": 0, "rental_uris": {"android": "https://dc.lft.to/lastmile_qr_scan", "ios": "https://dc.lft.to/lastmile_qr_scan"}, "is_reserved": 0, "bike_id": "c83a94ada5e2b588a9a8fcd840862a5e", "name": "c83a94ada5e2b588a9a8fcd840862a5e", "fusion_lon": 0.0, "lon": -76.96682683333333, "fusion_lat": 0.0}, {"lat": 38.92550983333334, "type": "electric_scooter", "is_disabled": 0, "rental_uris": {"android": "https://dc.lft.to/lastmile_qr_scan", "ios": "https://dc.lft.to/lastmile_qr_scan"}, "is_reserved": 0, "bike_id": "7c1b49191cca4aa5abcceef26d473e88", "name": "7c1b49191cca4aa5abcceef26d473e88", "fusion_lon": 0.0, "lon": -77.051874, "fusion_lat": 0.0}, {"lat": 38.88659366666667, "type": "electric_scooter", "is_disabled": 0, "rental_uris": {"android": "https://dc.lft.to/lastmile_qr_scan", "ios": "https://dc.lft.to/lastmile_qr_scan"}, "is_reserved": 0, "bike_id": "6d53b1a51aba87b9948bf5c8dfea8630", "name": "6d53b1a51aba87b9948bf5c8dfea8630", "fusion_lon": 0.0, "lon": -77.033841, "fusion_lat": 0.0}, {"lat": 38.8757555, "type": "electric_scooter", "is_disabled": 0, "rental_uris": {"android": "https://dc.lft.to/lastmile_qr_scan", "ios": "https://dc.lft.to/lastmile_qr_scan"}, "is_reserved": 0, "bike_id": "b9339de75e8ec5a8045067807f91c750", "name": "b9339de75e8ec5a8045067807f91c750", "fusion_lon": 0.0, "lon": -77.01990133333334, "fusion_lat": 0.0}, {"lat": 38.89996416666666, "type": "electric_scooter", "is_disabled": 0, "rental_uris": {"android": "https://dc.lft.to/lastmile_qr_scan", "ios": "https://dc.lft.to/lastmile_qr_scan"}, "is_reserved": 0, "bike_id": "be46ea44bef4063da21e24b0513e3fa6", "name": "be46ea44bef4063da21e24b0513e3fa6", "fusion_lon": 0.0, "lon": -76.99854233333333, "fusion_lat": 0.0}, {"lat": 38.95357883333333, "type": "electric_bike", "is_disabled": 0, "rental_uris": {"android": "https://dc.lft.to/lastmile_qr_scan", "ios": "https://dc.lft.to/lastmile_qr_scan"}, "is_reserved": 0, "bike_id": "f7652ff2ae824d96de9d91ed3d8ca060", "name": "f7652ff2ae824d96de9d91ed3d8ca060", "fusion_lon": 0.0, "lon": -76.98095516666666, "fusion_lat": 0.0}, {"lat": 38.93309, "type": "electric_scooter", "is_disabled": 0, "rental_uris": {"android": "https://dc.lft.to/lastmile_qr_scan", "ios": "https://dc.lft.to/lastmile_qr_scan"}, "is_reserved": 0, "bike_id": "b332e59ead9660f91bfff866119f6af9", "name": "b332e59ead9660f91bfff866119f6af9", "fusion_lon": 0.0, "lon": -77.03583616666667, "fusion_lat": 0.0}, {"lat": 38.92150516666667, "type": "electric_scooter", "is_disabled": 0, "rental_uris": {"android": "https://dc.lft.to/lastmile_qr_scan", "ios": "https://dc.lft.to/lastmile_qr_scan"}, "is_reserved": 0, "bike_id": "bc6f2635371de85895cdb132e8f94586", "name": "bc6f2635371de85895cdb132e8f94586", "fusion_lon": 0.0, "lon": -77.035062, "fusion_lat": 0.0}, {"lat": 38.90274016666667, "type": "electric_scooter", "is_disabled": 0, "rental_uris": {"android": "https://dc.lft.to/lastmile_qr_scan", "ios": "https://dc.lft.to/lastmile_qr_scan"}, "is_reserved": 0, "bike_id": "401b07b3d3d841c16f945b1ee1291516", "name": "401b07b3d3d841c16f945b1ee1291516", "fusion_lon": 0.0, "lon": -77.03847766666667, "fusion_lat": 0.0}, {"lat": 38.8934045, "type": "electric_scooter", "is_disabled": 0, "rental_uris": {"android": "https://dc.lft.to/lastmile_qr_scan", "ios": "https://dc.lft.to/lastmile_qr_scan"}, "is_reserved": 0, "bike_id": "58ea4941b891c1637474da6300e1698d", "name": "58ea4941b891c1637474da6300e1698d", "fusion_lon": 0.0, "lon": -77.04654066666667, "fusion_lat": 0.0}, {"lat": 38.89675366666667, "type": "electric_scooter", "is_disabled": 0, "rental_uris": {"android": "https://dc.lft.to/lastmile_qr_scan", "ios": "https://dc.lft.to/lastmile_qr_scan"}, "is_reserved": 0, "bike_id": "ada65e7f6a3de9fe4343df66eacec6af", "name": "ada65e7f6a3de9fe4343df66eacec6af", "fusion_lon": 0.0, "lon": -76.9471795, "fusion_lat": 0.0}, {"lat": 38.91124166666667, "type": "electric_scooter", "is_disabled": 0, "rental_uris": {"android": "https://dc.lft.to/lastmile_qr_scan", "ios": "https://dc.lft.to/lastmile_qr_scan"}, "is_reserved": 0, "bike_id": "321d8e57787a463681de87e3ea3d7695", "name": "321d8e57787a463681de87e3ea3d7695", "fusion_lon": 0.0, "lon": -77.0314805, "fusion_lat": 0.0}, {"lat": 38.9086695, "type": "electric_scooter", "is_disabled": 0, "rental_uris": {"android": "https://dc.lft.to/lastmile_qr_scan", "ios": "https://dc.lft.to/lastmile_qr_scan"}, "is_reserved": 0, "bike_id": "24bcd1ef479ddd4d26576a64eb795fc4", "name": "24bcd1ef479ddd4d26576a64eb795fc4", "fusion_lon": 0.0, "lon": -77.02384866666667, "fusion_lat": 0.0}, {"lat": 38.91784233333333, "type": "electric_scooter", "is_disabled": 0, "rental_uris": {"android": "https://dc.lft.to/lastmile_qr_scan", "ios": "https://dc.lft.to/lastmile_qr_scan"}, "is_reserved": 0, "bike_id": "0993f19da93bdf0282600c09d38b40c1", "name": "0993f19da93bdf0282600c09d38b40c1", "fusion_lon": 0.0, "lon": -77.023101, "fusion_lat": 0.0}, {"lat": 38.904281166666664, "type": "electric_scooter", "is_disabled": 0, "rental_uris": {"android": "https://dc.lft.to/lastmile_qr_scan", "ios": "https://dc.lft.to/lastmile_qr_scan"}, "is_reserved": 0, "bike_id": "18af3dbe38f1740ce61defd6aeb314c6", "name": "18af3dbe38f1740ce61defd6aeb314c6", "fusion_lon": 0.0, "lon": -77.04893466666667, "fusion_lat": 0.0}, {"lat": 38.907495, "type": "electric_scooter", "is_disabled": 0, "rental_uris": {"android": "https://dc.lft.to/lastmile_qr_scan", "ios": "https://dc.lft.to/lastmile_qr_scan"}, "is_reserved": 0, "bike_id": "d0911e0900f46777a7ace4b3fc69f173", "name": "d0911e0900f46777a7ace4b3fc69f173", "fusion_lon": 0.0, "lon": -77.03464866666667, "fusion_lat": 0.0}, {"lat": 38.9122625, "type": "electric_scooter", "is_disabled": 0, "rental_uris": {"android": "https://dc.lft.to/lastmile_qr_scan", "ios": "https://dc.lft.to/lastmile_qr_scan"}, "is_reserved": 0, "bike_id": "32bd99865c2d8501805404d9610627d3", "name": "32bd99865c2d8501805404d9610627d3", "fusion_lon": 0.0, "lon": -77.03203216666667, "fusion_lat": 0.0}, {"lat": 38.91420016666667, "type": "electric_scooter", "is_disabled": 0, "rental_uris": {"android": "https://dc.lft.to/lastmile_qr_scan", "ios": "https://dc.lft.to/lastmile_qr_scan"}, "is_reserved": 0, "bike_id": "a865ec29f3aac59d7eb6ad191a97affe", "name": "a865ec29f3aac59d7eb6ad191a97affe", "fusion_lon": 0.0, "lon": -77.04155616666667, "fusion_lat": 0.0}, {"lat": 38.90665033333333, "type": "electric_scooter", "is_disabled": 0, "rental_uris": {"android": "https://dc.lft.to/lastmile_qr_scan", "ios": "https://dc.lft.to/lastmile_qr_scan"}, "is_reserved": 0, "bike_id": "5aa676ea6a0295da2777edc934cdee37", "name": "5aa676ea6a0295da2777edc934cdee37", "fusion_lon": 0.0, "lon": -77.04185316666667, "fusion_lat": 0.0}, {"lat": 38.906017166666665, "type": "electric_scooter", "is_disabled": 0, "rental_uris": {"android": "https://dc.lft.to/lastmile_qr_scan", "ios": "https://dc.lft.to/lastmile_qr_scan"}, "is_reserved": 0, "bike_id": "93f61e8134c37db1f4a9238de37c8860", "name": "93f61e8134c37db1f4a9238de37c8860", "fusion_lon": 0.0, "lon": -77.04366233333333, "fusion_lat": 0.0}, {"lat": 38.84843933333333, "type": "electric_bike", "is_disabled": 0, "rental_uris": {"android": "https://dc.lft.to/lastmile_qr_scan", "ios": "https://dc.lft.to/lastmile_qr_scan"}, "is_reserved": 0, "bike_id": "f5dd1a7464f7e497888933cf96c41dd8", "name": "f5dd1a7464f7e497888933cf96c41dd8", "fusion_lon": 0.0, "lon": -77.08049783333334, "fusion_lat": 0.0}, {"lat": 38.91793083333334, "type": "electric_scooter", "is_disabled": 0, "rental_uris": {"android": "https://dc.lft.to/lastmile_qr_scan", "ios": "https://dc.lft.to/lastmile_qr_scan"}, "is_reserved": 0, "bike_id": "4d8780978fdf1fbc162704f048805eed", "name": "4d8780978fdf1fbc162704f048805eed", "fusion_lon": 0.0, "lon": -77.0320765, "fusion_lat": 0.0}, {"lat": 38.86716883333333, "type": "electric_scooter", "is_disabled": 0, "rental_uris": {"android": "https://dc.lft.to/lastmile_qr_scan", "ios": "https://dc.lft.to/lastmile_qr_scan"}, "is_reserved": 0, "bike_id": "0b3b9434cae8d968839175f6f5ec1ddc", "name": "0b3b9434cae8d968839175f6f5ec1ddc", "fusion_lon": 0.0, "lon": -76.987268, "fusion_lat": 0.0}, {"lat": 38.93087083333333, "type": "electric_scooter", "is_disabled": 0, "rental_uris": {"android": "https://dc.lft.to/lastmile_qr_scan", "ios": "https://dc.lft.to/lastmile_qr_scan"}, "is_reserved": 0, "bike_id": "2f840e91f57e13b0ddbc1487f0cc0a56", "name": "2f840e91f57e13b0ddbc1487f0cc0a56", "fusion_lon": 0.0, "lon": -77.02792883333333, "fusion_lat": 0.0}, {"lat": 38.9058535, "type": "electric_scooter", "is_disabled": 0, "rental_uris": {"android": "https://dc.lft.to/lastmile_qr_scan", "ios": "https://dc.lft.to/lastmile_qr_scan"}, "is_reserved": 0, "bike_id": "1847ce514cf5bbb011e3ea32ac60f2eb", "name": "1847ce514cf5bbb011e3ea32ac60f2eb", "fusion_lon": 0.0, "lon": -77.00711333333334, "fusion_lat": 0.0}, {"lat": 38.93019783333333, "type": "electric_scooter", "is_disabled": 0, "rental_uris": {"android": "https://dc.lft.to/lastmile_qr_scan", "ios": "https://dc.lft.to/lastmile_qr_scan"}, "is_reserved": 0, "bike_id": "3ef73ebabd22a4a57e5e692b7253156b", "name": "3ef73ebabd22a4a57e5e692b7253156b", "fusion_lon": 0.0, "lon": -77.05554466666666, "fusion_lat": 0.0}, {"lat": 38.915145, "type": "electric_scooter", "is_disabled": 0, "rental_uris": {"android": "https://dc.lft.to/lastmile_qr_scan", "ios": "https://dc.lft.to/lastmile_qr_scan"}, "is_reserved": 0, "bike_id": "b8cb4fc3941719086e76332737e1e46d", "name": "b8cb4fc3941719086e76332737e1e46d", "fusion_lon": 0.0, "lon": -77.0120785, "fusion_lat": 0.0}, {"lat": 38.8982855, "type": "electric_scooter", "is_disabled": 0, "rental_uris": {"android": "https://dc.lft.to/lastmile_qr_scan", "ios": "https://dc.lft.to/lastmile_qr_scan"}, "is_reserved": 0, "bike_id": "1649616d205c3a517fcd138499f0c091", "name": "1649616d205c3a517fcd138499f0c091", "fusion_lon": 0.0, "lon": -77.043266, "fusion_lat": 0.0}, {"lat": 38.903660333333335, "type": "electric_scooter", "is_disabled": 0, "rental_uris": {"android": "https://dc.lft.to/lastmile_qr_scan", "ios": "https://dc.lft.to/lastmile_qr_scan"}, "is_reserved": 0, "bike_id": "b65d8de2fcc0f08534ec708118b5cccf", "name": "b65d8de2fcc0f08534ec708118b5cccf", "fusion_lon": 0.0, "lon": -77.0333805, "fusion_lat": 0.0}, {"lat": 38.910350333333334, "type": "electric_scooter", "is_disabled": 0, "rental_uris": {"android": "https://dc.lft.to/lastmile_qr_scan", "ios": "https://dc.lft.to/lastmile_qr_scan"}, "is_reserved": 0, "bike_id": "d0ed6f2268980f9bb66de038139a0345", "name": "d0ed6f2268980f9bb66de038139a0345", "fusion_lon": 0.0, "lon": -77.0435855, "fusion_lat": 0.0}, {"lat": 38.908619333333334, "type": "electric_scooter", "is_disabled": 0, "rental_uris": {"android": "https://dc.lft.to/lastmile_qr_scan", "ios": "https://dc.lft.to/lastmile_qr_scan"}, "is_reserved": 0, "bike_id": "0c6ba67b0975b23f5bbfcad2885c9a62", "name": "0c6ba67b0975b23f5bbfcad2885c9a62", "fusion_lon": 0.0, "lon": -77.0454955, "fusion_lat": 0.0}, {"lat": 38.899907166666665, "type": "electric_scooter", "is_disabled": 0, "rental_uris": {"android": "https://dc.lft.to/lastmile_qr_scan", "ios": "https://dc.lft.to/lastmile_qr_scan"}, "is_reserved": 0, "bike_id": "9e1bca744474531fb509dd4f421d7dcf", "name": "9e1bca744474531fb509dd4f421d7dcf", "fusion_lon": 0.0, "lon": -77.04183966666666, "fusion_lat": 0.0}, {"lat": 38.92468, "type": "electric_scooter", "is_disabled": 0, "rental_uris": {"android": "https://dc.lft.to/lastmile_qr_scan", "ios": "https://dc.lft.to/lastmile_qr_scan"}, "is_reserved": 0, "bike_id": "00380b320965cae8790968fba32eca8a", "name": "00380b320965cae8790968fba32eca8a", "fusion_lon": 0.0, "lon": -77.07860333333333, "fusion_lat": 0.0}, {"lat": 38.87758633333333, "type": "electric_bike", "is_disabled": 0, "rental_uris": {"android": "https://dc.lft.to/lastmile_qr_scan", "ios": "https://dc.lft.to/lastmile_qr_scan"}, "is_reserved": 0, "bike_id": "908fff222fe62a611d4e8a4e45ce6516", "name": "908fff222fe62a611d4e8a4e45ce6516", "fusion_lon": 0.0, "lon": -76.97993083333333, "fusion_lat": 0.0}, {"lat": 38.885991833333335, "type": "electric_scooter", "is_disabled": 0, "rental_uris": {"android": "https://dc.lft.to/lastmile_qr_scan", "ios": "https://dc.lft.to/lastmile_qr_scan"}, "is_reserved": 0, "bike_id": "0b0efd880f69cc0cceb321f7c5d51a7f", "name": "0b0efd880f69cc0cceb321f7c5d51a7f", "fusion_lon": 0.0, "lon": -77.017674, "fusion_lat": 0.0}, {"lat": 38.90801483333333, "type": "electric_scooter", "is_disabled": 0, "rental_uris": {"android": "https://dc.lft.to/lastmile_qr_scan", "ios": "https://dc.lft.to/lastmile_qr_scan"}, "is_reserved": 0, "bike_id": "751a475da708051363c4614921792080", "name": "751a475da708051363c4614921792080", "fusion_lon": 0.0, "lon": -76.9853445, "fusion_lat": 0.0}, {"lat": 38.92643833333333, "type": "electric_scooter", "is_disabled": 0, "rental_uris": {"android": "https://dc.lft.to/lastmile_qr_scan", "ios": "https://dc.lft.to/lastmile_qr_scan"}, "is_reserved": 0, "bike_id": "c7481ec00234f2273e0b8e648d852458", "name": "c7481ec00234f2273e0b8e648d852458", "fusion_lon": 0.0, "lon": -77.0379205, "fusion_lat": 0.0}, {"lat": 38.897480333333334, "type": "electric_scooter", "is_disabled": 0, "rental_uris": {"android": "https://dc.lft.to/lastmile_qr_scan", "ios": "https://dc.lft.to/lastmile_qr_scan"}, "is_reserved": 0, "bike_id": "6819fb31e72c67d5ccea9395a80e7cc0", "name": "6819fb31e72c67d5ccea9395a80e7cc0", "fusion_lon": 0.0, "lon": -77.02986933333334, "fusion_lat": 0.0}, {"lat": 38.93965933333333, "type": "electric_bike", "is_disabled": 0, "rental_uris": {"android": "https://dc.lft.to/lastmile_qr_scan", "ios": "https://dc.lft.to/lastmile_qr_scan"}, "is_reserved": 0, "bike_id": "d138c8073deb7a934d533b680564ac06", "name": "d138c8073deb7a934d533b680564ac06", "fusion_lon": 0.0, "lon": -77.36090083333333, "fusion_lat": 0.0}, {"lat": 38.920783666666665, "type": "electric_scooter", "is_disabled": 0, "rental_uris": {"android": "https://dc.lft.to/lastmile_qr_scan", "ios": "https://dc.lft.to/lastmile_qr_scan"}, "is_reserved": 0, "bike_id": "4289c1993e299e22d7b948ffeef3b0f8", "name": "4289c1993e299e22d7b948ffeef3b0f8", "fusion_lon": 0.0, "lon": -77.025123, "fusion_lat": 0.0}, {"lat": 38.92573316666667, "type": "electric_scooter", "is_disabled": 0, "rental_uris": {"android": "https://dc.lft.to/lastmile_qr_scan", "ios": "https://dc.lft.to/lastmile_qr_scan"}, "is_reserved": 0, "bike_id": "ca99c71ab6663fdca9ad33183541bdc0", "name": "ca99c71ab6663fdca9ad33183541bdc0", "fusion_lon": 0.0, "lon": -77.080593, "fusion_lat": 0.0}, {"lat": 38.930266833333334, "type": "electric_scooter", "is_disabled": 0, "rental_uris": {"android": "https://dc.lft.to/lastmile_qr_scan", "ios": "https://dc.lft.to/lastmile_qr_scan"}, "is_reserved": 0, "bike_id": "c88c24d955c4cf3a39b0b42d4785c34f", "name": "c88c24d955c4cf3a39b0b42d4785c34f", "fusion_lon": 0.0, "lon": -77.01360266666667, "fusion_lat": 0.0}, {"lat": 38.90976966666667, "type": "electric_scooter", "is_disabled": 0, "rental_uris": {"android": "https://dc.lft.to/lastmile_qr_scan", "ios": "https://dc.lft.to/lastmile_qr_scan"}, "is_reserved": 0, "bike_id": "833ea272da41403113977d6d38859036", "name": "833ea272da41403113977d6d38859036", "fusion_lon": 0.0, "lon": -77.03292266666666, "fusion_lat": 0.0}, {"lat": 38.914664, "type": "electric_scooter", "is_disabled": 0, "rental_uris": {"android": "https://dc.lft.to/lastmile_qr_scan", "ios": "https://dc.lft.to/lastmile_qr_scan"}, "is_reserved": 0, "bike_id": "9671fb53b20b61103eab2e6ca6a95157", "name": "9671fb53b20b61103eab2e6ca6a95157", "fusion_lon": 0.0, "lon": -76.98445683333334, "fusion_lat": 0.0}, {"lat": 38.90131783333333, "type": "electric_scooter", "is_disabled": 0, "rental_uris": {"android": "https://dc.lft.to/lastmile_qr_scan", "ios": "https://dc.lft.to/lastmile_qr_scan"}, "is_reserved": 0, "bike_id": "6e0747f5c1860c323c2df238db4faf16", "name": "6e0747f5c1860c323c2df238db4faf16", "fusion_lon": 0.0, "lon": -77.02794016666667, "fusion_lat": 0.0}, {"lat": 38.917738, "type": "electric_scooter", "is_disabled": 0, "rental_uris": {"android": "https://dc.lft.to/lastmile_qr_scan", "ios": "https://dc.lft.to/lastmile_qr_scan"}, "is_reserved": 0, "bike_id": "ac6cc2fc9adb786d164ced13c4d10363", "name": "ac6cc2fc9adb786d164ced13c4d10363", "fusion_lon": 0.0, "lon": -77.01490366666667, "fusion_lat": 0.0}, {"lat": 38.88758166666667, "type": "electric_scooter", "is_disabled": 0, "rental_uris": {"android": "https://dc.lft.to/lastmile_qr_scan", "ios": "https://dc.lft.to/lastmile_qr_scan"}, "is_reserved": 0, "bike_id": "90c26e7e575dcbf2fadaffa0dda83942", "name": "90c26e7e575dcbf2fadaffa0dda83942", "fusion_lon": 0.0, "lon": -77.0211815, "fusion_lat": 0.0}, {"lat": 38.893578166666664, "type": "electric_scooter", "is_disabled": 0, "rental_uris": {"android": "https://dc.lft.to/lastmile_qr_scan", "ios": "https://dc.lft.to/lastmile_qr_scan"}, "is_reserved": 0, "bike_id": "2f7ac4c4b83659542c4441a84d2f95e8", "name": "2f7ac4c4b83659542c4441a84d2f95e8", "fusion_lon": 0.0, "lon": -77.00335716666666, "fusion_lat": 0.0}, {"lat": 39.0581375, "type": "electric_bike", "is_disabled": 0, "rental_uris": {"android": "https://dc.lft.to/lastmile_qr_scan", "ios": "https://dc.lft.to/lastmile_qr_scan"}, "is_reserved": 0, "bike_id": "3d42821b9a849cd2f1fc68bdf9d311fc", "name": "3d42821b9a849cd2f1fc68bdf9d311fc", "fusion_lon": 0.0, "lon": -77.1262705, "fusion_lat": 0.0}, {"lat": 38.892314166666665, "type": "electric_scooter", "is_disabled": 0, "rental_uris": {"android": "https://dc.lft.to/lastmile_qr_scan", "ios": "https://dc.lft.to/lastmile_qr_scan"}, "is_reserved": 0, "bike_id": "6e2b8d1ba2610508c06d41d72ca95452", "name": "6e2b8d1ba2610508c06d41d72ca95452", "fusion_lon": 0.0, "lon": -77.03181916666666, "fusion_lat": 0.0}, {"lat": 38.90194283333334, "type": "electric_scooter", "is_disabled": 0, "rental_uris": {"android": "https://dc.lft.to/lastmile_qr_scan", "ios": "https://dc.lft.to/lastmile_qr_scan"}, "is_reserved": 0, "bike_id": "683dea5a75b697d13311d635fa92ec54", "name": "683dea5a75b697d13311d635fa92ec54", "fusion_lon": 0.0, "lon": -77.02400683333333, "fusion_lat": 0.0}, {"lat": 38.90515666666667, "type": "electric_scooter", "is_disabled": 0, "rental_uris": {"android": "https://dc.lft.to/lastmile_qr_scan", "ios": "https://dc.lft.to/lastmile_qr_scan"}, "is_reserved": 0, "bike_id": "9624b74eb255d6b5a36097cd3abc644c", "name": "9624b74eb255d6b5a36097cd3abc644c", "fusion_lon": 0.0, "lon": -77.06151983333334, "fusion_lat": 0.0}, {"lat": 38.887500833333334, "type": "electric_scooter", "is_disabled": 0, "rental_uris": {"android": "https://dc.lft.to/lastmile_qr_scan", "ios": "https://dc.lft.to/lastmile_qr_scan"}, "is_reserved": 0, "bike_id": "f35efacd93fdad8738f870734a2db11b", "name": "f35efacd93fdad8738f870734a2db11b", "fusion_lon": 0.0, "lon": -77.0222165, "fusion_lat": 0.0}, {"lat": 38.9274885, "type": "electric_scooter", "is_disabled": 0, "rental_uris": {"android": "https://dc.lft.to/lastmile_qr_scan", "ios": "https://dc.lft.to/lastmile_qr_scan"}, "is_reserved": 0, "bike_id": "d6ed02e1bfe8187074e1230c3502a4a5", "name": "d6ed02e1bfe8187074e1230c3502a4a5", "fusion_lon": 0.0, "lon": -77.03304166666666, "fusion_lat": 0.0}, {"lat": 38.9297195, "type": "electric_scooter", "is_disabled": 0, "rental_uris": {"android": "https://dc.lft.to/lastmile_qr_scan", "ios": "https://dc.lft.to/lastmile_qr_scan"}, "is_reserved": 0, "bike_id": "b8003707c443cd579160b13b65d0158a", "name": "b8003707c443cd579160b13b65d0158a", "fusion_lon": 0.0, "lon": -77.0053405, "fusion_lat": 0.0}, {"lat": 38.92268466666667, "type": "electric_scooter", "is_disabled": 0, "rental_uris": {"android": "https://dc.lft.to/lastmile_qr_scan", "ios": "https://dc.lft.to/lastmile_qr_scan"}, "is_reserved": 0, "bike_id": "219b6c8d1653bcbd8d6dbb2f4f925aa3", "name": "219b6c8d1653bcbd8d6dbb2f4f925aa3", "fusion_lon": 0.0, "lon": -77.0420415, "fusion_lat": 0.0}, {"lat": 38.865338, "type": "electric_bike", "is_disabled": 0, "rental_uris": {"android": "https://dc.lft.to/lastmile_qr_scan", "ios": "https://dc.lft.to/lastmile_qr_scan"}, "is_reserved": 0, "bike_id": "9d6edf3daa1ccc9848ef2e95b9356cf8", "name": "9d6edf3daa1ccc9848ef2e95b9356cf8", "fusion_lon": 0.0, "lon": -77.1281505, "fusion_lat": 0.0}, {"lat": 38.82448333333333, "type": "electric_bike", "is_disabled": 0, "rental_uris": {"android": "https://dc.lft.to/lastmile_qr_scan", "ios": "https://dc.lft.to/lastmile_qr_scan"}, "is_reserved": 0, "bike_id": "2da7b5d413ea41105fb13378b65a6d8f", "name": "2da7b5d413ea41105fb13378b65a6d8f", "fusion_lon": 0.0, "lon": -77.07043633333333, "fusion_lat": 0.0}, {"lat": 38.89615766666667, "type": "electric_scooter", "is_disabled": 0, "rental_uris": {"android": "https://dc.lft.to/lastmile_qr_scan", "ios": "https://dc.lft.to/lastmile_qr_scan"}, "is_reserved": 0, "bike_id": "c3e0858690f0ae62fcf50a54c9a5ab12", "name": "c3e0858690f0ae62fcf50a54c9a5ab12", "fusion_lon": 0.0, "lon": -77.04793016666666, "fusion_lat": 0.0}, {"lat": 38.89224216666667, "type": "electric_scooter", "is_disabled": 0, "rental_uris": {"android": "https://dc.lft.to/lastmile_qr_scan", "ios": "https://dc.lft.to/lastmile_qr_scan"}, "is_reserved": 0, "bike_id": "bf1f251af17e894767d7f47f2477b755", "name": "bf1f251af17e894767d7f47f2477b755", "fusion_lon": 0.0, "lon": -77.02257933333334, "fusion_lat": 0.0}, {"lat": 38.91903816666667, "type": "electric_scooter", "is_disabled": 0, "rental_uris": {"android": "https://dc.lft.to/lastmile_qr_scan", "ios": "https://dc.lft.to/lastmile_qr_scan"}, "is_reserved": 0, "bike_id": "4378856a985a06ab878bc9e73d99a83f", "name": "4378856a985a06ab878bc9e73d99a83f", "fusion_lon": 0.0, "lon": -77.00320583333334, "fusion_lat": 0.0}, {"lat": 38.922811, "type": "electric_scooter", "is_disabled": 0, "rental_uris": {"android": "https://dc.lft.to/lastmile_qr_scan", "ios": "https://dc.lft.to/lastmile_qr_scan"}, "is_reserved": 0, "bike_id": "c119c0592eded7246ecf6b7e2223223f", "name": "c119c0592eded7246ecf6b7e2223223f", "fusion_lon": 0.0, "lon": -77.0445855, "fusion_lat": 0.0}, {"lat": 38.932787833333336, "type": "electric_scooter", "is_disabled": 0, "rental_uris": {"android": "https://dc.lft.to/lastmile_qr_scan", "ios": "https://dc.lft.to/lastmile_qr_scan"}, "is_reserved": 0, "bike_id": "cafa3b717d576a2abc697d0ba0d12cef", "name": "cafa3b717d576a2abc697d0ba0d12cef", "fusion_lon": 0.0, "lon": -77.0391925, "fusion_lat": 0.0}, {"lat": 38.916828, "type": "electric_bike", "is_disabled": 0, "rental_uris": {"android": "https://dc.lft.to/lastmile_qr_scan", "ios": "https://dc.lft.to/lastmile_qr_scan"}, "is_reserved": 0, "bike_id": "a03c9b5f79c9febebdd94c61838a45ad", "name": "a03c9b5f79c9febebdd94c61838a45ad", "fusion_lon": 0.0, "lon": -77.095775, "fusion_lat": 0.0}, {"lat": 38.91406966666667, "type": "electric_scooter", "is_disabled": 0, "rental_uris": {"android": "https://dc.lft.to/lastmile_qr_scan", "ios": "https://dc.lft.to/lastmile_qr_scan"}, "is_reserved": 0, "bike_id": "fa0c6277ecdf3af626797a14abd1593f", "name": "fa0c6277ecdf3af626797a14abd1593f", "fusion_lon": 0.0, "lon": -77.03219366666667, "fusion_lat": 0.0}, {"lat": 38.86372933333333, "type": "electric_scooter", "is_disabled": 0, "rental_uris": {"android": "https://dc.lft.to/lastmile_qr_scan", "ios": "https://dc.lft.to/lastmile_qr_scan"}, "is_reserved": 0, "bike_id": "2d4adf142c099f5bcded70df6f4875a8", "name": "2d4adf142c099f5bcded70df6f4875a8", "fusion_lon": 0.0, "lon": -76.9906235, "fusion_lat": 0.0}, {"lat": 38.92880233333333, "type": "electric_scooter", "is_disabled": 0, "rental_uris": {"android": "https://dc.lft.to/lastmile_qr_scan", "ios": "https://dc.lft.to/lastmile_qr_scan"}, "is_reserved": 0, "bike_id": "b7660ceb1accd775fd3768ee5d7af762", "name": "b7660ceb1accd775fd3768ee5d7af762", "fusion_lon": 0.0, "lon": -77.03423783333334, "fusion_lat": 0.0}, {"lat": 39.11512283333333, "type": "electric_bike", "is_disabled": 0, "rental_uris": {"android": "https://dc.lft.to/lastmile_qr_scan", "ios": "https://dc.lft.to/lastmile_qr_scan"}, "is_reserved": 0, "bike_id": "38a0ad9f91cf4021fadedd1f2a58a142", "name": "38a0ad9f91cf4021fadedd1f2a58a142", "fusion_lon": 0.0, "lon": -77.195468, "fusion_lat": 0.0}, {"lat": 38.83813683333333, "type": "electric_scooter", "is_disabled": 0, "rental_uris": {"android": "https://dc.lft.to/lastmile_qr_scan", "ios": "https://dc.lft.to/lastmile_qr_scan"}, "is_reserved": 0, "bike_id": "9e4408db9e3e7a50ae67797ddd4ca1a0", "name": "9e4408db9e3e7a50ae67797ddd4ca1a0", "fusion_lon": 0.0, "lon": -77.00432366666666, "fusion_lat": 0.0}, {"lat": 38.930496, "type": "electric_scooter", "is_disabled": 0, "rental_uris": {"android": "https://dc.lft.to/lastmile_qr_scan", "ios": "https://dc.lft.to/lastmile_qr_scan"}, "is_reserved": 0, "bike_id": "f30b8e71b01305115bc2d0c83abac7c1", "name": "f30b8e71b01305115bc2d0c83abac7c1", "fusion_lon": 0.0, "lon": -77.00418583333334, "fusion_lat": 0.0}, {"lat": 38.94284666666667, "type": "electric_scooter", "is_disabled": 0, "rental_uris": {"android": "https://dc.lft.to/lastmile_qr_scan", "ios": "https://dc.lft.to/lastmile_qr_scan"}, "is_reserved": 0, "bike_id": "88792083a8c0029be4031026a27d509d", "name": "88792083a8c0029be4031026a27d509d", "fusion_lon": 0.0, "lon": -77.02349566666666, "fusion_lat": 0.0}, {"lat": 38.91576216666667, "type": "electric_scooter", "is_disabled": 0, "rental_uris": {"android": "https://dc.lft.to/lastmile_qr_scan", "ios": "https://dc.lft.to/lastmile_qr_scan"}, "is_reserved": 0, "bike_id": "d16c6eb006499dbbc385877cbd53c1a5", "name": "d16c6eb006499dbbc385877cbd53c1a5", "fusion_lon": 0.0, "lon": -77.0467715, "fusion_lat": 0.0}, {"lat": 38.8976925, "type": "electric_scooter", "is_disabled": 0, "rental_uris": {"android": "https://dc.lft.to/lastmile_qr_scan", "ios": "https://dc.lft.to/lastmile_qr_scan"}, "is_reserved": 0, "bike_id": "eab86c52c2990951323212169d5e0772", "name": "eab86c52c2990951323212169d5e0772", "fusion_lon": 0.0, "lon": -77.022052, "fusion_lat": 0.0}, {"lat": 38.85724966666667, "type": "electric_bike", "is_disabled": 0, "rental_uris": {"android": "https://dc.lft.to/lastmile_qr_scan", "ios": "https://dc.lft.to/lastmile_qr_scan"}, "is_reserved": 0, "bike_id": "22373d782dbd78824264962c868ab8a1", "name": "22373d782dbd78824264962c868ab8a1", "fusion_lon": 0.0, "lon": -76.98111866666666, "fusion_lat": 0.0}, {"lat": 38.86247216666667, "type": "electric_scooter", "is_disabled": 0, "rental_uris": {"android": "https://dc.lft.to/lastmile_qr_scan", "ios": "https://dc.lft.to/lastmile_qr_scan"}, "is_reserved": 0, "bike_id": "d754bd48460ed8ffd78c936b6211f575", "name": "d754bd48460ed8ffd78c936b6211f575", "fusion_lon": 0.0, "lon": -76.99494866666667, "fusion_lat": 0.0}, {"lat": 38.910727333333334, "type": "electric_scooter", "is_disabled": 0, "rental_uris": {"android": "https://dc.lft.to/lastmile_qr_scan", "ios": "https://dc.lft.to/lastmile_qr_scan"}, "is_reserved": 0, "bike_id": "8ca7d0492c1d64ec0eef4b59d75423f9", "name": "8ca7d0492c1d64ec0eef4b59d75423f9", "fusion_lon": 0.0, "lon": -77.046069, "fusion_lat": 0.0}, {"lat": 38.924407333333335, "type": "electric_scooter", "is_disabled": 0, "rental_uris": {"android": "https://dc.lft.to/lastmile_qr_scan", "ios": "https://dc.lft.to/lastmile_qr_scan"}, "is_reserved": 0, "bike_id": "08019ca78e432bdc69902b2e74009d51", "name": "08019ca78e432bdc69902b2e74009d51", "fusion_lon": 0.0, "lon": -77.0353275, "fusion_lat": 0.0}, {"lat": 38.8992845, "type": "electric_scooter", "is_disabled": 0, "rental_uris": {"android": "https://dc.lft.to/lastmile_qr_scan", "ios": "https://dc.lft.to/lastmile_qr_scan"}, "is_reserved": 0, "bike_id": "df0595ad1fa9d96c9a5b77a9ef5c78a0", "name": "df0595ad1fa9d96c9a5b77a9ef5c78a0", "fusion_lon": 0.0, "lon": -77.03294516666666, "fusion_lat": 0.0}, {"lat": 38.9215045, "type": "electric_scooter", "is_disabled": 0, "rental_uris": {"android": "https://dc.lft.to/lastmile_qr_scan", "ios": "https://dc.lft.to/lastmile_qr_scan"}, "is_reserved": 0, "bike_id": "e3b2f6eb3f3182e370389459bbc8b9aa", "name": "e3b2f6eb3f3182e370389459bbc8b9aa", "fusion_lon": 0.0, "lon": -77.02961716666667, "fusion_lat": 0.0}, {"lat": 38.899286833333335, "type": "electric_scooter", "is_disabled": 0, "rental_uris": {"android": "https://dc.lft.to/lastmile_qr_scan", "ios": "https://dc.lft.to/lastmile_qr_scan"}, "is_reserved": 0, "bike_id": "40f12068102a6c18077309e251ba0269", "name": "40f12068102a6c18077309e251ba0269", "fusion_lon": 0.0, "lon": -77.027995, "fusion_lat": 0.0}, {"lat": 38.8853525, "type": "electric_scooter", "is_disabled": 0, "rental_uris": {"android": "https://dc.lft.to/lastmile_qr_scan", "ios": "https://dc.lft.to/lastmile_qr_scan"}, "is_reserved": 0, "bike_id": "41e230ef6f50f5394036b7ae5178628c", "name": "41e230ef6f50f5394036b7ae5178628c", "fusion_lon": 0.0, "lon": -76.92697533333333, "fusion_lat": 0.0}, {"lat": 38.933459, "type": "electric_scooter", "is_disabled": 0, "rental_uris": {"android": "https://dc.lft.to/lastmile_qr_scan", "ios": "https://dc.lft.to/lastmile_qr_scan"}, "is_reserved": 0, "bike_id": "32dfc517e8adf8b6bec3460650a1b906", "name": "32dfc517e8adf8b6bec3460650a1b906", "fusion_lon": 0.0, "lon": -77.04130883333333, "fusion_lat": 0.0}, {"lat": 38.91822783333333, "type": "electric_scooter", "is_disabled": 0, "rental_uris": {"android": "https://dc.lft.to/lastmile_qr_scan", "ios": "https://dc.lft.to/lastmile_qr_scan"}, "is_reserved": 0, "bike_id": "90fd83c7e34bfe49fc6f4744257f1eeb", "name": "90fd83c7e34bfe49fc6f4744257f1eeb", "fusion_lon": 0.0, "lon": -77.01212116666666, "fusion_lat": 0.0}, {"lat": 38.86738233333333, "type": "electric_scooter", "is_disabled": 0, "rental_uris": {"android": "https://dc.lft.to/lastmile_qr_scan", "ios": "https://dc.lft.to/lastmile_qr_scan"}, "is_reserved": 0, "bike_id": "27d1cbc8e0cd86b20bdc6b7e2484fab3", "name": "27d1cbc8e0cd86b20bdc6b7e2484fab3", "fusion_lon": 0.0, "lon": -76.97939883333333, "fusion_lat": 0.0}, {"lat": 38.90215633333333, "type": "electric_bike", "is_disabled": 0, "rental_uris": {"android": "https://dc.lft.to/lastmile_qr_scan", "ios": "https://dc.lft.to/lastmile_qr_scan"}, "is_reserved": 0, "bike_id": "3b295310dfe372d400387654cbf40303", "name": "3b295310dfe372d400387654cbf40303", "fusion_lon": 0.0, "lon": -77.04366966666667, "fusion_lat": 0.0}, {"lat": 38.92319233333333, "type": "electric_scooter", "is_disabled": 0, "rental_uris": {"android": "https://dc.lft.to/lastmile_qr_scan", "ios": "https://dc.lft.to/lastmile_qr_scan"}, "is_reserved": 0, "bike_id": "8ec9ea8cf3b0b05ae1a96f15c055b172", "name": "8ec9ea8cf3b0b05ae1a96f15c055b172", "fusion_lon": 0.0, "lon": -77.0461935, "fusion_lat": 0.0}, {"lat": 38.8975735, "type": "electric_scooter", "is_disabled": 0, "rental_uris": {"android": "https://dc.lft.to/lastmile_qr_scan", "ios": "https://dc.lft.to/lastmile_qr_scan"}, "is_reserved": 0, "bike_id": "009ad832d7fb922af95eb606292b88df", "name": "009ad832d7fb922af95eb606292b88df", "fusion_lon": 0.0, "lon": -77.05140316666666, "fusion_lat": 0.0}, {"lat": 38.922214333333336, "type": "electric_scooter", "is_disabled": 0, "rental_uris": {"android": "https://dc.lft.to/lastmile_qr_scan", "ios": "https://dc.lft.to/lastmile_qr_scan"}, "is_reserved": 0, "bike_id": "a404a824f18884c4b46fa19eca734cff", "name": "a404a824f18884c4b46fa19eca734cff", "fusion_lon": 0.0, "lon": -77.018193, "fusion_lat": 0.0}, {"lat": 38.918100833333334, "type": "electric_scooter", "is_disabled": 0, "rental_uris": {"android": "https://dc.lft.to/lastmile_qr_scan", "ios": "https://dc.lft.to/lastmile_qr_scan"}, "is_reserved": 0, "bike_id": "2143051a712311e1e9d21dba2f5c7aea", "name": "2143051a712311e1e9d21dba2f5c7aea", "fusion_lon": 0.0, "lon": -77.0356495, "fusion_lat": 0.0}, {"lat": 38.89750933333333, "type": "electric_scooter", "is_disabled": 0, "rental_uris": {"android": "https://dc.lft.to/lastmile_qr_scan", "ios": "https://dc.lft.to/lastmile_qr_scan"}, "is_reserved": 0, "bike_id": "b095003ad3d743118e22cbf1a602d73e", "name": "b095003ad3d743118e22cbf1a602d73e", "fusion_lon": 0.0, "lon": -77.04725883333333, "fusion_lat": 0.0}, {"lat": 38.91545166666667, "type": "electric_scooter", "is_disabled": 0, "rental_uris": {"android": "https://dc.lft.to/lastmile_qr_scan", "ios": "https://dc.lft.to/lastmile_qr_scan"}, "is_reserved": 0, "bike_id": "3439298294e602921c43045582659c29", "name": "3439298294e602921c43045582659c29", "fusion_lon": 0.0, "lon": -77.02202683333333, "fusion_lat": 0.0}, {"lat": 38.89254183333333, "type": "electric_scooter", "is_disabled": 0, "rental_uris": {"android": "https://dc.lft.to/lastmile_qr_scan", "ios": "https://dc.lft.to/lastmile_qr_scan"}, "is_reserved": 0, "bike_id": "b09fc53411eb14d4649334ed7ef42c99", "name": "b09fc53411eb14d4649334ed7ef42c99", "fusion_lon": 0.0, "lon": -76.9985325, "fusion_lat": 0.0}, {"lat": 38.88233266666667, "type": "electric_scooter", "is_disabled": 0, "rental_uris": {"android": "https://dc.lft.to/lastmile_qr_scan", "ios": "https://dc.lft.to/lastmile_qr_scan"}, "is_reserved": 0, "bike_id": "52ef858c3063073a5e70c45fac3f0978", "name": "52ef858c3063073a5e70c45fac3f0978", "fusion_lon": 0.0, "lon": -76.990774, "fusion_lat": 0.0}, {"lat": 38.865917833333334, "type": "electric_bike", "is_disabled": 0, "rental_uris": {"android": "https://dc.lft.to/lastmile_qr_scan", "ios": "https://dc.lft.to/lastmile_qr_scan"}, "is_reserved": 0, "bike_id": "4de9b15759fdbd10db56cc626c3ed7bf", "name": "4de9b15759fdbd10db56cc626c3ed7bf", "fusion_lon": 0.0, "lon": -76.93229, "fusion_lat": 0.0}, {"lat": 38.923063166666665, "type": "electric_scooter", "is_disabled": 0, "rental_uris": {"android": "https://dc.lft.to/lastmile_qr_scan", "ios": "https://dc.lft.to/lastmile_qr_scan"}, "is_reserved": 0, "bike_id": "9306f746fb57c73394baf508dd0cf78d", "name": "9306f746fb57c73394baf508dd0cf78d", "fusion_lon": 0.0, "lon": -77.04210433333333, "fusion_lat": 0.0}, {"lat": 38.9010305, "type": "electric_scooter", "is_disabled": 0, "rental_uris": {"android": "https://dc.lft.to/lastmile_qr_scan", "ios": "https://dc.lft.to/lastmile_qr_scan"}, "is_reserved": 0, "bike_id": "dfb638c26da4d6284b70bc60296b21ca", "name": "dfb638c26da4d6284b70bc60296b21ca", "fusion_lon": 0.0, "lon": -77.03386683333333, "fusion_lat": 0.0}, {"lat": 38.934064166666666, "type": "electric_scooter", "is_disabled": 0, "rental_uris": {"android": "https://dc.lft.to/lastmile_qr_scan", "ios": "https://dc.lft.to/lastmile_qr_scan"}, "is_reserved": 0, "bike_id": "9895420ef1a138f1d0aca6124b6cb857", "name": "9895420ef1a138f1d0aca6124b6cb857", "fusion_lon": 0.0, "lon": -77.03256666666667, "fusion_lat": 0.0}, {"lat": 38.907498, "type": "electric_scooter", "is_disabled": 0, "rental_uris": {"android": "https://dc.lft.to/lastmile_qr_scan", "ios": "https://dc.lft.to/lastmile_qr_scan"}, "is_reserved": 0, "bike_id": "02167e8a39203c4dd1f4294d1c853ca6", "name": "02167e8a39203c4dd1f4294d1c853ca6", "fusion_lon": 0.0, "lon": -77.03464233333334, "fusion_lat": 0.0}, {"lat": 38.8900805, "type": "electric_scooter", "is_disabled": 0, "rental_uris": {"android": "https://dc.lft.to/lastmile_qr_scan", "ios": "https://dc.lft.to/lastmile_qr_scan"}, "is_reserved": 0, "bike_id": "3f5e8f3406c9028e638e122e0dd3b513", "name": "3f5e8f3406c9028e638e122e0dd3b513", "fusion_lon": 0.0, "lon": -76.93731283333334, "fusion_lat": 0.0}, {"lat": 38.919966333333335, "type": "electric_scooter", "is_disabled": 0, "rental_uris": {"android": "https://dc.lft.to/lastmile_qr_scan", "ios": "https://dc.lft.to/lastmile_qr_scan"}, "is_reserved": 0, "bike_id": "4f2fc49bb0ae8bdd998240749b212eac", "name": "4f2fc49bb0ae8bdd998240749b212eac", "fusion_lon": 0.0, "lon": -76.98393466666667, "fusion_lat": 0.0}, {"lat": 38.91564, "type": "electric_scooter", "is_disabled": 0, "rental_uris": {"android": "https://dc.lft.to/lastmile_qr_scan", "ios": "https://dc.lft.to/lastmile_qr_scan"}, "is_reserved": 0, "bike_id": "2a9c7fe854767294aabe00381493a095", "name": "2a9c7fe854767294aabe00381493a095", "fusion_lon": 0.0, "lon": -77.03872816666667, "fusion_lat": 0.0}, {"lat": 38.852162, "type": "electric_bike", "is_disabled": 0, "rental_uris": {"android": "https://dc.lft.to/lastmile_qr_scan", "ios": "https://dc.lft.to/lastmile_qr_scan"}, "is_reserved": 0, "bike_id": "08d6655f5bfdb213819406b305888cf4", "name": "08d6655f5bfdb213819406b305888cf4", "fusion_lon": 0.0, "lon": -77.12755916666667, "fusion_lat": 0.0}, {"lat": 38.909821666666666, "type": "electric_scooter", "is_disabled": 0, "rental_uris": {"android": "https://dc.lft.to/lastmile_qr_scan", "ios": "https://dc.lft.to/lastmile_qr_scan"}, "is_reserved": 0, "bike_id": "4055a5ed7749c2527df3e630832d4dd0", "name": "4055a5ed7749c2527df3e630832d4dd0", "fusion_lon": 0.0, "lon": -77.03397866666667, "fusion_lat": 0.0}, {"lat": 38.917522166666664, "type": "electric_scooter", "is_disabled": 0, "rental_uris": {"android": "https://dc.lft.to/lastmile_qr_scan", "ios": "https://dc.lft.to/lastmile_qr_scan"}, "is_reserved": 0, "bike_id": "75e9a88eaeae7518e8a3bf36300c4aec", "name": "75e9a88eaeae7518e8a3bf36300c4aec", "fusion_lon": 0.0, "lon": -77.03194366666666, "fusion_lat": 0.0}, {"lat": 38.9564945, "type": "electric_scooter", "is_disabled": 0, "rental_uris": {"android": "https://dc.lft.to/lastmile_qr_scan", "ios": "https://dc.lft.to/lastmile_qr_scan"}, "is_reserved": 0, "bike_id": "769b8d5331afc3d8822c29e9def5e68d", "name": "769b8d5331afc3d8822c29e9def5e68d", "fusion_lon": 0.0, "lon": -77.01493066666667, "fusion_lat": 0.0}, {"lat": 38.925752, "type": "electric_scooter", "is_disabled": 0, "rental_uris": {"android": "https://dc.lft.to/lastmile_qr_scan", "ios": "https://dc.lft.to/lastmile_qr_scan"}, "is_reserved": 0, "bike_id": "f9a3f29d8c9c986647e05ad0af7eac7e", "name": "f9a3f29d8c9c986647e05ad0af7eac7e", "fusion_lon": 0.0, "lon": -77.03099516666667, "fusion_lat": 0.0}, {"lat": 38.894905333333334, "type": "electric_scooter", "is_disabled": 0, "rental_uris": {"android": "https://dc.lft.to/lastmile_qr_scan", "ios": "https://dc.lft.to/lastmile_qr_scan"}, "is_reserved": 0, "bike_id": "1b9e42aa906727b7f5f6f769a05fbea8", "name": "1b9e42aa906727b7f5f6f769a05fbea8", "fusion_lon": 0.0, "lon": -77.00215716666666, "fusion_lat": 0.0}, {"lat": 38.89907, "type": "electric_scooter", "is_disabled": 0, "rental_uris": {"android": "https://dc.lft.to/lastmile_qr_scan", "ios": "https://dc.lft.to/lastmile_qr_scan"}, "is_reserved": 0, "bike_id": "9e32ba545abf5171b99237383ac14428", "name": "9e32ba545abf5171b99237383ac14428", "fusion_lon": 0.0, "lon": -77.03297816666667, "fusion_lat": 0.0}, {"lat": 38.9017425, "type": "electric_scooter", "is_disabled": 0, "rental_uris": {"android": "https://dc.lft.to/lastmile_qr_scan", "ios": "https://dc.lft.to/lastmile_qr_scan"}, "is_reserved": 0, "bike_id": "9b85f4dbda2e5c0ded3d30b1ac3d0372", "name": "9b85f4dbda2e5c0ded3d30b1ac3d0372", "fusion_lon": 0.0, "lon": -77.04735116666667, "fusion_lat": 0.0}, {"lat": 38.91808616666667, "type": "electric_scooter", "is_disabled": 0, "rental_uris": {"android": "https://dc.lft.to/lastmile_qr_scan", "ios": "https://dc.lft.to/lastmile_qr_scan"}, "is_reserved": 0, "bike_id": "3e78c8f7d2521037ac54696916948bda", "name": "3e78c8f7d2521037ac54696916948bda", "fusion_lon": 0.0, "lon": -77.02689016666666, "fusion_lat": 0.0}, {"lat": 38.941807833333336, "type": "electric_scooter", "is_disabled": 0, "rental_uris": {"android": "https://dc.lft.to/lastmile_qr_scan", "ios": "https://dc.lft.to/lastmile_qr_scan"}, "is_reserved": 0, "bike_id": "b0fbef6e7142b2b60836082bc6f99c80", "name": "b0fbef6e7142b2b60836082bc6f99c80", "fusion_lon": 0.0, "lon": -77.03654566666667, "fusion_lat": 0.0}, {"lat": 38.898291666666665, "type": "electric_scooter", "is_disabled": 0, "rental_uris": {"android": "https://dc.lft.to/lastmile_qr_scan", "ios": "https://dc.lft.to/lastmile_qr_scan"}, "is_reserved": 0, "bike_id": "4e4de662d88ab3502c25a85c2ae06052", "name": "4e4de662d88ab3502c25a85c2ae06052", "fusion_lon": 0.0, "lon": -77.00751766666667, "fusion_lat": 0.0}, {"lat": 38.92345433333333, "type": "electric_scooter", "is_disabled": 0, "rental_uris": {"android": "https://dc.lft.to/lastmile_qr_scan", "ios": "https://dc.lft.to/lastmile_qr_scan"}, "is_reserved": 0, "bike_id": "99c3e7558a9a7d8154f36542704965fc", "name": "99c3e7558a9a7d8154f36542704965fc", "fusion_lon": 0.0, "lon": -77.03514116666666, "fusion_lat": 0.0}, {"lat": 38.92342416666666, "type": "electric_scooter", "is_disabled": 0, "rental_uris": {"android": "https://dc.lft.to/lastmile_qr_scan", "ios": "https://dc.lft.to/lastmile_qr_scan"}, "is_reserved": 0, "bike_id": "fbfe8e70bc0a9a781a9c2f2c6d7fffed", "name": "fbfe8e70bc0a9a781a9c2f2c6d7fffed", "fusion_lon": 0.0, "lon": -77.03513083333333, "fusion_lat": 0.0}, {"lat": 38.91816633333333, "type": "electric_scooter", "is_disabled": 0, "rental_uris": {"android": "https://dc.lft.to/lastmile_qr_scan", "ios": "https://dc.lft.to/lastmile_qr_scan"}, "is_reserved": 0, "bike_id": "c128174ab24b00c15d198e2bedf72f71", "name": "c128174ab24b00c15d198e2bedf72f71", "fusion_lon": 0.0, "lon": -77.040034, "fusion_lat": 0.0}, {"lat": 38.901489833333336, "type": "electric_scooter", "is_disabled": 0, "rental_uris": {"android": "https://dc.lft.to/lastmile_qr_scan", "ios": "https://dc.lft.to/lastmile_qr_scan"}, "is_reserved": 0, "bike_id": "cce42b82b0647333d8967da22654ffeb", "name": "cce42b82b0647333d8967da22654ffeb", "fusion_lon": 0.0, "lon": -77.03223316666667, "fusion_lat": 0.0}, {"lat": 38.922459333333336, "type": "electric_scooter", "is_disabled": 0, "rental_uris": {"android": "https://dc.lft.to/lastmile_qr_scan", "ios": "https://dc.lft.to/lastmile_qr_scan"}, "is_reserved": 0, "bike_id": "9ac0cf92e5e49d06ffae595c5051d214", "name": "9ac0cf92e5e49d06ffae595c5051d214", "fusion_lon": 0.0, "lon": -77.02874533333333, "fusion_lat": 0.0}, {"lat": 38.897675666666665, "type": "electric_scooter", "is_disabled": 0, "rental_uris": {"android": "https://dc.lft.to/lastmile_qr_scan", "ios": "https://dc.lft.to/lastmile_qr_scan"}, "is_reserved": 0, "bike_id": "ce6f9e93a6d1f7d92ae4998e2457a999", "name": "ce6f9e93a6d1f7d92ae4998e2457a999", "fusion_lon": 0.0, "lon": -77.02470133333334, "fusion_lat": 0.0}, {"lat": 38.899108166666664, "type": "electric_scooter", "is_disabled": 0, "rental_uris": {"android": "https://dc.lft.to/lastmile_qr_scan", "ios": "https://dc.lft.to/lastmile_qr_scan"}, "is_reserved": 0, "bike_id": "20dc2619c1268cd622071c60f09c9d27", "name": "20dc2619c1268cd622071c60f09c9d27", "fusion_lon": 0.0, "lon": -76.9339235, "fusion_lat": 0.0}, {"lat": 38.8874015, "type": "electric_scooter", "is_disabled": 0, "rental_uris": {"android": "https://dc.lft.to/lastmile_qr_scan", "ios": "https://dc.lft.to/lastmile_qr_scan"}, "is_reserved": 0, "bike_id": "302fe37d9271618098cb7fba2431c7f8", "name": "302fe37d9271618098cb7fba2431c7f8", "fusion_lon": 0.0, "lon": -77.015324, "fusion_lat": 0.0}, {"lat": 38.9097675, "type": "electric_scooter", "is_disabled": 0, "rental_uris": {"android": "https://dc.lft.to/lastmile_qr_scan", "ios": "https://dc.lft.to/lastmile_qr_scan"}, "is_reserved": 0, "bike_id": "71c63a2f560e2f080a3a560b74bf75db", "name": "71c63a2f560e2f080a3a560b74bf75db", "fusion_lon": 0.0, "lon": -77.03150033333333, "fusion_lat": 0.0}, {"lat": 38.911083166666664, "type": "electric_bike", "is_disabled": 0, "rental_uris": {"android": "https://dc.lft.to/lastmile_qr_scan", "ios": "https://dc.lft.to/lastmile_qr_scan"}, "is_reserved": 0, "bike_id": "512fda42438f22c2529c0f125f45b45d", "name": "512fda42438f22c2529c0f125f45b45d", "fusion_lon": 0.0, "lon": -77.07343733333333, "fusion_lat": 0.0}, {"lat": 38.87147016666667, "type": "electric_scooter", "is_disabled": 0, "rental_uris": {"android": "https://dc.lft.to/lastmile_qr_scan", "ios": "https://dc.lft.to/lastmile_qr_scan"}, "is_reserved": 0, "bike_id": "f4e10b7710663aa5a1892c3784b79ee9", "name": "f4e10b7710663aa5a1892c3784b79ee9", "fusion_lon": 0.0, "lon": -76.97894883333333, "fusion_lat": 0.0}, {"lat": 38.944398166666666, "type": "electric_scooter", "is_disabled": 0, "rental_uris": {"android": "https://dc.lft.to/lastmile_qr_scan", "ios": "https://dc.lft.to/lastmile_qr_scan"}, "is_reserved": 0, "bike_id": "3c3543c3e36d18889bf4680166de9cfb", "name": "3c3543c3e36d18889bf4680166de9cfb", "fusion_lon": 0.0, "lon": -77.02909683333333, "fusion_lat": 0.0}, {"lat": 38.900585166666666, "type": "electric_scooter", "is_disabled": 0, "rental_uris": {"android": "https://dc.lft.to/lastmile_qr_scan", "ios": "https://dc.lft.to/lastmile_qr_scan"}, "is_reserved": 0, "bike_id": "e24d72b774809b5453d4ee5b1bce59c4", "name": "e24d72b774809b5453d4ee5b1bce59c4", "fusion_lon": 0.0, "lon": -77.00068116666667, "fusion_lat": 0.0}, {"lat": 38.9242355, "type": "electric_scooter", "is_disabled": 0, "rental_uris": {"android": "https://dc.lft.to/lastmile_qr_scan", "ios": "https://dc.lft.to/lastmile_qr_scan"}, "is_reserved": 0, "bike_id": "20d217089d0abc5352ba8ee2434f0f3f", "name": "20d217089d0abc5352ba8ee2434f0f3f", "fusion_lon": 0.0, "lon": -77.0562275, "fusion_lat": 0.0}, {"lat": 38.9865735, "type": "electric_scooter", "is_disabled": 0, "rental_uris": {"android": "https://dc.lft.to/lastmile_qr_scan", "ios": "https://dc.lft.to/lastmile_qr_scan"}, "is_reserved": 0, "bike_id": "d0c84febad800d8020be1fbbf9e132b5", "name": "d0c84febad800d8020be1fbbf9e132b5", "fusion_lon": 0.0, "lon": -77.02638133333333, "fusion_lat": 0.0}, {"lat": 38.886602333333336, "type": "electric_scooter", "is_disabled": 0, "rental_uris": {"android": "https://dc.lft.to/lastmile_qr_scan", "ios": "https://dc.lft.to/lastmile_qr_scan"}, "is_reserved": 0, "bike_id": "55811deb4180748594415ab2f1527eb4", "name": "55811deb4180748594415ab2f1527eb4", "fusion_lon": 0.0, "lon": -77.03383833333334, "fusion_lat": 0.0}, {"lat": 38.9186815, "type": "electric_bike", "is_disabled": 0, "rental_uris": {"android": "https://dc.lft.to/lastmile_qr_scan", "ios": "https://dc.lft.to/lastmile_qr_scan"}, "is_reserved": 0, "bike_id": "d159bf89f122fd3f6e89efcb9940898a", "name": "d159bf89f122fd3f6e89efcb9940898a", "fusion_lon": 0.0, "lon": -76.96174566666667, "fusion_lat": 0.0}, {"lat": 38.900656, "type": "electric_scooter", "is_disabled": 0, "rental_uris": {"android": "https://dc.lft.to/lastmile_qr_scan", "ios": "https://dc.lft.to/lastmile_qr_scan"}, "is_reserved": 0, "bike_id": "34c8e6c75c4dd13a27147b20b5d6ca9d", "name": "34c8e6c75c4dd13a27147b20b5d6ca9d", "fusion_lon": 0.0, "lon": -77.0163495, "fusion_lat": 0.0}, {"lat": 38.83696116666667, "type": "electric_bike", "is_disabled": 0, "rental_uris": {"android": "https://dc.lft.to/lastmile_qr_scan", "ios": "https://dc.lft.to/lastmile_qr_scan"}, "is_reserved": 0, "bike_id": "0c11a52180d45377d3571ff39e3414f5", "name": "0c11a52180d45377d3571ff39e3414f5", "fusion_lon": 0.0, "lon": -77.0059655, "fusion_lat": 0.0}, {"lat": 38.96922766666667, "type": "electric_bike", "is_disabled": 0, "rental_uris": {"android": "https://dc.lft.to/lastmile_qr_scan", "ios": "https://dc.lft.to/lastmile_qr_scan"}, "is_reserved": 0, "bike_id": "fe12d9fe970fbc70c138537a5ed60f7a", "name": "fe12d9fe970fbc70c138537a5ed60f7a", "fusion_lon": 0.0, "lon": -77.02626616666667, "fusion_lat": 0.0}, {"lat": 38.938900833333335, "type": "electric_scooter", "is_disabled": 0, "rental_uris": {"android": "https://dc.lft.to/lastmile_qr_scan", "ios": "https://dc.lft.to/lastmile_qr_scan"}, "is_reserved": 0, "bike_id": "6de2bc7f299b38e4a823036d6e7eeaee", "name": "6de2bc7f299b38e4a823036d6e7eeaee", "fusion_lon": 0.0, "lon": -77.0248265, "fusion_lat": 0.0}, {"lat": 38.907398, "type": "electric_scooter", "is_disabled": 0, "rental_uris": {"android": "https://dc.lft.to/lastmile_qr_scan", "ios": "https://dc.lft.to/lastmile_qr_scan"}, "is_reserved": 0, "bike_id": "f746442945cd41407dc4b9c4d8836f7b", "name": "f746442945cd41407dc4b9c4d8836f7b", "fusion_lon": 0.0, "lon": -77.0344245, "fusion_lat": 0.0}, {"lat": 38.903762666666665, "type": "electric_scooter", "is_disabled": 0, "rental_uris": {"android": "https://dc.lft.to/lastmile_qr_scan", "ios": "https://dc.lft.to/lastmile_qr_scan"}, "is_reserved": 0, "bike_id": "c8c4bc80c6fee580a565073379152fd0", "name": "c8c4bc80c6fee580a565073379152fd0", "fusion_lon": 0.0, "lon": -77.037508, "fusion_lat": 0.0}, {"lat": 38.89534316666666, "type": "electric_scooter", "is_disabled": 0, "rental_uris": {"android": "https://dc.lft.to/lastmile_qr_scan", "ios": "https://dc.lft.to/lastmile_qr_scan"}, "is_reserved": 0, "bike_id": "bdeb2e9141e9352d0c78bddf78eb5eb2", "name": "bdeb2e9141e9352d0c78bddf78eb5eb2", "fusion_lon": 0.0, "lon": -77.02934483333334, "fusion_lat": 0.0}, {"lat": 38.94089566666667, "type": "electric_scooter", "is_disabled": 0, "rental_uris": {"android": "https://dc.lft.to/lastmile_qr_scan", "ios": "https://dc.lft.to/lastmile_qr_scan"}, "is_reserved": 0, "bike_id": "99f3da4b63cdf96eff8e69460927ec3b", "name": "99f3da4b63cdf96eff8e69460927ec3b", "fusion_lon": 0.0, "lon": -77.02726683333333, "fusion_lat": 0.0}, {"lat": 38.9126885, "type": "electric_scooter", "is_disabled": 0, "rental_uris": {"android": "https://dc.lft.to/lastmile_qr_scan", "ios": "https://dc.lft.to/lastmile_qr_scan"}, "is_reserved": 0, "bike_id": "8617c74f9af39b072604f3174e2dadc6", "name": "8617c74f9af39b072604f3174e2dadc6", "fusion_lon": 0.0, "lon": -77.0169165, "fusion_lat": 0.0}, {"lat": 38.967624666666666, "type": "electric_bike", "is_disabled": 0, "rental_uris": {"android": "https://dc.lft.to/lastmile_qr_scan", "ios": "https://dc.lft.to/lastmile_qr_scan"}, "is_reserved": 0, "bike_id": "ce68f708d6d1a1b57eec14ea0cadcbfc", "name": "ce68f708d6d1a1b57eec14ea0cadcbfc", "fusion_lon": 0.0, "lon": -77.09161183333333, "fusion_lat": 0.0}, {"lat": 38.892280166666666, "type": "electric_scooter", "is_disabled": 0, "rental_uris": {"android": "https://dc.lft.to/lastmile_qr_scan", "ios": "https://dc.lft.to/lastmile_qr_scan"}, "is_reserved": 0, "bike_id": "5c1796a6ca817743e708be93e928db94", "name": "5c1796a6ca817743e708be93e928db94", "fusion_lon": 0.0, "lon": -77.04661833333333, "fusion_lat": 0.0}, {"lat": 38.92211416666667, "type": "electric_scooter", "is_disabled": 0, "rental_uris": {"android": "https://dc.lft.to/lastmile_qr_scan", "ios": "https://dc.lft.to/lastmile_qr_scan"}, "is_reserved": 0, "bike_id": "ecc33f78cb6f4738b25c2f90bef31935", "name": "ecc33f78cb6f4738b25c2f90bef31935", "fusion_lon": 0.0, "lon": -77.042588, "fusion_lat": 0.0}, {"lat": 38.901308666666665, "type": "electric_scooter", "is_disabled": 0, "rental_uris": {"android": "https://dc.lft.to/lastmile_qr_scan", "ios": "https://dc.lft.to/lastmile_qr_scan"}, "is_reserved": 0, "bike_id": "bee519a49f38a4d1de6b8c0655c95e3d", "name": "bee519a49f38a4d1de6b8c0655c95e3d", "fusion_lon": 0.0, "lon": -77.01199116666666, "fusion_lat": 0.0}, {"lat": 38.894823, "type": "electric_scooter", "is_disabled": 0, "rental_uris": {"android": "https://dc.lft.to/lastmile_qr_scan", "ios": "https://dc.lft.to/lastmile_qr_scan"}, "is_reserved": 0, "bike_id": "ba8dd3f2856252ae2c20e21cd0734280", "name": "ba8dd3f2856252ae2c20e21cd0734280", "fusion_lon": 0.0, "lon": -76.99513516666667, "fusion_lat": 0.0}, {"lat": 38.91472483333333, "type": "electric_scooter", "is_disabled": 0, "rental_uris": {"android": "https://dc.lft.to/lastmile_qr_scan", "ios": "https://dc.lft.to/lastmile_qr_scan"}, "is_reserved": 0, "bike_id": "60a56dff18bd8ce6529cc32383812180", "name": "60a56dff18bd8ce6529cc32383812180", "fusion_lon": 0.0, "lon": -77.03215616666667, "fusion_lat": 0.0}, {"lat": 38.90147616666667, "type": "electric_scooter", "is_disabled": 0, "rental_uris": {"android": "https://dc.lft.to/lastmile_qr_scan", "ios": "https://dc.lft.to/lastmile_qr_scan"}, "is_reserved": 0, "bike_id": "3e7a3e7285ecd46a0277d07ade94d480", "name": "3e7a3e7285ecd46a0277d07ade94d480", "fusion_lon": 0.0, "lon": -77.04170283333333, "fusion_lat": 0.0}, {"lat": 38.858083666666666, "type": "electric_scooter", "is_disabled": 0, "rental_uris": {"android": "https://dc.lft.to/lastmile_qr_scan", "ios": "https://dc.lft.to/lastmile_qr_scan"}, "is_reserved": 0, "bike_id": "d84dbfcbbffe1fb4ce549974c2df2750", "name": "d84dbfcbbffe1fb4ce549974c2df2750", "fusion_lon": 0.0, "lon": -76.98654916666666, "fusion_lat": 0.0}, {"lat": 38.91795116666667, "type": "electric_scooter", "is_disabled": 0, "rental_uris": {"android": "https://dc.lft.to/lastmile_qr_scan", "ios": "https://dc.lft.to/lastmile_qr_scan"}, "is_reserved": 0, "bike_id": "b5bbd63697dc934cd6cbe12ea1a5d7b6", "name": "b5bbd63697dc934cd6cbe12ea1a5d7b6", "fusion_lon": 0.0, "lon": -77.0230945, "fusion_lat": 0.0}, {"lat": 38.99907283333334, "type": "electric_bike", "is_disabled": 0, "rental_uris": {"android": "https://dc.lft.to/lastmile_qr_scan", "ios": "https://dc.lft.to/lastmile_qr_scan"}, "is_reserved": 0, "bike_id": "0295d07e2fc96d800dfc07edf70ad6ca", "name": "0295d07e2fc96d800dfc07edf70ad6ca", "fusion_lon": 0.0, "lon": -77.02863333333333, "fusion_lat": 0.0}, {"lat": 38.901647, "type": "electric_bike", "is_disabled": 0, "rental_uris": {"android": "https://dc.lft.to/lastmile_qr_scan", "ios": "https://dc.lft.to/lastmile_qr_scan"}, "is_reserved": 0, "bike_id": "a90e12f5edc01e2c458a4eb4af321393", "name": "a90e12f5edc01e2c458a4eb4af321393", "fusion_lon": 0.0, "lon": -76.97959583333333, "fusion_lat": 0.0}, {"lat": 38.901131, "type": "electric_scooter", "is_disabled": 0, "rental_uris": {"android": "https://dc.lft.to/lastmile_qr_scan", "ios": "https://dc.lft.to/lastmile_qr_scan"}, "is_reserved": 0, "bike_id": "aea385cf5b08b0ab57b826aa1a11353b", "name": "aea385cf5b08b0ab57b826aa1a11353b", "fusion_lon": 0.0, "lon": -77.03206, "fusion_lat": 0.0}, {"lat": 38.898199, "type": "electric_scooter", "is_disabled": 0, "rental_uris": {"android": "https://dc.lft.to/lastmile_qr_scan", "ios": "https://dc.lft.to/lastmile_qr_scan"}, "is_reserved": 0, "bike_id": "8b0e8bbf356c6d546de6bba481d26bae", "name": "8b0e8bbf356c6d546de6bba481d26bae", "fusion_lon": 0.0, "lon": -77.0465325, "fusion_lat": 0.0}, {"lat": 38.906688833333334, "type": "electric_scooter", "is_disabled": 0, "rental_uris": {"android": "https://dc.lft.to/lastmile_qr_scan", "ios": "https://dc.lft.to/lastmile_qr_scan"}, "is_reserved": 0, "bike_id": "a72c88cdc2413f21ff7b2a77aa648414", "name": "a72c88cdc2413f21ff7b2a77aa648414", "fusion_lon": 0.0, "lon": -77.034214, "fusion_lat": 0.0}, {"lat": 38.893551333333335, "type": "electric_scooter", "is_disabled": 0, "rental_uris": {"android": "https://dc.lft.to/lastmile_qr_scan", "ios": "https://dc.lft.to/lastmile_qr_scan"}, "is_reserved": 0, "bike_id": "4eaed6c2a22d1f6b840a1d0956243da1", "name": "4eaed6c2a22d1f6b840a1d0956243da1", "fusion_lon": 0.0, "lon": -77.00336616666667, "fusion_lat": 0.0}, {"lat": 38.8955105, "type": "electric_scooter", "is_disabled": 0, "rental_uris": {"android": "https://dc.lft.to/lastmile_qr_scan", "ios": "https://dc.lft.to/lastmile_qr_scan"}, "is_reserved": 0, "bike_id": "350ba184d7b0438cff24348bd118a076", "name": "350ba184d7b0438cff24348bd118a076", "fusion_lon": 0.0, "lon": -76.98335566666667, "fusion_lat": 0.0}, {"lat": 38.90136233333333, "type": "electric_scooter", "is_disabled": 0, "rental_uris": {"android": "https://dc.lft.to/lastmile_qr_scan", "ios": "https://dc.lft.to/lastmile_qr_scan"}, "is_reserved": 0, "bike_id": "96eb80190be969db6b063ceb434dec89", "name": "96eb80190be969db6b063ceb434dec89", "fusion_lon": 0.0, "lon": -77.0417085, "fusion_lat": 0.0}, {"lat": 38.9194155, "type": "electric_scooter", "is_disabled": 0, "rental_uris": {"android": "https://dc.lft.to/lastmile_qr_scan", "ios": "https://dc.lft.to/lastmile_qr_scan"}, "is_reserved": 0, "bike_id": "7d16f7cbdf48bfbf48c761d07e58e7e8", "name": "7d16f7cbdf48bfbf48c761d07e58e7e8", "fusion_lon": 0.0, "lon": -77.03164383333333, "fusion_lat": 0.0}, {"lat": 38.8312585, "type": "electric_bike", "is_disabled": 0, "rental_uris": {"android": "https://dc.lft.to/lastmile_qr_scan", "ios": "https://dc.lft.to/lastmile_qr_scan"}, "is_reserved": 0, "bike_id": "013575b105e0ec1b0c9b731f1c8aedda", "name": "013575b105e0ec1b0c9b731f1c8aedda", "fusion_lon": 0.0, "lon": -77.04321333333333, "fusion_lat": 0.0}, {"lat": 38.901247, "type": "electric_scooter", "is_disabled": 0, "rental_uris": {"android": "https://dc.lft.to/lastmile_qr_scan", "ios": "https://dc.lft.to/lastmile_qr_scan"}, "is_reserved": 0, "bike_id": "9ef6d47dd67f937c7f6a343eaa660e31", "name": "9ef6d47dd67f937c7f6a343eaa660e31", "fusion_lon": 0.0, "lon": -77.04356833333334, "fusion_lat": 0.0}, {"lat": 38.87648316666667, "type": "electric_scooter", "is_disabled": 0, "rental_uris": {"android": "https://dc.lft.to/lastmile_qr_scan", "ios": "https://dc.lft.to/lastmile_qr_scan"}, "is_reserved": 0, "bike_id": "bd4b3ab4b6da7ff7adf9c177b3ca2534", "name": "bd4b3ab4b6da7ff7adf9c177b3ca2534", "fusion_lon": 0.0, "lon": -77.0060235, "fusion_lat": 0.0}, {"lat": 38.901505, "type": "electric_scooter", "is_disabled": 0, "rental_uris": {"android": "https://dc.lft.to/lastmile_qr_scan", "ios": "https://dc.lft.to/lastmile_qr_scan"}, "is_reserved": 0, "bike_id": "9e2d2eaf3e18a0397590846d9e3a87ee", "name": "9e2d2eaf3e18a0397590846d9e3a87ee", "fusion_lon": 0.0, "lon": -77.041749, "fusion_lat": 0.0}, {"lat": 38.917177833333334, "type": "electric_scooter", "is_disabled": 0, "rental_uris": {"android": "https://dc.lft.to/lastmile_qr_scan", "ios": "https://dc.lft.to/lastmile_qr_scan"}, "is_reserved": 0, "bike_id": "5f20d943f4899bdfe8a447cf44c21216", "name": "5f20d943f4899bdfe8a447cf44c21216", "fusion_lon": 0.0, "lon": -77.02996466666667, "fusion_lat": 0.0}, {"lat": 38.895238166666665, "type": "electric_scooter", "is_disabled": 0, "rental_uris": {"android": "https://dc.lft.to/lastmile_qr_scan", "ios": "https://dc.lft.to/lastmile_qr_scan"}, "is_reserved": 0, "bike_id": "c46d4cdbe821bb086fdd9474bd963638", "name": "c46d4cdbe821bb086fdd9474bd963638", "fusion_lon": 0.0, "lon": -77.02215583333333, "fusion_lat": 0.0}, {"lat": 38.89328916666667, "type": "electric_scooter", "is_disabled": 0, "rental_uris": {"android": "https://dc.lft.to/lastmile_qr_scan", "ios": "https://dc.lft.to/lastmile_qr_scan"}, "is_reserved": 0, "bike_id": "9ee0e1ceb838043992e8a8ee1bdd4e46", "name": "9ee0e1ceb838043992e8a8ee1bdd4e46", "fusion_lon": 0.0, "lon": -77.0195385, "fusion_lat": 0.0}, {"lat": 38.89730216666667, "type": "electric_scooter", "is_disabled": 0, "rental_uris": {"android": "https://dc.lft.to/lastmile_qr_scan", "ios": "https://dc.lft.to/lastmile_qr_scan"}, "is_reserved": 0, "bike_id": "bf61ce50e90011b8c086402c790d0cb8", "name": "bf61ce50e90011b8c086402c790d0cb8", "fusion_lon": 0.0, "lon": -77.0204435, "fusion_lat": 0.0}, {"lat": 38.850667333333334, "type": "electric_scooter", "is_disabled": 0, "rental_uris": {"android": "https://dc.lft.to/lastmile_qr_scan", "ios": "https://dc.lft.to/lastmile_qr_scan"}, "is_reserved": 0, "bike_id": "7216235e24d6f8eda0d7e147f9f69c70", "name": "7216235e24d6f8eda0d7e147f9f69c70", "fusion_lon": 0.0, "lon": -76.96522716666666, "fusion_lat": 0.0}, {"lat": 38.827338833333336, "type": "electric_bike", "is_disabled": 0, "rental_uris": {"android": "https://dc.lft.to/lastmile_qr_scan", "ios": "https://dc.lft.to/lastmile_qr_scan"}, "is_reserved": 0, "bike_id": "6a5a81795df8bb78b55acffd00730b8a", "name": "6a5a81795df8bb78b55acffd00730b8a", "fusion_lon": 0.0, "lon": -77.0086165, "fusion_lat": 0.0}, {"lat": 38.902485, "type": "electric_scooter", "is_disabled": 0, "rental_uris": {"android": "https://dc.lft.to/lastmile_qr_scan", "ios": "https://dc.lft.to/lastmile_qr_scan"},