{"data": {"bikes": [{"name": "22db76eb0bde0aaa430cac0cf4bd7ce3", "lat": 38.91191466666667, "type": "electric_scooter", "is_disabled": 0, "fusion_lon": 0.0, "fusion_lat": 0.0, "lon": -77.00719433333333, "is_reserved": 0, "rental_uris": {"android": "https://dc.lft.to/lastmile_qr_scan", "ios": "https://dc.lft.to/lastmile_qr_scan"}, "bike_id": "22db76eb0bde0aaa430cac0cf4bd7ce3"}, {"name": "3747568ca30ea1e405b1c1c291101f47", "lat": 38.893546666666666, "type": "electric_scooter", "is_disabled": 0, "fusion_lon": 0.0, "fusion_lat": 0.0, "lon": -77.00337433333333, "is_reserved": 0, "rental_uris": {"android": "https://dc.lft.to/lastmile_qr_scan", "ios": "https://dc.lft.to/lastmile_qr_scan"}, "bike_id": "3747568ca30ea1e405b1c1c291101f47"}, {"name": "e34779041e260e326aaae709a3bb6eb4", "lat": 38.9187285, "type": "electric_scooter", "is_disabled": 0, "fusion_lon": 0.0, "fusion_lat": 0.0, "lon": -77.04199716666666, "is_reserved": 0, "rental_uris": {"android": "https://dc.lft.to/lastmile_qr_scan", "ios": "https://dc.lft.to/lastmile_qr_scan"}, "bike_id": "e34779041e260e326aaae709a3bb6eb4"}, {"name": "41f1aa22a373b0341a85bba40efd1fbe", "lat": 38.8811925, "type": "electric_scooter", "is_disabled": 0, "fusion_lon": 0.0, "fusion_lat": 0.0, "lon": -76.9934565, "is_reserved": 0, "rental_uris": {"android": "https://dc.lft.to/lastmile_qr_scan", "ios": "https://dc.lft.to/lastmile_qr_scan"}, "bike_id": "41f1aa22a373b0341a85bba40efd1fbe"}, {"name": "d872a48e17a7b383d34c33b3d0ee02a3", "lat": 38.89546966666666, "type": "electric_scooter", "is_disabled": 0, "fusion_lon": 0.0, "fusion_lat": 0.0, "lon": -77.00912633333333, "is_reserved": 0, "rental_uris": {"android": "https://dc.lft.to/lastmile_qr_scan", "ios": "https://dc.lft.to/lastmile_qr_scan"}, "bike_id": "d872a48e17a7b383d34c33b3d0ee02a3"}, {"name": "769d47fb54b9cb8741ef57b5601a638a", "lat": 38.93619916666667, "type": "electric_scooter", "is_disabled": 0, "fusion_lon": 0.0, "fusion_lat": 0.0, "lon": -77.03279066666667, "is_reserved": 0, "rental_uris": {"android": "https://dc.lft.to/lastmile_qr_scan", "ios": "https://dc.lft.to/lastmile_qr_scan"}, "bike_id": "769d47fb54b9cb8741ef57b5601a638a"}, {"name": "f5fa6ac0c9525568f55d4bc29c6a5ce4", "lat": 38.897202, "type": "electric_scooter", "is_disabled": 0, "fusion_lon": 0.0, "fusion_lat": 0.0, "lon": -76.98355266666667, "is_reserved": 0, "rental_uris": {"android": "https://dc.lft.to/lastmile_qr_scan", "ios": "https://dc.lft.to/lastmile_qr_scan"}, "bike_id": "f5fa6ac0c9525568f55d4bc29c6a5ce4"}, {"name": "119af152af78037cb20d19b59423015f", "lat": 38.88734916666667, "type": "electric_scooter", "is_disabled": 0, "fusion_lon": 0.0, "fusion_lat": 0.0, "lon": -77.01621883333334, "is_reserved": 0, "rental_uris": {"android": "https://dc.lft.to/lastmile_qr_scan", "ios": "https://dc.lft.to/lastmile_qr_scan"}, "bike_id": "119af152af78037cb20d19b59423015f"}, {"name": "711fdae2854758f1bd2898797542d6c7", "lat": 38.876311333333334, "type": "electric_scooter", "is_disabled": 0, "fusion_lon": 0.0, "fusion_lat": 0.0, "lon": -77.00951416666666, "is_reserved": 0, "rental_uris": {"android": "https://dc.lft.to/lastmile_qr_scan", "ios": "https://dc.lft.to/lastmile_qr_scan"}, "bike_id": "711fdae2854758f1bd2898797542d6c7"}, {"name": "bf6f7f50f082f55613b342e12326339e", "lat": 38.923572166666666, "type": "electric_scooter", "is_disabled": 0, "fusion_lon": 0.0, "fusion_lat": 0.0, "lon": -77.03401216666667, "is_reserved": 0, "rental_uris": {"android": "https://dc.lft.to/lastmile_qr_scan", "ios": "https://dc.lft.to/lastmile_qr_scan"}, "bike_id": "bf6f7f50f082f55613b342e12326339e"}, {"name": "321132c75a0885314630517f2c1e6e70", "lat": 38.901543, "type": "electric_scooter", "is_disabled": 0, "fusion_lon": 0.0, "fusion_lat": 0.0, "lon": -77.0592165, "is_reserved": 0, "rental_uris": {"android": "https://dc.lft.to/lastmile_qr_scan", "ios": "https://dc.lft.to/lastmile_qr_scan"}, "bike_id": "321132c75a0885314630517f2c1e6e70"}, {"name": "9d9a6f101df672f646df5150ef111abe", "lat": 38.922355333333336, "type": "electric_scooter", "is_disabled": 0, "fusion_lon": 0.0, "fusion_lat": 0.0, "lon": -77.03363233333333, "is_reserved": 0, "rental_uris": {"android": "https://dc.lft.to/lastmile_qr_scan", "ios": "https://dc.lft.to/lastmile_qr_scan"}, "bike_id": "9d9a6f101df672f646df5150ef111abe"}, {"name": "6581058f6465d3e874650908fcf07c77", "lat": 38.92659866666666, "type": "electric_scooter", "is_disabled": 0, "fusion_lon": 0.0, "fusion_lat": 0.0, "lon": -76.9955235, "is_reserved": 0, "rental_uris": {"android": "https://dc.lft.to/lastmile_qr_scan", "ios": "https://dc.lft.to/lastmile_qr_scan"}, "bike_id": "6581058f6465d3e874650908fcf07c77"}, {"name": "c0945cebc16dfbc27a5c3aed6c94a2dd", "lat": 38.90050383333333, "type": "electric_scooter", "is_disabled": 0, "fusion_lon": 0.0, "fusion_lat": 0.0, "lon": -77.029507, "is_reserved": 0, "rental_uris": {"android": "https://dc.lft.to/lastmile_qr_scan", "ios": "https://dc.lft.to/lastmile_qr_scan"}, "bike_id": "c0945cebc16dfbc27a5c3aed6c94a2dd"}, {"name": "c92ab5f261b861b80a879721098f03cf", "lat": 38.897944, "type": "electric_scooter", "is_disabled": 0, "fusion_lon": 0.0, "fusion_lat": 0.0, "lon": -77.01195083333333, "is_reserved": 0, "rental_uris": {"android": "https://dc.lft.to/lastmile_qr_scan", "ios": "https://dc.lft.to/lastmile_qr_scan"}, "bike_id": "c92ab5f261b861b80a879721098f03cf"}, {"name": "0a7e3944d909bf2ebe2668f532d2a224", "lat": 38.906909666666664, "type": "electric_bike", "is_disabled": 0, "fusion_lon": 0.0, "fusion_lat": 0.0, "lon": -76.952517, "is_reserved": 0, "rental_uris": {"android": "https://dc.lft.to/lastmile_qr_scan", "ios": "https://dc.lft.to/lastmile_qr_scan"}, "bike_id": "0a7e3944d909bf2ebe2668f532d2a224"}, {"name": "a8d1929d47b32148a15b88b035a45778", "lat": 38.92577033333333, "type": "electric_scooter", "is_disabled": 0, "fusion_lon": 0.0, "fusion_lat": 0.0, "lon": -77.04411533333334, "is_reserved": 0, "rental_uris": {"android": "https://dc.lft.to/lastmile_qr_scan", "ios": "https://dc.lft.to/lastmile_qr_scan"}, "bike_id": "a8d1929d47b32148a15b88b035a45778"}, {"name": "bc2e34365e3a6bfe7355f351ceaeb076", "lat": 38.88859516666667, "type": "electric_bike", "is_disabled": 0, "fusion_lon": 0.0, "fusion_lat": 0.0, "lon": -77.08161833333334, "is_reserved": 0, "rental_uris": {"android": "https://dc.lft.to/lastmile_qr_scan", "ios": "https://dc.lft.to/lastmile_qr_scan"}, "bike_id": "bc2e34365e3a6bfe7355f351ceaeb076"}, {"name": "10236c420d0b13d6aad065f9b6e2e735", "lat": 38.91927966666667, "type": "electric_scooter", "is_disabled": 0, "fusion_lon": 0.0, "fusion_lat": 0.0, "lon": -77.03475366666666, "is_reserved": 0, "rental_uris": {"android": "https://dc.lft.to/lastmile_qr_scan", "ios": "https://dc.lft.to/lastmile_qr_scan"}, "bike_id": "10236c420d0b13d6aad065f9b6e2e735"}, {"name": "f4e310d71840e0126cac51616ea0c3c6", "lat": 38.90034466666667, "type": "electric_scooter", "is_disabled": 0, "fusion_lon": 0.0, "fusion_lat": 0.0, "lon": -77.00193883333333, "is_reserved": 0, "rental_uris": {"android": "https://dc.lft.to/lastmile_qr_scan", "ios": "https://dc.lft.to/lastmile_qr_scan"}, "bike_id": "f4e310d71840e0126cac51616ea0c3c6"}, {"name": "889c35a04109ee499816eaac030d10bb", "lat": 38.914962833333334, "type": "electric_scooter", "is_disabled": 0, "fusion_lon": 0.0, "fusion_lat": 0.0, "lon": -77.01860366666666, "is_reserved": 0, "rental_uris": {"android": "https://dc.lft.to/lastmile_qr_scan", "ios": "https://dc.lft.to/lastmile_qr_scan"}, "bike_id": "889c35a04109ee499816eaac030d10bb"}, {"name": "caa760038b08db95b783f12bfe8df59d", "lat": 38.900141833333336, "type": "electric_scooter", "is_disabled": 0, "fusion_lon": 0.0, "fusion_lat": 0.0, "lon": -77.0466675, "is_reserved": 0, "rental_uris": {"android": "https://dc.lft.to/lastmile_qr_scan", "ios": "https://dc.lft.to/lastmile_qr_scan"}, "bike_id": "caa760038b08db95b783f12bfe8df59d"}, {"name": "797aafef7151a47d61a2f46a48a8e1f5", "lat": 38.8988175, "type": "electric_scooter", "is_disabled": 0, "fusion_lon": 0.0, "fusion_lat": 0.0, "lon": -77.04559866666666, "is_reserved": 0, "rental_uris": {"android": "https://dc.lft.to/lastmile_qr_scan", "ios": "https://dc.lft.to/lastmile_qr_scan"}, "bike_id": "797aafef7151a47d61a2f46a48a8e1f5"}, {"name": "e22ba1ec46cde000440173ddfca65814", "lat": 38.89219466666667, "type": "electric_scooter", "is_disabled": 0, "fusion_lon": 0.0, "fusion_lat": 0.0, "lon": -77.02415733333333, "is_reserved": 0, "rental_uris": {"android": "https://dc.lft.to/lastmile_qr_scan", "ios": "https://dc.lft.to/lastmile_qr_scan"}, "bike_id": "e22ba1ec46cde000440173ddfca65814"}, {"name": "3fe396748ecb20440c332149fdaa5a8f", "lat": 38.898151166666665, "type": "electric_bike", "is_disabled": 0, "fusion_lon": 0.0, "fusion_lat": 0.0, "lon": -76.99043483333334, "is_reserved": 0, "rental_uris": {"android": "https://dc.lft.to/lastmile_qr_scan", "ios": "https://dc.lft.to/lastmile_qr_scan"}, "bike_id": "3fe396748ecb20440c332149fdaa5a8f"}, {"name": "5039e9af65b128dd397f23e5aa5440b4", "lat": 38.9168555, "type": "electric_scooter", "is_disabled": 0, "fusion_lon": 0.0, "fusion_lat": 0.0, "lon": -77.03772833333333, "is_reserved": 0, "rental_uris": {"android": "https://dc.lft.to/lastmile_qr_scan", "ios": "https://dc.lft.to/lastmile_qr_scan"}, "bike_id": "5039e9af65b128dd397f23e5aa5440b4"}, {"name": "4b56722f3aad666d52b762724c71cb4d", "lat": 38.883244, "type": "electric_scooter", "is_disabled": 0, "fusion_lon": 0.0, "fusion_lat": 0.0, "lon": -77.03008466666667, "is_reserved": 0, "rental_uris": {"android": "https://dc.lft.to/lastmile_qr_scan", "ios": "https://dc.lft.to/lastmile_qr_scan"}, "bike_id": "4b56722f3aad666d52b762724c71cb4d"}, {"name": "a8ddf5c4eebc14282f10602d14d52cbb", "lat": 38.91358833333334, "type": "electric_scooter", "is_disabled": 0, "fusion_lon": 0.0, "fusion_lat": 0.0, "lon": -77.02046066666666, "is_reserved": 0, "rental_uris": {"android": "https://dc.lft.to/lastmile_qr_scan", "ios": "https://dc.lft.to/lastmile_qr_scan"}, "bike_id": "a8ddf5c4eebc14282f10602d14d52cbb"}, {"name": "453670e21e1822d7121b9ac6d45d1b5f", "lat": 38.946056666666664, "type": "electric_scooter", "is_disabled": 0, "fusion_lon": 0.0, "fusion_lat": 0.0, "lon": -77.08019116666667, "is_reserved": 0, "rental_uris": {"android": "https://dc.lft.to/lastmile_qr_scan", "ios": "https://dc.lft.to/lastmile_qr_scan"}, "bike_id": "453670e21e1822d7121b9ac6d45d1b5f"}, {"name": "7038c149ab7146c000f6553cc5fea6db", "lat": 38.890109833333334, "type": "electric_scooter", "is_disabled": 0, "fusion_lon": 0.0, "fusion_lat": 0.0, "lon": -76.99856466666667, "is_reserved": 0, "rental_uris": {"android": "https://dc.lft.to/lastmile_qr_scan", "ios": "https://dc.lft.to/lastmile_qr_scan"}, "bike_id": "7038c149ab7146c000f6553cc5fea6db"}, {"name": "330e20e17103b2e1672653436446dd08", "lat": 38.90735633333333, "type": "electric_scooter", "is_disabled": 0, "fusion_lon": 0.0, "fusion_lat": 0.0, "lon": -77.007674, "is_reserved": 0, "rental_uris": {"android": "https://dc.lft.to/lastmile_qr_scan", "ios": "https://dc.lft.to/lastmile_qr_scan"}, "bike_id": "330e20e17103b2e1672653436446dd08"}, {"name": "b6a20d9f0c0849e94be25e3166351f57", "lat": 38.8793685, "type": "electric_scooter", "is_disabled": 0, "fusion_lon": 0.0, "fusion_lat": 0.0, "lon": -77.016618, "is_reserved": 0, "rental_uris": {"android": "https://dc.lft.to/lastmile_qr_scan", "ios": "https://dc.lft.to/lastmile_qr_scan"}, "bike_id": "b6a20d9f0c0849e94be25e3166351f57"}, {"name": "9d394661b4a668469937acb1b5318a87", "lat": 38.904979, "type": "electric_scooter", "is_disabled": 0, "fusion_lon": 0.0, "fusion_lat": 0.0, "lon": -77.03561033333334, "is_reserved": 0, "rental_uris": {"android": "https://dc.lft.to/lastmile_qr_scan", "ios": "https://dc.lft.to/lastmile_qr_scan"}, "bike_id": "9d394661b4a668469937acb1b5318a87"}, {"name": "72efab0b12c0461d6c305dae1e5c4468", "lat": 38.887350833333336, "type": "electric_scooter", "is_disabled": 0, "fusion_lon": 0.0, "fusion_lat": 0.0, "lon": -77.01504616666666, "is_reserved": 0, "rental_uris": {"android": "https://dc.lft.to/lastmile_qr_scan", "ios": "https://dc.lft.to/lastmile_qr_scan"}, "bike_id": "72efab0b12c0461d6c305dae1e5c4468"}, {"name": "eb966746e092b41956ca3a0bdc1da0f2", "lat": 38.9010925, "type": "electric_scooter", "is_disabled": 0, "fusion_lon": 0.0, "fusion_lat": 0.0, "lon": -77.03873333333334, "is_reserved": 0, "rental_uris": {"android": "https://dc.lft.to/lastmile_qr_scan", "ios": "https://dc.lft.to/lastmile_qr_scan"}, "bike_id": "eb966746e092b41956ca3a0bdc1da0f2"}, {"name": "18347b4cb3c92b4b935404a11567013d", "lat": 38.92298566666667, "type": "electric_scooter", "is_disabled": 0, "fusion_lon": 0.0, "fusion_lat": 0.0, "lon": -76.9937235, "is_reserved": 0, "rental_uris": {"android": "https://dc.lft.to/lastmile_qr_scan", "ios": "https://dc.lft.to/lastmile_qr_scan"}, "bike_id": "18347b4cb3c92b4b935404a11567013d"}, {"name": "42fd22cd050d4d54961a56dbf5ac8bf0", "lat": 38.8872595, "type": "electric_scooter", "is_disabled": 0, "fusion_lon": 0.0, "fusion_lat": 0.0, "lon": -77.02578, "is_reserved": 0, "rental_uris": {"android": "https://dc.lft.to/lastmile_qr_scan", "ios": "https://dc.lft.to/lastmile_qr_scan"}, "bike_id": "42fd22cd050d4d54961a56dbf5ac8bf0"}, {"name": "0a7c42949ac0db0e3c603fdfa514a089", "lat": 38.91657133333333, "type": "electric_scooter", "is_disabled": 0, "fusion_lon": 0.0, "fusion_lat": 0.0, "lon": -77.0438945, "is_reserved": 0, "rental_uris": {"android": "https://dc.lft.to/lastmile_qr_scan", "ios": "https://dc.lft.to/lastmile_qr_scan"}, "bike_id": "0a7c42949ac0db0e3c603fdfa514a089"}, {"name": "1a6fdfc3c4a382591f1652dc8ff0b1a1", "lat": 38.923594333333334, "type": "electric_scooter", "is_disabled": 0, "fusion_lon": 0.0, "fusion_lat": 0.0, "lon": -77.05041983333334, "is_reserved": 0, "rental_uris": {"android": "https://dc.lft.to/lastmile_qr_scan", "ios": "https://dc.lft.to/lastmile_qr_scan"}, "bike_id": "1a6fdfc3c4a382591f1652dc8ff0b1a1"}, {"name": "57b6c5e6aeacbe1a1e06608b1affd458", "lat": 38.928132, "type": "electric_scooter", "is_disabled": 0, "fusion_lon": 0.0, "fusion_lat": 0.0, "lon": -77.027292, "is_reserved": 0, "rental_uris": {"android": "https://dc.lft.to/lastmile_qr_scan", "ios": "https://dc.lft.to/lastmile_qr_scan"}, "bike_id": "57b6c5e6aeacbe1a1e06608b1affd458"}, {"name": "00ead4d0c335c4b68f7ac2246ff19ca6", "lat": 38.9036945, "type": "electric_scooter", "is_disabled": 0, "fusion_lon": 0.0, "fusion_lat": 0.0, "lon": -76.98716583333334, "is_reserved": 0, "rental_uris": {"android": "https://dc.lft.to/lastmile_qr_scan", "ios": "https://dc.lft.to/lastmile_qr_scan"}, "bike_id": "00ead4d0c335c4b68f7ac2246ff19ca6"}, {"name": "fefd7b401d0cf033ad4005ba4a5e485c", "lat": 38.90179633333333, "type": "electric_scooter", "is_disabled": 0, "fusion_lon": 0.0, "fusion_lat": 0.0, "lon": -77.02404316666667, "is_reserved": 0, "rental_uris": {"android": "https://dc.lft.to/lastmile_qr_scan", "ios": "https://dc.lft.to/lastmile_qr_scan"}, "bike_id": "fefd7b401d0cf033ad4005ba4a5e485c"}, {"name": "652ff54a62d85013b52fd9f7b58ab38f", "lat": 38.89716933333333, "type": "electric_scooter", "is_disabled": 0, "fusion_lon": 0.0, "fusion_lat": 0.0, "lon": -77.00795683333334, "is_reserved": 0, "rental_uris": {"android": "https://dc.lft.to/lastmile_qr_scan", "ios": "https://dc.lft.to/lastmile_qr_scan"}, "bike_id": "652ff54a62d85013b52fd9f7b58ab38f"}, {"name": "dd2468a859f7e06d0f00096848c9a1da", "lat": 38.897151666666666, "type": "electric_scooter", "is_disabled": 0, "fusion_lon": 0.0, "fusion_lat": 0.0, "lon": -77.02131266666666, "is_reserved": 0, "rental_uris": {"android": "https://dc.lft.to/lastmile_qr_scan", "ios": "https://dc.lft.to/lastmile_qr_scan"}, "bike_id": "dd2468a859f7e06d0f00096848c9a1da"}, {"name": "5e2902341f80e4b938049a0837880e67", "lat": 38.90222883333333, "type": "electric_scooter", "is_disabled": 0, "fusion_lon": 0.0, "fusion_lat": 0.0, "lon": -77.0440855, "is_reserved": 0, "rental_uris": {"android": "https://dc.lft.to/lastmile_qr_scan", "ios": "https://dc.lft.to/lastmile_qr_scan"}, "bike_id": "5e2902341f80e4b938049a0837880e67"}, {"name": "7deda9b407df8fb0c1b2979a0edc087e", "lat": 38.9211375, "type": "electric_bike", "is_disabled": 0, "fusion_lon": 0.0, "fusion_lat": 0.0, "lon": -76.988769, "is_reserved": 0, "rental_uris": {"android": "https://dc.lft.to/lastmile_qr_scan", "ios": "https://dc.lft.to/lastmile_qr_scan"}, "bike_id": "7deda9b407df8fb0c1b2979a0edc087e"}, {"name": "58dfb099e65055a68bb32153f4966164", "lat": 38.892378, "type": "electric_scooter", "is_disabled": 0, "fusion_lon": 0.0, "fusion_lat": 0.0, "lon": -77.01322466666667, "is_reserved": 0, "rental_uris": {"android": "https://dc.lft.to/lastmile_qr_scan", "ios": "https://dc.lft.to/lastmile_qr_scan"}, "bike_id": "58dfb099e65055a68bb32153f4966164"}, {"name": "a339c2564f2596b0862bc41f696d0b03", "lat": 38.830632666666666, "type": "electric_bike", "is_disabled": 0, "fusion_lon": 0.0, "fusion_lat": 0.0, "lon": -77.04077, "is_reserved": 0, "rental_uris": {"android": "https://dc.lft.to/lastmile_qr_scan", "ios": "https://dc.lft.to/lastmile_qr_scan"}, "bike_id": "a339c2564f2596b0862bc41f696d0b03"}, {"name": "b878fa37f62732bca99869b9ff68ddb6", "lat": 38.91746666666667, "type": "electric_scooter", "is_disabled": 0, "fusion_lon": 0.0, "fusion_lat": 0.0, "lon": -77.02303683333334, "is_reserved": 0, "rental_uris": {"android": "https://dc.lft.to/lastmile_qr_scan", "ios": "https://dc.lft.to/lastmile_qr_scan"}, "bike_id": "b878fa37f62732bca99869b9ff68ddb6"}, {"name": "fbb65756793b7da0e367e5aab41e5511", "lat": 38.92599966666667, "type": "electric_scooter", "is_disabled": 0, "fusion_lon": 0.0, "fusion_lat": 0.0, "lon": -77.03739566666667, "is_reserved": 0, "rental_uris": {"android": "https://dc.lft.to/lastmile_qr_scan", "ios": "https://dc.lft.to/lastmile_qr_scan"}, "bike_id": "fbb65756793b7da0e367e5aab41e5511"}, {"name": "8e4b807b1f800b08ee1233c5a16d54c5", "lat": 38.91898533333333, "type": "electric_scooter", "is_disabled": 0, "fusion_lon": 0.0, "fusion_lat": 0.0, "lon": -77.03135566666667, "is_reserved": 0, "rental_uris": {"android": "https://dc.lft.to/lastmile_qr_scan", "ios": "https://dc.lft.to/lastmile_qr_scan"}, "bike_id": "8e4b807b1f800b08ee1233c5a16d54c5"}, {"name": "e5cbbab463a49e5061e5dc7b23696f7a", "lat": 38.928502, "type": "electric_scooter", "is_disabled": 0, "fusion_lon": 0.0, "fusion_lat": 0.0, "lon": -77.05428383333333, "is_reserved": 0, "rental_uris": {"android": "https://dc.lft.to/lastmile_qr_scan", "ios": "https://dc.lft.to/lastmile_qr_scan"}, "bike_id": "e5cbbab463a49e5061e5dc7b23696f7a"}, {"name": "a0f98442f79787ee748845cace717d03", "lat": 38.91951233333333, "type": "electric_scooter", "is_disabled": 0, "fusion_lon": 0.0, "fusion_lat": 0.0, "lon": -77.04152833333333, "is_reserved": 0, "rental_uris": {"android": "https://dc.lft.to/lastmile_qr_scan", "ios": "https://dc.lft.to/lastmile_qr_scan"}, "bike_id": "a0f98442f79787ee748845cace717d03"}, {"name": "8f6c9a22f7f5fe6305b43597394bfe88", "lat": 38.941996833333334, "type": "electric_scooter", "is_disabled": 0, "fusion_lon": 0.0, "fusion_lat": 0.0, "lon": -77.0234675, "is_reserved": 0, "rental_uris": {"android": "https://dc.lft.to/lastmile_qr_scan", "ios": "https://dc.lft.to/lastmile_qr_scan"}, "bike_id": "8f6c9a22f7f5fe6305b43597394bfe88"}, {"name": "0c474983f59521a4f5671ed8e4ab3a63", "lat": 38.92021033333333, "type": "electric_scooter", "is_disabled": 0, "fusion_lon": 0.0, "fusion_lat": 0.0, "lon": -77.06362366666667, "is_reserved": 0, "rental_uris": {"android": "https://dc.lft.to/lastmile_qr_scan", "ios": "https://dc.lft.to/lastmile_qr_scan"}, "bike_id": "0c474983f59521a4f5671ed8e4ab3a63"}, {"name": "7b306e5b7306cd8815c5cf1e5aa3336a", "lat": 38.904809666666665, "type": "electric_scooter", "is_disabled": 0, "fusion_lon": 0.0, "fusion_lat": 0.0, "lon": -77.01894466666667, "is_reserved": 0, "rental_uris": {"android": "https://dc.lft.to/lastmile_qr_scan", "ios": "https://dc.lft.to/lastmile_qr_scan"}, "bike_id": "7b306e5b7306cd8815c5cf1e5aa3336a"}, {"name": "79162bf32c9ff41d590e735666b2252f", "lat": 38.8789435, "type": "electric_scooter", "is_disabled": 0, "fusion_lon": 0.0, "fusion_lat": 0.0, "lon": -77.02205716666667, "is_reserved": 0, "rental_uris": {"android": "https://dc.lft.to/lastmile_qr_scan", "ios": "https://dc.lft.to/lastmile_qr_scan"}, "bike_id": "79162bf32c9ff41d590e735666b2252f"}, {"name": "efbea24d6d42e40eec8d00c72f6483f7", "lat": 38.94693066666667, "type": "electric_scooter", "is_disabled": 0, "fusion_lon": 0.0, "fusion_lat": 0.0, "lon": -77.06491166666666, "is_reserved": 0, "rental_uris": {"android": "https://dc.lft.to/lastmile_qr_scan", "ios": "https://dc.lft.to/lastmile_qr_scan"}, "bike_id": "efbea24d6d42e40eec8d00c72f6483f7"}, {"name": "dbfe886a6b032cfda175fbed1469d7a6", "lat": 38.88963533333333, "type": "electric_scooter", "is_disabled": 0, "fusion_lon": 0.0, "fusion_lat": 0.0, "lon": -77.00200283333334, "is_reserved": 0, "rental_uris": {"android": "https://dc.lft.to/lastmile_qr_scan", "ios": "https://dc.lft.to/lastmile_qr_scan"}, "bike_id": "dbfe886a6b032cfda175fbed1469d7a6"}, {"name": "4287195bbd69e42461f1d7bb6b83e487", "lat": 38.92323433333333, "type": "electric_scooter", "is_disabled": 0, "fusion_lon": 0.0, "fusion_lat": 0.0, "lon": -77.01958466666666, "is_reserved": 0, "rental_uris": {"android": "https://dc.lft.to/lastmile_qr_scan", "ios": "https://dc.lft.to/lastmile_qr_scan"}, "bike_id": "4287195bbd69e42461f1d7bb6b83e487"}, {"name": "451cac23a1f2c9f768565e8986f2bc13", "lat": 38.87721, "type": "electric_scooter", "is_disabled": 0, "fusion_lon": 0.0, "fusion_lat": 0.0, "lon": -77.00605466666667, "is_reserved": 0, "rental_uris": {"android": "https://dc.lft.to/lastmile_qr_scan", "ios": "https://dc.lft.to/lastmile_qr_scan"}, "bike_id": "451cac23a1f2c9f768565e8986f2bc13"}, {"name": "126d0cbe6e1889d252e81ac2f2601024", "lat": 38.926906833333334, "type": "electric_scooter", "is_disabled": 0, "fusion_lon": 0.0, "fusion_lat": 0.0, "lon": -77.02572916666666, "is_reserved": 0, "rental_uris": {"android": "https://dc.lft.to/lastmile_qr_scan", "ios": "https://dc.lft.to/lastmile_qr_scan"}, "bike_id": "126d0cbe6e1889d252e81ac2f2601024"}, {"name": "f049fd584b16e0c1e0c36a754ed9bc4e", "lat": 38.892202833333336, "type": "electric_scooter", "is_disabled": 0, "fusion_lon": 0.0, "fusion_lat": 0.0, "lon": -77.0486765, "is_reserved": 0, "rental_uris": {"android": "https://dc.lft.to/lastmile_qr_scan", "ios": "https://dc.lft.to/lastmile_qr_scan"}, "bike_id": "f049fd584b16e0c1e0c36a754ed9bc4e"}, {"name": "b4d525ad5e417785840235d8416ae090", "lat": 38.915959666666666, "type": "electric_scooter", "is_disabled": 0, "fusion_lon": 0.0, "fusion_lat": 0.0, "lon": -77.0416, "is_reserved": 0, "rental_uris": {"android": "https://dc.lft.to/lastmile_qr_scan", "ios": "https://dc.lft.to/lastmile_qr_scan"}, "bike_id": "b4d525ad5e417785840235d8416ae090"}, {"name": "54e7ce113c37b9eb4ab6d8c041471107", "lat": 38.919121833333335, "type": "electric_scooter", "is_disabled": 0, "fusion_lon": 0.0, "fusion_lat": 0.0, "lon": -77.02393283333333, "is_reserved": 0, "rental_uris": {"android": "https://dc.lft.to/lastmile_qr_scan", "ios": "https://dc.lft.to/lastmile_qr_scan"}, "bike_id": "54e7ce113c37b9eb4ab6d8c041471107"}, {"name": "b66020542d79452238a73a83cedbab72", "lat": 38.89551066666667, "type": "electric_scooter", "is_disabled": 0, "fusion_lon": 0.0, "fusion_lat": 0.0, "lon": -76.93054633333334, "is_reserved": 0, "rental_uris": {"android": "https://dc.lft.to/lastmile_qr_scan", "ios": "https://dc.lft.to/lastmile_qr_scan"}, "bike_id": "b66020542d79452238a73a83cedbab72"}, {"name": "1fb85cbb751b4c818cb46e773d99747b", "lat": 38.921658, "type": "electric_scooter", "is_disabled": 0, "fusion_lon": 0.0, "fusion_lat": 0.0, "lon": -77.02192366666667, "is_reserved": 0, "rental_uris": {"android": "https://dc.lft.to/lastmile_qr_scan", "ios": "https://dc.lft.to/lastmile_qr_scan"}, "bike_id": "1fb85cbb751b4c818cb46e773d99747b"}, {"name": "0d31c28c556e980e193a6c07d76f0bc3", "lat": 38.923066, "type": "electric_scooter", "is_disabled": 0, "fusion_lon": 0.0, "fusion_lat": 0.0, "lon": -77.03654383333334, "is_reserved": 0, "rental_uris": {"android": "https://dc.lft.to/lastmile_qr_scan", "ios": "https://dc.lft.to/lastmile_qr_scan"}, "bike_id": "0d31c28c556e980e193a6c07d76f0bc3"}, {"name": "fb6eb72d1345ec7acc25fc81e90b2a1c", "lat": 38.90073566666667, "type": "electric_scooter", "is_disabled": 0, "fusion_lon": 0.0, "fusion_lat": 0.0, "lon": -77.05406583333334, "is_reserved": 0, "rental_uris": {"android": "https://dc.lft.to/lastmile_qr_scan", "ios": "https://dc.lft.to/lastmile_qr_scan"}, "bike_id": "fb6eb72d1345ec7acc25fc81e90b2a1c"}, {"name": "d17edecb462beafe8e91e23e0f89e36b", "lat": 38.919275166666665, "type": "electric_scooter", "is_disabled": 0, "fusion_lon": 0.0, "fusion_lat": 0.0, "lon": -77.03423866666667, "is_reserved": 0, "rental_uris": {"android": "https://dc.lft.to/lastmile_qr_scan", "ios": "https://dc.lft.to/lastmile_qr_scan"}, "bike_id": "d17edecb462beafe8e91e23e0f89e36b"}, {"name": "74aa30ec46bb4aba7899aab1653ca11f", "lat": 38.936204000000004, "type": "electric_scooter", "is_disabled": 0, "fusion_lon": 0.0, "fusion_lat": 0.0, "lon": -77.03278183333333, "is_reserved": 0, "rental_uris": {"android": "https://dc.lft.to/lastmile_qr_scan", "ios": "https://dc.lft.to/lastmile_qr_scan"}, "bike_id": "74aa30ec46bb4aba7899aab1653ca11f"}, {"name": "72397c07f627c390406b1fe1cdf0dce0", "lat": 38.924943999999996, "type": "electric_scooter", "is_disabled": 0, "fusion_lon": 0.0, "fusion_lat": 0.0, "lon": -77.03923316666666, "is_reserved": 0, "rental_uris": {"android": "https://dc.lft.to/lastmile_qr_scan", "ios": "https://dc.lft.to/lastmile_qr_scan"}, "bike_id": "72397c07f627c390406b1fe1cdf0dce0"}, {"name": "f11c8ce88f309d616a2e29da62bc52a9", "lat": 38.91553616666667, "type": "electric_scooter", "is_disabled": 0, "fusion_lon": 0.0, "fusion_lat": 0.0, "lon": -77.0316975, "is_reserved": 0, "rental_uris": {"android": "https://dc.lft.to/lastmile_qr_scan", "ios": "https://dc.lft.to/lastmile_qr_scan"}, "bike_id": "f11c8ce88f309d616a2e29da62bc52a9"}, {"name": "6f043872033031b09fbbbed817a219d8", "lat": 38.91401533333333, "type": "electric_scooter", "is_disabled": 0, "fusion_lon": 0.0, "fusion_lat": 0.0, "lon": -77.0289565, "is_reserved": 0, "rental_uris": {"android": "https://dc.lft.to/lastmile_qr_scan", "ios": "https://dc.lft.to/lastmile_qr_scan"}, "bike_id": "6f043872033031b09fbbbed817a219d8"}, {"name": "96a236866a85e9fbc988d2d49a5c2a19", "lat": 38.96467466666667, "type": "electric_bike", "is_disabled": 0, "fusion_lon": 0.0, "fusion_lat": 0.0, "lon": -77.03565683333333, "is_reserved": 0, "rental_uris": {"android": "https://dc.lft.to/lastmile_qr_scan", "ios": "https://dc.lft.to/lastmile_qr_scan"}, "bike_id": "96a236866a85e9fbc988d2d49a5c2a19"}, {"name": "81a20ef4c11ae2bd629e76897e85ff3e", "lat": 38.99785083333333, "type": "electric_bike", "is_disabled": 0, "fusion_lon": 0.0, "fusion_lat": 0.0, "lon": -77.00759266666667, "is_reserved": 0, "rental_uris": {"android": "https://dc.lft.to/lastmile_qr_scan", "ios": "https://dc.lft.to/lastmile_qr_scan"}, "bike_id": "81a20ef4c11ae2bd629e76897e85ff3e"}, {"name": "c8e3a77dc8cf22c2423a72214425788b", "lat": 38.876935, "type": "electric_scooter", "is_disabled": 0, "fusion_lon": 0.0, "fusion_lat": 0.0, "lon": -77.01669016666666, "is_reserved": 0, "rental_uris": {"android": "https://dc.lft.to/lastmile_qr_scan", "ios": "https://dc.lft.to/lastmile_qr_scan"}, "bike_id": "c8e3a77dc8cf22c2423a72214425788b"}, {"name": "b924d81b1467753b75114abb25b6210b", "lat": 38.89622683333333, "type": "electric_scooter", "is_disabled": 0, "fusion_lon": 0.0, "fusion_lat": 0.0, "lon": -77.02630483333333, "is_reserved": 0, "rental_uris": {"android": "https://dc.lft.to/lastmile_qr_scan", "ios": "https://dc.lft.to/lastmile_qr_scan"}, "bike_id": "b924d81b1467753b75114abb25b6210b"}, {"name": "53284c72757109400fdcdb9e27aba3a6", "lat": 38.961238333333334, "type": "electric_bike", "is_disabled": 0, "fusion_lon": 0.0, "fusion_lat": 0.0, "lon": -77.03269566666667, "is_reserved": 0, "rental_uris": {"android": "https://dc.lft.to/lastmile_qr_scan", "ios": "https://dc.lft.to/lastmile_qr_scan"}, "bike_id": "53284c72757109400fdcdb9e27aba3a6"}, {"name": "23d54af51aa20616eabc71acf1993021", "lat": 38.902630333333335, "type": "electric_scooter", "is_disabled": 0, "fusion_lon": 0.0, "fusion_lat": 0.0, "lon": -76.99850233333333, "is_reserved": 0, "rental_uris": {"android": "https://dc.lft.to/lastmile_qr_scan", "ios": "https://dc.lft.to/lastmile_qr_scan"}, "bike_id": "23d54af51aa20616eabc71acf1993021"}, {"name": "86409e64bd1f323f17393d39e3350dab", "lat": 38.894993, "type": "electric_scooter", "is_disabled": 0, "fusion_lon": 0.0, "fusion_lat": 0.0, "lon": -77.02304016666666, "is_reserved": 0, "rental_uris": {"android": "https://dc.lft.to/lastmile_qr_scan", "ios": "https://dc.lft.to/lastmile_qr_scan"}, "bike_id": "86409e64bd1f323f17393d39e3350dab"}, {"name": "5cc34af03babbcdf9f62ad97df0827d1", "lat": 38.92321916666667, "type": "electric_scooter", "is_disabled": 0, "fusion_lon": 0.0, "fusion_lat": 0.0, "lon": -77.01953633333333, "is_reserved": 0, "rental_uris": {"android": "https://dc.lft.to/lastmile_qr_scan", "ios": "https://dc.lft.to/lastmile_qr_scan"}, "bike_id": "5cc34af03babbcdf9f62ad97df0827d1"}, {"name": "50b7419b7bbb07f8529acee50e72d624", "lat": 38.92464666666667, "type": "electric_scooter", "is_disabled": 0, "fusion_lon": 0.0, "fusion_lat": 0.0, "lon": -77.02272416666666, "is_reserved": 0, "rental_uris": {"android": "https://dc.lft.to/lastmile_qr_scan", "ios": "https://dc.lft.to/lastmile_qr_scan"}, "bike_id": "50b7419b7bbb07f8529acee50e72d624"}, {"name": "0f1ac876e311ba2b144be79e41548329", "lat": 38.92476933333333, "type": "electric_scooter", "is_disabled": 0, "fusion_lon": 0.0, "fusion_lat": 0.0, "lon": -77.02230733333333, "is_reserved": 0, "rental_uris": {"android": "https://dc.lft.to/lastmile_qr_scan", "ios": "https://dc.lft.to/lastmile_qr_scan"}, "bike_id": "0f1ac876e311ba2b144be79e41548329"}, {"name": "e1816870486f182eeb9ec5fc4cb9c4fc", "lat": 38.898337, "type": "electric_scooter", "is_disabled": 0, "fusion_lon": 0.0, "fusion_lat": 0.0, "lon": -77.029031, "is_reserved": 0, "rental_uris": {"android": "https://dc.lft.to/lastmile_qr_scan", "ios": "https://dc.lft.to/lastmile_qr_scan"}, "bike_id": "e1816870486f182eeb9ec5fc4cb9c4fc"}, {"name": "dc5c4b4734e59f2ba1dee73eea3ef9d7", "lat": 38.899671833333336, "type": "electric_bike", "is_disabled": 0, "fusion_lon": 0.0, "fusion_lat": 0.0, "lon": -76.98670416666667, "is_reserved": 0, "rental_uris": {"android": "https://dc.lft.to/lastmile_qr_scan", "ios": "https://dc.lft.to/lastmile_qr_scan"}, "bike_id": "dc5c4b4734e59f2ba1dee73eea3ef9d7"}, {"name": "50047bbec81d61d0224483e253eb32f0", "lat": 38.9118685, "type": "electric_scooter", "is_disabled": 0, "fusion_lon": 0.0, "fusion_lat": 0.0, "lon": -77.04252666666666, "is_reserved": 0, "rental_uris": {"android": "https://dc.lft.to/lastmile_qr_scan", "ios": "https://dc.lft.to/lastmile_qr_scan"}, "bike_id": "50047bbec81d61d0224483e253eb32f0"}, {"name": "142ef4851b085aee66aceb8c5aae8c8b", "lat": 38.92195916666667, "type": "electric_scooter", "is_disabled": 0, "fusion_lon": 0.0, "fusion_lat": 0.0, "lon": -77.0183465, "is_reserved": 0, "rental_uris": {"android": "https://dc.lft.to/lastmile_qr_scan", "ios": "https://dc.lft.to/lastmile_qr_scan"}, "bike_id": "142ef4851b085aee66aceb8c5aae8c8b"}, {"name": "d14e9def779390740efafc076401a9ab", "lat": 38.927077833333335, "type": "electric_scooter", "is_disabled": 0, "fusion_lon": 0.0, "fusion_lat": 0.0, "lon": -77.02073583333333, "is_reserved": 0, "rental_uris": {"android": "https://dc.lft.to/lastmile_qr_scan", "ios": "https://dc.lft.to/lastmile_qr_scan"}, "bike_id": "d14e9def779390740efafc076401a9ab"}, {"name": "40742cfe25ee961fd84a46594f373c76", "lat": 38.95213866666667, "type": "electric_bike", "is_disabled": 0, "fusion_lon": 0.0, "fusion_lat": 0.0, "lon": -77.09662583333333, "is_reserved": 0, "rental_uris": {"android": "https://dc.lft.to/lastmile_qr_scan", "ios": "https://dc.lft.to/lastmile_qr_scan"}, "bike_id": "40742cfe25ee961fd84a46594f373c76"}, {"name": "6f518b43d88bb9393b6f8b304b9e09f7", "lat": 38.898360333333336, "type": "electric_scooter", "is_disabled": 0, "fusion_lon": 0.0, "fusion_lat": 0.0, "lon": -77.0285505, "is_reserved": 0, "rental_uris": {"android": "https://dc.lft.to/lastmile_qr_scan", "ios": "https://dc.lft.to/lastmile_qr_scan"}, "bike_id": "6f518b43d88bb9393b6f8b304b9e09f7"}, {"name": "59007633c4f1d326775e7a26abdc6c88", "lat": 38.900278666666665, "type": "electric_scooter", "is_disabled": 0, "fusion_lon": 0.0, "fusion_lat": 0.0, "lon": -77.00207766666666, "is_reserved": 0, "rental_uris": {"android": "https://dc.lft.to/lastmile_qr_scan", "ios": "https://dc.lft.to/lastmile_qr_scan"}, "bike_id": "59007633c4f1d326775e7a26abdc6c88"}, {"name": "005dba5c5807952206541d9d3147bfc7", "lat": 38.888829333333334, "type": "electric_scooter", "is_disabled": 0, "fusion_lon": 0.0, "fusion_lat": 0.0, "lon": -77.0196635, "is_reserved": 0, "rental_uris": {"android": "https://dc.lft.to/lastmile_qr_scan", "ios": "https://dc.lft.to/lastmile_qr_scan"}, "bike_id": "005dba5c5807952206541d9d3147bfc7"}, {"name": "21993ddfdec48df5b7f4c2a19d5ba19f", "lat": 38.925294, "type": "electric_scooter", "is_disabled": 0, "fusion_lon": 0.0, "fusion_lat": 0.0, "lon": -77.00754883333333, "is_reserved": 0, "rental_uris": {"android": "https://dc.lft.to/lastmile_qr_scan", "ios": "https://dc.lft.to/lastmile_qr_scan"}, "bike_id": "21993ddfdec48df5b7f4c2a19d5ba19f"}, {"name": "3375ff58ca2ab12d371f14515ccf3bbd", "lat": 38.90476066666667, "type": "electric_scooter", "is_disabled": 0, "fusion_lon": 0.0, "fusion_lat": 0.0, "lon": -77.04185616666666, "is_reserved": 0, "rental_uris": {"android": "https://dc.lft.to/lastmile_qr_scan", "ios": "https://dc.lft.to/lastmile_qr_scan"}, "bike_id": "3375ff58ca2ab12d371f14515ccf3bbd"}, {"name": "fcc9d168fb2e694d14a8d8fe1fe91ef1", "lat": 38.91743733333333, "type": "electric_scooter", "is_disabled": 0, "fusion_lon": 0.0, "fusion_lat": 0.0, "lon": -77.03182183333334, "is_reserved": 0, "rental_uris": {"android": "https://dc.lft.to/lastmile_qr_scan", "ios": "https://dc.lft.to/lastmile_qr_scan"}, "bike_id": "fcc9d168fb2e694d14a8d8fe1fe91ef1"}, {"name": "b09e986659d46febbb0f9b029895d541", "lat": 38.898126, "type": "electric_scooter", "is_disabled": 0, "fusion_lon": 0.0, "fusion_lat": 0.0, "lon": -77.01358733333333, "is_reserved": 0, "rental_uris": {"android": "https://dc.lft.to/lastmile_qr_scan", "ios": "https://dc.lft.to/lastmile_qr_scan"}, "bike_id": "b09e986659d46febbb0f9b029895d541"}, {"name": "dc2990bc5d96403af18985d24027ce85", "lat": 38.916845, "type": "electric_scooter", "is_disabled": 0, "fusion_lon": 0.0, "fusion_lat": 0.0, "lon": -77.02952433333333, "is_reserved": 0, "rental_uris": {"android": "https://dc.lft.to/lastmile_qr_scan", "ios": "https://dc.lft.to/lastmile_qr_scan"}, "bike_id": "dc2990bc5d96403af18985d24027ce85"}, {"name": "b9f66f0c20f3c3a6cdc7dd4dcb332a50", "lat": 38.919106, "type": "electric_scooter", "is_disabled": 0, "fusion_lon": 0.0, "fusion_lat": 0.0, "lon": -77.0213425, "is_reserved": 0, "rental_uris": {"android": "https://dc.lft.to/lastmile_qr_scan", "ios": "https://dc.lft.to/lastmile_qr_scan"}, "bike_id": "b9f66f0c20f3c3a6cdc7dd4dcb332a50"}, {"name": "8950b0ffd109c1b235b25b57dc585cd7", "lat": 38.89982966666667, "type": "electric_scooter", "is_disabled": 0, "fusion_lon": 0.0, "fusion_lat": 0.0, "lon": -77.02808466666667, "is_reserved": 0, "rental_uris": {"android": "https://dc.lft.to/lastmile_qr_scan", "ios": "https://dc.lft.to/lastmile_qr_scan"}, "bike_id": "8950b0ffd109c1b235b25b57dc585cd7"}, {"name": "b08f37fa55e1f565cc5f3538f05a0499", "lat": 38.90618383333333, "type": "electric_scooter", "is_disabled": 0, "fusion_lon": 0.0, "fusion_lat": 0.0, "lon": -76.99323933333334, "is_reserved": 0, "rental_uris": {"android": "https://dc.lft.to/lastmile_qr_scan", "ios": "https://dc.lft.to/lastmile_qr_scan"}, "bike_id": "b08f37fa55e1f565cc5f3538f05a0499"}, {"name": "0ed9add11a7e3817bf9a21a28cb5b8f3", "lat": 38.923620166666666, "type": "electric_scooter", "is_disabled": 0, "fusion_lon": 0.0, "fusion_lat": 0.0, "lon": -77.02063116666666, "is_reserved": 0, "rental_uris": {"android": "https://dc.lft.to/lastmile_qr_scan", "ios": "https://dc.lft.to/lastmile_qr_scan"}, "bike_id": "0ed9add11a7e3817bf9a21a28cb5b8f3"}, {"name": "3b09c0cbe58b2daba05a564350e3e18a", "lat": 38.90523183333333, "type": "electric_scooter", "is_disabled": 0, "fusion_lon": 0.0, "fusion_lat": 0.0, "lon": -77.043126, "is_reserved": 0, "rental_uris": {"android": "https://dc.lft.to/lastmile_qr_scan", "ios": "https://dc.lft.to/lastmile_qr_scan"}, "bike_id": "3b09c0cbe58b2daba05a564350e3e18a"}, {"name": "0c3242827a35a9a7793c4c5b82dc5368", "lat": 38.92690666666667, "type": "electric_scooter", "is_disabled": 0, "fusion_lon": 0.0, "fusion_lat": 0.0, "lon": -77.02571033333334, "is_reserved": 0, "rental_uris": {"android": "https://dc.lft.to/lastmile_qr_scan", "ios": "https://dc.lft.to/lastmile_qr_scan"}, "bike_id": "0c3242827a35a9a7793c4c5b82dc5368"}, {"name": "780a65d740cbb8196a094010c273acdb", "lat": 38.89804133333333, "type": "electric_scooter", "is_disabled": 0, "fusion_lon": 0.0, "fusion_lat": 0.0, "lon": -77.02382516666667, "is_reserved": 0, "rental_uris": {"android": "https://dc.lft.to/lastmile_qr_scan", "ios": "https://dc.lft.to/lastmile_qr_scan"}, "bike_id": "780a65d740cbb8196a094010c273acdb"}, {"name": "3eee65f648fa7133b503a15c4e0cbdbc", "lat": 38.9235835, "type": "electric_scooter", "is_disabled": 0, "fusion_lon": 0.0, "fusion_lat": 0.0, "lon": -77.02059133333333, "is_reserved": 0, "rental_uris": {"android": "https://dc.lft.to/lastmile_qr_scan", "ios": "https://dc.lft.to/lastmile_qr_scan"}, "bike_id": "3eee65f648fa7133b503a15c4e0cbdbc"}, {"name": "49de25a050befc52097037a3541b64ca", "lat": 38.883284333333336, "type": "electric_scooter", "is_disabled": 0, "fusion_lon": 0.0, "fusion_lat": 0.0, "lon": -77.02177783333333, "is_reserved": 0, "rental_uris": {"android": "https://dc.lft.to/lastmile_qr_scan", "ios": "https://dc.lft.to/lastmile_qr_scan"}, "bike_id": "49de25a050befc52097037a3541b64ca"}, {"name": "1e0aa3c80ec110c679a3bab87d86a4fc", "lat": 38.922465333333335, "type": "electric_scooter", "is_disabled": 0, "fusion_lon": 0.0, "fusion_lat": 0.0, "lon": -77.0194955, "is_reserved": 0, "rental_uris": {"android": "https://dc.lft.to/lastmile_qr_scan", "ios": "https://dc.lft.to/lastmile_qr_scan"}, "bike_id": "1e0aa3c80ec110c679a3bab87d86a4fc"}, {"name": "9eb8421cd553dbcdf75401e361b26146", "lat": 38.92360933333333, "type": "electric_scooter", "is_disabled": 0, "fusion_lon": 0.0, "fusion_lat": 0.0, "lon": -77.0503835, "is_reserved": 0, "rental_uris": {"android": "https://dc.lft.to/lastmile_qr_scan", "ios": "https://dc.lft.to/lastmile_qr_scan"}, "bike_id": "9eb8421cd553dbcdf75401e361b26146"}, {"name": "3c6a412b780372673c758672f7975599", "lat": 38.983821, "type": "electric_bike", "is_disabled": 0, "fusion_lon": 0.0, "fusion_lat": 0.0, "lon": -76.94721566666666, "is_reserved": 0, "rental_uris": {"android": "https://dc.lft.to/lastmile_qr_scan", "ios": "https://dc.lft.to/lastmile_qr_scan"}, "bike_id": "3c6a412b780372673c758672f7975599"}, {"name": "539e2ce36e605c8826abffa130179246", "lat": 38.873714166666666, "type": "electric_scooter", "is_disabled": 0, "fusion_lon": 0.0, "fusion_lat": 0.0, "lon": -77.001232, "is_reserved": 0, "rental_uris": {"android": "https://dc.lft.to/lastmile_qr_scan", "ios": "https://dc.lft.to/lastmile_qr_scan"}, "bike_id": "539e2ce36e605c8826abffa130179246"}, {"name": "5d4aa9093ca77d5a6357b48cdb229cff", "lat": 38.9203235, "type": "electric_scooter", "is_disabled": 0, "fusion_lon": 0.0, "fusion_lat": 0.0, "lon": -77.02581416666666, "is_reserved": 0, "rental_uris": {"android": "https://dc.lft.to/lastmile_qr_scan", "ios": "https://dc.lft.to/lastmile_qr_scan"}, "bike_id": "5d4aa9093ca77d5a6357b48cdb229cff"}, {"name": "3ab3e9f81d77321cec86b51707b68583", "lat": 38.90134466666667, "type": "electric_scooter", "is_disabled": 0, "fusion_lon": 0.0, "fusion_lat": 0.0, "lon": -77.01153633333334, "is_reserved": 0, "rental_uris": {"android": "https://dc.lft.to/lastmile_qr_scan", "ios": "https://dc.lft.to/lastmile_qr_scan"}, "bike_id": "3ab3e9f81d77321cec86b51707b68583"}, {"name": "1fb3e9c46f5fde025abc1ff12b119bb1", "lat": 38.921494833333334, "type": "electric_scooter", "is_disabled": 0, "fusion_lon": 0.0, "fusion_lat": 0.0, "lon": -77.04525816666667, "is_reserved": 0, "rental_uris": {"android": "https://dc.lft.to/lastmile_qr_scan", "ios": "https://dc.lft.to/lastmile_qr_scan"}, "bike_id": "1fb3e9c46f5fde025abc1ff12b119bb1"}, {"name": "7044fcf7728942b68d817c327475c82e", "lat": 38.9242435, "type": "electric_scooter", "is_disabled": 0, "fusion_lon": 0.0, "fusion_lat": 0.0, "lon": -77.05175916666667, "is_reserved": 0, "rental_uris": {"android": "https://dc.lft.to/lastmile_qr_scan", "ios": "https://dc.lft.to/lastmile_qr_scan"}, "bike_id": "7044fcf7728942b68d817c327475c82e"}, {"name": "81092a3acc1d9b5ef27e94ef83bfe105", "lat": 38.89540366666667, "type": "electric_scooter", "is_disabled": 0, "fusion_lon": 0.0, "fusion_lat": 0.0, "lon": -77.01114566666666, "is_reserved": 0, "rental_uris": {"android": "https://dc.lft.to/lastmile_qr_scan", "ios": "https://dc.lft.to/lastmile_qr_scan"}, "bike_id": "81092a3acc1d9b5ef27e94ef83bfe105"}, {"name": "6590481a5dc746ef988ca468878bacd2", "lat": 38.950863166666664, "type": "electric_bike", "is_disabled": 0, "fusion_lon": 0.0, "fusion_lat": 0.0, "lon": -77.01224983333333, "is_reserved": 0, "rental_uris": {"android": "https://dc.lft.to/lastmile_qr_scan", "ios": "https://dc.lft.to/lastmile_qr_scan"}, "bike_id": "6590481a5dc746ef988ca468878bacd2"}, {"name": "3710c69e48e820953e546de5b7fa289f", "lat": 38.900288, "type": "electric_scooter", "is_disabled": 0, "fusion_lon": 0.0, "fusion_lat": 0.0, "lon": -76.98843716666667, "is_reserved": 0, "rental_uris": {"android": "https://dc.lft.to/lastmile_qr_scan", "ios": "https://dc.lft.to/lastmile_qr_scan"}, "bike_id": "3710c69e48e820953e546de5b7fa289f"}, {"name": "6782e8e9a7c3d9d0b122a546dc33ecd0", "lat": 38.917006, "type": "electric_bike", "is_disabled": 0, "fusion_lon": 0.0, "fusion_lat": 0.0, "lon": -77.02731016666667, "is_reserved": 0, "rental_uris": {"android": "https://dc.lft.to/lastmile_qr_scan", "ios": "https://dc.lft.to/lastmile_qr_scan"}, "bike_id": "6782e8e9a7c3d9d0b122a546dc33ecd0"}, {"name": "166049f6d367e59832390309a8cd9baa", "lat": 38.968243666666666, "type": "electric_scooter", "is_disabled": 0, "fusion_lon": 0.0, "fusion_lat": 0.0, "lon": -77.03290733333333, "is_reserved": 0, "rental_uris": {"android": "https://dc.lft.to/lastmile_qr_scan", "ios": "https://dc.lft.to/lastmile_qr_scan"}, "bike_id": "166049f6d367e59832390309a8cd9baa"}, {"name": "769b333cdb654fc304dd1695a53b83fe", "lat": 38.9428075, "type": "electric_scooter", "is_disabled": 0, "fusion_lon": 0.0, "fusion_lat": 0.0, "lon": -77.02935766666667, "is_reserved": 0, "rental_uris": {"android": "https://dc.lft.to/lastmile_qr_scan", "ios": "https://dc.lft.to/lastmile_qr_scan"}, "bike_id": "769b333cdb654fc304dd1695a53b83fe"}, {"name": "4b04ca4041575cc50217bf2a0ac37f65", "lat": 38.917282166666666, "type": "electric_scooter", "is_disabled": 0, "fusion_lon": 0.0, "fusion_lat": 0.0, "lon": -77.01920716666666, "is_reserved": 0, "rental_uris": {"android": "https://dc.lft.to/lastmile_qr_scan", "ios": "https://dc.lft.to/lastmile_qr_scan"}, "bike_id": "4b04ca4041575cc50217bf2a0ac37f65"}, {"name": "01c7252f6c5f59cbc1dceed916e65f2a", "lat": 38.90124266666667, "type": "electric_scooter", "is_disabled": 0, "fusion_lon": 0.0, "fusion_lat": 0.0, "lon": -77.04466383333333, "is_reserved": 0, "rental_uris": {"android": "https://dc.lft.to/lastmile_qr_scan", "ios": "https://dc.lft.to/lastmile_qr_scan"}, "bike_id": "01c7252f6c5f59cbc1dceed916e65f2a"}, {"name": "9f37f6ec1c45b26fc64e0eaf38bf0d00", "lat": 38.923764166666665, "type": "electric_scooter", "is_disabled": 0, "fusion_lon": 0.0, "fusion_lat": 0.0, "lon": -77.04086216666667, "is_reserved": 0, "rental_uris": {"android": "https://dc.lft.to/lastmile_qr_scan", "ios": "https://dc.lft.to/lastmile_qr_scan"}, "bike_id": "9f37f6ec1c45b26fc64e0eaf38bf0d00"}, {"name": "177a0910ce820d10fa955419ebaac4ba", "lat": 38.884932166666665, "type": "electric_scooter", "is_disabled": 0, "fusion_lon": 0.0, "fusion_lat": 0.0, "lon": -77.00725616666666, "is_reserved": 0, "rental_uris": {"android": "https://dc.lft.to/lastmile_qr_scan", "ios": "https://dc.lft.to/lastmile_qr_scan"}, "bike_id": "177a0910ce820d10fa955419ebaac4ba"}, {"name": "683ff8378052bdc73d515d39294b94b1", "lat": 38.88774183333334, "type": "electric_bike", "is_disabled": 0, "fusion_lon": 0.0, "fusion_lat": 0.0, "lon": -77.0759535, "is_reserved": 0, "rental_uris": {"android": "https://dc.lft.to/lastmile_qr_scan", "ios": "https://dc.lft.to/lastmile_qr_scan"}, "bike_id": "683ff8378052bdc73d515d39294b94b1"}, {"name": "8e671aab1ad6db1a370a4415387fb6e7", "lat": 39.085076666666666, "type": "electric_bike", "is_disabled": 0, "fusion_lon": 0.0, "fusion_lat": 0.0, "lon": -76.95059583333334, "is_reserved": 0, "rental_uris": {"android": "https://dc.lft.to/lastmile_qr_scan", "ios": "https://dc.lft.to/lastmile_qr_scan"}, "bike_id": "8e671aab1ad6db1a370a4415387fb6e7"}, {"name": "d68da41c79cc159ef918a702d06b0d78", "lat": 38.89171266666666, "type": "electric_scooter", "is_disabled": 0, "fusion_lon": 0.0, "fusion_lat": 0.0, "lon": -77.015323, "is_reserved": 0, "rental_uris": {"android": "https://dc.lft.to/lastmile_qr_scan", "ios": "https://dc.lft.to/lastmile_qr_scan"}, "bike_id": "d68da41c79cc159ef918a702d06b0d78"}, {"name": "318dec67c76b9137b176ee09dffe2521", "lat": 38.907899666666665, "type": "electric_scooter", "is_disabled": 0, "fusion_lon": 0.0, "fusion_lat": 0.0, "lon": -76.992333, "is_reserved": 0, "rental_uris": {"android": "https://dc.lft.to/lastmile_qr_scan", "ios": "https://dc.lft.to/lastmile_qr_scan"}, "bike_id": "318dec67c76b9137b176ee09dffe2521"}, {"name": "de40c7f55bda81fd61114e62dd9647de", "lat": 38.894839833333336, "type": "electric_scooter", "is_disabled": 0, "fusion_lon": 0.0, "fusion_lat": 0.0, "lon": -77.02015416666667, "is_reserved": 0, "rental_uris": {"android": "https://dc.lft.to/lastmile_qr_scan", "ios": "https://dc.lft.to/lastmile_qr_scan"}, "bike_id": "de40c7f55bda81fd61114e62dd9647de"}, {"name": "de2df94e95b71d7a897696661c05c8e7", "lat": 38.930882, "type": "electric_scooter", "is_disabled": 0, "fusion_lon": 0.0, "fusion_lat": 0.0, "lon": -77.02473766666667, "is_reserved": 0, "rental_uris": {"android": "https://dc.lft.to/lastmile_qr_scan", "ios": "https://dc.lft.to/lastmile_qr_scan"}, "bike_id": "de2df94e95b71d7a897696661c05c8e7"}, {"name": "c9aba58d25fbf0742408459e0bbbb45f", "lat": 38.8718105, "type": "electric_scooter", "is_disabled": 0, "fusion_lon": 0.0, "fusion_lat": 0.0, "lon": -77.00601616666667, "is_reserved": 0, "rental_uris": {"android": "https://dc.lft.to/lastmile_qr_scan", "ios": "https://dc.lft.to/lastmile_qr_scan"}, "bike_id": "c9aba58d25fbf0742408459e0bbbb45f"}, {"name": "b38df991e96df1c9d4270c95b42eeffe", "lat": 38.89733183333333, "type": "electric_scooter", "is_disabled": 0, "fusion_lon": 0.0, "fusion_lat": 0.0, "lon": -77.01312083333333, "is_reserved": 0, "rental_uris": {"android": "https://dc.lft.to/lastmile_qr_scan", "ios": "https://dc.lft.to/lastmile_qr_scan"}, "bike_id": "b38df991e96df1c9d4270c95b42eeffe"}, {"name": "3647ca58e2b9d161537fea689af2eea9", "lat": 38.913624, "type": "electric_scooter", "is_disabled": 0, "fusion_lon": 0.0, "fusion_lat": 0.0, "lon": -77.04492033333334, "is_reserved": 0, "rental_uris": {"android": "https://dc.lft.to/lastmile_qr_scan", "ios": "https://dc.lft.to/lastmile_qr_scan"}, "bike_id": "3647ca58e2b9d161537fea689af2eea9"}, {"name": "067c925eb0719fd51f0bb80c23a501f9", "lat": 38.901371, "type": "electric_scooter", "is_disabled": 0, "fusion_lon": 0.0, "fusion_lat": 0.0, "lon": -77.0446495, "is_reserved": 0, "rental_uris": {"android": "https://dc.lft.to/lastmile_qr_scan", "ios": "https://dc.lft.to/lastmile_qr_scan"}, "bike_id": "067c925eb0719fd51f0bb80c23a501f9"}, {"name": "8b5a282229c7728b99dd263d8820ac6f", "lat": 38.9225895, "type": "electric_scooter", "is_disabled": 0, "fusion_lon": 0.0, "fusion_lat": 0.0, "lon": -77.02964883333334, "is_reserved": 0, "rental_uris": {"android": "https://dc.lft.to/lastmile_qr_scan", "ios": "https://dc.lft.to/lastmile_qr_scan"}, "bike_id": "8b5a282229c7728b99dd263d8820ac6f"}, {"name": "60b941742a2040059e3047a452bccfaa", "lat": 38.90781916666667, "type": "electric_scooter", "is_disabled": 0, "fusion_lon": 0.0, "fusion_lat": 0.0, "lon": -77.072474, "is_reserved": 0, "rental_uris": {"android": "https://dc.lft.to/lastmile_qr_scan", "ios": "https://dc.lft.to/lastmile_qr_scan"}, "bike_id": "60b941742a2040059e3047a452bccfaa"}, {"name": "daf46bb44cc47cc733f766e03201d242", "lat": 38.896128166666664, "type": "electric_scooter", "is_disabled": 0, "fusion_lon": 0.0, "fusion_lat": 0.0, "lon": -76.98552366666667, "is_reserved": 0, "rental_uris": {"android": "https://dc.lft.to/lastmile_qr_scan", "ios": "https://dc.lft.to/lastmile_qr_scan"}, "bike_id": "daf46bb44cc47cc733f766e03201d242"}, {"name": "ab8105016d163f72e5ad37a4daaf1382", "lat": 38.95416083333333, "type": "electric_scooter", "is_disabled": 0, "fusion_lon": 0.0, "fusion_lat": 0.0, "lon": -77.027644, "is_reserved": 0, "rental_uris": {"android": "https://dc.lft.to/lastmile_qr_scan", "ios": "https://dc.lft.to/lastmile_qr_scan"}, "bike_id": "ab8105016d163f72e5ad37a4daaf1382"}, {"name": "14fad970d4054e359a9836024502013e", "lat": 38.91405866666667, "type": "electric_scooter", "is_disabled": 0, "fusion_lon": 0.0, "fusion_lat": 0.0, "lon": -77.0101545, "is_reserved": 0, "rental_uris": {"android": "https://dc.lft.to/lastmile_qr_scan", "ios": "https://dc.lft.to/lastmile_qr_scan"}, "bike_id": "14fad970d4054e359a9836024502013e"}, {"name": "bf84b9a9b0d9bad46072e701f3c1312b", "lat": 38.884276, "type": "electric_scooter", "is_disabled": 0, "fusion_lon": 0.0, "fusion_lat": 0.0, "lon": -77.03043183333334, "is_reserved": 0, "rental_uris": {"android": "https://dc.lft.to/lastmile_qr_scan", "ios": "https://dc.lft.to/lastmile_qr_scan"}, "bike_id": "bf84b9a9b0d9bad46072e701f3c1312b"}, {"name": "165847e006e7bde10e6552a019aa8bd6", "lat": 38.90717933333333, "type": "electric_scooter", "is_disabled": 0, "fusion_lon": 0.0, "fusion_lat": 0.0, "lon": -77.04077516666666, "is_reserved": 0, "rental_uris": {"android": "https://dc.lft.to/lastmile_qr_scan", "ios": "https://dc.lft.to/lastmile_qr_scan"}, "bike_id": "165847e006e7bde10e6552a019aa8bd6"}, {"name": "795062120364c03eb6958b2e79ca5102", "lat": 38.92330466666667, "type": "electric_scooter", "is_disabled": 0, "fusion_lon": 0.0, "fusion_lat": 0.0, "lon": -77.05676533333333, "is_reserved": 0, "rental_uris": {"android": "https://dc.lft.to/lastmile_qr_scan", "ios": "https://dc.lft.to/lastmile_qr_scan"}, "bike_id": "795062120364c03eb6958b2e79ca5102"}, {"name": "64d8762b58e710b9ed19b0a424a7b113", "lat": 38.906448166666664, "type": "electric_scooter", "is_disabled": 0, "fusion_lon": 0.0, "fusion_lat": 0.0, "lon": -77.0534105, "is_reserved": 0, "rental_uris": {"android": "https://dc.lft.to/lastmile_qr_scan", "ios": "https://dc.lft.to/lastmile_qr_scan"}, "bike_id": "64d8762b58e710b9ed19b0a424a7b113"}, {"name": "b735b23411752fec3e7c36f42c9a3bd5", "lat": 38.95877183333333, "type": "electric_bike", "is_disabled": 0, "fusion_lon": 0.0, "fusion_lat": 0.0, "lon": -76.97051216666667, "is_reserved": 0, "rental_uris": {"android": "https://dc.lft.to/lastmile_qr_scan", "ios": "https://dc.lft.to/lastmile_qr_scan"}, "bike_id": "b735b23411752fec3e7c36f42c9a3bd5"}, {"name": "95dc15846d18ef914377bbb01c0a70fe", "lat": 38.909649, "type": "electric_scooter", "is_disabled": 0, "fusion_lon": 0.0, "fusion_lat": 0.0, "lon": -77.04603516666667, "is_reserved": 0, "rental_uris": {"android": "https://dc.lft.to/lastmile_qr_scan", "ios": "https://dc.lft.to/lastmile_qr_scan"}, "bike_id": "95dc15846d18ef914377bbb01c0a70fe"}, {"name": "43dcda325bc5927ad81482e2aeb59da2", "lat": 38.9312165, "type": "electric_bike", "is_disabled": 0, "fusion_lon": 0.0, "fusion_lat": 0.0, "lon": -77.0271755, "is_reserved": 0, "rental_uris": {"android": "https://dc.lft.to/lastmile_qr_scan", "ios": "https://dc.lft.to/lastmile_qr_scan"}, "bike_id": "43dcda325bc5927ad81482e2aeb59da2"}, {"name": "2115a53770557c1487734f8e4955d328", "lat": 38.905082166666666, "type": "electric_scooter", "is_disabled": 0, "fusion_lon": 0.0, "fusion_lat": 0.0, "lon": -77.02951216666666, "is_reserved": 0, "rental_uris": {"android": "https://dc.lft.to/lastmile_qr_scan", "ios": "https://dc.lft.to/lastmile_qr_scan"}, "bike_id": "2115a53770557c1487734f8e4955d328"}, {"name": "cabb8c9a73b35700e8d4630ac041f40d", "lat": 38.884935166666665, "type": "electric_scooter", "is_disabled": 0, "fusion_lon": 0.0, "fusion_lat": 0.0, "lon": -77.01956483333333, "is_reserved": 0, "rental_uris": {"android": "https://dc.lft.to/lastmile_qr_scan", "ios": "https://dc.lft.to/lastmile_qr_scan"}, "bike_id": "cabb8c9a73b35700e8d4630ac041f40d"}, {"name": "89418eab7fa860586eea4877baeb71a4", "lat": 38.90144883333333, "type": "electric_scooter", "is_disabled": 0, "fusion_lon": 0.0, "fusion_lat": 0.0, "lon": -77.059205, "is_reserved": 0, "rental_uris": {"android": "https://dc.lft.to/lastmile_qr_scan", "ios": "https://dc.lft.to/lastmile_qr_scan"}, "bike_id": "89418eab7fa860586eea4877baeb71a4"}, {"name": "8d724f84042b81620bf1ed91d3d755f8", "lat": 38.91105733333333, "type": "electric_scooter", "is_disabled": 0, "fusion_lon": 0.0, "fusion_lat": 0.0, "lon": -77.00339916666667, "is_reserved": 0, "rental_uris": {"android": "https://dc.lft.to/lastmile_qr_scan", "ios": "https://dc.lft.to/lastmile_qr_scan"}, "bike_id": "8d724f84042b81620bf1ed91d3d755f8"}, {"name": "65c4c1330d926fff28438047025b1105", "lat": 38.903557666666664, "type": "electric_scooter", "is_disabled": 0, "fusion_lon": 0.0, "fusion_lat": 0.0, "lon": -77.0309755, "is_reserved": 0, "rental_uris": {"android": "https://dc.lft.to/lastmile_qr_scan", "ios": "https://dc.lft.to/lastmile_qr_scan"}, "bike_id": "65c4c1330d926fff28438047025b1105"}, {"name": "6fc20641a924e6ec20291de04c72fec0", "lat": 38.919348, "type": "electric_scooter", "is_disabled": 0, "fusion_lon": 0.0, "fusion_lat": 0.0, "lon": -77.04494383333333, "is_reserved": 0, "rental_uris": {"android": "https://dc.lft.to/lastmile_qr_scan", "ios": "https://dc.lft.to/lastmile_qr_scan"}, "bike_id": "6fc20641a924e6ec20291de04c72fec0"}, {"name": "f3e726230efa0134293d082f57b9556c", "lat": 38.89399733333333, "type": "electric_scooter", "is_disabled": 0, "fusion_lon": 0.0, "fusion_lat": 0.0, "lon": -77.0216875, "is_reserved": 0, "rental_uris": {"android": "https://dc.lft.to/lastmile_qr_scan", "ios": "https://dc.lft.to/lastmile_qr_scan"}, "bike_id": "f3e726230efa0134293d082f57b9556c"}, {"name": "ffdcf0a88ad630c48807d1fe69264583", "lat": 38.87658833333333, "type": "electric_scooter", "is_disabled": 0, "fusion_lon": 0.0, "fusion_lat": 0.0, "lon": -77.002931, "is_reserved": 0, "rental_uris": {"android": "https://dc.lft.to/lastmile_qr_scan", "ios": "https://dc.lft.to/lastmile_qr_scan"}, "bike_id": "ffdcf0a88ad630c48807d1fe69264583"}, {"name": "dad280be832ed6f52faba0cf131b5b29", "lat": 38.88390666666667, "type": "electric_scooter", "is_disabled": 0, "fusion_lon": 0.0, "fusion_lat": 0.0, "lon": -76.95447533333333, "is_reserved": 0, "rental_uris": {"android": "https://dc.lft.to/lastmile_qr_scan", "ios": "https://dc.lft.to/lastmile_qr_scan"}, "bike_id": "dad280be832ed6f52faba0cf131b5b29"}, {"name": "36e6e9985bf1f6262150961a052d8288", "lat": 38.9288815, "type": "electric_scooter", "is_disabled": 0, "fusion_lon": 0.0, "fusion_lat": 0.0, "lon": -77.03466466666667, "is_reserved": 0, "rental_uris": {"android": "https://dc.lft.to/lastmile_qr_scan", "ios": "https://dc.lft.to/lastmile_qr_scan"}, "bike_id": "36e6e9985bf1f6262150961a052d8288"}, {"name": "54d067f5dff5e781fab74d2894847ac1", "lat": 38.91926983333333, "type": "electric_scooter", "is_disabled": 0, "fusion_lon": 0.0, "fusion_lat": 0.0, "lon": -77.0342265, "is_reserved": 0, "rental_uris": {"android": "https://dc.lft.to/lastmile_qr_scan", "ios": "https://dc.lft.to/lastmile_qr_scan"}, "bike_id": "54d067f5dff5e781fab74d2894847ac1"}, {"name": "8c847b0fab0c878b4f2020bc1bcb56c6", "lat": 38.85965266666667, "type": "electric_scooter", "is_disabled": 0, "fusion_lon": 0.0, "fusion_lat": 0.0, "lon": -76.987107, "is_reserved": 0, "rental_uris": {"android": "https://dc.lft.to/lastmile_qr_scan", "ios": "https://dc.lft.to/lastmile_qr_scan"}, "bike_id": "8c847b0fab0c878b4f2020bc1bcb56c6"}, {"name": "6bfa863db691dbc2623755672704c6e5", "lat": 38.899471166666665, "type": "electric_scooter", "is_disabled": 0, "fusion_lon": 0.0, "fusion_lat": 0.0, "lon": -77.044973, "is_reserved": 0, "rental_uris": {"android": "https://dc.lft.to/lastmile_qr_scan", "ios": "https://dc.lft.to/lastmile_qr_scan"}, "bike_id": "6bfa863db691dbc2623755672704c6e5"}, {"name": "70c591a0b3142c4ee82ecbb37223c915", "lat": 38.9198125, "type": "electric_scooter", "is_disabled": 0, "fusion_lon": 0.0, "fusion_lat": 0.0, "lon": -77.033495, "is_reserved": 0, "rental_uris": {"android": "https://dc.lft.to/lastmile_qr_scan", "ios": "https://dc.lft.to/lastmile_qr_scan"}, "bike_id": "70c591a0b3142c4ee82ecbb37223c915"}, {"name": "61a940a33813e3c59a139e50025b0892", "lat": 38.919338333333336, "type": "electric_scooter", "is_disabled": 0, "fusion_lon": 0.0, "fusion_lat": 0.0, "lon": -77.03115, "is_reserved": 0, "rental_uris": {"android": "https://dc.lft.to/lastmile_qr_scan", "ios": "https://dc.lft.to/lastmile_qr_scan"}, "bike_id": "61a940a33813e3c59a139e50025b0892"}, {"name": "83d74f187a16d29c1d866c9cdd1a22a7", "lat": 38.80754866666667, "type": "electric_bike", "is_disabled": 0, "fusion_lon": 0.0, "fusion_lat": 0.0, "lon": -77.09450616666666, "is_reserved": 0, "rental_uris": {"android": "https://dc.lft.to/lastmile_qr_scan", "ios": "https://dc.lft.to/lastmile_qr_scan"}, "bike_id": "83d74f187a16d29c1d866c9cdd1a22a7"}, {"name": "c25ba46622f7dcf9401ea75a802150df", "lat": 38.92063683333333, "type": "electric_scooter", "is_disabled": 0, "fusion_lon": 0.0, "fusion_lat": 0.0, "lon": -77.04377966666667, "is_reserved": 0, "rental_uris": {"android": "https://dc.lft.to/lastmile_qr_scan", "ios": "https://dc.lft.to/lastmile_qr_scan"}, "bike_id": "c25ba46622f7dcf9401ea75a802150df"}, {"name": "2116c40fc8a1aaec38cdc727d6a310d3", "lat": 38.89980716666667, "type": "electric_scooter", "is_disabled": 0, "fusion_lon": 0.0, "fusion_lat": 0.0, "lon": -77.02271516666667, "is_reserved": 0, "rental_uris": {"android": "https://dc.lft.to/lastmile_qr_scan", "ios": "https://dc.lft.to/lastmile_qr_scan"}, "bike_id": "2116c40fc8a1aaec38cdc727d6a310d3"}, {"name": "2896b17b9b0b6e0c46c3dd5dfc1acb4f", "lat": 38.8434295, "type": "electric_bike", "is_disabled": 0, "fusion_lon": 0.0, "fusion_lat": 0.0, "lon": -77.051828, "is_reserved": 0, "rental_uris": {"android": "https://dc.lft.to/lastmile_qr_scan", "ios": "https://dc.lft.to/lastmile_qr_scan"}, "bike_id": "2896b17b9b0b6e0c46c3dd5dfc1acb4f"}, {"name": "a362b6601c402f2aaa60f45f542f8bd5", "lat": 38.89826883333333, "type": "electric_scooter", "is_disabled": 0, "fusion_lon": 0.0, "fusion_lat": 0.0, "lon": -77.04611416666667, "is_reserved": 0, "rental_uris": {"android": "https://dc.lft.to/lastmile_qr_scan", "ios": "https://dc.lft.to/lastmile_qr_scan"}, "bike_id": "a362b6601c402f2aaa60f45f542f8bd5"}, {"name": "7401ac3a7e364d7d8263a27a7234fd84", "lat": 38.909742666666666, "type": "electric_scooter", "is_disabled": 0, "fusion_lon": 0.0, "fusion_lat": 0.0, "lon": -77.008945, "is_reserved": 0, "rental_uris": {"android": "https://dc.lft.to/lastmile_qr_scan", "ios": "https://dc.lft.to/lastmile_qr_scan"}, "bike_id": "7401ac3a7e364d7d8263a27a7234fd84"}, {"name": "e8aaac8cb19a509ceeceab4060d67cc7", "lat": 38.89599366666667, "type": "electric_scooter", "is_disabled": 0, "fusion_lon": 0.0, "fusion_lat": 0.0, "lon": -77.048036, "is_reserved": 0, "rental_uris": {"android": "https://dc.lft.to/lastmile_qr_scan", "ios": "https://dc.lft.to/lastmile_qr_scan"}, "bike_id": "e8aaac8cb19a509ceeceab4060d67cc7"}, {"name": "ab3232c9ede11b60a3ac2bba652340ed", "lat": 38.904084833333336, "type": "electric_scooter", "is_disabled": 0, "fusion_lon": 0.0, "fusion_lat": 0.0, "lon": -77.05146333333333, "is_reserved": 0, "rental_uris": {"android": "https://dc.lft.to/lastmile_qr_scan", "ios": "https://dc.lft.to/lastmile_qr_scan"}, "bike_id": "ab3232c9ede11b60a3ac2bba652340ed"}, {"name": "df72b90399939a6d3c250f8af985d5b0", "lat": 38.90525383333333, "type": "electric_scooter", "is_disabled": 0, "fusion_lon": 0.0, "fusion_lat": 0.0, "lon": -77.065221, "is_reserved": 0, "rental_uris": {"android": "https://dc.lft.to/lastmile_qr_scan", "ios": "https://dc.lft.to/lastmile_qr_scan"}, "bike_id": "df72b90399939a6d3c250f8af985d5b0"}, {"name": "3dd782bc6f1524e00e17a27c1ac2e69d", "lat": 38.9185955, "type": "electric_scooter", "is_disabled": 0, "fusion_lon": 0.0, "fusion_lat": 0.0, "lon": -76.96090016666666, "is_reserved": 0, "rental_uris": {"android": "https://dc.lft.to/lastmile_qr_scan", "ios": "https://dc.lft.to/lastmile_qr_scan"}, "bike_id": "3dd782bc6f1524e00e17a27c1ac2e69d"}, {"name": "01a019ada5b23e0ade6f1e6e168dfcc5", "lat": 38.9174895, "type": "electric_scooter", "is_disabled": 0, "fusion_lon": 0.0, "fusion_lat": 0.0, "lon": -77.04152883333333, "is_reserved": 0, "rental_uris": {"android": "https://dc.lft.to/lastmile_qr_scan", "ios": "https://dc.lft.to/lastmile_qr_scan"}, "bike_id": "01a019ada5b23e0ade6f1e6e168dfcc5"}, {"name": "63e7f9f03b126b05e59d17c64b2f5343", "lat": 38.90569416666666, "type": "electric_scooter", "is_disabled": 0, "fusion_lon": 0.0, "fusion_lat": 0.0, "lon": -77.0627385, "is_reserved": 0, "rental_uris": {"android": "https://dc.lft.to/lastmile_qr_scan", "ios": "https://dc.lft.to/lastmile_qr_scan"}, "bike_id": "63e7f9f03b126b05e59d17c64b2f5343"}, {"name": "f00a8f4f1042c36f5913be1b216bd959", "lat": 38.921463, "type": "electric_scooter", "is_disabled": 0, "fusion_lon": 0.0, "fusion_lat": 0.0, "lon": -77.02095183333333, "is_reserved": 0, "rental_uris": {"android": "https://dc.lft.to/lastmile_qr_scan", "ios": "https://dc.lft.to/lastmile_qr_scan"}, "bike_id": "f00a8f4f1042c36f5913be1b216bd959"}, {"name": "83151c7e60e37ceb85fc94fb683c2ab2", "lat": 38.91122683333333, "type": "electric_scooter", "is_disabled": 0, "fusion_lon": 0.0, "fusion_lat": 0.0, "lon": -77.0317855, "is_reserved": 0, "rental_uris": {"android": "https://dc.lft.to/lastmile_qr_scan", "ios": "https://dc.lft.to/lastmile_qr_scan"}, "bike_id": "83151c7e60e37ceb85fc94fb683c2ab2"}, {"name": "69914f9a2d61998212ec44645ce2b413", "lat": 38.9233175, "type": "electric_scooter", "is_disabled": 0, "fusion_lon": 0.0, "fusion_lat": 0.0, "lon": -77.034984, "is_reserved": 0, "rental_uris": {"android": "https://dc.lft.to/lastmile_qr_scan", "ios": "https://dc.lft.to/lastmile_qr_scan"}, "bike_id": "69914f9a2d61998212ec44645ce2b413"}, {"name": "ac824dc5968b2fe91773c16bbbbff55f", "lat": 38.919750666666665, "type": "electric_scooter", "is_disabled": 0, "fusion_lon": 0.0, "fusion_lat": 0.0, "lon": -77.02492616666666, "is_reserved": 0, "rental_uris": {"android": "https://dc.lft.to/lastmile_qr_scan", "ios": "https://dc.lft.to/lastmile_qr_scan"}, "bike_id": "ac824dc5968b2fe91773c16bbbbff55f"}, {"name": "552d75112eb9ccf361bd71ec988d7b0a", "lat": 38.929702166666665, "type": "electric_scooter", "is_disabled": 0, "fusion_lon": 0.0, "fusion_lat": 0.0, "lon": -77.0377675, "is_reserved": 0, "rental_uris": {"android": "https://dc.lft.to/lastmile_qr_scan", "ios": "https://dc.lft.to/lastmile_qr_scan"}, "bike_id": "552d75112eb9ccf361bd71ec988d7b0a"}, {"name": "72797c87d7c38823cb274cde80191772", "lat": 38.87827266666667, "type": "electric_scooter", "is_disabled": 0, "fusion_lon": 0.0, "fusion_lat": 0.0, "lon": -77.00876766666667, "is_reserved": 0, "rental_uris": {"android": "https://dc.lft.to/lastmile_qr_scan", "ios": "https://dc.lft.to/lastmile_qr_scan"}, "bike_id": "72797c87d7c38823cb274cde80191772"}, {"name": "3c44d80dd1d1b2e419a87c726156d1ed", "lat": 38.9104745, "type": "electric_scooter", "is_disabled": 0, "fusion_lon": 0.0, "fusion_lat": 0.0, "lon": -77.043421, "is_reserved": 0, "rental_uris": {"android": "https://dc.lft.to/lastmile_qr_scan", "ios": "https://dc.lft.to/lastmile_qr_scan"}, "bike_id": "3c44d80dd1d1b2e419a87c726156d1ed"}, {"name": "54934a1f145ab87f0e9ba4d7ce8d172b", "lat": 38.8808305, "type": "electric_scooter", "is_disabled": 0, "fusion_lon": 0.0, "fusion_lat": 0.0, "lon": -76.99500183333333, "is_reserved": 0, "rental_uris": {"android": "https://dc.lft.to/lastmile_qr_scan", "ios": "https://dc.lft.to/lastmile_qr_scan"}, "bike_id": "54934a1f145ab87f0e9ba4d7ce8d172b"}, {"name": "44a4ab38fa15e143b4759467013ab25f", "lat": 38.9159015, "type": "electric_scooter", "is_disabled": 0, "fusion_lon": 0.0, "fusion_lat": 0.0, "lon": -76.98381116666667, "is_reserved": 0, "rental_uris": {"android": "https://dc.lft.to/lastmile_qr_scan", "ios": "https://dc.lft.to/lastmile_qr_scan"}, "bike_id": "44a4ab38fa15e143b4759467013ab25f"}, {"name": "cf3f473e70d9eeaf9f5d84a2fa849d8a", "lat": 38.9393315, "type": "electric_scooter", "is_disabled": 0, "fusion_lon": 0.0, "fusion_lat": 0.0, "lon": -77.03268766666666, "is_reserved": 0, "rental_uris": {"android": "https://dc.lft.to/lastmile_qr_scan", "ios": "https://dc.lft.to/lastmile_qr_scan"}, "bike_id": "cf3f473e70d9eeaf9f5d84a2fa849d8a"}, {"name": "5be998a3ca03fe3ecfad22e61fe34357", "lat": 38.841877, "type": "electric_bike", "is_disabled": 0, "fusion_lon": 0.0, "fusion_lat": 0.0, "lon": -77.077479, "is_reserved": 0, "rental_uris": {"android": "https://dc.lft.to/lastmile_qr_scan", "ios": "https://dc.lft.to/lastmile_qr_scan"}, "bike_id": "5be998a3ca03fe3ecfad22e61fe34357"}, {"name": "84a8e76916db96cc43a345d804b791bd", "lat": 38.892634666666666, "type": "electric_scooter", "is_disabled": 0, "fusion_lon": 0.0, "fusion_lat": 0.0, "lon": -76.98371, "is_reserved": 0, "rental_uris": {"android": "https://dc.lft.to/lastmile_qr_scan", "ios": "https://dc.lft.to/lastmile_qr_scan"}, "bike_id": "84a8e76916db96cc43a345d804b791bd"}, {"name": "0ba2a075624de4a24eca214bacd2ec93", "lat": 38.93057366666667, "type": "electric_scooter", "is_disabled": 0, "fusion_lon": 0.0, "fusion_lat": 0.0, "lon": -77.0394075, "is_reserved": 0, "rental_uris": {"android": "https://dc.lft.to/lastmile_qr_scan", "ios": "https://dc.lft.to/lastmile_qr_scan"}, "bike_id": "0ba2a075624de4a24eca214bacd2ec93"}, {"name": "5f05e54ede21ff6687ef48accdf90b9a", "lat": 38.92671216666667, "type": "electric_scooter", "is_disabled": 0, "fusion_lon": 0.0, "fusion_lat": 0.0, "lon": -77.040495, "is_reserved": 0, "rental_uris": {"android": "https://dc.lft.to/lastmile_qr_scan", "ios": "https://dc.lft.to/lastmile_qr_scan"}, "bike_id": "5f05e54ede21ff6687ef48accdf90b9a"}, {"name": "f07962e055eb9a02bee61e57ced8fe2d", "lat": 38.8839355, "type": "electric_scooter", "is_disabled": 0, "fusion_lon": 0.0, "fusion_lat": 0.0, "lon": -76.95735933333333, "is_reserved": 0, "rental_uris": {"android": "https://dc.lft.to/lastmile_qr_scan", "ios": "https://dc.lft.to/lastmile_qr_scan"}, "bike_id": "f07962e055eb9a02bee61e57ced8fe2d"}, {"name": "1bef41387a9698ec7d8e3aacabf6ae32", "lat": 38.899102166666665, "type": "electric_scooter", "is_disabled": 0, "fusion_lon": 0.0, "fusion_lat": 0.0, "lon": -77.04996366666667, "is_reserved": 0, "rental_uris": {"android": "https://dc.lft.to/lastmile_qr_scan", "ios": "https://dc.lft.to/lastmile_qr_scan"}, "bike_id": "1bef41387a9698ec7d8e3aacabf6ae32"}, {"name": "55306e9a93911c02ab5d8132ebd1924a", "lat": 38.902052833333336, "type": "electric_scooter", "is_disabled": 0, "fusion_lon": 0.0, "fusion_lat": 0.0, "lon": -77.0382635, "is_reserved": 0, "rental_uris": {"android": "https://dc.lft.to/lastmile_qr_scan", "ios": "https://dc.lft.to/lastmile_qr_scan"}, "bike_id": "55306e9a93911c02ab5d8132ebd1924a"}, {"name": "485608e7de9aea595fd048db33d20efe", "lat": 38.92468433333333, "type": "electric_scooter", "is_disabled": 0, "fusion_lon": 0.0, "fusion_lat": 0.0, "lon": -77.03372766666666, "is_reserved": 0, "rental_uris": {"android": "https://dc.lft.to/lastmile_qr_scan", "ios": "https://dc.lft.to/lastmile_qr_scan"}, "bike_id": "485608e7de9aea595fd048db33d20efe"}, {"name": "e7865ad4a624ff3b308e2405cb705cf7", "lat": 38.90856983333333, "type": "electric_scooter", "is_disabled": 0, "fusion_lon": 0.0, "fusion_lat": 0.0, "lon": -77.02422016666667, "is_reserved": 0, "rental_uris": {"android": "https://dc.lft.to/lastmile_qr_scan", "ios": "https://dc.lft.to/lastmile_qr_scan"}, "bike_id": "e7865ad4a624ff3b308e2405cb705cf7"}, {"name": "6c313a580fc9cb7ad37f467caaebdc7e", "lat": 38.91629283333333, "type": "electric_scooter", "is_disabled": 0, "fusion_lon": 0.0, "fusion_lat": 0.0, "lon": -77.035025, "is_reserved": 0, "rental_uris": {"android": "https://dc.lft.to/lastmile_qr_scan", "ios": "https://dc.lft.to/lastmile_qr_scan"}, "bike_id": "6c313a580fc9cb7ad37f467caaebdc7e"}, {"name": "77515a78b4bf453d70e7e169dde3e918", "lat": 38.89432466666667, "type": "electric_scooter", "is_disabled": 0, "fusion_lon": 0.0, "fusion_lat": 0.0, "lon": -77.022131, "is_reserved": 0, "rental_uris": {"android": "https://dc.lft.to/lastmile_qr_scan", "ios": "https://dc.lft.to/lastmile_qr_scan"}, "bike_id": "77515a78b4bf453d70e7e169dde3e918"}, {"name": "69ea1f53c8540d1c6deed32d40ffd9b1", "lat": 38.920722166666664, "type": "electric_scooter", "is_disabled": 0, "fusion_lon": 0.0, "fusion_lat": 0.0, "lon": -77.02541, "is_reserved": 0, "rental_uris": {"android": "https://dc.lft.to/lastmile_qr_scan", "ios": "https://dc.lft.to/lastmile_qr_scan"}, "bike_id": "69ea1f53c8540d1c6deed32d40ffd9b1"}, {"name": "40644fa33bd14e486727168ee59ac8cb", "lat": 38.9174775, "type": "electric_scooter", "is_disabled": 0, "fusion_lon": 0.0, "fusion_lat": 0.0, "lon": -77.02491066666667, "is_reserved": 0, "rental_uris": {"android": "https://dc.lft.to/lastmile_qr_scan", "ios": "https://dc.lft.to/lastmile_qr_scan"}, "bike_id": "40644fa33bd14e486727168ee59ac8cb"}, {"name": "1f96df251cbe895734708f5c054413d6", "lat": 38.92852883333333, "type": "electric_scooter", "is_disabled": 0, "fusion_lon": 0.0, "fusion_lat": 0.0, "lon": -77.05427216666666, "is_reserved": 0, "rental_uris": {"android": "https://dc.lft.to/lastmile_qr_scan", "ios": "https://dc.lft.to/lastmile_qr_scan"}, "bike_id": "1f96df251cbe895734708f5c054413d6"}, {"name": "097cf6d573db83695419bc1cffde4515", "lat": 38.923731833333335, "type": "electric_scooter", "is_disabled": 0, "fusion_lon": 0.0, "fusion_lat": 0.0, "lon": -77.02124466666666, "is_reserved": 0, "rental_uris": {"android": "https://dc.lft.to/lastmile_qr_scan", "ios": "https://dc.lft.to/lastmile_qr_scan"}, "bike_id": "097cf6d573db83695419bc1cffde4515"}, {"name": "fbd5e0b6761f181f5f1d4b22953912d4", "lat": 38.911744, "type": "electric_scooter", "is_disabled": 0, "fusion_lon": 0.0, "fusion_lat": 0.0, "lon": -77.02954516666667, "is_reserved": 0, "rental_uris": {"android": "https://dc.lft.to/lastmile_qr_scan", "ios": "https://dc.lft.to/lastmile_qr_scan"}, "bike_id": "fbd5e0b6761f181f5f1d4b22953912d4"}, {"name": "2d246ea5b42170297d41a8252101c251", "lat": 38.93628283333334, "type": "electric_scooter", "is_disabled": 0, "fusion_lon": 0.0, "fusion_lat": 0.0, "lon": -77.03651466666666, "is_reserved": 0, "rental_uris": {"android": "https://dc.lft.to/lastmile_qr_scan", "ios": "https://dc.lft.to/lastmile_qr_scan"}, "bike_id": "2d246ea5b42170297d41a8252101c251"}, {"name": "b32fa3b64821da2b78f3c2faf267a8c1", "lat": 38.919795, "type": "electric_scooter", "is_disabled": 0, "fusion_lon": 0.0, "fusion_lat": 0.0, "lon": -77.03225466666666, "is_reserved": 0, "rental_uris": {"android": "https://dc.lft.to/lastmile_qr_scan", "ios": "https://dc.lft.to/lastmile_qr_scan"}, "bike_id": "b32fa3b64821da2b78f3c2faf267a8c1"}, {"name": "a2bf3a11793a121686d2274d65034af9", "lat": 38.92367466666666, "type": "electric_scooter", "is_disabled": 0, "fusion_lon": 0.0, "fusion_lat": 0.0, "lon": -77.0213025, "is_reserved": 0, "rental_uris": {"android": "https://dc.lft.to/lastmile_qr_scan", "ios": "https://dc.lft.to/lastmile_qr_scan"}, "bike_id": "a2bf3a11793a121686d2274d65034af9"}, {"name": "d3019b07247756edd67d068e3fb20743", "lat": 38.9304285, "type": "electric_bike", "is_disabled": 0, "fusion_lon": 0.0, "fusion_lat": 0.0, "lon": -77.07348116666667, "is_reserved": 0, "rental_uris": {"android": "https://dc.lft.to/lastmile_qr_scan", "ios": "https://dc.lft.to/lastmile_qr_scan"}, "bike_id": "d3019b07247756edd67d068e3fb20743"}, {"name": "4062739caabbdb8355a403bbf92e97c7", "lat": 38.906780833333336, "type": "electric_scooter", "is_disabled": 0, "fusion_lon": 0.0, "fusion_lat": 0.0, "lon": -76.98633266666667, "is_reserved": 0, "rental_uris": {"android": "https://dc.lft.to/lastmile_qr_scan", "ios": "https://dc.lft.to/lastmile_qr_scan"}, "bike_id": "4062739caabbdb8355a403bbf92e97c7"}, {"name": "11891e03f7e93ce3ae13327bac69de26", "lat": 38.8329855, "type": "electric_bike", "is_disabled": 0, "fusion_lon": 0.0, "fusion_lat": 0.0, "lon": -77.08407633333333, "is_reserved": 0, "rental_uris": {"android": "https://dc.lft.to/lastmile_qr_scan", "ios": "https://dc.lft.to/lastmile_qr_scan"}, "bike_id": "11891e03f7e93ce3ae13327bac69de26"}, {"name": "5cbfc47eff73ba6ca50615450ec8fedf", "lat": 38.92307016666667, "type": "electric_scooter", "is_disabled": 0, "fusion_lon": 0.0, "fusion_lat": 0.0, "lon": -77.03654616666667, "is_reserved": 0, "rental_uris": {"android": "https://dc.lft.to/lastmile_qr_scan", "ios": "https://dc.lft.to/lastmile_qr_scan"}, "bike_id": "5cbfc47eff73ba6ca50615450ec8fedf"}, {"name": "730b072ffdc418fdde308214075c5c6f", "lat": 38.902148, "type": "electric_scooter", "is_disabled": 0, "fusion_lon": 0.0, "fusion_lat": 0.0, "lon": -77.03744983333333, "is_reserved": 0, "rental_uris": {"android": "https://dc.lft.to/lastmile_qr_scan", "ios": "https://dc.lft.to/lastmile_qr_scan"}, "bike_id": "730b072ffdc418fdde308214075c5c6f"}, {"name": "1a0f95bdfbdea2fa85ed7e679bdbe5f6", "lat": 38.9197895, "type": "electric_scooter", "is_disabled": 0, "fusion_lon": 0.0, "fusion_lat": 0.0, "lon": -77.00020233333333, "is_reserved": 0, "rental_uris": {"android": "https://dc.lft.to/lastmile_qr_scan", "ios": "https://dc.lft.to/lastmile_qr_scan"}, "bike_id": "1a0f95bdfbdea2fa85ed7e679bdbe5f6"}, {"name": "a894b57be29a6f2a097670e9ce22ce6d", "lat": 38.898383333333335, "type": "electric_scooter", "is_disabled": 0, "fusion_lon": 0.0, "fusion_lat": 0.0, "lon": -77.02280583333334, "is_reserved": 0, "rental_uris": {"android": "https://dc.lft.to/lastmile_qr_scan", "ios": "https://dc.lft.to/lastmile_qr_scan"}, "bike_id": "a894b57be29a6f2a097670e9ce22ce6d"}, {"name": "1968f62014219ef3a71e2cb4e9c6aa31", "lat": 38.91092533333333, "type": "electric_scooter", "is_disabled": 0, "fusion_lon": 0.0, "fusion_lat": 0.0, "lon": -77.03853133333334, "is_reserved": 0, "rental_uris": {"android": "https://dc.lft.to/lastmile_qr_scan", "ios": "https://dc.lft.to/lastmile_qr_scan"}, "bike_id": "1968f62014219ef3a71e2cb4e9c6aa31"}, {"name": "ea881798e7f7a1628b1dccf7222e8a80", "lat": 38.935250833333335, "type": "electric_scooter", "is_disabled": 0, "fusion_lon": 0.0, "fusion_lat": 0.0, "lon": -77.058212, "is_reserved": 0, "rental_uris": {"android": "https://dc.lft.to/lastmile_qr_scan", "ios": "https://dc.lft.to/lastmile_qr_scan"}, "bike_id": "ea881798e7f7a1628b1dccf7222e8a80"}, {"name": "a6dd57bdd61e90cd1175a1572e07b11a", "lat": 38.935138333333335, "type": "electric_bike", "is_disabled": 0, "fusion_lon": 0.0, "fusion_lat": 0.0, "lon": -76.983473, "is_reserved": 0, "rental_uris": {"android": "https://dc.lft.to/lastmile_qr_scan", "ios": "https://dc.lft.to/lastmile_qr_scan"}, "bike_id": "a6dd57bdd61e90cd1175a1572e07b11a"}, {"name": "9d0a0cd9bf98b3ce635b7960836ec478", "lat": 38.899866333333335, "type": "electric_scooter", "is_disabled": 0, "fusion_lon": 0.0, "fusion_lat": 0.0, "lon": -76.97742766666667, "is_reserved": 0, "rental_uris": {"android": "https://dc.lft.to/lastmile_qr_scan", "ios": "https://dc.lft.to/lastmile_qr_scan"}, "bike_id": "9d0a0cd9bf98b3ce635b7960836ec478"}, {"name": "8aad8a9a1501c22538f1f0154094eef0", "lat": 38.9002115, "type": "electric_scooter", "is_disabled": 0, "fusion_lon": 0.0, "fusion_lat": 0.0, "lon": -77.033603, "is_reserved": 0, "rental_uris": {"android": "https://dc.lft.to/lastmile_qr_scan", "ios": "https://dc.lft.to/lastmile_qr_scan"}, "bike_id": "8aad8a9a1501c22538f1f0154094eef0"}, {"name": "308513db31f7f03ef7a3a36ed537ddf2", "lat": 38.92105083333333, "type": "electric_scooter", "is_disabled": 0, "fusion_lon": 0.0, "fusion_lat": 0.0, "lon": -77.03177633333334, "is_reserved": 0, "rental_uris": {"android": "https://dc.lft.to/lastmile_qr_scan", "ios": "https://dc.lft.to/lastmile_qr_scan"}, "bike_id": "308513db31f7f03ef7a3a36ed537ddf2"}, {"name": "cdee586cb0650a4639c51610d8fb6e36", "lat": 38.8975445, "type": "electric_scooter", "is_disabled": 0, "fusion_lon": 0.0, "fusion_lat": 0.0, "lon": -76.941871, "is_reserved": 0, "rental_uris": {"android": "https://dc.lft.to/lastmile_qr_scan", "ios": "https://dc.lft.to/lastmile_qr_scan"}, "bike_id": "cdee586cb0650a4639c51610d8fb6e36"}, {"name": "8cdc26810fb37b7d533dbe47627d032e", "lat": 38.87631183333333, "type": "electric_scooter", "is_disabled": 0, "fusion_lon": 0.0, "fusion_lat": 0.0, "lon": -77.00120516666667, "is_reserved": 0, "rental_uris": {"android": "https://dc.lft.to/lastmile_qr_scan", "ios": "https://dc.lft.to/lastmile_qr_scan"}, "bike_id": "8cdc26810fb37b7d533dbe47627d032e"}, {"name": "58d979ffc5be1b7493dd6dc0c7df6888", "lat": 38.901324333333335, "type": "electric_scooter", "is_disabled": 0, "fusion_lon": 0.0, "fusion_lat": 0.0, "lon": -77.03380216666666, "is_reserved": 0, "rental_uris": {"android": "https://dc.lft.to/lastmile_qr_scan", "ios": "https://dc.lft.to/lastmile_qr_scan"}, "bike_id": "58d979ffc5be1b7493dd6dc0c7df6888"}, {"name": "f1b687f38e578ab0747a8745e48d4a79", "lat": 38.912638666666666, "type": "electric_scooter", "is_disabled": 0, "fusion_lon": 0.0, "fusion_lat": 0.0, "lon": -77.0240045, "is_reserved": 0, "rental_uris": {"android": "https://dc.lft.to/lastmile_qr_scan", "ios": "https://dc.lft.to/lastmile_qr_scan"}, "bike_id": "f1b687f38e578ab0747a8745e48d4a79"}, {"name": "0a11a735e4c300b399f7057957dc5b51", "lat": 38.9192595, "type": "electric_scooter", "is_disabled": 0, "fusion_lon": 0.0, "fusion_lat": 0.0, "lon": -77.0196605, "is_reserved": 0, "rental_uris": {"android": "https://dc.lft.to/lastmile_qr_scan", "ios": "https://dc.lft.to/lastmile_qr_scan"}, "bike_id": "0a11a735e4c300b399f7057957dc5b51"}, {"name": "c3f751b8aa08049bf48db8c05b9a2b6f", "lat": 38.924926, "type": "electric_scooter", "is_disabled": 0, "fusion_lon": 0.0, "fusion_lat": 0.0, "lon": -77.02176566666667, "is_reserved": 0, "rental_uris": {"android": "https://dc.lft.to/lastmile_qr_scan", "ios": "https://dc.lft.to/lastmile_qr_scan"}, "bike_id": "c3f751b8aa08049bf48db8c05b9a2b6f"}, {"name": "51f573cf826a51ef270eb50f534ca6a0", "lat": 38.881116666666664, "type": "electric_scooter", "is_disabled": 0, "fusion_lon": 0.0, "fusion_lat": 0.0, "lon": -77.0166625, "is_reserved": 0, "rental_uris": {"android": "https://dc.lft.to/lastmile_qr_scan", "ios": "https://dc.lft.to/lastmile_qr_scan"}, "bike_id": "51f573cf826a51ef270eb50f534ca6a0"}, {"name": "8d3df84c101dd4926286a07d2b31be94", "lat": 38.89394333333333, "type": "electric_scooter", "is_disabled": 0, "fusion_lon": 0.0, "fusion_lat": 0.0, "lon": -76.9781325, "is_reserved": 0, "rental_uris": {"android": "https://dc.lft.to/lastmile_qr_scan", "ios": "https://dc.lft.to/lastmile_qr_scan"}, "bike_id": "8d3df84c101dd4926286a07d2b31be94"}, {"name": "d42b34caf1ccd2cfb2a00077b2a25362", "lat": 38.903125, "type": "electric_scooter", "is_disabled": 0, "fusion_lon": 0.0, "fusion_lat": 0.0, "lon": -77.02985016666666, "is_reserved": 0, "rental_uris": {"android": "https://dc.lft.to/lastmile_qr_scan", "ios": "https://dc.lft.to/lastmile_qr_scan"}, "bike_id": "d42b34caf1ccd2cfb2a00077b2a25362"}, {"name": "11730624a34a9b13cff5ca9a41607213", "lat": 38.924726, "type": "electric_scooter", "is_disabled": 0, "fusion_lon": 0.0, "fusion_lat": 0.0, "lon": -77.0299505, "is_reserved": 0, "rental_uris": {"android": "https://dc.lft.to/lastmile_qr_scan", "ios": "https://dc.lft.to/lastmile_qr_scan"}, "bike_id": "11730624a34a9b13cff5ca9a41607213"}, {"name": "84230d47175016c3c7075d5aa96bc186", "lat": 38.876806, "type": "electric_scooter", "is_disabled": 0, "fusion_lon": 0.0, "fusion_lat": 0.0, "lon": -77.000641, "is_reserved": 0, "rental_uris": {"android": "https://dc.lft.to/lastmile_qr_scan", "ios": "https://dc.lft.to/lastmile_qr_scan"}, "bike_id": "84230d47175016c3c7075d5aa96bc186"}, {"name": "bcfce172854a4659bc189f4152bce0e8", "lat": 38.873778333333334, "type": "electric_scooter", "is_disabled": 0, "fusion_lon": 0.0, "fusion_lat": 0.0, "lon": -77.00122133333333, "is_reserved": 0, "rental_uris": {"android": "https://dc.lft.to/lastmile_qr_scan", "ios": "https://dc.lft.to/lastmile_qr_scan"}, "bike_id": "bcfce172854a4659bc189f4152bce0e8"}, {"name": "8192ae99710bd05fcad00df86789ae8a", "lat": 38.92631516666667, "type": "electric_scooter", "is_disabled": 0, "fusion_lon": 0.0, "fusion_lat": 0.0, "lon": -77.037062, "is_reserved": 0, "rental_uris": {"android": "https://dc.lft.to/lastmile_qr_scan", "ios": "https://dc.lft.to/lastmile_qr_scan"}, "bike_id": "8192ae99710bd05fcad00df86789ae8a"}, {"name": "b81cf34098cf48fa800dbab086c2f088", "lat": 38.900623333333336, "type": "electric_scooter", "is_disabled": 0, "fusion_lon": 0.0, "fusion_lat": 0.0, "lon": -77.0459295, "is_reserved": 0, "rental_uris": {"android": "https://dc.lft.to/lastmile_qr_scan", "ios": "https://dc.lft.to/lastmile_qr_scan"}, "bike_id": "b81cf34098cf48fa800dbab086c2f088"}, {"name": "b7308cd53a27062cf7508e0308927e9d", "lat": 38.92412866666667, "type": "electric_scooter", "is_disabled": 0, "fusion_lon": 0.0, "fusion_lat": 0.0, "lon": -77.02293883333333, "is_reserved": 0, "rental_uris": {"android": "https://dc.lft.to/lastmile_qr_scan", "ios": "https://dc.lft.to/lastmile_qr_scan"}, "bike_id": "b7308cd53a27062cf7508e0308927e9d"}, {"name": "965106ddd65be9cc5e5a19270f59a19e", "lat": 38.931245833333335, "type": "electric_scooter", "is_disabled": 0, "fusion_lon": 0.0, "fusion_lat": 0.0, "lon": -77.0353035, "is_reserved": 0, "rental_uris": {"android": "https://dc.lft.to/lastmile_qr_scan", "ios": "https://dc.lft.to/lastmile_qr_scan"}, "bike_id": "965106ddd65be9cc5e5a19270f59a19e"}, {"name": "a1dd744c81e2d2669b288e44ae411a1e", "lat": 38.932483, "type": "electric_scooter", "is_disabled": 0, "fusion_lon": 0.0, "fusion_lat": 0.0, "lon": -77.03856783333333, "is_reserved": 0, "rental_uris": {"android": "https://dc.lft.to/lastmile_qr_scan", "ios": "https://dc.lft.to/lastmile_qr_scan"}, "bike_id": "a1dd744c81e2d2669b288e44ae411a1e"}, {"name": "b915ec7c810102f3c3509b796a4219b3", "lat": 38.91922116666667, "type": "electric_scooter", "is_disabled": 0, "fusion_lon": 0.0, "fusion_lat": 0.0, "lon": -77.03422933333333, "is_reserved": 0, "rental_uris": {"android": "https://dc.lft.to/lastmile_qr_scan", "ios": "https://dc.lft.to/lastmile_qr_scan"}, "bike_id": "b915ec7c810102f3c3509b796a4219b3"}, {"name": "7c2e9b043712f26945b7054559dfde83", "lat": 38.92570933333333, "type": "electric_scooter", "is_disabled": 0, "fusion_lon": 0.0, "fusion_lat": 0.0, "lon": -77.037797, "is_reserved": 0, "rental_uris": {"android": "https://dc.lft.to/lastmile_qr_scan", "ios": "https://dc.lft.to/lastmile_qr_scan"}, "bike_id": "7c2e9b043712f26945b7054559dfde83"}, {"name": "1617392f569feedecc21dc5c1af6894a", "lat": 38.89248166666667, "type": "electric_scooter", "is_disabled": 0, "fusion_lon": 0.0, "fusion_lat": 0.0, "lon": -77.04874933333333, "is_reserved": 0, "rental_uris": {"android": "https://dc.lft.to/lastmile_qr_scan", "ios": "https://dc.lft.to/lastmile_qr_scan"}, "bike_id": "1617392f569feedecc21dc5c1af6894a"}, {"name": "a14174df31fddc6668b50f6ecf11ba9f", "lat": 38.809757833333336, "type": "electric_bike", "is_disabled": 0, "fusion_lon": 0.0, "fusion_lat": 0.0, "lon": -77.07657833333333, "is_reserved": 0, "rental_uris": {"android": "https://dc.lft.to/lastmile_qr_scan", "ios": "https://dc.lft.to/lastmile_qr_scan"}, "bike_id": "a14174df31fddc6668b50f6ecf11ba9f"}, {"name": "4641bf3d46b9eceb1a58d4797add8130", "lat": 38.92442966666667, "type": "electric_scooter", "is_disabled": 0, "fusion_lon": 0.0, "fusion_lat": 0.0, "lon": -77.05753466666667, "is_reserved": 0, "rental_uris": {"android": "https://dc.lft.to/lastmile_qr_scan", "ios": "https://dc.lft.to/lastmile_qr_scan"}, "bike_id": "4641bf3d46b9eceb1a58d4797add8130"}, {"name": "ec8c0bf5d7b79250b376034f1afc21f6", "lat": 38.908668, "type": "electric_scooter", "is_disabled": 0, "fusion_lon": 0.0, "fusion_lat": 0.0, "lon": -77.07160116666667, "is_reserved": 0, "rental_uris": {"android": "https://dc.lft.to/lastmile_qr_scan", "ios": "https://dc.lft.to/lastmile_qr_scan"}, "bike_id": "ec8c0bf5d7b79250b376034f1afc21f6"}, {"name": "4a3dd49bca6259c2bbe15d8e79e1bcc1", "lat": 38.922243333333334, "type": "electric_scooter", "is_disabled": 0, "fusion_lon": 0.0, "fusion_lat": 0.0, "lon": -77.02713766666666, "is_reserved": 0, "rental_uris": {"android": "https://dc.lft.to/lastmile_qr_scan", "ios": "https://dc.lft.to/lastmile_qr_scan"}, "bike_id": "4a3dd49bca6259c2bbe15d8e79e1bcc1"}, {"name": "e82466ad90b896c6356620b88a4d646c", "lat": 38.9192735, "type": "electric_scooter", "is_disabled": 0, "fusion_lon": 0.0, "fusion_lat": 0.0, "lon": -77.03423933333333, "is_reserved": 0, "rental_uris": {"android": "https://dc.lft.to/lastmile_qr_scan", "ios": "https://dc.lft.to/lastmile_qr_scan"}, "bike_id": "e82466ad90b896c6356620b88a4d646c"}, {"name": "ccc56a7ee0f9e43e617d9f3c5e8cf02c", "lat": 38.876926833333336, "type": "electric_scooter", "is_disabled": 0, "fusion_lon": 0.0, "fusion_lat": 0.0, "lon": -77.00299666666666, "is_reserved": 0, "rental_uris": {"android": "https://dc.lft.to/lastmile_qr_scan", "ios": "https://dc.lft.to/lastmile_qr_scan"}, "bike_id": "ccc56a7ee0f9e43e617d9f3c5e8cf02c"}, {"name": "d22f5ef70e82baaa04a012a93ce8ce27", "lat": 38.901297, "type": "electric_scooter", "is_disabled": 0, "fusion_lon": 0.0, "fusion_lat": 0.0, "lon": -77.01786016666667, "is_reserved": 0, "rental_uris": {"android": "https://dc.lft.to/lastmile_qr_scan", "ios": "https://dc.lft.to/lastmile_qr_scan"}, "bike_id": "d22f5ef70e82baaa04a012a93ce8ce27"}, {"name": "e90a82c2e3a9fa200217965bf5f5db7d", "lat": 38.919275999999996, "type": "electric_scooter", "is_disabled": 0, "fusion_lon": 0.0, "fusion_lat": 0.0, "lon": -77.04491183333333, "is_reserved": 0, "rental_uris": {"android": "https://dc.lft.to/lastmile_qr_scan", "ios": "https://dc.lft.to/lastmile_qr_scan"}, "bike_id": "e90a82c2e3a9fa200217965bf5f5db7d"}, {"name": "6ae9a36452e5fb3444669d9ab02a8c71", "lat": 38.909565, "type": "electric_scooter", "is_disabled": 0, "fusion_lon": 0.0, "fusion_lat": 0.0, "lon": -77.03420666666666, "is_reserved": 0, "rental_uris": {"android": "https://dc.lft.to/lastmile_qr_scan", "ios": "https://dc.lft.to/lastmile_qr_scan"}, "bike_id": "6ae9a36452e5fb3444669d9ab02a8c71"}, {"name": "8017abf93d57450d24a1bc239128557d", "lat": 38.92602516666667, "type": "electric_scooter", "is_disabled": 0, "fusion_lon": 0.0, "fusion_lat": 0.0, "lon": -77.02151033333334, "is_reserved": 0, "rental_uris": {"android": "https://dc.lft.to/lastmile_qr_scan", "ios": "https://dc.lft.to/lastmile_qr_scan"}, "bike_id": "8017abf93d57450d24a1bc239128557d"}, {"name": "1270a89525f7abcb7747030ad3023d19", "lat": 38.901782, "type": "electric_scooter", "is_disabled": 0, "fusion_lon": 0.0, "fusion_lat": 0.0, "lon": -77.04341516666666, "is_reserved": 0, "rental_uris": {"android": "https://dc.lft.to/lastmile_qr_scan", "ios": "https://dc.lft.to/lastmile_qr_scan"}, "bike_id": "1270a89525f7abcb7747030ad3023d19"}, {"name": "d2735431222082965edd6fba23669a56", "lat": 38.892217333333335, "type": "electric_scooter", "is_disabled": 0, "fusion_lon": 0.0, "fusion_lat": 0.0, "lon": -77.02181133333333, "is_reserved": 0, "rental_uris": {"android": "https://dc.lft.to/lastmile_qr_scan", "ios": "https://dc.lft.to/lastmile_qr_scan"}, "bike_id": "d2735431222082965edd6fba23669a56"}, {"name": "621e342f2df135feaca36b01ef55917c", "lat": 38.91778383333333, "type": "electric_scooter", "is_disabled": 0, "fusion_lon": 0.0, "fusion_lat": 0.0, "lon": -77.047655, "is_reserved": 0, "rental_uris": {"android": "https://dc.lft.to/lastmile_qr_scan", "ios": "https://dc.lft.to/lastmile_qr_scan"}, "bike_id": "621e342f2df135feaca36b01ef55917c"}, {"name": "c89f753402e754ddcc673fa917cfdf19", "lat": 38.9034595, "type": "electric_scooter", "is_disabled": 0, "fusion_lon": 0.0, "fusion_lat": 0.0, "lon": -76.92941983333333, "is_reserved": 0, "rental_uris": {"android": "https://dc.lft.to/lastmile_qr_scan", "ios": "https://dc.lft.to/lastmile_qr_scan"}, "bike_id": "c89f753402e754ddcc673fa917cfdf19"}, {"name": "69c03677593c19e6f6f8a536c4682da6", "lat": 38.915713333333336, "type": "electric_scooter", "is_disabled": 0, "fusion_lon": 0.0, "fusion_lat": 0.0, "lon": -77.046293, "is_reserved": 0, "rental_uris": {"android": "https://dc.lft.to/lastmile_qr_scan", "ios": "https://dc.lft.to/lastmile_qr_scan"}, "bike_id": "69c03677593c19e6f6f8a536c4682da6"}, {"name": "b9bcf96d65676419dbeadbf51b16d826", "lat": 38.9169095, "type": "electric_scooter", "is_disabled": 0, "fusion_lon": 0.0, "fusion_lat": 0.0, "lon": -77.03851933333333, "is_reserved": 0, "rental_uris": {"android": "https://dc.lft.to/lastmile_qr_scan", "ios": "https://dc.lft.to/lastmile_qr_scan"}, "bike_id": "b9bcf96d65676419dbeadbf51b16d826"}, {"name": "b69feb767fb811a14e55c2839134662d", "lat": 38.89979433333333, "type": "electric_scooter", "is_disabled": 0, "fusion_lon": 0.0, "fusion_lat": 0.0, "lon": -77.02583566666667, "is_reserved": 0, "rental_uris": {"android": "https://dc.lft.to/lastmile_qr_scan", "ios": "https://dc.lft.to/lastmile_qr_scan"}, "bike_id": "b69feb767fb811a14e55c2839134662d"}, {"name": "fb620915e8191dbbe17e4a9b9cbe31af", "lat": 38.918349166666665, "type": "electric_scooter", "is_disabled": 0, "fusion_lon": 0.0, "fusion_lat": 0.0, "lon": -77.04031766666667, "is_reserved": 0, "rental_uris": {"android": "https://dc.lft.to/lastmile_qr_scan", "ios": "https://dc.lft.to/lastmile_qr_scan"}, "bike_id": "fb620915e8191dbbe17e4a9b9cbe31af"}, {"name": "a612f09f07794b93ca663f6c3d3f22e9", "lat": 38.92702116666667, "type": "electric_scooter", "is_disabled": 0, "fusion_lon": 0.0, "fusion_lat": 0.0, "lon": -77.020841, "is_reserved": 0, "rental_uris": {"android": "https://dc.lft.to/lastmile_qr_scan", "ios": "https://dc.lft.to/lastmile_qr_scan"}, "bike_id": "a612f09f07794b93ca663f6c3d3f22e9"}, {"name": "25f4edd1bf521cfd7423904a7e73eb3d", "lat": 38.934310333333336, "type": "electric_scooter", "is_disabled": 0, "fusion_lon": 0.0, "fusion_lat": 0.0, "lon": -77.034457, "is_reserved": 0, "rental_uris": {"android": "https://dc.lft.to/lastmile_qr_scan", "ios": "https://dc.lft.to/lastmile_qr_scan"}, "bike_id": "25f4edd1bf521cfd7423904a7e73eb3d"}, {"name": "c8e70b6795871bd107ef62a773214ff7", "lat": 38.93570866666666, "type": "electric_scooter", "is_disabled": 0, "fusion_lon": 0.0, "fusion_lat": 0.0, "lon": -77.0335035, "is_reserved": 0, "rental_uris": {"android": "https://dc.lft.to/lastmile_qr_scan", "ios": "https://dc.lft.to/lastmile_qr_scan"}, "bike_id": "c8e70b6795871bd107ef62a773214ff7"}, {"name": "a1e3109ae3c5049059069be18a8c1d4c", "lat": 38.89461466666667, "type": "electric_scooter", "is_disabled": 0, "fusion_lon": 0.0, "fusion_lat": 0.0, "lon": -77.02006616666667, "is_reserved": 0, "rental_uris": {"android": "https://dc.lft.to/lastmile_qr_scan", "ios": "https://dc.lft.to/lastmile_qr_scan"}, "bike_id": "a1e3109ae3c5049059069be18a8c1d4c"}, {"name": "9447175251ece6dfaff79524175eef2c", "lat": 38.85649333333333, "type": "electric_bike", "is_disabled": 0, "fusion_lon": 0.0, "fusion_lat": 0.0, "lon": -77.08525933333334, "is_reserved": 0, "rental_uris": {"android": "https://dc.lft.to/lastmile_qr_scan", "ios": "https://dc.lft.to/lastmile_qr_scan"}, "bike_id": "9447175251ece6dfaff79524175eef2c"}, {"name": "f228a6b5ea182f4e94c4c8d0e206079d", "lat": 38.911910666666664, "type": "electric_scooter", "is_disabled": 0, "fusion_lon": 0.0, "fusion_lat": 0.0, "lon": -77.06083483333333, "is_reserved": 0, "rental_uris": {"android": "https://dc.lft.to/lastmile_qr_scan", "ios": "https://dc.lft.to/lastmile_qr_scan"}, "bike_id": "f228a6b5ea182f4e94c4c8d0e206079d"}, {"name": "372aafec22ee12098f544fca02cd3b61", "lat": 38.91561033333333, "type": "electric_scooter", "is_disabled": 0, "fusion_lon": 0.0, "fusion_lat": 0.0, "lon": -77.06796466666667, "is_reserved": 0, "rental_uris": {"android": "https://dc.lft.to/lastmile_qr_scan", "ios": "https://dc.lft.to/lastmile_qr_scan"}, "bike_id": "372aafec22ee12098f544fca02cd3b61"}, {"name": "d7dbea208490274cb75db56cca024856", "lat": 38.9056335, "type": "electric_scooter", "is_disabled": 0, "fusion_lon": 0.0, "fusion_lat": 0.0, "lon": -77.00594133333334, "is_reserved": 0, "rental_uris": {"android": "https://dc.lft.to/lastmile_qr_scan", "ios": "https://dc.lft.to/lastmile_qr_scan"}, "bike_id": "d7dbea208490274cb75db56cca024856"}, {"name": "b98cf7296a5014229b8c3a58b7d76385", "lat": 38.88673716666667, "type": "electric_scooter", "is_disabled": 0, "fusion_lon": 0.0, "fusion_lat": 0.0, "lon": -77.0137515, "is_reserved": 0, "rental_uris": {"android": "https://dc.lft.to/lastmile_qr_scan", "ios": "https://dc.lft.to/lastmile_qr_scan"}, "bike_id": "b98cf7296a5014229b8c3a58b7d76385"}, {"name": "fc3b973a406b6f8c677e3080c31cc999", "lat": 38.919248833333334, "type": "electric_scooter", "is_disabled": 0, "fusion_lon": 0.0, "fusion_lat": 0.0, "lon": -77.045859, "is_reserved": 0, "rental_uris": {"android": "https://dc.lft.to/lastmile_qr_scan", "ios": "https://dc.lft.to/lastmile_qr_scan"}, "bike_id": "fc3b973a406b6f8c677e3080c31cc999"}, {"name": "8abc0a797f2664370f90f1c0a2d2abd9", "lat": 38.92371083333333, "type": "electric_scooter", "is_disabled": 0, "fusion_lon": 0.0, "fusion_lat": 0.0, "lon": -77.02119216666667, "is_reserved": 0, "rental_uris": {"android": "https://dc.lft.to/lastmile_qr_scan", "ios": "https://dc.lft.to/lastmile_qr_scan"}, "bike_id": "8abc0a797f2664370f90f1c0a2d2abd9"}, {"name": "bbd8c50531bd77d10bd52dd6b12c7cd3", "lat": 38.909714666666666, "type": "electric_scooter", "is_disabled": 0, "fusion_lon": 0.0, "fusion_lat": 0.0, "lon": -77.04651533333333, "is_reserved": 0, "rental_uris": {"android": "https://dc.lft.to/lastmile_qr_scan", "ios": "https://dc.lft.to/lastmile_qr_scan"}, "bike_id": "bbd8c50531bd77d10bd52dd6b12c7cd3"}, {"name": "88b7939c0b6bda075481e306b0ed9fa8", "lat": 38.90648133333333, "type": "electric_scooter", "is_disabled": 0, "fusion_lon": 0.0, "fusion_lat": 0.0, "lon": -77.0252625, "is_reserved": 0, "rental_uris": {"android": "https://dc.lft.to/lastmile_qr_scan", "ios": "https://dc.lft.to/lastmile_qr_scan"}, "bike_id": "88b7939c0b6bda075481e306b0ed9fa8"}, {"name": "2026e58d0c32859e7407e9e359cd3f32", "lat": 39.062183, "type": "electric_bike", "is_disabled": 0, "fusion_lon": 0.0, "fusion_lat": 0.0, "lon": -77.12921433333334, "is_reserved": 0, "rental_uris": {"android": "https://dc.lft.to/lastmile_qr_scan", "ios": "https://dc.lft.to/lastmile_qr_scan"}, "bike_id": "2026e58d0c32859e7407e9e359cd3f32"}, {"name": "0b33df1e3fe2287c4952d525feec8960", "lat": 38.9213345, "type": "electric_scooter", "is_disabled": 0, "fusion_lon": 0.0, "fusion_lat": 0.0, "lon": -77.018248, "is_reserved": 0, "rental_uris": {"android": "https://dc.lft.to/lastmile_qr_scan", "ios": "https://dc.lft.to/lastmile_qr_scan"}, "bike_id": "0b33df1e3fe2287c4952d525feec8960"}, {"name": "bba189afd3638bcadfe108c289b53849", "lat": 38.8558115, "type": "electric_bike", "is_disabled": 0, "fusion_lon": 0.0, "fusion_lat": 0.0, "lon": -76.9743675, "is_reserved": 0, "rental_uris": {"android": "https://dc.lft.to/lastmile_qr_scan", "ios": "https://dc.lft.to/lastmile_qr_scan"}, "bike_id": "bba189afd3638bcadfe108c289b53849"}, {"name": "221ce7d466a28a87fd145f391736672a", "lat": 38.9123495, "type": "electric_scooter", "is_disabled": 0, "fusion_lon": 0.0, "fusion_lat": 0.0, "lon": -77.02973433333334, "is_reserved": 0, "rental_uris": {"android": "https://dc.lft.to/lastmile_qr_scan", "ios": "https://dc.lft.to/lastmile_qr_scan"}, "bike_id": "221ce7d466a28a87fd145f391736672a"}, {"name": "224d2d848665a8adb4850030b2c0c48d", "lat": 38.92433883333333, "type": "electric_scooter", "is_disabled": 0, "fusion_lon": 0.0, "fusion_lat": 0.0, "lon": -77.04237183333333, "is_reserved": 0, "rental_uris": {"android": "https://dc.lft.to/lastmile_qr_scan", "ios": "https://dc.lft.to/lastmile_qr_scan"}, "bike_id": "224d2d848665a8adb4850030b2c0c48d"}, {"name": "bb808245d072031ed3453fbb42b4c703", "lat": 38.899617166666665, "type": "electric_scooter", "is_disabled": 0, "fusion_lon": 0.0, "fusion_lat": 0.0, "lon": -77.046867, "is_reserved": 0, "rental_uris": {"android": "https://dc.lft.to/lastmile_qr_scan", "ios": "https://dc.lft.to/lastmile_qr_scan"}, "bike_id": "bb808245d072031ed3453fbb42b4c703"}, {"name": "d792fcdd4e936dee76fe9d07a68caa88", "lat": 38.9291105, "type": "electric_scooter", "is_disabled": 0, "fusion_lon": 0.0, "fusion_lat": 0.0, "lon": -77.018656, "is_reserved": 0, "rental_uris": {"android": "https://dc.lft.to/lastmile_qr_scan", "ios": "https://dc.lft.to/lastmile_qr_scan"}, "bike_id": "d792fcdd4e936dee76fe9d07a68caa88"}, {"name": "374aab818c6b28dc781fe70c551f7966", "lat": 38.916659333333335, "type": "electric_scooter", "is_disabled": 0, "fusion_lon": 0.0, "fusion_lat": 0.0, "lon": -77.069505, "is_reserved": 0, "rental_uris": {"android": "https://dc.lft.to/lastmile_qr_scan", "ios": "https://dc.lft.to/lastmile_qr_scan"}, "bike_id": "374aab818c6b28dc781fe70c551f7966"}, {"name": "bc1cffcbbb4e8029bbd8039ef9300f34", "lat": 38.90101583333333, "type": "electric_scooter", "is_disabled": 0, "fusion_lon": 0.0, "fusion_lat": 0.0, "lon": -77.04337466666667, "is_reserved": 0, "rental_uris": {"android": "https://dc.lft.to/lastmile_qr_scan", "ios": "https://dc.lft.to/lastmile_qr_scan"}, "bike_id": "bc1cffcbbb4e8029bbd8039ef9300f34"}, {"name": "fbb6f0c4eaac8a4e8403b9778ddfcd8e", "lat": 38.891117333333334, "type": "electric_scooter", "is_disabled": 0, "fusion_lon": 0.0, "fusion_lat": 0.0, "lon": -76.943804, "is_reserved": 0, "rental_uris": {"android": "https://dc.lft.to/lastmile_qr_scan", "ios": "https://dc.lft.to/lastmile_qr_scan"}, "bike_id": "fbb6f0c4eaac8a4e8403b9778ddfcd8e"}, {"name": "31e93aa39fe285d91b88aecbbc201891", "lat": 38.90958066666666, "type": "electric_scooter", "is_disabled": 0, "fusion_lon": 0.0, "fusion_lat": 0.0, "lon": -77.03166, "is_reserved": 0, "rental_uris": {"android": "https://dc.lft.to/lastmile_qr_scan", "ios": "https://dc.lft.to/lastmile_qr_scan"}, "bike_id": "31e93aa39fe285d91b88aecbbc201891"}, {"name": "8b73860663d4a670322a983c8274eae2", "lat": 38.8380995, "type": "electric_bike", "is_disabled": 0, "fusion_lon": 0.0, "fusion_lat": 0.0, "lon": -77.09520666666667, "is_reserved": 0, "rental_uris": {"android": "https://dc.lft.to/lastmile_qr_scan", "ios": "https://dc.lft.to/lastmile_qr_scan"}, "bike_id": "8b73860663d4a670322a983c8274eae2"}, {"name": "1646cfcac1fd0fb610f689c866a8433b", "lat": 38.9159105, "type": "electric_scooter", "is_disabled": 0, "fusion_lon": 0.0, "fusion_lat": 0.0, "lon": -77.04604616666667, "is_reserved": 0, "rental_uris": {"android": "https://dc.lft.to/lastmile_qr_scan", "ios": "https://dc.lft.to/lastmile_qr_scan"}, "bike_id": "1646cfcac1fd0fb610f689c866a8433b"}, {"name": "b6b104386fcc1d1fb9072d4444322729", "lat": 38.875576833333334, "type": "electric_scooter", "is_disabled": 0, "fusion_lon": 0.0, "fusion_lat": 0.0, "lon": -77.00597166666667, "is_reserved": 0, "rental_uris": {"android": "https://dc.lft.to/lastmile_qr_scan", "ios": "https://dc.lft.to/lastmile_qr_scan"}, "bike_id": "b6b104386fcc1d1fb9072d4444322729"}, {"name": "65c2cef8bab3b23c8f0629db4fed6554", "lat": 38.895988833333334, "type": "electric_scooter", "is_disabled": 0, "fusion_lon": 0.0, "fusion_lat": 0.0, "lon": -77.02251233333334, "is_reserved": 0, "rental_uris": {"android": "https://dc.lft.to/lastmile_qr_scan", "ios": "https://dc.lft.to/lastmile_qr_scan"}, "bike_id": "65c2cef8bab3b23c8f0629db4fed6554"},