{"data": {"bikes": [{"name": "9ccf80c12bcfa781245b9154f85b67c5", "fusion_lat": 0.0, "type": "electric_scooter", "lat": 38.920122, "is_reserved": 0, "is_disabled": 0, "fusion_lon": 0.0, "bike_id": "9ccf80c12bcfa781245b9154f85b67c5", "lon": -77.039722, "rental_uris": {"ios": "https://dc.lft.to/lastmile_qr_scan", "android": "https://dc.lft.to/lastmile_qr_scan"}}, {"name": "dcc8822e6d57538ad9db84d97646136f", "fusion_lat": 0.0, "type": "electric_bike", "lat": 39.030436333333334, "is_reserved": 0, "is_disabled": 0, "fusion_lon": 0.0, "bike_id": "dcc8822e6d57538ad9db84d97646136f", "lon": -77.094812, "rental_uris": {"ios": "https://dc.lft.to/lastmile_qr_scan", "android": "https://dc.lft.to/lastmile_qr_scan"}}, {"name": "1ff80ee782dbce0954a349014bef29f7", "fusion_lat": 0.0, "type": "electric_scooter", "lat": 38.92766366666667, "is_reserved": 0, "is_disabled": 0, "fusion_lon": 0.0, "bike_id": "1ff80ee782dbce0954a349014bef29f7", "lon": -77.02706366666666, "rental_uris": {"ios": "https://dc.lft.to/lastmile_qr_scan", "android": "https://dc.lft.to/lastmile_qr_scan"}}, {"name": "4f84b02ec3f8f3fd99a0759acb5d364b", "fusion_lat": 0.0, "type": "electric_scooter", "lat": 38.89596483333333, "is_reserved": 0, "is_disabled": 0, "fusion_lon": 0.0, "bike_id": "4f84b02ec3f8f3fd99a0759acb5d364b", "lon": -77.0413035, "rental_uris": {"ios": "https://dc.lft.to/lastmile_qr_scan", "android": "https://dc.lft.to/lastmile_qr_scan"}}, {"name": "f6bea785f946542edd691682dc1b14de", "fusion_lat": 0.0, "type": "electric_scooter", "lat": 38.87682066666667, "is_reserved": 0, "is_disabled": 0, "fusion_lon": 0.0, "bike_id": "f6bea785f946542edd691682dc1b14de", "lon": -77.0007075, "rental_uris": {"ios": "https://dc.lft.to/lastmile_qr_scan", "android": "https://dc.lft.to/lastmile_qr_scan"}}, {"name": "ccdfa0522036f23c247680f84df73118", "fusion_lat": 0.0, "type": "electric_scooter", "lat": 38.872363166666666, "is_reserved": 0, "is_disabled": 0, "fusion_lon": 0.0, "bike_id": "ccdfa0522036f23c247680f84df73118", "lon": -77.01164283333334, "rental_uris": {"ios": "https://dc.lft.to/lastmile_qr_scan", "android": "https://dc.lft.to/lastmile_qr_scan"}}, {"name": "12bd87718206c2dd67838f12d7f14d80", "fusion_lat": 0.0, "type": "electric_scooter", "lat": 38.922362166666666, "is_reserved": 0, "is_disabled": 0, "fusion_lon": 0.0, "bike_id": "12bd87718206c2dd67838f12d7f14d80", "lon": -77.0448615, "rental_uris": {"ios": "https://dc.lft.to/lastmile_qr_scan", "android": "https://dc.lft.to/lastmile_qr_scan"}}, {"name": "f6eeb1735b715f49828756dff746163d", "fusion_lat": 0.0, "type": "electric_scooter", "lat": 38.900245166666664, "is_reserved": 0, "is_disabled": 0, "fusion_lon": 0.0, "bike_id": "f6eeb1735b715f49828756dff746163d", "lon": -76.98846366666666, "rental_uris": {"ios": "https://dc.lft.to/lastmile_qr_scan", "android": "https://dc.lft.to/lastmile_qr_scan"}}, {"name": "95f48c05be48a5aef5f607ad9e2015a5", "fusion_lat": 0.0, "type": "electric_scooter", "lat": 38.9034545, "is_reserved": 0, "is_disabled": 0, "fusion_lon": 0.0, "bike_id": "95f48c05be48a5aef5f607ad9e2015a5", "lon": -77.038978, "rental_uris": {"ios": "https://dc.lft.to/lastmile_qr_scan", "android": "https://dc.lft.to/lastmile_qr_scan"}}, {"name": "374ee8a318602fd2628e470cbdbc5d89", "fusion_lat": 0.0, "type": "electric_scooter", "lat": 38.884303, "is_reserved": 0, "is_disabled": 0, "fusion_lon": 0.0, "bike_id": "374ee8a318602fd2628e470cbdbc5d89", "lon": -76.99596166666667, "rental_uris": {"ios": "https://dc.lft.to/lastmile_qr_scan", "android": "https://dc.lft.to/lastmile_qr_scan"}}, {"name": "75805e729d79351f9ae4a6f1d4c6916a", "fusion_lat": 0.0, "type": "electric_scooter", "lat": 38.870792, "is_reserved": 0, "is_disabled": 0, "fusion_lon": 0.0, "bike_id": "75805e729d79351f9ae4a6f1d4c6916a", "lon": -76.96857116666666, "rental_uris": {"ios": "https://dc.lft.to/lastmile_qr_scan", "android": "https://dc.lft.to/lastmile_qr_scan"}}, {"name": "8e22f3a6037c6f947b4416e45dfd29cc", "fusion_lat": 0.0, "type": "electric_scooter", "lat": 38.900318166666665, "is_reserved": 0, "is_disabled": 0, "fusion_lon": 0.0, "bike_id": "8e22f3a6037c6f947b4416e45dfd29cc", "lon": -76.99826316666666, "rental_uris": {"ios": "https://dc.lft.to/lastmile_qr_scan", "android": "https://dc.lft.to/lastmile_qr_scan"}}, {"name": "1c60c5d99ca5d7243646030b2e0bcf11", "fusion_lat": 0.0, "type": "electric_scooter", "lat": 38.91746883333333, "is_reserved": 0, "is_disabled": 0, "fusion_lon": 0.0, "bike_id": "1c60c5d99ca5d7243646030b2e0bcf11", "lon": -77.03641316666666, "rental_uris": {"ios": "https://dc.lft.to/lastmile_qr_scan", "android": "https://dc.lft.to/lastmile_qr_scan"}}, {"name": "198073c836d3f37cc4c0e0f3f22514ef", "fusion_lat": 0.0, "type": "electric_bike", "lat": 39.0037765, "is_reserved": 0, "is_disabled": 0, "fusion_lon": 0.0, "bike_id": "198073c836d3f37cc4c0e0f3f22514ef", "lon": -77.01288883333334, "rental_uris": {"ios": "https://dc.lft.to/lastmile_qr_scan", "android": "https://dc.lft.to/lastmile_qr_scan"}}, {"name": "acc16bfa2e4298f47243ece84ce70c46", "fusion_lat": 0.0, "type": "electric_scooter", "lat": 38.956466, "is_reserved": 0, "is_disabled": 0, "fusion_lon": 0.0, "bike_id": "acc16bfa2e4298f47243ece84ce70c46", "lon": -77.03293066666667, "rental_uris": {"ios": "https://dc.lft.to/lastmile_qr_scan", "android": "https://dc.lft.to/lastmile_qr_scan"}}, {"name": "d862541551f17c304e0b7a803c522629", "fusion_lat": 0.0, "type": "electric_scooter", "lat": 38.895273, "is_reserved": 0, "is_disabled": 0, "fusion_lon": 0.0, "bike_id": "d862541551f17c304e0b7a803c522629", "lon": -77.03207, "rental_uris": {"ios": "https://dc.lft.to/lastmile_qr_scan", "android": "https://dc.lft.to/lastmile_qr_scan"}}, {"name": "3b84d5292543dacabbe72bad473abfb7", "fusion_lat": 0.0, "type": "electric_scooter", "lat": 38.924827, "is_reserved": 0, "is_disabled": 0, "fusion_lon": 0.0, "bike_id": "3b84d5292543dacabbe72bad473abfb7", "lon": -77.0521385, "rental_uris": {"ios": "https://dc.lft.to/lastmile_qr_scan", "android": "https://dc.lft.to/lastmile_qr_scan"}}, {"name": "179f922ab1c440d8c7f1e32ecfcb44fc", "fusion_lat": 0.0, "type": "electric_scooter", "lat": 38.894267666666664, "is_reserved": 0, "is_disabled": 0, "fusion_lon": 0.0, "bike_id": "179f922ab1c440d8c7f1e32ecfcb44fc", "lon": -76.932618, "rental_uris": {"ios": "https://dc.lft.to/lastmile_qr_scan", "android": "https://dc.lft.to/lastmile_qr_scan"}}, {"name": "22c6aeb893bbfdde50171ff2f468458f", "fusion_lat": 0.0, "type": "electric_scooter", "lat": 38.903090166666665, "is_reserved": 0, "is_disabled": 0, "fusion_lon": 0.0, "bike_id": "22c6aeb893bbfdde50171ff2f468458f", "lon": -77.03860633333333, "rental_uris": {"ios": "https://dc.lft.to/lastmile_qr_scan", "android": "https://dc.lft.to/lastmile_qr_scan"}}, {"name": "5928f990659846be06230c44ef58a19d", "fusion_lat": 0.0, "type": "electric_scooter", "lat": 38.959057, "is_reserved": 0, "is_disabled": 0, "fusion_lon": 0.0, "bike_id": "5928f990659846be06230c44ef58a19d", "lon": -77.080786, "rental_uris": {"ios": "https://dc.lft.to/lastmile_qr_scan", "android": "https://dc.lft.to/lastmile_qr_scan"}}, {"name": "d2c571052e7e81a4df95064f6e668828", "fusion_lat": 0.0, "type": "electric_scooter", "lat": 38.90305383333333, "is_reserved": 0, "is_disabled": 0, "fusion_lon": 0.0, "bike_id": "d2c571052e7e81a4df95064f6e668828", "lon": -77.02368483333333, "rental_uris": {"ios": "https://dc.lft.to/lastmile_qr_scan", "android": "https://dc.lft.to/lastmile_qr_scan"}}, {"name": "7800ed1993697ec27e44a57836aad83b", "fusion_lat": 0.0, "type": "electric_scooter", "lat": 38.90250416666667, "is_reserved": 0, "is_disabled": 0, "fusion_lon": 0.0, "bike_id": "7800ed1993697ec27e44a57836aad83b", "lon": -77.036392, "rental_uris": {"ios": "https://dc.lft.to/lastmile_qr_scan", "android": "https://dc.lft.to/lastmile_qr_scan"}}, {"name": "f78c3bd8288287b636014425715e4b75", "fusion_lat": 0.0, "type": "electric_scooter", "lat": 38.857914, "is_reserved": 0, "is_disabled": 0, "fusion_lon": 0.0, "bike_id": "f78c3bd8288287b636014425715e4b75", "lon": -76.99090333333334, "rental_uris": {"ios": "https://dc.lft.to/lastmile_qr_scan", "android": "https://dc.lft.to/lastmile_qr_scan"}}, {"name": "99703ac346aef3b4d7657aa95213f44e", "fusion_lat": 0.0, "type": "electric_scooter", "lat": 38.93082833333333, "is_reserved": 0, "is_disabled": 0, "fusion_lon": 0.0, "bike_id": "99703ac346aef3b4d7657aa95213f44e", "lon": -77.0240595, "rental_uris": {"ios": "https://dc.lft.to/lastmile_qr_scan", "android": "https://dc.lft.to/lastmile_qr_scan"}}, {"name": "1004281d403a72d3071374dfda5f1dbb", "fusion_lat": 0.0, "type": "electric_scooter", "lat": 38.92206816666667, "is_reserved": 0, "is_disabled": 0, "fusion_lon": 0.0, "bike_id": "1004281d403a72d3071374dfda5f1dbb", "lon": -77.04241166666667, "rental_uris": {"ios": "https://dc.lft.to/lastmile_qr_scan", "android": "https://dc.lft.to/lastmile_qr_scan"}}, {"name": "9694923201914f1d694803ede7c118cf", "fusion_lat": 0.0, "type": "electric_scooter", "lat": 38.91803816666667, "is_reserved": 0, "is_disabled": 0, "fusion_lon": 0.0, "bike_id": "9694923201914f1d694803ede7c118cf", "lon": -77.02816083333333, "rental_uris": {"ios": "https://dc.lft.to/lastmile_qr_scan", "android": "https://dc.lft.to/lastmile_qr_scan"}}, {"name": "0ad183db98d242eb0997a9cb3a9b2cdf", "fusion_lat": 0.0, "type": "electric_bike", "lat": 38.97319433333333, "is_reserved": 0, "is_disabled": 0, "fusion_lon": 0.0, "bike_id": "0ad183db98d242eb0997a9cb3a9b2cdf", "lon": -77.02149716666666, "rental_uris": {"ios": "https://dc.lft.to/lastmile_qr_scan", "android": "https://dc.lft.to/lastmile_qr_scan"}}, {"name": "d726b6cc287ec85bc89bd51c32c4c10b", "fusion_lat": 0.0, "type": "electric_scooter", "lat": 38.90359383333333, "is_reserved": 0, "is_disabled": 0, "fusion_lon": 0.0, "bike_id": "d726b6cc287ec85bc89bd51c32c4c10b", "lon": -77.04506616666667, "rental_uris": {"ios": "https://dc.lft.to/lastmile_qr_scan", "android": "https://dc.lft.to/lastmile_qr_scan"}}, {"name": "63947c534d2e936ee783d35f1803b4f3", "fusion_lat": 0.0, "type": "electric_scooter", "lat": 38.939605, "is_reserved": 0, "is_disabled": 0, "fusion_lon": 0.0, "bike_id": "63947c534d2e936ee783d35f1803b4f3", "lon": -77.03282766666666, "rental_uris": {"ios": "https://dc.lft.to/lastmile_qr_scan", "android": "https://dc.lft.to/lastmile_qr_scan"}}, {"name": "152326ae6c82c328d18c0149a63a4aff", "fusion_lat": 0.0, "type": "electric_scooter", "lat": 38.903032, "is_reserved": 0, "is_disabled": 0, "fusion_lon": 0.0, "bike_id": "152326ae6c82c328d18c0149a63a4aff", "lon": -77.03210983333334, "rental_uris": {"ios": "https://dc.lft.to/lastmile_qr_scan", "android": "https://dc.lft.to/lastmile_qr_scan"}}, {"name": "ee53a9c34b5844213f9b135e92ca0eb8", "fusion_lat": 0.0, "type": "electric_scooter", "lat": 38.889260166666666, "is_reserved": 0, "is_disabled": 0, "fusion_lon": 0.0, "bike_id": "ee53a9c34b5844213f9b135e92ca0eb8", "lon": -76.94781166666667, "rental_uris": {"ios": "https://dc.lft.to/lastmile_qr_scan", "android": "https://dc.lft.to/lastmile_qr_scan"}}, {"name": "d428240727f7aa5a88f74c89fd8991bc", "fusion_lat": 0.0, "type": "electric_scooter", "lat": 38.8848255, "is_reserved": 0, "is_disabled": 0, "fusion_lon": 0.0, "bike_id": "d428240727f7aa5a88f74c89fd8991bc", "lon": -77.00708216666666, "rental_uris": {"ios": "https://dc.lft.to/lastmile_qr_scan", "android": "https://dc.lft.to/lastmile_qr_scan"}}, {"name": "292c9037fae439aea7fd90dab53eb209", "fusion_lat": 0.0, "type": "electric_scooter", "lat": 38.90319733333333, "is_reserved": 0, "is_disabled": 0, "fusion_lon": 0.0, "bike_id": "292c9037fae439aea7fd90dab53eb209", "lon": -77.03838733333333, "rental_uris": {"ios": "https://dc.lft.to/lastmile_qr_scan", "android": "https://dc.lft.to/lastmile_qr_scan"}}, {"name": "14d892bec67b0292cc098b13247ddac3", "fusion_lat": 0.0, "type": "electric_scooter", "lat": 38.9013855, "is_reserved": 0, "is_disabled": 0, "fusion_lon": 0.0, "bike_id": "14d892bec67b0292cc098b13247ddac3", "lon": -77.00043433333333, "rental_uris": {"ios": "https://dc.lft.to/lastmile_qr_scan", "android": "https://dc.lft.to/lastmile_qr_scan"}}, {"name": "2ec2bf153e8cf833a02bf1c1c16e8866", "fusion_lat": 0.0, "type": "electric_bike", "lat": 38.83861783333333, "is_reserved": 0, "is_disabled": 0, "fusion_lon": 0.0, "bike_id": "2ec2bf153e8cf833a02bf1c1c16e8866", "lon": -77.088651, "rental_uris": {"ios": "https://dc.lft.to/lastmile_qr_scan", "android": "https://dc.lft.to/lastmile_qr_scan"}}, {"name": "640364fd7603c7611ef966f3481c70f3", "fusion_lat": 0.0, "type": "electric_scooter", "lat": 38.9172175, "is_reserved": 0, "is_disabled": 0, "fusion_lon": 0.0, "bike_id": "640364fd7603c7611ef966f3481c70f3", "lon": -77.00813066666667, "rental_uris": {"ios": "https://dc.lft.to/lastmile_qr_scan", "android": "https://dc.lft.to/lastmile_qr_scan"}}, {"name": "6219d15be8d9296c716f80fa154599b1", "fusion_lat": 0.0, "type": "electric_scooter", "lat": 38.90021216666667, "is_reserved": 0, "is_disabled": 0, "fusion_lon": 0.0, "bike_id": "6219d15be8d9296c716f80fa154599b1", "lon": -77.0319055, "rental_uris": {"ios": "https://dc.lft.to/lastmile_qr_scan", "android": "https://dc.lft.to/lastmile_qr_scan"}}, {"name": "65ef972a3f252905b74829660f155db3", "fusion_lat": 0.0, "type": "electric_scooter", "lat": 38.88326683333333, "is_reserved": 0, "is_disabled": 0, "fusion_lon": 0.0, "bike_id": "65ef972a3f252905b74829660f155db3", "lon": -77.015403, "rental_uris": {"ios": "https://dc.lft.to/lastmile_qr_scan", "android": "https://dc.lft.to/lastmile_qr_scan"}}, {"name": "e97b9acfddde494646d74f33682371a0", "fusion_lat": 0.0, "type": "electric_scooter", "lat": 38.86532016666666, "is_reserved": 0, "is_disabled": 0, "fusion_lon": 0.0, "bike_id": "e97b9acfddde494646d74f33682371a0", "lon": -76.98708033333334, "rental_uris": {"ios": "https://dc.lft.to/lastmile_qr_scan", "android": "https://dc.lft.to/lastmile_qr_scan"}}, {"name": "63cec30ace18774c132dc9bd69b3819b", "fusion_lat": 0.0, "type": "electric_scooter", "lat": 38.92345866666667, "is_reserved": 0, "is_disabled": 0, "fusion_lon": 0.0, "bike_id": "63cec30ace18774c132dc9bd69b3819b", "lon": -77.01902583333333, "rental_uris": {"ios": "https://dc.lft.to/lastmile_qr_scan", "android": "https://dc.lft.to/lastmile_qr_scan"}}, {"name": "8d06d1c75e07755d6141ace5b9b2fd4d", "fusion_lat": 0.0, "type": "electric_scooter", "lat": 38.902615833333336, "is_reserved": 0, "is_disabled": 0, "fusion_lon": 0.0, "bike_id": "8d06d1c75e07755d6141ace5b9b2fd4d", "lon": -77.04330866666666, "rental_uris": {"ios": "https://dc.lft.to/lastmile_qr_scan", "android": "https://dc.lft.to/lastmile_qr_scan"}}, {"name": "9f3c19ec2070894a91938dbb6f6058bc", "fusion_lat": 0.0, "type": "electric_scooter", "lat": 38.90256616666667, "is_reserved": 0, "is_disabled": 0, "fusion_lon": 0.0, "bike_id": "9f3c19ec2070894a91938dbb6f6058bc", "lon": -77.0460395, "rental_uris": {"ios": "https://dc.lft.to/lastmile_qr_scan", "android": "https://dc.lft.to/lastmile_qr_scan"}}, {"name": "9035566d9c37db0f2b3e2f7b2f00a0f4", "fusion_lat": 0.0, "type": "electric_scooter", "lat": 38.92064116666667, "is_reserved": 0, "is_disabled": 0, "fusion_lon": 0.0, "bike_id": "9035566d9c37db0f2b3e2f7b2f00a0f4", "lon": -76.978074, "rental_uris": {"ios": "https://dc.lft.to/lastmile_qr_scan", "android": "https://dc.lft.to/lastmile_qr_scan"}}, {"name": "2fb9909bdd40090c145b523b72ef709d", "fusion_lat": 0.0, "type": "electric_scooter", "lat": 38.926336166666665, "is_reserved": 0, "is_disabled": 0, "fusion_lon": 0.0, "bike_id": "2fb9909bdd40090c145b523b72ef709d", "lon": -77.035071, "rental_uris": {"ios": "https://dc.lft.to/lastmile_qr_scan", "android": "https://dc.lft.to/lastmile_qr_scan"}}, {"name": "68a4cce03c3658bf2d958a8f1f7eff26", "fusion_lat": 0.0, "type": "electric_scooter", "lat": 38.902694833333335, "is_reserved": 0, "is_disabled": 0, "fusion_lon": 0.0, "bike_id": "68a4cce03c3658bf2d958a8f1f7eff26", "lon": -77.03357983333333, "rental_uris": {"ios": "https://dc.lft.to/lastmile_qr_scan", "android": "https://dc.lft.to/lastmile_qr_scan"}}, {"name": "9a4b23af90100286921ced4f2136e4ee", "fusion_lat": 0.0, "type": "electric_scooter", "lat": 38.9100075, "is_reserved": 0, "is_disabled": 0, "fusion_lon": 0.0, "bike_id": "9a4b23af90100286921ced4f2136e4ee", "lon": -77.01506766666667, "rental_uris": {"ios": "https://dc.lft.to/lastmile_qr_scan", "android": "https://dc.lft.to/lastmile_qr_scan"}}, {"name": "77fc2d251b13eace6e983a2c4c6c4d87", "fusion_lat": 0.0, "type": "electric_scooter", "lat": 38.90782183333334, "is_reserved": 0, "is_disabled": 0, "fusion_lon": 0.0, "bike_id": "77fc2d251b13eace6e983a2c4c6c4d87", "lon": -77.03860233333333, "rental_uris": {"ios": "https://dc.lft.to/lastmile_qr_scan", "android": "https://dc.lft.to/lastmile_qr_scan"}}, {"name": "9af56912a0e71ed0abdf1a9462682ef4", "fusion_lat": 0.0, "type": "electric_scooter", "lat": 38.902630333333335, "is_reserved": 0, "is_disabled": 0, "fusion_lon": 0.0, "bike_id": "9af56912a0e71ed0abdf1a9462682ef4", "lon": -77.02644733333334, "rental_uris": {"ios": "https://dc.lft.to/lastmile_qr_scan", "android": "https://dc.lft.to/lastmile_qr_scan"}}, {"name": "c74d645d0c802518c32f7cbb8b506985", "fusion_lat": 0.0, "type": "electric_bike", "lat": 38.948298, "is_reserved": 0, "is_disabled": 0, "fusion_lon": 0.0, "bike_id": "c74d645d0c802518c32f7cbb8b506985", "lon": -77.03898233333334, "rental_uris": {"ios": "https://dc.lft.to/lastmile_qr_scan", "android": "https://dc.lft.to/lastmile_qr_scan"}}, {"name": "4c65fdfb8be071cd0e5e980ebd1d9713", "fusion_lat": 0.0, "type": "electric_scooter", "lat": 38.905723, "is_reserved": 0, "is_disabled": 0, "fusion_lon": 0.0, "bike_id": "4c65fdfb8be071cd0e5e980ebd1d9713", "lon": -77.0402755, "rental_uris": {"ios": "https://dc.lft.to/lastmile_qr_scan", "android": "https://dc.lft.to/lastmile_qr_scan"}}, {"name": "66ee556529da113c0f8ade02d3669c4c", "fusion_lat": 0.0, "type": "electric_scooter", "lat": 38.923694833333336, "is_reserved": 0, "is_disabled": 0, "fusion_lon": 0.0, "bike_id": "66ee556529da113c0f8ade02d3669c4c", "lon": -77.03132283333333, "rental_uris": {"ios": "https://dc.lft.to/lastmile_qr_scan", "android": "https://dc.lft.to/lastmile_qr_scan"}}, {"name": "aed17b7b80fce3b2a821773c69aa2da3", "fusion_lat": 0.0, "type": "electric_scooter", "lat": 38.898251333333334, "is_reserved": 0, "is_disabled": 0, "fusion_lon": 0.0, "bike_id": "aed17b7b80fce3b2a821773c69aa2da3", "lon": -77.03345583333333, "rental_uris": {"ios": "https://dc.lft.to/lastmile_qr_scan", "android": "https://dc.lft.to/lastmile_qr_scan"}}, {"name": "497c0866144df44ed03f7afbe161afc1", "fusion_lat": 0.0, "type": "electric_scooter", "lat": 38.9381995, "is_reserved": 0, "is_disabled": 0, "fusion_lon": 0.0, "bike_id": "497c0866144df44ed03f7afbe161afc1", "lon": -77.03281866666667, "rental_uris": {"ios": "https://dc.lft.to/lastmile_qr_scan", "android": "https://dc.lft.to/lastmile_qr_scan"}}, {"name": "3e6b7a7f78e98bf64fb6ce9076ef059a", "fusion_lat": 0.0, "type": "electric_scooter", "lat": 38.934070166666665, "is_reserved": 0, "is_disabled": 0, "fusion_lon": 0.0, "bike_id": "3e6b7a7f78e98bf64fb6ce9076ef059a", "lon": -77.07232433333333, "rental_uris": {"ios": "https://dc.lft.to/lastmile_qr_scan", "android": "https://dc.lft.to/lastmile_qr_scan"}}, {"name": "e475204563dc3f1b5e27f68a799a26f1", "fusion_lat": 0.0, "type": "electric_scooter", "lat": 38.89473916666667, "is_reserved": 0, "is_disabled": 0, "fusion_lon": 0.0, "bike_id": "e475204563dc3f1b5e27f68a799a26f1", "lon": -77.03054683333333, "rental_uris": {"ios": "https://dc.lft.to/lastmile_qr_scan", "android": "https://dc.lft.to/lastmile_qr_scan"}}, {"name": "bcabe07f1e3aa288affca230f006dafe", "fusion_lat": 0.0, "type": "electric_scooter", "lat": 38.884005, "is_reserved": 0, "is_disabled": 0, "fusion_lon": 0.0, "bike_id": "bcabe07f1e3aa288affca230f006dafe", "lon": -76.93043383333334, "rental_uris": {"ios": "https://dc.lft.to/lastmile_qr_scan", "android": "https://dc.lft.to/lastmile_qr_scan"}}, {"name": "9473973723289f278b3babb7df305838", "fusion_lat": 0.0, "type": "electric_scooter", "lat": 38.90268233333333, "is_reserved": 0, "is_disabled": 0, "fusion_lon": 0.0, "bike_id": "9473973723289f278b3babb7df305838", "lon": -77.038555, "rental_uris": {"ios": "https://dc.lft.to/lastmile_qr_scan", "android": "https://dc.lft.to/lastmile_qr_scan"}}, {"name": "127d8e9e46eff1461cc6a2e043187c0c", "fusion_lat": 0.0, "type": "electric_scooter", "lat": 38.902879166666665, "is_reserved": 0, "is_disabled": 0, "fusion_lon": 0.0, "bike_id": "127d8e9e46eff1461cc6a2e043187c0c", "lon": -77.03860133333333, "rental_uris": {"ios": "https://dc.lft.to/lastmile_qr_scan", "android": "https://dc.lft.to/lastmile_qr_scan"}}, {"name": "d2858c419602d25c89f73ca61cbd6821", "fusion_lat": 0.0, "type": "electric_scooter", "lat": 38.894859, "is_reserved": 0, "is_disabled": 0, "fusion_lon": 0.0, "bike_id": "d2858c419602d25c89f73ca61cbd6821", "lon": -77.01013566666667, "rental_uris": {"ios": "https://dc.lft.to/lastmile_qr_scan", "android": "https://dc.lft.to/lastmile_qr_scan"}}, {"name": "e74f4fe3dd94e12f958be7fcfc7ca464", "fusion_lat": 0.0, "type": "electric_scooter", "lat": 38.938793833333335, "is_reserved": 0, "is_disabled": 0, "fusion_lon": 0.0, "bike_id": "e74f4fe3dd94e12f958be7fcfc7ca464", "lon": -77.02474583333333, "rental_uris": {"ios": "https://dc.lft.to/lastmile_qr_scan", "android": "https://dc.lft.to/lastmile_qr_scan"}}, {"name": "fdd5958df606c068c8c614c11e433ae2", "fusion_lat": 0.0, "type": "electric_scooter", "lat": 38.921498166666666, "is_reserved": 0, "is_disabled": 0, "fusion_lon": 0.0, "bike_id": "fdd5958df606c068c8c614c11e433ae2", "lon": -77.0332555, "rental_uris": {"ios": "https://dc.lft.to/lastmile_qr_scan", "android": "https://dc.lft.to/lastmile_qr_scan"}}, {"name": "763d5fab3950d839f325e53a3914597b", "fusion_lat": 0.0, "type": "electric_scooter", "lat": 38.88748616666667, "is_reserved": 0, "is_disabled": 0, "fusion_lon": 0.0, "bike_id": "763d5fab3950d839f325e53a3914597b", "lon": -76.97983283333333, "rental_uris": {"ios": "https://dc.lft.to/lastmile_qr_scan", "android": "https://dc.lft.to/lastmile_qr_scan"}}, {"name": "fe736b98f1a1f9c011ef1c643406ab89", "fusion_lat": 0.0, "type": "electric_scooter", "lat": 38.9247005, "is_reserved": 0, "is_disabled": 0, "fusion_lon": 0.0, "bike_id": "fe736b98f1a1f9c011ef1c643406ab89", "lon": -77.03131683333334, "rental_uris": {"ios": "https://dc.lft.to/lastmile_qr_scan", "android": "https://dc.lft.to/lastmile_qr_scan"}}, {"name": "76954984100827851b6d04a22ab15299", "fusion_lat": 0.0, "type": "electric_bike", "lat": 38.88613483333334, "is_reserved": 0, "is_disabled": 0, "fusion_lon": 0.0, "bike_id": "76954984100827851b6d04a22ab15299", "lon": -77.10755066666667, "rental_uris": {"ios": "https://dc.lft.to/lastmile_qr_scan", "android": "https://dc.lft.to/lastmile_qr_scan"}}, {"name": "de7a409ca7331b5964052ebbf8b77a60", "fusion_lat": 0.0, "type": "electric_bike", "lat": 38.922101833333336, "is_reserved": 0, "is_disabled": 0, "fusion_lon": 0.0, "bike_id": "de7a409ca7331b5964052ebbf8b77a60", "lon": -76.98797466666667, "rental_uris": {"ios": "https://dc.lft.to/lastmile_qr_scan", "android": "https://dc.lft.to/lastmile_qr_scan"}}, {"name": "0b8f5c61fa586d904bdfb646cb1714c8", "fusion_lat": 0.0, "type": "electric_scooter", "lat": 38.86255283333333, "is_reserved": 0, "is_disabled": 0, "fusion_lon": 0.0, "bike_id": "0b8f5c61fa586d904bdfb646cb1714c8", "lon": -76.98718966666667, "rental_uris": {"ios": "https://dc.lft.to/lastmile_qr_scan", "android": "https://dc.lft.to/lastmile_qr_scan"}}, {"name": "e6ca686dd159213985d85d3777702143", "fusion_lat": 0.0, "type": "electric_scooter", "lat": 38.903089666666666, "is_reserved": 0, "is_disabled": 0, "fusion_lon": 0.0, "bike_id": "e6ca686dd159213985d85d3777702143", "lon": -77.0498375, "rental_uris": {"ios": "https://dc.lft.to/lastmile_qr_scan", "android": "https://dc.lft.to/lastmile_qr_scan"}}, {"name": "a28f35d15ea81a38861a71e36669b8ff", "fusion_lat": 0.0, "type": "electric_scooter", "lat": 38.90573633333333, "is_reserved": 0, "is_disabled": 0, "fusion_lon": 0.0, "bike_id": "a28f35d15ea81a38861a71e36669b8ff", "lon": -77.00556366666666, "rental_uris": {"ios": "https://dc.lft.to/lastmile_qr_scan", "android": "https://dc.lft.to/lastmile_qr_scan"}}, {"name": "9075f14dd02fb9326a3c2edd7423e941", "fusion_lat": 0.0, "type": "electric_bike", "lat": 38.896861, "is_reserved": 0, "is_disabled": 0, "fusion_lon": 0.0, "bike_id": "9075f14dd02fb9326a3c2edd7423e941", "lon": -77.0147705, "rental_uris": {"ios": "https://dc.lft.to/lastmile_qr_scan", "android": "https://dc.lft.to/lastmile_qr_scan"}}, {"name": "3f738f2e40159e2f5725a9dbebd4594a", "fusion_lat": 0.0, "type": "electric_scooter", "lat": 38.913294666666665, "is_reserved": 0, "is_disabled": 0, "fusion_lon": 0.0, "bike_id": "3f738f2e40159e2f5725a9dbebd4594a", "lon": -77.04867966666667, "rental_uris": {"ios": "https://dc.lft.to/lastmile_qr_scan", "android": "https://dc.lft.to/lastmile_qr_scan"}}, {"name": "0753e9426446e5591512020d2d6771d9", "fusion_lat": 0.0, "type": "electric_scooter", "lat": 38.923442333333334, "is_reserved": 0, "is_disabled": 0, "fusion_lon": 0.0, "bike_id": "0753e9426446e5591512020d2d6771d9", "lon": -77.03396316666667, "rental_uris": {"ios": "https://dc.lft.to/lastmile_qr_scan", "android": "https://dc.lft.to/lastmile_qr_scan"}}, {"name": "3015c82dc48008d139d8cae5de2364cb", "fusion_lat": 0.0, "type": "electric_scooter", "lat": 38.9269285, "is_reserved": 0, "is_disabled": 0, "fusion_lon": 0.0, "bike_id": "3015c82dc48008d139d8cae5de2364cb", "lon": -77.0242415, "rental_uris": {"ios": "https://dc.lft.to/lastmile_qr_scan", "android": "https://dc.lft.to/lastmile_qr_scan"}}, {"name": "32f6ba1e1f178765b2965a600b4ac80c", "fusion_lat": 0.0, "type": "electric_bike", "lat": 38.970833999999996, "is_reserved": 0, "is_disabled": 0, "fusion_lon": 0.0, "bike_id": "32f6ba1e1f178765b2965a600b4ac80c", "lon": -77.06965666666666, "rental_uris": {"ios": "https://dc.lft.to/lastmile_qr_scan", "android": "https://dc.lft.to/lastmile_qr_scan"}}, {"name": "43b7b283fda2b5054400bf482a568d37", "fusion_lat": 0.0, "type": "electric_scooter", "lat": 38.9126775, "is_reserved": 0, "is_disabled": 0, "fusion_lon": 0.0, "bike_id": "43b7b283fda2b5054400bf482a568d37", "lon": -77.04503633333333, "rental_uris": {"ios": "https://dc.lft.to/lastmile_qr_scan", "android": "https://dc.lft.to/lastmile_qr_scan"}}, {"name": "a7f5330ff60f8e646966096c99e2fe34", "fusion_lat": 0.0, "type": "electric_scooter", "lat": 38.895084, "is_reserved": 0, "is_disabled": 0, "fusion_lon": 0.0, "bike_id": "a7f5330ff60f8e646966096c99e2fe34", "lon": -77.01091516666666, "rental_uris": {"ios": "https://dc.lft.to/lastmile_qr_scan", "android": "https://dc.lft.to/lastmile_qr_scan"}}, {"name": "cca28f6d594f70d88a07cc3004a29bde", "fusion_lat": 0.0, "type": "electric_scooter", "lat": 38.9353305, "is_reserved": 0, "is_disabled": 0, "fusion_lon": 0.0, "bike_id": "cca28f6d594f70d88a07cc3004a29bde", "lon": -77.0341055, "rental_uris": {"ios": "https://dc.lft.to/lastmile_qr_scan", "android": "https://dc.lft.to/lastmile_qr_scan"}}, {"name": "78cfbca8480a64f32836a9da6bbd78b3", "fusion_lat": 0.0, "type": "electric_scooter", "lat": 38.900044, "is_reserved": 0, "is_disabled": 0, "fusion_lon": 0.0, "bike_id": "78cfbca8480a64f32836a9da6bbd78b3", "lon": -77.055722, "rental_uris": {"ios": "https://dc.lft.to/lastmile_qr_scan", "android": "https://dc.lft.to/lastmile_qr_scan"}}, {"name": "5f9c2fd608a502b5d7ca57b4f4781d23", "fusion_lat": 0.0, "type": "electric_scooter", "lat": 38.905597666666665, "is_reserved": 0, "is_disabled": 0, "fusion_lon": 0.0, "bike_id": "5f9c2fd608a502b5d7ca57b4f4781d23", "lon": -77.00587133333333, "rental_uris": {"ios": "https://dc.lft.to/lastmile_qr_scan", "android": "https://dc.lft.to/lastmile_qr_scan"}}, {"name": "baecda444d9c5d50b08f3adff23dd57e", "fusion_lat": 0.0, "type": "electric_scooter", "lat": 38.87655133333333, "is_reserved": 0, "is_disabled": 0, "fusion_lon": 0.0, "bike_id": "baecda444d9c5d50b08f3adff23dd57e", "lon": -77.00455733333334, "rental_uris": {"ios": "https://dc.lft.to/lastmile_qr_scan", "android": "https://dc.lft.to/lastmile_qr_scan"}}, {"name": "ac8d2bba3f4449683bd8a0c7785be3d8", "fusion_lat": 0.0, "type": "electric_scooter", "lat": 38.90508416666667, "is_reserved": 0, "is_disabled": 0, "fusion_lon": 0.0, "bike_id": "ac8d2bba3f4449683bd8a0c7785be3d8", "lon": -77.0344215, "rental_uris": {"ios": "https://dc.lft.to/lastmile_qr_scan", "android": "https://dc.lft.to/lastmile_qr_scan"}}, {"name": "10e69763ab4c8bf27ba776abee2fe7b4", "fusion_lat": 0.0, "type": "electric_scooter", "lat": 38.92630616666667, "is_reserved": 0, "is_disabled": 0, "fusion_lon": 0.0, "bike_id": "10e69763ab4c8bf27ba776abee2fe7b4", "lon": -77.03793266666666, "rental_uris": {"ios": "https://dc.lft.to/lastmile_qr_scan", "android": "https://dc.lft.to/lastmile_qr_scan"}}, {"name": "4bf3e1b5d613b32b790c5a828b767ac7", "fusion_lat": 0.0, "type": "electric_scooter", "lat": 38.90247133333333, "is_reserved": 0, "is_disabled": 0, "fusion_lon": 0.0, "bike_id": "4bf3e1b5d613b32b790c5a828b767ac7", "lon": -77.0461245, "rental_uris": {"ios": "https://dc.lft.to/lastmile_qr_scan", "android": "https://dc.lft.to/lastmile_qr_scan"}}, {"name": "1adbd027ba897245ae272700065c02a0", "fusion_lat": 0.0, "type": "electric_scooter", "lat": 38.9253065, "is_reserved": 0, "is_disabled": 0, "fusion_lon": 0.0, "bike_id": "1adbd027ba897245ae272700065c02a0", "lon": -77.02639283333333, "rental_uris": {"ios": "https://dc.lft.to/lastmile_qr_scan", "android": "https://dc.lft.to/lastmile_qr_scan"}}, {"name": "a478c6a5dd0e63fe22af9aa47f91457b", "fusion_lat": 0.0, "type": "electric_bike", "lat": 38.850592166666665, "is_reserved": 0, "is_disabled": 0, "fusion_lon": 0.0, "bike_id": "a478c6a5dd0e63fe22af9aa47f91457b", "lon": -76.97330066666666, "rental_uris": {"ios": "https://dc.lft.to/lastmile_qr_scan", "android": "https://dc.lft.to/lastmile_qr_scan"}}, {"name": "c0acf91491ec7d13f3a95e1597b4e8cc", "fusion_lat": 0.0, "type": "electric_scooter", "lat": 38.92248033333333, "is_reserved": 0, "is_disabled": 0, "fusion_lon": 0.0, "bike_id": "c0acf91491ec7d13f3a95e1597b4e8cc", "lon": -77.0387725, "rental_uris": {"ios": "https://dc.lft.to/lastmile_qr_scan", "android": "https://dc.lft.to/lastmile_qr_scan"}}, {"name": "e4cd90698fb252c0733c442ad6f63b6d", "fusion_lat": 0.0, "type": "electric_scooter", "lat": 38.9136205, "is_reserved": 0, "is_disabled": 0, "fusion_lon": 0.0, "bike_id": "e4cd90698fb252c0733c442ad6f63b6d", "lon": -77.04555066666667, "rental_uris": {"ios": "https://dc.lft.to/lastmile_qr_scan", "android": "https://dc.lft.to/lastmile_qr_scan"}}, {"name": "e851ddfae3a90ced18f697a36c3c5445", "fusion_lat": 0.0, "type": "electric_scooter", "lat": 38.903257333333336, "is_reserved": 0, "is_disabled": 0, "fusion_lon": 0.0, "bike_id": "e851ddfae3a90ced18f697a36c3c5445", "lon": -77.03660033333334, "rental_uris": {"ios": "https://dc.lft.to/lastmile_qr_scan", "android": "https://dc.lft.to/lastmile_qr_scan"}}, {"name": "99b268656e7d041b539f8e1020b81723", "fusion_lat": 0.0, "type": "electric_scooter", "lat": 38.90335916666667, "is_reserved": 0, "is_disabled": 0, "fusion_lon": 0.0, "bike_id": "99b268656e7d041b539f8e1020b81723", "lon": -77.03461916666667, "rental_uris": {"ios": "https://dc.lft.to/lastmile_qr_scan", "android": "https://dc.lft.to/lastmile_qr_scan"}}, {"name": "885152622078ec8da9c7f9dda77276bc", "fusion_lat": 0.0, "type": "electric_scooter", "lat": 38.923435, "is_reserved": 0, "is_disabled": 0, "fusion_lon": 0.0, "bike_id": "885152622078ec8da9c7f9dda77276bc", "lon": -77.05097, "rental_uris": {"ios": "https://dc.lft.to/lastmile_qr_scan", "android": "https://dc.lft.to/lastmile_qr_scan"}}, {"name": "d0a418e809f9bd24cf9a57ebe31fe665", "fusion_lat": 0.0, "type": "electric_scooter", "lat": 38.898401, "is_reserved": 0, "is_disabled": 0, "fusion_lon": 0.0, "bike_id": "d0a418e809f9bd24cf9a57ebe31fe665", "lon": -77.0072655, "rental_uris": {"ios": "https://dc.lft.to/lastmile_qr_scan", "android": "https://dc.lft.to/lastmile_qr_scan"}}, {"name": "2b253f0f230935af6f58434265088ec0", "fusion_lat": 0.0, "type": "electric_scooter", "lat": 38.94226316666666, "is_reserved": 0, "is_disabled": 0, "fusion_lon": 0.0, "bike_id": "2b253f0f230935af6f58434265088ec0", "lon": -77.0768355, "rental_uris": {"ios": "https://dc.lft.to/lastmile_qr_scan", "android": "https://dc.lft.to/lastmile_qr_scan"}}, {"name": "8a9b54a272926b8cd8190cc2a563ab23", "fusion_lat": 0.0, "type": "electric_scooter", "lat": 38.90408433333333, "is_reserved": 0, "is_disabled": 0, "fusion_lon": 0.0, "bike_id": "8a9b54a272926b8cd8190cc2a563ab23", "lon": -77.04072316666667, "rental_uris": {"ios": "https://dc.lft.to/lastmile_qr_scan", "android": "https://dc.lft.to/lastmile_qr_scan"}}, {"name": "bbbb08bd934e8db8b3294257d0d9c471", "fusion_lat": 0.0, "type": "electric_scooter", "lat": 38.9377135, "is_reserved": 0, "is_disabled": 0, "fusion_lon": 0.0, "bike_id": "bbbb08bd934e8db8b3294257d0d9c471", "lon": -77.03262116666667, "rental_uris": {"ios": "https://dc.lft.to/lastmile_qr_scan", "android": "https://dc.lft.to/lastmile_qr_scan"}}, {"name": "be6c3f0038e196274c4bcafe51efcc27", "fusion_lat": 0.0, "type": "electric_scooter", "lat": 38.90491, "is_reserved": 0, "is_disabled": 0, "fusion_lon": 0.0, "bike_id": "be6c3f0038e196274c4bcafe51efcc27", "lon": -77.02938316666666, "rental_uris": {"ios": "https://dc.lft.to/lastmile_qr_scan", "android": "https://dc.lft.to/lastmile_qr_scan"}}, {"name": "ec7074bf87795f21bda2cff0f2432f2c", "fusion_lat": 0.0, "type": "electric_scooter", "lat": 38.91695716666667, "is_reserved": 0, "is_disabled": 0, "fusion_lon": 0.0, "bike_id": "ec7074bf87795f21bda2cff0f2432f2c", "lon": -77.00810516666667, "rental_uris": {"ios": "https://dc.lft.to/lastmile_qr_scan", "android": "https://dc.lft.to/lastmile_qr_scan"}}, {"name": "b6435de090660976bd3b7df3ce7cc07f", "fusion_lat": 0.0, "type": "electric_scooter", "lat": 38.906946833333336, "is_reserved": 0, "is_disabled": 0, "fusion_lon": 0.0, "bike_id": "b6435de090660976bd3b7df3ce7cc07f", "lon": -77.03199516666666, "rental_uris": {"ios": "https://dc.lft.to/lastmile_qr_scan", "android": "https://dc.lft.to/lastmile_qr_scan"}}, {"name": "ba55a8c96b5d6defa329b820a24b4b8a", "fusion_lat": 0.0, "type": "electric_scooter", "lat": 38.8947255, "is_reserved": 0, "is_disabled": 0, "fusion_lon": 0.0, "bike_id": "ba55a8c96b5d6defa329b820a24b4b8a", "lon": -76.985978, "rental_uris": {"ios": "https://dc.lft.to/lastmile_qr_scan", "android": "https://dc.lft.to/lastmile_qr_scan"}}, {"name": "20399d190b34c84b3c984308c6f2e18f", "fusion_lat": 0.0, "type": "electric_scooter", "lat": 38.8999155, "is_reserved": 0, "is_disabled": 0, "fusion_lon": 0.0, "bike_id": "20399d190b34c84b3c984308c6f2e18f", "lon": -76.98561616666667, "rental_uris": {"ios": "https://dc.lft.to/lastmile_qr_scan", "android": "https://dc.lft.to/lastmile_qr_scan"}}, {"name": "8b9c3532e19ffcd24606ac54eab687dc", "fusion_lat": 0.0, "type": "electric_scooter", "lat": 38.891905, "is_reserved": 0, "is_disabled": 0, "fusion_lon": 0.0, "bike_id": "8b9c3532e19ffcd24606ac54eab687dc", "lon": -77.00288833333333, "rental_uris": {"ios": "https://dc.lft.to/lastmile_qr_scan", "android": "https://dc.lft.to/lastmile_qr_scan"}}, {"name": "94b65d2cba09c945eb2ae0949131c46e", "fusion_lat": 0.0, "type": "electric_scooter", "lat": 38.91401366666667, "is_reserved": 0, "is_disabled": 0, "fusion_lon": 0.0, "bike_id": "94b65d2cba09c945eb2ae0949131c46e", "lon": -77.03911516666666, "rental_uris": {"ios": "https://dc.lft.to/lastmile_qr_scan", "android": "https://dc.lft.to/lastmile_qr_scan"}}, {"name": "8b43fe1c512e5dda1b771324826ca022", "fusion_lat": 0.0, "type": "electric_scooter", "lat": 38.9003485, "is_reserved": 0, "is_disabled": 0, "fusion_lon": 0.0, "bike_id": "8b43fe1c512e5dda1b771324826ca022", "lon": -77.044757, "rental_uris": {"ios": "https://dc.lft.to/lastmile_qr_scan", "android": "https://dc.lft.to/lastmile_qr_scan"}}, {"name": "151b69f44a9c0862b177e22c91ef2627", "fusion_lat": 0.0, "type": "electric_scooter", "lat": 38.89880733333333, "is_reserved": 0, "is_disabled": 0, "fusion_lon": 0.0, "bike_id": "151b69f44a9c0862b177e22c91ef2627", "lon": -77.03190033333334, "rental_uris": {"ios": "https://dc.lft.to/lastmile_qr_scan", "android": "https://dc.lft.to/lastmile_qr_scan"}}, {"name": "11fc3a63d37066b73750a6e5881273f0", "fusion_lat": 0.0, "type": "electric_scooter", "lat": 38.90374083333333, "is_reserved": 0, "is_disabled": 0, "fusion_lon": 0.0, "bike_id": "11fc3a63d37066b73750a6e5881273f0", "lon": -77.03379833333334, "rental_uris": {"ios": "https://dc.lft.to/lastmile_qr_scan", "android": "https://dc.lft.to/lastmile_qr_scan"}}, {"name": "f49d2e894541d7175ce09554c0eb3451", "fusion_lat": 0.0, "type": "electric_scooter", "lat": 38.8742825, "is_reserved": 0, "is_disabled": 0, "fusion_lon": 0.0, "bike_id": "f49d2e894541d7175ce09554c0eb3451", "lon": -77.02065616666667, "rental_uris": {"ios": "https://dc.lft.to/lastmile_qr_scan", "android": "https://dc.lft.to/lastmile_qr_scan"}}, {"name": "64e43238b235551f70641e56eaa7fb04", "fusion_lat": 0.0, "type": "electric_scooter", "lat": 38.896023, "is_reserved": 0, "is_disabled": 0, "fusion_lon": 0.0, "bike_id": "64e43238b235551f70641e56eaa7fb04", "lon": -77.02946666666666, "rental_uris": {"ios": "https://dc.lft.to/lastmile_qr_scan", "android": "https://dc.lft.to/lastmile_qr_scan"}}, {"name": "1f20982c5534c5dc7813133aa7dfa358", "fusion_lat": 0.0, "type": "electric_bike", "lat": 38.94380733333333, "is_reserved": 0, "is_disabled": 0, "fusion_lon": 0.0, "bike_id": "1f20982c5534c5dc7813133aa7dfa358", "lon": -76.96291883333333, "rental_uris": {"ios": "https://dc.lft.to/lastmile_qr_scan", "android": "https://dc.lft.to/lastmile_qr_scan"}}, {"name": "44e5442b9c3a9206557b593bdaec50ee", "fusion_lat": 0.0, "type": "electric_scooter", "lat": 38.8909715, "is_reserved": 0, "is_disabled": 0, "fusion_lon": 0.0, "bike_id": "44e5442b9c3a9206557b593bdaec50ee", "lon": -76.9820185, "rental_uris": {"ios": "https://dc.lft.to/lastmile_qr_scan", "android": "https://dc.lft.to/lastmile_qr_scan"}}, {"name": "c822d42b2ffb6fe3386d69d3ed8c4bb5", "fusion_lat": 0.0, "type": "electric_scooter", "lat": 38.88445466666667, "is_reserved": 0, "is_disabled": 0, "fusion_lon": 0.0, "bike_id": "c822d42b2ffb6fe3386d69d3ed8c4bb5", "lon": -77.026229, "rental_uris": {"ios": "https://dc.lft.to/lastmile_qr_scan", "android": "https://dc.lft.to/lastmile_qr_scan"}}, {"name": "b0ba099fa86ea1c52d5c6bb984fcfb0b", "fusion_lat": 0.0, "type": "electric_scooter", "lat": 38.911083166666664, "is_reserved": 0, "is_disabled": 0, "fusion_lon": 0.0, "bike_id": "b0ba099fa86ea1c52d5c6bb984fcfb0b", "lon": -77.044639, "rental_uris": {"ios": "https://dc.lft.to/lastmile_qr_scan", "android": "https://dc.lft.to/lastmile_qr_scan"}}, {"name": "b8e7fa772c315ddc8f139778b334b5c2", "fusion_lat": 0.0, "type": "electric_scooter", "lat": 38.912631, "is_reserved": 0, "is_disabled": 0, "fusion_lon": 0.0, "bike_id": "b8e7fa772c315ddc8f139778b334b5c2", "lon": -77.0314395, "rental_uris": {"ios": "https://dc.lft.to/lastmile_qr_scan", "android": "https://dc.lft.to/lastmile_qr_scan"}}, {"name": "d6aab1aede265a7860ef00859ea56676", "fusion_lat": 0.0, "type": "electric_scooter", "lat": 38.91770433333333, "is_reserved": 0, "is_disabled": 0, "fusion_lon": 0.0, "bike_id": "d6aab1aede265a7860ef00859ea56676", "lon": -77.0149975, "rental_uris": {"ios": "https://dc.lft.to/lastmile_qr_scan", "android": "https://dc.lft.to/lastmile_qr_scan"}}, {"name": "520084e5666075d2ade87a3e2a211db7", "fusion_lat": 0.0, "type": "electric_scooter", "lat": 38.898403, "is_reserved": 0, "is_disabled": 0, "fusion_lon": 0.0, "bike_id": "520084e5666075d2ade87a3e2a211db7", "lon": -77.03957316666667, "rental_uris": {"ios": "https://dc.lft.to/lastmile_qr_scan", "android": "https://dc.lft.to/lastmile_qr_scan"}}, {"name": "f639ae8c5865de687c87dc57fe274ee1", "fusion_lat": 0.0, "type": "electric_scooter", "lat": 38.92229866666667, "is_reserved": 0, "is_disabled": 0, "fusion_lon": 0.0, "bike_id": "f639ae8c5865de687c87dc57fe274ee1", "lon": -77.04251283333333, "rental_uris": {"ios": "https://dc.lft.to/lastmile_qr_scan", "android": "https://dc.lft.to/lastmile_qr_scan"}}, {"name": "36b11fee613a633014135246f31b738f", "fusion_lat": 0.0, "type": "electric_scooter", "lat": 38.899417666666665, "is_reserved": 0, "is_disabled": 0, "fusion_lon": 0.0, "bike_id": "36b11fee613a633014135246f31b738f", "lon": -77.03370633333333, "rental_uris": {"ios": "https://dc.lft.to/lastmile_qr_scan", "android": "https://dc.lft.to/lastmile_qr_scan"}}, {"name": "911160d2b774731ea238897813cef54e", "fusion_lat": 0.0, "type": "electric_scooter", "lat": 38.884224, "is_reserved": 0, "is_disabled": 0, "fusion_lon": 0.0, "bike_id": "911160d2b774731ea238897813cef54e", "lon": -76.95750466666667, "rental_uris": {"ios": "https://dc.lft.to/lastmile_qr_scan", "android": "https://dc.lft.to/lastmile_qr_scan"}}, {"name": "7f3bb4f8d169c7b728cc9102396e9328", "fusion_lat": 0.0, "type": "electric_scooter", "lat": 38.9185465, "is_reserved": 0, "is_disabled": 0, "fusion_lon": 0.0, "bike_id": "7f3bb4f8d169c7b728cc9102396e9328", "lon": -77.04464416666667, "rental_uris": {"ios": "https://dc.lft.to/lastmile_qr_scan", "android": "https://dc.lft.to/lastmile_qr_scan"}}, {"name": "59a5eaf0a2453cf9c154a6c9f1f40067", "fusion_lat": 0.0, "type": "electric_scooter", "lat": 38.92155616666667, "is_reserved": 0, "is_disabled": 0, "fusion_lon": 0.0, "bike_id": "59a5eaf0a2453cf9c154a6c9f1f40067", "lon": -77.03229666666667, "rental_uris": {"ios": "https://dc.lft.to/lastmile_qr_scan", "android": "https://dc.lft.to/lastmile_qr_scan"}}, {"name": "9aea64b32414561b917aed0e0a1ebe67", "fusion_lat": 0.0, "type": "electric_scooter", "lat": 38.9077695, "is_reserved": 0, "is_disabled": 0, "fusion_lon": 0.0, "bike_id": "9aea64b32414561b917aed0e0a1ebe67", "lon": -77.03860616666667, "rental_uris": {"ios": "https://dc.lft.to/lastmile_qr_scan", "android": "https://dc.lft.to/lastmile_qr_scan"}}, {"name": "b9f46f017696f1ccc8a957d5da11658c", "fusion_lat": 0.0, "type": "electric_scooter", "lat": 38.9151725, "is_reserved": 0, "is_disabled": 0, "fusion_lon": 0.0, "bike_id": "b9f46f017696f1ccc8a957d5da11658c", "lon": -77.04492783333333, "rental_uris": {"ios": "https://dc.lft.to/lastmile_qr_scan", "android": "https://dc.lft.to/lastmile_qr_scan"}}, {"name": "535d180d113f2e764f76f6dc210f9b23", "fusion_lat": 0.0, "type": "electric_scooter", "lat": 38.923586, "is_reserved": 0, "is_disabled": 0, "fusion_lon": 0.0, "bike_id": "535d180d113f2e764f76f6dc210f9b23", "lon": -77.050801, "rental_uris": {"ios": "https://dc.lft.to/lastmile_qr_scan", "android": "https://dc.lft.to/lastmile_qr_scan"}}, {"name": "f54286c6593d7c285972c2fa99610516", "fusion_lat": 0.0, "type": "electric_scooter", "lat": 38.8969935, "is_reserved": 0, "is_disabled": 0, "fusion_lon": 0.0, "bike_id": "f54286c6593d7c285972c2fa99610516", "lon": -77.02672116666666, "rental_uris": {"ios": "https://dc.lft.to/lastmile_qr_scan", "android": "https://dc.lft.to/lastmile_qr_scan"}}, {"name": "45a8d535379aed04eb277d036fdec88d", "fusion_lat": 0.0, "type": "electric_scooter", "lat": 38.916193166666666, "is_reserved": 0, "is_disabled": 0, "fusion_lon": 0.0, "bike_id": "45a8d535379aed04eb277d036fdec88d", "lon": -77.03190533333333, "rental_uris": {"ios": "https://dc.lft.to/lastmile_qr_scan", "android": "https://dc.lft.to/lastmile_qr_scan"}}, {"name": "96873b3eaf3ae25c35070d982c7e0e04", "fusion_lat": 0.0, "type": "electric_scooter", "lat": 38.93576133333333, "is_reserved": 0, "is_disabled": 0, "fusion_lon": 0.0, "bike_id": "96873b3eaf3ae25c35070d982c7e0e04", "lon": -76.991028, "rental_uris": {"ios": "https://dc.lft.to/lastmile_qr_scan", "android": "https://dc.lft.to/lastmile_qr_scan"}}, {"name": "c0feacbd10d1d7d9583ccca9e6bceb94", "fusion_lat": 0.0, "type": "electric_scooter", "lat": 38.887400166666666, "is_reserved": 0, "is_disabled": 0, "fusion_lon": 0.0, "bike_id": "c0feacbd10d1d7d9583ccca9e6bceb94", "lon": -77.02129066666667, "rental_uris": {"ios": "https://dc.lft.to/lastmile_qr_scan", "android": "https://dc.lft.to/lastmile_qr_scan"}}, {"name": "5cd612a2984f1ed8c9cfb50e8c10f705", "fusion_lat": 0.0, "type": "electric_scooter", "lat": 38.90528583333333, "is_reserved": 0, "is_disabled": 0, "fusion_lon": 0.0, "bike_id": "5cd612a2984f1ed8c9cfb50e8c10f705", "lon": -77.05766083333333, "rental_uris": {"ios": "https://dc.lft.to/lastmile_qr_scan", "android": "https://dc.lft.to/lastmile_qr_scan"}}, {"name": "349e5aa3dc60e53c907d33a6c57b9c86", "fusion_lat": 0.0, "type": "electric_scooter", "lat": 38.92519883333333, "is_reserved": 0, "is_disabled": 0, "fusion_lon": 0.0, "bike_id": "349e5aa3dc60e53c907d33a6c57b9c86", "lon": -77.05556816666666, "rental_uris": {"ios": "https://dc.lft.to/lastmile_qr_scan", "android": "https://dc.lft.to/lastmile_qr_scan"}}, {"name": "5e885cf6700a9fb908b5e45b98195ef1", "fusion_lat": 0.0, "type": "electric_scooter", "lat": 38.90153, "is_reserved": 0, "is_disabled": 0, "fusion_lon": 0.0, "bike_id": "5e885cf6700a9fb908b5e45b98195ef1", "lon": -76.930606, "rental_uris": {"ios": "https://dc.lft.to/lastmile_qr_scan", "android": "https://dc.lft.to/lastmile_qr_scan"}}, {"name": "2357cc10355c7003ad1e5c55c7e80152", "fusion_lat": 0.0, "type": "electric_scooter", "lat": 38.8939825, "is_reserved": 0, "is_disabled": 0, "fusion_lon": 0.0, "bike_id": "2357cc10355c7003ad1e5c55c7e80152", "lon": -76.94806266666667, "rental_uris": {"ios": "https://dc.lft.to/lastmile_qr_scan", "android": "https://dc.lft.to/lastmile_qr_scan"}}, {"name": "30dc905b75b306daffd7fadfe0745132", "fusion_lat": 0.0, "type": "electric_scooter", "lat": 38.895306, "is_reserved": 0, "is_disabled": 0, "fusion_lon": 0.0, "bike_id": "30dc905b75b306daffd7fadfe0745132", "lon": -77.04647833333334, "rental_uris": {"ios": "https://dc.lft.to/lastmile_qr_scan", "android": "https://dc.lft.to/lastmile_qr_scan"}}, {"name": "dec88707db6f282e160fde5a9cca96be", "fusion_lat": 0.0, "type": "electric_scooter", "lat": 38.91927716666667, "is_reserved": 0, "is_disabled": 0, "fusion_lon": 0.0, "bike_id": "dec88707db6f282e160fde5a9cca96be", "lon": -77.03427433333333, "rental_uris": {"ios": "https://dc.lft.to/lastmile_qr_scan", "android": "https://dc.lft.to/lastmile_qr_scan"}}, {"name": "f2019dfd67f11af8058b7ab819e698e3", "fusion_lat": 0.0, "type": "electric_scooter", "lat": 38.85708366666667, "is_reserved": 0, "is_disabled": 0, "fusion_lon": 0.0, "bike_id": "f2019dfd67f11af8058b7ab819e698e3", "lon": -76.98128433333333, "rental_uris": {"ios": "https://dc.lft.to/lastmile_qr_scan", "android": "https://dc.lft.to/lastmile_qr_scan"}}, {"name": "7b6192f537a44ea99ac2ab5e968b6423", "fusion_lat": 0.0, "type": "electric_scooter", "lat": 38.903342, "is_reserved": 0, "is_disabled": 0, "fusion_lon": 0.0, "bike_id": "7b6192f537a44ea99ac2ab5e968b6423", "lon": -77.0354345, "rental_uris": {"ios": "https://dc.lft.to/lastmile_qr_scan", "android": "https://dc.lft.to/lastmile_qr_scan"}}, {"name": "adda616d6032786149cd2d5d04f555c8", "fusion_lat": 0.0, "type": "electric_scooter", "lat": 38.90101583333333, "is_reserved": 0, "is_disabled": 0, "fusion_lon": 0.0, "bike_id": "adda616d6032786149cd2d5d04f555c8", "lon": -77.049854, "rental_uris": {"ios": "https://dc.lft.to/lastmile_qr_scan", "android": "https://dc.lft.to/lastmile_qr_scan"}}, {"name": "8ce18d7f4d3c940d0ba7610ef74c1659", "fusion_lat": 0.0, "type": "electric_scooter", "lat": 38.902585333333334, "is_reserved": 0, "is_disabled": 0, "fusion_lon": 0.0, "bike_id": "8ce18d7f4d3c940d0ba7610ef74c1659", "lon": -77.0214985, "rental_uris": {"ios": "https://dc.lft.to/lastmile_qr_scan", "android": "https://dc.lft.to/lastmile_qr_scan"}}, {"name": "5fd6d511368ccaf09e919a3a4e58508c", "fusion_lat": 0.0, "type": "electric_scooter", "lat": 38.906478666666665, "is_reserved": 0, "is_disabled": 0, "fusion_lon": 0.0, "bike_id": "5fd6d511368ccaf09e919a3a4e58508c", "lon": -77.05322733333334, "rental_uris": {"ios": "https://dc.lft.to/lastmile_qr_scan", "android": "https://dc.lft.to/lastmile_qr_scan"}}, {"name": "aff9e38af54cf73564398e704c97f62f", "fusion_lat": 0.0, "type": "electric_scooter", "lat": 38.8984775, "is_reserved": 0, "is_disabled": 0, "fusion_lon": 0.0, "bike_id": "aff9e38af54cf73564398e704c97f62f", "lon": -77.01611416666667, "rental_uris": {"ios": "https://dc.lft.to/lastmile_qr_scan", "android": "https://dc.lft.to/lastmile_qr_scan"}}, {"name": "38091db6a8d547b56dbabce8a251b652", "fusion_lat": 0.0, "type": "electric_scooter", "lat": 38.903853, "is_reserved": 0, "is_disabled": 0, "fusion_lon": 0.0, "bike_id": "38091db6a8d547b56dbabce8a251b652", "lon": -77.0362065, "rental_uris": {"ios": "https://dc.lft.to/lastmile_qr_scan", "android": "https://dc.lft.to/lastmile_qr_scan"}}, {"name": "bc76d41ea3e5302257525748ee85f836", "fusion_lat": 0.0, "type": "electric_scooter", "lat": 38.898657, "is_reserved": 0, "is_disabled": 0, "fusion_lon": 0.0, "bike_id": "bc76d41ea3e5302257525748ee85f836", "lon": -77.0393435, "rental_uris": {"ios": "https://dc.lft.to/lastmile_qr_scan", "android": "https://dc.lft.to/lastmile_qr_scan"}}, {"name": "7f30625ecfd0889cfea163b129e74f4b", "fusion_lat": 0.0, "type": "electric_scooter", "lat": 38.907520833333336, "is_reserved": 0, "is_disabled": 0, "fusion_lon": 0.0, "bike_id": "7f30625ecfd0889cfea163b129e74f4b", "lon": -77.03600066666667, "rental_uris": {"ios": "https://dc.lft.to/lastmile_qr_scan", "android": "https://dc.lft.to/lastmile_qr_scan"}}, {"name": "b7c187fa5a21091271d8335dd1f34f85", "fusion_lat": 0.0, "type": "electric_scooter", "lat": 38.90570566666667, "is_reserved": 0, "is_disabled": 0, "fusion_lon": 0.0, "bike_id": "b7c187fa5a21091271d8335dd1f34f85", "lon": -77.04137283333333, "rental_uris": {"ios": "https://dc.lft.to/lastmile_qr_scan", "android": "https://dc.lft.to/lastmile_qr_scan"}}, {"name": "80582269752b10a0ac6ee46af809015b", "fusion_lat": 0.0, "type": "electric_scooter", "lat": 38.8988425, "is_reserved": 0, "is_disabled": 0, "fusion_lon": 0.0, "bike_id": "80582269752b10a0ac6ee46af809015b", "lon": -76.93176783333334, "rental_uris": {"ios": "https://dc.lft.to/lastmile_qr_scan", "android": "https://dc.lft.to/lastmile_qr_scan"}}, {"name": "85893c93364804c1a27e374a774db6bf", "fusion_lat": 0.0, "type": "electric_scooter", "lat": 38.90299516666666, "is_reserved": 0, "is_disabled": 0, "fusion_lon": 0.0, "bike_id": "85893c93364804c1a27e374a774db6bf", "lon": -77.0320395, "rental_uris": {"ios": "https://dc.lft.to/lastmile_qr_scan", "android": "https://dc.lft.to/lastmile_qr_scan"}}, {"name": "aad3f25b225acce881d7b18e73207384", "fusion_lat": 0.0, "type": "electric_scooter", "lat": 38.8634725, "is_reserved": 0, "is_disabled": 0, "fusion_lon": 0.0, "bike_id": "aad3f25b225acce881d7b18e73207384", "lon": -76.9906805, "rental_uris": {"ios": "https://dc.lft.to/lastmile_qr_scan", "android": "https://dc.lft.to/lastmile_qr_scan"}}, {"name": "f0329651a72cc4948de55ec79c808fe3", "fusion_lat": 0.0, "type": "electric_scooter", "lat": 38.89993366666667, "is_reserved": 0, "is_disabled": 0, "fusion_lon": 0.0, "bike_id": "f0329651a72cc4948de55ec79c808fe3", "lon": -77.05518333333333, "rental_uris": {"ios": "https://dc.lft.to/lastmile_qr_scan", "android": "https://dc.lft.to/lastmile_qr_scan"}}, {"name": "641971cb37a23cb3e217011b18744360", "fusion_lat": 0.0, "type": "electric_scooter", "lat": 38.913303666666664, "is_reserved": 0, "is_disabled": 0, "fusion_lon": 0.0, "bike_id": "641971cb37a23cb3e217011b18744360", "lon": -77.04839366666667, "rental_uris": {"ios": "https://dc.lft.to/lastmile_qr_scan", "android": "https://dc.lft.to/lastmile_qr_scan"}}, {"name": "8d7b54758071823cea8aeda3240c0880", "fusion_lat": 0.0, "type": "electric_scooter", "lat": 38.92292483333333, "is_reserved": 0, "is_disabled": 0, "fusion_lon": 0.0, "bike_id": "8d7b54758071823cea8aeda3240c0880", "lon": -77.04205666666667, "rental_uris": {"ios": "https://dc.lft.to/lastmile_qr_scan", "android": "https://dc.lft.to/lastmile_qr_scan"}}, {"name": "c7b63e9328be5c9f18c95b389bbbed37", "fusion_lat": 0.0, "type": "electric_scooter", "lat": 38.880447833333335, "is_reserved": 0, "is_disabled": 0, "fusion_lon": 0.0, "bike_id": "c7b63e9328be5c9f18c95b389bbbed37", "lon": -77.01331033333334, "rental_uris": {"ios": "https://dc.lft.to/lastmile_qr_scan", "android": "https://dc.lft.to/lastmile_qr_scan"}}, {"name": "21ab57357445e2f17bde93e449f116dd", "fusion_lat": 0.0, "type": "electric_scooter", "lat": 38.89822866666667, "is_reserved": 0, "is_disabled": 0, "fusion_lon": 0.0, "bike_id": "21ab57357445e2f17bde93e449f116dd", "lon": -76.9877635, "rental_uris": {"ios": "https://dc.lft.to/lastmile_qr_scan", "android": "https://dc.lft.to/lastmile_qr_scan"}}, {"name": "1668f7922ee18b501c903b66bb594fc8", "fusion_lat": 0.0, "type": "electric_scooter", "lat": 38.942046166666664, "is_reserved": 0, "is_disabled": 0, "fusion_lon": 0.0, "bike_id": "1668f7922ee18b501c903b66bb594fc8", "lon": -77.03587416666667, "rental_uris": {"ios": "https://dc.lft.to/lastmile_qr_scan", "android": "https://dc.lft.to/lastmile_qr_scan"}}, {"name": "a1f25c905217d0398a04643af82a0794", "fusion_lat": 0.0, "type": "electric_scooter", "lat": 38.895864833333334, "is_reserved": 0, "is_disabled": 0, "fusion_lon": 0.0, "bike_id": "a1f25c905217d0398a04643af82a0794", "lon": -77.0269075, "rental_uris": {"ios": "https://dc.lft.to/lastmile_qr_scan", "android": "https://dc.lft.to/lastmile_qr_scan"}}, {"name": "8dcb8b7c8f679f45aac60042f768ad83", "fusion_lat": 0.0, "type": "electric_scooter", "lat": 38.923644833333334, "is_reserved": 0, "is_disabled": 0, "fusion_lon": 0.0, "bike_id": "8dcb8b7c8f679f45aac60042f768ad83", "lon": -77.0191145, "rental_uris": {"ios": "https://dc.lft.to/lastmile_qr_scan", "android": "https://dc.lft.to/lastmile_qr_scan"}}, {"name": "89e9535faa62a4d941d3624edbdac6a5", "fusion_lat": 0.0, "type": "electric_scooter", "lat": 38.90748166666667, "is_reserved": 0, "is_disabled": 0, "fusion_lon": 0.0, "bike_id": "89e9535faa62a4d941d3624edbdac6a5", "lon": -77.03095516666667, "rental_uris": {"ios": "https://dc.lft.to/lastmile_qr_scan", "android": "https://dc.lft.to/lastmile_qr_scan"}}, {"name": "28ee530f01427a23e9363a8a2832209a", "fusion_lat": 0.0, "type": "electric_scooter", "lat": 38.90639133333333, "is_reserved": 0, "is_disabled": 0, "fusion_lon": 0.0, "bike_id": "28ee530f01427a23e9363a8a2832209a", "lon": -77.03902833333333, "rental_uris": {"ios": "https://dc.lft.to/lastmile_qr_scan", "android": "https://dc.lft.to/lastmile_qr_scan"}}, {"name": "d8d7dc11b13193dc9f026670937b982d", "fusion_lat": 0.0, "type": "electric_scooter", "lat": 38.89878483333333, "is_reserved": 0, "is_disabled": 0, "fusion_lon": 0.0, "bike_id": "d8d7dc11b13193dc9f026670937b982d", "lon": -77.033379, "rental_uris": {"ios": "https://dc.lft.to/lastmile_qr_scan", "android": "https://dc.lft.to/lastmile_qr_scan"}}, {"name": "04ccf63fe19fedd3fe809ddd9ae7439c", "fusion_lat": 0.0, "type": "electric_scooter", "lat": 38.89886683333334, "is_reserved": 0, "is_disabled": 0, "fusion_lon": 0.0, "bike_id": "04ccf63fe19fedd3fe809ddd9ae7439c", "lon": -77.03190316666667, "rental_uris": {"ios": "https://dc.lft.to/lastmile_qr_scan", "android": "https://dc.lft.to/lastmile_qr_scan"}}, {"name": "5453144a3a037926c24707743ee6d8a1", "fusion_lat": 0.0, "type": "electric_scooter", "lat": 38.9242815, "is_reserved": 0, "is_disabled": 0, "fusion_lon": 0.0, "bike_id": "5453144a3a037926c24707743ee6d8a1", "lon": -77.02978716666667, "rental_uris": {"ios": "https://dc.lft.to/lastmile_qr_scan", "android": "https://dc.lft.to/lastmile_qr_scan"}}, {"name": "f4a472ef8df36f92d95219264685d6f6", "fusion_lat": 0.0, "type": "electric_scooter", "lat": 38.9495525, "is_reserved": 0, "is_disabled": 0, "fusion_lon": 0.0, "bike_id": "f4a472ef8df36f92d95219264685d6f6", "lon": -77.02721016666666, "rental_uris": {"ios": "https://dc.lft.to/lastmile_qr_scan", "android": "https://dc.lft.to/lastmile_qr_scan"}}, {"name": "47805c9720e018af24fb6e01e845af16", "fusion_lat": 0.0, "type": "electric_bike", "lat": 38.88040066666667, "is_reserved": 0, "is_disabled": 0, "fusion_lon": 0.0, "bike_id": "47805c9720e018af24fb6e01e845af16", "lon": -77.013265, "rental_uris": {"ios": "https://dc.lft.to/lastmile_qr_scan", "android": "https://dc.lft.to/lastmile_qr_scan"}}, {"name": "44aac134a0bb2d9104a6a726f59f5ff5", "fusion_lat": 0.0, "type": "electric_scooter", "lat": 38.91117716666667, "is_reserved": 0, "is_disabled": 0, "fusion_lon": 0.0, "bike_id": "44aac134a0bb2d9104a6a726f59f5ff5", "lon": -77.04359233333334, "rental_uris": {"ios": "https://dc.lft.to/lastmile_qr_scan", "android": "https://dc.lft.to/lastmile_qr_scan"}}, {"name": "f4c015da6a38000285386c26fa0b450b", "fusion_lat": 0.0, "type": "electric_scooter", "lat": 38.9026645, "is_reserved": 0, "is_disabled": 0, "fusion_lon": 0.0, "bike_id": "f4c015da6a38000285386c26fa0b450b", "lon": -77.0271245, "rental_uris": {"ios": "https://dc.lft.to/lastmile_qr_scan", "android": "https://dc.lft.to/lastmile_qr_scan"}}, {"name": "dec5f213e4f7273a84f181fbfedd013d", "fusion_lat": 0.0, "type": "electric_scooter", "lat": 38.929267333333335, "is_reserved": 0, "is_disabled": 0, "fusion_lon": 0.0, "bike_id": "dec5f213e4f7273a84f181fbfedd013d", "lon": -77.019625, "rental_uris": {"ios": "https://dc.lft.to/lastmile_qr_scan", "android": "https://dc.lft.to/lastmile_qr_scan"}}, {"name": "734bdc75b44e7fe730e1b31cf60752fc", "fusion_lat": 0.0, "type": "electric_scooter", "lat": 38.8968055, "is_reserved": 0, "is_disabled": 0, "fusion_lon": 0.0, "bike_id": "734bdc75b44e7fe730e1b31cf60752fc", "lon": -77.0515055, "rental_uris": {"ios": "https://dc.lft.to/lastmile_qr_scan", "android": "https://dc.lft.to/lastmile_qr_scan"}}, {"name": "c6b26b59814f0e1f7393ebe95278a7f0", "fusion_lat": 0.0, "type": "electric_scooter", "lat": 38.919974833333335, "is_reserved": 0, "is_disabled": 0, "fusion_lon": 0.0, "bike_id": "c6b26b59814f0e1f7393ebe95278a7f0", "lon": -77.031806, "rental_uris": {"ios": "https://dc.lft.to/lastmile_qr_scan", "android": "https://dc.lft.to/lastmile_qr_scan"}}, {"name": "dabf6a1be83d9fa5587f02c9510523a7", "fusion_lat": 0.0, "type": "electric_scooter", "lat": 38.9242695, "is_reserved": 0, "is_disabled": 0, "fusion_lon": 0.0, "bike_id": "dabf6a1be83d9fa5587f02c9510523a7", "lon": -77.05218533333333, "rental_uris": {"ios": "https://dc.lft.to/lastmile_qr_scan", "android": "https://dc.lft.to/lastmile_qr_scan"}}, {"name": "476f8d01383a811530d7f4ff5d6730a0", "fusion_lat": 0.0, "type": "electric_scooter", "lat": 38.885039166666665, "is_reserved": 0, "is_disabled": 0, "fusion_lon": 0.0, "bike_id": "476f8d01383a811530d7f4ff5d6730a0", "lon": -77.02092866666666, "rental_uris": {"ios": "https://dc.lft.to/lastmile_qr_scan", "android": "https://dc.lft.to/lastmile_qr_scan"}}, {"name": "cb3f492114d3084eadfb4aebb21c6b39", "fusion_lat": 0.0, "type": "electric_scooter", "lat": 38.866547, "is_reserved": 0, "is_disabled": 0, "fusion_lon": 0.0, "bike_id": "cb3f492114d3084eadfb4aebb21c6b39", "lon": -76.98887066666667, "rental_uris": {"ios": "https://dc.lft.to/lastmile_qr_scan", "android": "https://dc.lft.to/lastmile_qr_scan"}}, {"name": "99c15afda0d7e1f6fb0e269b9359b8c7", "fusion_lat": 0.0, "type": "electric_scooter", "lat": 38.894253, "is_reserved": 0, "is_disabled": 0, "fusion_lon": 0.0, "bike_id": "99c15afda0d7e1f6fb0e269b9359b8c7", "lon": -77.0465775, "rental_uris": {"ios": "https://dc.lft.to/lastmile_qr_scan", "android": "https://dc.lft.to/lastmile_qr_scan"}}, {"name": "8dc12eb848e6faa91b51513f78321209", "fusion_lat": 0.0, "type": "electric_scooter", "lat": 38.95259466666667, "is_reserved": 0, "is_disabled": 0, "fusion_lon": 0.0, "bike_id": "8dc12eb848e6faa91b51513f78321209", "lon": -77.02567833333333, "rental_uris": {"ios": "https://dc.lft.to/lastmile_qr_scan", "android": "https://dc.lft.to/lastmile_qr_scan"}}, {"name": "bf751cf2dfd8b078580a5227444e1f36", "fusion_lat": 0.0, "type": "electric_scooter", "lat": 38.864099833333334, "is_reserved": 0, "is_disabled": 0, "fusion_lon": 0.0, "bike_id": "bf751cf2dfd8b078580a5227444e1f36", "lon": -76.980445, "rental_uris": {"ios": "https://dc.lft.to/lastmile_qr_scan", "android": "https://dc.lft.to/lastmile_qr_scan"}}, {"name": "f666f43bba41a274b4a9cac1c4cfb815", "fusion_lat": 0.0, "type": "electric_bike", "lat": 38.945075, "is_reserved": 0, "is_disabled": 0, "fusion_lon": 0.0, "bike_id": "f666f43bba41a274b4a9cac1c4cfb815", "lon": -77.00674766666667, "rental_uris": {"ios": "https://dc.lft.to/lastmile_qr_scan", "android": "https://dc.lft.to/lastmile_qr_scan"}}, {"name": "baeabd81448684b4286743628e187fba", "fusion_lat": 0.0, "type": "electric_scooter", "lat": 38.883896666666665, "is_reserved": 0, "is_disabled": 0, "fusion_lon": 0.0, "bike_id": "baeabd81448684b4286743628e187fba", "lon": -76.98583783333333, "rental_uris": {"ios": "https://dc.lft.to/lastmile_qr_scan", "android": "https://dc.lft.to/lastmile_qr_scan"}}, {"name": "c200a446bc9c218d9e0faba0ffee66dd", "fusion_lat": 0.0, "type": "electric_scooter", "lat": 38.91814316666667, "is_reserved": 0, "is_disabled": 0, "fusion_lon": 0.0, "bike_id": "c200a446bc9c218d9e0faba0ffee66dd", "lon": -77.03453466666667, "rental_uris": {"ios": "https://dc.lft.to/lastmile_qr_scan", "android": "https://dc.lft.to/lastmile_qr_scan"}}, {"name": "3c9de6fe11b385e030b596ea4161c88c", "fusion_lat": 0.0, "type": "electric_scooter", "lat": 38.901347666666666, "is_reserved": 0, "is_disabled": 0, "fusion_lon": 0.0, "bike_id": "3c9de6fe11b385e030b596ea4161c88c", "lon": -77.03334483333333, "rental_uris": {"ios": "https://dc.lft.to/lastmile_qr_scan", "android": "https://dc.lft.to/lastmile_qr_scan"}}, {"name": "aa565450ad923acee48ee73fe5679bca", "fusion_lat": 0.0, "type": "electric_bike", "lat": 38.896321666666665, "is_reserved": 0, "is_disabled": 0, "fusion_lon": 0.0, "bike_id": "aa565450ad923acee48ee73fe5679bca", "lon": -77.10456416666666, "rental_uris": {"ios": "https://dc.lft.to/lastmile_qr_scan", "android": "https://dc.lft.to/lastmile_qr_scan"}}, {"name": "ff3efb315c7616ceb5a504ab46c55bc5", "fusion_lat": 0.0, "type": "electric_scooter", "lat": 38.9260055, "is_reserved": 0, "is_disabled": 0, "fusion_lon": 0.0, "bike_id": "ff3efb315c7616ceb5a504ab46c55bc5", "lon": -77.02158233333333, "rental_uris": {"ios": "https://dc.lft.to/lastmile_qr_scan", "android": "https://dc.lft.to/lastmile_qr_scan"}}, {"name": "0abf84a1cc293f5c7ae1bd099c4a256c", "fusion_lat": 0.0, "type": "electric_scooter", "lat": 38.924816166666666, "is_reserved": 0, "is_disabled": 0, "fusion_lon": 0.0, "bike_id": "0abf84a1cc293f5c7ae1bd099c4a256c", "lon": -77.05217766666667, "rental_uris": {"ios": "https://dc.lft.to/lastmile_qr_scan", "android": "https://dc.lft.to/lastmile_qr_scan"}}, {"name": "91c08be113b778cfdfbf70f21496fda5", "fusion_lat": 0.0, "type": "electric_scooter", "lat": 38.89396933333333, "is_reserved": 0, "is_disabled": 0, "fusion_lon": 0.0, "bike_id": "91c08be113b778cfdfbf70f21496fda5", "lon": -76.94807783333333, "rental_uris": {"ios": "https://dc.lft.to/lastmile_qr_scan", "android": "https://dc.lft.to/lastmile_qr_scan"}}, {"name": "7e0384260a338cf8d5c0a1e5ee8e67d1", "fusion_lat": 0.0, "type": "electric_scooter", "lat": 38.855222, "is_reserved": 0, "is_disabled": 0, "fusion_lon": 0.0, "bike_id": "7e0384260a338cf8d5c0a1e5ee8e67d1", "lon": -76.96918483333333, "rental_uris": {"ios": "https://dc.lft.to/lastmile_qr_scan", "android": "https://dc.lft.to/lastmile_qr_scan"}}, {"name": "1c6075e49b43e61fe6313d0d9fdbc72e", "fusion_lat": 0.0, "type": "electric_scooter", "lat": 38.92601633333334, "is_reserved": 0, "is_disabled": 0, "fusion_lon": 0.0, "bike_id": "1c6075e49b43e61fe6313d0d9fdbc72e", "lon": -77.02154616666667, "rental_uris": {"ios": "https://dc.lft.to/lastmile_qr_scan", "android": "https://dc.lft.to/lastmile_qr_scan"}}, {"name": "660e93a759c8680b43d6d766282ba790", "fusion_lat": 0.0, "type": "electric_scooter", "lat": 38.903353333333335, "is_reserved": 0, "is_disabled": 0, "fusion_lon": 0.0, "bike_id": "660e93a759c8680b43d6d766282ba790", "lon": -76.98974583333333, "rental_uris": {"ios": "https://dc.lft.to/lastmile_qr_scan", "android": "https://dc.lft.to/lastmile_qr_scan"}}, {"name": "1e7f362e1f0a9e4e34524d309e0d5308", "fusion_lat": 0.0, "type": "electric_scooter", "lat": 38.9112545, "is_reserved": 0, "is_disabled": 0, "fusion_lon": 0.0, "bike_id": "1e7f362e1f0a9e4e34524d309e0d5308", "lon": -77.03184066666667, "rental_uris": {"ios": "https://dc.lft.to/lastmile_qr_scan", "android": "https://dc.lft.to/lastmile_qr_scan"}}, {"name": "3ac50c628c3c41ecd0a7feb71d43ec6d", "fusion_lat": 0.0, "type": "electric_scooter", "lat": 38.91416533333334, "is_reserved": 0, "is_disabled": 0, "fusion_lon": 0.0, "bike_id": "3ac50c628c3c41ecd0a7feb71d43ec6d", "lon": -77.0279765, "rental_uris": {"ios": "https://dc.lft.to/lastmile_qr_scan", "android": "https://dc.lft.to/lastmile_qr_scan"}}, {"name": "ad525e44e89bc1637a5fba9b613d9d15", "fusion_lat": 0.0, "type": "electric_scooter", "lat": 38.905312, "is_reserved": 0, "is_disabled": 0, "fusion_lon": 0.0, "bike_id": "ad525e44e89bc1637a5fba9b613d9d15", "lon": -77.04990016666666, "rental_uris": {"ios": "https://dc.lft.to/lastmile_qr_scan", "android": "https://dc.lft.to/lastmile_qr_scan"}}, {"name": "3b5e2ac7726d8db82adeacfef0d4a558", "fusion_lat": 0.0, "type": "electric_scooter", "lat": 38.924663333333335, "is_reserved": 0, "is_disabled": 0, "fusion_lon": 0.0, "bike_id": "3b5e2ac7726d8db82adeacfef0d4a558", "lon": -77.03055716666667, "rental_uris": {"ios": "https://dc.lft.to/lastmile_qr_scan", "android": "https://dc.lft.to/lastmile_qr_scan"}}, {"name": "4ea01e3ce4fcba31d4f89324f963d3e9", "fusion_lat": 0.0, "type": "electric_scooter", "lat": 38.92930066666667, "is_reserved": 0, "is_disabled": 0, "fusion_lon": 0.0, "bike_id": "4ea01e3ce4fcba31d4f89324f963d3e9", "lon": -77.02339933333333, "rental_uris": {"ios": "https://dc.lft.to/lastmile_qr_scan", "android": "https://dc.lft.to/lastmile_qr_scan"}}, {"name": "a52b610557367af2ee9f0dea59008ac8", "fusion_lat": 0.0, "type": "electric_scooter", "lat": 38.94742216666667, "is_reserved": 0, "is_disabled": 0, "fusion_lon": 0.0, "bike_id": "a52b610557367af2ee9f0dea59008ac8", "lon": -77.0002505, "rental_uris": {"ios": "https://dc.lft.to/lastmile_qr_scan", "android": "https://dc.lft.to/lastmile_qr_scan"}}, {"name": "c4ce7e1c910dc7e33cb8f282df0989c0", "fusion_lat": 0.0, "type": "electric_scooter", "lat": 38.902354, "is_reserved": 0, "is_disabled": 0, "fusion_lon": 0.0, "bike_id": "c4ce7e1c910dc7e33cb8f282df0989c0", "lon": -77.001987, "rental_uris": {"ios": "https://dc.lft.to/lastmile_qr_scan", "android": "https://dc.lft.to/lastmile_qr_scan"}}, {"name": "a966fd909f4a09178d25ddd371b8e239", "fusion_lat": 0.0, "type": "electric_scooter", "lat": 38.90510666666667, "is_reserved": 0, "is_disabled": 0, "fusion_lon": 0.0, "bike_id": "a966fd909f4a09178d25ddd371b8e239", "lon": -77.05130666666666, "rental_uris": {"ios": "https://dc.lft.to/lastmile_qr_scan", "android": "https://dc.lft.to/lastmile_qr_scan"}}, {"name": "c1f5192e7d88b22e90e0637b8a6e8af5", "fusion_lat": 0.0, "type": "electric_scooter", "lat": 38.89562333333333, "is_reserved": 0, "is_disabled": 0, "fusion_lon": 0.0, "bike_id": "c1f5192e7d88b22e90e0637b8a6e8af5", "lon": -77.02174183333334, "rental_uris": {"ios": "https://dc.lft.to/lastmile_qr_scan", "android": "https://dc.lft.to/lastmile_qr_scan"}}, {"name": "f91ed5228ea67956d0dd6ddf2a376076", "fusion_lat": 0.0, "type": "electric_scooter", "lat": 38.89890666666667, "is_reserved": 0, "is_disabled": 0, "fusion_lon": 0.0, "bike_id": "f91ed5228ea67956d0dd6ddf2a376076", "lon": -77.00917483333333, "rental_uris": {"ios": "https://dc.lft.to/lastmile_qr_scan", "android": "https://dc.lft.to/lastmile_qr_scan"}}, {"name": "8893313f5acdd8e69cb057f9cc87b5c5", "fusion_lat": 0.0, "type": "electric_scooter", "lat": 38.8821735, "is_reserved": 0, "is_disabled": 0, "fusion_lon": 0.0, "bike_id": "8893313f5acdd8e69cb057f9cc87b5c5", "lon": -76.9418085, "rental_uris": {"ios": "https://dc.lft.to/lastmile_qr_scan", "android": "https://dc.lft.to/lastmile_qr_scan"}}, {"name": "0eeef8590b8cb410c2ed6e8044645388", "fusion_lat": 0.0, "type": "electric_scooter", "lat": 38.916776666666664, "is_reserved": 0, "is_disabled": 0, "fusion_lon": 0.0, "bike_id": "0eeef8590b8cb410c2ed6e8044645388", "lon": -77.0320275, "rental_uris": {"ios": "https://dc.lft.to/lastmile_qr_scan", "android": "https://dc.lft.to/lastmile_qr_scan"}}, {"name": "658c5f98eaee3a386894110aa96c7dee", "fusion_lat": 0.0, "type": "electric_scooter", "lat": 38.9066165, "is_reserved": 0, "is_disabled": 0, "fusion_lon": 0.0, "bike_id": "658c5f98eaee3a386894110aa96c7dee", "lon": -77.051298, "rental_uris": {"ios": "https://dc.lft.to/lastmile_qr_scan", "android": "https://dc.lft.to/lastmile_qr_scan"}}, {"name": "4629c62d10ce8d91fe1bd6f6d36a0de2", "fusion_lat": 0.0, "type": "electric_scooter", "lat": 38.9248075, "is_reserved": 0, "is_disabled": 0, "fusion_lon": 0.0, "bike_id": "4629c62d10ce8d91fe1bd6f6d36a0de2", "lon": -77.02715883333333, "rental_uris": {"ios": "https://dc.lft.to/lastmile_qr_scan", "android": "https://dc.lft.to/lastmile_qr_scan"}}, {"name": "147389d54c17463b0e4ed7e201208c73", "fusion_lat": 0.0, "type": "electric_scooter", "lat": 38.892414, "is_reserved": 0, "is_disabled": 0, "fusion_lon": 0.0, "bike_id": "147389d54c17463b0e4ed7e201208c73", "lon": -77.03184483333334, "rental_uris": {"ios": "https://dc.lft.to/lastmile_qr_scan", "android": "https://dc.lft.to/lastmile_qr_scan"}}, {"name": "438d872355c1f320be4b3f25223c8a22", "fusion_lat": 0.0, "type": "electric_scooter", "lat": 38.897256666666664, "is_reserved": 0, "is_disabled": 0, "fusion_lon": 0.0, "bike_id": "438d872355c1f320be4b3f25223c8a22", "lon": -77.04337183333334, "rental_uris": {"ios": "https://dc.lft.to/lastmile_qr_scan", "android": "https://dc.lft.to/lastmile_qr_scan"}}, {"name": "5bd80a9065ef7dd7b654c8e7ebc6ef05", "fusion_lat": 0.0, "type": "electric_scooter", "lat": 38.907157833333336, "is_reserved": 0, "is_disabled": 0, "fusion_lon": 0.0, "bike_id": "5bd80a9065ef7dd7b654c8e7ebc6ef05", "lon": -77.033524, "rental_uris": {"ios": "https://dc.lft.to/lastmile_qr_scan", "android": "https://dc.lft.to/lastmile_qr_scan"}}, {"name": "9406f47c6eca22cf3226bfae1cd50f53", "fusion_lat": 0.0, "type": "electric_scooter", "lat": 38.930171, "is_reserved": 0, "is_disabled": 0, "fusion_lon": 0.0, "bike_id": "9406f47c6eca22cf3226bfae1cd50f53", "lon": -77.02318683333333, "rental_uris": {"ios": "https://dc.lft.to/lastmile_qr_scan", "android": "https://dc.lft.to/lastmile_qr_scan"}}, {"name": "d76c5391d06bda57656d2e1115f2387c", "fusion_lat": 0.0, "type": "electric_scooter", "lat": 38.922082833333334, "is_reserved": 0, "is_disabled": 0, "fusion_lon": 0.0, "bike_id": "d76c5391d06bda57656d2e1115f2387c", "lon": -77.02419666666667, "rental_uris": {"ios": "https://dc.lft.to/lastmile_qr_scan", "android": "https://dc.lft.to/lastmile_qr_scan"}}, {"name": "5cbfe5743bcb4b9a890035c6a0e7ddee", "fusion_lat": 0.0, "type": "electric_scooter", "lat": 38.928938, "is_reserved": 0, "is_disabled": 0, "fusion_lon": 0.0, "bike_id": "5cbfe5743bcb4b9a890035c6a0e7ddee", "lon": -77.0545805, "rental_uris": {"ios": "https://dc.lft.to/lastmile_qr_scan", "android": "https://dc.lft.to/lastmile_qr_scan"}}, {"name": "8b826254f7bebd5e93b50029117d5301", "fusion_lat": 0.0, "type": "electric_scooter", "lat": 38.8787385, "is_reserved": 0, "is_disabled": 0, "fusion_lon": 0.0, "bike_id": "8b826254f7bebd5e93b50029117d5301", "lon": -77.01765766666666, "rental_uris": {"ios": "https://dc.lft.to/lastmile_qr_scan", "android": "https://dc.lft.to/lastmile_qr_scan"}}, {"name": "0944e4956d23aea43f14228f87d66a1a", "fusion_lat": 0.0, "type": "electric_scooter", "lat": 38.906671333333335, "is_reserved": 0, "is_disabled": 0, "fusion_lon": 0.0, "bike_id": "0944e4956d23aea43f14228f87d66a1a", "lon": -77.07042766666666, "rental_uris": {"ios": "https://dc.lft.to/lastmile_qr_scan", "android": "https://dc.lft.to/lastmile_qr_scan"}}, {"name": "559b28389600b5f59b9c4e00ea3908fe", "fusion_lat": 0.0, "type": "electric_scooter", "lat": 38.936830666666665, "is_reserved": 0, "is_disabled": 0, "fusion_lon": 0.0, "bike_id": "559b28389600b5f59b9c4e00ea3908fe", "lon": -77.0316655, "rental_uris": {"ios": "https://dc.lft.to/lastmile_qr_scan", "android": "https://dc.lft.to/lastmile_qr_scan"}}, {"name": "6f11ea00dc00f13c48caac034550f0eb", "fusion_lat": 0.0, "type": "electric_scooter", "lat": 38.91253733333333, "is_reserved": 0, "is_disabled": 0, "fusion_lon": 0.0, "bike_id": "6f11ea00dc00f13c48caac034550f0eb", "lon": -77.00956166666667, "rental_uris": {"ios": "https://dc.lft.to/lastmile_qr_scan", "android": "https://dc.lft.to/lastmile_qr_scan"}}, {"name": "049f3292a78172e42397f717ca84513f", "fusion_lat": 0.0, "type": "electric_bike", "lat": 38.966194333333334, "is_reserved": 0, "is_disabled": 0, "fusion_lon": 0.0, "bike_id": "049f3292a78172e42397f717ca84513f", "lon": -76.976681, "rental_uris": {"ios": "https://dc.lft.to/lastmile_qr_scan", "android": "https://dc.lft.to/lastmile_qr_scan"}}, {"name": "83eb01490b2e2d1a55740a8cd97eadac", "fusion_lat": 0.0, "type": "electric_scooter", "lat": 38.93523533333333, "is_reserved": 0, "is_disabled": 0, "fusion_lon": 0.0, "bike_id": "83eb01490b2e2d1a55740a8cd97eadac", "lon": -77.02857766666666, "rental_uris": {"ios": "https://dc.lft.to/lastmile_qr_scan", "android": "https://dc.lft.to/lastmile_qr_scan"}}, {"name": "508974cd8df1d98e9a7fceef5f34c50e", "fusion_lat": 0.0, "type": "electric_scooter", "lat": 38.89224733333333, "is_reserved": 0, "is_disabled": 0, "fusion_lon": 0.0, "bike_id": "508974cd8df1d98e9a7fceef5f34c50e", "lon": -77.050028, "rental_uris": {"ios": "https://dc.lft.to/lastmile_qr_scan", "android": "https://dc.lft.to/lastmile_qr_scan"}}, {"name": "524b3d72ceaa0a5b9c9a701da659acbd", "fusion_lat": 0.0, "type": "electric_bike", "lat": 38.894330833333335, "is_reserved": 0, "is_disabled": 0, "fusion_lon": 0.0, "bike_id": "524b3d72ceaa0a5b9c9a701da659acbd", "lon": -76.98360566666666, "rental_uris": {"ios": "https://dc.lft.to/lastmile_qr_scan", "android": "https://dc.lft.to/lastmile_qr_scan"}}, {"name": "888c105fc9f90fd7028484a16c1c4f74", "fusion_lat": 0.0, "type": "electric_scooter", "lat": 38.883635166666664, "is_reserved": 0, "is_disabled": 0, "fusion_lon": 0.0, "bike_id": "888c105fc9f90fd7028484a16c1c4f74", "lon": -77.03174866666667, "rental_uris": {"ios": "https://dc.lft.to/lastmile_qr_scan", "android": "https://dc.lft.to/lastmile_qr_scan"}}, {"name": "ce4bb51ae2ebbdde86d370311f711ad4", "fusion_lat": 0.0, "type": "electric_scooter", "lat": 38.9329165, "is_reserved": 0, "is_disabled": 0, "fusion_lon": 0.0, "bike_id": "ce4bb51ae2ebbdde86d370311f711ad4", "lon": -77.02807116666666, "rental_uris": {"ios": "https://dc.lft.to/lastmile_qr_scan", "android": "https://dc.lft.to/lastmile_qr_scan"}}, {"name": "e0349064551a9856b1dd14c752f9f855", "fusion_lat": 0.0, "type": "electric_scooter", "lat": 38.89981266666667, "is_reserved": 0, "is_disabled": 0, "fusion_lon": 0.0, "bike_id": "e0349064551a9856b1dd14c752f9f855", "lon": -77.0092645, "rental_uris": {"ios": "https://dc.lft.to/lastmile_qr_scan", "android": "https://dc.lft.to/lastmile_qr_scan"}}, {"name": "8ffbfa2598fcfa172da1b5b83b9d2055", "fusion_lat": 0.0, "type": "electric_scooter", "lat": 38.932970166666664, "is_reserved": 0, "is_disabled": 0, "fusion_lon": 0.0, "bike_id": "8ffbfa2598fcfa172da1b5b83b9d2055", "lon": -77.02465483333333, "rental_uris": {"ios": "https://dc.lft.to/lastmile_qr_scan", "android": "https://dc.lft.to/lastmile_qr_scan"}}, {"name": "029f203f8391db366d3a47a2e574c2be", "fusion_lat": 0.0, "type": "electric_bike", "lat": 38.899550166666664, "is_reserved": 0, "is_disabled": 0, "fusion_lon": 0.0, "bike_id": "029f203f8391db366d3a47a2e574c2be", "lon": -77.03917983333334, "rental_uris": {"ios": "https://dc.lft.to/lastmile_qr_scan", "android": "https://dc.lft.to/lastmile_qr_scan"}}, {"name": "28fdf3bf8db46a3ccf7a4ad8ffd9c90e", "fusion_lat": 0.0, "type": "electric_scooter", "lat": 38.924138, "is_reserved": 0, "is_disabled": 0, "fusion_lon": 0.0, "bike_id": "28fdf3bf8db46a3ccf7a4ad8ffd9c90e", "lon": -77.01949366666666, "rental_uris": {"ios": "https://dc.lft.to/lastmile_qr_scan", "android": "https://dc.lft.to/lastmile_qr_scan"}}, {"name": "ab03d9a444007f89133061bb9bde7677", "fusion_lat": 0.0, "type": "electric_scooter", "lat": 38.896443833333336, "is_reserved": 0, "is_disabled": 0, "fusion_lon": 0.0, "bike_id": "ab03d9a444007f89133061bb9bde7677", "lon": -77.04895616666667, "rental_uris": {"ios": "https://dc.lft.to/lastmile_qr_scan", "android": "https://dc.lft.to/lastmile_qr_scan"}}, {"name": "cd42c2ffa6868c16f6ea8cad90afabf4", "fusion_lat": 0.0, "type": "electric_scooter", "lat": 38.91103733333333, "is_reserved": 0, "is_disabled": 0, "fusion_lon": 0.0, "bike_id": "cd42c2ffa6868c16f6ea8cad90afabf4", "lon": -77.03475833333333, "rental_uris": {"ios": "https://dc.lft.to/lastmile_qr_scan", "android": "https://dc.lft.to/lastmile_qr_scan"}}, {"name": "114b7fea9a4bf4c770dd9d1c60cac2ff", "fusion_lat": 0.0, "type": "electric_scooter", "lat": 38.9287795, "is_reserved": 0, "is_disabled": 0, "fusion_lon": 0.0, "bike_id": "114b7fea9a4bf4c770dd9d1c60cac2ff", "lon": -77.04123533333333, "rental_uris": {"ios": "https://dc.lft.to/lastmile_qr_scan", "android": "https://dc.lft.to/lastmile_qr_scan"}}, {"name": "cfe50bbcbb921c69a894a98b0479525a", "fusion_lat": 0.0, "type": "electric_scooter", "lat": 38.904841166666664, "is_reserved": 0, "is_disabled": 0, "fusion_lon": 0.0, "bike_id": "cfe50bbcbb921c69a894a98b0479525a", "lon": -77.04161016666667, "rental_uris": {"ios": "https://dc.lft.to/lastmile_qr_scan", "android": "https://dc.lft.to/lastmile_qr_scan"}}, {"name": "2c87f813f91ea0eb107702a2fb727e93", "fusion_lat": 0.0, "type": "electric_scooter", "lat": 38.92056483333333, "is_reserved": 0, "is_disabled": 0, "fusion_lon": 0.0, "bike_id": "2c87f813f91ea0eb107702a2fb727e93", "lon": -77.0454785, "rental_uris": {"ios": "https://dc.lft.to/lastmile_qr_scan", "android": "https://dc.lft.to/lastmile_qr_scan"}}, {"name": "461b12b5a0ec6bb4b4ed128191582403", "fusion_lat": 0.0, "type": "electric_bike", "lat": 38.95473616666666, "is_reserved": 0, "is_disabled": 0, "fusion_lon": 0.0, "bike_id": "461b12b5a0ec6bb4b4ed128191582403", "lon": -77.08240683333334, "rental_uris": {"ios": "https://dc.lft.to/lastmile_qr_scan", "android": "https://dc.lft.to/lastmile_qr_scan"}}, {"name": "bc885753742e9ba5cd06bc6b09912562", "fusion_lat": 0.0, "type": "electric_scooter", "lat": 38.933610333333334, "is_reserved": 0, "is_disabled": 0, "fusion_lon": 0.0, "bike_id": "bc885753742e9ba5cd06bc6b09912562", "lon": -77.05728683333334, "rental_uris": {"ios": "https://dc.lft.to/lastmile_qr_scan", "android": "https://dc.lft.to/lastmile_qr_scan"}}, {"name": "fb622f7ce11fc0a89a4bb608e68589b1", "fusion_lat": 0.0, "type": "electric_scooter", "lat": 38.8955385, "is_reserved": 0, "is_disabled": 0, "fusion_lon": 0.0, "bike_id": "fb622f7ce11fc0a89a4bb608e68589b1", "lon": -77.0468385, "rental_uris": {"ios": "https://dc.lft.to/lastmile_qr_scan", "android": "https://dc.lft.to/lastmile_qr_scan"}}, {"name": "7de230fca519f98e2d3f3c352e8fdfbf", "fusion_lat": 0.0, "type": "electric_scooter", "lat": 38.9072075, "is_reserved": 0, "is_disabled": 0, "fusion_lon": 0.0, "bike_id": "7de230fca519f98e2d3f3c352e8fdfbf", "lon": -77.03190116666667, "rental_uris": {"ios": "https://dc.lft.to/lastmile_qr_scan", "android": "https://dc.lft.to/lastmile_qr_scan"}}, {"name": "6779a720fda04c5c09ac23b627231dc2", "fusion_lat": 0.0, "type": "electric_scooter", "lat": 38.899086, "is_reserved": 0, "is_disabled": 0, "fusion_lon": 0.0, "bike_id": "6779a720fda04c5c09ac23b627231dc2", "lon": -77.01510466666667, "rental_uris": {"ios": "https://dc.lft.to/lastmile_qr_scan", "android": "https://dc.lft.to/lastmile_qr_scan"}}, {"name": "27b9172ccf01cf5de3cadbe66d605d01", "fusion_lat": 0.0, "type": "electric_scooter", "lat": 38.86204, "is_reserved": 0, "is_disabled": 0, "fusion_lon": 0.0, "bike_id": "27b9172ccf01cf5de3cadbe66d605d01", "lon": -76.99471483333333, "rental_uris": {"ios": "https://dc.lft.to/lastmile_qr_scan", "android": "https://dc.lft.to/lastmile_qr_scan"}}, {"name": "5234a80307b8ae9e7a7653c8bdd21d8a", "fusion_lat": 0.0, "type": "electric_scooter", "lat": 38.901259333333336, "is_reserved": 0, "is_disabled": 0, "fusion_lon": 0.0, "bike_id": "5234a80307b8ae9e7a7653c8bdd21d8a", "lon": -77.03194183333333, "rental_uris": {"ios": "https://dc.lft.to/lastmile_qr_scan", "android": "https://dc.lft.to/lastmile_qr_scan"}}, {"name": "d1da6da306552cce7328728122cd0b82", "fusion_lat": 0.0, "type": "electric_bike", "lat": 38.815098166666665, "is_reserved": 0, "is_disabled": 0, "fusion_lon": 0.0, "bike_id": "d1da6da306552cce7328728122cd0b82", "lon": -77.1265165, "rental_uris": {"ios": "https://dc.lft.to/lastmile_qr_scan", "android": "https://dc.lft.to/lastmile_qr_scan"}}, {"name": "47359662f59d0ebbb75b441e8b6be2be", "fusion_lat": 0.0, "type": "electric_scooter", "lat": 38.91191366666666, "is_reserved": 0, "is_disabled": 0, "fusion_lon": 0.0, "bike_id": "47359662f59d0ebbb75b441e8b6be2be", "lon": -77.0325665, "rental_uris": {"ios": "https://dc.lft.to/lastmile_qr_scan", "android": "https://dc.lft.to/lastmile_qr_scan"}}, {"name": "6dc20710f39dc1e89279caa204f463fe", "fusion_lat": 0.0, "type": "electric_scooter", "lat": 38.92870466666667, "is_reserved": 0, "is_disabled": 0, "fusion_lon": 0.0, "bike_id": "6dc20710f39dc1e89279caa204f463fe", "lon": -77.033239, "rental_uris": {"ios": "https://dc.lft.to/lastmile_qr_scan", "android": "https://dc.lft.to/lastmile_qr_scan"}}, {"name": "1f3c67a792d3919f4bb7b4dd0acbf5ac", "fusion_lat": 0.0, "type": "electric_scooter", "lat": 38.8954505, "is_reserved": 0, "is_disabled": 0, "fusion_lon": 0.0, "bike_id": "1f3c67a792d3919f4bb7b4dd0acbf5ac", "lon": -76.94883133333333, "rental_uris": {"ios": "https://dc.lft.to/lastmile_qr_scan", "android": "https://dc.lft.to/lastmile_qr_scan"}}, {"name": "e750e702f3e6f8f6ef0b40f5aaa35cc1", "fusion_lat": 0.0, "type": "electric_scooter", "lat": 38.92325816666666, "is_reserved": 0, "is_disabled": 0, "fusion_lon": 0.0, "bike_id": "e750e702f3e6f8f6ef0b40f5aaa35cc1", "lon": -77.04305133333334, "rental_uris": {"ios": "https://dc.lft.to/lastmile_qr_scan", "android": "https://dc.lft.to/lastmile_qr_scan"}}, {"name": "adc3c81337851294e8ff05a0967bb7d4", "fusion_lat": 0.0, "type": "electric_scooter", "lat": 38.91036483333333, "is_reserved": 0, "is_disabled": 0, "fusion_lon": 0.0, "bike_id": "adc3c81337851294e8ff05a0967bb7d4", "lon": -77.04865283333334, "rental_uris": {"ios": "https://dc.lft.to/lastmile_qr_scan", "android": "https://dc.lft.to/lastmile_qr_scan"}}, {"name": "7da9e24161e29b9f3ed7ce4adb9216df", "fusion_lat": 0.0, "type": "electric_scooter", "lat": 38.86572666666667, "is_reserved": 0, "is_disabled": 0, "fusion_lon": 0.0, "bike_id": "7da9e24161e29b9f3ed7ce4adb9216df", "lon": -76.9895165, "rental_uris": {"ios": "https://dc.lft.to/lastmile_qr_scan", "android": "https://dc.lft.to/lastmile_qr_scan"}}, {"name": "8dbfb3d9002f9949f7234c8019f9120a", "fusion_lat": 0.0, "type": "electric_scooter", "lat": 38.90144516666667, "is_reserved": 0, "is_disabled": 0, "fusion_lon": 0.0, "bike_id": "8dbfb3d9002f9949f7234c8019f9120a", "lon": -77.04503483333333, "rental_uris": {"ios": "https://dc.lft.to/lastmile_qr_scan", "android": "https://dc.lft.to/lastmile_qr_scan"}}, {"name": "cbe32e94133cc7992d13f27d342e26ef", "fusion_lat": 0.0, "type": "electric_scooter", "lat": 38.8946955, "is_reserved": 0, "is_disabled": 0, "fusion_lon": 0.0, "bike_id": "cbe32e94133cc7992d13f27d342e26ef", "lon": -76.98402866666666, "rental_uris": {"ios": "https://dc.lft.to/lastmile_qr_scan", "android": "https://dc.lft.to/lastmile_qr_scan"}}, {"name": "1d90086787c4688979f22c70141154a9", "fusion_lat": 0.0, "type": "electric_scooter", "lat": 38.9430835, "is_reserved": 0, "is_disabled": 0, "fusion_lon": 0.0, "bike_id": "1d90086787c4688979f22c70141154a9", "lon": -77.05915566666667, "rental_uris": {"ios": "https://dc.lft.to/lastmile_qr_scan", "android": "https://dc.lft.to/lastmile_qr_scan"}}, {"name": "f1a557aae8d2f0d597d50bedd33b4a5f", "fusion_lat": 0.0, "type": "electric_scooter", "lat": 38.90199416666667, "is_reserved": 0, "is_disabled": 0, "fusion_lon": 0.0, "bike_id": "f1a557aae8d2f0d597d50bedd33b4a5f", "lon": -76.9819645, "rental_uris": {"ios": "https://dc.lft.to/lastmile_qr_scan", "android": "https://dc.lft.to/lastmile_qr_scan"}}, {"name": "b3b2ebcf518249fee15b85c24a8c6633", "fusion_lat": 0.0, "type": "electric_scooter", "lat": 38.9610655, "is_reserved": 0, "is_disabled": 0, "fusion_lon": 0.0, "bike_id": "b3b2ebcf518249fee15b85c24a8c6633", "lon": -77.02814, "rental_uris": {"ios": "https://dc.lft.to/lastmile_qr_scan", "android": "https://dc.lft.to/lastmile_qr_scan"}}, {"name": "46a01db444a018e86255d990fa9d6218", "fusion_lat": 0.0, "type": "electric_scooter", "lat": 38.89912116666667, "is_reserved": 0, "is_disabled": 0, "fusion_lon": 0.0, "bike_id": "46a01db444a018e86255d990fa9d6218", "lon": -76.9338385, "rental_uris": {"ios": "https://dc.lft.to/lastmile_qr_scan", "android": "https://dc.lft.to/lastmile_qr_scan"}}, {"name": "9a4feecd31a5f2ee43ec2bcad2d1e2b2", "fusion_lat": 0.0, "type": "electric_scooter", "lat": 38.925768166666664, "is_reserved": 0, "is_disabled": 0, "fusion_lon": 0.0, "bike_id": "9a4feecd31a5f2ee43ec2bcad2d1e2b2", "lon": -77.028361, "rental_uris": {"ios": "https://dc.lft.to/lastmile_qr_scan", "android": "https://dc.lft.to/lastmile_qr_scan"}}, {"name": "ca4f4dd1cca86003f25c5636d83c77b9", "fusion_lat": 0.0, "type": "electric_scooter", "lat": 38.930636666666665, "is_reserved": 0, "is_disabled": 0, "fusion_lon": 0.0, "bike_id": "ca4f4dd1cca86003f25c5636d83c77b9", "lon": -77.03400816666667, "rental_uris": {"ios": "https://dc.lft.to/lastmile_qr_scan", "android": "https://dc.lft.to/lastmile_qr_scan"}}, {"name": "552118fb18be6213b613150dba955cf5", "fusion_lat": 0.0, "type": "electric_bike", "lat": 38.85154033333333, "is_reserved": 0, "is_disabled": 0, "fusion_lon": 0.0, "bike_id": "552118fb18be6213b613150dba955cf5", "lon": -77.1287555, "rental_uris": {"ios": "https://dc.lft.to/lastmile_qr_scan", "android": "https://dc.lft.to/lastmile_qr_scan"}}, {"name": "156d846f2ee2d5e22d8aa74e73cb2a55", "fusion_lat": 0.0, "type": "electric_scooter", "lat": 38.886052, "is_reserved": 0, "is_disabled": 0, "fusion_lon": 0.0, "bike_id": "156d846f2ee2d5e22d8aa74e73cb2a55", "lon": -77.007385, "rental_uris": {"ios": "https://dc.lft.to/lastmile_qr_scan", "android": "https://dc.lft.to/lastmile_qr_scan"}}, {"name": "7dffff0041675d1e613d7842ff1733a1", "fusion_lat": 0.0, "type": "electric_bike", "lat": 38.872194666666665, "is_reserved": 0, "is_disabled": 0, "fusion_lon": 0.0, "bike_id": "7dffff0041675d1e613d7842ff1733a1", "lon": -77.01633916666667, "rental_uris": {"ios": "https://dc.lft.to/lastmile_qr_scan", "android": "https://dc.lft.to/lastmile_qr_scan"}}, {"name": "9b2c82d9f3200fab208cadc2e28e10ba", "fusion_lat": 0.0, "type": "electric_scooter", "lat": 38.883484, "is_reserved": 0, "is_disabled": 0, "fusion_lon": 0.0, "bike_id": "9b2c82d9f3200fab208cadc2e28e10ba", "lon": -77.031747, "rental_uris": {"ios": "https://dc.lft.to/lastmile_qr_scan", "android": "https://dc.lft.to/lastmile_qr_scan"}}, {"name": "2b017defbf133c2b47c54bd0355b3b2b", "fusion_lat": 0.0, "type": "electric_scooter", "lat": 38.86504433333333, "is_reserved": 0, "is_disabled": 0, "fusion_lon": 0.0, "bike_id": "2b017defbf133c2b47c54bd0355b3b2b", "lon": -76.9733715, "rental_uris": {"ios": "https://dc.lft.to/lastmile_qr_scan", "android": "https://dc.lft.to/lastmile_qr_scan"}}, {"name": "dadeea19108aa1f59470fde367d43b0d", "fusion_lat": 0.0, "type": "electric_scooter", "lat": 38.92119783333333, "is_reserved": 0, "is_disabled": 0, "fusion_lon": 0.0, "bike_id": "dadeea19108aa1f59470fde367d43b0d", "lon": -76.99376066666666, "rental_uris": {"ios": "https://dc.lft.to/lastmile_qr_scan", "android": "https://dc.lft.to/lastmile_qr_scan"}}, {"name": "035c38a9859cdd32f798856c1e5a937d", "fusion_lat": 0.0, "type": "electric_scooter", "lat": 38.9291685, "is_reserved": 0, "is_disabled": 0, "fusion_lon": 0.0, "bike_id": "035c38a9859cdd32f798856c1e5a937d", "lon": -77.03745533333333, "rental_uris": {"ios": "https://dc.lft.to/lastmile_qr_scan", "android": "https://dc.lft.to/lastmile_qr_scan"}}, {"name": "a968b06e503aeb16b57d788adae9a0c3", "fusion_lat": 0.0, "type": "electric_bike", "lat": 38.89095916666667, "is_reserved": 0, "is_disabled": 0, "fusion_lon": 0.0, "bike_id": "a968b06e503aeb16b57d788adae9a0c3", "lon": -77.00315583333334, "rental_uris": {"ios": "https://dc.lft.to/lastmile_qr_scan", "android": "https://dc.lft.to/lastmile_qr_scan"}}, {"name": "f552024f21fe0d23dfeafa0b0705e309", "fusion_lat": 0.0, "type": "electric_scooter", "lat": 38.92361316666667, "is_reserved": 0, "is_disabled": 0, "fusion_lon": 0.0, "bike_id": "f552024f21fe0d23dfeafa0b0705e309", "lon": -77.0508215, "rental_uris": {"ios": "https://dc.lft.to/lastmile_qr_scan", "android": "https://dc.lft.to/lastmile_qr_scan"}}, {"name": "cff0f69bcec4cfe49c8969dad84fee3e", "fusion_lat": 0.0, "type": "electric_scooter", "lat": 38.912236666666665, "is_reserved": 0, "is_disabled": 0, "fusion_lon": 0.0, "bike_id": "cff0f69bcec4cfe49c8969dad84fee3e", "lon": -77.03845466666667, "rental_uris": {"ios": "https://dc.lft.to/lastmile_qr_scan", "android": "https://dc.lft.to/lastmile_qr_scan"}}, {"name": "0c75254f6ffa7497103b9e87e0fa90ea", "fusion_lat": 0.0, "type": "electric_scooter", "lat": 38.90669483333333, "is_reserved": 0, "is_disabled": 0, "fusion_lon": 0.0, "bike_id": "0c75254f6ffa7497103b9e87e0fa90ea", "lon": -77.03768266666667, "rental_uris": {"ios": "https://dc.lft.to/lastmile_qr_scan", "android": "https://dc.lft.to/lastmile_qr_scan"}}, {"name": "35cda5129aa5df3c08836598158bb352", "fusion_lat": 0.0, "type": "electric_scooter", "lat": 38.934052333333334, "is_reserved": 0, "is_disabled": 0, "fusion_lon": 0.0, "bike_id": "35cda5129aa5df3c08836598158bb352", "lon": -77.02610733333333, "rental_uris": {"ios": "https://dc.lft.to/lastmile_qr_scan", "android": "https://dc.lft.to/lastmile_qr_scan"}}, {"name": "43fd52a138d6e973a8d067eb8c82706d", "fusion_lat": 0.0, "type": "electric_scooter", "lat": 38.94282583333333, "is_reserved": 0, "is_disabled": 0, "fusion_lon": 0.0, "bike_id": "43fd52a138d6e973a8d067eb8c82706d", "lon": -77.02789883333334, "rental_uris": {"ios": "https://dc.lft.to/lastmile_qr_scan", "android": "https://dc.lft.to/lastmile_qr_scan"}}, {"name": "8112a6e7f9f319e3af76034c4caee623", "fusion_lat": 0.0, "type": "electric_scooter", "lat": 38.9032865, "is_reserved": 0, "is_disabled": 0, "fusion_lon": 0.0, "bike_id": "8112a6e7f9f319e3af76034c4caee623", "lon": -77.038375, "rental_uris": {"ios": "https://dc.lft.to/lastmile_qr_scan", "android": "https://dc.lft.to/lastmile_qr_scan"}}, {"name": "66406a24dea9bbb3189b21eb082374fd", "fusion_lat": 0.0, "type": "electric_scooter", "lat": 38.943029833333334, "is_reserved": 0, "is_disabled": 0, "fusion_lon": 0.0, "bike_id": "66406a24dea9bbb3189b21eb082374fd", "lon": -77.05929683333333, "rental_uris": {"ios": "https://dc.lft.to/lastmile_qr_scan", "android": "https://dc.lft.to/lastmile_qr_scan"}}, {"name": "b6842c0d1ffd2b792d948a048d0a9b2d", "fusion_lat": 0.0, "type": "electric_scooter", "lat": 38.90062183333333, "is_reserved": 0, "is_disabled": 0, "fusion_lon": 0.0, "bike_id": "b6842c0d1ffd2b792d948a048d0a9b2d", "lon": -77.0450785, "rental_uris": {"ios": "https://dc.lft.to/lastmile_qr_scan", "android": "https://dc.lft.to/lastmile_qr_scan"}}, {"name": "bef5ad63d6dc7e5ff2eecf1af5627878", "fusion_lat": 0.0, "type": "electric_scooter", "lat": 38.9044955, "is_reserved": 0, "is_disabled": 0, "fusion_lon": 0.0, "bike_id": "bef5ad63d6dc7e5ff2eecf1af5627878", "lon": -77.04825683333334, "rental_uris": {"ios": "https://dc.lft.to/lastmile_qr_scan", "android": "https://dc.lft.to/lastmile_qr_scan"}}, {"name": "71d9d1de2c2c70f600783165629e85d2", "fusion_lat": 0.0, "type": "electric_scooter", "lat": 38.884890166666665, "is_reserved": 0, "is_disabled": 0, "fusion_lon": 0.0, "bike_id": "71d9d1de2c2c70f600783165629e85d2", "lon": -77.030543, "rental_uris": {"ios": "https://dc.lft.to/lastmile_qr_scan", "android": "https://dc.lft.to/lastmile_qr_scan"}}, {"name": "b399527ec13c6081877cd25a90c40789", "fusion_lat": 0.0, "type": "electric_scooter", "lat": 38.9240725, "is_reserved": 0, "is_disabled": 0, "fusion_lon": 0.0, "bike_id": "b399527ec13c6081877cd25a90c40789", "lon": -77.04027716666667, "rental_uris": {"ios": "https://dc.lft.to/lastmile_qr_scan", "android": "https://dc.lft.to/lastmile_qr_scan"}}, {"name": "e8253c5d0cec06b785f0cb05e281ce3f", "fusion_lat": 0.0, "type": "electric_scooter", "lat": 38.9141305, "is_reserved": 0, "is_disabled": 0, "fusion_lon": 0.0, "bike_id": "e8253c5d0cec06b785f0cb05e281ce3f", "lon": -77.02643483333334, "rental_uris": {"ios": "https://dc.lft.to/lastmile_qr_scan", "android": "https://dc.lft.to/lastmile_qr_scan"}}, {"name": "ff26a75a77a6a730f4e211287b3770e1", "fusion_lat": 0.0, "type": "electric_bike", "lat": 39.03879466666667, "is_reserved": 0, "is_disabled": 0, "fusion_lon": 0.0, "bike_id": "ff26a75a77a6a730f4e211287b3770e1", "lon": -76.99043533333334, "rental_uris": {"ios": "https://dc.lft.to/lastmile_qr_scan", "android": "https://dc.lft.to/lastmile_qr_scan"}}, {"name": "9912b11481ba7121ec080ea2511831dd", "fusion_lat": 0.0, "type": "electric_scooter", "lat": 38.90504116666666, "is_reserved": 0, "is_disabled": 0, "fusion_lon": 0.0, "bike_id": "9912b11481ba7121ec080ea2511831dd", "lon": -77.05221683333333, "rental_uris": {"ios": "https://dc.lft.to/lastmile_qr_scan", "android": "https://dc.lft.to/lastmile_qr_scan"}}, {"name": "d3a04421d90bc98c89bba3cbacdc4682", "fusion_lat": 0.0, "type": "electric_scooter", "lat": 38.9081735, "is_reserved": 0, "is_disabled": 0, "fusion_lon": 0.0, "bike_id": "d3a04421d90bc98c89bba3cbacdc4682", "lon": -77.039507, "rental_uris": {"ios": "https://dc.lft.to/lastmile_qr_scan", "android": "https://dc.lft.to/lastmile_qr_scan"}}, {"name": "e4a33ecb2300408842e671fe13267db1", "fusion_lat": 0.0, "type": "electric_scooter", "lat": 38.903683666666666, "is_reserved": 0, "is_disabled": 0, "fusion_lon": 0.0, "bike_id": "e4a33ecb2300408842e671fe13267db1", "lon": -77.02883783333333, "rental_uris": {"ios": "https://dc.lft.to/lastmile_qr_scan", "android": "https://dc.lft.to/lastmile_qr_scan"}}, {"name": "5c4137478069748ce2cc4f92a11e7955", "fusion_lat": 0.0, "type": "electric_scooter", "lat": 38.914003666666666, "is_reserved": 0, "is_disabled": 0, "fusion_lon": 0.0, "bike_id": "5c4137478069748ce2cc4f92a11e7955", "lon": -77.02227533333334, "rental_uris": {"ios": "https://dc.lft.to/lastmile_qr_scan", "android": "https://dc.lft.to/lastmile_qr_scan"}}, {"name": "940ae41e49b83b05bca61200a91a9baa", "fusion_lat": 0.0, "type": "electric_scooter", "lat": 38.9002275, "is_reserved": 0, "is_disabled": 0, "fusion_lon": 0.0, "bike_id": "940ae41e49b83b05bca61200a91a9baa", "lon": -77.01183116666667, "rental_uris": {"ios": "https://dc.lft.to/lastmile_qr_scan", "android": "https://dc.lft.to/lastmile_qr_scan"}}, {"name": "00d38802347d7bf63cb0a1c37347a2f9", "fusion_lat": 0.0, "type": "electric_scooter", "lat": 38.94951016666667, "is_reserved": 0, "is_disabled": 0, "fusion_lon": 0.0, "bike_id": "00d38802347d7bf63cb0a1c37347a2f9", "lon": -77.02723233333333, "rental_uris": {"ios": "https://dc.lft.to/lastmile_qr_scan", "android": "https://dc.lft.to/lastmile_qr_scan"}}, {"name": "6468b8bda721f5fd4317fbdb679f7467", "fusion_lat": 0.0, "type": "electric_scooter", "lat": 38.922855, "is_reserved": 0, "is_disabled": 0, "fusion_lon": 0.0, "bike_id": "6468b8bda721f5fd4317fbdb679f7467", "lon": -77.029692, "rental_uris": {"ios": "https://dc.lft.to/lastmile_qr_scan", "android": "https://dc.lft.to/lastmile_qr_scan"}}, {"name": "7612554fb28a4586e98e0435352402b3", "fusion_lat": 0.0, "type": "electric_scooter", "lat": 38.87494783333333, "is_reserved": 0, "is_disabled": 0, "fusion_lon": 0.0, "bike_id": "7612554fb28a4586e98e0435352402b3", "lon": -76.99796166666667, "rental_uris": {"ios": "https://dc.lft.to/lastmile_qr_scan", "android": "https://dc.lft.to/lastmile_qr_scan"}}, {"name": "538437b382df7779e61361cb6acd6719", "fusion_lat": 0.0, "type": "electric_scooter", "lat": 38.90018766666667, "is_reserved": 0, "is_disabled": 0, "fusion_lon": 0.0, "bike_id": "538437b382df7779e61361cb6acd6719", "lon": -77.00102283333334, "rental_uris": {"ios": "https://dc.lft.to/lastmile_qr_scan", "android": "https://dc.lft.to/lastmile_qr_scan"}}, {"name": "ac14c129ada8b4f5b3c2c6b5191c1da9", "fusion_lat": 0.0, "type": "electric_scooter", "lat": 38.87659766666667, "is_reserved": 0, "is_disabled": 0, "fusion_lon": 0.0, "bike_id": "ac14c129ada8b4f5b3c2c6b5191c1da9", "lon": -77.004554, "rental_uris": {"ios": "https://dc.lft.to/lastmile_qr_scan", "android": "https://dc.lft.to/lastmile_qr_scan"}}, {"name": "d519c876c184396aa383f2e2b5da76be", "fusion_lat": 0.0, "type": "electric_scooter", "lat": 38.92370533333333, "is_reserved": 0, "is_disabled": 0, "fusion_lon": 0.0, "bike_id": "d519c876c184396aa383f2e2b5da76be", "lon": -77.01958916666666, "rental_uris": {"ios": "https://dc.lft.to/lastmile_qr_scan", "android": "https://dc.lft.to/lastmile_qr_scan"}}, {"name": "aa62b2382d2a7900d0a881ebb99de364", "fusion_lat": 0.0, "type": "electric_scooter", "lat": 38.9183155, "is_reserved": 0, "is_disabled": 0, "fusion_lon": 0.0, "bike_id": "aa62b2382d2a7900d0a881ebb99de364", "lon": -77.02302816666666, "rental_uris": {"ios": "https://dc.lft.to/lastmile_qr_scan", "android": "https://dc.lft.to/lastmile_qr_scan"}}, {"name": "a330600265d31fea1514b864540f01ab", "fusion_lat": 0.0, "type": "electric_scooter", "lat": 38.89666116666667, "is_reserved": 0, "is_disabled": 0, "fusion_lon": 0.0, "bike_id": "a330600265d31fea1514b864540f01ab", "lon": -76.94849816666667, "rental_uris": {"ios": "https://dc.lft.to/lastmile_qr_scan", "android": "https://dc.lft.to/lastmile_qr_scan"}}, {"name": "2a6c701d810b96a3d47905b69f127e32", "fusion_lat": 0.0, "type": "electric_scooter", "lat": 38.91858516666667, "is_reserved": 0, "is_disabled": 0, "fusion_lon": 0.0, "bike_id": "2a6c701d810b96a3d47905b69f127e32", "lon": -77.023084, "rental_uris": {"ios": "https://dc.lft.to/lastmile_qr_scan", "android": "https://dc.lft.to/lastmile_qr_scan"}}, {"name": "6fa66cfa9639d780faa967ba7d2e2d9d", "fusion_lat": 0.0, "type": "electric_scooter", "lat": 38.94288183333333, "is_reserved": 0, "is_disabled": 0, "fusion_lon": 0.0, "bike_id": "6fa66cfa9639d780faa967ba7d2e2d9d", "lon": -77.0217385, "rental_uris": {"ios": "https://dc.lft.to/lastmile_qr_scan", "android": "https://dc.lft.to/lastmile_qr_scan"}}, {"name": "da4e255343dcf7166efc238ea28c5959", "fusion_lat": 0.0, "type": "electric_scooter", "lat": 38.874168166666664, "is_reserved": 0, "is_disabled": 0, "fusion_lon": 0.0, "bike_id": "da4e255343dcf7166efc238ea28c5959", "lon": -76.96090883333333, "rental_uris": {"ios": "https://dc.lft.to/lastmile_qr_scan", "android": "https://dc.lft.to/lastmile_qr_scan"}}, {"name": "6882b3b9590b4352336779c76cfbe850", "fusion_lat": 0.0, "type": "electric_scooter", "lat": 38.90379866666667, "is_reserved": 0, "is_disabled": 0, "fusion_lon": 0.0, "bike_id": "6882b3b9590b4352336779c76cfbe850", "lon": -77.03190883333333, "rental_uris": {"ios": "https://dc.lft.to/lastmile_qr_scan", "android": "https://dc.lft.to/lastmile_qr_scan"}}, {"name": "09e0560fff64ef68503f12d935d6ce0f", "fusion_lat": 0.0, "type": "electric_scooter", "lat": 38.88894833333333, "is_reserved": 0, "is_disabled": 0, "fusion_lon": 0.0, "bike_id": "09e0560fff64ef68503f12d935d6ce0f", "lon": -77.03284466666666, "rental_uris": {"ios": "https://dc.lft.to/lastmile_qr_scan", "android": "https://dc.lft.to/lastmile_qr_scan"}}, {"name": "877093cdea2c900c8f92c2c068478b75", "fusion_lat": 0.0, "type": "electric_scooter", "lat": 38.90974816666667, "is_reserved": 0, "is_disabled": 0, "fusion_lon": 0.0, "bike_id": "877093cdea2c900c8f92c2c068478b75", "lon": -77.06709666666667, "rental_uris": {"ios": "https://dc.lft.to/lastmile_qr_scan", "android": "https://dc.lft.to/lastmile_qr_scan"}}, {"name": "a92ae569862e6253aed832ffefdf7f5c", "fusion_lat": 0.0, "type": "electric_scooter", "lat": 38.90822683333333, "is_reserved": 0, "is_disabled": 0, "fusion_lon": 0.0, "bike_id": "a92ae569862e6253aed832ffefdf7f5c", "lon": -77.00039166666667, "rental_uris": {"ios": "https://dc.lft.to/lastmile_qr_scan", "android": "https://dc.lft.to/lastmile_qr_scan"}},