{"data": {"bikes": [{"rental_uris": {"ios": "https://dc.lft.to/lastmile_qr_scan", "android": "https://dc.lft.to/lastmile_qr_scan"}, "type": "electric_scooter", "name": "e4f4bee45f0f5b0b73370a1566867ac5", "is_reserved": 0, "lon": -77.00337666666667, "is_disabled": 0, "fusion_lat": 0.0, "lat": 38.8961075, "bike_id": "e4f4bee45f0f5b0b73370a1566867ac5", "fusion_lon": 0.0}, {"rental_uris": {"ios": "https://dc.lft.to/lastmile_qr_scan", "android": "https://dc.lft.to/lastmile_qr_scan"}, "type": "electric_scooter", "name": "ec5ebdebce78935fdc95b27c6637664c", "is_reserved": 0, "lon": -77.03323183333333, "is_disabled": 0, "fusion_lat": 0.0, "lat": 38.88771066666666, "bike_id": "ec5ebdebce78935fdc95b27c6637664c", "fusion_lon": 0.0}, {"rental_uris": {"ios": "https://dc.lft.to/lastmile_qr_scan", "android": "https://dc.lft.to/lastmile_qr_scan"}, "type": "electric_scooter", "name": "62ea9d952bb2e172e4d2f12c02b698ed", "is_reserved": 0, "lon": -77.024114, "is_disabled": 0, "fusion_lat": 0.0, "lat": 38.90556216666667, "bike_id": "62ea9d952bb2e172e4d2f12c02b698ed", "fusion_lon": 0.0}, {"rental_uris": {"ios": "https://dc.lft.to/lastmile_qr_scan", "android": "https://dc.lft.to/lastmile_qr_scan"}, "type": "electric_scooter", "name": "34f97a4b75842862729b11de291ed865", "is_reserved": 0, "lon": -77.02643283333333, "is_disabled": 0, "fusion_lat": 0.0, "lat": 38.90709483333333, "bike_id": "34f97a4b75842862729b11de291ed865", "fusion_lon": 0.0}, {"rental_uris": {"ios": "https://dc.lft.to/lastmile_qr_scan", "android": "https://dc.lft.to/lastmile_qr_scan"}, "type": "electric_scooter", "name": "3597303150c925e676312be522bed534", "is_reserved": 0, "lon": -77.02636783333334, "is_disabled": 0, "fusion_lat": 0.0, "lat": 38.904271666666666, "bike_id": "3597303150c925e676312be522bed534", "fusion_lon": 0.0}, {"rental_uris": {"ios": "https://dc.lft.to/lastmile_qr_scan", "android": "https://dc.lft.to/lastmile_qr_scan"}, "type": "electric_scooter", "name": "833a9133560b375744f66b96ea56d2d5", "is_reserved": 0, "lon": -77.0242105, "is_disabled": 0, "fusion_lat": 0.0, "lat": 38.892296, "bike_id": "833a9133560b375744f66b96ea56d2d5", "fusion_lon": 0.0}, {"rental_uris": {"ios": "https://dc.lft.to/lastmile_qr_scan", "android": "https://dc.lft.to/lastmile_qr_scan"}, "type": "electric_bike", "name": "be546085f9ff696c78474a99a3c1c30a", "is_reserved": 0, "lon": -77.128442, "is_disabled": 0, "fusion_lat": 0.0, "lat": 38.800510333333335, "bike_id": "be546085f9ff696c78474a99a3c1c30a", "fusion_lon": 0.0}, {"rental_uris": {"ios": "https://dc.lft.to/lastmile_qr_scan", "android": "https://dc.lft.to/lastmile_qr_scan"}, "type": "electric_bike", "name": "0a8f0295bd19630797d04cd766e905b5", "is_reserved": 0, "lon": -76.977794, "is_disabled": 0, "fusion_lat": 0.0, "lat": 38.857191, "bike_id": "0a8f0295bd19630797d04cd766e905b5", "fusion_lon": 0.0}, {"rental_uris": {"ios": "https://dc.lft.to/lastmile_qr_scan", "android": "https://dc.lft.to/lastmile_qr_scan"}, "type": "electric_scooter", "name": "54075f26c7823d745c5722b10f7587c7", "is_reserved": 0, "lon": -77.03087133333334, "is_disabled": 0, "fusion_lat": 0.0, "lat": 38.935164666666665, "bike_id": "54075f26c7823d745c5722b10f7587c7", "fusion_lon": 0.0}, {"rental_uris": {"ios": "https://dc.lft.to/lastmile_qr_scan", "android": "https://dc.lft.to/lastmile_qr_scan"}, "type": "electric_scooter", "name": "70a2a772adbacefd55b814300b920b7c", "is_reserved": 0, "lon": -77.03830516666666, "is_disabled": 0, "fusion_lat": 0.0, "lat": 38.91258116666667, "bike_id": "70a2a772adbacefd55b814300b920b7c", "fusion_lon": 0.0}, {"rental_uris": {"ios": "https://dc.lft.to/lastmile_qr_scan", "android": "https://dc.lft.to/lastmile_qr_scan"}, "type": "electric_scooter", "name": "d6c737a110c2b2fc3e54c09da4316493", "is_reserved": 0, "lon": -77.045747, "is_disabled": 0, "fusion_lat": 0.0, "lat": 38.91328633333333, "bike_id": "d6c737a110c2b2fc3e54c09da4316493", "fusion_lon": 0.0}, {"rental_uris": {"ios": "https://dc.lft.to/lastmile_qr_scan", "android": "https://dc.lft.to/lastmile_qr_scan"}, "type": "electric_scooter", "name": "35f057833ea593430bb78a9fd91be5f1", "is_reserved": 0, "lon": -77.02500483333333, "is_disabled": 0, "fusion_lat": 0.0, "lat": 38.94208016666666, "bike_id": "35f057833ea593430bb78a9fd91be5f1", "fusion_lon": 0.0}, {"rental_uris": {"ios": "https://dc.lft.to/lastmile_qr_scan", "android": "https://dc.lft.to/lastmile_qr_scan"}, "type": "electric_scooter", "name": "3c9c9123468d7f2665a7f6a3606b0ff7", "is_reserved": 0, "lon": -77.02348733333334, "is_disabled": 0, "fusion_lat": 0.0, "lat": 38.89219666666666, "bike_id": "3c9c9123468d7f2665a7f6a3606b0ff7", "fusion_lon": 0.0}, {"rental_uris": {"ios": "https://dc.lft.to/lastmile_qr_scan", "android": "https://dc.lft.to/lastmile_qr_scan"}, "type": "electric_scooter", "name": "e1a3f5075873c5ec9ab7d6fa308f74ae", "is_reserved": 0, "lon": -77.03391916666666, "is_disabled": 0, "fusion_lat": 0.0, "lat": 38.90267166666667, "bike_id": "e1a3f5075873c5ec9ab7d6fa308f74ae", "fusion_lon": 0.0}, {"rental_uris": {"ios": "https://dc.lft.to/lastmile_qr_scan", "android": "https://dc.lft.to/lastmile_qr_scan"}, "type": "electric_scooter", "name": "f0d51a9643f4a60a394beee817d2de9b", "is_reserved": 0, "lon": -77.03872083333333, "is_disabled": 0, "fusion_lat": 0.0, "lat": 38.90384366666667, "bike_id": "f0d51a9643f4a60a394beee817d2de9b", "fusion_lon": 0.0}, {"rental_uris": {"ios": "https://dc.lft.to/lastmile_qr_scan", "android": "https://dc.lft.to/lastmile_qr_scan"}, "type": "electric_scooter", "name": "c21ca9644e0e424300466b2d87e73599", "is_reserved": 0, "lon": -77.033186, "is_disabled": 0, "fusion_lat": 0.0, "lat": 38.90393816666667, "bike_id": "c21ca9644e0e424300466b2d87e73599", "fusion_lon": 0.0}, {"rental_uris": {"ios": "https://dc.lft.to/lastmile_qr_scan", "android": "https://dc.lft.to/lastmile_qr_scan"}, "type": "electric_scooter", "name": "fdf23d80443b1a1272765c3f0ef07e7a", "is_reserved": 0, "lon": -77.02591683333333, "is_disabled": 0, "fusion_lat": 0.0, "lat": 38.8843565, "bike_id": "fdf23d80443b1a1272765c3f0ef07e7a", "fusion_lon": 0.0}, {"rental_uris": {"ios": "https://dc.lft.to/lastmile_qr_scan", "android": "https://dc.lft.to/lastmile_qr_scan"}, "type": "electric_bike", "name": "19b9042108068c3af76ee3276faf565b", "is_reserved": 0, "lon": -76.9526115, "is_disabled": 0, "fusion_lat": 0.0, "lat": 38.90687716666667, "bike_id": "19b9042108068c3af76ee3276faf565b", "fusion_lon": 0.0}, {"rental_uris": {"ios": "https://dc.lft.to/lastmile_qr_scan", "android": "https://dc.lft.to/lastmile_qr_scan"}, "type": "electric_scooter", "name": "d9c35f9b14ab50a3f9a508631177c41f", "is_reserved": 0, "lon": -77.05334316666666, "is_disabled": 0, "fusion_lat": 0.0, "lat": 38.90638583333333, "bike_id": "d9c35f9b14ab50a3f9a508631177c41f", "fusion_lon": 0.0}, {"rental_uris": {"ios": "https://dc.lft.to/lastmile_qr_scan", "android": "https://dc.lft.to/lastmile_qr_scan"}, "type": "electric_scooter", "name": "3b926673938029b3201428b7bb1421fd", "is_reserved": 0, "lon": -77.02337066666666, "is_disabled": 0, "fusion_lat": 0.0, "lat": 38.922308666666666, "bike_id": "3b926673938029b3201428b7bb1421fd", "fusion_lon": 0.0}, {"rental_uris": {"ios": "https://dc.lft.to/lastmile_qr_scan", "android": "https://dc.lft.to/lastmile_qr_scan"}, "type": "electric_scooter", "name": "4fee2e6c2cc1f5c34b556b048cf8361b", "is_reserved": 0, "lon": -77.00528166666666, "is_disabled": 0, "fusion_lat": 0.0, "lat": 38.885029333333335, "bike_id": "4fee2e6c2cc1f5c34b556b048cf8361b", "fusion_lon": 0.0}, {"rental_uris": {"ios": "https://dc.lft.to/lastmile_qr_scan", "android": "https://dc.lft.to/lastmile_qr_scan"}, "type": "electric_scooter", "name": "447d862514e47a14864ae9e84f3a6176", "is_reserved": 0, "lon": -77.02958866666667, "is_disabled": 0, "fusion_lat": 0.0, "lat": 38.88401183333333, "bike_id": "447d862514e47a14864ae9e84f3a6176", "fusion_lon": 0.0}, {"rental_uris": {"ios": "https://dc.lft.to/lastmile_qr_scan", "android": "https://dc.lft.to/lastmile_qr_scan"}, "type": "electric_bike", "name": "f2eba0dfab9729c1550bcc234aa1ce1e", "is_reserved": 0, "lon": -76.96098383333333, "is_disabled": 0, "fusion_lat": 0.0, "lat": 38.94965933333334, "bike_id": "f2eba0dfab9729c1550bcc234aa1ce1e", "fusion_lon": 0.0}, {"rental_uris": {"ios": "https://dc.lft.to/lastmile_qr_scan", "android": "https://dc.lft.to/lastmile_qr_scan"}, "type": "electric_scooter", "name": "7646ca09a86fe28e37a99a16be01c490", "is_reserved": 0, "lon": -77.01434483333334, "is_disabled": 0, "fusion_lat": 0.0, "lat": 38.89947083333333, "bike_id": "7646ca09a86fe28e37a99a16be01c490", "fusion_lon": 0.0}, {"rental_uris": {"ios": "https://dc.lft.to/lastmile_qr_scan", "android": "https://dc.lft.to/lastmile_qr_scan"}, "type": "electric_scooter", "name": "d1f69fac6a2791549954d8fbccb8a606", "is_reserved": 0, "lon": -77.0522925, "is_disabled": 0, "fusion_lat": 0.0, "lat": 38.924872, "bike_id": "d1f69fac6a2791549954d8fbccb8a606", "fusion_lon": 0.0}, {"rental_uris": {"ios": "https://dc.lft.to/lastmile_qr_scan", "android": "https://dc.lft.to/lastmile_qr_scan"}, "type": "electric_scooter", "name": "ad6a477be81f794c9491077d2c3252f5", "is_reserved": 0, "lon": -77.03333366666666, "is_disabled": 0, "fusion_lat": 0.0, "lat": 38.8985375, "bike_id": "ad6a477be81f794c9491077d2c3252f5", "fusion_lon": 0.0}, {"rental_uris": {"ios": "https://dc.lft.to/lastmile_qr_scan", "android": "https://dc.lft.to/lastmile_qr_scan"}, "type": "electric_scooter", "name": "5b73a69cbd9e15a1e0b6cb4e4c5c1534", "is_reserved": 0, "lon": -77.01102283333333, "is_disabled": 0, "fusion_lat": 0.0, "lat": 38.88539633333333, "bike_id": "5b73a69cbd9e15a1e0b6cb4e4c5c1534", "fusion_lon": 0.0}, {"rental_uris": {"ios": "https://dc.lft.to/lastmile_qr_scan", "android": "https://dc.lft.to/lastmile_qr_scan"}, "type": "electric_scooter", "name": "718a8b9082d9c2c8e4d686349472671d", "is_reserved": 0, "lon": -77.059121, "is_disabled": 0, "fusion_lat": 0.0, "lat": 38.902192, "bike_id": "718a8b9082d9c2c8e4d686349472671d", "fusion_lon": 0.0}, {"rental_uris": {"ios": "https://dc.lft.to/lastmile_qr_scan", "android": "https://dc.lft.to/lastmile_qr_scan"}, "type": "electric_scooter", "name": "4daf16a3bdb16c6d924acbfc63931d0f", "is_reserved": 0, "lon": -77.03341883333333, "is_disabled": 0, "fusion_lat": 0.0, "lat": 38.8963305, "bike_id": "4daf16a3bdb16c6d924acbfc63931d0f", "fusion_lon": 0.0}, {"rental_uris": {"ios": "https://dc.lft.to/lastmile_qr_scan", "android": "https://dc.lft.to/lastmile_qr_scan"}, "type": "electric_scooter", "name": "baccadc248e2f7d9388fcfe84fd6b2df", "is_reserved": 0, "lon": -77.01220966666666, "is_disabled": 0, "fusion_lat": 0.0, "lat": 38.920387833333336, "bike_id": "baccadc248e2f7d9388fcfe84fd6b2df", "fusion_lon": 0.0}, {"rental_uris": {"ios": "https://dc.lft.to/lastmile_qr_scan", "android": "https://dc.lft.to/lastmile_qr_scan"}, "type": "electric_scooter", "name": "c2f938b3b70766457fa45240ec61659c", "is_reserved": 0, "lon": -77.04640116666667, "is_disabled": 0, "fusion_lat": 0.0, "lat": 38.9010335, "bike_id": "c2f938b3b70766457fa45240ec61659c", "fusion_lon": 0.0}, {"rental_uris": {"ios": "https://dc.lft.to/lastmile_qr_scan", "android": "https://dc.lft.to/lastmile_qr_scan"}, "type": "electric_scooter", "name": "76c900876339a0626b87e40d5342ea21", "is_reserved": 0, "lon": -77.03144216666666, "is_disabled": 0, "fusion_lat": 0.0, "lat": 38.92018983333333, "bike_id": "76c900876339a0626b87e40d5342ea21", "fusion_lon": 0.0}, {"rental_uris": {"ios": "https://dc.lft.to/lastmile_qr_scan", "android": "https://dc.lft.to/lastmile_qr_scan"}, "type": "electric_scooter", "name": "b7b703511e2a2ea917cbf0f11451ddba", "is_reserved": 0, "lon": -77.03567916666667, "is_disabled": 0, "fusion_lat": 0.0, "lat": 38.90628383333333, "bike_id": "b7b703511e2a2ea917cbf0f11451ddba", "fusion_lon": 0.0}, {"rental_uris": {"ios": "https://dc.lft.to/lastmile_qr_scan", "android": "https://dc.lft.to/lastmile_qr_scan"}, "type": "electric_scooter", "name": "850a615d1ee2d4247ea1474e7d71791c", "is_reserved": 0, "lon": -77.04772183333333, "is_disabled": 0, "fusion_lat": 0.0, "lat": 38.90392816666667, "bike_id": "850a615d1ee2d4247ea1474e7d71791c", "fusion_lon": 0.0}, {"rental_uris": {"ios": "https://dc.lft.to/lastmile_qr_scan", "android": "https://dc.lft.to/lastmile_qr_scan"}, "type": "electric_scooter", "name": "ed40d0fe7d182e5882f1c6eede91fb04", "is_reserved": 0, "lon": -77.05042916666666, "is_disabled": 0, "fusion_lat": 0.0, "lat": 38.9007855, "bike_id": "ed40d0fe7d182e5882f1c6eede91fb04", "fusion_lon": 0.0}, {"rental_uris": {"ios": "https://dc.lft.to/lastmile_qr_scan", "android": "https://dc.lft.to/lastmile_qr_scan"}, "type": "electric_scooter", "name": "01d2ef911a543504d6f32f2627c6c0fa", "is_reserved": 0, "lon": -77.020665, "is_disabled": 0, "fusion_lat": 0.0, "lat": 38.89723866666667, "bike_id": "01d2ef911a543504d6f32f2627c6c0fa", "fusion_lon": 0.0}, {"rental_uris": {"ios": "https://dc.lft.to/lastmile_qr_scan", "android": "https://dc.lft.to/lastmile_qr_scan"}, "type": "electric_bike", "name": "03874c6a39f84974b8dafe48c3266379", "is_reserved": 0, "lon": -76.98060016666666, "is_disabled": 0, "fusion_lat": 0.0, "lat": 38.972499, "bike_id": "03874c6a39f84974b8dafe48c3266379", "fusion_lon": 0.0}, {"rental_uris": {"ios": "https://dc.lft.to/lastmile_qr_scan", "android": "https://dc.lft.to/lastmile_qr_scan"}, "type": "electric_scooter", "name": "a92ca9cc7a197f299259f141838d1e82", "is_reserved": 0, "lon": -77.039745, "is_disabled": 0, "fusion_lat": 0.0, "lat": 38.90138866666667, "bike_id": "a92ca9cc7a197f299259f141838d1e82", "fusion_lon": 0.0}, {"rental_uris": {"ios": "https://dc.lft.to/lastmile_qr_scan", "android": "https://dc.lft.to/lastmile_qr_scan"}, "type": "electric_scooter", "name": "fa1a8278c80fcf3c8696c170c844301d", "is_reserved": 0, "lon": -77.02411666666667, "is_disabled": 0, "fusion_lat": 0.0, "lat": 38.945085166666665, "bike_id": "fa1a8278c80fcf3c8696c170c844301d", "fusion_lon": 0.0}, {"rental_uris": {"ios": "https://dc.lft.to/lastmile_qr_scan", "android": "https://dc.lft.to/lastmile_qr_scan"}, "type": "electric_scooter", "name": "f41f667b4d10c290beb8205af253152a", "is_reserved": 0, "lon": -77.034503, "is_disabled": 0, "fusion_lat": 0.0, "lat": 38.9094675, "bike_id": "f41f667b4d10c290beb8205af253152a", "fusion_lon": 0.0}, {"rental_uris": {"ios": "https://dc.lft.to/lastmile_qr_scan", "android": "https://dc.lft.to/lastmile_qr_scan"}, "type": "electric_scooter", "name": "322ec1784dd0dda97c689b0587b27b7e", "is_reserved": 0, "lon": -77.02198116666666, "is_disabled": 0, "fusion_lat": 0.0, "lat": 38.91126583333333, "bike_id": "322ec1784dd0dda97c689b0587b27b7e", "fusion_lon": 0.0}, {"rental_uris": {"ios": "https://dc.lft.to/lastmile_qr_scan", "android": "https://dc.lft.to/lastmile_qr_scan"}, "type": "electric_scooter", "name": "1e973518f2186df4020b804775cc2274", "is_reserved": 0, "lon": -77.05211233333333, "is_disabled": 0, "fusion_lat": 0.0, "lat": 38.902674166666664, "bike_id": "1e973518f2186df4020b804775cc2274", "fusion_lon": 0.0}, {"rental_uris": {"ios": "https://dc.lft.to/lastmile_qr_scan", "android": "https://dc.lft.to/lastmile_qr_scan"}, "type": "electric_scooter", "name": "c850d149c2f03d4d5c3cc05584c7f9ff", "is_reserved": 0, "lon": -77.05627683333333, "is_disabled": 0, "fusion_lat": 0.0, "lat": 38.92417833333333, "bike_id": "c850d149c2f03d4d5c3cc05584c7f9ff", "fusion_lon": 0.0}, {"rental_uris": {"ios": "https://dc.lft.to/lastmile_qr_scan", "android": "https://dc.lft.to/lastmile_qr_scan"}, "type": "electric_scooter", "name": "eec7e46285ea20ccfcffc3eb31902cbe", "is_reserved": 0, "lon": -76.9873865, "is_disabled": 0, "fusion_lat": 0.0, "lat": 38.84224233333333, "bike_id": "eec7e46285ea20ccfcffc3eb31902cbe", "fusion_lon": 0.0}, {"rental_uris": {"ios": "https://dc.lft.to/lastmile_qr_scan", "android": "https://dc.lft.to/lastmile_qr_scan"}, "type": "electric_scooter", "name": "06958249c3591f834119110486a8d98c", "is_reserved": 0, "lon": -77.04193, "is_disabled": 0, "fusion_lat": 0.0, "lat": 38.9220405, "bike_id": "06958249c3591f834119110486a8d98c", "fusion_lon": 0.0}, {"rental_uris": {"ios": "https://dc.lft.to/lastmile_qr_scan", "android": "https://dc.lft.to/lastmile_qr_scan"}, "type": "electric_scooter", "name": "9b5d3345e9a055e4ca61db4f899f6f76", "is_reserved": 0, "lon": -77.05125516666666, "is_disabled": 0, "fusion_lat": 0.0, "lat": 38.92343533333333, "bike_id": "9b5d3345e9a055e4ca61db4f899f6f76", "fusion_lon": 0.0}, {"rental_uris": {"ios": "https://dc.lft.to/lastmile_qr_scan", "android": "https://dc.lft.to/lastmile_qr_scan"}, "type": "electric_scooter", "name": "a98394179f2bf1eff1baa46e6d2755d6", "is_reserved": 0, "lon": -77.04039133333333, "is_disabled": 0, "fusion_lat": 0.0, "lat": 38.918708, "bike_id": "a98394179f2bf1eff1baa46e6d2755d6", "fusion_lon": 0.0}, {"rental_uris": {"ios": "https://dc.lft.to/lastmile_qr_scan", "android": "https://dc.lft.to/lastmile_qr_scan"}, "type": "electric_scooter", "name": "82d38d3e24b9a28b4cc3d5a90e8465c4", "is_reserved": 0, "lon": -77.05876633333334, "is_disabled": 0, "fusion_lat": 0.0, "lat": 38.94240633333333, "bike_id": "82d38d3e24b9a28b4cc3d5a90e8465c4", "fusion_lon": 0.0}, {"rental_uris": {"ios": "https://dc.lft.to/lastmile_qr_scan", "android": "https://dc.lft.to/lastmile_qr_scan"}, "type": "electric_scooter", "name": "0c691c11b403f44a53d9d38fbac91df7", "is_reserved": 0, "lon": -76.92922783333333, "is_disabled": 0, "fusion_lat": 0.0, "lat": 38.886595, "bike_id": "0c691c11b403f44a53d9d38fbac91df7", "fusion_lon": 0.0}, {"rental_uris": {"ios": "https://dc.lft.to/lastmile_qr_scan", "android": "https://dc.lft.to/lastmile_qr_scan"}, "type": "electric_scooter", "name": "9dc148565ac36926871bb529b1c77163", "is_reserved": 0, "lon": -77.03656266666667, "is_disabled": 0, "fusion_lat": 0.0, "lat": 38.955947, "bike_id": "9dc148565ac36926871bb529b1c77163", "fusion_lon": 0.0}, {"rental_uris": {"ios": "https://dc.lft.to/lastmile_qr_scan", "android": "https://dc.lft.to/lastmile_qr_scan"}, "type": "electric_scooter", "name": "bc2e8dbf20e979949683322ece4952d4", "is_reserved": 0, "lon": -77.03214566666666, "is_disabled": 0, "fusion_lat": 0.0, "lat": 38.89234366666667, "bike_id": "bc2e8dbf20e979949683322ece4952d4", "fusion_lon": 0.0}, {"rental_uris": {"ios": "https://dc.lft.to/lastmile_qr_scan", "android": "https://dc.lft.to/lastmile_qr_scan"}, "type": "electric_scooter", "name": "dde86fc0dfa8c318c9afdccae745e0c2", "is_reserved": 0, "lon": -77.02220983333333, "is_disabled": 0, "fusion_lat": 0.0, "lat": 38.924651833333336, "bike_id": "dde86fc0dfa8c318c9afdccae745e0c2", "fusion_lon": 0.0}, {"rental_uris": {"ios": "https://dc.lft.to/lastmile_qr_scan", "android": "https://dc.lft.to/lastmile_qr_scan"}, "type": "electric_bike", "name": "b41cf05cec6f2e608673f6d3da9acceb", "is_reserved": 0, "lon": -77.01587883333333, "is_disabled": 0, "fusion_lat": 0.0, "lat": 38.95277816666667, "bike_id": "b41cf05cec6f2e608673f6d3da9acceb", "fusion_lon": 0.0}, {"rental_uris": {"ios": "https://dc.lft.to/lastmile_qr_scan", "android": "https://dc.lft.to/lastmile_qr_scan"}, "type": "electric_scooter", "name": "adc47e1e7490c69e2909c7a33bc3844b", "is_reserved": 0, "lon": -76.995619, "is_disabled": 0, "fusion_lat": 0.0, "lat": 38.9266965, "bike_id": "adc47e1e7490c69e2909c7a33bc3844b", "fusion_lon": 0.0}, {"rental_uris": {"ios": "https://dc.lft.to/lastmile_qr_scan", "android": "https://dc.lft.to/lastmile_qr_scan"}, "type": "electric_scooter", "name": "06dad2e2bd0e1163368db6f63097748d", "is_reserved": 0, "lon": -77.03162433333334, "is_disabled": 0, "fusion_lat": 0.0, "lat": 38.91700216666667, "bike_id": "06dad2e2bd0e1163368db6f63097748d", "fusion_lon": 0.0}, {"rental_uris": {"ios": "https://dc.lft.to/lastmile_qr_scan", "android": "https://dc.lft.to/lastmile_qr_scan"}, "type": "electric_scooter", "name": "bf342cad85fdf51cedb30e50b25af4fd", "is_reserved": 0, "lon": -77.0070285, "is_disabled": 0, "fusion_lat": 0.0, "lat": 38.87690533333333, "bike_id": "bf342cad85fdf51cedb30e50b25af4fd", "fusion_lon": 0.0}, {"rental_uris": {"ios": "https://dc.lft.to/lastmile_qr_scan", "android": "https://dc.lft.to/lastmile_qr_scan"}, "type": "electric_scooter", "name": "562aaef9348f2e311c99825c2c5b6810", "is_reserved": 0, "lon": -76.97327416666667, "is_disabled": 0, "fusion_lat": 0.0, "lat": 38.90410133333334, "bike_id": "562aaef9348f2e311c99825c2c5b6810", "fusion_lon": 0.0}, {"rental_uris": {"ios": "https://dc.lft.to/lastmile_qr_scan", "android": "https://dc.lft.to/lastmile_qr_scan"}, "type": "electric_scooter", "name": "6e7688736aa466b3e72c9aa3727c554d", "is_reserved": 0, "lon": -77.02358116666667, "is_disabled": 0, "fusion_lat": 0.0, "lat": 38.902013833333335, "bike_id": "6e7688736aa466b3e72c9aa3727c554d", "fusion_lon": 0.0}, {"rental_uris": {"ios": "https://dc.lft.to/lastmile_qr_scan", "android": "https://dc.lft.to/lastmile_qr_scan"}, "type": "electric_scooter", "name": "4c7beecc7cfa96484ee1b5071325877a", "is_reserved": 0, "lon": -77.06114, "is_disabled": 0, "fusion_lat": 0.0, "lat": 38.904744666666666, "bike_id": "4c7beecc7cfa96484ee1b5071325877a", "fusion_lon": 0.0}, {"rental_uris": {"ios": "https://dc.lft.to/lastmile_qr_scan", "android": "https://dc.lft.to/lastmile_qr_scan"}, "type": "electric_scooter", "name": "dd70475ff205a0f0c9cf1f834c964768", "is_reserved": 0, "lon": -77.048256, "is_disabled": 0, "fusion_lat": 0.0, "lat": 38.9149495, "bike_id": "dd70475ff205a0f0c9cf1f834c964768", "fusion_lon": 0.0}, {"rental_uris": {"ios": "https://dc.lft.to/lastmile_qr_scan", "android": "https://dc.lft.to/lastmile_qr_scan"}, "type": "electric_scooter", "name": "5d52bae7e3e46078309c745bb24d9296", "is_reserved": 0, "lon": -76.99588366666667, "is_disabled": 0, "fusion_lat": 0.0, "lat": 38.909403833333336, "bike_id": "5d52bae7e3e46078309c745bb24d9296", "fusion_lon": 0.0}, {"rental_uris": {"ios": "https://dc.lft.to/lastmile_qr_scan", "android": "https://dc.lft.to/lastmile_qr_scan"}, "type": "electric_scooter", "name": "3f66b43229115a4367af6f80dd8784fb", "is_reserved": 0, "lon": -77.039756, "is_disabled": 0, "fusion_lat": 0.0, "lat": 38.9315355, "bike_id": "3f66b43229115a4367af6f80dd8784fb", "fusion_lon": 0.0}, {"rental_uris": {"ios": "https://dc.lft.to/lastmile_qr_scan", "android": "https://dc.lft.to/lastmile_qr_scan"}, "type": "electric_bike", "name": "faa05a9aeb7c5b490b846d97a8238dc0", "is_reserved": 0, "lon": -77.06955016666667, "is_disabled": 0, "fusion_lat": 0.0, "lat": 38.836299833333335, "bike_id": "faa05a9aeb7c5b490b846d97a8238dc0", "fusion_lon": 0.0}, {"rental_uris": {"ios": "https://dc.lft.to/lastmile_qr_scan", "android": "https://dc.lft.to/lastmile_qr_scan"}, "type": "electric_scooter", "name": "272499de0bb2d9ecd93422010cafce3f", "is_reserved": 0, "lon": -77.02441016666667, "is_disabled": 0, "fusion_lat": 0.0, "lat": 38.91694433333333, "bike_id": "272499de0bb2d9ecd93422010cafce3f", "fusion_lon": 0.0}, {"rental_uris": {"ios": "https://dc.lft.to/lastmile_qr_scan", "android": "https://dc.lft.to/lastmile_qr_scan"}, "type": "electric_scooter", "name": "69a6ef51ad6fd5709602834ae0cff04a", "is_reserved": 0, "lon": -77.02491016666667, "is_disabled": 0, "fusion_lat": 0.0, "lat": 38.924055833333334, "bike_id": "69a6ef51ad6fd5709602834ae0cff04a", "fusion_lon": 0.0}, {"rental_uris": {"ios": "https://dc.lft.to/lastmile_qr_scan", "android": "https://dc.lft.to/lastmile_qr_scan"}, "type": "electric_scooter", "name": "b4bc9bb0d17271142dcd66c7e97f1130", "is_reserved": 0, "lon": -77.04507833333334, "is_disabled": 0, "fusion_lat": 0.0, "lat": 38.89224, "bike_id": "b4bc9bb0d17271142dcd66c7e97f1130", "fusion_lon": 0.0}, {"rental_uris": {"ios": "https://dc.lft.to/lastmile_qr_scan", "android": "https://dc.lft.to/lastmile_qr_scan"}, "type": "electric_scooter", "name": "2d03b1d9a21f43ae4a66707effa73775", "is_reserved": 0, "lon": -76.997125, "is_disabled": 0, "fusion_lat": 0.0, "lat": 38.908173166666664, "bike_id": "2d03b1d9a21f43ae4a66707effa73775", "fusion_lon": 0.0}, {"rental_uris": {"ios": "https://dc.lft.to/lastmile_qr_scan", "android": "https://dc.lft.to/lastmile_qr_scan"}, "type": "electric_scooter", "name": "faa1f81f0235a40583ab2a8ae8f9f5aa", "is_reserved": 0, "lon": -77.01897766666667, "is_disabled": 0, "fusion_lat": 0.0, "lat": 38.90951416666667, "bike_id": "faa1f81f0235a40583ab2a8ae8f9f5aa", "fusion_lon": 0.0}, {"rental_uris": {"ios": "https://dc.lft.to/lastmile_qr_scan", "android": "https://dc.lft.to/lastmile_qr_scan"}, "type": "electric_scooter", "name": "4fe3fa4501793c6df030c213ad03a9f9", "is_reserved": 0, "lon": -77.0467795, "is_disabled": 0, "fusion_lat": 0.0, "lat": 38.91812266666667, "bike_id": "4fe3fa4501793c6df030c213ad03a9f9", "fusion_lon": 0.0}, {"rental_uris": {"ios": "https://dc.lft.to/lastmile_qr_scan", "android": "https://dc.lft.to/lastmile_qr_scan"}, "type": "electric_scooter", "name": "d82454acbf2e31f3c1187728cf39614a", "is_reserved": 0, "lon": -77.02163833333333, "is_disabled": 0, "fusion_lat": 0.0, "lat": 38.903094, "bike_id": "d82454acbf2e31f3c1187728cf39614a", "fusion_lon": 0.0}, {"rental_uris": {"ios": "https://dc.lft.to/lastmile_qr_scan", "android": "https://dc.lft.to/lastmile_qr_scan"}, "type": "electric_scooter", "name": "70b9a2689e0d0e395c02744d5b6f3d24", "is_reserved": 0, "lon": -77.02199883333333, "is_disabled": 0, "fusion_lat": 0.0, "lat": 38.9112605, "bike_id": "70b9a2689e0d0e395c02744d5b6f3d24", "fusion_lon": 0.0}, {"rental_uris": {"ios": "https://dc.lft.to/lastmile_qr_scan", "android": "https://dc.lft.to/lastmile_qr_scan"}, "type": "electric_scooter", "name": "1a1cd5dcd24ae1b14aa2fb9d234560fd", "is_reserved": 0, "lon": -77.04541966666666, "is_disabled": 0, "fusion_lat": 0.0, "lat": 38.897460333333335, "bike_id": "1a1cd5dcd24ae1b14aa2fb9d234560fd", "fusion_lon": 0.0}, {"rental_uris": {"ios": "https://dc.lft.to/lastmile_qr_scan", "android": "https://dc.lft.to/lastmile_qr_scan"}, "type": "electric_scooter", "name": "cbb524818b930e5223d7620cd58048ac", "is_reserved": 0, "lon": -77.01968116666667, "is_disabled": 0, "fusion_lat": 0.0, "lat": 38.9338055, "bike_id": "cbb524818b930e5223d7620cd58048ac", "fusion_lon": 0.0}, {"rental_uris": {"ios": "https://dc.lft.to/lastmile_qr_scan", "android": "https://dc.lft.to/lastmile_qr_scan"}, "type": "electric_scooter", "name": "ace976227000153f7b9272b7436e76c6", "is_reserved": 0, "lon": -77.02188466666666, "is_disabled": 0, "fusion_lat": 0.0, "lat": 38.896152666666666, "bike_id": "ace976227000153f7b9272b7436e76c6", "fusion_lon": 0.0}, {"rental_uris": {"ios": "https://dc.lft.to/lastmile_qr_scan", "android": "https://dc.lft.to/lastmile_qr_scan"}, "type": "electric_scooter", "name": "9145191c7ad623b995d3d5e68047b2f2", "is_reserved": 0, "lon": -77.06521983333333, "is_disabled": 0, "fusion_lat": 0.0, "lat": 38.9498885, "bike_id": "9145191c7ad623b995d3d5e68047b2f2", "fusion_lon": 0.0}, {"rental_uris": {"ios": "https://dc.lft.to/lastmile_qr_scan", "android": "https://dc.lft.to/lastmile_qr_scan"}, "type": "electric_scooter", "name": "187f5482055ef4df1823c21085fb81ec", "is_reserved": 0, "lon": -77.0382295, "is_disabled": 0, "fusion_lat": 0.0, "lat": 38.906876833333335, "bike_id": "187f5482055ef4df1823c21085fb81ec", "fusion_lon": 0.0}, {"rental_uris": {"ios": "https://dc.lft.to/lastmile_qr_scan", "android": "https://dc.lft.to/lastmile_qr_scan"}, "type": "electric_scooter", "name": "d9577633e604f0909c7474257268ef1f", "is_reserved": 0, "lon": -76.98212116666667, "is_disabled": 0, "fusion_lat": 0.0, "lat": 38.88643066666667, "bike_id": "d9577633e604f0909c7474257268ef1f", "fusion_lon": 0.0}, {"rental_uris": {"ios": "https://dc.lft.to/lastmile_qr_scan", "android": "https://dc.lft.to/lastmile_qr_scan"}, "type": "electric_scooter", "name": "6710f43215ef91a7f16574bd9529a1ef", "is_reserved": 0, "lon": -77.00794066666667, "is_disabled": 0, "fusion_lat": 0.0, "lat": 38.912653166666665, "bike_id": "6710f43215ef91a7f16574bd9529a1ef", "fusion_lon": 0.0}, {"rental_uris": {"ios": "https://dc.lft.to/lastmile_qr_scan", "android": "https://dc.lft.to/lastmile_qr_scan"}, "type": "electric_scooter", "name": "014fe767d12a3aba45ad5c0b2838f79b", "is_reserved": 0, "lon": -77.02745433333334, "is_disabled": 0, "fusion_lat": 0.0, "lat": 38.92381533333333, "bike_id": "014fe767d12a3aba45ad5c0b2838f79b", "fusion_lon": 0.0}, {"rental_uris": {"ios": "https://dc.lft.to/lastmile_qr_scan", "android": "https://dc.lft.to/lastmile_qr_scan"}, "type": "electric_scooter", "name": "6e6eccac51b65864e5e1c4b5d76df7cb", "is_reserved": 0, "lon": -77.07706166666667, "is_disabled": 0, "fusion_lat": 0.0, "lat": 38.89347433333333, "bike_id": "6e6eccac51b65864e5e1c4b5d76df7cb", "fusion_lon": 0.0}, {"rental_uris": {"ios": "https://dc.lft.to/lastmile_qr_scan", "android": "https://dc.lft.to/lastmile_qr_scan"}, "type": "electric_scooter", "name": "965dda87c67eefbe736497b013c73266", "is_reserved": 0, "lon": -76.99480733333333, "is_disabled": 0, "fusion_lat": 0.0, "lat": 38.86210366666667, "bike_id": "965dda87c67eefbe736497b013c73266", "fusion_lon": 0.0}, {"rental_uris": {"ios": "https://dc.lft.to/lastmile_qr_scan", "android": "https://dc.lft.to/lastmile_qr_scan"}, "type": "electric_scooter", "name": "cee54549146495d7a3a64f4898f14330", "is_reserved": 0, "lon": -77.07244083333333, "is_disabled": 0, "fusion_lat": 0.0, "lat": 38.93420916666667, "bike_id": "cee54549146495d7a3a64f4898f14330", "fusion_lon": 0.0}, {"rental_uris": {"ios": "https://dc.lft.to/lastmile_qr_scan", "android": "https://dc.lft.to/lastmile_qr_scan"}, "type": "electric_scooter", "name": "636a9aeea369595c4897f78c280b717c", "is_reserved": 0, "lon": -77.02603383333333, "is_disabled": 0, "fusion_lat": 0.0, "lat": 38.9265005, "bike_id": "636a9aeea369595c4897f78c280b717c", "fusion_lon": 0.0}, {"rental_uris": {"ios": "https://dc.lft.to/lastmile_qr_scan", "android": "https://dc.lft.to/lastmile_qr_scan"}, "type": "electric_scooter", "name": "31fbbdd5e301c30b9aa086ecd7e9b1f9", "is_reserved": 0, "lon": -76.9942095, "is_disabled": 0, "fusion_lat": 0.0, "lat": 38.91684466666667, "bike_id": "31fbbdd5e301c30b9aa086ecd7e9b1f9", "fusion_lon": 0.0}, {"rental_uris": {"ios": "https://dc.lft.to/lastmile_qr_scan", "android": "https://dc.lft.to/lastmile_qr_scan"}, "type": "electric_scooter", "name": "35729c725db51baceae650bca5689b6d", "is_reserved": 0, "lon": -77.02483533333333, "is_disabled": 0, "fusion_lat": 0.0, "lat": 38.91813883333333, "bike_id": "35729c725db51baceae650bca5689b6d", "fusion_lon": 0.0}, {"rental_uris": {"ios": "https://dc.lft.to/lastmile_qr_scan", "android": "https://dc.lft.to/lastmile_qr_scan"}, "type": "electric_scooter", "name": "9b92fc29bd8e8a564fe35182cb4b055b", "is_reserved": 0, "lon": -77.032237, "is_disabled": 0, "fusion_lat": 0.0, "lat": 38.909706, "bike_id": "9b92fc29bd8e8a564fe35182cb4b055b", "fusion_lon": 0.0}, {"rental_uris": {"ios": "https://dc.lft.to/lastmile_qr_scan", "android": "https://dc.lft.to/lastmile_qr_scan"}, "type": "electric_scooter", "name": "051bc45506315adea99a2b25d80cef01", "is_reserved": 0, "lon": -77.04736966666667, "is_disabled": 0, "fusion_lat": 0.0, "lat": 38.89551516666667, "bike_id": "051bc45506315adea99a2b25d80cef01", "fusion_lon": 0.0}, {"rental_uris": {"ios": "https://dc.lft.to/lastmile_qr_scan", "android": "https://dc.lft.to/lastmile_qr_scan"}, "type": "electric_scooter", "name": "be558e0d81b1e4dbb31d4d8c748f0d98", "is_reserved": 0, "lon": -77.04532366666666, "is_disabled": 0, "fusion_lat": 0.0, "lat": 38.91812733333333, "bike_id": "be558e0d81b1e4dbb31d4d8c748f0d98", "fusion_lon": 0.0}, {"rental_uris": {"ios": "https://dc.lft.to/lastmile_qr_scan", "android": "https://dc.lft.to/lastmile_qr_scan"}, "type": "electric_scooter", "name": "583857139fa80567f03982027f93cc1d", "is_reserved": 0, "lon": -77.03833483333334, "is_disabled": 0, "fusion_lat": 0.0, "lat": 38.913147333333335, "bike_id": "583857139fa80567f03982027f93cc1d", "fusion_lon": 0.0}, {"rental_uris": {"ios": "https://dc.lft.to/lastmile_qr_scan", "android": "https://dc.lft.to/lastmile_qr_scan"}, "type": "electric_scooter", "name": "1acd88d7d160859ca6eba4dc580d92d7", "is_reserved": 0, "lon": -77.01837966666666, "is_disabled": 0, "fusion_lat": 0.0, "lat": 38.90531983333333, "bike_id": "1acd88d7d160859ca6eba4dc580d92d7", "fusion_lon": 0.0}, {"rental_uris": {"ios": "https://dc.lft.to/lastmile_qr_scan", "android": "https://dc.lft.to/lastmile_qr_scan"}, "type": "electric_scooter", "name": "5f0816f6972be66e9f165073de39bd1a", "is_reserved": 0, "lon": -77.02302366666666, "is_disabled": 0, "fusion_lat": 0.0, "lat": 38.90156983333333, "bike_id": "5f0816f6972be66e9f165073de39bd1a", "fusion_lon": 0.0}, {"rental_uris": {"ios": "https://dc.lft.to/lastmile_qr_scan", "android": "https://dc.lft.to/lastmile_qr_scan"}, "type": "electric_scooter", "name": "2faa67fde27dff8d0a1e244a8a187099", "is_reserved": 0, "lon": -77.02761716666667, "is_disabled": 0, "fusion_lat": 0.0, "lat": 38.92962633333333, "bike_id": "2faa67fde27dff8d0a1e244a8a187099", "fusion_lon": 0.0}, {"rental_uris": {"ios": "https://dc.lft.to/lastmile_qr_scan", "android": "https://dc.lft.to/lastmile_qr_scan"}, "type": "electric_scooter", "name": "a6d930f3f096b0f2a31c8342a32cbce9", "is_reserved": 0, "lon": -77.02761616666666, "is_disabled": 0, "fusion_lat": 0.0, "lat": 38.913410999999996, "bike_id": "a6d930f3f096b0f2a31c8342a32cbce9", "fusion_lon": 0.0}, {"rental_uris": {"ios": "https://dc.lft.to/lastmile_qr_scan", "android": "https://dc.lft.to/lastmile_qr_scan"}, "type": "electric_scooter", "name": "efb365af02d7b60cb8a6a2d8b370ca5f", "is_reserved": 0, "lon": -77.01949183333333, "is_disabled": 0, "fusion_lat": 0.0, "lat": 38.92243916666666, "bike_id": "efb365af02d7b60cb8a6a2d8b370ca5f", "fusion_lon": 0.0}, {"rental_uris": {"ios": "https://dc.lft.to/lastmile_qr_scan", "android": "https://dc.lft.to/lastmile_qr_scan"}, "type": "electric_scooter", "name": "e772e27fd3c4b05d0ce7211ddd5dda0b", "is_reserved": 0, "lon": -77.02972516666667, "is_disabled": 0, "fusion_lat": 0.0, "lat": 38.904849666666664, "bike_id": "e772e27fd3c4b05d0ce7211ddd5dda0b", "fusion_lon": 0.0}, {"rental_uris": {"ios": "https://dc.lft.to/lastmile_qr_scan", "android": "https://dc.lft.to/lastmile_qr_scan"}, "type": "electric_scooter", "name": "6d882742f8b6b7a6b085b2274736cd5a", "is_reserved": 0, "lon": -77.03210716666666, "is_disabled": 0, "fusion_lat": 0.0, "lat": 38.89231066666667, "bike_id": "6d882742f8b6b7a6b085b2274736cd5a", "fusion_lon": 0.0}, {"rental_uris": {"ios": "https://dc.lft.to/lastmile_qr_scan", "android": "https://dc.lft.to/lastmile_qr_scan"}, "type": "electric_scooter", "name": "607432000321e53f4cbf5e1c41591b11", "is_reserved": 0, "lon": -77.04197516666666, "is_disabled": 0, "fusion_lat": 0.0, "lat": 38.92043483333333, "bike_id": "607432000321e53f4cbf5e1c41591b11", "fusion_lon": 0.0}, {"rental_uris": {"ios": "https://dc.lft.to/lastmile_qr_scan", "android": "https://dc.lft.to/lastmile_qr_scan"}, "type": "electric_scooter", "name": "1f9026c65f3fbff7248c230aa4800335", "is_reserved": 0, "lon": -77.02293016666667, "is_disabled": 0, "fusion_lat": 0.0, "lat": 38.918386, "bike_id": "1f9026c65f3fbff7248c230aa4800335", "fusion_lon": 0.0}, {"rental_uris": {"ios": "https://dc.lft.to/lastmile_qr_scan", "android": "https://dc.lft.to/lastmile_qr_scan"}, "type": "electric_scooter", "name": "295a5d58db622c11ba2bd4eebc26a02f", "is_reserved": 0, "lon": -77.038733, "is_disabled": 0, "fusion_lat": 0.0, "lat": 38.9187785, "bike_id": "295a5d58db622c11ba2bd4eebc26a02f", "fusion_lon": 0.0}, {"rental_uris": {"ios": "https://dc.lft.to/lastmile_qr_scan", "android": "https://dc.lft.to/lastmile_qr_scan"}, "type": "electric_scooter", "name": "8d94c843a6e39cb136f8429b9ec65625", "is_reserved": 0, "lon": -76.94856483333334, "is_disabled": 0, "fusion_lat": 0.0, "lat": 38.883000333333335, "bike_id": "8d94c843a6e39cb136f8429b9ec65625", "fusion_lon": 0.0}, {"rental_uris": {"ios": "https://dc.lft.to/lastmile_qr_scan", "android": "https://dc.lft.to/lastmile_qr_scan"}, "type": "electric_scooter", "name": "bf6e852eb610935d68eb174a2f767aee", "is_reserved": 0, "lon": -77.0035495, "is_disabled": 0, "fusion_lat": 0.0, "lat": 38.892653, "bike_id": "bf6e852eb610935d68eb174a2f767aee", "fusion_lon": 0.0}, {"rental_uris": {"ios": "https://dc.lft.to/lastmile_qr_scan", "android": "https://dc.lft.to/lastmile_qr_scan"}, "type": "electric_scooter", "name": "85f91b725d3e2af73bfb0c2f96efe1ef", "is_reserved": 0, "lon": -77.0228135, "is_disabled": 0, "fusion_lat": 0.0, "lat": 38.91563766666667, "bike_id": "85f91b725d3e2af73bfb0c2f96efe1ef", "fusion_lon": 0.0}, {"rental_uris": {"ios": "https://dc.lft.to/lastmile_qr_scan", "android": "https://dc.lft.to/lastmile_qr_scan"}, "type": "electric_scooter", "name": "43f01b1c5a58c9d3bd315571f6f5abb2", "is_reserved": 0, "lon": -77.019097, "is_disabled": 0, "fusion_lat": 0.0, "lat": 38.89490983333334, "bike_id": "43f01b1c5a58c9d3bd315571f6f5abb2", "fusion_lon": 0.0}, {"rental_uris": {"ios": "https://dc.lft.to/lastmile_qr_scan", "android": "https://dc.lft.to/lastmile_qr_scan"}, "type": "electric_scooter", "name": "7e8247dc2ef33b1388222c665ea00d36", "is_reserved": 0, "lon": -76.982314, "is_disabled": 0, "fusion_lat": 0.0, "lat": 38.90193633333333, "bike_id": "7e8247dc2ef33b1388222c665ea00d36", "fusion_lon": 0.0}, {"rental_uris": {"ios": "https://dc.lft.to/lastmile_qr_scan", "android": "https://dc.lft.to/lastmile_qr_scan"}, "type": "electric_scooter", "name": "ab9f0dab618ab028ca5b11e08530649f", "is_reserved": 0, "lon": -77.02126616666666, "is_disabled": 0, "fusion_lat": 0.0, "lat": 38.923768833333334, "bike_id": "ab9f0dab618ab028ca5b11e08530649f", "fusion_lon": 0.0}, {"rental_uris": {"ios": "https://dc.lft.to/lastmile_qr_scan", "android": "https://dc.lft.to/lastmile_qr_scan"}, "type": "electric_scooter", "name": "db84370ce7e8b68dc11dd5d92f55f72e", "is_reserved": 0, "lon": -77.04112616666667, "is_disabled": 0, "fusion_lat": 0.0, "lat": 38.9169135, "bike_id": "db84370ce7e8b68dc11dd5d92f55f72e", "fusion_lon": 0.0}, {"rental_uris": {"ios": "https://dc.lft.to/lastmile_qr_scan", "android": "https://dc.lft.to/lastmile_qr_scan"}, "type": "electric_scooter", "name": "7af2869a1c2a3a2a952e93772dd93a2c", "is_reserved": 0, "lon": -77.0385945, "is_disabled": 0, "fusion_lat": 0.0, "lat": 38.915515166666665, "bike_id": "7af2869a1c2a3a2a952e93772dd93a2c", "fusion_lon": 0.0}, {"rental_uris": {"ios": "https://dc.lft.to/lastmile_qr_scan", "android": "https://dc.lft.to/lastmile_qr_scan"}, "type": "electric_scooter", "name": "3bd494405769cec3f78b16e48f2f7ab9", "is_reserved": 0, "lon": -77.0212365, "is_disabled": 0, "fusion_lat": 0.0, "lat": 38.923258, "bike_id": "3bd494405769cec3f78b16e48f2f7ab9", "fusion_lon": 0.0}, {"rental_uris": {"ios": "https://dc.lft.to/lastmile_qr_scan", "android": "https://dc.lft.to/lastmile_qr_scan"}, "type": "electric_bike", "name": "63499796264924c163b32226f8bb0443", "is_reserved": 0, "lon": -76.958248, "is_disabled": 0, "fusion_lat": 0.0, "lat": 38.920029166666666, "bike_id": "63499796264924c163b32226f8bb0443", "fusion_lon": 0.0}, {"rental_uris": {"ios": "https://dc.lft.to/lastmile_qr_scan", "android": "https://dc.lft.to/lastmile_qr_scan"}, "type": "electric_scooter", "name": "6104cac3f536805d1fa09bb66f762fd6", "is_reserved": 0, "lon": -77.04054733333334, "is_disabled": 0, "fusion_lat": 0.0, "lat": 38.917435166666664, "bike_id": "6104cac3f536805d1fa09bb66f762fd6", "fusion_lon": 0.0}, {"rental_uris": {"ios": "https://dc.lft.to/lastmile_qr_scan", "android": "https://dc.lft.to/lastmile_qr_scan"}, "type": "electric_scooter", "name": "686b76b8d687103f77df1543936ea45b", "is_reserved": 0, "lon": -77.021301, "is_disabled": 0, "fusion_lat": 0.0, "lat": 38.924134333333335, "bike_id": "686b76b8d687103f77df1543936ea45b", "fusion_lon": 0.0}, {"rental_uris": {"ios": "https://dc.lft.to/lastmile_qr_scan", "android": "https://dc.lft.to/lastmile_qr_scan"}, "type": "electric_scooter", "name": "87bc4c601e8413d982f770f1c913b9a9", "is_reserved": 0, "lon": -77.02187216666667, "is_disabled": 0, "fusion_lat": 0.0, "lat": 38.894828, "bike_id": "87bc4c601e8413d982f770f1c913b9a9", "fusion_lon": 0.0}, {"rental_uris": {"ios": "https://dc.lft.to/lastmile_qr_scan", "android": "https://dc.lft.to/lastmile_qr_scan"}, "type": "electric_scooter", "name": "f259fff4722ff8bac8a181d1d9e624da", "is_reserved": 0, "lon": -77.03148516666667, "is_disabled": 0, "fusion_lat": 0.0, "lat": 38.918683333333334, "bike_id": "f259fff4722ff8bac8a181d1d9e624da", "fusion_lon": 0.0}, {"rental_uris": {"ios": "https://dc.lft.to/lastmile_qr_scan", "android": "https://dc.lft.to/lastmile_qr_scan"}, "type": "electric_scooter", "name": "00967e3579109f2adc0f45607bd3deb4", "is_reserved": 0, "lon": -77.04186416666667, "is_disabled": 0, "fusion_lat": 0.0, "lat": 38.911219833333334, "bike_id": "00967e3579109f2adc0f45607bd3deb4", "fusion_lon": 0.0}, {"rental_uris": {"ios": "https://dc.lft.to/lastmile_qr_scan", "android": "https://dc.lft.to/lastmile_qr_scan"}, "type": "electric_scooter", "name": "8595c223eb30482f135ba118133f8904", "is_reserved": 0, "lon": -77.05332616666666, "is_disabled": 0, "fusion_lat": 0.0, "lat": 38.90259116666667, "bike_id": "8595c223eb30482f135ba118133f8904", "fusion_lon": 0.0}, {"rental_uris": {"ios": "https://dc.lft.to/lastmile_qr_scan", "android": "https://dc.lft.to/lastmile_qr_scan"}, "type": "electric_scooter", "name": "f58ae37df34f297f5ec5b563205c8091", "is_reserved": 0, "lon": -77.03207983333333, "is_disabled": 0, "fusion_lat": 0.0, "lat": 38.892364, "bike_id": "f58ae37df34f297f5ec5b563205c8091", "fusion_lon": 0.0}, {"rental_uris": {"ios": "https://dc.lft.to/lastmile_qr_scan", "android": "https://dc.lft.to/lastmile_qr_scan"}, "type": "electric_scooter", "name": "381c5fa108bc335d9cda628c1b53357b", "is_reserved": 0, "lon": -76.988848, "is_disabled": 0, "fusion_lat": 0.0, "lat": 38.89952916666667, "bike_id": "381c5fa108bc335d9cda628c1b53357b", "fusion_lon": 0.0}, {"rental_uris": {"ios": "https://dc.lft.to/lastmile_qr_scan", "android": "https://dc.lft.to/lastmile_qr_scan"}, "type": "electric_scooter", "name": "f8764dfb3ffeb053224a3bf40145974b", "is_reserved": 0, "lon": -77.04148483333333, "is_disabled": 0, "fusion_lat": 0.0, "lat": 38.901467333333336, "bike_id": "f8764dfb3ffeb053224a3bf40145974b", "fusion_lon": 0.0}, {"rental_uris": {"ios": "https://dc.lft.to/lastmile_qr_scan", "android": "https://dc.lft.to/lastmile_qr_scan"}, "type": "electric_scooter", "name": "bd567ba305cbe36d7b254e6eab8f0014", "is_reserved": 0, "lon": -77.0318805, "is_disabled": 0, "fusion_lat": 0.0, "lat": 38.924873166666664, "bike_id": "bd567ba305cbe36d7b254e6eab8f0014", "fusion_lon": 0.0}, {"rental_uris": {"ios": "https://dc.lft.to/lastmile_qr_scan", "android": "https://dc.lft.to/lastmile_qr_scan"}, "type": "electric_scooter", "name": "453bb87a3d9887c76316f84668484890", "is_reserved": 0, "lon": -77.0074815, "is_disabled": 0, "fusion_lat": 0.0, "lat": 38.8983425, "bike_id": "453bb87a3d9887c76316f84668484890", "fusion_lon": 0.0}, {"rental_uris": {"ios": "https://dc.lft.to/lastmile_qr_scan", "android": "https://dc.lft.to/lastmile_qr_scan"}, "type": "electric_scooter", "name": "dd3155f8c25d2b08992f8209facec083", "is_reserved": 0, "lon": -77.03234483333334, "is_disabled": 0, "fusion_lat": 0.0, "lat": 38.907240333333334, "bike_id": "dd3155f8c25d2b08992f8209facec083", "fusion_lon": 0.0}, {"rental_uris": {"ios": "https://dc.lft.to/lastmile_qr_scan", "android": "https://dc.lft.to/lastmile_qr_scan"}, "type": "electric_scooter", "name": "714aee3834acc021aee65ee23450b5a4", "is_reserved": 0, "lon": -76.991029, "is_disabled": 0, "fusion_lat": 0.0, "lat": 38.857212833333335, "bike_id": "714aee3834acc021aee65ee23450b5a4", "fusion_lon": 0.0}, {"rental_uris": {"ios": "https://dc.lft.to/lastmile_qr_scan", "android": "https://dc.lft.to/lastmile_qr_scan"}, "type": "electric_scooter", "name": "ffd68441d56fb7432cf1e80dda66c579", "is_reserved": 0, "lon": -77.04866366666667, "is_disabled": 0, "fusion_lat": 0.0, "lat": 38.89224266666667, "bike_id": "ffd68441d56fb7432cf1e80dda66c579", "fusion_lon": 0.0}, {"rental_uris": {"ios": "https://dc.lft.to/lastmile_qr_scan", "android": "https://dc.lft.to/lastmile_qr_scan"}, "type": "electric_scooter", "name": "24e0ef56f59cdf8f2f8f114568d8e05c", "is_reserved": 0, "lon": -77.03850783333333, "is_disabled": 0, "fusion_lat": 0.0, "lat": 38.932421833333336, "bike_id": "24e0ef56f59cdf8f2f8f114568d8e05c", "fusion_lon": 0.0}, {"rental_uris": {"ios": "https://dc.lft.to/lastmile_qr_scan", "android": "https://dc.lft.to/lastmile_qr_scan"}, "type": "electric_scooter", "name": "1743e68efc294b76276fcbf2795ff390", "is_reserved": 0, "lon": -77.04504466666667, "is_disabled": 0, "fusion_lat": 0.0, "lat": 38.90499066666667, "bike_id": "1743e68efc294b76276fcbf2795ff390", "fusion_lon": 0.0}, {"rental_uris": {"ios": "https://dc.lft.to/lastmile_qr_scan", "android": "https://dc.lft.to/lastmile_qr_scan"}, "type": "electric_scooter", "name": "6f46f45b923b3d9c3742ee13d1398b0f", "is_reserved": 0, "lon": -77.0903885, "is_disabled": 0, "fusion_lat": 0.0, "lat": 38.95596716666667, "bike_id": "6f46f45b923b3d9c3742ee13d1398b0f", "fusion_lon": 0.0}, {"rental_uris": {"ios": "https://dc.lft.to/lastmile_qr_scan", "android": "https://dc.lft.to/lastmile_qr_scan"}, "type": "electric_scooter", "name": "12cea95300a61a42e070331052c6ff1a", "is_reserved": 0, "lon": -76.96979066666667, "is_disabled": 0, "fusion_lat": 0.0, "lat": 38.86143166666667, "bike_id": "12cea95300a61a42e070331052c6ff1a", "fusion_lon": 0.0}, {"rental_uris": {"ios": "https://dc.lft.to/lastmile_qr_scan", "android": "https://dc.lft.to/lastmile_qr_scan"}, "type": "electric_scooter", "name": "667721434a2d496487d37fea69abbe58", "is_reserved": 0, "lon": -77.03420633333333, "is_disabled": 0, "fusion_lat": 0.0, "lat": 38.9219995, "bike_id": "667721434a2d496487d37fea69abbe58", "fusion_lon": 0.0}, {"rental_uris": {"ios": "https://dc.lft.to/lastmile_qr_scan", "android": "https://dc.lft.to/lastmile_qr_scan"}, "type": "electric_scooter", "name": "8d4199637999656944f87a907138cfee", "is_reserved": 0, "lon": -77.03713066666667, "is_disabled": 0, "fusion_lat": 0.0, "lat": 38.9265095, "bike_id": "8d4199637999656944f87a907138cfee", "fusion_lon": 0.0}, {"rental_uris": {"ios": "https://dc.lft.to/lastmile_qr_scan", "android": "https://dc.lft.to/lastmile_qr_scan"}, "type": "electric_bike", "name": "9ca5d2a02900eed102a7aeac35fcea58", "is_reserved": 0, "lon": -77.12658816666666, "is_disabled": 0, "fusion_lat": 0.0, "lat": 38.819098, "bike_id": "9ca5d2a02900eed102a7aeac35fcea58", "fusion_lon": 0.0}, {"rental_uris": {"ios": "https://dc.lft.to/lastmile_qr_scan", "android": "https://dc.lft.to/lastmile_qr_scan"}, "type": "electric_bike", "name": "539aff2dd637f174d5b05ec3bcecc449", "is_reserved": 0, "lon": -77.08533766666666, "is_disabled": 0, "fusion_lat": 0.0, "lat": 38.85648033333333, "bike_id": "539aff2dd637f174d5b05ec3bcecc449", "fusion_lon": 0.0}, {"rental_uris": {"ios": "https://dc.lft.to/lastmile_qr_scan", "android": "https://dc.lft.to/lastmile_qr_scan"}, "type": "electric_scooter", "name": "2247dc2aa92b251d1996c2c84b2da492", "is_reserved": 0, "lon": -77.0415355, "is_disabled": 0, "fusion_lat": 0.0, "lat": 38.901440666666666, "bike_id": "2247dc2aa92b251d1996c2c84b2da492", "fusion_lon": 0.0}, {"rental_uris": {"ios": "https://dc.lft.to/lastmile_qr_scan", "android": "https://dc.lft.to/lastmile_qr_scan"}, "type": "electric_scooter", "name": "d92f4e7d3d5ed99c7303fab2cbedd8eb", "is_reserved": 0, "lon": -77.01949883333333, "is_disabled": 0, "fusion_lat": 0.0, "lat": 38.9243105, "bike_id": "d92f4e7d3d5ed99c7303fab2cbedd8eb", "fusion_lon": 0.0}, {"rental_uris": {"ios": "https://dc.lft.to/lastmile_qr_scan", "android": "https://dc.lft.to/lastmile_qr_scan"}, "type": "electric_scooter", "name": "3cb67548125eb657497a975d4ee79629", "is_reserved": 0, "lon": -76.99610866666667, "is_disabled": 0, "fusion_lat": 0.0, "lat": 38.87730616666666, "bike_id": "3cb67548125eb657497a975d4ee79629", "fusion_lon": 0.0}, {"rental_uris": {"ios": "https://dc.lft.to/lastmile_qr_scan", "android": "https://dc.lft.to/lastmile_qr_scan"}, "type": "electric_scooter", "name": "7e8236d159a3894b8a59564de6f3bf35", "is_reserved": 0, "lon": -77.02383633333334, "is_disabled": 0, "fusion_lat": 0.0, "lat": 38.909594, "bike_id": "7e8236d159a3894b8a59564de6f3bf35", "fusion_lon": 0.0}, {"rental_uris": {"ios": "https://dc.lft.to/lastmile_qr_scan", "android": "https://dc.lft.to/lastmile_qr_scan"}, "type": "electric_bike", "name": "22ed803f9a1a1afea5246a31e5b33385", "is_reserved": 0, "lon": -76.93333566666666, "is_disabled": 0, "fusion_lat": 0.0, "lat": 38.95152733333333, "bike_id": "22ed803f9a1a1afea5246a31e5b33385", "fusion_lon": 0.0}, {"rental_uris": {"ios": "https://dc.lft.to/lastmile_qr_scan", "android": "https://dc.lft.to/lastmile_qr_scan"}, "type": "electric_scooter", "name": "c422a55a7270b6f8769e8370385e2172", "is_reserved": 0, "lon": -77.03443333333334, "is_disabled": 0, "fusion_lat": 0.0, "lat": 38.90724783333334, "bike_id": "c422a55a7270b6f8769e8370385e2172", "fusion_lon": 0.0}, {"rental_uris": {"ios": "https://dc.lft.to/lastmile_qr_scan", "android": "https://dc.lft.to/lastmile_qr_scan"}, "type": "electric_scooter", "name": "cc3808145c784b4e01a63180b5a0db49", "is_reserved": 0, "lon": -77.03849983333333, "is_disabled": 0, "fusion_lat": 0.0, "lat": 38.912321166666665, "bike_id": "cc3808145c784b4e01a63180b5a0db49", "fusion_lon": 0.0}, {"rental_uris": {"ios": "https://dc.lft.to/lastmile_qr_scan", "android": "https://dc.lft.to/lastmile_qr_scan"}, "type": "electric_scooter", "name": "af001c45180b2285d090b248a84c6c23", "is_reserved": 0, "lon": -77.0317965, "is_disabled": 0, "fusion_lat": 0.0, "lat": 38.892275, "bike_id": "af001c45180b2285d090b248a84c6c23", "fusion_lon": 0.0}, {"rental_uris": {"ios": "https://dc.lft.to/lastmile_qr_scan", "android": "https://dc.lft.to/lastmile_qr_scan"}, "type": "electric_scooter", "name": "6a6d4c15c8abfd7100e1fd76be808af8", "is_reserved": 0, "lon": -77.02675966666666, "is_disabled": 0, "fusion_lat": 0.0, "lat": 38.984333166666666, "bike_id": "6a6d4c15c8abfd7100e1fd76be808af8", "fusion_lon": 0.0}, {"rental_uris": {"ios": "https://dc.lft.to/lastmile_qr_scan", "android": "https://dc.lft.to/lastmile_qr_scan"}, "type": "electric_scooter", "name": "8e47e8700fbd59f48b7972d9e56b6dfc", "is_reserved": 0, "lon": -76.99965133333333, "is_disabled": 0, "fusion_lat": 0.0, "lat": 38.88660333333333, "bike_id": "8e47e8700fbd59f48b7972d9e56b6dfc", "fusion_lon": 0.0}, {"rental_uris": {"ios": "https://dc.lft.to/lastmile_qr_scan", "android": "https://dc.lft.to/lastmile_qr_scan"}, "type": "electric_scooter", "name": "1f242b79630d9dd9a687294100970328", "is_reserved": 0, "lon": -77.0404665, "is_disabled": 0, "fusion_lat": 0.0, "lat": 38.92315883333333, "bike_id": "1f242b79630d9dd9a687294100970328", "fusion_lon": 0.0}, {"rental_uris": {"ios": "https://dc.lft.to/lastmile_qr_scan", "android": "https://dc.lft.to/lastmile_qr_scan"}, "type": "electric_scooter", "name": "1f056b9c82c90f5a820a805ed26c8be6", "is_reserved": 0, "lon": -77.03989066666666, "is_disabled": 0, "fusion_lat": 0.0, "lat": 38.924913833333335, "bike_id": "1f056b9c82c90f5a820a805ed26c8be6", "fusion_lon": 0.0}, {"rental_uris": {"ios": "https://dc.lft.to/lastmile_qr_scan", "android": "https://dc.lft.to/lastmile_qr_scan"}, "type": "electric_scooter", "name": "d741d2dc76c5e7fffb79c30f1848c9c4", "is_reserved": 0, "lon": -77.05230683333333, "is_disabled": 0, "fusion_lat": 0.0, "lat": 38.898491166666666, "bike_id": "d741d2dc76c5e7fffb79c30f1848c9c4", "fusion_lon": 0.0}, {"rental_uris": {"ios": "https://dc.lft.to/lastmile_qr_scan", "android": "https://dc.lft.to/lastmile_qr_scan"}, "type": "electric_bike", "name": "db8f446683c2f6a6c0503e7c67a0bab3", "is_reserved": 0, "lon": -77.01216433333333, "is_disabled": 0, "fusion_lat": 0.0, "lat": 38.87069366666667, "bike_id": "db8f446683c2f6a6c0503e7c67a0bab3", "fusion_lon": 0.0}, {"rental_uris": {"ios": "https://dc.lft.to/lastmile_qr_scan", "android": "https://dc.lft.to/lastmile_qr_scan"}, "type": "electric_bike", "name": "fc851eb17e0c9d166b7644a3556cb57d", "is_reserved": 0, "lon": -77.01657866666666, "is_disabled": 0, "fusion_lat": 0.0, "lat": 38.881512, "bike_id": "fc851eb17e0c9d166b7644a3556cb57d", "fusion_lon": 0.0}, {"rental_uris": {"ios": "https://dc.lft.to/lastmile_qr_scan", "android": "https://dc.lft.to/lastmile_qr_scan"}, "type": "electric_scooter", "name": "4dbd3dd12a3b441ae4e7b0f79fc83d46", "is_reserved": 0, "lon": -77.03833033333333, "is_disabled": 0, "fusion_lat": 0.0, "lat": 38.915601, "bike_id": "4dbd3dd12a3b441ae4e7b0f79fc83d46", "fusion_lon": 0.0}, {"rental_uris": {"ios": "https://dc.lft.to/lastmile_qr_scan", "android": "https://dc.lft.to/lastmile_qr_scan"}, "type": "electric_bike", "name": "3ef4b14c2f4cf4b26b35056cee55ac28", "is_reserved": 0, "lon": -76.98814233333333, "is_disabled": 0, "fusion_lat": 0.0, "lat": 38.84274383333333, "bike_id": "3ef4b14c2f4cf4b26b35056cee55ac28", "fusion_lon": 0.0}, {"rental_uris": {"ios": "https://dc.lft.to/lastmile_qr_scan", "android": "https://dc.lft.to/lastmile_qr_scan"}, "type": "electric_scooter", "name": "95484e80be825f062c79954fd3e396e9", "is_reserved": 0, "lon": -77.02431966666667, "is_disabled": 0, "fusion_lat": 0.0, "lat": 38.93289266666667, "bike_id": "95484e80be825f062c79954fd3e396e9", "fusion_lon": 0.0}, {"rental_uris": {"ios": "https://dc.lft.to/lastmile_qr_scan", "android": "https://dc.lft.to/lastmile_qr_scan"}, "type": "electric_bike", "name": "80a57efb47b649965862c2c16f72bf33", "is_reserved": 0, "lon": -77.04073683333333, "is_disabled": 0, "fusion_lat": 0.0, "lat": 38.993716, "bike_id": "80a57efb47b649965862c2c16f72bf33", "fusion_lon": 0.0}, {"rental_uris": {"ios": "https://dc.lft.to/lastmile_qr_scan", "android": "https://dc.lft.to/lastmile_qr_scan"}, "type": "electric_scooter", "name": "234e9d22a9b4e749d9ba359d024ec1bc", "is_reserved": 0, "lon": -77.053502, "is_disabled": 0, "fusion_lat": 0.0, "lat": 38.90460483333333, "bike_id": "234e9d22a9b4e749d9ba359d024ec1bc", "fusion_lon": 0.0}, {"rental_uris": {"ios": "https://dc.lft.to/lastmile_qr_scan", "android": "https://dc.lft.to/lastmile_qr_scan"}, "type": "electric_scooter", "name": "805137cb8f812ab27677fe7eea2daacd", "is_reserved": 0, "lon": -77.048677, "is_disabled": 0, "fusion_lat": 0.0, "lat": 38.89220016666667, "bike_id": "805137cb8f812ab27677fe7eea2daacd", "fusion_lon": 0.0}, {"rental_uris": {"ios": "https://dc.lft.to/lastmile_qr_scan", "android": "https://dc.lft.to/lastmile_qr_scan"}, "type": "electric_scooter", "name": "a1d0fe7f916b50117f2ceb746c84b1d2", "is_reserved": 0, "lon": -77.0432895, "is_disabled": 0, "fusion_lat": 0.0, "lat": 38.90832483333333, "bike_id": "a1d0fe7f916b50117f2ceb746c84b1d2", "fusion_lon": 0.0}, {"rental_uris": {"ios": "https://dc.lft.to/lastmile_qr_scan", "android": "https://dc.lft.to/lastmile_qr_scan"}, "type": "electric_scooter", "name": "5a7c76e8080ddf82e594f1c62bb993dc", "is_reserved": 0, "lon": -77.03859883333334, "is_disabled": 0, "fusion_lat": 0.0, "lat": 38.90728266666667, "bike_id": "5a7c76e8080ddf82e594f1c62bb993dc", "fusion_lon": 0.0}, {"rental_uris": {"ios": "https://dc.lft.to/lastmile_qr_scan", "android": "https://dc.lft.to/lastmile_qr_scan"}, "type": "electric_scooter", "name": "ebde5b976c21ed1bc90acdad80d252bb", "is_reserved": 0, "lon": -77.0259765, "is_disabled": 0, "fusion_lat": 0.0, "lat": 38.88409166666667, "bike_id": "ebde5b976c21ed1bc90acdad80d252bb", "fusion_lon": 0.0}, {"rental_uris": {"ios": "https://dc.lft.to/lastmile_qr_scan", "android": "https://dc.lft.to/lastmile_qr_scan"}, "type": "electric_scooter", "name": "3bff5ba82b601ab9727929b561cef924", "is_reserved": 0, "lon": -77.0459995, "is_disabled": 0, "fusion_lat": 0.0, "lat": 38.9185645, "bike_id": "3bff5ba82b601ab9727929b561cef924", "fusion_lon": 0.0}, {"rental_uris": {"ios": "https://dc.lft.to/lastmile_qr_scan", "android": "https://dc.lft.to/lastmile_qr_scan"}, "type": "electric_scooter", "name": "832f00a14cc044a0c280475190dcc810", "is_reserved": 0, "lon": -77.0281585, "is_disabled": 0, "fusion_lat": 0.0, "lat": 38.923685166666665, "bike_id": "832f00a14cc044a0c280475190dcc810", "fusion_lon": 0.0}, {"rental_uris": {"ios": "https://dc.lft.to/lastmile_qr_scan", "android": "https://dc.lft.to/lastmile_qr_scan"}, "type": "electric_scooter", "name": "19ec4835f55b223a2df370257c11694c", "is_reserved": 0, "lon": -77.0228975, "is_disabled": 0, "fusion_lat": 0.0, "lat": 38.90790833333333, "bike_id": "19ec4835f55b223a2df370257c11694c", "fusion_lon": 0.0}, {"rental_uris": {"ios": "https://dc.lft.to/lastmile_qr_scan", "android": "https://dc.lft.to/lastmile_qr_scan"}, "type": "electric_scooter", "name": "f62847e4f3f81dd0d8e89ac043dfc343", "is_reserved": 0, "lon": -77.02346783333333, "is_disabled": 0, "fusion_lat": 0.0, "lat": 38.929652, "bike_id": "f62847e4f3f81dd0d8e89ac043dfc343", "fusion_lon": 0.0}, {"rental_uris": {"ios": "https://dc.lft.to/lastmile_qr_scan", "android": "https://dc.lft.to/lastmile_qr_scan"}, "type": "electric_scooter", "name": "b65ec93a31b3c2d3cecc84147b827301", "is_reserved": 0, "lon": -77.02301733333333, "is_disabled": 0, "fusion_lat": 0.0, "lat": 38.961260333333335, "bike_id": "b65ec93a31b3c2d3cecc84147b827301", "fusion_lon": 0.0}, {"rental_uris": {"ios": "https://dc.lft.to/lastmile_qr_scan", "android": "https://dc.lft.to/lastmile_qr_scan"}, "type": "electric_scooter", "name": "a8ea2b421950242ef3e49ecd1c56026a", "is_reserved": 0, "lon": -77.03327783333333, "is_disabled": 0, "fusion_lat": 0.0, "lat": 38.903137, "bike_id": "a8ea2b421950242ef3e49ecd1c56026a", "fusion_lon": 0.0}, {"rental_uris": {"ios": "https://dc.lft.to/lastmile_qr_scan", "android": "https://dc.lft.to/lastmile_qr_scan"}, "type": "electric_scooter", "name": "b92330536162921999f69e26af9641d9", "is_reserved": 0, "lon": -77.0338795, "is_disabled": 0, "fusion_lat": 0.0, "lat": 38.910348, "bike_id": "b92330536162921999f69e26af9641d9", "fusion_lon": 0.0}, {"rental_uris": {"ios": "https://dc.lft.to/lastmile_qr_scan", "android": "https://dc.lft.to/lastmile_qr_scan"}, "type": "electric_scooter", "name": "36e75615c0ca857265a6115100be1490", "is_reserved": 0, "lon": -77.041402, "is_disabled": 0, "fusion_lat": 0.0, "lat": 38.93471616666667, "bike_id": "36e75615c0ca857265a6115100be1490", "fusion_lon": 0.0}, {"rental_uris": {"ios": "https://dc.lft.to/lastmile_qr_scan", "android": "https://dc.lft.to/lastmile_qr_scan"}, "type": "electric_scooter", "name": "03db0bef0b2f4802f3a19eb42545a3ea", "is_reserved": 0, "lon": -77.03414616666667, "is_disabled": 0, "fusion_lat": 0.0, "lat": 38.91981716666667, "bike_id": "03db0bef0b2f4802f3a19eb42545a3ea", "fusion_lon": 0.0}, {"rental_uris": {"ios": "https://dc.lft.to/lastmile_qr_scan", "android": "https://dc.lft.to/lastmile_qr_scan"}, "type": "electric_scooter", "name": "6ce56c1e5b5fe030bea4709b3faeaa44", "is_reserved": 0, "lon": -77.0282825, "is_disabled": 0, "fusion_lat": 0.0, "lat": 38.92969383333333, "bike_id": "6ce56c1e5b5fe030bea4709b3faeaa44", "fusion_lon": 0.0}, {"rental_uris": {"ios": "https://dc.lft.to/lastmile_qr_scan", "android": "https://dc.lft.to/lastmile_qr_scan"}, "type": "electric_scooter", "name": "90add39f83172b26a427b823ee54d4e6", "is_reserved": 0, "lon": -76.99419516666667, "is_disabled": 0, "fusion_lat": 0.0, "lat": 38.92101383333333, "bike_id": "90add39f83172b26a427b823ee54d4e6", "fusion_lon": 0.0}, {"rental_uris": {"ios": "https://dc.lft.to/lastmile_qr_scan", "android": "https://dc.lft.to/lastmile_qr_scan"}, "type": "electric_bike", "name": "cda6f1ab43e6d5132c9c5da108ea2708", "is_reserved": 0, "lon": -76.99845, "is_disabled": 0, "fusion_lat": 0.0, "lat": 38.899983, "bike_id": "cda6f1ab43e6d5132c9c5da108ea2708", "fusion_lon": 0.0}, {"rental_uris": {"ios": "https://dc.lft.to/lastmile_qr_scan", "android": "https://dc.lft.to/lastmile_qr_scan"}, "type": "electric_scooter", "name": "02038d623323eaaeeb43086f864e1c12", "is_reserved": 0, "lon": -77.03177533333333, "is_disabled": 0, "fusion_lat": 0.0, "lat": 38.89228166666667, "bike_id": "02038d623323eaaeeb43086f864e1c12", "fusion_lon": 0.0}, {"rental_uris": {"ios": "https://dc.lft.to/lastmile_qr_scan", "android": "https://dc.lft.to/lastmile_qr_scan"}, "type": "electric_scooter", "name": "db28ca2f41fe5149ba261686fa88badc", "is_reserved": 0, "lon": -77.04027716666667, "is_disabled": 0, "fusion_lat": 0.0, "lat": 38.918323666666666, "bike_id": "db28ca2f41fe5149ba261686fa88badc", "fusion_lon": 0.0}, {"rental_uris": {"ios": "https://dc.lft.to/lastmile_qr_scan", "android": "https://dc.lft.to/lastmile_qr_scan"}, "type": "electric_scooter", "name": "48f3424a9d98e8ae68662b3451494244", "is_reserved": 0, "lon": -77.0383715, "is_disabled": 0, "fusion_lat": 0.0, "lat": 38.91068933333333, "bike_id": "48f3424a9d98e8ae68662b3451494244", "fusion_lon": 0.0}, {"rental_uris": {"ios": "https://dc.lft.to/lastmile_qr_scan", "android": "https://dc.lft.to/lastmile_qr_scan"}, "type": "electric_scooter", "name": "45c63506bfa5f57685da94717f999902", "is_reserved": 0, "lon": -77.007395, "is_disabled": 0, "fusion_lat": 0.0, "lat": 38.8765215, "bike_id": "45c63506bfa5f57685da94717f999902", "fusion_lon": 0.0}, {"rental_uris": {"ios": "https://dc.lft.to/lastmile_qr_scan", "android": "https://dc.lft.to/lastmile_qr_scan"}, "type": "electric_scooter", "name": "cdefd572b9dbecd18bb67be8baaca98e", "is_reserved": 0, "lon": -77.05025716666667, "is_disabled": 0, "fusion_lat": 0.0, "lat": 38.923578, "bike_id": "cdefd572b9dbecd18bb67be8baaca98e", "fusion_lon": 0.0}, {"rental_uris": {"ios": "https://dc.lft.to/lastmile_qr_scan", "android": "https://dc.lft.to/lastmile_qr_scan"}, "type": "electric_scooter", "name": "635e96db2834dd05b25dd60d4e96feb8", "is_reserved": 0, "lon": -77.02417733333333, "is_disabled": 0, "fusion_lat": 0.0, "lat": 38.909576666666666, "bike_id": "635e96db2834dd05b25dd60d4e96feb8", "fusion_lon": 0.0}, {"rental_uris": {"ios": "https://dc.lft.to/lastmile_qr_scan", "android": "https://dc.lft.to/lastmile_qr_scan"}, "type": "electric_scooter", "name": "fa8aea32ec423af3f7963b0c54474d3c", "is_reserved": 0, "lon": -77.03566116666667, "is_disabled": 0, "fusion_lat": 0.0, "lat": 38.904735333333335, "bike_id": "fa8aea32ec423af3f7963b0c54474d3c", "fusion_lon": 0.0}, {"rental_uris": {"ios": "https://dc.lft.to/lastmile_qr_scan", "android": "https://dc.lft.to/lastmile_qr_scan"}, "type": "electric_scooter", "name": "13abffaa6b31a71ac7d9ab5648257383", "is_reserved": 0, "lon": -77.0449215, "is_disabled": 0, "fusion_lat": 0.0, "lat": 38.89336616666667, "bike_id": "13abffaa6b31a71ac7d9ab5648257383", "fusion_lon": 0.0}, {"rental_uris": {"ios": "https://dc.lft.to/lastmile_qr_scan", "android": "https://dc.lft.to/lastmile_qr_scan"}, "type": "electric_scooter", "name": "7e27ecbfb898d7b20256a15d5fa9acc6", "is_reserved": 0, "lon": -77.0095355, "is_disabled": 0, "fusion_lat": 0.0, "lat": 38.876341333333336, "bike_id": "7e27ecbfb898d7b20256a15d5fa9acc6", "fusion_lon": 0.0}, {"rental_uris": {"ios": "https://dc.lft.to/lastmile_qr_scan", "android": "https://dc.lft.to/lastmile_qr_scan"}, "type": "electric_scooter", "name": "15ae25dfc13fc4fc04d795cb029571ec", "is_reserved": 0, "lon": -77.010883, "is_disabled": 0, "fusion_lat": 0.0, "lat": 38.90325766666667, "bike_id": "15ae25dfc13fc4fc04d795cb029571ec", "fusion_lon": 0.0}, {"rental_uris": {"ios": "https://dc.lft.to/lastmile_qr_scan", "android": "https://dc.lft.to/lastmile_qr_scan"}, "type": "electric_scooter", "name": "9df76b98a97df5438e076058bfed6a41", "is_reserved": 0, "lon": -77.05601166666666, "is_disabled": 0, "fusion_lat": 0.0, "lat": 38.93703583333333, "bike_id": "9df76b98a97df5438e076058bfed6a41", "fusion_lon": 0.0}, {"rental_uris": {"ios": "https://dc.lft.to/lastmile_qr_scan", "android": "https://dc.lft.to/lastmile_qr_scan"}, "type": "electric_scooter", "name": "295442ce5e42fe8d1c7ebea6e893605a", "is_reserved": 0, "lon": -77.026758, "is_disabled": 0, "fusion_lat": 0.0, "lat": 38.90053183333333, "bike_id": "295442ce5e42fe8d1c7ebea6e893605a", "fusion_lon": 0.0}, {"rental_uris": {"ios": "https://dc.lft.to/lastmile_qr_scan", "android": "https://dc.lft.to/lastmile_qr_scan"}, "type": "electric_bike", "name": "d3e531039e530a7f9d63b58a5309a53c", "is_reserved": 0, "lon": -77.01272716666666, "is_disabled": 0, "fusion_lat": 0.0, "lat": 38.86958516666667, "bike_id": "d3e531039e530a7f9d63b58a5309a53c", "fusion_lon": 0.0}, {"rental_uris": {"ios": "https://dc.lft.to/lastmile_qr_scan", "android": "https://dc.lft.to/lastmile_qr_scan"}, "type": "electric_scooter", "name": "7225e8bdafaaf156f7dd888e2a314cf4", "is_reserved": 0, "lon": -77.05069633333333, "is_disabled": 0, "fusion_lat": 0.0, "lat": 38.92580183333333, "bike_id": "7225e8bdafaaf156f7dd888e2a314cf4", "fusion_lon": 0.0}, {"rental_uris": {"ios": "https://dc.lft.to/lastmile_qr_scan", "android": "https://dc.lft.to/lastmile_qr_scan"}, "type": "electric_scooter", "name": "100df070b9169d22ebcd5bcc99a1ae98", "is_reserved": 0, "lon": -77.03155533333333, "is_disabled": 0, "fusion_lat": 0.0, "lat": 38.91609033333334, "bike_id": "100df070b9169d22ebcd5bcc99a1ae98", "fusion_lon": 0.0}, {"rental_uris": {"ios": "https://dc.lft.to/lastmile_qr_scan", "android": "https://dc.lft.to/lastmile_qr_scan"}, "type": "electric_bike", "name": "8becf87b0c8078befefb0c65f9a533ba", "is_reserved": 0, "lon": -77.00500233333334, "is_disabled": 0, "fusion_lat": 0.0, "lat": 38.91101466666667, "bike_id": "8becf87b0c8078befefb0c65f9a533ba", "fusion_lon": 0.0}, {"rental_uris": {"ios": "https://dc.lft.to/lastmile_qr_scan", "android": "https://dc.lft.to/lastmile_qr_scan"}, "type": "electric_scooter", "name": "6247ea4314a4399d62b91c1af2f1cb97", "is_reserved": 0, "lon": -77.03846533333333, "is_disabled": 0, "fusion_lat": 0.0, "lat": 38.91546533333333, "bike_id": "6247ea4314a4399d62b91c1af2f1cb97", "fusion_lon": 0.0}, {"rental_uris": {"ios": "https://dc.lft.to/lastmile_qr_scan", "android": "https://dc.lft.to/lastmile_qr_scan"}, "type": "electric_scooter", "name": "485fbaa2e0f7fe861dd35f387340a312", "is_reserved": 0, "lon": -76.9298865, "is_disabled": 0, "fusion_lat": 0.0, "lat": 38.89291333333333, "bike_id": "485fbaa2e0f7fe861dd35f387340a312", "fusion_lon": 0.0}, {"rental_uris": {"ios": "https://dc.lft.to/lastmile_qr_scan", "android": "https://dc.lft.to/lastmile_qr_scan"}, "type": "electric_scooter", "name": "12949466d76883486ddd1e355b09efa3", "is_reserved": 0, "lon": -76.97411266666667, "is_disabled": 0, "fusion_lat": 0.0, "lat": 38.901421166666665, "bike_id": "12949466d76883486ddd1e355b09efa3", "fusion_lon": 0.0}, {"rental_uris": {"ios": "https://dc.lft.to/lastmile_qr_scan", "android": "https://dc.lft.to/lastmile_qr_scan"}, "type": "electric_scooter", "name": "71c1a87c59065995747c019310a1b9f6", "is_reserved": 0, "lon": -77.04163683333333, "is_disabled": 0, "fusion_lat": 0.0, "lat": 38.91517966666667, "bike_id": "71c1a87c59065995747c019310a1b9f6", "fusion_lon": 0.0}, {"rental_uris": {"ios": "https://dc.lft.to/lastmile_qr_scan", "android": "https://dc.lft.to/lastmile_qr_scan"}, "type": "electric_scooter", "name": "57c38516263fc225450a511e211db4d7", "is_reserved": 0, "lon": -77.00659133333333, "is_disabled": 0, "fusion_lat": 0.0, "lat": 38.899994666666665, "bike_id": "57c38516263fc225450a511e211db4d7", "fusion_lon": 0.0}, {"rental_uris": {"ios": "https://dc.lft.to/lastmile_qr_scan", "android": "https://dc.lft.to/lastmile_qr_scan"}, "type": "electric_scooter", "name": "fed38510c6d33559f4cf6322970c5016", "is_reserved": 0, "lon": -77.02213316666666, "is_disabled": 0, "fusion_lat": 0.0, "lat": 38.924677, "bike_id": "fed38510c6d33559f4cf6322970c5016", "fusion_lon": 0.0}, {"rental_uris": {"ios": "https://dc.lft.to/lastmile_qr_scan", "android": "https://dc.lft.to/lastmile_qr_scan"}, "type": "electric_scooter", "name": "760ca156b2bbd406d832e11b04622fb9", "is_reserved": 0, "lon": -77.03210483333334, "is_disabled": 0, "fusion_lat": 0.0, "lat": 38.89230933333333, "bike_id": "760ca156b2bbd406d832e11b04622fb9", "fusion_lon": 0.0}, {"rental_uris": {"ios": "https://dc.lft.to/lastmile_qr_scan", "android": "https://dc.lft.to/lastmile_qr_scan"}, "type": "electric_scooter", "name": "6303d7fb0ef5f651eee13e320cca9158", "is_reserved": 0, "lon": -76.97723833333333, "is_disabled": 0, "fusion_lat": 0.0, "lat": 38.8882015, "bike_id": "6303d7fb0ef5f651eee13e320cca9158", "fusion_lon": 0.0}, {"rental_uris": {"ios": "https://dc.lft.to/lastmile_qr_scan", "android": "https://dc.lft.to/lastmile_qr_scan"}, "type": "electric_scooter", "name": "8f378315c2537116dfb17e4136c8f0b4", "is_reserved": 0, "lon": -77.0466455, "is_disabled": 0, "fusion_lat": 0.0, "lat": 38.905575, "bike_id": "8f378315c2537116dfb17e4136c8f0b4", "fusion_lon": 0.0}, {"rental_uris": {"ios": "https://dc.lft.to/lastmile_qr_scan", "android": "https://dc.lft.to/lastmile_qr_scan"}, "type": "electric_bike", "name": "4330b801b5d6fe01f0e777bdf1672e65", "is_reserved": 0, "lon": -77.0842075, "is_disabled": 0, "fusion_lat": 0.0, "lat": 38.863518166666665, "bike_id": "4330b801b5d6fe01f0e777bdf1672e65", "fusion_lon": 0.0}, {"rental_uris": {"ios": "https://dc.lft.to/lastmile_qr_scan", "android": "https://dc.lft.to/lastmile_qr_scan"}, "type": "electric_scooter", "name": "c1ad7856396d257b6a1127007b94768f", "is_reserved": 0, "lon": -77.0381465, "is_disabled": 0, "fusion_lat": 0.0, "lat": 38.91423266666666, "bike_id": "c1ad7856396d257b6a1127007b94768f", "fusion_lon": 0.0}, {"rental_uris": {"ios": "https://dc.lft.to/lastmile_qr_scan", "android": "https://dc.lft.to/lastmile_qr_scan"}, "type": "electric_scooter", "name": "618040d7e62576125e3300755e65c259", "is_reserved": 0, "lon": -76.99160833333333, "is_disabled": 0, "fusion_lat": 0.0, "lat": 38.900355166666664, "bike_id": "618040d7e62576125e3300755e65c259", "fusion_lon": 0.0}, {"rental_uris": {"ios": "https://dc.lft.to/lastmile_qr_scan", "android": "https://dc.lft.to/lastmile_qr_scan"}, "type": "electric_scooter", "name": "7a0c393c31c80208b12c2781fad62a96", "is_reserved": 0, "lon": -77.02224966666667, "is_disabled": 0, "fusion_lat": 0.0, "lat": 38.8922015, "bike_id": "7a0c393c31c80208b12c2781fad62a96", "fusion_lon": 0.0}, {"rental_uris": {"ios": "https://dc.lft.to/lastmile_qr_scan", "android": "https://dc.lft.to/lastmile_qr_scan"}, "type": "electric_scooter", "name": "7909fcebca54f6346d2ba501fb5155e5", "is_reserved": 0, "lon": -77.03462483333334, "is_disabled": 0, "fusion_lat": 0.0, "lat": 38.91018283333333, "bike_id": "7909fcebca54f6346d2ba501fb5155e5", "fusion_lon": 0.0}, {"rental_uris": {"ios": "https://dc.lft.to/lastmile_qr_scan", "android": "https://dc.lft.to/lastmile_qr_scan"}, "type": "electric_scooter", "name": "bdd91a09bcfc5a0fab0296bc2ac02da5", "is_reserved": 0, "lon": -77.05599533333333, "is_disabled": 0, "fusion_lat": 0.0, "lat": 38.894232, "bike_id": "bdd91a09bcfc5a0fab0296bc2ac02da5", "fusion_lon": 0.0}, {"rental_uris": {"ios": "https://dc.lft.to/lastmile_qr_scan", "android": "https://dc.lft.to/lastmile_qr_scan"}, "type": "electric_scooter", "name": "1eca12128de5a0243ef6bed222455135", "is_reserved": 0, "lon": -77.01025383333334, "is_disabled": 0, "fusion_lat": 0.0, "lat": 38.91405133333333, "bike_id": "1eca12128de5a0243ef6bed222455135", "fusion_lon": 0.0}, {"rental_uris": {"ios": "https://dc.lft.to/lastmile_qr_scan", "android": "https://dc.lft.to/lastmile_qr_scan"}, "type": "electric_scooter", "name": "6ca314dc14c9bceca77318f8f22b71dd", "is_reserved": 0, "lon": -77.04229083333334, "is_disabled": 0, "fusion_lat": 0.0, "lat": 38.921934, "bike_id": "6ca314dc14c9bceca77318f8f22b71dd", "fusion_lon": 0.0}, {"rental_uris": {"ios": "https://dc.lft.to/lastmile_qr_scan", "android": "https://dc.lft.to/lastmile_qr_scan"}, "type": "electric_scooter", "name": "0926856156fce8b3f940e47a5e9d7c1a", "is_reserved": 0, "lon": -77.03246166666666, "is_disabled": 0, "fusion_lat": 0.0, "lat": 38.93137083333333, "bike_id": "0926856156fce8b3f940e47a5e9d7c1a", "fusion_lon": 0.0}, {"rental_uris": {"ios": "https://dc.lft.to/lastmile_qr_scan", "android": "https://dc.lft.to/lastmile_qr_scan"}, "type": "electric_scooter", "name": "0305d75aaa570680238382f6d92f27fb", "is_reserved": 0, "lon": -77.01362616666667, "is_disabled": 0, "fusion_lat": 0.0, "lat": 38.91935816666667, "bike_id": "0305d75aaa570680238382f6d92f27fb", "fusion_lon": 0.0}, {"rental_uris": {"ios": "https://dc.lft.to/lastmile_qr_scan", "android": "https://dc.lft.to/lastmile_qr_scan"}, "type": "electric_scooter", "name": "947e8879363faac7784efaa4de2251a6", "is_reserved": 0, "lon": -77.04481916666667, "is_disabled": 0, "fusion_lat": 0.0, "lat": 38.924222666666665, "bike_id": "947e8879363faac7784efaa4de2251a6", "fusion_lon": 0.0}, {"rental_uris": {"ios": "https://dc.lft.to/lastmile_qr_scan", "android": "https://dc.lft.to/lastmile_qr_scan"}, "type": "electric_scooter", "name": "6d1af4aee81a6b5553a9d2560bb2cf5c", "is_reserved": 0, "lon": -77.02000633333333, "is_disabled": 0, "fusion_lat": 0.0, "lat": 38.93022633333333, "bike_id": "6d1af4aee81a6b5553a9d2560bb2cf5c", "fusion_lon": 0.0}, {"rental_uris": {"ios": "https://dc.lft.to/lastmile_qr_scan", "android": "https://dc.lft.to/lastmile_qr_scan"}, "type": "electric_scooter", "name": "03fee056c2606005bb86bf70a0dbcd34", "is_reserved": 0, "lon": -77.03362766666666, "is_disabled": 0, "fusion_lat": 0.0, "lat": 38.93048616666667, "bike_id": "03fee056c2606005bb86bf70a0dbcd34", "fusion_lon": 0.0}, {"rental_uris": {"ios": "https://dc.lft.to/lastmile_qr_scan", "android": "https://dc.lft.to/lastmile_qr_scan"}, "type": "electric_scooter", "name": "a7de81b2e1b0f27afa47fff558dde12c", "is_reserved": 0, "lon": -77.029703, "is_disabled": 0, "fusion_lat": 0.0, "lat": 38.892233833333336, "bike_id": "a7de81b2e1b0f27afa47fff558dde12c", "fusion_lon": 0.0}, {"rental_uris": {"ios": "https://dc.lft.to/lastmile_qr_scan", "android": "https://dc.lft.to/lastmile_qr_scan"}, "type": "electric_scooter", "name": "81102acc9a09d6aebbcad71dedb28dd6", "is_reserved": 0, "lon": -77.03304366666667, "is_disabled": 0, "fusion_lat": 0.0, "lat": 38.9245185, "bike_id": "81102acc9a09d6aebbcad71dedb28dd6", "fusion_lon": 0.0}, {"rental_uris": {"ios": "https://dc.lft.to/lastmile_qr_scan", "android": "https://dc.lft.to/lastmile_qr_scan"}, "type": "electric_scooter", "name": "57a2197f327058db013201003f2eca01", "is_reserved": 0, "lon": -77.02092816666666, "is_disabled": 0, "fusion_lat": 0.0, "lat": 38.92704783333333, "bike_id": "57a2197f327058db013201003f2eca01", "fusion_lon": 0.0}, {"rental_uris": {"ios": "https://dc.lft.to/lastmile_qr_scan", "android": "https://dc.lft.to/lastmile_qr_scan"}, "type": "electric_scooter", "name": "ff95bbce79bd43b6d661a9c4351ffc70", "is_reserved": 0, "lon": -77.02143516666666, "is_disabled": 0, "fusion_lat": 0.0, "lat": 38.913251, "bike_id": "ff95bbce79bd43b6d661a9c4351ffc70", "fusion_lon": 0.0}, {"rental_uris": {"ios": "https://dc.lft.to/lastmile_qr_scan", "android": "https://dc.lft.to/lastmile_qr_scan"}, "type": "electric_scooter", "name": "985f733bec5965d9a06a7f7f967906f0", "is_reserved": 0, "lon": -77.01945083333334, "is_disabled": 0, "fusion_lat": 0.0, "lat": 38.923094666666664, "bike_id": "985f733bec5965d9a06a7f7f967906f0", "fusion_lon": 0.0}, {"rental_uris": {"ios": "https://dc.lft.to/lastmile_qr_scan", "android": "https://dc.lft.to/lastmile_qr_scan"}, "type": "electric_scooter", "name": "3f4c3c1e5d24e197e887161fde14c60d", "is_reserved": 0, "lon": -77.0196435, "is_disabled": 0, "fusion_lat": 0.0, "lat": 38.89971533333333, "bike_id": "3f4c3c1e5d24e197e887161fde14c60d", "fusion_lon": 0.0}, {"rental_uris": {"ios": "https://dc.lft.to/lastmile_qr_scan", "android": "https://dc.lft.to/lastmile_qr_scan"}, "type": "electric_scooter", "name": "fe596f5a21899b0d80b684350b34fc2a", "is_reserved": 0, "lon": -77.02008716666667, "is_disabled": 0, "fusion_lat": 0.0, "lat": 38.90046866666667, "bike_id": "fe596f5a21899b0d80b684350b34fc2a", "fusion_lon": 0.0}, {"rental_uris": {"ios": "https://dc.lft.to/lastmile_qr_scan", "android": "https://dc.lft.to/lastmile_qr_scan"}, "type": "electric_scooter", "name": "fdc2e858ae93dccc0472f4b1ca802a5d", "is_reserved": 0, "lon": -77.0021375, "is_disabled": 0, "fusion_lat": 0.0, "lat": 38.900302, "bike_id": "fdc2e858ae93dccc0472f4b1ca802a5d", "fusion_lon": 0.0}, {"rental_uris": {"ios": "https://dc.lft.to/lastmile_qr_scan", "android": "https://dc.lft.to/lastmile_qr_scan"}, "type": "electric_scooter", "name": "7abcd7f5702be847924ede0e16590f4b", "is_reserved": 0, "lon": -76.98042033333333, "is_disabled": 0, "fusion_lat": 0.0, "lat": 38.91681616666666, "bike_id": "7abcd7f5702be847924ede0e16590f4b", "fusion_lon": 0.0}, {"rental_uris": {"ios": "https://dc.lft.to/lastmile_qr_scan", "android": "https://dc.lft.to/lastmile_qr_scan"}, "type": "electric_scooter", "name": "5b8caffac9c4ee264f4fd9def1cc1817", "is_reserved": 0, "lon": -77.02710433333333, "is_disabled": 0, "fusion_lat": 0.0, "lat": 38.89724833333333, "bike_id": "5b8caffac9c4ee264f4fd9def1cc1817", "fusion_lon": 0.0}, {"rental_uris": {"ios": "https://dc.lft.to/lastmile_qr_scan", "android": "https://dc.lft.to/lastmile_qr_scan"}, "type": "electric_scooter", "name": "924f0328f71b0aa2f3502c46bb814eef", "is_reserved": 0, "lon": -77.0496985, "is_disabled": 0, "fusion_lat": 0.0, "lat": 38.913273, "bike_id": "924f0328f71b0aa2f3502c46bb814eef", "fusion_lon": 0.0}, {"rental_uris": {"ios": "https://dc.lft.to/lastmile_qr_scan", "android": "https://dc.lft.to/lastmile_qr_scan"}, "type": "electric_scooter", "name": "054c0470d2885ada4929bc70edd9e3b8", "is_reserved": 0, "lon": -77.00350483333334, "is_disabled": 0, "fusion_lat": 0.0, "lat": 38.916146833333336, "bike_id": "054c0470d2885ada4929bc70edd9e3b8", "fusion_lon": 0.0}, {"rental_uris": {"ios": "https://dc.lft.to/lastmile_qr_scan", "android": "https://dc.lft.to/lastmile_qr_scan"}, "type": "electric_scooter", "name": "a25feb65ad99969692e72c687e707c6e", "is_reserved": 0, "lon": -77.0414335, "is_disabled": 0, "fusion_lat": 0.0, "lat": 38.934018333333334, "bike_id": "a25feb65ad99969692e72c687e707c6e", "fusion_lon": 0.0}, {"rental_uris": {"ios": "https://dc.lft.to/lastmile_qr_scan", "android": "https://dc.lft.to/lastmile_qr_scan"}, "type": "electric_bike", "name": "5143d09c9814fb407b44f4672ad76b2f", "is_reserved": 0, "lon": -76.94173433333333, "is_disabled": 0, "fusion_lat": 0.0, "lat": 38.865547, "bike_id": "5143d09c9814fb407b44f4672ad76b2f", "fusion_lon": 0.0}, {"rental_uris": {"ios": "https://dc.lft.to/lastmile_qr_scan", "android": "https://dc.lft.to/lastmile_qr_scan"}, "type": "electric_scooter", "name": "a8a929d2e55c0497d3629e3b81ff9884", "is_reserved": 0, "lon": -77.02582716666667, "is_disabled": 0, "fusion_lat": 0.0, "lat": 38.89652316666667, "bike_id": "a8a929d2e55c0497d3629e3b81ff9884", "fusion_lon": 0.0}, {"rental_uris": {"ios": "https://dc.lft.to/lastmile_qr_scan", "android": "https://dc.lft.to/lastmile_qr_scan"}, "type": "electric_scooter", "name": "fd1d1da7afeebeb770812119e2b487b8", "is_reserved": 0, "lon": -77.02856733333333, "is_disabled": 0, "fusion_lat": 0.0, "lat": 38.932596, "bike_id": "fd1d1da7afeebeb770812119e2b487b8", "fusion_lon": 0.0}, {"rental_uris": {"ios": "https://dc.lft.to/lastmile_qr_scan", "android": "https://dc.lft.to/lastmile_qr_scan"}, "type": "electric_scooter", "name": "2339a5869a89f7e5a57f8a36502871c7", "is_reserved": 0, "lon": -77.06275283333333, "is_disabled": 0, "fusion_lat": 0.0, "lat": 38.90495716666667, "bike_id": "2339a5869a89f7e5a57f8a36502871c7", "fusion_lon": 0.0}, {"rental_uris": {"ios": "https://dc.lft.to/lastmile_qr_scan", "android": "https://dc.lft.to/lastmile_qr_scan"}, "type": "electric_bike", "name": "e604cea8bb16a55b2f4263af65192679", "is_reserved": 0, "lon": -77.0765245, "is_disabled": 0, "fusion_lat": 0.0, "lat": 38.88848433333333, "bike_id": "e604cea8bb16a55b2f4263af65192679", "fusion_lon": 0.0}, {"rental_uris": {"ios": "https://dc.lft.to/lastmile_qr_scan", "android": "https://dc.lft.to/lastmile_qr_scan"}, "type": "electric_scooter", "name": "dfecea84d552e5e926073638d39ebbbd", "is_reserved": 0, "lon": -77.0249965, "is_disabled": 0, "fusion_lat": 0.0, "lat": 38.942103, "bike_id": "dfecea84d552e5e926073638d39ebbbd", "fusion_lon": 0.0}, {"rental_uris": {"ios": "https://dc.lft.to/lastmile_qr_scan", "android": "https://dc.lft.to/lastmile_qr_scan"}, "type": "electric_scooter", "name": "a4e983f26c6377f293f309ea8ea5515e", "is_reserved": 0, "lon": -76.98314983333333, "is_disabled": 0, "fusion_lat": 0.0, "lat": 38.925818, "bike_id": "a4e983f26c6377f293f309ea8ea5515e", "fusion_lon": 0.0}, {"rental_uris": {"ios": "https://dc.lft.to/lastmile_qr_scan", "android": "https://dc.lft.to/lastmile_qr_scan"}, "type": "electric_scooter", "name": "1452489fbd8e2ed0053fef08f8cf290b", "is_reserved": 0, "lon": -77.02574416666667, "is_disabled": 0, "fusion_lat": 0.0, "lat": 38.887403166666665, "bike_id": "1452489fbd8e2ed0053fef08f8cf290b", "fusion_lon": 0.0}, {"rental_uris": {"ios": "https://dc.lft.to/lastmile_qr_scan", "android": "https://dc.lft.to/lastmile_qr_scan"}, "type": "electric_scooter", "name": "6264cd02522c6665c52a8e7e0b7a9ec5", "is_reserved": 0, "lon": -77.0232555, "is_disabled": 0, "fusion_lat": 0.0, "lat": 38.91789683333333, "bike_id": "6264cd02522c6665c52a8e7e0b7a9ec5", "fusion_lon": 0.0}, {"rental_uris": {"ios": "https://dc.lft.to/lastmile_qr_scan", "android": "https://dc.lft.to/lastmile_qr_scan"}, "type": "electric_bike", "name": "0b11d4addb362011494e8b96c6f3c49a", "is_reserved": 0, "lon": -77.0227875, "is_disabled": 0, "fusion_lat": 0.0, "lat": 38.9233385, "bike_id": "0b11d4addb362011494e8b96c6f3c49a", "fusion_lon": 0.0}, {"rental_uris": {"ios": "https://dc.lft.to/lastmile_qr_scan", "android": "https://dc.lft.to/lastmile_qr_scan"}, "type": "electric_scooter", "name": "25724e6c4e9559b94469885565d0f35d", "is_reserved": 0, "lon": -77.06327333333333, "is_disabled": 0, "fusion_lat": 0.0, "lat": 38.91338666666667, "bike_id": "25724e6c4e9559b94469885565d0f35d", "fusion_lon": 0.0}, {"rental_uris": {"ios": "https://dc.lft.to/lastmile_qr_scan", "android": "https://dc.lft.to/lastmile_qr_scan"}, "type": "electric_bike", "name": "93801f63edf761a18612e1778fd3a395", "is_reserved": 0, "lon": -77.03300933333334, "is_disabled": 0, "fusion_lat": 0.0, "lat": 38.9226815, "bike_id": "93801f63edf761a18612e1778fd3a395", "fusion_lon": 0.0}, {"rental_uris": {"ios": "https://dc.lft.to/lastmile_qr_scan", "android": "https://dc.lft.to/lastmile_qr_scan"}, "type": "electric_scooter", "name": "eed7db155da7a9556e3536f890938589", "is_reserved": 0, "lon": -77.02442633333334, "is_disabled": 0, "fusion_lat": 0.0, "lat": 38.91687816666666, "bike_id": "eed7db155da7a9556e3536f890938589", "fusion_lon": 0.0}, {"rental_uris": {"ios": "https://dc.lft.to/lastmile_qr_scan", "android": "https://dc.lft.to/lastmile_qr_scan"}, "type": "electric_scooter", "name": "c67fb1eb04ce33ef2c280205097672a9", "is_reserved": 0, "lon": -76.98624616666666, "is_disabled": 0, "fusion_lat": 0.0, "lat": 38.90582116666667, "bike_id": "c67fb1eb04ce33ef2c280205097672a9", "fusion_lon": 0.0}, {"rental_uris": {"ios": "https://dc.lft.to/lastmile_qr_scan", "android": "https://dc.lft.to/lastmile_qr_scan"}, "type": "electric_scooter", "name": "eda63a967f70671eded32944b6cb6098", "is_reserved": 0, "lon": -77.02718633333333, "is_disabled": 0, "fusion_lat": 0.0, "lat": 38.9180375, "bike_id": "eda63a967f70671eded32944b6cb6098", "fusion_lon": 0.0}, {"rental_uris": {"ios": "https://dc.lft.to/lastmile_qr_scan", "android": "https://dc.lft.to/lastmile_qr_scan"}, "type": "electric_scooter", "name": "8a7389db39b738ccb747805c516a610b", "is_reserved": 0, "lon": -77.08784783333333, "is_disabled": 0, "fusion_lat": 0.0, "lat": 38.935530666666665, "bike_id": "8a7389db39b738ccb747805c516a610b", "fusion_lon": 0.0}, {"rental_uris": {"ios": "https://dc.lft.to/lastmile_qr_scan", "android": "https://dc.lft.to/lastmile_qr_scan"}, "type": "electric_bike", "name": "4ff4efaf763d0e86839d70334cc19331", "is_reserved": 0, "lon": -77.11290033333333, "is_disabled": 0, "fusion_lat": 0.0, "lat": 38.83095766666667, "bike_id": "4ff4efaf763d0e86839d70334cc19331", "fusion_lon": 0.0}, {"rental_uris": {"ios": "https://dc.lft.to/lastmile_qr_scan", "android": "https://dc.lft.to/lastmile_qr_scan"}, "type": "electric_scooter", "name": "ff46c85fe3c92cc97ca88384ee2218dc", "is_reserved": 0, "lon": -77.00193566666667, "is_disabled": 0, "fusion_lat": 0.0, "lat": 38.916363833333335, "bike_id": "ff46c85fe3c92cc97ca88384ee2218dc", "fusion_lon": 0.0}, {"rental_uris": {"ios": "https://dc.lft.to/lastmile_qr_scan", "android": "https://dc.lft.to/lastmile_qr_scan"}, "type": "electric_scooter", "name": "c42de43847c83dd7b7a6911a874e732f", "is_reserved": 0, "lon": -77.045028, "is_disabled": 0, "fusion_lat": 0.0, "lat": 38.913372833333334, "bike_id": "c42de43847c83dd7b7a6911a874e732f", "fusion_lon": 0.0}, {"rental_uris": {"ios": "https://dc.lft.to/lastmile_qr_scan", "android": "https://dc.lft.to/lastmile_qr_scan"}, "type": "electric_scooter", "name": "642f8a9899d9d7ea23e63f83cc5673f9", "is_reserved": 0, "lon": -77.02805666666667, "is_disabled": 0, "fusion_lat": 0.0, "lat": 38.934686, "bike_id": "642f8a9899d9d7ea23e63f83cc5673f9", "fusion_lon": 0.0}, {"rental_uris": {"ios": "https://dc.lft.to/lastmile_qr_scan", "android": "https://dc.lft.to/lastmile_qr_scan"}, "type": "electric_scooter", "name": "88ef7599f19a0ead5c3d8e3edef5dc48", "is_reserved": 0, "lon": -77.0307835, "is_disabled": 0, "fusion_lat": 0.0, "lat": 38.938745, "bike_id": "88ef7599f19a0ead5c3d8e3edef5dc48", "fusion_lon": 0.0}, {"rental_uris": {"ios": "https://dc.lft.to/lastmile_qr_scan", "android": "https://dc.lft.to/lastmile_qr_scan"}, "type": "electric_scooter", "name": "249531b0876ec5243db8f799ae49c74f", "is_reserved": 0, "lon": -77.03178133333333, "is_disabled": 0, "fusion_lat": 0.0, "lat": 38.892173166666666, "bike_id": "249531b0876ec5243db8f799ae49c74f", "fusion_lon": 0.0}, {"rental_uris": {"ios": "https://dc.lft.to/lastmile_qr_scan", "android": "https://dc.lft.to/lastmile_qr_scan"}, "type": "electric_scooter", "name": "6918fe6051b9f211bd5495374ded16ea", "is_reserved": 0, "lon": -77.033258, "is_disabled": 0, "fusion_lat": 0.0, "lat": 38.9003515, "bike_id": "6918fe6051b9f211bd5495374ded16ea", "fusion_lon": 0.0}, {"rental_uris": {"ios": "https://dc.lft.to/lastmile_qr_scan", "android": "https://dc.lft.to/lastmile_qr_scan"}, "type": "electric_scooter", "name": "f0cf14dc628cdd5edff59b58aa902143", "is_reserved": 0, "lon": -77.04676533333334, "is_disabled": 0, "fusion_lat": 0.0, "lat": 38.892311666666664, "bike_id": "f0cf14dc628cdd5edff59b58aa902143", "fusion_lon": 0.0}, {"rental_uris": {"ios": "https://dc.lft.to/lastmile_qr_scan", "android": "https://dc.lft.to/lastmile_qr_scan"}, "type": "electric_bike", "name": "38bf1e65899dbc9d8ffe17ea691d40cc", "is_reserved": 0, "lon": -76.99533116666667, "is_disabled": 0, "fusion_lat": 0.0, "lat": 38.920718666666666, "bike_id": "38bf1e65899dbc9d8ffe17ea691d40cc", "fusion_lon": 0.0}, {"rental_uris": {"ios": "https://dc.lft.to/lastmile_qr_scan", "android": "https://dc.lft.to/lastmile_qr_scan"}, "type": "electric_scooter", "name": "6afb523ac2f049431f389cce29e6d446", "is_reserved": 0, "lon": -77.02696133333333, "is_disabled": 0, "fusion_lat": 0.0, "lat": 38.905943, "bike_id": "6afb523ac2f049431f389cce29e6d446", "fusion_lon": 0.0}, {"rental_uris": {"ios": "https://dc.lft.to/lastmile_qr_scan", "android": "https://dc.lft.to/lastmile_qr_scan"}, "type": "electric_scooter", "name": "14d82181673636522750474318b123e5", "is_reserved": 0, "lon": -77.02405016666667, "is_disabled": 0, "fusion_lat": 0.0, "lat": 38.917106833333335, "bike_id": "14d82181673636522750474318b123e5", "fusion_lon": 0.0}, {"rental_uris": {"ios": "https://dc.lft.to/lastmile_qr_scan", "android": "https://dc.lft.to/lastmile_qr_scan"}, "type": "electric_scooter", "name": "ea6ad3c2e3ceb56a208996ce1cf4e8d4", "is_reserved": 0, "lon": -77.04120116666667, "is_disabled": 0, "fusion_lat": 0.0, "lat": 38.931012333333335, "bike_id": "ea6ad3c2e3ceb56a208996ce1cf4e8d4", "fusion_lon": 0.0}, {"rental_uris": {"ios": "https://dc.lft.to/lastmile_qr_scan", "android": "https://dc.lft.to/lastmile_qr_scan"}, "type": "electric_scooter", "name": "18375c110793e24a14218be668160639", "is_reserved": 0, "lon": -77.030317, "is_disabled": 0, "fusion_lat": 0.0, "lat": 38.89835766666667, "bike_id": "18375c110793e24a14218be668160639", "fusion_lon": 0.0}, {"rental_uris": {"ios": "https://dc.lft.to/lastmile_qr_scan", "android": "https://dc.lft.to/lastmile_qr_scan"}, "type": "electric_scooter", "name": "7e53215618fd9c75a03a59cf95c35fc6", "is_reserved": 0, "lon": -76.98577933333334, "is_disabled": 0, "fusion_lat": 0.0, "lat": 38.854446833333334, "bike_id": "7e53215618fd9c75a03a59cf95c35fc6", "fusion_lon": 0.0}, {"rental_uris": {"ios": "https://dc.lft.to/lastmile_qr_scan", "android": "https://dc.lft.to/lastmile_qr_scan"}, "type": "electric_scooter", "name": "8325d3a8409414a192b16c174761f3a6", "is_reserved": 0, "lon": -77.03222166666667, "is_disabled": 0, "fusion_lat": 0.0, "lat": 38.892231833333334, "bike_id": "8325d3a8409414a192b16c174761f3a6", "fusion_lon": 0.0}, {"rental_uris": {"ios": "https://dc.lft.to/lastmile_qr_scan", "android": "https://dc.lft.to/lastmile_qr_scan"}, "type": "electric_scooter", "name": "501f2b81de7539bc27702bec57a4a5f1", "is_reserved": 0, "lon": -77.04470333333333, "is_disabled": 0, "fusion_lat": 0.0, "lat": 38.914317833333335, "bike_id": "501f2b81de7539bc27702bec57a4a5f1", "fusion_lon": 0.0}, {"rental_uris": {"ios": "https://dc.lft.to/lastmile_qr_scan", "android": "https://dc.lft.to/lastmile_qr_scan"}, "type": "electric_scooter", "name": "8e8fe4c9c35be645a0ece0e7374d3ab5", "is_reserved": 0, "lon": -77.02426116666666, "is_disabled": 0, "fusion_lat": 0.0, "lat": 38.89734633333333, "bike_id": "8e8fe4c9c35be645a0ece0e7374d3ab5", "fusion_lon": 0.0}, {"rental_uris": {"ios": "https://dc.lft.to/lastmile_qr_scan", "android": "https://dc.lft.to/lastmile_qr_scan"}, "type": "electric_scooter", "name": "6bd059f4b295cb2254ddd0ca4f9177c8", "is_reserved": 0, "lon": -77.0346325, "is_disabled": 0, "fusion_lat": 0.0, "lat": 38.90832316666667, "bike_id": "6bd059f4b295cb2254ddd0ca4f9177c8", "fusion_lon": 0.0}, {"rental_uris": {"ios": "https://dc.lft.to/lastmile_qr_scan", "android": "https://dc.lft.to/lastmile_qr_scan"}, "type": "electric_scooter", "name": "c81c79b62f1e5684beccb175a2a4adb8", "is_reserved": 0, "lon": -77.03396366666666, "is_disabled": 0, "fusion_lat": 0.0, "lat": 38.902676166666666, "bike_id": "c81c79b62f1e5684beccb175a2a4adb8", "fusion_lon": 0.0}, {"rental_uris": {"ios": "https://dc.lft.to/lastmile_qr_scan", "android": "https://dc.lft.to/lastmile_qr_scan"}, "type": "electric_scooter", "name": "362a76bed78a23bc1eab3366f66b1059", "is_reserved": 0, "lon": -77.01768316666667, "is_disabled": 0, "fusion_lat": 0.0, "lat": 38.887245, "bike_id": "362a76bed78a23bc1eab3366f66b1059", "fusion_lon": 0.0}, {"rental_uris": {"ios": "https://dc.lft.to/lastmile_qr_scan", "android": "https://dc.lft.to/lastmile_qr_scan"}, "type": "electric_scooter", "name": "b039ea4ed8a4f2277537a703b0c62264", "is_reserved": 0, "lon": -77.04459333333334, "is_disabled": 0, "fusion_lat": 0.0, "lat": 38.90037183333333, "bike_id": "b039ea4ed8a4f2277537a703b0c62264", "fusion_lon": 0.0}, {"rental_uris": {"ios": "https://dc.lft.to/lastmile_qr_scan", "android": "https://dc.lft.to/lastmile_qr_scan"}, "type": "electric_scooter", "name": "fcef94b74344cede3e77fba5ff127765", "is_reserved": 0, "lon": -77.0319165, "is_disabled": 0, "fusion_lat": 0.0, "lat": 38.898403, "bike_id": "fcef94b74344cede3e77fba5ff127765", "fusion_lon": 0.0}, {"rental_uris": {"ios": "https://dc.lft.to/lastmile_qr_scan", "android": "https://dc.lft.to/lastmile_qr_scan"}, "type": "electric_scooter", "name": "03c8b2ef5bd6f36af02c3f9a57fa4370", "is_reserved": 0, "lon": -77.0393985, "is_disabled": 0, "fusion_lat": 0.0, "lat": 38.9017705, "bike_id": "03c8b2ef5bd6f36af02c3f9a57fa4370", "fusion_lon": 0.0}, {"rental_uris": {"ios": "https://dc.lft.to/lastmile_qr_scan", "android": "https://dc.lft.to/lastmile_qr_scan"}, "type": "electric_scooter", "name": "77e2e841759bf520f23599a41b5a43d3", "is_reserved": 0, "lon": -77.06787166666666, "is_disabled": 0, "fusion_lat": 0.0, "lat": 38.9040955, "bike_id": "77e2e841759bf520f23599a41b5a43d3", "fusion_lon": 0.0}, {"rental_uris": {"ios": "https://dc.lft.to/lastmile_qr_scan", "android": "https://dc.lft.to/lastmile_qr_scan"}, "type": "electric_scooter", "name": "32a7bc584da0b61ddf6a3091288d2733", "is_reserved": 0, "lon": -77.03226266666667, "is_disabled": 0, "fusion_lat": 0.0, "lat": 38.90979333333333, "bike_id": "32a7bc584da0b61ddf6a3091288d2733", "fusion_lon": 0.0}, {"rental_uris": {"ios": "https://dc.lft.to/lastmile_qr_scan", "android": "https://dc.lft.to/lastmile_qr_scan"}, "type": "electric_scooter", "name": "e40587c1032b108f55e501cf588f5530", "is_reserved": 0, "lon": -77.01766516666666, "is_disabled": 0, "fusion_lat": 0.0, "lat": 38.9027125, "bike_id": "e40587c1032b108f55e501cf588f5530", "fusion_lon": 0.0}, {"rental_uris": {"ios": "https://dc.lft.to/lastmile_qr_scan", "android": "https://dc.lft.to/lastmile_qr_scan"}, "type": "electric_scooter", "name": "8e5b171cc4bdf1aaf2c82efbe3941531", "is_reserved": 0, "lon": -77.04209583333333, "is_disabled": 0, "fusion_lat": 0.0, "lat": 38.92053116666666, "bike_id": "8e5b171cc4bdf1aaf2c82efbe3941531", "fusion_lon": 0.0}, {"rental_uris": {"ios": "https://dc.lft.to/lastmile_qr_scan", "android": "https://dc.lft.to/lastmile_qr_scan"}, "type": "electric_scooter", "name": "f4090b066b5e53df7888f0674898f983", "is_reserved": 0, "lon": -76.9951, "is_disabled": 0, "fusion_lat": 0.0, "lat": 38.88305116666667, "bike_id": "f4090b066b5e53df7888f0674898f983", "fusion_lon": 0.0}, {"rental_uris": {"ios": "https://dc.lft.to/lastmile_qr_scan", "android": "https://dc.lft.to/lastmile_qr_scan"}, "type": "electric_scooter", "name": "c542ed33415f71341734317ebf30b322", "is_reserved": 0, "lon": -77.04129716666667, "is_disabled": 0, "fusion_lat": 0.0, "lat": 38.933639, "bike_id": "c542ed33415f71341734317ebf30b322", "fusion_lon": 0.0}, {"rental_uris": {"ios": "https://dc.lft.to/lastmile_qr_scan", "android": "https://dc.lft.to/lastmile_qr_scan"}, "type": "electric_scooter", "name": "2f360833d74d0fc8e7d19401f6f46293", "is_reserved": 0, "lon": -77.028059, "is_disabled": 0, "fusion_lat": 0.0, "lat": 38.91676783333333, "bike_id": "2f360833d74d0fc8e7d19401f6f46293", "fusion_lon": 0.0}, {"rental_uris": {"ios": "https://dc.lft.to/lastmile_qr_scan", "android": "https://dc.lft.to/lastmile_qr_scan"}, "type": "electric_scooter", "name": "38bbfe2392722655c1a0ce15c4905918", "is_reserved": 0, "lon": -77.02588283333333, "is_disabled": 0, "fusion_lat": 0.0, "lat": 38.91411866666667, "bike_id": "38bbfe2392722655c1a0ce15c4905918", "fusion_lon": 0.0}, {"rental_uris": {"ios": "https://dc.lft.to/lastmile_qr_scan", "android": "https://dc.lft.to/lastmile_qr_scan"}, "type": "electric_bike", "name": "9913104fa6166162a860d7c00b21b987", "is_reserved": 0, "lon": -76.91723916666666, "is_disabled": 0, "fusion_lat": 0.0, "lat": 38.88024633333333, "bike_id": "9913104fa6166162a860d7c00b21b987", "fusion_lon": 0.0}, {"rental_uris": {"ios": "https://dc.lft.to/lastmile_qr_scan", "android": "https://dc.lft.to/lastmile_qr_scan"}, "type": "electric_scooter", "name": "714ed775c79f7f46420c690193d851f1", "is_reserved": 0, "lon": -77.05325683333334, "is_disabled": 0, "fusion_lat": 0.0, "lat": 38.90265183333333, "bike_id": "714ed775c79f7f46420c690193d851f1", "fusion_lon": 0.0}, {"rental_uris": {"ios": "https://dc.lft.to/lastmile_qr_scan", "android": "https://dc.lft.to/lastmile_qr_scan"}, "type": "electric_scooter", "name": "072efc5223115bc6d6e8126ec156ff0b", "is_reserved": 0, "lon": -77.0332405, "is_disabled": 0, "fusion_lat": 0.0, "lat": 38.918028666666665, "bike_id": "072efc5223115bc6d6e8126ec156ff0b", "fusion_lon": 0.0}, {"rental_uris": {"ios": "https://dc.lft.to/lastmile_qr_scan", "android": "https://dc.lft.to/lastmile_qr_scan"}, "type": "electric_scooter", "name": "0b6c048d0a0b8bf38a37133aac4a58d6", "is_reserved": 0, "lon": -77.03855766666666, "is_disabled": 0, "fusion_lat": 0.0, "lat": 38.9319625, "bike_id": "0b6c048d0a0b8bf38a37133aac4a58d6", "fusion_lon": 0.0}, {"rental_uris": {"ios": "https://dc.lft.to/lastmile_qr_scan", "android": "https://dc.lft.to/lastmile_qr_scan"}, "type": "electric_scooter", "name": "2dc55ae8a1962898ef227aaea5d412b5", "is_reserved": 0, "lon": -77.05270533333334, "is_disabled": 0, "fusion_lat": 0.0, "lat": 38.9255715, "bike_id": "2dc55ae8a1962898ef227aaea5d412b5", "fusion_lon": 0.0}, {"rental_uris": {"ios": "https://dc.lft.to/lastmile_qr_scan", "android": "https://dc.lft.to/lastmile_qr_scan"}, "type": "electric_scooter", "name": "f13185d5a49b42b200a247f89d21555c", "is_reserved": 0, "lon": -77.03935583333333, "is_disabled": 0, "fusion_lat": 0.0, "lat": 38.90164166666667, "bike_id": "f13185d5a49b42b200a247f89d21555c", "fusion_lon": 0.0}, {"rental_uris": {"ios": "https://dc.lft.to/lastmile_qr_scan", "android": "https://dc.lft.to/lastmile_qr_scan"}, "type": "electric_scooter", "name": "86ab6cdcacc266f46ac2a81ec6d73563", "is_reserved": 0, "lon": -77.03204583333333, "is_disabled": 0, "fusion_lat": 0.0, "lat": 38.89848716666667, "bike_id": "86ab6cdcacc266f46ac2a81ec6d73563", "fusion_lon": 0.0}, {"rental_uris": {"ios": "https://dc.lft.to/lastmile_qr_scan", "android": "https://dc.lft.to/lastmile_qr_scan"}, "type": "electric_scooter", "name": "c5b646bf519d0936e91e5ca88151f4c4", "is_reserved": 0, "lon": -76.9918275, "is_disabled": 0, "fusion_lat": 0.0, "lat": 38.889322166666666, "bike_id": "c5b646bf519d0936e91e5ca88151f4c4", "fusion_lon": 0.0}, {"rental_uris": {"ios": "https://dc.lft.to/lastmile_qr_scan", "android": "https://dc.lft.to/lastmile_qr_scan"}, "type": "electric_scooter", "name": "2580b6070c554aacec6eafa68de6cab9", "is_reserved": 0, "lon": -77.0137655, "is_disabled": 0, "fusion_lat": 0.0, "lat": 38.869561833333336, "bike_id": "2580b6070c554aacec6eafa68de6cab9", "fusion_lon": 0.0}, {"rental_uris": {"ios": "https://dc.lft.to/lastmile_qr_scan", "android": "https://dc.lft.to/lastmile_qr_scan"}, "type": "electric_scooter", "name": "ffeacbcb621e7d58e75add20ac37b75d", "is_reserved": 0, "lon": -77.03384283333334, "is_disabled": 0, "fusion_lat": 0.0, "lat": 38.90263733333333, "bike_id": "ffeacbcb621e7d58e75add20ac37b75d", "fusion_lon": 0.0}, {"rental_uris": {"ios": "https://dc.lft.to/lastmile_qr_scan", "android": "https://dc.lft.to/lastmile_qr_scan"}, "type": "electric_scooter", "name": "36289fa02bb4321a69214445cd9d4071", "is_reserved": 0, "lon": -77.02532483333333, "is_disabled": 0, "fusion_lat": 0.0, "lat": 38.920764166666665, "bike_id": "36289fa02bb4321a69214445cd9d4071", "fusion_lon": 0.0}, {"rental_uris": {"ios": "https://dc.lft.to/lastmile_qr_scan", "android": "https://dc.lft.to/lastmile_qr_scan"}, "type": "electric_scooter", "name": "711d5e48badcce86f61f2af6f974e555", "is_reserved": 0, "lon": -77.003352, "is_disabled": 0, "fusion_lat": 0.0, "lat": 38.897252, "bike_id": "711d5e48badcce86f61f2af6f974e555", "fusion_lon": 0.0}, {"rental_uris": {"ios": "https://dc.lft.to/lastmile_qr_scan", "android": "https://dc.lft.to/lastmile_qr_scan"}, "type": "electric_scooter", "name": "037575eb83966df9f899f8f66048be37", "is_reserved": 0, "lon": -77.02952433333333, "is_disabled": 0, "fusion_lat": 0.0, "lat": 38.905009666666665, "bike_id": "037575eb83966df9f899f8f66048be37", "fusion_lon": 0.0}, {"rental_uris": {"ios": "https://dc.lft.to/lastmile_qr_scan", "android": "https://dc.lft.to/lastmile_qr_scan"}, "type": "electric_scooter", "name": "ba8415a408ea965acf16e7d6e4f036e1", "is_reserved": 0, "lon": -77.0549495, "is_disabled": 0, "fusion_lat": 0.0, "lat": 38.90843483333333, "bike_id": "ba8415a408ea965acf16e7d6e4f036e1", "fusion_lon": 0.0}, {"rental_uris": {"ios": "https://dc.lft.to/lastmile_qr_scan", "android": "https://dc.lft.to/lastmile_qr_scan"}, "type": "electric_scooter", "name": "b3ee77659b5b7b7422c936d8ed93bcd4", "is_reserved": 0, "lon": -76.97937366666666, "is_disabled": 0, "fusion_lat": 0.0, "lat": 38.91600483333333, "bike_id": "b3ee77659b5b7b7422c936d8ed93bcd4", "fusion_lon": 0.0}, {"rental_uris": {"ios": "https://dc.lft.to/lastmile_qr_scan", "android": "https://dc.lft.to/lastmile_qr_scan"}, "type": "electric_scooter", "name": "99a99ce78611f48f62b0c9c95783f6f6", "is_reserved": 0, "lon": -76.973324, "is_disabled": 0, "fusion_lat": 0.0, "lat": 38.90408866666667, "bike_id": "99a99ce78611f48f62b0c9c95783f6f6", "fusion_lon": 0.0}, {"rental_uris": {"ios": "https://dc.lft.to/lastmile_qr_scan", "android": "https://dc.lft.to/lastmile_qr_scan"}, "type": "electric_scooter", "name": "1171f91b8af6bcfa0a764330f89a3f49", "is_reserved": 0, "lon": -77.00574433333334, "is_disabled": 0, "fusion_lat": 0.0, "lat": 38.874583, "bike_id": "1171f91b8af6bcfa0a764330f89a3f49", "fusion_lon": 0.0},