{"data": {"bikes": [{"lat": 39.00383633333333, "is_disabled": 0, "type": "electric_bike", "lon": -77.01283916666667, "bike_id": "9748310bfb4349994207f91b4c265ff4", "fusion_lat": 0.0, "name": "9748310bfb4349994207f91b4c265ff4", "is_reserved": 0, "rental_uris": {"android": "https://dc.lft.to/lastmile_qr_scan", "ios": "https://dc.lft.to/lastmile_qr_scan"}, "fusion_lon": 0.0}, {"lat": 38.91612416666667, "is_disabled": 0, "type": "electric_scooter", "lon": -77.04876633333333, "bike_id": "e29846323902714f946db1c3b308a58b", "fusion_lat": 0.0, "name": "e29846323902714f946db1c3b308a58b", "is_reserved": 0, "rental_uris": {"android": "https://dc.lft.to/lastmile_qr_scan", "ios": "https://dc.lft.to/lastmile_qr_scan"}, "fusion_lon": 0.0}, {"lat": 38.89746, "is_disabled": 0, "type": "electric_scooter", "lon": -77.04465566666667, "bike_id": "8021aea27b3318ccc41222da91f81c77", "fusion_lat": 0.0, "name": "8021aea27b3318ccc41222da91f81c77", "is_reserved": 0, "rental_uris": {"android": "https://dc.lft.to/lastmile_qr_scan", "ios": "https://dc.lft.to/lastmile_qr_scan"}, "fusion_lon": 0.0}, {"lat": 38.9140705, "is_disabled": 0, "type": "electric_scooter", "lon": -77.03250883333334, "bike_id": "c18a3f1bf7a06dbcc8d4512b6d3d5823", "fusion_lat": 0.0, "name": "c18a3f1bf7a06dbcc8d4512b6d3d5823", "is_reserved": 0, "rental_uris": {"android": "https://dc.lft.to/lastmile_qr_scan", "ios": "https://dc.lft.to/lastmile_qr_scan"}, "fusion_lon": 0.0}, {"lat": 38.855135833333335, "is_disabled": 0, "type": "electric_bike", "lon": -77.12013616666667, "bike_id": "45a62216bd665459cb55afb58ac91200", "fusion_lat": 0.0, "name": "45a62216bd665459cb55afb58ac91200", "is_reserved": 0, "rental_uris": {"android": "https://dc.lft.to/lastmile_qr_scan", "ios": "https://dc.lft.to/lastmile_qr_scan"}, "fusion_lon": 0.0}, {"lat": 38.896555166666666, "is_disabled": 0, "type": "electric_scooter", "lon": -77.02305083333333, "bike_id": "a520e369b876dbb65315729186d99910", "fusion_lat": 0.0, "name": "a520e369b876dbb65315729186d99910", "is_reserved": 0, "rental_uris": {"android": "https://dc.lft.to/lastmile_qr_scan", "ios": "https://dc.lft.to/lastmile_qr_scan"}, "fusion_lon": 0.0}, {"lat": 38.90207, "is_disabled": 0, "type": "electric_scooter", "lon": -77.02174616666667, "bike_id": "4047bb761e9d5f8b2deb0b219067a4e0", "fusion_lat": 0.0, "name": "4047bb761e9d5f8b2deb0b219067a4e0", "is_reserved": 0, "rental_uris": {"android": "https://dc.lft.to/lastmile_qr_scan", "ios": "https://dc.lft.to/lastmile_qr_scan"}, "fusion_lon": 0.0}, {"lat": 38.911713666666664, "is_disabled": 0, "type": "electric_scooter", "lon": -77.0384525, "bike_id": "f0175be2f8cd4a34fc07a7967a8672d7", "fusion_lat": 0.0, "name": "f0175be2f8cd4a34fc07a7967a8672d7", "is_reserved": 0, "rental_uris": {"android": "https://dc.lft.to/lastmile_qr_scan", "ios": "https://dc.lft.to/lastmile_qr_scan"}, "fusion_lon": 0.0}, {"lat": 38.917113, "is_disabled": 0, "type": "electric_scooter", "lon": -77.04023383333333, "bike_id": "954153efb0f97b94f59925881f0ceeda", "fusion_lat": 0.0, "name": "954153efb0f97b94f59925881f0ceeda", "is_reserved": 0, "rental_uris": {"android": "https://dc.lft.to/lastmile_qr_scan", "ios": "https://dc.lft.to/lastmile_qr_scan"}, "fusion_lon": 0.0}, {"lat": 38.9231905, "is_disabled": 0, "type": "electric_scooter", "lon": -77.04361766666666, "bike_id": "ab832a79ad5baa2cfa883d77ad18e54a", "fusion_lat": 0.0, "name": "ab832a79ad5baa2cfa883d77ad18e54a", "is_reserved": 0, "rental_uris": {"android": "https://dc.lft.to/lastmile_qr_scan", "ios": "https://dc.lft.to/lastmile_qr_scan"}, "fusion_lon": 0.0}, {"lat": 38.85647866666667, "is_disabled": 0, "type": "electric_bike", "lon": -77.11247383333334, "bike_id": "21d04b73350b52e72a416f0fb6ba77df", "fusion_lat": 0.0, "name": "21d04b73350b52e72a416f0fb6ba77df", "is_reserved": 0, "rental_uris": {"android": "https://dc.lft.to/lastmile_qr_scan", "ios": "https://dc.lft.to/lastmile_qr_scan"}, "fusion_lon": 0.0}, {"lat": 38.91601433333334, "is_disabled": 0, "type": "electric_scooter", "lon": -77.02694466666667, "bike_id": "5c78ef86462ba1e787e6f04f4b08ff13", "fusion_lat": 0.0, "name": "5c78ef86462ba1e787e6f04f4b08ff13", "is_reserved": 0, "rental_uris": {"android": "https://dc.lft.to/lastmile_qr_scan", "ios": "https://dc.lft.to/lastmile_qr_scan"}, "fusion_lon": 0.0}, {"lat": 38.883881333333335, "is_disabled": 0, "type": "electric_scooter", "lon": -77.024308, "bike_id": "45df64366de51e15c682b7847705563d", "fusion_lat": 0.0, "name": "45df64366de51e15c682b7847705563d", "is_reserved": 0, "rental_uris": {"android": "https://dc.lft.to/lastmile_qr_scan", "ios": "https://dc.lft.to/lastmile_qr_scan"}, "fusion_lon": 0.0}, {"lat": 38.918192166666664, "is_disabled": 0, "type": "electric_scooter", "lon": -77.02719033333334, "bike_id": "6886e0d06650fd4dc591347f8f6237d2", "fusion_lat": 0.0, "name": "6886e0d06650fd4dc591347f8f6237d2", "is_reserved": 0, "rental_uris": {"android": "https://dc.lft.to/lastmile_qr_scan", "ios": "https://dc.lft.to/lastmile_qr_scan"}, "fusion_lon": 0.0}, {"lat": 38.882626333333334, "is_disabled": 0, "type": "electric_scooter", "lon": -76.98825, "bike_id": "332b5353bd4c2a098f4b326a06d2e4a1", "fusion_lat": 0.0, "name": "332b5353bd4c2a098f4b326a06d2e4a1", "is_reserved": 0, "rental_uris": {"android": "https://dc.lft.to/lastmile_qr_scan", "ios": "https://dc.lft.to/lastmile_qr_scan"}, "fusion_lon": 0.0}, {"lat": 38.91043116666667, "is_disabled": 0, "type": "electric_scooter", "lon": -77.04121083333334, "bike_id": "4be00df976a4973e76bfdc28b968afd8", "fusion_lat": 0.0, "name": "4be00df976a4973e76bfdc28b968afd8", "is_reserved": 0, "rental_uris": {"android": "https://dc.lft.to/lastmile_qr_scan", "ios": "https://dc.lft.to/lastmile_qr_scan"}, "fusion_lon": 0.0}, {"lat": 38.929870333333334, "is_disabled": 0, "type": "electric_scooter", "lon": -77.03827916666667, "bike_id": "858b4de3d2e4a0f3882086f2f6b9f294", "fusion_lat": 0.0, "name": "858b4de3d2e4a0f3882086f2f6b9f294", "is_reserved": 0, "rental_uris": {"android": "https://dc.lft.to/lastmile_qr_scan", "ios": "https://dc.lft.to/lastmile_qr_scan"}, "fusion_lon": 0.0}, {"lat": 38.91064266666667, "is_disabled": 0, "type": "electric_scooter", "lon": -77.02917633333334, "bike_id": "5ae3d56e646efb666a62692c3fe0fb39", "fusion_lat": 0.0, "name": "5ae3d56e646efb666a62692c3fe0fb39", "is_reserved": 0, "rental_uris": {"android": "https://dc.lft.to/lastmile_qr_scan", "ios": "https://dc.lft.to/lastmile_qr_scan"}, "fusion_lon": 0.0}, {"lat": 38.93335183333333, "is_disabled": 0, "type": "electric_scooter", "lon": -77.0572045, "bike_id": "abe2db319e51fa9a192afcea0ec5d16d", "fusion_lat": 0.0, "name": "abe2db319e51fa9a192afcea0ec5d16d", "is_reserved": 0, "rental_uris": {"android": "https://dc.lft.to/lastmile_qr_scan", "ios": "https://dc.lft.to/lastmile_qr_scan"}, "fusion_lon": 0.0}, {"lat": 38.90373866666667, "is_disabled": 0, "type": "electric_scooter", "lon": -77.040999, "bike_id": "51a05c6b838ad9728c67c8b62333338d", "fusion_lat": 0.0, "name": "51a05c6b838ad9728c67c8b62333338d", "is_reserved": 0, "rental_uris": {"android": "https://dc.lft.to/lastmile_qr_scan", "ios": "https://dc.lft.to/lastmile_qr_scan"}, "fusion_lon": 0.0}, {"lat": 38.905166666666666, "is_disabled": 0, "type": "electric_scooter", "lon": -77.04483383333333, "bike_id": "4741a1ec430f1d497589d2398d71bc95", "fusion_lat": 0.0, "name": "4741a1ec430f1d497589d2398d71bc95", "is_reserved": 0, "rental_uris": {"android": "https://dc.lft.to/lastmile_qr_scan", "ios": "https://dc.lft.to/lastmile_qr_scan"}, "fusion_lon": 0.0}, {"lat": 38.999982333333335, "is_disabled": 0, "type": "electric_bike", "lon": -76.9249485, "bike_id": "c616b283b620c8b4f90042920f399b00", "fusion_lat": 0.0, "name": "c616b283b620c8b4f90042920f399b00", "is_reserved": 0, "rental_uris": {"android": "https://dc.lft.to/lastmile_qr_scan", "ios": "https://dc.lft.to/lastmile_qr_scan"}, "fusion_lon": 0.0}, {"lat": 38.93194916666667, "is_disabled": 0, "type": "electric_scooter", "lon": -77.02832933333333, "bike_id": "5c9294a9429ba3b24847e698d77a3670", "fusion_lat": 0.0, "name": "5c9294a9429ba3b24847e698d77a3670", "is_reserved": 0, "rental_uris": {"android": "https://dc.lft.to/lastmile_qr_scan", "ios": "https://dc.lft.to/lastmile_qr_scan"}, "fusion_lon": 0.0}, {"lat": 38.86108433333333, "is_disabled": 0, "type": "electric_scooter", "lon": -76.9833595, "bike_id": "665ba9da269fac609e0638aa3d9202e6", "fusion_lat": 0.0, "name": "665ba9da269fac609e0638aa3d9202e6", "is_reserved": 0, "rental_uris": {"android": "https://dc.lft.to/lastmile_qr_scan", "ios": "https://dc.lft.to/lastmile_qr_scan"}, "fusion_lon": 0.0}, {"lat": 38.891056666666664, "is_disabled": 0, "type": "electric_scooter", "lon": -76.95236883333334, "bike_id": "e14fcdf202166eb6fcefb2c762595f58", "fusion_lat": 0.0, "name": "e14fcdf202166eb6fcefb2c762595f58", "is_reserved": 0, "rental_uris": {"android": "https://dc.lft.to/lastmile_qr_scan", "ios": "https://dc.lft.to/lastmile_qr_scan"}, "fusion_lon": 0.0}, {"lat": 38.93660633333333, "is_disabled": 0, "type": "electric_scooter", "lon": -77.02388633333334, "bike_id": "dfe972f0d39a92e1e771d53915a431bd", "fusion_lat": 0.0, "name": "dfe972f0d39a92e1e771d53915a431bd", "is_reserved": 0, "rental_uris": {"android": "https://dc.lft.to/lastmile_qr_scan", "ios": "https://dc.lft.to/lastmile_qr_scan"}, "fusion_lon": 0.0}, {"lat": 38.90063983333334, "is_disabled": 0, "type": "electric_scooter", "lon": -76.9338815, "bike_id": "6d12f5da74f1eabc8ccf1073bebef09a", "fusion_lat": 0.0, "name": "6d12f5da74f1eabc8ccf1073bebef09a", "is_reserved": 0, "rental_uris": {"android": "https://dc.lft.to/lastmile_qr_scan", "ios": "https://dc.lft.to/lastmile_qr_scan"}, "fusion_lon": 0.0}, {"lat": 38.908844333333334, "is_disabled": 0, "type": "electric_scooter", "lon": -77.04322233333333, "bike_id": "29322c298ccf2047d8c52f5c131ca6c3", "fusion_lat": 0.0, "name": "29322c298ccf2047d8c52f5c131ca6c3", "is_reserved": 0, "rental_uris": {"android": "https://dc.lft.to/lastmile_qr_scan", "ios": "https://dc.lft.to/lastmile_qr_scan"}, "fusion_lon": 0.0}, {"lat": 38.900951666666664, "is_disabled": 0, "type": "electric_scooter", "lon": -77.0498405, "bike_id": "0beedab14cee3040e06f41184de13949", "fusion_lat": 0.0, "name": "0beedab14cee3040e06f41184de13949", "is_reserved": 0, "rental_uris": {"android": "https://dc.lft.to/lastmile_qr_scan", "ios": "https://dc.lft.to/lastmile_qr_scan"}, "fusion_lon": 0.0}, {"lat": 38.919406333333335, "is_disabled": 0, "type": "electric_scooter", "lon": -77.08134883333334, "bike_id": "c7c002f5bb5c5f616bcc8ab66f26a8ef", "fusion_lat": 0.0, "name": "c7c002f5bb5c5f616bcc8ab66f26a8ef", "is_reserved": 0, "rental_uris": {"android": "https://dc.lft.to/lastmile_qr_scan", "ios": "https://dc.lft.to/lastmile_qr_scan"}, "fusion_lon": 0.0}, {"lat": 38.91315483333333, "is_disabled": 0, "type": "electric_scooter", "lon": -77.041622, "bike_id": "f3a117fffb77094ae02b17ccbc42808a", "fusion_lat": 0.0, "name": "f3a117fffb77094ae02b17ccbc42808a", "is_reserved": 0, "rental_uris": {"android": "https://dc.lft.to/lastmile_qr_scan", "ios": "https://dc.lft.to/lastmile_qr_scan"}, "fusion_lon": 0.0}, {"lat": 38.91689866666667, "is_disabled": 0, "type": "electric_scooter", "lon": -77.0297365, "bike_id": "cc90f98b3f46f41928beb2abaf69d53d", "fusion_lat": 0.0, "name": "cc90f98b3f46f41928beb2abaf69d53d", "is_reserved": 0, "rental_uris": {"android": "https://dc.lft.to/lastmile_qr_scan", "ios": "https://dc.lft.to/lastmile_qr_scan"}, "fusion_lon": 0.0}, {"lat": 38.91013133333333, "is_disabled": 0, "type": "electric_scooter", "lon": -76.99385616666666, "bike_id": "4a6af995603d293e2c85d0e2d664ff3a", "fusion_lat": 0.0, "name": "4a6af995603d293e2c85d0e2d664ff3a", "is_reserved": 0, "rental_uris": {"android": "https://dc.lft.to/lastmile_qr_scan", "ios": "https://dc.lft.to/lastmile_qr_scan"}, "fusion_lon": 0.0}, {"lat": 38.89230033333333, "is_disabled": 0, "type": "electric_scooter", "lon": -77.048654, "bike_id": "91b673d15fc9b09d2923895245292e9a", "fusion_lat": 0.0, "name": "91b673d15fc9b09d2923895245292e9a", "is_reserved": 0, "rental_uris": {"android": "https://dc.lft.to/lastmile_qr_scan", "ios": "https://dc.lft.to/lastmile_qr_scan"}, "fusion_lon": 0.0}, {"lat": 38.9614195, "is_disabled": 0, "type": "electric_bike", "lon": -77.03234433333333, "bike_id": "6579ba391b95eef4fae1dc2efc114b55", "fusion_lat": 0.0, "name": "6579ba391b95eef4fae1dc2efc114b55", "is_reserved": 0, "rental_uris": {"android": "https://dc.lft.to/lastmile_qr_scan", "ios": "https://dc.lft.to/lastmile_qr_scan"}, "fusion_lon": 0.0}, {"lat": 38.879167, "is_disabled": 0, "type": "electric_scooter", "lon": -77.0071295, "bike_id": "fcb56abdf65d855e99863de285be0205", "fusion_lat": 0.0, "name": "fcb56abdf65d855e99863de285be0205", "is_reserved": 0, "rental_uris": {"android": "https://dc.lft.to/lastmile_qr_scan", "ios": "https://dc.lft.to/lastmile_qr_scan"}, "fusion_lon": 0.0}, {"lat": 38.90887983333333, "is_disabled": 0, "type": "electric_scooter", "lon": -77.03668333333333, "bike_id": "c94b8aa848f5e34caf66b91f3bac7367", "fusion_lat": 0.0, "name": "c94b8aa848f5e34caf66b91f3bac7367", "is_reserved": 0, "rental_uris": {"android": "https://dc.lft.to/lastmile_qr_scan", "ios": "https://dc.lft.to/lastmile_qr_scan"}, "fusion_lon": 0.0}, {"lat": 38.91985616666667, "is_disabled": 0, "type": "electric_scooter", "lon": -77.02364933333334, "bike_id": "cf32e81fefda4a817f54db6efb846e71", "fusion_lat": 0.0, "name": "cf32e81fefda4a817f54db6efb846e71", "is_reserved": 0, "rental_uris": {"android": "https://dc.lft.to/lastmile_qr_scan", "ios": "https://dc.lft.to/lastmile_qr_scan"}, "fusion_lon": 0.0}, {"lat": 38.903293, "is_disabled": 0, "type": "electric_scooter", "lon": -76.9705885, "bike_id": "b30a0ec909133ebd34e1e17e6e3f1e27", "fusion_lat": 0.0, "name": "b30a0ec909133ebd34e1e17e6e3f1e27", "is_reserved": 0, "rental_uris": {"android": "https://dc.lft.to/lastmile_qr_scan", "ios": "https://dc.lft.to/lastmile_qr_scan"}, "fusion_lon": 0.0}, {"lat": 38.898837, "is_disabled": 0, "type": "electric_scooter", "lon": -77.029426, "bike_id": "269ff958884547a18f9e2e1c2fb078e8", "fusion_lat": 0.0, "name": "269ff958884547a18f9e2e1c2fb078e8", "is_reserved": 0, "rental_uris": {"android": "https://dc.lft.to/lastmile_qr_scan", "ios": "https://dc.lft.to/lastmile_qr_scan"}, "fusion_lon": 0.0}, {"lat": 38.915661666666665, "is_disabled": 0, "type": "electric_scooter", "lon": -77.0097755, "bike_id": "99731192bacd6fc9c8756c33d2fbe2b1", "fusion_lat": 0.0, "name": "99731192bacd6fc9c8756c33d2fbe2b1", "is_reserved": 0, "rental_uris": {"android": "https://dc.lft.to/lastmile_qr_scan", "ios": "https://dc.lft.to/lastmile_qr_scan"}, "fusion_lon": 0.0}, {"lat": 38.91256083333333, "is_disabled": 0, "type": "electric_scooter", "lon": -77.03500166666667, "bike_id": "8326158823d60f124a21e8670750e4b4", "fusion_lat": 0.0, "name": "8326158823d60f124a21e8670750e4b4", "is_reserved": 0, "rental_uris": {"android": "https://dc.lft.to/lastmile_qr_scan", "ios": "https://dc.lft.to/lastmile_qr_scan"}, "fusion_lon": 0.0}, {"lat": 38.92239566666667, "is_disabled": 0, "type": "electric_scooter", "lon": -77.02908, "bike_id": "8ab82859414d169921bdbd43078897b9", "fusion_lat": 0.0, "name": "8ab82859414d169921bdbd43078897b9", "is_reserved": 0, "rental_uris": {"android": "https://dc.lft.to/lastmile_qr_scan", "ios": "https://dc.lft.to/lastmile_qr_scan"}, "fusion_lon": 0.0}, {"lat": 38.905611, "is_disabled": 0, "type": "electric_scooter", "lon": -77.05699083333333, "bike_id": "a7933d77766dea016ac06a5302ab990b", "fusion_lat": 0.0, "name": "a7933d77766dea016ac06a5302ab990b", "is_reserved": 0, "rental_uris": {"android": "https://dc.lft.to/lastmile_qr_scan", "ios": "https://dc.lft.to/lastmile_qr_scan"}, "fusion_lon": 0.0}, {"lat": 38.91702383333333, "is_disabled": 0, "type": "electric_scooter", "lon": -77.02994916666667, "bike_id": "9919bfc6bb7d07a4bc2da487bc03020b", "fusion_lat": 0.0, "name": "9919bfc6bb7d07a4bc2da487bc03020b", "is_reserved": 0, "rental_uris": {"android": "https://dc.lft.to/lastmile_qr_scan", "ios": "https://dc.lft.to/lastmile_qr_scan"}, "fusion_lon": 0.0}, {"lat": 38.8622925, "is_disabled": 0, "type": "electric_scooter", "lon": -76.983704, "bike_id": "d3ff9a9ec760d01fbac388f2b0c49220", "fusion_lat": 0.0, "name": "d3ff9a9ec760d01fbac388f2b0c49220", "is_reserved": 0, "rental_uris": {"android": "https://dc.lft.to/lastmile_qr_scan", "ios": "https://dc.lft.to/lastmile_qr_scan"}, "fusion_lon": 0.0}, {"lat": 38.8827635, "is_disabled": 0, "type": "electric_bike", "lon": -76.93237433333333, "bike_id": "23d1a212213cea59cc8b0c6d143a37c7", "fusion_lat": 0.0, "name": "23d1a212213cea59cc8b0c6d143a37c7", "is_reserved": 0, "rental_uris": {"android": "https://dc.lft.to/lastmile_qr_scan", "ios": "https://dc.lft.to/lastmile_qr_scan"}, "fusion_lon": 0.0}, {"lat": 38.866224, "is_disabled": 0, "type": "electric_scooter", "lon": -76.98665016666666, "bike_id": "baf8be8f978bb92b31ac2adeea749942", "fusion_lat": 0.0, "name": "baf8be8f978bb92b31ac2adeea749942", "is_reserved": 0, "rental_uris": {"android": "https://dc.lft.to/lastmile_qr_scan", "ios": "https://dc.lft.to/lastmile_qr_scan"}, "fusion_lon": 0.0}, {"lat": 38.9357395, "is_disabled": 0, "type": "electric_scooter", "lon": -77.03732366666667, "bike_id": "fcdb194091125c303395f323d49ce458", "fusion_lat": 0.0, "name": "fcdb194091125c303395f323d49ce458", "is_reserved": 0, "rental_uris": {"android": "https://dc.lft.to/lastmile_qr_scan", "ios": "https://dc.lft.to/lastmile_qr_scan"}, "fusion_lon": 0.0}, {"lat": 38.887423, "is_disabled": 0, "type": "electric_scooter", "lon": -77.0152785, "bike_id": "c2a6d2593d4da9ce1f2a87ecb29111cd", "fusion_lat": 0.0, "name": "c2a6d2593d4da9ce1f2a87ecb29111cd", "is_reserved": 0, "rental_uris": {"android": "https://dc.lft.to/lastmile_qr_scan", "ios": "https://dc.lft.to/lastmile_qr_scan"}, "fusion_lon": 0.0}, {"lat": 38.89483333333333, "is_disabled": 0, "type": "electric_scooter", "lon": -76.94952366666666, "bike_id": "162c160d9080b28110c03014d1e80d18", "fusion_lat": 0.0, "name": "162c160d9080b28110c03014d1e80d18", "is_reserved": 0, "rental_uris": {"android": "https://dc.lft.to/lastmile_qr_scan", "ios": "https://dc.lft.to/lastmile_qr_scan"}, "fusion_lon": 0.0}, {"lat": 38.962565833333336, "is_disabled": 0, "type": "electric_scooter", "lon": -77.03824466666667, "bike_id": "837a7710552a8bdaa53b38e6db34fe57", "fusion_lat": 0.0, "name": "837a7710552a8bdaa53b38e6db34fe57", "is_reserved": 0, "rental_uris": {"android": "https://dc.lft.to/lastmile_qr_scan", "ios": "https://dc.lft.to/lastmile_qr_scan"}, "fusion_lon": 0.0}, {"lat": 38.913520166666665, "is_disabled": 0, "type": "electric_scooter", "lon": -77.03183766666666, "bike_id": "9b8efc6064bbef8881b520ac9c0b90e2", "fusion_lat": 0.0, "name": "9b8efc6064bbef8881b520ac9c0b90e2", "is_reserved": 0, "rental_uris": {"android": "https://dc.lft.to/lastmile_qr_scan", "ios": "https://dc.lft.to/lastmile_qr_scan"}, "fusion_lon": 0.0}, {"lat": 38.920465166666666, "is_disabled": 0, "type": "electric_scooter", "lon": -77.0328745, "bike_id": "c02c8d53549290089288620ac25b0209", "fusion_lat": 0.0, "name": "c02c8d53549290089288620ac25b0209", "is_reserved": 0, "rental_uris": {"android": "https://dc.lft.to/lastmile_qr_scan", "ios": "https://dc.lft.to/lastmile_qr_scan"}, "fusion_lon": 0.0}, {"lat": 38.9284805, "is_disabled": 0, "type": "electric_scooter", "lon": -77.03592216666667, "bike_id": "4b9995944f45db7b0f4fb9abf77a5994", "fusion_lat": 0.0, "name": "4b9995944f45db7b0f4fb9abf77a5994", "is_reserved": 0, "rental_uris": {"android": "https://dc.lft.to/lastmile_qr_scan", "ios": "https://dc.lft.to/lastmile_qr_scan"}, "fusion_lon": 0.0}, {"lat": 38.92331216666667, "is_disabled": 0, "type": "electric_scooter", "lon": -77.03567383333333, "bike_id": "620ef377d55beb29bc32d8f32c17a439", "fusion_lat": 0.0, "name": "620ef377d55beb29bc32d8f32c17a439", "is_reserved": 0, "rental_uris": {"android": "https://dc.lft.to/lastmile_qr_scan", "ios": "https://dc.lft.to/lastmile_qr_scan"}, "fusion_lon": 0.0}, {"lat": 38.91135166666667, "is_disabled": 0, "type": "electric_scooter", "lon": -77.021909, "bike_id": "7cf11f2b592f8681bd28afe1b080fd5e", "fusion_lat": 0.0, "name": "7cf11f2b592f8681bd28afe1b080fd5e", "is_reserved": 0, "rental_uris": {"android": "https://dc.lft.to/lastmile_qr_scan", "ios": "https://dc.lft.to/lastmile_qr_scan"}, "fusion_lon": 0.0}, {"lat": 38.933539, "is_disabled": 0, "type": "electric_scooter", "lon": -77.07180533333333, "bike_id": "bf63f21e098501e32fc5855d539c8e20", "fusion_lat": 0.0, "name": "bf63f21e098501e32fc5855d539c8e20", "is_reserved": 0, "rental_uris": {"android": "https://dc.lft.to/lastmile_qr_scan", "ios": "https://dc.lft.to/lastmile_qr_scan"}, "fusion_lon": 0.0}, {"lat": 38.92073466666667, "is_disabled": 0, "type": "electric_scooter", "lon": -77.04562133333333, "bike_id": "0dd71c37bc1fa926755bcf41e23e869c", "fusion_lat": 0.0, "name": "0dd71c37bc1fa926755bcf41e23e869c", "is_reserved": 0, "rental_uris": {"android": "https://dc.lft.to/lastmile_qr_scan", "ios": "https://dc.lft.to/lastmile_qr_scan"}, "fusion_lon": 0.0}, {"lat": 38.8999085, "is_disabled": 0, "type": "electric_bike", "lon": -76.98118216666667, "bike_id": "2d67e96ee800d853e2330f6950fb9acb", "fusion_lat": 0.0, "name": "2d67e96ee800d853e2330f6950fb9acb", "is_reserved": 0, "rental_uris": {"android": "https://dc.lft.to/lastmile_qr_scan", "ios": "https://dc.lft.to/lastmile_qr_scan"}, "fusion_lon": 0.0}, {"lat": 38.9275975, "is_disabled": 0, "type": "electric_scooter", "lon": -77.00595466666667, "bike_id": "5659ab9319347cb940fe233b52dc7755", "fusion_lat": 0.0, "name": "5659ab9319347cb940fe233b52dc7755", "is_reserved": 0, "rental_uris": {"android": "https://dc.lft.to/lastmile_qr_scan", "ios": "https://dc.lft.to/lastmile_qr_scan"}, "fusion_lon": 0.0}, {"lat": 38.90025116666666, "is_disabled": 0, "type": "electric_scooter", "lon": -77.02592383333334, "bike_id": "7160ada31c14cde4c3b695c8f210e56e", "fusion_lat": 0.0, "name": "7160ada31c14cde4c3b695c8f210e56e", "is_reserved": 0, "rental_uris": {"android": "https://dc.lft.to/lastmile_qr_scan", "ios": "https://dc.lft.to/lastmile_qr_scan"}, "fusion_lon": 0.0}, {"lat": 38.93325516666667, "is_disabled": 0, "type": "electric_scooter", "lon": -77.02931816666667, "bike_id": "6acb74d5b35c51c31509f8f29e00c450", "fusion_lat": 0.0, "name": "6acb74d5b35c51c31509f8f29e00c450", "is_reserved": 0, "rental_uris": {"android": "https://dc.lft.to/lastmile_qr_scan", "ios": "https://dc.lft.to/lastmile_qr_scan"}, "fusion_lon": 0.0}, {"lat": 38.900122333333336, "is_disabled": 0, "type": "electric_scooter", "lon": -76.92233416666667, "bike_id": "3db5ef41f4b97d3feb3034c97e0fe4a9", "fusion_lat": 0.0, "name": "3db5ef41f4b97d3feb3034c97e0fe4a9", "is_reserved": 0, "rental_uris": {"android": "https://dc.lft.to/lastmile_qr_scan", "ios": "https://dc.lft.to/lastmile_qr_scan"}, "fusion_lon": 0.0}, {"lat": 38.919187666666666, "is_disabled": 0, "type": "electric_scooter", "lon": -77.02513983333333, "bike_id": "60a73ffe89e46d2b7708921efeba9807", "fusion_lat": 0.0, "name": "60a73ffe89e46d2b7708921efeba9807", "is_reserved": 0, "rental_uris": {"android": "https://dc.lft.to/lastmile_qr_scan", "ios": "https://dc.lft.to/lastmile_qr_scan"}, "fusion_lon": 0.0}, {"lat": 38.89620766666667, "is_disabled": 0, "type": "electric_scooter", "lon": -77.0449115, "bike_id": "8b8b1ade2c49a70118fb064b0aef4714", "fusion_lat": 0.0, "name": "8b8b1ade2c49a70118fb064b0aef4714", "is_reserved": 0, "rental_uris": {"android": "https://dc.lft.to/lastmile_qr_scan", "ios": "https://dc.lft.to/lastmile_qr_scan"}, "fusion_lon": 0.0}, {"lat": 38.860599, "is_disabled": 0, "type": "electric_scooter", "lon": -76.9850885, "bike_id": "250d57328c104a3d3754e2bc705d1d1f", "fusion_lat": 0.0, "name": "250d57328c104a3d3754e2bc705d1d1f", "is_reserved": 0, "rental_uris": {"android": "https://dc.lft.to/lastmile_qr_scan", "ios": "https://dc.lft.to/lastmile_qr_scan"}, "fusion_lon": 0.0}, {"lat": 38.842951666666664, "is_disabled": 0, "type": "electric_scooter", "lon": -76.99942933333334, "bike_id": "b9327d64edc712f0ca8d5b0a82300067", "fusion_lat": 0.0, "name": "b9327d64edc712f0ca8d5b0a82300067", "is_reserved": 0, "rental_uris": {"android": "https://dc.lft.to/lastmile_qr_scan", "ios": "https://dc.lft.to/lastmile_qr_scan"}, "fusion_lon": 0.0}, {"lat": 38.90036683333334, "is_disabled": 0, "type": "electric_scooter", "lon": -77.001914, "bike_id": "683f744f80a3e457a1ae362bfc0877cd", "fusion_lat": 0.0, "name": "683f744f80a3e457a1ae362bfc0877cd", "is_reserved": 0, "rental_uris": {"android": "https://dc.lft.to/lastmile_qr_scan", "ios": "https://dc.lft.to/lastmile_qr_scan"}, "fusion_lon": 0.0}, {"lat": 38.95070183333333, "is_disabled": 0, "type": "electric_scooter", "lon": -77.06653666666666, "bike_id": "35215709ffc3aa3a50f875abca85d1bd", "fusion_lat": 0.0, "name": "35215709ffc3aa3a50f875abca85d1bd", "is_reserved": 0, "rental_uris": {"android": "https://dc.lft.to/lastmile_qr_scan", "ios": "https://dc.lft.to/lastmile_qr_scan"}, "fusion_lon": 0.0}, {"lat": 38.90140816666667, "is_disabled": 0, "type": "electric_scooter", "lon": -77.0181245, "bike_id": "df41c61d90a49c1c6c8da642160ec405", "fusion_lat": 0.0, "name": "df41c61d90a49c1c6c8da642160ec405", "is_reserved": 0, "rental_uris": {"android": "https://dc.lft.to/lastmile_qr_scan", "ios": "https://dc.lft.to/lastmile_qr_scan"}, "fusion_lon": 0.0}, {"lat": 38.898407666666664, "is_disabled": 0, "type": "electric_scooter", "lon": -77.02426133333333, "bike_id": "657290709f296fca73bf00063895c569", "fusion_lat": 0.0, "name": "657290709f296fca73bf00063895c569", "is_reserved": 0, "rental_uris": {"android": "https://dc.lft.to/lastmile_qr_scan", "ios": "https://dc.lft.to/lastmile_qr_scan"}, "fusion_lon": 0.0}, {"lat": 38.940942, "is_disabled": 0, "type": "electric_scooter", "lon": -77.032787, "bike_id": "54ea6b3e25c163ba696f0d8bb997fd53", "fusion_lat": 0.0, "name": "54ea6b3e25c163ba696f0d8bb997fd53", "is_reserved": 0, "rental_uris": {"android": "https://dc.lft.to/lastmile_qr_scan", "ios": "https://dc.lft.to/lastmile_qr_scan"}, "fusion_lon": 0.0}, {"lat": 38.87628316666667, "is_disabled": 0, "type": "electric_scooter", "lon": -76.965234, "bike_id": "8323328b3274d7fa6c68cc5d2fade696", "fusion_lat": 0.0, "name": "8323328b3274d7fa6c68cc5d2fade696", "is_reserved": 0, "rental_uris": {"android": "https://dc.lft.to/lastmile_qr_scan", "ios": "https://dc.lft.to/lastmile_qr_scan"}, "fusion_lon": 0.0}, {"lat": 38.9377515, "is_disabled": 0, "type": "electric_scooter", "lon": -77.02374566666667, "bike_id": "d3844cd2204b864f071ee5c9dcf0a14a", "fusion_lat": 0.0, "name": "d3844cd2204b864f071ee5c9dcf0a14a", "is_reserved": 0, "rental_uris": {"android": "https://dc.lft.to/lastmile_qr_scan", "ios": "https://dc.lft.to/lastmile_qr_scan"}, "fusion_lon": 0.0}, {"lat": 38.907359666666665, "is_disabled": 0, "type": "electric_scooter", "lon": -77.0478395, "bike_id": "019113f040dc8b8ab0c90873a12a6d8a", "fusion_lat": 0.0, "name": "019113f040dc8b8ab0c90873a12a6d8a", "is_reserved": 0, "rental_uris": {"android": "https://dc.lft.to/lastmile_qr_scan", "ios": "https://dc.lft.to/lastmile_qr_scan"}, "fusion_lon": 0.0}, {"lat": 38.92586716666667, "is_disabled": 0, "type": "electric_scooter", "lon": -77.03431683333334, "bike_id": "1eb87702478b230678fd838c1987f13c", "fusion_lat": 0.0, "name": "1eb87702478b230678fd838c1987f13c", "is_reserved": 0, "rental_uris": {"android": "https://dc.lft.to/lastmile_qr_scan", "ios": "https://dc.lft.to/lastmile_qr_scan"}, "fusion_lon": 0.0}, {"lat": 38.901999833333335, "is_disabled": 0, "type": "electric_scooter", "lon": -77.02170166666667, "bike_id": "4eb0ff6b774eee0d229c12fb01490338", "fusion_lat": 0.0, "name": "4eb0ff6b774eee0d229c12fb01490338", "is_reserved": 0, "rental_uris": {"android": "https://dc.lft.to/lastmile_qr_scan", "ios": "https://dc.lft.to/lastmile_qr_scan"}, "fusion_lon": 0.0}, {"lat": 38.9167585, "is_disabled": 0, "type": "electric_scooter", "lon": -77.02714233333333, "bike_id": "66ba3859f4508e1c39d399f1088c684c", "fusion_lat": 0.0, "name": "66ba3859f4508e1c39d399f1088c684c", "is_reserved": 0, "rental_uris": {"android": "https://dc.lft.to/lastmile_qr_scan", "ios": "https://dc.lft.to/lastmile_qr_scan"}, "fusion_lon": 0.0}, {"lat": 38.92026633333333, "is_disabled": 0, "type": "electric_scooter", "lon": -77.04201566666667, "bike_id": "f80fbde4286a37723a88b148a0666b3b", "fusion_lat": 0.0, "name": "f80fbde4286a37723a88b148a0666b3b", "is_reserved": 0, "rental_uris": {"android": "https://dc.lft.to/lastmile_qr_scan", "ios": "https://dc.lft.to/lastmile_qr_scan"}, "fusion_lon": 0.0}, {"lat": 38.913565166666665, "is_disabled": 0, "type": "electric_scooter", "lon": -77.01524033333334, "bike_id": "f42bae53bfdb91f35b09adcb12284bf1", "fusion_lat": 0.0, "name": "f42bae53bfdb91f35b09adcb12284bf1", "is_reserved": 0, "rental_uris": {"android": "https://dc.lft.to/lastmile_qr_scan", "ios": "https://dc.lft.to/lastmile_qr_scan"}, "fusion_lon": 0.0}, {"lat": 38.9602395, "is_disabled": 0, "type": "electric_scooter", "lon": -77.028285, "bike_id": "c7e325add6e1587cf08e2c195e0ac9cd", "fusion_lat": 0.0, "name": "c7e325add6e1587cf08e2c195e0ac9cd", "is_reserved": 0, "rental_uris": {"android": "https://dc.lft.to/lastmile_qr_scan", "ios": "https://dc.lft.to/lastmile_qr_scan"}, "fusion_lon": 0.0}, {"lat": 38.912688833333334, "is_disabled": 0, "type": "electric_scooter", "lon": -77.0048865, "bike_id": "2c5f8ad15ff7440504c0e46f9f3aa511", "fusion_lat": 0.0, "name": "2c5f8ad15ff7440504c0e46f9f3aa511", "is_reserved": 0, "rental_uris": {"android": "https://dc.lft.to/lastmile_qr_scan", "ios": "https://dc.lft.to/lastmile_qr_scan"}, "fusion_lon": 0.0}, {"lat": 38.90469066666667, "is_disabled": 0, "type": "electric_scooter", "lon": -77.00724316666667, "bike_id": "69f0c41af3963ecdfdef5fe6b3fa8301", "fusion_lat": 0.0, "name": "69f0c41af3963ecdfdef5fe6b3fa8301", "is_reserved": 0, "rental_uris": {"android": "https://dc.lft.to/lastmile_qr_scan", "ios": "https://dc.lft.to/lastmile_qr_scan"}, "fusion_lon": 0.0}, {"lat": 38.90836433333333, "is_disabled": 0, "type": "electric_scooter", "lon": -77.03849016666666, "bike_id": "33a79ac4130a67404fea302cf001e280", "fusion_lat": 0.0, "name": "33a79ac4130a67404fea302cf001e280", "is_reserved": 0, "rental_uris": {"android": "https://dc.lft.to/lastmile_qr_scan", "ios": "https://dc.lft.to/lastmile_qr_scan"}, "fusion_lon": 0.0}, {"lat": 38.9042045, "is_disabled": 0, "type": "electric_scooter", "lon": -76.9906645, "bike_id": "4f64379c26510c1108b198e9c6a5e57a", "fusion_lat": 0.0, "name": "4f64379c26510c1108b198e9c6a5e57a", "is_reserved": 0, "rental_uris": {"android": "https://dc.lft.to/lastmile_qr_scan", "ios": "https://dc.lft.to/lastmile_qr_scan"}, "fusion_lon": 0.0}, {"lat": 38.909614, "is_disabled": 0, "type": "electric_scooter", "lon": -77.02678733333333, "bike_id": "155fc4c460a98d1eed67b550efd41bd7", "fusion_lat": 0.0, "name": "155fc4c460a98d1eed67b550efd41bd7", "is_reserved": 0, "rental_uris": {"android": "https://dc.lft.to/lastmile_qr_scan", "ios": "https://dc.lft.to/lastmile_qr_scan"}, "fusion_lon": 0.0}, {"lat": 38.90142683333333, "is_disabled": 0, "type": "electric_scooter", "lon": -76.98056316666667, "bike_id": "f62425f00a5c16557f3f1bee3707e01a", "fusion_lat": 0.0, "name": "f62425f00a5c16557f3f1bee3707e01a", "is_reserved": 0, "rental_uris": {"android": "https://dc.lft.to/lastmile_qr_scan", "ios": "https://dc.lft.to/lastmile_qr_scan"}, "fusion_lon": 0.0}, {"lat": 38.9198285, "is_disabled": 0, "type": "electric_scooter", "lon": -77.000199, "bike_id": "e586026c76e28c204c52a6a9c7d78242", "fusion_lat": 0.0, "name": "e586026c76e28c204c52a6a9c7d78242", "is_reserved": 0, "rental_uris": {"android": "https://dc.lft.to/lastmile_qr_scan", "ios": "https://dc.lft.to/lastmile_qr_scan"}, "fusion_lon": 0.0}, {"lat": 38.8460815, "is_disabled": 0, "type": "electric_bike", "lon": -76.96904533333333, "bike_id": "5129eba69b3e13450d5f167d01613c6e", "fusion_lat": 0.0, "name": "5129eba69b3e13450d5f167d01613c6e", "is_reserved": 0, "rental_uris": {"android": "https://dc.lft.to/lastmile_qr_scan", "ios": "https://dc.lft.to/lastmile_qr_scan"}, "fusion_lon": 0.0}, {"lat": 38.87969833333333, "is_disabled": 0, "type": "electric_scooter", "lon": -77.00585983333333, "bike_id": "65d846d76384afd57bcd7dbb982393f3", "fusion_lat": 0.0, "name": "65d846d76384afd57bcd7dbb982393f3", "is_reserved": 0, "rental_uris": {"android": "https://dc.lft.to/lastmile_qr_scan", "ios": "https://dc.lft.to/lastmile_qr_scan"}, "fusion_lon": 0.0}, {"lat": 38.93411916666667, "is_disabled": 0, "type": "electric_bike", "lon": -77.02506983333333, "bike_id": "37c1bbb8e020d7cff8ed48d92a300710", "fusion_lat": 0.0, "name": "37c1bbb8e020d7cff8ed48d92a300710", "is_reserved": 0, "rental_uris": {"android": "https://dc.lft.to/lastmile_qr_scan", "ios": "https://dc.lft.to/lastmile_qr_scan"}, "fusion_lon": 0.0}, {"lat": 38.91918016666666, "is_disabled": 0, "type": "electric_scooter", "lon": -77.036248, "bike_id": "9bdee9ce3a34104da0414e92bacd8d52", "fusion_lat": 0.0, "name": "9bdee9ce3a34104da0414e92bacd8d52", "is_reserved": 0, "rental_uris": {"android": "https://dc.lft.to/lastmile_qr_scan", "ios": "https://dc.lft.to/lastmile_qr_scan"}, "fusion_lon": 0.0}, {"lat": 38.8843685, "is_disabled": 0, "type": "electric_scooter", "lon": -77.0303635, "bike_id": "177f8a30e43dadd04c171b212b43154c", "fusion_lat": 0.0, "name": "177f8a30e43dadd04c171b212b43154c", "is_reserved": 0, "rental_uris": {"android": "https://dc.lft.to/lastmile_qr_scan", "ios": "https://dc.lft.to/lastmile_qr_scan"}, "fusion_lon": 0.0}, {"lat": 38.9236715, "is_disabled": 0, "type": "electric_scooter", "lon": -77.05754466666667, "bike_id": "ee169f5e4e42c6c9f05db6c45903c72b", "fusion_lat": 0.0, "name": "ee169f5e4e42c6c9f05db6c45903c72b", "is_reserved": 0, "rental_uris": {"android": "https://dc.lft.to/lastmile_qr_scan", "ios": "https://dc.lft.to/lastmile_qr_scan"}, "fusion_lon": 0.0}, {"lat": 38.897177, "is_disabled": 0, "type": "electric_scooter", "lon": -77.00795, "bike_id": "03f320f237857dfe6ad80644188a0293", "fusion_lat": 0.0, "name": "03f320f237857dfe6ad80644188a0293", "is_reserved": 0, "rental_uris": {"android": "https://dc.lft.to/lastmile_qr_scan", "ios": "https://dc.lft.to/lastmile_qr_scan"}, "fusion_lon": 0.0}, {"lat": 38.925819, "is_disabled": 0, "type": "electric_scooter", "lon": -77.05760233333334, "bike_id": "edd66988f76c3afb3b21fa5f16cea85a", "fusion_lat": 0.0, "name": "edd66988f76c3afb3b21fa5f16cea85a", "is_reserved": 0, "rental_uris": {"android": "https://dc.lft.to/lastmile_qr_scan", "ios": "https://dc.lft.to/lastmile_qr_scan"}, "fusion_lon": 0.0}, {"lat": 38.87630933333333, "is_disabled": 0, "type": "electric_scooter", "lon": -77.01477716666666, "bike_id": "0d28ae26910bfaa4d6702f6a35eafb91", "fusion_lat": 0.0, "name": "0d28ae26910bfaa4d6702f6a35eafb91", "is_reserved": 0, "rental_uris": {"android": "https://dc.lft.to/lastmile_qr_scan", "ios": "https://dc.lft.to/lastmile_qr_scan"}, "fusion_lon": 0.0}, {"lat": 38.90297783333333, "is_disabled": 0, "type": "electric_scooter", "lon": -77.02063433333333, "bike_id": "591f66c173b9471ad5102e9d5a747b2b", "fusion_lat": 0.0, "name": "591f66c173b9471ad5102e9d5a747b2b", "is_reserved": 0, "rental_uris": {"android": "https://dc.lft.to/lastmile_qr_scan", "ios": "https://dc.lft.to/lastmile_qr_scan"}, "fusion_lon": 0.0}, {"lat": 38.9079815, "is_disabled": 0, "type": "electric_scooter", "lon": -77.03194383333333, "bike_id": "a6317595f4a8ee56a3b7811f5dfcc74d", "fusion_lat": 0.0, "name": "a6317595f4a8ee56a3b7811f5dfcc74d", "is_reserved": 0, "rental_uris": {"android": "https://dc.lft.to/lastmile_qr_scan", "ios": "https://dc.lft.to/lastmile_qr_scan"}, "fusion_lon": 0.0}, {"lat": 38.86411533333333, "is_disabled": 0, "type": "electric_bike", "lon": -76.97426316666666, "bike_id": "fc620d89be5b7b2bf52f603053538b69", "fusion_lat": 0.0, "name": "fc620d89be5b7b2bf52f603053538b69", "is_reserved": 0, "rental_uris": {"android": "https://dc.lft.to/lastmile_qr_scan", "ios": "https://dc.lft.to/lastmile_qr_scan"}, "fusion_lon": 0.0}, {"lat": 38.913288666666666, "is_disabled": 0, "type": "electric_scooter", "lon": -77.0481385, "bike_id": "83355e96f4f035454b92fefcf9fbcd87", "fusion_lat": 0.0, "name": "83355e96f4f035454b92fefcf9fbcd87", "is_reserved": 0, "rental_uris": {"android": "https://dc.lft.to/lastmile_qr_scan", "ios": "https://dc.lft.to/lastmile_qr_scan"}, "fusion_lon": 0.0}, {"lat": 38.90979333333333, "is_disabled": 0, "type": "electric_scooter", "lon": -77.045214, "bike_id": "ac4acd50ca5412715c71927cca135ac5", "fusion_lat": 0.0, "name": "ac4acd50ca5412715c71927cca135ac5", "is_reserved": 0, "rental_uris": {"android": "https://dc.lft.to/lastmile_qr_scan", "ios": "https://dc.lft.to/lastmile_qr_scan"}, "fusion_lon": 0.0}, {"lat": 38.9960755, "is_disabled": 0, "type": "electric_scooter", "lon": -77.0321235, "bike_id": "f071325c6b105791b5e4f028095110b3", "fusion_lat": 0.0, "name": "f071325c6b105791b5e4f028095110b3", "is_reserved": 0, "rental_uris": {"android": "https://dc.lft.to/lastmile_qr_scan", "ios": "https://dc.lft.to/lastmile_qr_scan"}, "fusion_lon": 0.0}, {"lat": 38.90838083333333, "is_disabled": 0, "type": "electric_scooter", "lon": -76.9996825, "bike_id": "ea14a2ded316b330a504e2b9cec9b9a0", "fusion_lat": 0.0, "name": "ea14a2ded316b330a504e2b9cec9b9a0", "is_reserved": 0, "rental_uris": {"android": "https://dc.lft.to/lastmile_qr_scan", "ios": "https://dc.lft.to/lastmile_qr_scan"}, "fusion_lon": 0.0}, {"lat": 38.89414, "is_disabled": 0, "type": "electric_scooter", "lon": -76.95660833333334, "bike_id": "b2583d41b7e4465ecfdba8b6258baf1f", "fusion_lat": 0.0, "name": "b2583d41b7e4465ecfdba8b6258baf1f", "is_reserved": 0, "rental_uris": {"android": "https://dc.lft.to/lastmile_qr_scan", "ios": "https://dc.lft.to/lastmile_qr_scan"}, "fusion_lon": 0.0}, {"lat": 38.902779333333335, "is_disabled": 0, "type": "electric_scooter", "lon": -77.04605266666667, "bike_id": "d95bb7a7e15caf2d8c34d22e3098f849", "fusion_lat": 0.0, "name": "d95bb7a7e15caf2d8c34d22e3098f849", "is_reserved": 0, "rental_uris": {"android": "https://dc.lft.to/lastmile_qr_scan", "ios": "https://dc.lft.to/lastmile_qr_scan"}, "fusion_lon": 0.0}, {"lat": 38.913633833333336, "is_disabled": 0, "type": "electric_scooter", "lon": -77.02178033333334, "bike_id": "c93bf08e1ec5aaa3c4b2d5e9f131f010", "fusion_lat": 0.0, "name": "c93bf08e1ec5aaa3c4b2d5e9f131f010", "is_reserved": 0, "rental_uris": {"android": "https://dc.lft.to/lastmile_qr_scan", "ios": "https://dc.lft.to/lastmile_qr_scan"}, "fusion_lon": 0.0}, {"lat": 38.90728433333334, "is_disabled": 0, "type": "electric_scooter", "lon": -76.998165, "bike_id": "504f2fba5fbfd5dacade2195677903cc", "fusion_lat": 0.0, "name": "504f2fba5fbfd5dacade2195677903cc", "is_reserved": 0, "rental_uris": {"android": "https://dc.lft.to/lastmile_qr_scan", "ios": "https://dc.lft.to/lastmile_qr_scan"}, "fusion_lon": 0.0}, {"lat": 38.933190333333336, "is_disabled": 0, "type": "electric_scooter", "lon": -77.03453616666667, "bike_id": "bde3e51aaedcb49ca3654cbac5915578", "fusion_lat": 0.0, "name": "bde3e51aaedcb49ca3654cbac5915578", "is_reserved": 0, "rental_uris": {"android": "https://dc.lft.to/lastmile_qr_scan", "ios": "https://dc.lft.to/lastmile_qr_scan"}, "fusion_lon": 0.0}, {"lat": 38.8996005, "is_disabled": 0, "type": "electric_scooter", "lon": -77.0211815, "bike_id": "1a6c33ebe8f9a5f471f860c2fa284d60", "fusion_lat": 0.0, "name": "1a6c33ebe8f9a5f471f860c2fa284d60", "is_reserved": 0, "rental_uris": {"android": "https://dc.lft.to/lastmile_qr_scan", "ios": "https://dc.lft.to/lastmile_qr_scan"}, "fusion_lon": 0.0}, {"lat": 38.936056, "is_disabled": 0, "type": "electric_scooter", "lon": -77.05861616666667, "bike_id": "e28b3aea94e410366cfc6ebec7909786", "fusion_lat": 0.0, "name": "e28b3aea94e410366cfc6ebec7909786", "is_reserved": 0, "rental_uris": {"android": "https://dc.lft.to/lastmile_qr_scan", "ios": "https://dc.lft.to/lastmile_qr_scan"}, "fusion_lon": 0.0}, {"lat": 38.86523533333333, "is_disabled": 0, "type": "electric_scooter", "lon": -76.99028166666666, "bike_id": "c81fe4d41e73ff7358765e751036cd47", "fusion_lat": 0.0, "name": "c81fe4d41e73ff7358765e751036cd47", "is_reserved": 0, "rental_uris": {"android": "https://dc.lft.to/lastmile_qr_scan", "ios": "https://dc.lft.to/lastmile_qr_scan"}, "fusion_lon": 0.0}, {"lat": 38.90962966666667, "is_disabled": 0, "type": "electric_scooter", "lon": -77.04800883333333, "bike_id": "37996f964ebf488e88d3e65d60408b63", "fusion_lat": 0.0, "name": "37996f964ebf488e88d3e65d60408b63", "is_reserved": 0, "rental_uris": {"android": "https://dc.lft.to/lastmile_qr_scan", "ios": "https://dc.lft.to/lastmile_qr_scan"}, "fusion_lon": 0.0}, {"lat": 38.9140305, "is_disabled": 0, "type": "electric_scooter", "lon": -77.018036, "bike_id": "1a2ee089a0532783847deafd85755d46", "fusion_lat": 0.0, "name": "1a2ee089a0532783847deafd85755d46", "is_reserved": 0, "rental_uris": {"android": "https://dc.lft.to/lastmile_qr_scan", "ios": "https://dc.lft.to/lastmile_qr_scan"}, "fusion_lon": 0.0}, {"lat": 38.87684483333334, "is_disabled": 0, "type": "electric_scooter", "lon": -77.01787166666666, "bike_id": "9d69c637134ab161001218bbf8002959", "fusion_lat": 0.0, "name": "9d69c637134ab161001218bbf8002959", "is_reserved": 0, "rental_uris": {"android": "https://dc.lft.to/lastmile_qr_scan", "ios": "https://dc.lft.to/lastmile_qr_scan"}, "fusion_lon": 0.0}, {"lat": 38.863729, "is_disabled": 0, "type": "electric_scooter", "lon": -76.99064516666667, "bike_id": "c8789f697469fe95b990a5ea92f168b8", "fusion_lat": 0.0, "name": "c8789f697469fe95b990a5ea92f168b8", "is_reserved": 0, "rental_uris": {"android": "https://dc.lft.to/lastmile_qr_scan", "ios": "https://dc.lft.to/lastmile_qr_scan"}, "fusion_lon": 0.0}, {"lat": 38.91912766666667, "is_disabled": 0, "type": "electric_scooter", "lon": -77.0462715, "bike_id": "e9cea9004a50bb0089806ff69564fa1b", "fusion_lat": 0.0, "name": "e9cea9004a50bb0089806ff69564fa1b", "is_reserved": 0, "rental_uris": {"android": "https://dc.lft.to/lastmile_qr_scan", "ios": "https://dc.lft.to/lastmile_qr_scan"}, "fusion_lon": 0.0}, {"lat": 38.91212083333333, "is_disabled": 0, "type": "electric_scooter", "lon": -77.03844633333334, "bike_id": "d8ac1d63080af5e1cc68ef78ddebd666", "fusion_lat": 0.0, "name": "d8ac1d63080af5e1cc68ef78ddebd666", "is_reserved": 0, "rental_uris": {"android": "https://dc.lft.to/lastmile_qr_scan", "ios": "https://dc.lft.to/lastmile_qr_scan"}, "fusion_lon": 0.0}, {"lat": 38.90407733333333, "is_disabled": 0, "type": "electric_scooter", "lon": -77.04351683333333, "bike_id": "cec629689561f6e4286b2c49ccfb8f12", "fusion_lat": 0.0, "name": "cec629689561f6e4286b2c49ccfb8f12", "is_reserved": 0, "rental_uris": {"android": "https://dc.lft.to/lastmile_qr_scan", "ios": "https://dc.lft.to/lastmile_qr_scan"}, "fusion_lon": 0.0}, {"lat": 38.956635666666664, "is_disabled": 0, "type": "electric_bike", "lon": -77.0115575, "bike_id": "91fb6b6cf85a59ce4b5e3224beac8a04", "fusion_lat": 0.0, "name": "91fb6b6cf85a59ce4b5e3224beac8a04", "is_reserved": 0, "rental_uris": {"android": "https://dc.lft.to/lastmile_qr_scan", "ios": "https://dc.lft.to/lastmile_qr_scan"}, "fusion_lon": 0.0}, {"lat": 38.9843345, "is_disabled": 0, "type": "electric_scooter", "lon": -77.02673566666667, "bike_id": "dde2ce936e4ec2181bee5a2dc94053c2", "fusion_lat": 0.0, "name": "dde2ce936e4ec2181bee5a2dc94053c2", "is_reserved": 0, "rental_uris": {"android": "https://dc.lft.to/lastmile_qr_scan", "ios": "https://dc.lft.to/lastmile_qr_scan"}, "fusion_lon": 0.0}, {"lat": 38.896294166666664, "is_disabled": 0, "type": "electric_scooter", "lon": -77.033008, "bike_id": "5a99b8044e5715926025234327a4c15a", "fusion_lat": 0.0, "name": "5a99b8044e5715926025234327a4c15a", "is_reserved": 0, "rental_uris": {"android": "https://dc.lft.to/lastmile_qr_scan", "ios": "https://dc.lft.to/lastmile_qr_scan"}, "fusion_lon": 0.0}, {"lat": 38.90969416666667, "is_disabled": 0, "type": "electric_scooter", "lon": -77.04802633333334, "bike_id": "7c7dfea5ac01e7aec2bb5f9e92e3d884", "fusion_lat": 0.0, "name": "7c7dfea5ac01e7aec2bb5f9e92e3d884", "is_reserved": 0, "rental_uris": {"android": "https://dc.lft.to/lastmile_qr_scan", "ios": "https://dc.lft.to/lastmile_qr_scan"}, "fusion_lon": 0.0}, {"lat": 38.82784183333333, "is_disabled": 0, "type": "electric_bike", "lon": -77.0091645, "bike_id": "3b88f43f035a92410e0b396e6b1d22de", "fusion_lat": 0.0, "name": "3b88f43f035a92410e0b396e6b1d22de", "is_reserved": 0, "rental_uris": {"android": "https://dc.lft.to/lastmile_qr_scan", "ios": "https://dc.lft.to/lastmile_qr_scan"}, "fusion_lon": 0.0}, {"lat": 38.8970845, "is_disabled": 0, "type": "electric_scooter", "lon": -77.02782666666667, "bike_id": "e4d873b3ef9e8d91290f7bb704177c44", "fusion_lat": 0.0, "name": "e4d873b3ef9e8d91290f7bb704177c44", "is_reserved": 0, "rental_uris": {"android": "https://dc.lft.to/lastmile_qr_scan", "ios": "https://dc.lft.to/lastmile_qr_scan"}, "fusion_lon": 0.0}, {"lat": 38.883628333333334, "is_disabled": 0, "type": "electric_scooter", "lon": -76.99511966666667, "bike_id": "96d0425c4147ca2190a185d78a312184", "fusion_lat": 0.0, "name": "96d0425c4147ca2190a185d78a312184", "is_reserved": 0, "rental_uris": {"android": "https://dc.lft.to/lastmile_qr_scan", "ios": "https://dc.lft.to/lastmile_qr_scan"}, "fusion_lon": 0.0}, {"lat": 38.888018833333334, "is_disabled": 0, "type": "electric_scooter", "lon": -76.93360783333333, "bike_id": "83e5539d5495a676ce21b83a0228fa7e", "fusion_lat": 0.0, "name": "83e5539d5495a676ce21b83a0228fa7e", "is_reserved": 0, "rental_uris": {"android": "https://dc.lft.to/lastmile_qr_scan", "ios": "https://dc.lft.to/lastmile_qr_scan"}, "fusion_lon": 0.0}, {"lat": 38.966100833333336, "is_disabled": 0, "type": "electric_scooter", "lon": -77.02312433333333, "bike_id": "d391ae9a7b92df1d9f18954e226bc15f", "fusion_lat": 0.0, "name": "d391ae9a7b92df1d9f18954e226bc15f", "is_reserved": 0, "rental_uris": {"android": "https://dc.lft.to/lastmile_qr_scan", "ios": "https://dc.lft.to/lastmile_qr_scan"}, "fusion_lon": 0.0}, {"lat": 38.93895533333333, "is_disabled": 0, "type": "electric_scooter", "lon": -77.033242, "bike_id": "d81a37dafe05bc150e4980ba7d30876a", "fusion_lat": 0.0, "name": "d81a37dafe05bc150e4980ba7d30876a", "is_reserved": 0, "rental_uris": {"android": "https://dc.lft.to/lastmile_qr_scan", "ios": "https://dc.lft.to/lastmile_qr_scan"}, "fusion_lon": 0.0}, {"lat": 38.922471333333334, "is_disabled": 0, "type": "electric_scooter", "lon": -77.01972483333333, "bike_id": "4b809f85d943a37cbd5618018b93d408", "fusion_lat": 0.0, "name": "4b809f85d943a37cbd5618018b93d408", "is_reserved": 0, "rental_uris": {"android": "https://dc.lft.to/lastmile_qr_scan", "ios": "https://dc.lft.to/lastmile_qr_scan"}, "fusion_lon": 0.0}, {"lat": 38.880892833333334, "is_disabled": 0, "type": "electric_scooter", "lon": -76.9925565, "bike_id": "3624003b9cce31ba08fce6a1fa4fec94", "fusion_lat": 0.0, "name": "3624003b9cce31ba08fce6a1fa4fec94", "is_reserved": 0, "rental_uris": {"android": "https://dc.lft.to/lastmile_qr_scan", "ios": "https://dc.lft.to/lastmile_qr_scan"}, "fusion_lon": 0.0}, {"lat": 38.92722716666667, "is_disabled": 0, "type": "electric_bike", "lon": -77.0136055, "bike_id": "01425008e2a03b26438277b9244641bd", "fusion_lat": 0.0, "name": "01425008e2a03b26438277b9244641bd", "is_reserved": 0, "rental_uris": {"android": "https://dc.lft.to/lastmile_qr_scan", "ios": "https://dc.lft.to/lastmile_qr_scan"}, "fusion_lon": 0.0}, {"lat": 38.9005205, "is_disabled": 0, "type": "electric_scooter", "lon": -77.00761883333334, "bike_id": "0113857c01d1204b8ab1ffbc1dddeaa6", "fusion_lat": 0.0, "name": "0113857c01d1204b8ab1ffbc1dddeaa6", "is_reserved": 0, "rental_uris": {"android": "https://dc.lft.to/lastmile_qr_scan", "ios": "https://dc.lft.to/lastmile_qr_scan"}, "fusion_lon": 0.0}, {"lat": 38.81050966666667, "is_disabled": 0, "type": "electric_bike", "lon": -77.08508783333333, "bike_id": "606fde388c9f8845a73f8a4e4fd93d70", "fusion_lat": 0.0, "name": "606fde388c9f8845a73f8a4e4fd93d70", "is_reserved": 0, "rental_uris": {"android": "https://dc.lft.to/lastmile_qr_scan", "ios": "https://dc.lft.to/lastmile_qr_scan"}, "fusion_lon": 0.0}, {"lat": 38.9187885, "is_disabled": 0, "type": "electric_scooter", "lon": -77.03503516666666, "bike_id": "9edfd3a0cf4ab4f01cbdb32f43a7519f", "fusion_lat": 0.0, "name": "9edfd3a0cf4ab4f01cbdb32f43a7519f", "is_reserved": 0, "rental_uris": {"android": "https://dc.lft.to/lastmile_qr_scan", "ios": "https://dc.lft.to/lastmile_qr_scan"}, "fusion_lon": 0.0}, {"lat": 38.946008, "is_disabled": 0, "type": "electric_scooter", "lon": -77.070372, "bike_id": "98f600148d9adcdd6a08e4778880172b", "fusion_lat": 0.0, "name": "98f600148d9adcdd6a08e4778880172b", "is_reserved": 0, "rental_uris": {"android": "https://dc.lft.to/lastmile_qr_scan", "ios": "https://dc.lft.to/lastmile_qr_scan"}, "fusion_lon": 0.0}, {"lat": 38.844249166666664, "is_disabled": 0, "type": "electric_scooter", "lon": -76.99779183333334, "bike_id": "7ca6f9f4c96c7dbd8163233c3680c4b0", "fusion_lat": 0.0, "name": "7ca6f9f4c96c7dbd8163233c3680c4b0", "is_reserved": 0, "rental_uris": {"android": "https://dc.lft.to/lastmile_qr_scan", "ios": "https://dc.lft.to/lastmile_qr_scan"}, "fusion_lon": 0.0}, {"lat": 38.92601283333333, "is_disabled": 0, "type": "electric_scooter", "lon": -77.05692283333333, "bike_id": "4b9713caf3351c283f097a73a71adcc3", "fusion_lat": 0.0, "name": "4b9713caf3351c283f097a73a71adcc3", "is_reserved": 0, "rental_uris": {"android": "https://dc.lft.to/lastmile_qr_scan", "ios": "https://dc.lft.to/lastmile_qr_scan"}, "fusion_lon": 0.0}, {"lat": 38.893701166666666, "is_disabled": 0, "type": "electric_scooter", "lon": -76.9910775, "bike_id": "0dbc2b05f3c2c0dcd4bd70d2cb681e0c", "fusion_lat": 0.0, "name": "0dbc2b05f3c2c0dcd4bd70d2cb681e0c", "is_reserved": 0, "rental_uris": {"android": "https://dc.lft.to/lastmile_qr_scan", "ios": "https://dc.lft.to/lastmile_qr_scan"}, "fusion_lon": 0.0}, {"lat": 38.903909, "is_disabled": 0, "type": "electric_scooter", "lon": -77.0532055, "bike_id": "aa6499de2b36a84432fd3c9e21e64840", "fusion_lat": 0.0, "name": "aa6499de2b36a84432fd3c9e21e64840", "is_reserved": 0, "rental_uris": {"android": "https://dc.lft.to/lastmile_qr_scan", "ios": "https://dc.lft.to/lastmile_qr_scan"}, "fusion_lon": 0.0}, {"lat": 38.85429466666667, "is_disabled": 0, "type": "electric_bike", "lon": -76.9097075, "bike_id": "a708574affdc5b4f2d02bda6ba30e1ad", "fusion_lat": 0.0, "name": "a708574affdc5b4f2d02bda6ba30e1ad", "is_reserved": 0, "rental_uris": {"android": "https://dc.lft.to/lastmile_qr_scan", "ios": "https://dc.lft.to/lastmile_qr_scan"}, "fusion_lon": 0.0}, {"lat": 38.915557166666666, "is_disabled": 0, "type": "electric_scooter", "lon": -77.00976133333333, "bike_id": "2269b9f3906a1ad2e9e07dda8e321142", "fusion_lat": 0.0, "name": "2269b9f3906a1ad2e9e07dda8e321142", "is_reserved": 0, "rental_uris": {"android": "https://dc.lft.to/lastmile_qr_scan", "ios": "https://dc.lft.to/lastmile_qr_scan"}, "fusion_lon": 0.0}, {"lat": 38.90486633333333, "is_disabled": 0, "type": "electric_scooter", "lon": -76.99541533333333, "bike_id": "d8063a5eebbb9d311297ff49ce180342", "fusion_lat": 0.0, "name": "d8063a5eebbb9d311297ff49ce180342", "is_reserved": 0, "rental_uris": {"android": "https://dc.lft.to/lastmile_qr_scan", "ios": "https://dc.lft.to/lastmile_qr_scan"}, "fusion_lon": 0.0}, {"lat": 38.923860166666664, "is_disabled": 0, "type": "electric_scooter", "lon": -77.02760416666666, "bike_id": "9e5bcc084b258312e4a7ce26b8dcd4a0", "fusion_lat": 0.0, "name": "9e5bcc084b258312e4a7ce26b8dcd4a0", "is_reserved": 0, "rental_uris": {"android": "https://dc.lft.to/lastmile_qr_scan", "ios": "https://dc.lft.to/lastmile_qr_scan"}, "fusion_lon": 0.0}, {"lat": 38.8774845, "is_disabled": 0, "type": "electric_bike", "lon": -76.99521083333333, "bike_id": "d7688bae5395bc7040119f338e645ca5", "fusion_lat": 0.0, "name": "d7688bae5395bc7040119f338e645ca5", "is_reserved": 0, "rental_uris": {"android": "https://dc.lft.to/lastmile_qr_scan", "ios": "https://dc.lft.to/lastmile_qr_scan"}, "fusion_lon": 0.0}, {"lat": 38.92112483333333, "is_disabled": 0, "type": "electric_scooter", "lon": -77.042248, "bike_id": "e06a73c14afaf5daab4e0a5387dbc160", "fusion_lat": 0.0, "name": "e06a73c14afaf5daab4e0a5387dbc160", "is_reserved": 0, "rental_uris": {"android": "https://dc.lft.to/lastmile_qr_scan", "ios": "https://dc.lft.to/lastmile_qr_scan"}, "fusion_lon": 0.0}, {"lat": 38.869067666666666, "is_disabled": 0, "type": "electric_bike", "lon": -77.13180283333334, "bike_id": "56ec88e75e2ac586815fce6236574fd4", "fusion_lat": 0.0, "name": "56ec88e75e2ac586815fce6236574fd4", "is_reserved": 0, "rental_uris": {"android": "https://dc.lft.to/lastmile_qr_scan", "ios": "https://dc.lft.to/lastmile_qr_scan"}, "fusion_lon": 0.0}, {"lat": 38.89470166666667, "is_disabled": 0, "type": "electric_scooter", "lon": -77.02120666666667, "bike_id": "4a4f2e8f1ec875c7b460881b30577aa9", "fusion_lat": 0.0, "name": "4a4f2e8f1ec875c7b460881b30577aa9", "is_reserved": 0, "rental_uris": {"android": "https://dc.lft.to/lastmile_qr_scan", "ios": "https://dc.lft.to/lastmile_qr_scan"}, "fusion_lon": 0.0}, {"lat": 38.91052766666667, "is_disabled": 0, "type": "electric_scooter", "lon": -77.01510183333333, "bike_id": "f8e1889d32d05e800323b33fad1ec70c", "fusion_lat": 0.0, "name": "f8e1889d32d05e800323b33fad1ec70c", "is_reserved": 0, "rental_uris": {"android": "https://dc.lft.to/lastmile_qr_scan", "ios": "https://dc.lft.to/lastmile_qr_scan"}, "fusion_lon": 0.0}, {"lat": 38.932891833333336, "is_disabled": 0, "type": "electric_scooter", "lon": -77.0397085, "bike_id": "a57b2e2d3c41c179a4dbdcd797b621fa", "fusion_lat": 0.0, "name": "a57b2e2d3c41c179a4dbdcd797b621fa", "is_reserved": 0, "rental_uris": {"android": "https://dc.lft.to/lastmile_qr_scan", "ios": "https://dc.lft.to/lastmile_qr_scan"}, "fusion_lon": 0.0}, {"lat": 38.94289466666667, "is_disabled": 0, "type": "electric_scooter", "lon": -77.07714433333334, "bike_id": "27d37aaadd26d1ff46a687542db0462b", "fusion_lat": 0.0, "name": "27d37aaadd26d1ff46a687542db0462b", "is_reserved": 0, "rental_uris": {"android": "https://dc.lft.to/lastmile_qr_scan", "ios": "https://dc.lft.to/lastmile_qr_scan"}, "fusion_lon": 0.0}, {"lat": 38.924852, "is_disabled": 0, "type": "electric_scooter", "lon": -77.05213083333334, "bike_id": "a2d5bf9244f3210147cd21511dfb4d36", "fusion_lat": 0.0, "name": "a2d5bf9244f3210147cd21511dfb4d36", "is_reserved": 0, "rental_uris": {"android": "https://dc.lft.to/lastmile_qr_scan", "ios": "https://dc.lft.to/lastmile_qr_scan"}, "fusion_lon": 0.0}, {"lat": 38.931752833333334, "is_disabled": 0, "type": "electric_scooter", "lon": -77.02812583333333, "bike_id": "047681bc54e64d457b27e5591385daeb", "fusion_lat": 0.0, "name": "047681bc54e64d457b27e5591385daeb", "is_reserved": 0, "rental_uris": {"android": "https://dc.lft.to/lastmile_qr_scan", "ios": "https://dc.lft.to/lastmile_qr_scan"}, "fusion_lon": 0.0}, {"lat": 38.895062833333334, "is_disabled": 0, "type": "electric_scooter", "lon": -77.02288966666667, "bike_id": "d1c6af87044b81b063b4658248f5d986", "fusion_lat": 0.0, "name": "d1c6af87044b81b063b4658248f5d986", "is_reserved": 0, "rental_uris": {"android": "https://dc.lft.to/lastmile_qr_scan", "ios": "https://dc.lft.to/lastmile_qr_scan"}, "fusion_lon": 0.0}, {"lat": 38.90296033333333, "is_disabled": 0, "type": "electric_scooter", "lon": -77.02605733333333, "bike_id": "ba7577907a3ce653d302ba1acaac8a54", "fusion_lat": 0.0, "name": "ba7577907a3ce653d302ba1acaac8a54", "is_reserved": 0, "rental_uris": {"android": "https://dc.lft.to/lastmile_qr_scan", "ios": "https://dc.lft.to/lastmile_qr_scan"}, "fusion_lon": 0.0}, {"lat": 38.94172316666667, "is_disabled": 0, "type": "electric_scooter", "lon": -77.02351916666667, "bike_id": "a4eea167e5377d45f642abc40e83f94d", "fusion_lat": 0.0, "name": "a4eea167e5377d45f642abc40e83f94d", "is_reserved": 0, "rental_uris": {"android": "https://dc.lft.to/lastmile_qr_scan", "ios": "https://dc.lft.to/lastmile_qr_scan"}, "fusion_lon": 0.0}, {"lat": 38.89384416666667, "is_disabled": 0, "type": "electric_scooter", "lon": -76.9498295, "bike_id": "9c16f255d6a8c0645b26dfc0f4caa265", "fusion_lat": 0.0, "name": "9c16f255d6a8c0645b26dfc0f4caa265", "is_reserved": 0, "rental_uris": {"android": "https://dc.lft.to/lastmile_qr_scan", "ios": "https://dc.lft.to/lastmile_qr_scan"}, "fusion_lon": 0.0}, {"lat": 38.84658066666667, "is_disabled": 0, "type": "electric_bike", "lon": -76.97929866666666, "bike_id": "d86b6cc2c96be8eb30868a06efbf3641", "fusion_lat": 0.0, "name": "d86b6cc2c96be8eb30868a06efbf3641", "is_reserved": 0, "rental_uris": {"android": "https://dc.lft.to/lastmile_qr_scan", "ios": "https://dc.lft.to/lastmile_qr_scan"}, "fusion_lon": 0.0}, {"lat": 38.92598016666667, "is_disabled": 0, "type": "electric_scooter", "lon": -77.03220666666667, "bike_id": "1b88ecb3c0bc8c71d9f521f9159f1fad", "fusion_lat": 0.0, "name": "1b88ecb3c0bc8c71d9f521f9159f1fad", "is_reserved": 0, "rental_uris": {"android": "https://dc.lft.to/lastmile_qr_scan", "ios": "https://dc.lft.to/lastmile_qr_scan"}, "fusion_lon": 0.0}, {"lat": 38.94631783333333, "is_disabled": 0, "type": "electric_scooter", "lon": -77.01844433333333, "bike_id": "379286c9451d4cc5f7f322a8976a594b", "fusion_lat": 0.0, "name": "379286c9451d4cc5f7f322a8976a594b", "is_reserved": 0, "rental_uris": {"android": "https://dc.lft.to/lastmile_qr_scan", "ios": "https://dc.lft.to/lastmile_qr_scan"}, "fusion_lon": 0.0}, {"lat": 38.887065166666666, "is_disabled": 0, "type": "electric_scooter", "lon": -77.00153916666666, "bike_id": "c8dfa023aa2743c5656e2f63d48371ca", "fusion_lat": 0.0, "name": "c8dfa023aa2743c5656e2f63d48371ca", "is_reserved": 0, "rental_uris": {"android": "https://dc.lft.to/lastmile_qr_scan", "ios": "https://dc.lft.to/lastmile_qr_scan"}, "fusion_lon": 0.0}, {"lat": 38.929004666666664, "is_disabled": 0, "type": "electric_scooter", "lon": -77.03257366666666, "bike_id": "18348bf680b93136beff9a1fb76a9192", "fusion_lat": 0.0, "name": "18348bf680b93136beff9a1fb76a9192", "is_reserved": 0, "rental_uris": {"android": "https://dc.lft.to/lastmile_qr_scan", "ios": "https://dc.lft.to/lastmile_qr_scan"}, "fusion_lon": 0.0}, {"lat": 38.92201766666667, "is_disabled": 0, "type": "electric_scooter", "lon": -77.042549, "bike_id": "53f4ab3b6ec9f6e0c965d304d3c64fa3", "fusion_lat": 0.0, "name": "53f4ab3b6ec9f6e0c965d304d3c64fa3", "is_reserved": 0, "rental_uris": {"android": "https://dc.lft.to/lastmile_qr_scan", "ios": "https://dc.lft.to/lastmile_qr_scan"}, "fusion_lon": 0.0}, {"lat": 38.93682966666667, "is_disabled": 0, "type": "electric_scooter", "lon": -77.0357105, "bike_id": "f5a0413ae732e89dcc7180e746fa1a2b", "fusion_lat": 0.0, "name": "f5a0413ae732e89dcc7180e746fa1a2b", "is_reserved": 0, "rental_uris": {"android": "https://dc.lft.to/lastmile_qr_scan", "ios": "https://dc.lft.to/lastmile_qr_scan"}, "fusion_lon": 0.0}, {"lat": 38.928831333333335, "is_disabled": 0, "type": "electric_scooter", "lon": -77.03220083333333, "bike_id": "c60ec8a1e15504367625a41b482b7b0c", "fusion_lat": 0.0, "name": "c60ec8a1e15504367625a41b482b7b0c", "is_reserved": 0, "rental_uris": {"android": "https://dc.lft.to/lastmile_qr_scan", "ios": "https://dc.lft.to/lastmile_qr_scan"}, "fusion_lon": 0.0}, {"lat": 38.89517033333333, "is_disabled": 0, "type": "electric_scooter", "lon": -77.04363766666667, "bike_id": "4c1a58f45eebf09894d88990e918c610", "fusion_lat": 0.0, "name": "4c1a58f45eebf09894d88990e918c610", "is_reserved": 0, "rental_uris": {"android": "https://dc.lft.to/lastmile_qr_scan", "ios": "https://dc.lft.to/lastmile_qr_scan"}, "fusion_lon": 0.0}, {"lat": 38.923244833333335, "is_disabled": 0, "type": "electric_scooter", "lon": -77.03905033333334, "bike_id": "ff0851ff5cac1a7e052a648a12290924", "fusion_lat": 0.0, "name": "ff0851ff5cac1a7e052a648a12290924", "is_reserved": 0, "rental_uris": {"android": "https://dc.lft.to/lastmile_qr_scan", "ios": "https://dc.lft.to/lastmile_qr_scan"}, "fusion_lon": 0.0}, {"lat": 38.90966683333333, "is_disabled": 0, "type": "electric_scooter", "lon": -77.045116, "bike_id": "149e43e41426ad3c132ea53760c2b9bb", "fusion_lat": 0.0, "name": "149e43e41426ad3c132ea53760c2b9bb", "is_reserved": 0, "rental_uris": {"android": "https://dc.lft.to/lastmile_qr_scan", "ios": "https://dc.lft.to/lastmile_qr_scan"}, "fusion_lon": 0.0}, {"lat": 38.901393166666665, "is_disabled": 0, "type": "electric_scooter", "lon": -77.00067966666667, "bike_id": "95aeddb8ed6af30da1c06e788ae07120", "fusion_lat": 0.0, "name": "95aeddb8ed6af30da1c06e788ae07120", "is_reserved": 0, "rental_uris": {"android": "https://dc.lft.to/lastmile_qr_scan", "ios": "https://dc.lft.to/lastmile_qr_scan"}, "fusion_lon": 0.0}, {"lat": 39.030476666666665, "is_disabled": 0, "type": "electric_bike", "lon": -77.09481416666667, "bike_id": "157742bcb14aa70e2ce3374387137a17", "fusion_lat": 0.0, "name": "157742bcb14aa70e2ce3374387137a17", "is_reserved": 0, "rental_uris": {"android": "https://dc.lft.to/lastmile_qr_scan", "ios": "https://dc.lft.to/lastmile_qr_scan"}, "fusion_lon": 0.0}, {"lat": 38.9218925, "is_disabled": 0, "type": "electric_scooter", "lon": -77.04231033333333, "bike_id": "287b25f6dd2b83728671f5a1e6b91404", "fusion_lat": 0.0, "name": "287b25f6dd2b83728671f5a1e6b91404", "is_reserved": 0, "rental_uris": {"android": "https://dc.lft.to/lastmile_qr_scan", "ios": "https://dc.lft.to/lastmile_qr_scan"}, "fusion_lon": 0.0}, {"lat": 38.9350415, "is_disabled": 0, "type": "electric_scooter", "lon": -77.02406583333334, "bike_id": "075aa85c03f35c26a44990879f449385", "fusion_lat": 0.0, "name": "075aa85c03f35c26a44990879f449385", "is_reserved": 0, "rental_uris": {"android": "https://dc.lft.to/lastmile_qr_scan", "ios": "https://dc.lft.to/lastmile_qr_scan"}, "fusion_lon": 0.0}, {"lat": 38.90078, "is_disabled": 0, "type": "electric_scooter", "lon": -77.05310766666666, "bike_id": "1ccc001fed7c979652da19c460fd4305", "fusion_lat": 0.0, "name": "1ccc001fed7c979652da19c460fd4305", "is_reserved": 0, "rental_uris": {"android": "https://dc.lft.to/lastmile_qr_scan", "ios": "https://dc.lft.to/lastmile_qr_scan"}, "fusion_lon": 0.0}, {"lat": 38.88721783333333, "is_disabled": 0, "type": "electric_scooter", "lon": -77.01378466666667, "bike_id": "6dbe72fd35ba71dc98535c97012b57fe", "fusion_lat": 0.0, "name": "6dbe72fd35ba71dc98535c97012b57fe", "is_reserved": 0, "rental_uris": {"android": "https://dc.lft.to/lastmile_qr_scan", "ios": "https://dc.lft.to/lastmile_qr_scan"}, "fusion_lon": 0.0}, {"lat": 38.904764, "is_disabled": 0, "type": "electric_bike", "lon": -77.0675915, "bike_id": "3ae31bbaef97f0de789cbdf007aecaa5", "fusion_lat": 0.0, "name": "3ae31bbaef97f0de789cbdf007aecaa5", "is_reserved": 0, "rental_uris": {"android": "https://dc.lft.to/lastmile_qr_scan", "ios": "https://dc.lft.to/lastmile_qr_scan"}, "fusion_lon": 0.0}, {"lat": 38.9622805, "is_disabled": 0, "type": "electric_scooter", "lon": -77.0297655, "bike_id": "85fff1b8ccf21d0e9a6a84a221f5827e", "fusion_lat": 0.0, "name": "85fff1b8ccf21d0e9a6a84a221f5827e", "is_reserved": 0, "rental_uris": {"android": "https://dc.lft.to/lastmile_qr_scan", "ios": "https://dc.lft.to/lastmile_qr_scan"}, "fusion_lon": 0.0}, {"lat": 38.903006, "is_disabled": 0, "type": "electric_scooter", "lon": -77.02061816666667, "bike_id": "55b002382d0e010d8e6471ea364e66f6", "fusion_lat": 0.0, "name": "55b002382d0e010d8e6471ea364e66f6", "is_reserved": 0, "rental_uris": {"android": "https://dc.lft.to/lastmile_qr_scan", "ios": "https://dc.lft.to/lastmile_qr_scan"}, "fusion_lon": 0.0}, {"lat": 38.9192645, "is_disabled": 0, "type": "electric_scooter", "lon": -77.00095683333333, "bike_id": "7c667e81cb933165927aa28625c12913", "fusion_lat": 0.0, "name": "7c667e81cb933165927aa28625c12913", "is_reserved": 0, "rental_uris": {"android": "https://dc.lft.to/lastmile_qr_scan", "ios": "https://dc.lft.to/lastmile_qr_scan"}, "fusion_lon": 0.0}, {"lat": 38.9245805, "is_disabled": 0, "type": "electric_scooter", "lon": -77.01219616666667, "bike_id": "31a0560e7bb100343bfd30e10c2dbd59", "fusion_lat": 0.0, "name": "31a0560e7bb100343bfd30e10c2dbd59", "is_reserved": 0, "rental_uris": {"android": "https://dc.lft.to/lastmile_qr_scan", "ios": "https://dc.lft.to/lastmile_qr_scan"}, "fusion_lon": 0.0}, {"lat": 38.92055383333334, "is_disabled": 0, "type": "electric_scooter", "lon": -77.0328945, "bike_id": "9e0f6d0fa48added01eef334b2eb856d", "fusion_lat": 0.0, "name": "9e0f6d0fa48added01eef334b2eb856d", "is_reserved": 0, "rental_uris": {"android": "https://dc.lft.to/lastmile_qr_scan", "ios": "https://dc.lft.to/lastmile_qr_scan"}, "fusion_lon": 0.0}, {"lat": 38.90873583333333, "is_disabled": 0, "type": "electric_scooter", "lon": -77.03672383333334, "bike_id": "5a37e0ae66e8e4b12e37ce5f7d90c71a", "fusion_lat": 0.0, "name": "5a37e0ae66e8e4b12e37ce5f7d90c71a", "is_reserved": 0, "rental_uris": {"android": "https://dc.lft.to/lastmile_qr_scan", "ios": "https://dc.lft.to/lastmile_qr_scan"}, "fusion_lon": 0.0}, {"lat": 38.908993833333334, "is_disabled": 0, "type": "electric_scooter", "lon": -77.03640933333334, "bike_id": "673f26eaa36df259631001e5bd56ab9c", "fusion_lat": 0.0, "name": "673f26eaa36df259631001e5bd56ab9c", "is_reserved": 0, "rental_uris": {"android": "https://dc.lft.to/lastmile_qr_scan", "ios": "https://dc.lft.to/lastmile_qr_scan"}, "fusion_lon": 0.0}, {"lat": 38.86359983333333, "is_disabled": 0, "type": "electric_scooter", "lon": -76.98274266666667, "bike_id": "0cb8f9c7c777c4ee116b4a46bd0be80a", "fusion_lat": 0.0, "name": "0cb8f9c7c777c4ee116b4a46bd0be80a", "is_reserved": 0, "rental_uris": {"android": "https://dc.lft.to/lastmile_qr_scan", "ios": "https://dc.lft.to/lastmile_qr_scan"}, "fusion_lon": 0.0}, {"lat": 38.8948095, "is_disabled": 0, "type": "electric_scooter", "lon": -77.05019883333334, "bike_id": "4349693b1e90ab3dfdb591e644d1d294", "fusion_lat": 0.0, "name": "4349693b1e90ab3dfdb591e644d1d294", "is_reserved": 0, "rental_uris": {"android": "https://dc.lft.to/lastmile_qr_scan", "ios": "https://dc.lft.to/lastmile_qr_scan"}, "fusion_lon": 0.0}, {"lat": 38.907910333333334, "is_disabled": 0, "type": "electric_scooter", "lon": -77.06896866666666, "bike_id": "8884c83a677c483580a287d9700f6c66", "fusion_lat": 0.0, "name": "8884c83a677c483580a287d9700f6c66", "is_reserved": 0, "rental_uris": {"android": "https://dc.lft.to/lastmile_qr_scan", "ios": "https://dc.lft.to/lastmile_qr_scan"}, "fusion_lon": 0.0}, {"lat": 38.88731516666667, "is_disabled": 0, "type": "electric_scooter", "lon": -77.02841, "bike_id": "29419b1a31e039ccb92a74ed717b578d", "fusion_lat": 0.0, "name": "29419b1a31e039ccb92a74ed717b578d", "is_reserved": 0, "rental_uris": {"android": "https://dc.lft.to/lastmile_qr_scan", "ios": "https://dc.lft.to/lastmile_qr_scan"}, "fusion_lon": 0.0}, {"lat": 38.93975283333333, "is_disabled": 0, "type": "electric_scooter", "lon": -77.03588733333333, "bike_id": "0351756af78f481aa267f32c7f2e40f3", "fusion_lat": 0.0, "name": "0351756af78f481aa267f32c7f2e40f3", "is_reserved": 0, "rental_uris": {"android": "https://dc.lft.to/lastmile_qr_scan", "ios": "https://dc.lft.to/lastmile_qr_scan"}, "fusion_lon": 0.0}, {"lat": 38.939834, "is_disabled": 0, "type": "electric_scooter", "lon": -77.03265466666667, "bike_id": "4d4f746aeceb6a0706cb3dcc1eaab93e", "fusion_lat": 0.0, "name": "4d4f746aeceb6a0706cb3dcc1eaab93e", "is_reserved": 0, "rental_uris": {"android": "https://dc.lft.to/lastmile_qr_scan", "ios": "https://dc.lft.to/lastmile_qr_scan"}, "fusion_lon": 0.0}, {"lat": 38.92472816666667, "is_disabled": 0, "type": "electric_scooter", "lon": -77.02630966666666, "bike_id": "24d778a50318351cfb927a6b895cef5a", "fusion_lat": 0.0, "name": "24d778a50318351cfb927a6b895cef5a", "is_reserved": 0, "rental_uris": {"android": "https://dc.lft.to/lastmile_qr_scan", "ios": "https://dc.lft.to/lastmile_qr_scan"}, "fusion_lon": 0.0}, {"lat": 38.9169595, "is_disabled": 0, "type": "electric_scooter", "lon": -77.04606533333333, "bike_id": "d1c2afcf6072bf6924ea4d72cc98ddf0", "fusion_lat": 0.0, "name": "d1c2afcf6072bf6924ea4d72cc98ddf0", "is_reserved": 0, "rental_uris": {"android": "https://dc.lft.to/lastmile_qr_scan", "ios": "https://dc.lft.to/lastmile_qr_scan"}, "fusion_lon": 0.0}, {"lat": 38.8768105, "is_disabled": 0, "type": "electric_scooter", "lon": -77.01787433333334, "bike_id": "8cba623a00235a164f88f686318dd444", "fusion_lat": 0.0, "name": "8cba623a00235a164f88f686318dd444", "is_reserved": 0, "rental_uris": {"android": "https://dc.lft.to/lastmile_qr_scan", "ios": "https://dc.lft.to/lastmile_qr_scan"}, "fusion_lon": 0.0}, {"lat": 38.86728683333333, "is_disabled": 0, "type": "electric_scooter", "lon": -77.01013433333334, "bike_id": "fb683f3b935db8d86f42e1fe14c85939", "fusion_lat": 0.0, "name": "fb683f3b935db8d86f42e1fe14c85939", "is_reserved": 0, "rental_uris": {"android": "https://dc.lft.to/lastmile_qr_scan", "ios": "https://dc.lft.to/lastmile_qr_scan"}, "fusion_lon": 0.0}, {"lat": 38.857914666666666, "is_disabled": 0, "type": "electric_bike", "lon": -77.09960283333334, "bike_id": "4b710ef3e7519a87135d873a67714449", "fusion_lat": 0.0, "name": "4b710ef3e7519a87135d873a67714449", "is_reserved": 0, "rental_uris": {"android": "https://dc.lft.to/lastmile_qr_scan", "ios": "https://dc.lft.to/lastmile_qr_scan"}, "fusion_lon": 0.0}, {"lat": 38.932257, "is_disabled": 0, "type": "electric_scooter", "lon": -77.03861466666666, "bike_id": "c7866a4a987965dabcb36bc5f6a52bad", "fusion_lat": 0.0, "name": "c7866a4a987965dabcb36bc5f6a52bad", "is_reserved": 0, "rental_uris": {"android": "https://dc.lft.to/lastmile_qr_scan", "ios": "https://dc.lft.to/lastmile_qr_scan"}, "fusion_lon": 0.0}, {"lat": 38.92254466666667, "is_disabled": 0, "type": "electric_scooter", "lon": -77.04256933333333, "bike_id": "5d74034b896788b5af805c69406e14db", "fusion_lat": 0.0, "name": "5d74034b896788b5af805c69406e14db", "is_reserved": 0, "rental_uris": {"android": "https://dc.lft.to/lastmile_qr_scan", "ios": "https://dc.lft.to/lastmile_qr_scan"}, "fusion_lon": 0.0}, {"lat": 38.93985, "is_disabled": 0, "type": "electric_scooter", "lon": -77.02885016666667, "bike_id": "ddfa2886233d54774766fe4038f9b1ea", "fusion_lat": 0.0, "name": "ddfa2886233d54774766fe4038f9b1ea", "is_reserved": 0, "rental_uris": {"android": "https://dc.lft.to/lastmile_qr_scan", "ios": "https://dc.lft.to/lastmile_qr_scan"}, "fusion_lon": 0.0}, {"lat": 38.932669833333335, "is_disabled": 0, "type": "electric_scooter", "lon": -77.03266033333334, "bike_id": "b173864e2636fa041b45bcc7d648c246", "fusion_lat": 0.0, "name": "b173864e2636fa041b45bcc7d648c246", "is_reserved": 0, "rental_uris": {"android": "https://dc.lft.to/lastmile_qr_scan", "ios": "https://dc.lft.to/lastmile_qr_scan"}, "fusion_lon": 0.0}, {"lat": 38.89222933333333, "is_disabled": 0, "type": "electric_scooter", "lon": -77.013872, "bike_id": "2f15e135ea9c9cadf449fae245aff7c9", "fusion_lat": 0.0, "name": "2f15e135ea9c9cadf449fae245aff7c9", "is_reserved": 0, "rental_uris": {"android": "https://dc.lft.to/lastmile_qr_scan", "ios": "https://dc.lft.to/lastmile_qr_scan"}, "fusion_lon": 0.0}, {"lat": 38.86344116666667, "is_disabled": 0, "type": "electric_scooter", "lon": -76.99002116666666, "bike_id": "35c5f976f059cbe207f72e9feb6b5268", "fusion_lat": 0.0, "name": "35c5f976f059cbe207f72e9feb6b5268", "is_reserved": 0, "rental_uris": {"android": "https://dc.lft.to/lastmile_qr_scan", "ios": "https://dc.lft.to/lastmile_qr_scan"}, "fusion_lon": 0.0}, {"lat": 38.842925, "is_disabled": 0, "type": "electric_scooter", "lon": -76.99948883333333, "bike_id": "824e4bb45a0bde8b35e8ac0c0cbeb861", "fusion_lat": 0.0, "name": "824e4bb45a0bde8b35e8ac0c0cbeb861", "is_reserved": 0, "rental_uris": {"android": "https://dc.lft.to/lastmile_qr_scan", "ios": "https://dc.lft.to/lastmile_qr_scan"}, "fusion_lon": 0.0}, {"lat": 38.91915683333333, "is_disabled": 0, "type": "electric_bike", "lon": -77.0462405, "bike_id": "074ccbf0e5ef368463859166bb181233", "fusion_lat": 0.0, "name": "074ccbf0e5ef368463859166bb181233", "is_reserved": 0, "rental_uris": {"android": "https://dc.lft.to/lastmile_qr_scan", "ios": "https://dc.lft.to/lastmile_qr_scan"}, "fusion_lon": 0.0}, {"lat": 38.9555515, "is_disabled": 0, "type": "electric_bike", "lon": -76.93542216666667, "bike_id": "18e059d025b330fbf868596e684eb173", "fusion_lat": 0.0, "name": "18e059d025b330fbf868596e684eb173", "is_reserved": 0, "rental_uris": {"android": "https://dc.lft.to/lastmile_qr_scan", "ios": "https://dc.lft.to/lastmile_qr_scan"}, "fusion_lon": 0.0}, {"lat": 38.931997, "is_disabled": 0, "type": "electric_bike", "lon": -77.07825816666667, "bike_id": "2678d6b89891e837cf51b2a4ff71fe4b", "fusion_lat": 0.0, "name": "2678d6b89891e837cf51b2a4ff71fe4b", "is_reserved": 0, "rental_uris": {"android": "https://dc.lft.to/lastmile_qr_scan", "ios": "https://dc.lft.to/lastmile_qr_scan"}, "fusion_lon": 0.0}, {"lat": 38.904765, "is_disabled": 0, "type": "electric_scooter", "lon": -77.0308285, "bike_id": "eb42067fe17e5a64afb28bd9e13b7f00", "fusion_lat": 0.0, "name": "eb42067fe17e5a64afb28bd9e13b7f00", "is_reserved": 0, "rental_uris": {"android": "https://dc.lft.to/lastmile_qr_scan", "ios": "https://dc.lft.to/lastmile_qr_scan"}, "fusion_lon": 0.0}, {"lat": 38.9148005, "is_disabled": 0, "type": "electric_scooter", "lon": -77.01818866666666, "bike_id": "b642ece757a049082ddaa19c57722ff7", "fusion_lat": 0.0, "name": "b642ece757a049082ddaa19c57722ff7", "is_reserved": 0, "rental_uris": {"android": "https://dc.lft.to/lastmile_qr_scan", "ios": "https://dc.lft.to/lastmile_qr_scan"}, "fusion_lon": 0.0}, {"lat": 38.899168333333336, "is_disabled": 0, "type": "electric_scooter", "lon": -76.93378383333334, "bike_id": "31cdf12fd3d027f2b2ddaa2929873744", "fusion_lat": 0.0, "name": "31cdf12fd3d027f2b2ddaa2929873744", "is_reserved": 0, "rental_uris": {"android": "https://dc.lft.to/lastmile_qr_scan", "ios": "https://dc.lft.to/lastmile_qr_scan"}, "fusion_lon": 0.0}, {"lat": 38.926831, "is_disabled": 0, "type": "electric_scooter", "lon": -77.05107416666667, "bike_id": "0315dfb5cee0de0c02507856b92bd4e5", "fusion_lat": 0.0, "name": "0315dfb5cee0de0c02507856b92bd4e5", "is_reserved": 0, "rental_uris": {"android": "https://dc.lft.to/lastmile_qr_scan", "ios": "https://dc.lft.to/lastmile_qr_scan"}, "fusion_lon": 0.0}, {"lat": 38.95778333333333, "is_disabled": 0, "type": "electric_scooter", "lon": -77.0246445, "bike_id": "413cd959ddab3e864fc3a293dd6c4a66", "fusion_lat": 0.0, "name": "413cd959ddab3e864fc3a293dd6c4a66", "is_reserved": 0, "rental_uris": {"android": "https://dc.lft.to/lastmile_qr_scan", "ios": "https://dc.lft.to/lastmile_qr_scan"}, "fusion_lon": 0.0}, {"lat": 38.90255783333333, "is_disabled": 0, "type": "electric_scooter", "lon": -77.0163675, "bike_id": "68063021809972d7575bd5c627178e14", "fusion_lat": 0.0, "name": "68063021809972d7575bd5c627178e14", "is_reserved": 0, "rental_uris": {"android": "https://dc.lft.to/lastmile_qr_scan", "ios": "https://dc.lft.to/lastmile_qr_scan"}, "fusion_lon": 0.0}, {"lat": 38.88049433333333, "is_disabled": 0, "type": "electric_scooter", "lon": -77.017678, "bike_id": "2a089c7ed37df81eb10e5b533399798f", "fusion_lat": 0.0, "name": "2a089c7ed37df81eb10e5b533399798f", "is_reserved": 0, "rental_uris": {"android": "https://dc.lft.to/lastmile_qr_scan", "ios": "https://dc.lft.to/lastmile_qr_scan"}, "fusion_lon": 0.0}, {"lat": 38.8706795, "is_disabled": 0, "type": "electric_scooter", "lon": -77.00837866666667, "bike_id": "488ccf788d705955131393edb191d4f9", "fusion_lat": 0.0, "name": "488ccf788d705955131393edb191d4f9", "is_reserved": 0, "rental_uris": {"android": "https://dc.lft.to/lastmile_qr_scan", "ios": "https://dc.lft.to/lastmile_qr_scan"}, "fusion_lon": 0.0}, {"lat": 38.91183483333333, "is_disabled": 0, "type": "electric_scooter", "lon": -77.00643483333333, "bike_id": "a0ec9bde8e93627216b0c9b905e4967c", "fusion_lat": 0.0, "name": "a0ec9bde8e93627216b0c9b905e4967c", "is_reserved": 0, "rental_uris": {"android": "https://dc.lft.to/lastmile_qr_scan", "ios": "https://dc.lft.to/lastmile_qr_scan"}, "fusion_lon": 0.0}, {"lat": 38.87473583333333, "is_disabled": 0, "type": "electric_scooter", "lon": -77.0092815, "bike_id": "065ac21801333a4ab80e190eaac9f1cc", "fusion_lat": 0.0, "name": "065ac21801333a4ab80e190eaac9f1cc", "is_reserved": 0, "rental_uris": {"android": "https://dc.lft.to/lastmile_qr_scan", "ios": "https://dc.lft.to/lastmile_qr_scan"}, "fusion_lon": 0.0}, {"lat": 38.9096245, "is_disabled": 0, "type": "electric_scooter", "lon": -77.02270766666666, "bike_id": "9f2cbebac516f222762314bbbb356474", "fusion_lat": 0.0, "name": "9f2cbebac516f222762314bbbb356474", "is_reserved": 0, "rental_uris": {"android": "https://dc.lft.to/lastmile_qr_scan", "ios": "https://dc.lft.to/lastmile_qr_scan"}, "fusion_lon": 0.0}, {"lat": 38.9225505, "is_disabled": 0, "type": "electric_scooter", "lon": -77.04214033333334, "bike_id": "b67433a1bdff8781769eb877e745461e", "fusion_lat": 0.0, "name": "b67433a1bdff8781769eb877e745461e", "is_reserved": 0, "rental_uris": {"android": "https://dc.lft.to/lastmile_qr_scan", "ios": "https://dc.lft.to/lastmile_qr_scan"}, "fusion_lon": 0.0}, {"lat": 38.89818366666667, "is_disabled": 0, "type": "electric_scooter", "lon": -77.00898466666666, "bike_id": "01a59cd5efb3d3ac19c6e4f62bb5f97f", "fusion_lat": 0.0, "name": "01a59cd5efb3d3ac19c6e4f62bb5f97f", "is_reserved": 0, "rental_uris": {"android": "https://dc.lft.to/lastmile_qr_scan", "ios": "https://dc.lft.to/lastmile_qr_scan"}, "fusion_lon": 0.0}, {"lat": 38.902836, "is_disabled": 0, "type": "electric_scooter", "lon": -76.97392983333333, "bike_id": "2a8475cb9497529adf2efb22d46901dd", "fusion_lat": 0.0, "name": "2a8475cb9497529adf2efb22d46901dd", "is_reserved": 0, "rental_uris": {"android": "https://dc.lft.to/lastmile_qr_scan", "ios": "https://dc.lft.to/lastmile_qr_scan"}, "fusion_lon": 0.0}, {"lat": 38.91610283333333, "is_disabled": 0, "type": "electric_scooter", "lon": -77.02126466666667, "bike_id": "77d0c4d113d6c7d9733f241bc3cfa15d", "fusion_lat": 0.0, "name": "77d0c4d113d6c7d9733f241bc3cfa15d", "is_reserved": 0, "rental_uris": {"android": "https://dc.lft.to/lastmile_qr_scan", "ios": "https://dc.lft.to/lastmile_qr_scan"}, "fusion_lon": 0.0}, {"lat": 38.906278, "is_disabled": 0, "type": "electric_scooter", "lon": -77.0434495, "bike_id": "6bb36f1d25f5ec2e6798ba0dc1cc60ff", "fusion_lat": 0.0, "name": "6bb36f1d25f5ec2e6798ba0dc1cc60ff", "is_reserved": 0, "rental_uris": {"android": "https://dc.lft.to/lastmile_qr_scan", "ios": "https://dc.lft.to/lastmile_qr_scan"}, "fusion_lon": 0.0}, {"lat": 38.92291383333333, "is_disabled": 0, "type": "electric_scooter", "lon": -77.0296895, "bike_id": "ff943c7c62306f046da51fa7a13357fd", "fusion_lat": 0.0, "name": "ff943c7c62306f046da51fa7a13357fd", "is_reserved": 0, "rental_uris": {"android": "https://dc.lft.to/lastmile_qr_scan", "ios": "https://dc.lft.to/lastmile_qr_scan"}, "fusion_lon": 0.0}, {"lat": 38.90025083333333, "is_disabled": 0, "type": "electric_scooter", "lon": -77.002097, "bike_id": "2bc847ec37a4591732dc362135dc87ae", "fusion_lat": 0.0, "name": "2bc847ec37a4591732dc362135dc87ae", "is_reserved": 0, "rental_uris": {"android": "https://dc.lft.to/lastmile_qr_scan", "ios": "https://dc.lft.to/lastmile_qr_scan"}, "fusion_lon": 0.0}, {"lat": 38.88746283333333, "is_disabled": 0, "type": "electric_scooter", "lon": -77.031531, "bike_id": "76d1042febe36e847de580d0817fb492", "fusion_lat": 0.0, "name": "76d1042febe36e847de580d0817fb492", "is_reserved": 0, "rental_uris": {"android": "https://dc.lft.to/lastmile_qr_scan", "ios": "https://dc.lft.to/lastmile_qr_scan"}, "fusion_lon": 0.0}, {"lat": 38.93478783333333, "is_disabled": 0, "type": "electric_scooter", "lon": -77.05792166666667, "bike_id": "2071d8a8c16fca01c87fd120d035dd67", "fusion_lat": 0.0, "name": "2071d8a8c16fca01c87fd120d035dd67", "is_reserved": 0, "rental_uris": {"android": "https://dc.lft.to/lastmile_qr_scan", "ios": "https://dc.lft.to/lastmile_qr_scan"}, "fusion_lon": 0.0}, {"lat": 38.924904, "is_disabled": 0, "type": "electric_scooter", "lon": -77.03183516666667, "bike_id": "b7f21a1d7697da5da2600934ace141e2", "fusion_lat": 0.0, "name": "b7f21a1d7697da5da2600934ace141e2", "is_reserved": 0, "rental_uris": {"android": "https://dc.lft.to/lastmile_qr_scan", "ios": "https://dc.lft.to/lastmile_qr_scan"}, "fusion_lon": 0.0}, {"lat": 38.94200766666667, "is_disabled": 0, "type": "electric_bike", "lon": -77.0182255, "bike_id": "55a51c76f8c7452ad9038b9d83f27f69", "fusion_lat": 0.0, "name": "55a51c76f8c7452ad9038b9d83f27f69", "is_reserved": 0, "rental_uris": {"android": "https://dc.lft.to/lastmile_qr_scan", "ios": "https://dc.lft.to/lastmile_qr_scan"}, "fusion_lon": 0.0}, {"lat": 38.96609683333333, "is_disabled": 0, "type": "electric_scooter", "lon": -77.02054166666667, "bike_id": "7a6b56d9bf4e94094361ab225f4ba4f5", "fusion_lat": 0.0, "name": "7a6b56d9bf4e94094361ab225f4ba4f5", "is_reserved": 0, "rental_uris": {"android": "https://dc.lft.to/lastmile_qr_scan", "ios": "https://dc.lft.to/lastmile_qr_scan"}, "fusion_lon": 0.0}, {"lat": 38.858098, "is_disabled": 0, "type": "electric_scooter", "lon": -76.9865195, "bike_id": "a991a941e4a244b19e2833f0ee8d382c", "fusion_lat": 0.0, "name": "a991a941e4a244b19e2833f0ee8d382c", "is_reserved": 0, "rental_uris": {"android": "https://dc.lft.to/lastmile_qr_scan", "ios": "https://dc.lft.to/lastmile_qr_scan"}, "fusion_lon": 0.0}, {"lat": 38.92543033333333, "is_disabled": 0, "type": "electric_scooter", "lon": -77.03448283333333, "bike_id": "598894d36025a2b0bd125eeab75eaae0", "fusion_lat": 0.0, "name": "598894d36025a2b0bd125eeab75eaae0", "is_reserved": 0, "rental_uris": {"android": "https://dc.lft.to/lastmile_qr_scan", "ios": "https://dc.lft.to/lastmile_qr_scan"}, "fusion_lon": 0.0}, {"lat": 38.91271916666667, "is_disabled": 0, "type": "electric_scooter", "lon": -77.03208833333333, "bike_id": "9ae2dc0acf0ca78b5449b609b4e405c4", "fusion_lat": 0.0, "name": "9ae2dc0acf0ca78b5449b609b4e405c4", "is_reserved": 0, "rental_uris": {"android": "https://dc.lft.to/lastmile_qr_scan", "ios": "https://dc.lft.to/lastmile_qr_scan"}, "fusion_lon": 0.0}, {"lat": 38.89877233333333, "is_disabled": 0, "type": "electric_scooter", "lon": -76.93184416666666, "bike_id": "80d47e53dd8a9715a9d6052904a6acb0", "fusion_lat": 0.0, "name": "80d47e53dd8a9715a9d6052904a6acb0", "is_reserved": 0, "rental_uris": {"android": "https://dc.lft.to/lastmile_qr_scan", "ios": "https://dc.lft.to/lastmile_qr_scan"}, "fusion_lon": 0.0}, {"lat": 38.9514005, "is_disabled": 0, "type": "electric_scooter", "lon": -77.01332916666667, "bike_id": "c931ba8ab71f10b88c8be7ae51b3fae0", "fusion_lat": 0.0, "name": "c931ba8ab71f10b88c8be7ae51b3fae0", "is_reserved": 0, "rental_uris": {"android": "https://dc.lft.to/lastmile_qr_scan", "ios": "https://dc.lft.to/lastmile_qr_scan"}, "fusion_lon": 0.0}, {"lat": 38.970905333333334, "is_disabled": 0, "type": "electric_bike", "lon": -77.069648, "bike_id": "d09aedbe6ab5c702b636f29d278d4339", "fusion_lat": 0.0, "name": "d09aedbe6ab5c702b636f29d278d4339", "is_reserved": 0, "rental_uris": {"android": "https://dc.lft.to/lastmile_qr_scan", "ios": "https://dc.lft.to/lastmile_qr_scan"}, "fusion_lon": 0.0}, {"lat": 38.89493066666667, "is_disabled": 0, "type": "electric_scooter", "lon": -77.02172333333333, "bike_id": "de2a8b2b72925f4bacca5a951d25a038", "fusion_lat": 0.0, "name": "de2a8b2b72925f4bacca5a951d25a038", "is_reserved": 0, "rental_uris": {"android": "https://dc.lft.to/lastmile_qr_scan", "ios": "https://dc.lft.to/lastmile_qr_scan"}, "fusion_lon": 0.0}, {"lat": 38.925537166666665, "is_disabled": 0, "type": "electric_scooter", "lon": -77.03300016666667, "bike_id": "9f782aaf9c8498b8f3135d437506a94b", "fusion_lat": 0.0, "name": "9f782aaf9c8498b8f3135d437506a94b", "is_reserved": 0, "rental_uris": {"android": "https://dc.lft.to/lastmile_qr_scan", "ios": "https://dc.lft.to/lastmile_qr_scan"}, "fusion_lon": 0.0}, {"lat": 38.918777, "is_disabled": 0, "type": "electric_scooter", "lon": -77.04721316666667, "bike_id": "57976b04f39679bf8703a482cb96f00c", "fusion_lat": 0.0, "name": "57976b04f39679bf8703a482cb96f00c", "is_reserved": 0, "rental_uris": {"android": "https://dc.lft.to/lastmile_qr_scan", "ios": "https://dc.lft.to/lastmile_qr_scan"}, "fusion_lon": 0.0}, {"lat": 38.925858166666664, "is_disabled": 0, "type": "electric_scooter", "lon": -77.00476566666667, "bike_id": "651c9cf3b6713aca53907147ae305184", "fusion_lat": 0.0, "name": "651c9cf3b6713aca53907147ae305184", "is_reserved": 0, "rental_uris": {"android": "https://dc.lft.to/lastmile_qr_scan", "ios": "https://dc.lft.to/lastmile_qr_scan"}, "fusion_lon": 0.0}, {"lat": 38.906509, "is_disabled": 0, "type": "electric_scooter", "lon": -77.02503616666667, "bike_id": "355c9d2e7cde3187bbc819c743a582dc", "fusion_lat": 0.0, "name": "355c9d2e7cde3187bbc819c743a582dc", "is_reserved": 0, "rental_uris": {"android": "https://dc.lft.to/lastmile_qr_scan", "ios": "https://dc.lft.to/lastmile_qr_scan"}, "fusion_lon": 0.0}, {"lat": 38.901362, "is_disabled": 0, "type": "electric_scooter", "lon": -76.99746116666667, "bike_id": "55e206f16e2c0991771aad34d149ab4f", "fusion_lat": 0.0, "name": "55e206f16e2c0991771aad34d149ab4f", "is_reserved": 0, "rental_uris": {"android": "https://dc.lft.to/lastmile_qr_scan", "ios": "https://dc.lft.to/lastmile_qr_scan"}, "fusion_lon": 0.0}, {"lat": 38.90317533333333, "is_disabled": 0, "type": "electric_scooter", "lon": -76.9780445, "bike_id": "839d33ed135e0b4ff652ccfd69fee38f", "fusion_lat": 0.0, "name": "839d33ed135e0b4ff652ccfd69fee38f", "is_reserved": 0, "rental_uris": {"android": "https://dc.lft.to/lastmile_qr_scan", "ios": "https://dc.lft.to/lastmile_qr_scan"}, "fusion_lon": 0.0}, {"lat": 38.90718233333333, "is_disabled": 0, "type": "electric_scooter", "lon": -77.0475435, "bike_id": "aed8c88f6a0068a1c95a471cb173caa7", "fusion_lat": 0.0, "name": "aed8c88f6a0068a1c95a471cb173caa7", "is_reserved": 0, "rental_uris": {"android": "https://dc.lft.to/lastmile_qr_scan", "ios": "https://dc.lft.to/lastmile_qr_scan"}, "fusion_lon": 0.0}, {"lat": 38.922403833333334, "is_disabled": 0, "type": "electric_scooter", "lon": -77.02983316666666, "bike_id": "50e46820f28d98045326d95eb0f87fb9", "fusion_lat": 0.0, "name": "50e46820f28d98045326d95eb0f87fb9", "is_reserved": 0, "rental_uris": {"android": "https://dc.lft.to/lastmile_qr_scan", "ios": "https://dc.lft.to/lastmile_qr_scan"}, "fusion_lon": 0.0}, {"lat": 38.9020065, "is_disabled": 0, "type": "electric_scooter", "lon": -77.0216615, "bike_id": "ac5b8724320b4bbc00a8000eed297368", "fusion_lat": 0.0, "name": "ac5b8724320b4bbc00a8000eed297368", "is_reserved": 0, "rental_uris": {"android": "https://dc.lft.to/lastmile_qr_scan", "ios": "https://dc.lft.to/lastmile_qr_scan"}, "fusion_lon": 0.0}, {"lat": 38.88499933333333, "is_disabled": 0, "type": "electric_scooter", "lon": -77.01556933333333, "bike_id": "bb78c3f27cfa2b4131fd019cad9e0e08", "fusion_lat": 0.0, "name": "bb78c3f27cfa2b4131fd019cad9e0e08", "is_reserved": 0, "rental_uris": {"android": "https://dc.lft.to/lastmile_qr_scan", "ios": "https://dc.lft.to/lastmile_qr_scan"}, "fusion_lon": 0.0}, {"lat": 38.91325416666667, "is_disabled": 0, "type": "electric_scooter", "lon": -77.0312375, "bike_id": "52b8c8efcf47c7a6fd94efa5474587ae", "fusion_lat": 0.0, "name": "52b8c8efcf47c7a6fd94efa5474587ae", "is_reserved": 0, "rental_uris": {"android": "https://dc.lft.to/lastmile_qr_scan", "ios": "https://dc.lft.to/lastmile_qr_scan"}, "fusion_lon": 0.0}, {"lat": 38.941269166666665, "is_disabled": 0, "type": "electric_bike", "lon": -76.9962535, "bike_id": "346dc4e799510c4d650397fdad3b020c", "fusion_lat": 0.0, "name": "346dc4e799510c4d650397fdad3b020c", "is_reserved": 0, "rental_uris": {"android": "https://dc.lft.to/lastmile_qr_scan", "ios": "https://dc.lft.to/lastmile_qr_scan"}, "fusion_lon": 0.0}, {"lat": 38.924372166666664, "is_disabled": 0, "type": "electric_scooter", "lon": -77.033724, "bike_id": "9f6363f633708d5aa132e42922aa8a19", "fusion_lat": 0.0, "name": "9f6363f633708d5aa132e42922aa8a19", "is_reserved": 0, "rental_uris": {"android": "https://dc.lft.to/lastmile_qr_scan", "ios": "https://dc.lft.to/lastmile_qr_scan"}, "fusion_lon": 0.0}, {"lat": 38.92335383333333, "is_disabled": 0, "type": "electric_scooter", "lon": -77.04448333333333, "bike_id": "cc9881307bd07bee81446320eb319fba", "fusion_lat": 0.0, "name": "cc9881307bd07bee81446320eb319fba", "is_reserved": 0, "rental_uris": {"android": "https://dc.lft.to/lastmile_qr_scan", "ios": "https://dc.lft.to/lastmile_qr_scan"}, "fusion_lon": 0.0}, {"lat": 38.8952015, "is_disabled": 0, "type": "electric_scooter", "lon": -77.04359066666666, "bike_id": "a4884c3784ca63bc6b4107d41455d6fa", "fusion_lat": 0.0, "name": "a4884c3784ca63bc6b4107d41455d6fa", "is_reserved": 0, "rental_uris": {"android": "https://dc.lft.to/lastmile_qr_scan", "ios": "https://dc.lft.to/lastmile_qr_scan"}, "fusion_lon": 0.0}, {"lat": 38.906791166666665, "is_disabled": 0, "type": "electric_scooter", "lon": -77.03656516666666, "bike_id": "731350657a74d040224fe87da03853a7", "fusion_lat": 0.0, "name": "731350657a74d040224fe87da03853a7", "is_reserved": 0, "rental_uris": {"android": "https://dc.lft.to/lastmile_qr_scan", "ios": "https://dc.lft.to/lastmile_qr_scan"}, "fusion_lon": 0.0}, {"lat": 38.909487666666664, "is_disabled": 0, "type": "electric_scooter", "lon": -77.04676516666666, "bike_id": "4c274aeb39bae1cd4c9ec42cfe16c034", "fusion_lat": 0.0, "name": "4c274aeb39bae1cd4c9ec42cfe16c034", "is_reserved": 0, "rental_uris": {"android": "https://dc.lft.to/lastmile_qr_scan", "ios": "https://dc.lft.to/lastmile_qr_scan"}, "fusion_lon": 0.0}, {"lat": 39.09437366666667, "is_disabled": 0, "type": "electric_bike", "lon": -77.134582, "bike_id": "8ec66d111627ff32b64e95823d951e3e", "fusion_lat": 0.0, "name": "8ec66d111627ff32b64e95823d951e3e", "is_reserved": 0, "rental_uris": {"android": "https://dc.lft.to/lastmile_qr_scan", "ios": "https://dc.lft.to/lastmile_qr_scan"}, "fusion_lon": 0.0}, {"lat": 38.91977816666667, "is_disabled": 0, "type": "electric_scooter", "lon": -77.04122833333334, "bike_id": "9fcccdbbd837c83b23b75921bd3247f7", "fusion_lat": 0.0, "name": "9fcccdbbd837c83b23b75921bd3247f7", "is_reserved": 0, "rental_uris": {"android": "https://dc.lft.to/lastmile_qr_scan", "ios": "https://dc.lft.to/lastmile_qr_scan"}, "fusion_lon": 0.0}, {"lat": 38.86285516666667, "is_disabled": 0, "type": "electric_scooter", "lon": -76.992402, "bike_id": "6cd944204cd7493332c2c4f3fedeafe9", "fusion_lat": 0.0, "name": "6cd944204cd7493332c2c4f3fedeafe9", "is_reserved": 0, "rental_uris": {"android": "https://dc.lft.to/lastmile_qr_scan", "ios": "https://dc.lft.to/lastmile_qr_scan"}, "fusion_lon": 0.0}, {"lat": 38.93084133333333, "is_disabled": 0, "type": "electric_scooter", "lon": -77.02792116666667, "bike_id": "0785c09e47c935e1c894d8e6e64bffd6", "fusion_lat": 0.0, "name": "0785c09e47c935e1c894d8e6e64bffd6", "is_reserved": 0, "rental_uris": {"android": "https://dc.lft.to/lastmile_qr_scan", "ios": "https://dc.lft.to/lastmile_qr_scan"}, "fusion_lon": 0.0}, {"lat": 38.8984645, "is_disabled": 0, "type": "electric_scooter", "lon": -76.94471566666667, "bike_id": "77ed1ec75e258ba0f12be03f9fc2ffad", "fusion_lat": 0.0, "name": "77ed1ec75e258ba0f12be03f9fc2ffad", "is_reserved": 0, "rental_uris": {"android": "https://dc.lft.to/lastmile_qr_scan", "ios": "https://dc.lft.to/lastmile_qr_scan"}, "fusion_lon": 0.0}, {"lat": 38.921979, "is_disabled": 0, "type": "electric_scooter", "lon": -77.04253416666667, "bike_id": "29e526f638c1ad87f7b3e734fbac776a", "fusion_lat": 0.0, "name": "29e526f638c1ad87f7b3e734fbac776a", "is_reserved": 0, "rental_uris": {"android": "https://dc.lft.to/lastmile_qr_scan", "ios": "https://dc.lft.to/lastmile_qr_scan"}, "fusion_lon": 0.0}, {"lat": 38.900369, "is_disabled": 0, "type": "electric_scooter", "lon": -76.99673116666666, "bike_id": "20132c58040e7dff39b7c6281e0ed2f1", "fusion_lat": 0.0, "name": "20132c58040e7dff39b7c6281e0ed2f1", "is_reserved": 0, "rental_uris": {"android": "https://dc.lft.to/lastmile_qr_scan", "ios": "https://dc.lft.to/lastmile_qr_scan"}, "fusion_lon": 0.0}, {"lat": 38.9355595, "is_disabled": 0, "type": "electric_scooter", "lon": -77.05877366666667, "bike_id": "11e00c6e728f68179d10f2b26755e871", "fusion_lat": 0.0, "name": "11e00c6e728f68179d10f2b26755e871", "is_reserved": 0, "rental_uris": {"android": "https://dc.lft.to/lastmile_qr_scan", "ios": "https://dc.lft.to/lastmile_qr_scan"}, "fusion_lon": 0.0}, {"lat": 38.9221005, "is_disabled": 0, "type": "electric_scooter", "lon": -77.04028983333333, "bike_id": "923ee4dbb83bd11d5c7fbdcb4e5a5a38", "fusion_lat": 0.0, "name": "923ee4dbb83bd11d5c7fbdcb4e5a5a38", "is_reserved": 0, "rental_uris": {"android": "https://dc.lft.to/lastmile_qr_scan", "ios": "https://dc.lft.to/lastmile_qr_scan"}, "fusion_lon": 0.0}, {"lat": 38.86711016666667, "is_disabled": 0, "type": "electric_scooter", "lon": -76.987241, "bike_id": "1a639528641c7df20dd9b3146038855d", "fusion_lat": 0.0, "name": "1a639528641c7df20dd9b3146038855d", "is_reserved": 0, "rental_uris": {"android": "https://dc.lft.to/lastmile_qr_scan", "ios": "https://dc.lft.to/lastmile_qr_scan"}, "fusion_lon": 0.0}, {"lat": 38.896037, "is_disabled": 0, "type": "electric_scooter", "lon": -77.01223933333333, "bike_id": "b6b7a3735e322185e20d99fb2e6486af", "fusion_lat": 0.0, "name": "b6b7a3735e322185e20d99fb2e6486af", "is_reserved": 0, "rental_uris": {"android": "https://dc.lft.to/lastmile_qr_scan", "ios": "https://dc.lft.to/lastmile_qr_scan"}, "fusion_lon": 0.0}, {"lat": 38.916608333333336, "is_disabled": 0, "type": "electric_bike", "lon": -77.04726516666666, "bike_id": "1c129e1ada309171dfef0cc3fa7716ce", "fusion_lat": 0.0, "name": "1c129e1ada309171dfef0cc3fa7716ce", "is_reserved": 0, "rental_uris": {"android": "https://dc.lft.to/lastmile_qr_scan", "ios": "https://dc.lft.to/lastmile_qr_scan"}, "fusion_lon": 0.0}, {"lat": 38.90870483333333, "is_disabled": 0, "type": "electric_scooter", "lon": -77.04660666666666, "bike_id": "d49924a5e0aa8f08da99641722880e20", "fusion_lat": 0.0, "name": "d49924a5e0aa8f08da99641722880e20", "is_reserved": 0, "rental_uris": {"android": "https://dc.lft.to/lastmile_qr_scan", "ios": "https://dc.lft.to/lastmile_qr_scan"}, "fusion_lon": 0.0}, {"lat": 38.90617733333333, "is_disabled": 0, "type": "electric_scooter", "lon": -77.0651645, "bike_id": "42b0d11f442b399207bcc943b5b980bd", "fusion_lat": 0.0, "name": "42b0d11f442b399207bcc943b5b980bd", "is_reserved": 0, "rental_uris": {"android": "https://dc.lft.to/lastmile_qr_scan", "ios": "https://dc.lft.to/lastmile_qr_scan"}, "fusion_lon": 0.0}, {"lat": 38.9186065, "is_disabled": 0, "type": "electric_scooter", "lon": -77.03647933333333, "bike_id": "6b572900445e07751cd4e84272597d48", "fusion_lat": 0.0, "name": "6b572900445e07751cd4e84272597d48", "is_reserved": 0, "rental_uris": {"android": "https://dc.lft.to/lastmile_qr_scan", "ios": "https://dc.lft.to/lastmile_qr_scan"}, "fusion_lon": 0.0}, {"lat": 38.9318605, "is_disabled": 0, "type": "electric_scooter", "lon": -77.03154783333333, "bike_id": "bb2c01fcc0fe8d30317599a1680f3f4b", "fusion_lat": 0.0, "name": "bb2c01fcc0fe8d30317599a1680f3f4b", "is_reserved": 0, "rental_uris": {"android": "https://dc.lft.to/lastmile_qr_scan", "ios": "https://dc.lft.to/lastmile_qr_scan"}, "fusion_lon": 0.0}, {"lat": 38.911987833333335, "is_disabled": 0, "type": "electric_scooter", "lon": -77.04488333333333, "bike_id": "e0763f94cd7392fb68394305623a556d", "fusion_lat": 0.0, "name": "e0763f94cd7392fb68394305623a556d", "is_reserved": 0, "rental_uris": {"android": "https://dc.lft.to/lastmile_qr_scan", "ios": "https://dc.lft.to/lastmile_qr_scan"}, "fusion_lon": 0.0}, {"lat": 38.8962305, "is_disabled": 0, "type": "electric_scooter", "lon": -77.04501633333334, "bike_id": "37d80091f4bda9bc843e6853ad3dfdd7", "fusion_lat": 0.0, "name": "37d80091f4bda9bc843e6853ad3dfdd7", "is_reserved": 0, "rental_uris": {"android": "https://dc.lft.to/lastmile_qr_scan", "ios": "https://dc.lft.to/lastmile_qr_scan"}, "fusion_lon": 0.0}, {"lat": 38.9250485, "is_disabled": 0, "type": "electric_scooter", "lon": -77.03793233333333, "bike_id": "15e78c94e0436fbfe119faf10de42517", "fusion_lat": 0.0, "name": "15e78c94e0436fbfe119faf10de42517", "is_reserved": 0, "rental_uris": {"android": "https://dc.lft.to/lastmile_qr_scan", "ios": "https://dc.lft.to/lastmile_qr_scan"}, "fusion_lon": 0.0}, {"lat": 38.884588666666666, "is_disabled": 0, "type": "electric_scooter", "lon": -76.92619333333333, "bike_id": "26d5357b650d3c58e85f691c0c692a88", "fusion_lat": 0.0, "name": "26d5357b650d3c58e85f691c0c692a88", "is_reserved": 0, "rental_uris": {"android": "https://dc.lft.to/lastmile_qr_scan", "ios": "https://dc.lft.to/lastmile_qr_scan"}, "fusion_lon": 0.0}, {"lat": 38.909557, "is_disabled": 0, "type": "electric_scooter", "lon": -77.03664566666667, "bike_id": "973118c8552b8ffb4c502f270412f7b1", "fusion_lat": 0.0, "name": "973118c8552b8ffb4c502f270412f7b1", "is_reserved": 0, "rental_uris": {"android": "https://dc.lft.to/lastmile_qr_scan", "ios": "https://dc.lft.to/lastmile_qr_scan"}, "fusion_lon": 0.0}, {"lat": 38.92248333333333, "is_disabled": 0, "type": "electric_scooter", "lon": -77.07798233333334, "bike_id": "913457b75bcb73e01347d8586f98a72d", "fusion_lat": 0.0, "name": "913457b75bcb73e01347d8586f98a72d", "is_reserved": 0, "rental_uris": {"android": "https://dc.lft.to/lastmile_qr_scan", "ios": "https://dc.lft.to/lastmile_qr_scan"}, "fusion_lon": 0.0}, {"lat": 38.807466833333336, "is_disabled": 0, "type": "electric_bike", "lon": -77.09428483333333, "bike_id": "22922e8cf0e0645dd29eeb79a9a83174", "fusion_lat": 0.0, "name": "22922e8cf0e0645dd29eeb79a9a83174", "is_reserved": 0, "rental_uris": {"android": "https://dc.lft.to/lastmile_qr_scan", "ios": "https://dc.lft.to/lastmile_qr_scan"}, "fusion_lon": 0.0}, {"lat": 38.938767, "is_disabled": 0, "type": "electric_scooter", "lon": -77.02444283333334, "bike_id": "9af941dfed168f82c3645f84dbc55afc", "fusion_lat": 0.0, "name": "9af941dfed168f82c3645f84dbc55afc", "is_reserved": 0, "rental_uris": {"android": "https://dc.lft.to/lastmile_qr_scan", "ios": "https://dc.lft.to/lastmile_qr_scan"}, "fusion_lon": 0.0}, {"lat": 38.9375745, "is_disabled": 0, "type": "electric_scooter", "lon": -77.03142966666667, "bike_id": "f90c55b48780094fa6566ecfced04b8d", "fusion_lat": 0.0, "name": "f90c55b48780094fa6566ecfced04b8d", "is_reserved": 0, "rental_uris": {"android": "https://dc.lft.to/lastmile_qr_scan", "ios": "https://dc.lft.to/lastmile_qr_scan"}, "fusion_lon": 0.0}, {"lat": 38.90028233333334, "is_disabled": 0, "type": "electric_scooter", "lon": -76.99809166666667, "bike_id": "31254f49b8fbcf132128d54d91eb0c8b", "fusion_lat": 0.0, "name": "31254f49b8fbcf132128d54d91eb0c8b", "is_reserved": 0, "rental_uris": {"android": "https://dc.lft.to/lastmile_qr_scan", "ios": "https://dc.lft.to/lastmile_qr_scan"}, "fusion_lon": 0.0}, {"lat": 38.908819, "is_disabled": 0, "type": "electric_scooter", "lon": -77.064368, "bike_id": "c4a666604976c20b3375ea87ec4267f0", "fusion_lat": 0.0, "name": "c4a666604976c20b3375ea87ec4267f0", "is_reserved": 0, "rental_uris": {"android": "https://dc.lft.to/lastmile_qr_scan", "ios": "https://dc.lft.to/lastmile_qr_scan"}, "fusion_lon": 0.0}, {"lat": 38.928541333333335, "is_disabled": 0, "type": "electric_bike", "lon": -77.10678216666666, "bike_id": "6fd43c408872ce91a46683719b240eb0", "fusion_lat": 0.0, "name": "6fd43c408872ce91a46683719b240eb0", "is_reserved": 0, "rental_uris": {"android": "https://dc.lft.to/lastmile_qr_scan", "ios": "https://dc.lft.to/lastmile_qr_scan"}, "fusion_lon": 0.0}, {"lat": 38.881276, "is_disabled": 0, "type": "electric_scooter", "lon": -77.0197505, "bike_id": "a863752a74512500e82008bfe2d24990", "fusion_lat": 0.0, "name": "a863752a74512500e82008bfe2d24990", "is_reserved": 0, "rental_uris": {"android": "https://dc.lft.to/lastmile_qr_scan", "ios": "https://dc.lft.to/lastmile_qr_scan"}, "fusion_lon": 0.0}, {"lat": 38.926232666666664, "is_disabled": 0, "type": "electric_scooter", "lon": -77.04409283333334, "bike_id": "3b8b750f7a18af4e5b5915b1dd8f4bd0", "fusion_lat": 0.0, "name": "3b8b750f7a18af4e5b5915b1dd8f4bd0", "is_reserved": 0, "rental_uris": {"android": "https://dc.lft.to/lastmile_qr_scan", "ios": "https://dc.lft.to/lastmile_qr_scan"}, "fusion_lon": 0.0}, {"lat": 38.8960865, "is_disabled": 0, "type": "electric_scooter", "lon": -76.95655316666667, "bike_id": "c925f19d54a12c3e8564af06d32d303d", "fusion_lat": 0.0, "name": "c925f19d54a12c3e8564af06d32d303d", "is_reserved": 0, "rental_uris": {"android": "https://dc.lft.to/lastmile_qr_scan", "ios": "https://dc.lft.to/lastmile_qr_scan"}, "fusion_lon": 0.0},