{"data": {"bikes": [{"lat": 38.920688, "type": "electric_scooter", "is_disabled": 0, "name": "92055504709827c22d027e4783d613ed", "bike_id": "92055504709827c22d027e4783d613ed", "fusion_lon": 0.0, "rental_uris": {"ios": "https://dc.lft.to/lastmile_qr_scan", "android": "https://dc.lft.to/lastmile_qr_scan"}, "is_reserved": 0, "fusion_lat": 0.0, "lon": -77.0379665}, {"lat": 38.922451333333335, "type": "electric_scooter", "is_disabled": 0, "name": "9a9d1568bf91a7eb2ab29d30b3ad1582", "bike_id": "9a9d1568bf91a7eb2ab29d30b3ad1582", "fusion_lon": 0.0, "rental_uris": {"ios": "https://dc.lft.to/lastmile_qr_scan", "android": "https://dc.lft.to/lastmile_qr_scan"}, "is_reserved": 0, "fusion_lat": 0.0, "lon": -77.04364616666666}, {"lat": 38.93701133333333, "type": "electric_scooter", "is_disabled": 0, "name": "d08a031ce8cf5ae605642ddb672c80a2", "bike_id": "d08a031ce8cf5ae605642ddb672c80a2", "fusion_lon": 0.0, "rental_uris": {"ios": "https://dc.lft.to/lastmile_qr_scan", "android": "https://dc.lft.to/lastmile_qr_scan"}, "is_reserved": 0, "fusion_lat": 0.0, "lon": -77.03282366666667}, {"lat": 38.898784666666664, "type": "electric_scooter", "is_disabled": 0, "name": "7bf175e6ab77c8a4307ea9830f43fb40", "bike_id": "7bf175e6ab77c8a4307ea9830f43fb40", "fusion_lon": 0.0, "rental_uris": {"ios": "https://dc.lft.to/lastmile_qr_scan", "android": "https://dc.lft.to/lastmile_qr_scan"}, "is_reserved": 0, "fusion_lat": 0.0, "lon": -77.03340683333333}, {"lat": 38.8968395, "type": "electric_scooter", "is_disabled": 0, "name": "a0720a3ab71479ba8255061f9a381c62", "bike_id": "a0720a3ab71479ba8255061f9a381c62", "fusion_lon": 0.0, "rental_uris": {"ios": "https://dc.lft.to/lastmile_qr_scan", "android": "https://dc.lft.to/lastmile_qr_scan"}, "is_reserved": 0, "fusion_lat": 0.0, "lon": -77.04361616666667}, {"lat": 38.8985325, "type": "electric_scooter", "is_disabled": 0, "name": "1a8b857226de6e57f003a66037b31389", "bike_id": "1a8b857226de6e57f003a66037b31389", "fusion_lon": 0.0, "rental_uris": {"ios": "https://dc.lft.to/lastmile_qr_scan", "android": "https://dc.lft.to/lastmile_qr_scan"}, "is_reserved": 0, "fusion_lat": 0.0, "lon": -76.99032066666666}, {"lat": 38.90785133333333, "type": "electric_scooter", "is_disabled": 0, "name": "1d02a16e55ae1e94f435648a1a056a79", "bike_id": "1d02a16e55ae1e94f435648a1a056a79", "fusion_lon": 0.0, "rental_uris": {"ios": "https://dc.lft.to/lastmile_qr_scan", "android": "https://dc.lft.to/lastmile_qr_scan"}, "is_reserved": 0, "fusion_lat": 0.0, "lon": -77.02213066666667}, {"lat": 38.92919666666667, "type": "electric_scooter", "is_disabled": 0, "name": "c32115f04c932acf5d0faa4e8ce2054a", "bike_id": "c32115f04c932acf5d0faa4e8ce2054a", "fusion_lon": 0.0, "rental_uris": {"ios": "https://dc.lft.to/lastmile_qr_scan", "android": "https://dc.lft.to/lastmile_qr_scan"}, "is_reserved": 0, "fusion_lat": 0.0, "lon": -76.998154}, {"lat": 38.910070833333336, "type": "electric_scooter", "is_disabled": 0, "name": "b20cf2138dd4b58fbbcfd8f8ff5eb75d", "bike_id": "b20cf2138dd4b58fbbcfd8f8ff5eb75d", "fusion_lon": 0.0, "rental_uris": {"ios": "https://dc.lft.to/lastmile_qr_scan", "android": "https://dc.lft.to/lastmile_qr_scan"}, "is_reserved": 0, "fusion_lat": 0.0, "lon": -77.0450135}, {"lat": 38.90048733333333, "type": "electric_scooter", "is_disabled": 0, "name": "99aea7a069472c878636e976a6edc227", "bike_id": "99aea7a069472c878636e976a6edc227", "fusion_lon": 0.0, "rental_uris": {"ios": "https://dc.lft.to/lastmile_qr_scan", "android": "https://dc.lft.to/lastmile_qr_scan"}, "is_reserved": 0, "fusion_lat": 0.0, "lon": -76.98556816666667}, {"lat": 38.9287845, "type": "electric_scooter", "is_disabled": 0, "name": "d00eb5b057231558083f7c9ad24d32d9", "bike_id": "d00eb5b057231558083f7c9ad24d32d9", "fusion_lon": 0.0, "rental_uris": {"ios": "https://dc.lft.to/lastmile_qr_scan", "android": "https://dc.lft.to/lastmile_qr_scan"}, "is_reserved": 0, "fusion_lat": 0.0, "lon": -77.03316933333333}, {"lat": 38.903633, "type": "electric_scooter", "is_disabled": 0, "name": "4dc8cc96782f22dc0cd81b4631106791", "bike_id": "4dc8cc96782f22dc0cd81b4631106791", "fusion_lon": 0.0, "rental_uris": {"ios": "https://dc.lft.to/lastmile_qr_scan", "android": "https://dc.lft.to/lastmile_qr_scan"}, "is_reserved": 0, "fusion_lat": 0.0, "lon": -77.04006633333333}, {"lat": 38.8191695, "type": "electric_bike", "is_disabled": 0, "name": "1f9b591e458ab4b9bc2f3189db638b50", "bike_id": "1f9b591e458ab4b9bc2f3189db638b50", "fusion_lon": 0.0, "rental_uris": {"ios": "https://dc.lft.to/lastmile_qr_scan", "android": "https://dc.lft.to/lastmile_qr_scan"}, "is_reserved": 0, "fusion_lat": 0.0, "lon": -77.1266375}, {"lat": 38.92565416666667, "type": "electric_scooter", "is_disabled": 0, "name": "14cfb6f09987d9e482c78a76b832546d", "bike_id": "14cfb6f09987d9e482c78a76b832546d", "fusion_lon": 0.0, "rental_uris": {"ios": "https://dc.lft.to/lastmile_qr_scan", "android": "https://dc.lft.to/lastmile_qr_scan"}, "is_reserved": 0, "fusion_lat": 0.0, "lon": -77.02282416666667}, {"lat": 38.90149133333333, "type": "electric_scooter", "is_disabled": 0, "name": "d1a60a4c57f20e92b812c6d7ab3f0ff2", "bike_id": "d1a60a4c57f20e92b812c6d7ab3f0ff2", "fusion_lon": 0.0, "rental_uris": {"ios": "https://dc.lft.to/lastmile_qr_scan", "android": "https://dc.lft.to/lastmile_qr_scan"}, "is_reserved": 0, "fusion_lat": 0.0, "lon": -77.04892016666666}, {"lat": 38.924109666666666, "type": "electric_scooter", "is_disabled": 0, "name": "c1049df5fb8fe474ff55eec62c4869f3", "bike_id": "c1049df5fb8fe474ff55eec62c4869f3", "fusion_lon": 0.0, "rental_uris": {"ios": "https://dc.lft.to/lastmile_qr_scan", "android": "https://dc.lft.to/lastmile_qr_scan"}, "is_reserved": 0, "fusion_lat": 0.0, "lon": -77.0229685}, {"lat": 38.901883166666664, "type": "electric_scooter", "is_disabled": 0, "name": "05a16a1ba46545c561f16fe1d70bb7b4", "bike_id": "05a16a1ba46545c561f16fe1d70bb7b4", "fusion_lon": 0.0, "rental_uris": {"ios": "https://dc.lft.to/lastmile_qr_scan", "android": "https://dc.lft.to/lastmile_qr_scan"}, "is_reserved": 0, "fusion_lat": 0.0, "lon": -76.930018}, {"lat": 38.90567633333333, "type": "electric_scooter", "is_disabled": 0, "name": "4f1bad20aeb242a68c6bfee90526bb04", "bike_id": "4f1bad20aeb242a68c6bfee90526bb04", "fusion_lon": 0.0, "rental_uris": {"ios": "https://dc.lft.to/lastmile_qr_scan", "android": "https://dc.lft.to/lastmile_qr_scan"}, "is_reserved": 0, "fusion_lat": 0.0, "lon": -77.00619433333334}, {"lat": 38.90034433333334, "type": "electric_scooter", "is_disabled": 0, "name": "3b56297b1614264be2657890c2a6bf88", "bike_id": "3b56297b1614264be2657890c2a6bf88", "fusion_lon": 0.0, "rental_uris": {"ios": "https://dc.lft.to/lastmile_qr_scan", "android": "https://dc.lft.to/lastmile_qr_scan"}, "is_reserved": 0, "fusion_lat": 0.0, "lon": -77.01238283333333}, {"lat": 38.90530483333333, "type": "electric_scooter", "is_disabled": 0, "name": "0ad63774b4f4768a1a40c0e90556b774", "bike_id": "0ad63774b4f4768a1a40c0e90556b774", "fusion_lon": 0.0, "rental_uris": {"ios": "https://dc.lft.to/lastmile_qr_scan", "android": "https://dc.lft.to/lastmile_qr_scan"}, "is_reserved": 0, "fusion_lat": 0.0, "lon": -77.05199916666666}, {"lat": 38.89941, "type": "electric_scooter", "is_disabled": 0, "name": "edb3d7838d37d90802b78b02066fa6d2", "bike_id": "edb3d7838d37d90802b78b02066fa6d2", "fusion_lon": 0.0, "rental_uris": {"ios": "https://dc.lft.to/lastmile_qr_scan", "android": "https://dc.lft.to/lastmile_qr_scan"}, "is_reserved": 0, "fusion_lat": 0.0, "lon": -77.02958283333334}, {"lat": 38.89966183333333, "type": "electric_scooter", "is_disabled": 0, "name": "8a62fe27a0ae4b01680711cd04516ac1", "bike_id": "8a62fe27a0ae4b01680711cd04516ac1", "fusion_lon": 0.0, "rental_uris": {"ios": "https://dc.lft.to/lastmile_qr_scan", "android": "https://dc.lft.to/lastmile_qr_scan"}, "is_reserved": 0, "fusion_lat": 0.0, "lon": -77.03070966666667}, {"lat": 38.89836833333333, "type": "electric_scooter", "is_disabled": 0, "name": "27098f5b91891bd404bb386dc8f37c30", "bike_id": "27098f5b91891bd404bb386dc8f37c30", "fusion_lon": 0.0, "rental_uris": {"ios": "https://dc.lft.to/lastmile_qr_scan", "android": "https://dc.lft.to/lastmile_qr_scan"}, "is_reserved": 0, "fusion_lat": 0.0, "lon": -77.029344}, {"lat": 38.922408833333336, "type": "electric_scooter", "is_disabled": 0, "name": "4bab738331456b2be86ef21dcdf258a7", "bike_id": "4bab738331456b2be86ef21dcdf258a7", "fusion_lon": 0.0, "rental_uris": {"ios": "https://dc.lft.to/lastmile_qr_scan", "android": "https://dc.lft.to/lastmile_qr_scan"}, "is_reserved": 0, "fusion_lat": 0.0, "lon": -77.04268416666666}, {"lat": 38.97325766666667, "type": "electric_scooter", "is_disabled": 0, "name": "c3be514e6ea2ecd825d293cd3fe17254", "bike_id": "c3be514e6ea2ecd825d293cd3fe17254", "fusion_lon": 0.0, "rental_uris": {"ios": "https://dc.lft.to/lastmile_qr_scan", "android": "https://dc.lft.to/lastmile_qr_scan"}, "is_reserved": 0, "fusion_lat": 0.0, "lon": -77.02702116666667}, {"lat": 38.924636166666666, "type": "electric_scooter", "is_disabled": 0, "name": "2814a1caa1d7b5d58a0cfbe3021df6cb", "bike_id": "2814a1caa1d7b5d58a0cfbe3021df6cb", "fusion_lon": 0.0, "rental_uris": {"ios": "https://dc.lft.to/lastmile_qr_scan", "android": "https://dc.lft.to/lastmile_qr_scan"}, "is_reserved": 0, "fusion_lat": 0.0, "lon": -77.04200716666666}, {"lat": 38.92418516666667, "type": "electric_scooter", "is_disabled": 0, "name": "a6cef339f05437fac600e17352860197", "bike_id": "a6cef339f05437fac600e17352860197", "fusion_lon": 0.0, "rental_uris": {"ios": "https://dc.lft.to/lastmile_qr_scan", "android": "https://dc.lft.to/lastmile_qr_scan"}, "is_reserved": 0, "fusion_lat": 0.0, "lon": -77.02011933333333}, {"lat": 38.905885, "type": "electric_scooter", "is_disabled": 0, "name": "55430892ad958e0a7c7522529b965e33", "bike_id": "55430892ad958e0a7c7522529b965e33", "fusion_lon": 0.0, "rental_uris": {"ios": "https://dc.lft.to/lastmile_qr_scan", "android": "https://dc.lft.to/lastmile_qr_scan"}, "is_reserved": 0, "fusion_lat": 0.0, "lon": -77.034253}, {"lat": 38.90128166666667, "type": "electric_scooter", "is_disabled": 0, "name": "6365a45ffeb532a2ec659afde03b6f9d", "bike_id": "6365a45ffeb532a2ec659afde03b6f9d", "fusion_lon": 0.0, "rental_uris": {"ios": "https://dc.lft.to/lastmile_qr_scan", "android": "https://dc.lft.to/lastmile_qr_scan"}, "is_reserved": 0, "fusion_lat": 0.0, "lon": -77.04359733333334}, {"lat": 38.923444333333336, "type": "electric_scooter", "is_disabled": 0, "name": "dc5422497154b4f7d37fc903b1acc40d", "bike_id": "dc5422497154b4f7d37fc903b1acc40d", "fusion_lon": 0.0, "rental_uris": {"ios": "https://dc.lft.to/lastmile_qr_scan", "android": "https://dc.lft.to/lastmile_qr_scan"}, "is_reserved": 0, "fusion_lat": 0.0, "lon": -77.01903316666667}, {"lat": 38.90594766666667, "type": "electric_scooter", "is_disabled": 0, "name": "8796a316eb628ae0b998627f2f3d9415", "bike_id": "8796a316eb628ae0b998627f2f3d9415", "fusion_lon": 0.0, "rental_uris": {"ios": "https://dc.lft.to/lastmile_qr_scan", "android": "https://dc.lft.to/lastmile_qr_scan"}, "is_reserved": 0, "fusion_lat": 0.0, "lon": -77.0061535}, {"lat": 38.926967166666664, "type": "electric_scooter", "is_disabled": 0, "name": "d2d038efd844b3241a4d21d1ef22ac3b", "bike_id": "d2d038efd844b3241a4d21d1ef22ac3b", "fusion_lon": 0.0, "rental_uris": {"ios": "https://dc.lft.to/lastmile_qr_scan", "android": "https://dc.lft.to/lastmile_qr_scan"}, "is_reserved": 0, "fusion_lat": 0.0, "lon": -77.01475016666667}, {"lat": 38.90248733333333, "type": "electric_scooter", "is_disabled": 0, "name": "1b39ff649a6d44f70bec5f6ba60f44ac", "bike_id": "1b39ff649a6d44f70bec5f6ba60f44ac", "fusion_lon": 0.0, "rental_uris": {"ios": "https://dc.lft.to/lastmile_qr_scan", "android": "https://dc.lft.to/lastmile_qr_scan"}, "is_reserved": 0, "fusion_lat": 0.0, "lon": -77.059173}, {"lat": 38.91496583333333, "type": "electric_scooter", "is_disabled": 0, "name": "6ec6bf5df90506e56b1d013394b10fc9", "bike_id": "6ec6bf5df90506e56b1d013394b10fc9", "fusion_lon": 0.0, "rental_uris": {"ios": "https://dc.lft.to/lastmile_qr_scan", "android": "https://dc.lft.to/lastmile_qr_scan"}, "is_reserved": 0, "fusion_lat": 0.0, "lon": -77.01859}, {"lat": 38.901426, "type": "electric_scooter", "is_disabled": 0, "name": "c35009ed7a05f5190d59aa7a7e62717f", "bike_id": "c35009ed7a05f5190d59aa7a7e62717f", "fusion_lon": 0.0, "rental_uris": {"ios": "https://dc.lft.to/lastmile_qr_scan", "android": "https://dc.lft.to/lastmile_qr_scan"}, "is_reserved": 0, "fusion_lat": 0.0, "lon": -77.02193166666666}, {"lat": 38.92409333333333, "type": "electric_scooter", "is_disabled": 0, "name": "a92e855733151f4a2a1cf87801826647", "bike_id": "a92e855733151f4a2a1cf87801826647", "fusion_lon": 0.0, "rental_uris": {"ios": "https://dc.lft.to/lastmile_qr_scan", "android": "https://dc.lft.to/lastmile_qr_scan"}, "is_reserved": 0, "fusion_lat": 0.0, "lon": -77.02714816666666}, {"lat": 38.934525, "type": "electric_scooter", "is_disabled": 0, "name": "f1e73ce16b04041ac87ebaadc268312d", "bike_id": "f1e73ce16b04041ac87ebaadc268312d", "fusion_lon": 0.0, "rental_uris": {"ios": "https://dc.lft.to/lastmile_qr_scan", "android": "https://dc.lft.to/lastmile_qr_scan"}, "is_reserved": 0, "fusion_lat": 0.0, "lon": -77.089681}, {"lat": 38.892203, "type": "electric_scooter", "is_disabled": 0, "name": "ad45a5e13fa12cb1d69f037f7c36609f", "bike_id": "ad45a5e13fa12cb1d69f037f7c36609f", "fusion_lon": 0.0, "rental_uris": {"ios": "https://dc.lft.to/lastmile_qr_scan", "android": "https://dc.lft.to/lastmile_qr_scan"}, "is_reserved": 0, "fusion_lat": 0.0, "lon": -77.03132816666667}, {"lat": 38.91177616666667, "type": "electric_scooter", "is_disabled": 0, "name": "5060263b5332f26fe2a1002ba4870544", "bike_id": "5060263b5332f26fe2a1002ba4870544", "fusion_lon": 0.0, "rental_uris": {"ios": "https://dc.lft.to/lastmile_qr_scan", "android": "https://dc.lft.to/lastmile_qr_scan"}, "is_reserved": 0, "fusion_lat": 0.0, "lon": -77.029531}, {"lat": 38.926461333333336, "type": "electric_scooter", "is_disabled": 0, "name": "9d9c0e7f31d2d0d19453c5696baccac5", "bike_id": "9d9c0e7f31d2d0d19453c5696baccac5", "fusion_lon": 0.0, "rental_uris": {"ios": "https://dc.lft.to/lastmile_qr_scan", "android": "https://dc.lft.to/lastmile_qr_scan"}, "is_reserved": 0, "fusion_lat": 0.0, "lon": -77.02510283333334}, {"lat": 38.8988345, "type": "electric_scooter", "is_disabled": 0, "name": "b31197d5a8af1132014296695dc9d307", "bike_id": "b31197d5a8af1132014296695dc9d307", "fusion_lon": 0.0, "rental_uris": {"ios": "https://dc.lft.to/lastmile_qr_scan", "android": "https://dc.lft.to/lastmile_qr_scan"}, "is_reserved": 0, "fusion_lat": 0.0, "lon": -76.988383}, {"lat": 38.89712333333333, "type": "electric_scooter", "is_disabled": 0, "name": "f461c7ca2aaf1d28c697b8ee92c612e7", "bike_id": "f461c7ca2aaf1d28c697b8ee92c612e7", "fusion_lon": 0.0, "rental_uris": {"ios": "https://dc.lft.to/lastmile_qr_scan", "android": "https://dc.lft.to/lastmile_qr_scan"}, "is_reserved": 0, "fusion_lat": 0.0, "lon": -76.9911885}, {"lat": 38.922375833333334, "type": "electric_scooter", "is_disabled": 0, "name": "e967a6deab4b13c665bcdb4415a885ff", "bike_id": "e967a6deab4b13c665bcdb4415a885ff", "fusion_lon": 0.0, "rental_uris": {"ios": "https://dc.lft.to/lastmile_qr_scan", "android": "https://dc.lft.to/lastmile_qr_scan"}, "is_reserved": 0, "fusion_lat": 0.0, "lon": -77.02134333333333}, {"lat": 38.932952666666665, "type": "electric_scooter", "is_disabled": 0, "name": "fc7f6ece0ff7b0467a8216189a67e683", "bike_id": "fc7f6ece0ff7b0467a8216189a67e683", "fusion_lon": 0.0, "rental_uris": {"ios": "https://dc.lft.to/lastmile_qr_scan", "android": "https://dc.lft.to/lastmile_qr_scan"}, "is_reserved": 0, "fusion_lat": 0.0, "lon": -77.028433}, {"lat": 38.903702, "type": "electric_scooter", "is_disabled": 0, "name": "db1796a51413e2993bec6f903bebb696", "bike_id": "db1796a51413e2993bec6f903bebb696", "fusion_lon": 0.0, "rental_uris": {"ios": "https://dc.lft.to/lastmile_qr_scan", "android": "https://dc.lft.to/lastmile_qr_scan"}, "is_reserved": 0, "fusion_lat": 0.0, "lon": -77.03924616666667}, {"lat": 38.923164166666666, "type": "electric_scooter", "is_disabled": 0, "name": "7387e204c8f241877a5afeebd47499e0", "bike_id": "7387e204c8f241877a5afeebd47499e0", "fusion_lon": 0.0, "rental_uris": {"ios": "https://dc.lft.to/lastmile_qr_scan", "android": "https://dc.lft.to/lastmile_qr_scan"}, "is_reserved": 0, "fusion_lat": 0.0, "lon": -77.01953816666666}, {"lat": 38.932431, "type": "electric_scooter", "is_disabled": 0, "name": "a9849a9ec28ce1075998d6bcc14edf49", "bike_id": "a9849a9ec28ce1075998d6bcc14edf49", "fusion_lon": 0.0, "rental_uris": {"ios": "https://dc.lft.to/lastmile_qr_scan", "android": "https://dc.lft.to/lastmile_qr_scan"}, "is_reserved": 0, "fusion_lat": 0.0, "lon": -77.03286583333333}, {"lat": 38.94292133333333, "type": "electric_scooter", "is_disabled": 0, "name": "6859b894d5889a926d96f0a7dfe23885", "bike_id": "6859b894d5889a926d96f0a7dfe23885", "fusion_lon": 0.0, "rental_uris": {"ios": "https://dc.lft.to/lastmile_qr_scan", "android": "https://dc.lft.to/lastmile_qr_scan"}, "is_reserved": 0, "fusion_lat": 0.0, "lon": -77.02168616666667}, {"lat": 39.04235583333333, "type": "electric_bike", "is_disabled": 0, "name": "edd3be86d4cad541159d28e8553970e5", "bike_id": "edd3be86d4cad541159d28e8553970e5", "fusion_lon": 0.0, "rental_uris": {"ios": "https://dc.lft.to/lastmile_qr_scan", "android": "https://dc.lft.to/lastmile_qr_scan"}, "is_reserved": 0, "fusion_lat": 0.0, "lon": -76.997343}, {"lat": 38.91942933333333, "type": "electric_scooter", "is_disabled": 0, "name": "32aa975bd4f0a563071835cb1cf26c1f", "bike_id": "32aa975bd4f0a563071835cb1cf26c1f", "fusion_lon": 0.0, "rental_uris": {"ios": "https://dc.lft.to/lastmile_qr_scan", "android": "https://dc.lft.to/lastmile_qr_scan"}, "is_reserved": 0, "fusion_lat": 0.0, "lon": -77.01807083333334}, {"lat": 38.921183, "type": "electric_scooter", "is_disabled": 0, "name": "dae6bb6c2c946a36bec7958b24e426c6", "bike_id": "dae6bb6c2c946a36bec7958b24e426c6", "fusion_lon": 0.0, "rental_uris": {"ios": "https://dc.lft.to/lastmile_qr_scan", "android": "https://dc.lft.to/lastmile_qr_scan"}, "is_reserved": 0, "fusion_lat": 0.0, "lon": -77.02068}, {"lat": 38.905036333333335, "type": "electric_scooter", "is_disabled": 0, "name": "0526f30671662128f325eee3a27e3330", "bike_id": "0526f30671662128f325eee3a27e3330", "fusion_lon": 0.0, "rental_uris": {"ios": "https://dc.lft.to/lastmile_qr_scan", "android": "https://dc.lft.to/lastmile_qr_scan"}, "is_reserved": 0, "fusion_lat": 0.0, "lon": -77.054734}, {"lat": 38.97338583333333, "type": "electric_bike", "is_disabled": 0, "name": "8c0e5d666006b349a4575857ae1b26a5", "bike_id": "8c0e5d666006b349a4575857ae1b26a5", "fusion_lon": 0.0, "rental_uris": {"ios": "https://dc.lft.to/lastmile_qr_scan", "android": "https://dc.lft.to/lastmile_qr_scan"}, "is_reserved": 0, "fusion_lat": 0.0, "lon": -76.99582866666667}, {"lat": 38.93526216666667, "type": "electric_scooter", "is_disabled": 0, "name": "5be1ae1bb3467304a7b0a6b20cdfa543", "bike_id": "5be1ae1bb3467304a7b0a6b20cdfa543", "fusion_lon": 0.0, "rental_uris": {"ios": "https://dc.lft.to/lastmile_qr_scan", "android": "https://dc.lft.to/lastmile_qr_scan"}, "is_reserved": 0, "fusion_lat": 0.0, "lon": -77.02352633333334}, {"lat": 38.913491666666665, "type": "electric_scooter", "is_disabled": 0, "name": "87165b658e61206904a0b188d36c9cea", "bike_id": "87165b658e61206904a0b188d36c9cea", "fusion_lon": 0.0, "rental_uris": {"ios": "https://dc.lft.to/lastmile_qr_scan", "android": "https://dc.lft.to/lastmile_qr_scan"}, "is_reserved": 0, "fusion_lat": 0.0, "lon": -77.020585}, {"lat": 38.87726716666667, "type": "electric_scooter", "is_disabled": 0, "name": "64a1b7757842256ba8a75f1cf0777995", "bike_id": "64a1b7757842256ba8a75f1cf0777995", "fusion_lon": 0.0, "rental_uris": {"ios": "https://dc.lft.to/lastmile_qr_scan", "android": "https://dc.lft.to/lastmile_qr_scan"}, "is_reserved": 0, "fusion_lat": 0.0, "lon": -77.01759616666666}, {"lat": 38.8588055, "type": "electric_scooter", "is_disabled": 0, "name": "082b50193160f75c1ae58bbba1a15556", "bike_id": "082b50193160f75c1ae58bbba1a15556", "fusion_lon": 0.0, "rental_uris": {"ios": "https://dc.lft.to/lastmile_qr_scan", "android": "https://dc.lft.to/lastmile_qr_scan"}, "is_reserved": 0, "fusion_lat": 0.0, "lon": -76.98941916666666}, {"lat": 38.920562333333336, "type": "electric_scooter", "is_disabled": 0, "name": "ebf33ccf732ae3a7cbc01d4432ffdac4", "bike_id": "ebf33ccf732ae3a7cbc01d4432ffdac4", "fusion_lon": 0.0, "rental_uris": {"ios": "https://dc.lft.to/lastmile_qr_scan", "android": "https://dc.lft.to/lastmile_qr_scan"}, "is_reserved": 0, "fusion_lat": 0.0, "lon": -76.98430766666667}, {"lat": 38.913308, "type": "electric_scooter", "is_disabled": 0, "name": "45ff2c93efede495d3416a794b4a0ec1", "bike_id": "45ff2c93efede495d3416a794b4a0ec1", "fusion_lon": 0.0, "rental_uris": {"ios": "https://dc.lft.to/lastmile_qr_scan", "android": "https://dc.lft.to/lastmile_qr_scan"}, "is_reserved": 0, "fusion_lat": 0.0, "lon": -77.045337}, {"lat": 38.90060316666667, "type": "electric_scooter", "is_disabled": 0, "name": "3ca1554bb0420bd2509cd0a57b35c165", "bike_id": "3ca1554bb0420bd2509cd0a57b35c165", "fusion_lon": 0.0, "rental_uris": {"ios": "https://dc.lft.to/lastmile_qr_scan", "android": "https://dc.lft.to/lastmile_qr_scan"}, "is_reserved": 0, "fusion_lat": 0.0, "lon": -76.984872}, {"lat": 38.924175, "type": "electric_scooter", "is_disabled": 0, "name": "47604f24cb74b955f1e8294c8026ac08", "bike_id": "47604f24cb74b955f1e8294c8026ac08", "fusion_lon": 0.0, "rental_uris": {"ios": "https://dc.lft.to/lastmile_qr_scan", "android": "https://dc.lft.to/lastmile_qr_scan"}, "is_reserved": 0, "fusion_lat": 0.0, "lon": -77.0203565}, {"lat": 38.92970583333334, "type": "electric_scooter", "is_disabled": 0, "name": "f923067ffa98c357f8a92c7960e865f3", "bike_id": "f923067ffa98c357f8a92c7960e865f3", "fusion_lon": 0.0, "rental_uris": {"ios": "https://dc.lft.to/lastmile_qr_scan", "android": "https://dc.lft.to/lastmile_qr_scan"}, "is_reserved": 0, "fusion_lat": 0.0, "lon": -77.04112266666667}, {"lat": 38.928618, "type": "electric_scooter", "is_disabled": 0, "name": "006586ee212fbbb34a672ccae5b998c3", "bike_id": "006586ee212fbbb34a672ccae5b998c3", "fusion_lon": 0.0, "rental_uris": {"ios": "https://dc.lft.to/lastmile_qr_scan", "android": "https://dc.lft.to/lastmile_qr_scan"}, "is_reserved": 0, "fusion_lat": 0.0, "lon": -77.03715966666667}, {"lat": 38.91476, "type": "electric_scooter", "is_disabled": 0, "name": "0576e1dca463221123b50df792b3581a", "bike_id": "0576e1dca463221123b50df792b3581a", "fusion_lon": 0.0, "rental_uris": {"ios": "https://dc.lft.to/lastmile_qr_scan", "android": "https://dc.lft.to/lastmile_qr_scan"}, "is_reserved": 0, "fusion_lat": 0.0, "lon": -77.03211283333333}, {"lat": 38.8875125, "type": "electric_scooter", "is_disabled": 0, "name": "f1db5b48cdbf618ffb7852a56e476c53", "bike_id": "f1db5b48cdbf618ffb7852a56e476c53", "fusion_lon": 0.0, "rental_uris": {"ios": "https://dc.lft.to/lastmile_qr_scan", "android": "https://dc.lft.to/lastmile_qr_scan"}, "is_reserved": 0, "fusion_lat": 0.0, "lon": -77.0286665}, {"lat": 38.89744, "type": "electric_scooter", "is_disabled": 0, "name": "313219c656f4fb47b50362d4ae4131c3", "bike_id": "313219c656f4fb47b50362d4ae4131c3", "fusion_lon": 0.0, "rental_uris": {"ios": "https://dc.lft.to/lastmile_qr_scan", "android": "https://dc.lft.to/lastmile_qr_scan"}, "is_reserved": 0, "fusion_lat": 0.0, "lon": -77.012751}, {"lat": 38.957885833333336, "type": "electric_scooter", "is_disabled": 0, "name": "11cb4d0b42d31bb8d4571aa5d10bc595", "bike_id": "11cb4d0b42d31bb8d4571aa5d10bc595", "fusion_lon": 0.0, "rental_uris": {"ios": "https://dc.lft.to/lastmile_qr_scan", "android": "https://dc.lft.to/lastmile_qr_scan"}, "is_reserved": 0, "fusion_lat": 0.0, "lon": -77.028317}, {"lat": 38.8803945, "type": "electric_scooter", "is_disabled": 0, "name": "4870a5e7ebc6038de8dbe40300c75121", "bike_id": "4870a5e7ebc6038de8dbe40300c75121", "fusion_lon": 0.0, "rental_uris": {"ios": "https://dc.lft.to/lastmile_qr_scan", "android": "https://dc.lft.to/lastmile_qr_scan"}, "is_reserved": 0, "fusion_lat": 0.0, "lon": -77.00565966666667}, {"lat": 38.9041205, "type": "electric_scooter", "is_disabled": 0, "name": "4dedf5467e267d6bdb4d3fad96470d4e", "bike_id": "4dedf5467e267d6bdb4d3fad96470d4e", "fusion_lon": 0.0, "rental_uris": {"ios": "https://dc.lft.to/lastmile_qr_scan", "android": "https://dc.lft.to/lastmile_qr_scan"}, "is_reserved": 0, "fusion_lat": 0.0, "lon": -77.0258655}, {"lat": 38.892269, "type": "electric_scooter", "is_disabled": 0, "name": "071c5468b592a8ab51ba195a1d51e2e8", "bike_id": "071c5468b592a8ab51ba195a1d51e2e8", "fusion_lon": 0.0, "rental_uris": {"ios": "https://dc.lft.to/lastmile_qr_scan", "android": "https://dc.lft.to/lastmile_qr_scan"}, "is_reserved": 0, "fusion_lat": 0.0, "lon": -77.04504566666667}, {"lat": 38.93462983333333, "type": "electric_scooter", "is_disabled": 0, "name": "fff5f711374392d2bf3cf19e2166010d", "bike_id": "fff5f711374392d2bf3cf19e2166010d", "fusion_lon": 0.0, "rental_uris": {"ios": "https://dc.lft.to/lastmile_qr_scan", "android": "https://dc.lft.to/lastmile_qr_scan"}, "is_reserved": 0, "fusion_lat": 0.0, "lon": -77.05808}, {"lat": 38.91522916666667, "type": "electric_scooter", "is_disabled": 0, "name": "531dd9a6b5470a8b543dbddb989e1e44", "bike_id": "531dd9a6b5470a8b543dbddb989e1e44", "fusion_lon": 0.0, "rental_uris": {"ios": "https://dc.lft.to/lastmile_qr_scan", "android": "https://dc.lft.to/lastmile_qr_scan"}, "is_reserved": 0, "fusion_lat": 0.0, "lon": -77.04488516666666}, {"lat": 38.929348, "type": "electric_scooter", "is_disabled": 0, "name": "d8fcc28cf53cc27345d437f0599ca284", "bike_id": "d8fcc28cf53cc27345d437f0599ca284", "fusion_lon": 0.0, "rental_uris": {"ios": "https://dc.lft.to/lastmile_qr_scan", "android": "https://dc.lft.to/lastmile_qr_scan"}, "is_reserved": 0, "fusion_lat": 0.0, "lon": -77.0067955}, {"lat": 38.897728666666666, "type": "electric_scooter", "is_disabled": 0, "name": "f05bbba2a760fc891b24c3c2e8174aa1", "bike_id": "f05bbba2a760fc891b24c3c2e8174aa1", "fusion_lon": 0.0, "rental_uris": {"ios": "https://dc.lft.to/lastmile_qr_scan", "android": "https://dc.lft.to/lastmile_qr_scan"}, "is_reserved": 0, "fusion_lat": 0.0, "lon": -77.02682983333334}, {"lat": 38.9022005, "type": "electric_scooter", "is_disabled": 0, "name": "27d9b6657517580e51ad65e5008a40d0", "bike_id": "27d9b6657517580e51ad65e5008a40d0", "fusion_lon": 0.0, "rental_uris": {"ios": "https://dc.lft.to/lastmile_qr_scan", "android": "https://dc.lft.to/lastmile_qr_scan"}, "is_reserved": 0, "fusion_lat": 0.0, "lon": -77.02369133333333}, {"lat": 38.92669766666667, "type": "electric_scooter", "is_disabled": 0, "name": "48cc42de8a6e1596e066ad0f1f5c63b7", "bike_id": "48cc42de8a6e1596e066ad0f1f5c63b7", "fusion_lon": 0.0, "rental_uris": {"ios": "https://dc.lft.to/lastmile_qr_scan", "android": "https://dc.lft.to/lastmile_qr_scan"}, "is_reserved": 0, "fusion_lat": 0.0, "lon": -77.02767083333333}, {"lat": 38.90860433333334, "type": "electric_scooter", "is_disabled": 0, "name": "5e02a2d2c62c766904b22f4db701c138", "bike_id": "5e02a2d2c62c766904b22f4db701c138", "fusion_lon": 0.0, "rental_uris": {"ios": "https://dc.lft.to/lastmile_qr_scan", "android": "https://dc.lft.to/lastmile_qr_scan"}, "is_reserved": 0, "fusion_lat": 0.0, "lon": -76.99677966666667}, {"lat": 38.923435833333336, "type": "electric_scooter", "is_disabled": 0, "name": "b6b83d438ead6b0af34e57de82f69e7c", "bike_id": "b6b83d438ead6b0af34e57de82f69e7c", "fusion_lon": 0.0, "rental_uris": {"ios": "https://dc.lft.to/lastmile_qr_scan", "android": "https://dc.lft.to/lastmile_qr_scan"}, "is_reserved": 0, "fusion_lat": 0.0, "lon": -77.01911833333334}, {"lat": 38.94108166666667, "type": "electric_scooter", "is_disabled": 0, "name": "f08ca379e8b9aee32b71bcabf44fb66d", "bike_id": "f08ca379e8b9aee32b71bcabf44fb66d", "fusion_lon": 0.0, "rental_uris": {"ios": "https://dc.lft.to/lastmile_qr_scan", "android": "https://dc.lft.to/lastmile_qr_scan"}, "is_reserved": 0, "fusion_lat": 0.0, "lon": -77.061381}, {"lat": 38.915505, "type": "electric_scooter", "is_disabled": 0, "name": "cee04147eff7f4a3e677e3bb10aeecf3", "bike_id": "cee04147eff7f4a3e677e3bb10aeecf3", "fusion_lon": 0.0, "rental_uris": {"ios": "https://dc.lft.to/lastmile_qr_scan", "android": "https://dc.lft.to/lastmile_qr_scan"}, "is_reserved": 0, "fusion_lat": 0.0, "lon": -77.00723066666667}, {"lat": 38.922527, "type": "electric_scooter", "is_disabled": 0, "name": "58149f9f78d1a50971461ec5508a446a", "bike_id": "58149f9f78d1a50971461ec5508a446a", "fusion_lon": 0.0, "rental_uris": {"ios": "https://dc.lft.to/lastmile_qr_scan", "android": "https://dc.lft.to/lastmile_qr_scan"}, "is_reserved": 0, "fusion_lat": 0.0, "lon": -77.01977}, {"lat": 38.92180533333333, "type": "electric_scooter", "is_disabled": 0, "name": "412cbf4f260e637759425718949c5362", "bike_id": "412cbf4f260e637759425718949c5362", "fusion_lon": 0.0, "rental_uris": {"ios": "https://dc.lft.to/lastmile_qr_scan", "android": "https://dc.lft.to/lastmile_qr_scan"}, "is_reserved": 0, "fusion_lat": 0.0, "lon": -77.04228016666667}, {"lat": 38.93106816666667, "type": "electric_scooter", "is_disabled": 0, "name": "85a390641dbb86aae82ef57019fb5732", "bike_id": "85a390641dbb86aae82ef57019fb5732", "fusion_lon": 0.0, "rental_uris": {"ios": "https://dc.lft.to/lastmile_qr_scan", "android": "https://dc.lft.to/lastmile_qr_scan"}, "is_reserved": 0, "fusion_lat": 0.0, "lon": -77.03784983333334}, {"lat": 38.92496833333333, "type": "electric_scooter", "is_disabled": 0, "name": "85c43088eea1ae86d2596f4ca630ffd4", "bike_id": "85c43088eea1ae86d2596f4ca630ffd4", "fusion_lon": 0.0, "rental_uris": {"ios": "https://dc.lft.to/lastmile_qr_scan", "android": "https://dc.lft.to/lastmile_qr_scan"}, "is_reserved": 0, "fusion_lat": 0.0, "lon": -77.04127566666666}, {"lat": 38.92013583333333, "type": "electric_scooter", "is_disabled": 0, "name": "b82e98ed6df3b8162575a7a019173408", "bike_id": "b82e98ed6df3b8162575a7a019173408", "fusion_lon": 0.0, "rental_uris": {"ios": "https://dc.lft.to/lastmile_qr_scan", "android": "https://dc.lft.to/lastmile_qr_scan"}, "is_reserved": 0, "fusion_lat": 0.0, "lon": -77.03781916666667}, {"lat": 38.910599166666664, "type": "electric_scooter", "is_disabled": 0, "name": "2945aee87319115a164746e7ddc10bde", "bike_id": "2945aee87319115a164746e7ddc10bde", "fusion_lon": 0.0, "rental_uris": {"ios": "https://dc.lft.to/lastmile_qr_scan", "android": "https://dc.lft.to/lastmile_qr_scan"}, "is_reserved": 0, "fusion_lat": 0.0, "lon": -77.02184283333334}, {"lat": 38.9279025, "type": "electric_scooter", "is_disabled": 0, "name": "7821cfdd153cf15c7f38fab47d7e3501", "bike_id": "7821cfdd153cf15c7f38fab47d7e3501", "fusion_lon": 0.0, "rental_uris": {"ios": "https://dc.lft.to/lastmile_qr_scan", "android": "https://dc.lft.to/lastmile_qr_scan"}, "is_reserved": 0, "fusion_lat": 0.0, "lon": -77.0308385}, {"lat": 38.905949, "type": "electric_scooter", "is_disabled": 0, "name": "d41d2b471a7511f050f9ec0572e114a4", "bike_id": "d41d2b471a7511f050f9ec0572e114a4", "fusion_lon": 0.0, "rental_uris": {"ios": "https://dc.lft.to/lastmile_qr_scan", "android": "https://dc.lft.to/lastmile_qr_scan"}, "is_reserved": 0, "fusion_lat": 0.0, "lon": -77.0400985}, {"lat": 38.895805, "type": "electric_scooter", "is_disabled": 0, "name": "3e29ef3d4f7201ac3cd91e2b5142b569", "bike_id": "3e29ef3d4f7201ac3cd91e2b5142b569", "fusion_lon": 0.0, "rental_uris": {"ios": "https://dc.lft.to/lastmile_qr_scan", "android": "https://dc.lft.to/lastmile_qr_scan"}, "is_reserved": 0, "fusion_lat": 0.0, "lon": -77.03183366666667}, {"lat": 38.885050166666666, "type": "electric_scooter", "is_disabled": 0, "name": "e33ecdd0973eef92b3b0ce154166b0fc", "bike_id": "e33ecdd0973eef92b3b0ce154166b0fc", "fusion_lon": 0.0, "rental_uris": {"ios": "https://dc.lft.to/lastmile_qr_scan", "android": "https://dc.lft.to/lastmile_qr_scan"}, "is_reserved": 0, "fusion_lat": 0.0, "lon": -77.02088633333334}, {"lat": 38.9099225, "type": "electric_scooter", "is_disabled": 0, "name": "2d4447ee26303fecb66ce456d58999b1", "bike_id": "2d4447ee26303fecb66ce456d58999b1", "fusion_lon": 0.0, "rental_uris": {"ios": "https://dc.lft.to/lastmile_qr_scan", "android": "https://dc.lft.to/lastmile_qr_scan"}, "is_reserved": 0, "fusion_lat": 0.0, "lon": -77.0320355}, {"lat": 38.90038766666667, "type": "electric_bike", "is_disabled": 0, "name": "02dc1cb24f2b1319fdf667891ac386cb", "bike_id": "02dc1cb24f2b1319fdf667891ac386cb", "fusion_lon": 0.0, "rental_uris": {"ios": "https://dc.lft.to/lastmile_qr_scan", "android": "https://dc.lft.to/lastmile_qr_scan"}, "is_reserved": 0, "fusion_lat": 0.0, "lon": -76.97224666666666}, {"lat": 38.92253566666667, "type": "electric_scooter", "is_disabled": 0, "name": "eabcd6fbeffb3d8b345202fa4d8ad2ff", "bike_id": "eabcd6fbeffb3d8b345202fa4d8ad2ff", "fusion_lon": 0.0, "rental_uris": {"ios": "https://dc.lft.to/lastmile_qr_scan", "android": "https://dc.lft.to/lastmile_qr_scan"}, "is_reserved": 0, "fusion_lat": 0.0, "lon": -77.0194855}, {"lat": 38.90507133333333, "type": "electric_scooter", "is_disabled": 0, "name": "e50baee86fa6608c9819a8815483888d", "bike_id": "e50baee86fa6608c9819a8815483888d", "fusion_lon": 0.0, "rental_uris": {"ios": "https://dc.lft.to/lastmile_qr_scan", "android": "https://dc.lft.to/lastmile_qr_scan"}, "is_reserved": 0, "fusion_lat": 0.0, "lon": -77.0272865}, {"lat": 38.90609416666667, "type": "electric_bike", "is_disabled": 0, "name": "a422acf684081281fb6245f6d9c8304b", "bike_id": "a422acf684081281fb6245f6d9c8304b", "fusion_lon": 0.0, "rental_uris": {"ios": "https://dc.lft.to/lastmile_qr_scan", "android": "https://dc.lft.to/lastmile_qr_scan"}, "is_reserved": 0, "fusion_lat": 0.0, "lon": -77.12887866666667}, {"lat": 38.9003075, "type": "electric_scooter", "is_disabled": 0, "name": "9efad66d471747162a68a3561532e9f1", "bike_id": "9efad66d471747162a68a3561532e9f1", "fusion_lon": 0.0, "rental_uris": {"ios": "https://dc.lft.to/lastmile_qr_scan", "android": "https://dc.lft.to/lastmile_qr_scan"}, "is_reserved": 0, "fusion_lat": 0.0, "lon": -76.98757366666666}, {"lat": 38.89610583333334, "type": "electric_scooter", "is_disabled": 0, "name": "f5f2a6023c7e6d5bd747974bc3d4b43f", "bike_id": "f5f2a6023c7e6d5bd747974bc3d4b43f", "fusion_lon": 0.0, "rental_uris": {"ios": "https://dc.lft.to/lastmile_qr_scan", "android": "https://dc.lft.to/lastmile_qr_scan"}, "is_reserved": 0, "fusion_lat": 0.0, "lon": -77.04517483333333}, {"lat": 38.90217916666667, "type": "electric_scooter", "is_disabled": 0, "name": "da9b5cda0dba6a35fec869ea4374ee89", "bike_id": "da9b5cda0dba6a35fec869ea4374ee89", "fusion_lon": 0.0, "rental_uris": {"ios": "https://dc.lft.to/lastmile_qr_scan", "android": "https://dc.lft.to/lastmile_qr_scan"}, "is_reserved": 0, "fusion_lat": 0.0, "lon": -77.0088865}, {"lat": 38.90143833333333, "type": "electric_scooter", "is_disabled": 0, "name": "56bb1cf5b580ea5e402ea87e7a83ea17", "bike_id": "56bb1cf5b580ea5e402ea87e7a83ea17", "fusion_lon": 0.0, "rental_uris": {"ios": "https://dc.lft.to/lastmile_qr_scan", "android": "https://dc.lft.to/lastmile_qr_scan"}, "is_reserved": 0, "fusion_lat": 0.0, "lon": -77.022954}, {"lat": 38.908202, "type": "electric_scooter", "is_disabled": 0, "name": "b7ce7ecb838f99af048d1cfd9f5bd3c1", "bike_id": "b7ce7ecb838f99af048d1cfd9f5bd3c1", "fusion_lon": 0.0, "rental_uris": {"ios": "https://dc.lft.to/lastmile_qr_scan", "android": "https://dc.lft.to/lastmile_qr_scan"}, "is_reserved": 0, "fusion_lat": 0.0, "lon": -77.03951166666667}, {"lat": 38.92638766666666, "type": "electric_scooter", "is_disabled": 0, "name": "5842c4b9f2af13f6672c6daec5f7eba3", "bike_id": "5842c4b9f2af13f6672c6daec5f7eba3", "fusion_lon": 0.0, "rental_uris": {"ios": "https://dc.lft.to/lastmile_qr_scan", "android": "https://dc.lft.to/lastmile_qr_scan"}, "is_reserved": 0, "fusion_lat": 0.0, "lon": -77.03711383333334}, {"lat": 38.88074, "type": "electric_scooter", "is_disabled": 0, "name": "ddf59129d484913bf0b8aaff412f91d1", "bike_id": "ddf59129d484913bf0b8aaff412f91d1", "fusion_lon": 0.0, "rental_uris": {"ios": "https://dc.lft.to/lastmile_qr_scan", "android": "https://dc.lft.to/lastmile_qr_scan"}, "is_reserved": 0, "fusion_lat": 0.0, "lon": -77.011805}, {"lat": 38.8849515, "type": "electric_scooter", "is_disabled": 0, "name": "11d167cac888d374794ae8597b7c4092", "bike_id": "11d167cac888d374794ae8597b7c4092", "fusion_lon": 0.0, "rental_uris": {"ios": "https://dc.lft.to/lastmile_qr_scan", "android": "https://dc.lft.to/lastmile_qr_scan"}, "is_reserved": 0, "fusion_lat": 0.0, "lon": -77.01586583333334}, {"lat": 38.884158166666666, "type": "electric_bike", "is_disabled": 0, "name": "004e92b3aaedd16b632302ce916d4f82", "bike_id": "004e92b3aaedd16b632302ce916d4f82", "fusion_lon": 0.0, "rental_uris": {"ios": "https://dc.lft.to/lastmile_qr_scan", "android": "https://dc.lft.to/lastmile_qr_scan"}, "is_reserved": 0, "fusion_lat": 0.0, "lon": -77.0265165}, {"lat": 38.932129333333336, "type": "electric_scooter", "is_disabled": 0, "name": "e20874683e014341a8529405e6e0aea0", "bike_id": "e20874683e014341a8529405e6e0aea0", "fusion_lon": 0.0, "rental_uris": {"ios": "https://dc.lft.to/lastmile_qr_scan", "android": "https://dc.lft.to/lastmile_qr_scan"}, "is_reserved": 0, "fusion_lat": 0.0, "lon": -77.03858066666666}, {"lat": 38.936999166666666, "type": "electric_scooter", "is_disabled": 0, "name": "112c352029cb0dab86b64503f64cf736", "bike_id": "112c352029cb0dab86b64503f64cf736", "fusion_lon": 0.0, "rental_uris": {"ios": "https://dc.lft.to/lastmile_qr_scan", "android": "https://dc.lft.to/lastmile_qr_scan"}, "is_reserved": 0, "fusion_lat": 0.0, "lon": -77.05600416666667}, {"lat": 38.92248266666667, "type": "electric_scooter", "is_disabled": 0, "name": "f27f823a38aa444ccc2226df6372623e", "bike_id": "f27f823a38aa444ccc2226df6372623e", "fusion_lon": 0.0, "rental_uris": {"ios": "https://dc.lft.to/lastmile_qr_scan", "android": "https://dc.lft.to/lastmile_qr_scan"}, "is_reserved": 0, "fusion_lat": 0.0, "lon": -77.03150683333334}, {"lat": 38.92761766666667, "type": "electric_scooter", "is_disabled": 0, "name": "6334b5ce35765977f237f6a2165263ab", "bike_id": "6334b5ce35765977f237f6a2165263ab", "fusion_lon": 0.0, "rental_uris": {"ios": "https://dc.lft.to/lastmile_qr_scan", "android": "https://dc.lft.to/lastmile_qr_scan"}, "is_reserved": 0, "fusion_lat": 0.0, "lon": -77.03214866666667}, {"lat": 38.92468266666667, "type": "electric_scooter", "is_disabled": 0, "name": "22ab2a27f756149475a7115741a3e1d9", "bike_id": "22ab2a27f756149475a7115741a3e1d9", "fusion_lon": 0.0, "rental_uris": {"ios": "https://dc.lft.to/lastmile_qr_scan", "android": "https://dc.lft.to/lastmile_qr_scan"}, "is_reserved": 0, "fusion_lat": 0.0, "lon": -77.02223016666667}, {"lat": 38.9210065, "type": "electric_scooter", "is_disabled": 0, "name": "cf59846871ab7301f4584e1553fdc0ed", "bike_id": "cf59846871ab7301f4584e1553fdc0ed", "fusion_lon": 0.0, "rental_uris": {"ios": "https://dc.lft.to/lastmile_qr_scan", "android": "https://dc.lft.to/lastmile_qr_scan"}, "is_reserved": 0, "fusion_lat": 0.0, "lon": -77.03662183333333}, {"lat": 38.898225333333336, "type": "electric_bike", "is_disabled": 0, "name": "00a85fe909e1ce9f328e0b1401647d1b", "bike_id": "00a85fe909e1ce9f328e0b1401647d1b", "fusion_lon": 0.0, "rental_uris": {"ios": "https://dc.lft.to/lastmile_qr_scan", "android": "https://dc.lft.to/lastmile_qr_scan"}, "is_reserved": 0, "fusion_lat": 0.0, "lon": -77.02484816666667}, {"lat": 38.887717333333335, "type": "electric_scooter", "is_disabled": 0, "name": "632b50e2a5bc032381142b8958ea289e", "bike_id": "632b50e2a5bc032381142b8958ea289e", "fusion_lon": 0.0, "rental_uris": {"ios": "https://dc.lft.to/lastmile_qr_scan", "android": "https://dc.lft.to/lastmile_qr_scan"}, "is_reserved": 0, "fusion_lat": 0.0, "lon": -76.93261666666666}, {"lat": 38.900398833333334, "type": "electric_scooter", "is_disabled": 0, "name": "f56d15c6b5158d5cc47dcf6df84fc5fb", "bike_id": "f56d15c6b5158d5cc47dcf6df84fc5fb", "fusion_lon": 0.0, "rental_uris": {"ios": "https://dc.lft.to/lastmile_qr_scan", "android": "https://dc.lft.to/lastmile_qr_scan"}, "is_reserved": 0, "fusion_lat": 0.0, "lon": -77.01182966666667}, {"lat": 38.88702966666666, "type": "electric_scooter", "is_disabled": 0, "name": "342f223ae01b8f12b45aa5e629f3556e", "bike_id": "342f223ae01b8f12b45aa5e629f3556e", "fusion_lon": 0.0, "rental_uris": {"ios": "https://dc.lft.to/lastmile_qr_scan", "android": "https://dc.lft.to/lastmile_qr_scan"}, "is_reserved": 0, "fusion_lat": 0.0, "lon": -77.02211816666667}, {"lat": 38.90342533333333, "type": "electric_scooter", "is_disabled": 0, "name": "4505b653e72dc7323cde32db8f4355a9", "bike_id": "4505b653e72dc7323cde32db8f4355a9", "fusion_lon": 0.0, "rental_uris": {"ios": "https://dc.lft.to/lastmile_qr_scan", "android": "https://dc.lft.to/lastmile_qr_scan"}, "is_reserved": 0, "fusion_lat": 0.0, "lon": -77.05296966666667}, {"lat": 38.90294466666667, "type": "electric_scooter", "is_disabled": 0, "name": "adf8f78b301496d533e4a424d8bdc6b3", "bike_id": "adf8f78b301496d533e4a424d8bdc6b3", "fusion_lon": 0.0, "rental_uris": {"ios": "https://dc.lft.to/lastmile_qr_scan", "android": "https://dc.lft.to/lastmile_qr_scan"}, "is_reserved": 0, "fusion_lat": 0.0, "lon": -77.038363}, {"lat": 38.928747666666666, "type": "electric_scooter", "is_disabled": 0, "name": "a2aa5585f3749c512ae026e6e5308a2b", "bike_id": "a2aa5585f3749c512ae026e6e5308a2b", "fusion_lon": 0.0, "rental_uris": {"ios": "https://dc.lft.to/lastmile_qr_scan", "android": "https://dc.lft.to/lastmile_qr_scan"}, "is_reserved": 0, "fusion_lat": 0.0, "lon": -77.03250333333334}, {"lat": 38.895949, "type": "electric_scooter", "is_disabled": 0, "name": "4226b720bacbb108b3e45b897e1142ec", "bike_id": "4226b720bacbb108b3e45b897e1142ec", "fusion_lon": 0.0, "rental_uris": {"ios": "https://dc.lft.to/lastmile_qr_scan", "android": "https://dc.lft.to/lastmile_qr_scan"}, "is_reserved": 0, "fusion_lat": 0.0, "lon": -77.048055}, {"lat": 38.913265833333334, "type": "electric_scooter", "is_disabled": 0, "name": "c91913ec6ba11f628cb6004b197d2aa5", "bike_id": "c91913ec6ba11f628cb6004b197d2aa5", "fusion_lon": 0.0, "rental_uris": {"ios": "https://dc.lft.to/lastmile_qr_scan", "android": "https://dc.lft.to/lastmile_qr_scan"}, "is_reserved": 0, "fusion_lat": 0.0, "lon": -77.04539033333333}, {"lat": 38.897407333333334, "type": "electric_scooter", "is_disabled": 0, "name": "85b1f8cd9e33047dc5ea76a1aa05fa81", "bike_id": "85b1f8cd9e33047dc5ea76a1aa05fa81", "fusion_lon": 0.0, "rental_uris": {"ios": "https://dc.lft.to/lastmile_qr_scan", "android": "https://dc.lft.to/lastmile_qr_scan"}, "is_reserved": 0, "fusion_lat": 0.0, "lon": -77.024467}, {"lat": 38.901752333333334, "type": "electric_scooter", "is_disabled": 0, "name": "2e16474d9f13473ed969b592727b5ac4", "bike_id": "2e16474d9f13473ed969b592727b5ac4", "fusion_lon": 0.0, "rental_uris": {"ios": "https://dc.lft.to/lastmile_qr_scan", "android": "https://dc.lft.to/lastmile_qr_scan"}, "is_reserved": 0, "fusion_lat": 0.0, "lon": -77.021867}, {"lat": 38.89223466666667, "type": "electric_scooter", "is_disabled": 0, "name": "75fa080ef4761c5708da232d76f50628", "bike_id": "75fa080ef4761c5708da232d76f50628", "fusion_lon": 0.0, "rental_uris": {"ios": "https://dc.lft.to/lastmile_qr_scan", "android": "https://dc.lft.to/lastmile_qr_scan"}, "is_reserved": 0, "fusion_lat": 0.0, "lon": -77.04639816666666}, {"lat": 38.885074333333336, "type": "electric_scooter", "is_disabled": 0, "name": "ecebb1155c8973714685bb571a7666a2", "bike_id": "ecebb1155c8973714685bb571a7666a2", "fusion_lon": 0.0, "rental_uris": {"ios": "https://dc.lft.to/lastmile_qr_scan", "android": "https://dc.lft.to/lastmile_qr_scan"}, "is_reserved": 0, "fusion_lat": 0.0, "lon": -77.00569333333334}, {"lat": 38.92204566666667, "type": "electric_scooter", "is_disabled": 0, "name": "74a047d86aa15d352e53aa56663a8bf2", "bike_id": "74a047d86aa15d352e53aa56663a8bf2", "fusion_lon": 0.0, "rental_uris": {"ios": "https://dc.lft.to/lastmile_qr_scan", "android": "https://dc.lft.to/lastmile_qr_scan"}, "is_reserved": 0, "fusion_lat": 0.0, "lon": -76.98372116666667}, {"lat": 38.899475, "type": "electric_scooter", "is_disabled": 0, "name": "a1f245e37582fd6d5c7eae915260b678", "bike_id": "a1f245e37582fd6d5c7eae915260b678", "fusion_lon": 0.0, "rental_uris": {"ios": "https://dc.lft.to/lastmile_qr_scan", "android": "https://dc.lft.to/lastmile_qr_scan"}, "is_reserved": 0, "fusion_lat": 0.0, "lon": -77.04499066666666}, {"lat": 38.89692766666667, "type": "electric_scooter", "is_disabled": 0, "name": "e2e80a6fc075bafe26b5512d4a4f2cf2", "bike_id": "e2e80a6fc075bafe26b5512d4a4f2cf2", "fusion_lon": 0.0, "rental_uris": {"ios": "https://dc.lft.to/lastmile_qr_scan", "android": "https://dc.lft.to/lastmile_qr_scan"}, "is_reserved": 0, "fusion_lat": 0.0, "lon": -77.011954}, {"lat": 38.9348365, "type": "electric_scooter", "is_disabled": 0, "name": "5303bb3b736f0b99c35af85f467572a0", "bike_id": "5303bb3b736f0b99c35af85f467572a0", "fusion_lon": 0.0, "rental_uris": {"ios": "https://dc.lft.to/lastmile_qr_scan", "android": "https://dc.lft.to/lastmile_qr_scan"}, "is_reserved": 0, "fusion_lat": 0.0, "lon": -77.0446345}, {"lat": 38.89740283333333, "type": "electric_scooter", "is_disabled": 0, "name": "63d462e25952e3f38d90a35c10d6c000", "bike_id": "63d462e25952e3f38d90a35c10d6c000", "fusion_lon": 0.0, "rental_uris": {"ios": "https://dc.lft.to/lastmile_qr_scan", "android": "https://dc.lft.to/lastmile_qr_scan"}, "is_reserved": 0, "fusion_lat": 0.0, "lon": -77.02560483333333}, {"lat": 38.90389366666667, "type": "electric_scooter", "is_disabled": 0, "name": "50b136be54dc38d43d35fb870c3bb2ce", "bike_id": "50b136be54dc38d43d35fb870c3bb2ce", "fusion_lon": 0.0, "rental_uris": {"ios": "https://dc.lft.to/lastmile_qr_scan", "android": "https://dc.lft.to/lastmile_qr_scan"}, "is_reserved": 0, "fusion_lat": 0.0, "lon": -77.0263545}, {"lat": 38.926486833333335, "type": "electric_scooter", "is_disabled": 0, "name": "ea005b2d1e2e64ba15d4e14a57323bd7", "bike_id": "ea005b2d1e2e64ba15d4e14a57323bd7", "fusion_lon": 0.0, "rental_uris": {"ios": "https://dc.lft.to/lastmile_qr_scan", "android": "https://dc.lft.to/lastmile_qr_scan"}, "is_reserved": 0, "fusion_lat": 0.0, "lon": -77.03722783333333}, {"lat": 38.92678633333333, "type": "electric_scooter", "is_disabled": 0, "name": "37f729d56f359b3da8ae222d97b993ac", "bike_id": "37f729d56f359b3da8ae222d97b993ac", "fusion_lon": 0.0, "rental_uris": {"ios": "https://dc.lft.to/lastmile_qr_scan", "android": "https://dc.lft.to/lastmile_qr_scan"}, "is_reserved": 0, "fusion_lat": 0.0, "lon": -77.02586183333334}, {"lat": 38.910086166666666, "type": "electric_scooter", "is_disabled": 0, "name": "1afbc1dcc42e1c8d17c9cf31fac56130", "bike_id": "1afbc1dcc42e1c8d17c9cf31fac56130", "fusion_lon": 0.0, "rental_uris": {"ios": "https://dc.lft.to/lastmile_qr_scan", "android": "https://dc.lft.to/lastmile_qr_scan"}, "is_reserved": 0, "fusion_lat": 0.0, "lon": -76.99398983333333}, {"lat": 38.8990805, "type": "electric_scooter", "is_disabled": 0, "name": "b71132f65b0bcfc54cccdab76c87eb7b", "bike_id": "b71132f65b0bcfc54cccdab76c87eb7b", "fusion_lon": 0.0, "rental_uris": {"ios": "https://dc.lft.to/lastmile_qr_scan", "android": "https://dc.lft.to/lastmile_qr_scan"}, "is_reserved": 0, "fusion_lat": 0.0, "lon": -77.039593}, {"lat": 38.897523, "type": "electric_scooter", "is_disabled": 0, "name": "05c630364cfb06263b10dff45644cadb", "bike_id": "05c630364cfb06263b10dff45644cadb", "fusion_lon": 0.0, "rental_uris": {"ios": "https://dc.lft.to/lastmile_qr_scan", "android": "https://dc.lft.to/lastmile_qr_scan"}, "is_reserved": 0, "fusion_lat": 0.0, "lon": -77.02881333333333}, {"lat": 38.899696, "type": "electric_scooter", "is_disabled": 0, "name": "916a8165a25f06fc9bbe7443633ef17d", "bike_id": "916a8165a25f06fc9bbe7443633ef17d", "fusion_lon": 0.0, "rental_uris": {"ios": "https://dc.lft.to/lastmile_qr_scan", "android": "https://dc.lft.to/lastmile_qr_scan"}, "is_reserved": 0, "fusion_lat": 0.0, "lon": -77.01999283333333}, {"lat": 38.887101666666666, "type": "electric_scooter", "is_disabled": 0, "name": "9b924af22408c16d9774ad33122c15e5", "bike_id": "9b924af22408c16d9774ad33122c15e5", "fusion_lon": 0.0, "rental_uris": {"ios": "https://dc.lft.to/lastmile_qr_scan", "android": "https://dc.lft.to/lastmile_qr_scan"}, "is_reserved": 0, "fusion_lat": 0.0, "lon": -77.0283675}, {"lat": 38.8949225, "type": "electric_scooter", "is_disabled": 0, "name": "eb71a1e31496bdf2151ca9cf7689bdd8", "bike_id": "eb71a1e31496bdf2151ca9cf7689bdd8", "fusion_lon": 0.0, "rental_uris": {"ios": "https://dc.lft.to/lastmile_qr_scan", "android": "https://dc.lft.to/lastmile_qr_scan"}, "is_reserved": 0, "fusion_lat": 0.0, "lon": -76.9950245}, {"lat": 38.8974895, "type": "electric_scooter", "is_disabled": 0, "name": "1b93bfd5ceb28274eb360a9444348b88", "bike_id": "1b93bfd5ceb28274eb360a9444348b88", "fusion_lon": 0.0, "rental_uris": {"ios": "https://dc.lft.to/lastmile_qr_scan", "android": "https://dc.lft.to/lastmile_qr_scan"}, "is_reserved": 0, "fusion_lat": 0.0, "lon": -77.046597}, {"lat": 38.897534, "type": "electric_scooter", "is_disabled": 0, "name": "cafe240de118f7b02c095ddbccc57263", "bike_id": "cafe240de118f7b02c095ddbccc57263", "fusion_lon": 0.0, "rental_uris": {"ios": "https://dc.lft.to/lastmile_qr_scan", "android": "https://dc.lft.to/lastmile_qr_scan"}, "is_reserved": 0, "fusion_lat": 0.0, "lon": -77.019004}, {"lat": 38.98838716666667, "type": "electric_bike", "is_disabled": 0, "name": "0030aa3da8a4399119806a4ac6cdb0a7", "bike_id": "0030aa3da8a4399119806a4ac6cdb0a7", "fusion_lon": 0.0, "rental_uris": {"ios": "https://dc.lft.to/lastmile_qr_scan", "android": "https://dc.lft.to/lastmile_qr_scan"}, "is_reserved": 0, "fusion_lat": 0.0, "lon": -77.02651616666667}, {"lat": 38.9233775, "type": "electric_scooter", "is_disabled": 0, "name": "f9023445d083d24fc95a6b6f0beb878c", "bike_id": "f9023445d083d24fc95a6b6f0beb878c", "fusion_lon": 0.0, "rental_uris": {"ios": "https://dc.lft.to/lastmile_qr_scan", "android": "https://dc.lft.to/lastmile_qr_scan"}, "is_reserved": 0, "fusion_lat": 0.0, "lon": -77.05674583333334}, {"lat": 38.9093045, "type": "electric_scooter", "is_disabled": 0, "name": "d09fe492426d01796178de28cc3a5ff9", "bike_id": "d09fe492426d01796178de28cc3a5ff9", "fusion_lon": 0.0, "rental_uris": {"ios": "https://dc.lft.to/lastmile_qr_scan", "android": "https://dc.lft.to/lastmile_qr_scan"}, "is_reserved": 0, "fusion_lat": 0.0, "lon": -76.9847}, {"lat": 38.896379, "type": "electric_scooter", "is_disabled": 0, "name": "cd30f84407cd1283e2428ea77d63b400", "bike_id": "cd30f84407cd1283e2428ea77d63b400", "fusion_lon": 0.0, "rental_uris": {"ios": "https://dc.lft.to/lastmile_qr_scan", "android": "https://dc.lft.to/lastmile_qr_scan"}, "is_reserved": 0, "fusion_lat": 0.0, "lon": -77.0401645}, {"lat": 38.875749, "type": "electric_scooter", "is_disabled": 0, "name": "016ad17c5c4084afc1f835d0614b1554", "bike_id": "016ad17c5c4084afc1f835d0614b1554", "fusion_lon": 0.0, "rental_uris": {"ios": "https://dc.lft.to/lastmile_qr_scan", "android": "https://dc.lft.to/lastmile_qr_scan"}, "is_reserved": 0, "fusion_lat": 0.0, "lon": -77.0057895}, {"lat": 38.906664, "type": "electric_scooter", "is_disabled": 0, "name": "6ea71b4a5d884ec8ae8c0c3a2eeaaec6", "bike_id": "6ea71b4a5d884ec8ae8c0c3a2eeaaec6", "fusion_lon": 0.0, "rental_uris": {"ios": "https://dc.lft.to/lastmile_qr_scan", "android": "https://dc.lft.to/lastmile_qr_scan"}, "is_reserved": 0, "fusion_lat": 0.0, "lon": -77.02714316666666}, {"lat": 38.9018835, "type": "electric_scooter", "is_disabled": 0, "name": "aad59077ea773fcf18dd2c8d60f17d1b", "bike_id": "aad59077ea773fcf18dd2c8d60f17d1b", "fusion_lon": 0.0, "rental_uris": {"ios": "https://dc.lft.to/lastmile_qr_scan", "android": "https://dc.lft.to/lastmile_qr_scan"}, "is_reserved": 0, "fusion_lat": 0.0, "lon": -77.00118466666666}, {"lat": 38.914170666666664, "type": "electric_scooter", "is_disabled": 0, "name": "eec74a645deb12f2e0f05e94ba0c687b", "bike_id": "eec74a645deb12f2e0f05e94ba0c687b", "fusion_lon": 0.0, "rental_uris": {"ios": "https://dc.lft.to/lastmile_qr_scan", "android": "https://dc.lft.to/lastmile_qr_scan"}, "is_reserved": 0, "fusion_lat": 0.0, "lon": -77.0316735}, {"lat": 38.922822333333336, "type": "electric_scooter", "is_disabled": 0, "name": "df4fcfe4bb536366e7b94c31be7599de", "bike_id": "df4fcfe4bb536366e7b94c31be7599de", "fusion_lon": 0.0, "rental_uris": {"ios": "https://dc.lft.to/lastmile_qr_scan", "android": "https://dc.lft.to/lastmile_qr_scan"}, "is_reserved": 0, "fusion_lat": 0.0, "lon": -77.02980366666667}, {"lat": 38.886252666666664, "type": "electric_scooter", "is_disabled": 0, "name": "b24691e2b1d38b1bd0abcf0665c73d22", "bike_id": "b24691e2b1d38b1bd0abcf0665c73d22", "fusion_lon": 0.0, "rental_uris": {"ios": "https://dc.lft.to/lastmile_qr_scan", "android": "https://dc.lft.to/lastmile_qr_scan"}, "is_reserved": 0, "fusion_lat": 0.0, "lon": -77.03174266666667}, {"lat": 38.89768466666666, "type": "electric_scooter", "is_disabled": 0, "name": "9b2adb3ed2765a3dddc93c47b4d09892", "bike_id": "9b2adb3ed2765a3dddc93c47b4d09892", "fusion_lon": 0.0, "rental_uris": {"ios": "https://dc.lft.to/lastmile_qr_scan", "android": "https://dc.lft.to/lastmile_qr_scan"}, "is_reserved": 0, "fusion_lat": 0.0, "lon": -77.0269175}, {"lat": 38.8524845, "type": "electric_bike", "is_disabled": 0, "name": "992778f578f0f3ab757ada867d8d2cfb", "bike_id": "992778f578f0f3ab757ada867d8d2cfb", "fusion_lon": 0.0, "rental_uris": {"ios": "https://dc.lft.to/lastmile_qr_scan", "android": "https://dc.lft.to/lastmile_qr_scan"}, "is_reserved": 0, "fusion_lat": 0.0, "lon": -77.11428533333333}, {"lat": 38.94492533333333, "type": "electric_scooter", "is_disabled": 0, "name": "812ad94ed9d74c4f68c9fb6818441488", "bike_id": "812ad94ed9d74c4f68c9fb6818441488", "fusion_lon": 0.0, "rental_uris": {"ios": "https://dc.lft.to/lastmile_qr_scan", "android": "https://dc.lft.to/lastmile_qr_scan"}, "is_reserved": 0, "fusion_lat": 0.0, "lon": -77.064115}, {"lat": 38.900565, "type": "electric_scooter", "is_disabled": 0, "name": "13aff1fa68b41562ee55640c07e2c6bd", "bike_id": "13aff1fa68b41562ee55640c07e2c6bd", "fusion_lon": 0.0, "rental_uris": {"ios": "https://dc.lft.to/lastmile_qr_scan", "android": "https://dc.lft.to/lastmile_qr_scan"}, "is_reserved": 0, "fusion_lat": 0.0, "lon": -76.98487283333333}, {"lat": 38.923151, "type": "electric_scooter", "is_disabled": 0, "name": "2d60680aefa26fddc4e57dff3b13b5ca", "bike_id": "2d60680aefa26fddc4e57dff3b13b5ca", "fusion_lon": 0.0, "rental_uris": {"ios": "https://dc.lft.to/lastmile_qr_scan", "android": "https://dc.lft.to/lastmile_qr_scan"}, "is_reserved": 0, "fusion_lat": 0.0, "lon": -77.0195505}, {"lat": 38.78311133333333, "type": "electric_bike", "is_disabled": 0, "name": "f7ed3bd913a2c81027fe287a31fc3208", "bike_id": "f7ed3bd913a2c81027fe287a31fc3208", "fusion_lon": 0.0, "rental_uris": {"ios": "https://dc.lft.to/lastmile_qr_scan", "android": "https://dc.lft.to/lastmile_qr_scan"}, "is_reserved": 0, "fusion_lat": 0.0, "lon": -77.11408483333334}, {"lat": 38.884750333333336, "type": "electric_scooter", "is_disabled": 0, "name": "8fb7a636aa039904be18829623246534", "bike_id": "8fb7a636aa039904be18829623246534", "fusion_lon": 0.0, "rental_uris": {"ios": "https://dc.lft.to/lastmile_qr_scan", "android": "https://dc.lft.to/lastmile_qr_scan"}, "is_reserved": 0, "fusion_lat": 0.0, "lon": -77.0198135}, {"lat": 38.895650333333336, "type": "electric_scooter", "is_disabled": 0, "name": "8a227d851f1c3461f38a919126f491d6", "bike_id": "8a227d851f1c3461f38a919126f491d6", "fusion_lon": 0.0, "rental_uris": {"ios": "https://dc.lft.to/lastmile_qr_scan", "android": "https://dc.lft.to/lastmile_qr_scan"}, "is_reserved": 0, "fusion_lat": 0.0, "lon": -76.94919483333334}, {"lat": 38.87690883333333, "type": "electric_scooter", "is_disabled": 0, "name": "71d330496910fe28aa7b6e6113af8dfa", "bike_id": "71d330496910fe28aa7b6e6113af8dfa", "fusion_lon": 0.0, "rental_uris": {"ios": "https://dc.lft.to/lastmile_qr_scan", "android": "https://dc.lft.to/lastmile_qr_scan"}, "is_reserved": 0, "fusion_lat": 0.0, "lon": -77.000579}, {"lat": 38.894834833333334, "type": "electric_scooter", "is_disabled": 0, "name": "34e64c1b12a16ec852f49ac0f6340283", "bike_id": "34e64c1b12a16ec852f49ac0f6340283", "fusion_lon": 0.0, "rental_uris": {"ios": "https://dc.lft.to/lastmile_qr_scan", "android": "https://dc.lft.to/lastmile_qr_scan"}, "is_reserved": 0, "fusion_lat": 0.0, "lon": -76.99520683333333}, {"lat": 38.88441666666667, "type": "electric_scooter", "is_disabled": 0, "name": "6ba77e63b256f96668965e6299b0ed3e", "bike_id": "6ba77e63b256f96668965e6299b0ed3e", "fusion_lon": 0.0, "rental_uris": {"ios": "https://dc.lft.to/lastmile_qr_scan", "android": "https://dc.lft.to/lastmile_qr_scan"}, "is_reserved": 0, "fusion_lat": 0.0, "lon": -76.9576955}, {"lat": 38.901196166666665, "type": "electric_scooter", "is_disabled": 0, "name": "787711313b4297777c72780931be2c22", "bike_id": "787711313b4297777c72780931be2c22", "fusion_lon": 0.0, "rental_uris": {"ios": "https://dc.lft.to/lastmile_qr_scan", "android": "https://dc.lft.to/lastmile_qr_scan"}, "is_reserved": 0, "fusion_lat": 0.0, "lon": -77.0318205}, {"lat": 38.915553833333334, "type": "electric_scooter", "is_disabled": 0, "name": "fa6eb95777d5e4fbbf65b4acf5972ab8", "bike_id": "fa6eb95777d5e4fbbf65b4acf5972ab8", "fusion_lon": 0.0, "rental_uris": {"ios": "https://dc.lft.to/lastmile_qr_scan", "android": "https://dc.lft.to/lastmile_qr_scan"}, "is_reserved": 0, "fusion_lat": 0.0, "lon": -77.02049083333333}, {"lat": 38.912177666666665, "type": "electric_scooter", "is_disabled": 0, "name": "8cf866598a2007f6c474d2265b9a3bf2", "bike_id": "8cf866598a2007f6c474d2265b9a3bf2", "fusion_lon": 0.0, "rental_uris": {"ios": "https://dc.lft.to/lastmile_qr_scan", "android": "https://dc.lft.to/lastmile_qr_scan"}, "is_reserved": 0, "fusion_lat": 0.0, "lon": -77.07596166666667}, {"lat": 38.85939, "type": "electric_scooter", "is_disabled": 0, "name": "701753f0128eb0d441d06f79a12fe738", "bike_id": "701753f0128eb0d441d06f79a12fe738", "fusion_lon": 0.0, "rental_uris": {"ios": "https://dc.lft.to/lastmile_qr_scan", "android": "https://dc.lft.to/lastmile_qr_scan"}, "is_reserved": 0, "fusion_lat": 0.0, "lon": -76.9844795}, {"lat": 38.875714, "type": "electric_scooter", "is_disabled": 0, "name": "e4403f692d5511d05c7d18cdb113a67f", "bike_id": "e4403f692d5511d05c7d18cdb113a67f", "fusion_lon": 0.0, "rental_uris": {"ios": "https://dc.lft.to/lastmile_qr_scan", "android": "https://dc.lft.to/lastmile_qr_scan"}, "is_reserved": 0, "fusion_lat": 0.0, "lon": -77.00572933333333}, {"lat": 38.89918483333334, "type": "electric_scooter", "is_disabled": 0, "name": "16f3828c2f696b3f9a3f13b464cd1569", "bike_id": "16f3828c2f696b3f9a3f13b464cd1569", "fusion_lon": 0.0, "rental_uris": {"ios": "https://dc.lft.to/lastmile_qr_scan", "android": "https://dc.lft.to/lastmile_qr_scan"}, "is_reserved": 0, "fusion_lat": 0.0, "lon": -77.02461666666666}, {"lat": 38.94839566666667, "type": "electric_scooter", "is_disabled": 0, "name": "00cc7f88ca4f8770b9574fbff21c3c7e", "bike_id": "00cc7f88ca4f8770b9574fbff21c3c7e", "fusion_lon": 0.0, "rental_uris": {"ios": "https://dc.lft.to/lastmile_qr_scan", "android": "https://dc.lft.to/lastmile_qr_scan"}, "is_reserved": 0, "fusion_lat": 0.0, "lon": -77.06543716666667}, {"lat": 38.87478933333333, "type": "electric_bike", "is_disabled": 0, "name": "c42d78ea3cdd3ed44c5428db66a4c2d5", "bike_id": "c42d78ea3cdd3ed44c5428db66a4c2d5", "fusion_lon": 0.0, "rental_uris": {"ios": "https://dc.lft.to/lastmile_qr_scan", "android": "https://dc.lft.to/lastmile_qr_scan"}, "is_reserved": 0, "fusion_lat": 0.0, "lon": -76.965229}, {"lat": 38.8330415, "type": "electric_bike", "is_disabled": 0, "name": "3ed00f2eabb340a012c68ca0abe7d176", "bike_id": "3ed00f2eabb340a012c68ca0abe7d176", "fusion_lon": 0.0, "rental_uris": {"ios": "https://dc.lft.to/lastmile_qr_scan", "android": "https://dc.lft.to/lastmile_qr_scan"}, "is_reserved": 0, "fusion_lat": 0.0, "lon": -77.08410533333333}, {"lat": 38.90115683333333, "type": "electric_scooter", "is_disabled": 0, "name": "4fc9cfe2e30b37b21343f47ea2461acb", "bike_id": "4fc9cfe2e30b37b21343f47ea2461acb", "fusion_lon": 0.0, "rental_uris": {"ios": "https://dc.lft.to/lastmile_qr_scan", "android": "https://dc.lft.to/lastmile_qr_scan"}, "is_reserved": 0, "fusion_lat": 0.0, "lon": -77.04877916666666}, {"lat": 38.89655283333333, "type": "electric_scooter", "is_disabled": 0, "name": "76661dde4f3739072a8e017e4f8944d8", "bike_id": "76661dde4f3739072a8e017e4f8944d8", "fusion_lon": 0.0, "rental_uris": {"ios": "https://dc.lft.to/lastmile_qr_scan", "android": "https://dc.lft.to/lastmile_qr_scan"}, "is_reserved": 0, "fusion_lat": 0.0, "lon": -77.0273655}, {"lat": 38.9271485, "type": "electric_scooter", "is_disabled": 0, "name": "8e8508893422c23c60c0ab2205a5ab0a", "bike_id": "8e8508893422c23c60c0ab2205a5ab0a", "fusion_lon": 0.0, "rental_uris": {"ios": "https://dc.lft.to/lastmile_qr_scan", "android": "https://dc.lft.to/lastmile_qr_scan"}, "is_reserved": 0, "fusion_lat": 0.0, "lon": -77.060021}, {"lat": 38.9439385, "type": "electric_scooter", "is_disabled": 0, "name": "5e38fa938eeadde3241d91c50284285b", "bike_id": "5e38fa938eeadde3241d91c50284285b", "fusion_lon": 0.0, "rental_uris": {"ios": "https://dc.lft.to/lastmile_qr_scan", "android": "https://dc.lft.to/lastmile_qr_scan"}, "is_reserved": 0, "fusion_lat": 0.0, "lon": -77.06889783333334}, {"lat": 38.936931666666666, "type": "electric_bike", "is_disabled": 0, "name": "67d08d65f314eec99f3ded967dd76534", "bike_id": "67d08d65f314eec99f3ded967dd76534", "fusion_lon": 0.0, "rental_uris": {"ios": "https://dc.lft.to/lastmile_qr_scan", "android": "https://dc.lft.to/lastmile_qr_scan"}, "is_reserved": 0, "fusion_lat": 0.0, "lon": -76.990622}, {"lat": 38.80742383333333, "type": "electric_bike", "is_disabled": 0, "name": "f4eff706b04b932cbae851af30074128", "bike_id": "f4eff706b04b932cbae851af30074128", "fusion_lon": 0.0, "rental_uris": {"ios": "https://dc.lft.to/lastmile_qr_scan", "android": "https://dc.lft.to/lastmile_qr_scan"}, "is_reserved": 0, "fusion_lat": 0.0, "lon": -77.09690866666666}, {"lat": 38.923464, "type": "electric_scooter", "is_disabled": 0, "name": "80801338b880525a1cdd3e2c6d112520", "bike_id": "80801338b880525a1cdd3e2c6d112520", "fusion_lon": 0.0, "rental_uris": {"ios": "https://dc.lft.to/lastmile_qr_scan", "android": "https://dc.lft.to/lastmile_qr_scan"}, "is_reserved": 0, "fusion_lat": 0.0, "lon": -77.03417816666666}, {"lat": 38.894359, "type": "electric_scooter", "is_disabled": 0, "name": "ee1ef07c23b04532cb4d9d13be5a4b57", "bike_id": "ee1ef07c23b04532cb4d9d13be5a4b57", "fusion_lon": 0.0, "rental_uris": {"ios": "https://dc.lft.to/lastmile_qr_scan", "android": "https://dc.lft.to/lastmile_qr_scan"}, "is_reserved": 0, "fusion_lat": 0.0, "lon": -77.031721}, {"lat": 38.92508733333333, "type": "electric_scooter", "is_disabled": 0, "name": "b87fffd724e2a636679b119ccd85a8f5", "bike_id": "b87fffd724e2a636679b119ccd85a8f5", "fusion_lon": 0.0, "rental_uris": {"ios": "https://dc.lft.to/lastmile_qr_scan", "android": "https://dc.lft.to/lastmile_qr_scan"}, "is_reserved": 0, "fusion_lat": 0.0, "lon": -77.02576583333334}, {"lat": 38.891908, "type": "electric_scooter", "is_disabled": 0, "name": "c1bae557d7f388b8d2f5c96915dc18e5", "bike_id": "c1bae557d7f388b8d2f5c96915dc18e5", "fusion_lon": 0.0, "rental_uris": {"ios": "https://dc.lft.to/lastmile_qr_scan", "android": "https://dc.lft.to/lastmile_qr_scan"}, "is_reserved": 0, "fusion_lat": 0.0, "lon": -77.0367175}, {"lat": 38.8821695, "type": "electric_scooter", "is_disabled": 0, "name": "4d792ea49fed5dfc93fc55fbcfdba42d", "bike_id": "4d792ea49fed5dfc93fc55fbcfdba42d", "fusion_lon": 0.0, "rental_uris": {"ios": "https://dc.lft.to/lastmile_qr_scan", "android": "https://dc.lft.to/lastmile_qr_scan"}, "is_reserved": 0, "fusion_lat": 0.0, "lon": -77.028577}, {"lat": 38.926103833333336, "type": "electric_scooter", "is_disabled": 0, "name": "7dfb984435701de82b8fd52a1dd42b8c", "bike_id": "7dfb984435701de82b8fd52a1dd42b8c", "fusion_lon": 0.0, "rental_uris": {"ios": "https://dc.lft.to/lastmile_qr_scan", "android": "https://dc.lft.to/lastmile_qr_scan"}, "is_reserved": 0, "fusion_lat": 0.0, "lon": -76.98203516666666}, {"lat": 38.9022375, "type": "electric_bike", "is_disabled": 0, "name": "9c2f554f06229ae21b5b70679b39e402", "bike_id": "9c2f554f06229ae21b5b70679b39e402", "fusion_lon": 0.0, "rental_uris": {"ios": "https://dc.lft.to/lastmile_qr_scan", "android": "https://dc.lft.to/lastmile_qr_scan"}, "is_reserved": 0, "fusion_lat": 0.0, "lon": -77.043729}, {"lat": 38.92421216666666, "type": "electric_scooter", "is_disabled": 0, "name": "dfad009df89fceef584682fa786d8735", "bike_id": "dfad009df89fceef584682fa786d8735", "fusion_lon": 0.0, "rental_uris": {"ios": "https://dc.lft.to/lastmile_qr_scan", "android": "https://dc.lft.to/lastmile_qr_scan"}, "is_reserved": 0, "fusion_lat": 0.0, "lon": -77.020117}, {"lat": 38.93144616666667, "type": "electric_scooter", "is_disabled": 0, "name": "042a71e372d02abc712d1ec9d8e15df7", "bike_id": "042a71e372d02abc712d1ec9d8e15df7", "fusion_lon": 0.0, "rental_uris": {"ios": "https://dc.lft.to/lastmile_qr_scan", "android": "https://dc.lft.to/lastmile_qr_scan"}, "is_reserved": 0, "fusion_lat": 0.0, "lon": -77.05697783333333}, {"lat": 38.888223333333336, "type": "electric_scooter", "is_disabled": 0, "name": "dfc5847302a4ec3880ad306e542a6d4e", "bike_id": "dfc5847302a4ec3880ad306e542a6d4e", "fusion_lon": 0.0, "rental_uris": {"ios": "https://dc.lft.to/lastmile_qr_scan", "android": "https://dc.lft.to/lastmile_qr_scan"}, "is_reserved": 0, "fusion_lat": 0.0, "lon": -76.9770285}, {"lat": 38.907034, "type": "electric_scooter", "is_disabled": 0, "name": "ee4de733a3ded6d7971a8866fd219f45", "bike_id": "ee4de733a3ded6d7971a8866fd219f45", "fusion_lon": 0.0, "rental_uris": {"ios": "https://dc.lft.to/lastmile_qr_scan", "android": "https://dc.lft.to/lastmile_qr_scan"}, "is_reserved": 0, "fusion_lat": 0.0, "lon": -77.00974816666667}, {"lat": 38.9091905, "type": "electric_scooter", "is_disabled": 0, "name": "f9c25a7967cdf8be163e56374121f7c9", "bike_id": "f9c25a7967cdf8be163e56374121f7c9", "fusion_lon": 0.0, "rental_uris": {"ios": "https://dc.lft.to/lastmile_qr_scan", "android": "https://dc.lft.to/lastmile_qr_scan"}, "is_reserved": 0, "fusion_lat": 0.0, "lon": -76.98978566666666}, {"lat": 38.88055383333333, "type": "electric_scooter", "is_disabled": 0, "name": "7a592e1a46d22e65f75facf7b2368bda", "bike_id": "7a592e1a46d22e65f75facf7b2368bda", "fusion_lon": 0.0, "rental_uris": {"ios": "https://dc.lft.to/lastmile_qr_scan", "android": "https://dc.lft.to/lastmile_qr_scan"}, "is_reserved": 0, "fusion_lat": 0.0, "lon": -77.0052415}, {"lat": 38.885050666666665, "type": "electric_scooter", "is_disabled": 0, "name": "54441e08f861578947e4cacd0d7cc15d", "bike_id": "54441e08f861578947e4cacd0d7cc15d", "fusion_lon": 0.0, "rental_uris": {"ios": "https://dc.lft.to/lastmile_qr_scan", "android": "https://dc.lft.to/lastmile_qr_scan"}, "is_reserved": 0, "fusion_lat": 0.0, "lon": -77.00570083333334}, {"lat": 38.899831, "type": "electric_scooter", "is_disabled": 0, "name": "2b0a4fb4c25f9d2612600e67bf1823fe", "bike_id": "2b0a4fb4c25f9d2612600e67bf1823fe", "fusion_lon": 0.0, "rental_uris": {"ios": "https://dc.lft.to/lastmile_qr_scan", "android": "https://dc.lft.to/lastmile_qr_scan"}, "is_reserved": 0, "fusion_lat": 0.0, "lon": -77.0170935}, {"lat": 38.9147865, "type": "electric_scooter", "is_disabled": 0, "name": "9da71c7bf6adc3c41f455aa558f0284c", "bike_id": "9da71c7bf6adc3c41f455aa558f0284c", "fusion_lon": 0.0, "rental_uris": {"ios": "https://dc.lft.to/lastmile_qr_scan", "android": "https://dc.lft.to/lastmile_qr_scan"}, "is_reserved": 0, "fusion_lat": 0.0, "lon": -77.0320985}, {"lat": 38.924702, "type": "electric_scooter", "is_disabled": 0, "name": "0a99c8520bbaff270af9d467e80dbba4", "bike_id": "0a99c8520bbaff270af9d467e80dbba4", "fusion_lon": 0.0, "rental_uris": {"ios": "https://dc.lft.to/lastmile_qr_scan", "android": "https://dc.lft.to/lastmile_qr_scan"}, "is_reserved": 0, "fusion_lat": 0.0, "lon": -77.05235766666667}, {"lat": 38.915208166666666, "type": "electric_scooter", "is_disabled": 0, "name": "759bba44164c44c1ab796ccaedd4c54c", "bike_id": "759bba44164c44c1ab796ccaedd4c54c", "fusion_lon": 0.0, "rental_uris": {"ios": "https://dc.lft.to/lastmile_qr_scan", "android": "https://dc.lft.to/lastmile_qr_scan"}, "is_reserved": 0, "fusion_lat": 0.0, "lon": -77.0319785}, {"lat": 38.888209833333335, "type": "electric_scooter", "is_disabled": 0, "name": "abe837e67aa59eae0b5417078bb6b621", "bike_id": "abe837e67aa59eae0b5417078bb6b621", "fusion_lon": 0.0, "rental_uris": {"ios": "https://dc.lft.to/lastmile_qr_scan", "android": "https://dc.lft.to/lastmile_qr_scan"}, "is_reserved": 0, "fusion_lat": 0.0, "lon": -76.977074}, {"lat": 39.0293015, "type": "electric_bike", "is_disabled": 0, "name": "2dfe51c15c704352bb9d379feedcacb7", "bike_id": "2dfe51c15c704352bb9d379feedcacb7", "fusion_lon": 0.0, "rental_uris": {"ios": "https://dc.lft.to/lastmile_qr_scan", "android": "https://dc.lft.to/lastmile_qr_scan"}, "is_reserved": 0, "fusion_lat": 0.0, "lon": -77.0135985}, {"lat": 38.930508833333334, "type": "electric_scooter", "is_disabled": 0, "name": "4161048943840c04ee09070732f8cc60", "bike_id": "4161048943840c04ee09070732f8cc60", "fusion_lon": 0.0, "rental_uris": {"ios": "https://dc.lft.to/lastmile_qr_scan", "android": "https://dc.lft.to/lastmile_qr_scan"}, "is_reserved": 0, "fusion_lat": 0.0, "lon": -77.024659}, {"lat": 38.892261833333336, "type": "electric_scooter", "is_disabled": 0, "name": "60e1c93870e6391e201c69aaed2dd599", "bike_id": "60e1c93870e6391e201c69aaed2dd599", "fusion_lon": 0.0, "rental_uris": {"ios": "https://dc.lft.to/lastmile_qr_scan", "android": "https://dc.lft.to/lastmile_qr_scan"}, "is_reserved": 0, "fusion_lat": 0.0, "lon": -77.04686683333334}, {"lat": 38.898274666666666, "type": "electric_scooter", "is_disabled": 0, "name": "b4f9519dfc512c783aa56c0a6c819413", "bike_id": "b4f9519dfc512c783aa56c0a6c819413", "fusion_lon": 0.0, "rental_uris": {"ios": "https://dc.lft.to/lastmile_qr_scan", "android": "https://dc.lft.to/lastmile_qr_scan"}, "is_reserved": 0, "fusion_lat": 0.0, "lon": -77.046517}, {"lat": 38.887147166666665, "type": "electric_scooter", "is_disabled": 0, "name": "b5c8e27561a193908d09970e73244199", "bike_id": "b5c8e27561a193908d09970e73244199", "fusion_lon": 0.0, "rental_uris": {"ios": "https://dc.lft.to/lastmile_qr_scan", "android": "https://dc.lft.to/lastmile_qr_scan"}, "is_reserved": 0, "fusion_lat": 0.0, "lon": -76.98340166666667}, {"lat": 38.90176433333333, "type": "electric_scooter", "is_disabled": 0, "name": "6a9ae0de6f5eb753e93e9c610731684a", "bike_id": "6a9ae0de6f5eb753e93e9c610731684a", "fusion_lon": 0.0, "rental_uris": {"ios": "https://dc.lft.to/lastmile_qr_scan", "android": "https://dc.lft.to/lastmile_qr_scan"}, "is_reserved": 0, "fusion_lat": 0.0, "lon": -76.98067283333333}, {"lat": 38.926763, "type": "electric_scooter", "is_disabled": 0, "name": "6037d05975509560a5960004321bb467", "bike_id": "6037d05975509560a5960004321bb467", "fusion_lon": 0.0, "rental_uris": {"ios": "https://dc.lft.to/lastmile_qr_scan", "android": "https://dc.lft.to/lastmile_qr_scan"}, "is_reserved": 0, "fusion_lat": 0.0, "lon": -77.0274585}, {"lat": 38.924687, "type": "electric_scooter", "is_disabled": 0, "name": "adaedb19d7aa562b9fcf0ca868d3bcce", "bike_id": "adaedb19d7aa562b9fcf0ca868d3bcce", "fusion_lon": 0.0, "rental_uris": {"ios": "https://dc.lft.to/lastmile_qr_scan", "android": "https://dc.lft.to/lastmile_qr_scan"}, "is_reserved": 0, "fusion_lat": 0.0, "lon": -77.02198}, {"lat": 38.924274, "type": "electric_scooter", "is_disabled": 0, "name": "f24047ae9cc12c698c371e39be0c534f", "bike_id": "f24047ae9cc12c698c371e39be0c534f", "fusion_lon": 0.0, "rental_uris": {"ios": "https://dc.lft.to/lastmile_qr_scan", "android": "https://dc.lft.to/lastmile_qr_scan"}, "is_reserved": 0, "fusion_lat": 0.0, "lon": -77.0517695}, {"lat": 38.89470216666667, "type": "electric_scooter", "is_disabled": 0, "name": "19448a6d598b31ab8a92c31697c01aad", "bike_id": "19448a6d598b31ab8a92c31697c01aad", "fusion_lon": 0.0, "rental_uris": {"ios": "https://dc.lft.to/lastmile_qr_scan", "android": "https://dc.lft.to/lastmile_qr_scan"}, "is_reserved": 0, "fusion_lat": 0.0, "lon": -76.99711516666666}, {"lat": 38.94499116666667, "type": "electric_scooter", "is_disabled": 0, "name": "45755369072e93ec890f79e585e2d6ea", "bike_id": "45755369072e93ec890f79e585e2d6ea", "fusion_lon": 0.0, "rental_uris": {"ios": "https://dc.lft.to/lastmile_qr_scan", "android": "https://dc.lft.to/lastmile_qr_scan"}, "is_reserved": 0, "fusion_lat": 0.0, "lon": -77.03428483333333}, {"lat": 38.90654966666666, "type": "electric_scooter", "is_disabled": 0, "name": "c60156a0b2c662e1cb34ff2183b03122", "bike_id": "c60156a0b2c662e1cb34ff2183b03122", "fusion_lon": 0.0, "rental_uris": {"ios": "https://dc.lft.to/lastmile_qr_scan", "android": "https://dc.lft.to/lastmile_qr_scan"}, "is_reserved": 0, "fusion_lat": 0.0, "lon": -77.04281916666666}, {"lat": 38.90968, "type": "electric_scooter", "is_disabled": 0, "name": "199de8d00d5cba76a072603d7c19d2df", "bike_id": "199de8d00d5cba76a072603d7c19d2df", "fusion_lon": 0.0, "rental_uris": {"ios": "https://dc.lft.to/lastmile_qr_scan", "android": "https://dc.lft.to/lastmile_qr_scan"}, "is_reserved": 0, "fusion_lat": 0.0, "lon": -76.98420666666667}, {"lat": 38.85247566666666, "type": "electric_bike", "is_disabled": 0, "name": "890bd4beb9309a27557fdada3bae6d5f", "bike_id": "890bd4beb9309a27557fdada3bae6d5f", "fusion_lon": 0.0, "rental_uris": {"ios": "https://dc.lft.to/lastmile_qr_scan", "android": "https://dc.lft.to/lastmile_qr_scan"}, "is_reserved": 0, "fusion_lat": 0.0, "lon": -77.05156033333333}, {"lat": 38.933320333333334, "type": "electric_scooter", "is_disabled": 0, "name": "a2b3aa453d8737ffe62a238608309049", "bike_id": "a2b3aa453d8737ffe62a238608309049", "fusion_lon": 0.0, "rental_uris": {"ios": "https://dc.lft.to/lastmile_qr_scan", "android": "https://dc.lft.to/lastmile_qr_scan"}, "is_reserved": 0, "fusion_lat": 0.0, "lon": -77.02928133333333}, {"lat": 38.958949, "type": "electric_scooter", "is_disabled": 0, "name": "0171d5abb3901081d595d3241a87cca3", "bike_id": "0171d5abb3901081d595d3241a87cca3", "fusion_lon": 0.0, "rental_uris": {"ios": "https://dc.lft.to/lastmile_qr_scan", "android": "https://dc.lft.to/lastmile_qr_scan"}, "is_reserved": 0, "fusion_lat": 0.0, "lon": -77.00019783333333}, {"lat": 38.933390833333334, "type": "electric_bike", "is_disabled": 0, "name": "3f893fa248f77823bc2ee438a528be3a", "bike_id": "3f893fa248f77823bc2ee438a528be3a", "fusion_lon": 0.0, "rental_uris": {"ios": "https://dc.lft.to/lastmile_qr_scan", "android": "https://dc.lft.to/lastmile_qr_scan"}, "is_reserved": 0, "fusion_lat": 0.0, "lon": -77.0420955}, {"lat": 38.9123015, "type": "electric_scooter", "is_disabled": 0, "name": "15912022f7528266cc06066614dfab8d", "bike_id": "15912022f7528266cc06066614dfab8d", "fusion_lon": 0.0, "rental_uris": {"ios": "https://dc.lft.to/lastmile_qr_scan", "android": "https://dc.lft.to/lastmile_qr_scan"}, "is_reserved": 0, "fusion_lat": 0.0, "lon": -77.06586983333334}, {"lat": 38.89889, "type": "electric_scooter", "is_disabled": 0, "name": "14a7af9ee48c2226d8b74dc2b5deb9b2", "bike_id": "14a7af9ee48c2226d8b74dc2b5deb9b2", "fusion_lon": 0.0, "rental_uris": {"ios": "https://dc.lft.to/lastmile_qr_scan", "android": "https://dc.lft.to/lastmile_qr_scan"}, "is_reserved": 0, "fusion_lat": 0.0, "lon": -76.98682733333334}, {"lat": 38.900306, "type": "electric_scooter", "is_disabled": 0, "name": "012efe7f2d321d99d4e27766df63f00f", "bike_id": "012efe7f2d321d99d4e27766df63f00f", "fusion_lon": 0.0, "rental_uris": {"ios": "https://dc.lft.to/lastmile_qr_scan", "android": "https://dc.lft.to/lastmile_qr_scan"}, "is_reserved": 0, "fusion_lat": 0.0, "lon": -77.04665333333334}, {"lat": 38.89625483333333, "type": "electric_scooter", "is_disabled": 0, "name": "af567bcafcf120f0652206fd2c779933", "bike_id": "af567bcafcf120f0652206fd2c779933", "fusion_lon": 0.0, "rental_uris": {"ios": "https://dc.lft.to/lastmile_qr_scan", "android": "https://dc.lft.to/lastmile_qr_scan"}, "is_reserved": 0, "fusion_lat": 0.0, "lon": -77.04054116666667}, {"lat": 38.90699266666667, "type": "electric_scooter", "is_disabled": 0, "name": "b0d76384e2b78e25cf9241aaf5501437", "bike_id": "b0d76384e2b78e25cf9241aaf5501437", "fusion_lon": 0.0, "rental_uris": {"ios": "https://dc.lft.to/lastmile_qr_scan", "android": "https://dc.lft.to/lastmile_qr_scan"}, "is_reserved": 0, "fusion_lat": 0.0, "lon": -77.03197583333333}, {"lat": 38.9208585, "type": "electric_scooter", "is_disabled": 0, "name": "ff128917336007f65b807b2078782fd1", "bike_id": "ff128917336007f65b807b2078782fd1", "fusion_lon": 0.0, "rental_uris": {"ios": "https://dc.lft.to/lastmile_qr_scan", "android": "https://dc.lft.to/lastmile_qr_scan"}, "is_reserved": 0, "fusion_lat": 0.0, "lon": -77.02531516666667}, {"lat": 38.867197, "type": "electric_scooter", "is_disabled": 0, "name": "37cc201e8302978cf967aa1461ce6009", "bike_id": "37cc201e8302978cf967aa1461ce6009", "fusion_lon": 0.0, "rental_uris": {"ios": "https://dc.lft.to/lastmile_qr_scan", "android": "https://dc.lft.to/lastmile_qr_scan"}, "is_reserved": 0, "fusion_lat": 0.0, "lon": -77.010131}, {"lat": 38.82433866666667, "type": "electric_bike", "is_disabled": 0, "name": "bca477d9c00b8d794d46b0c12dda5a20", "bike_id": "bca477d9c00b8d794d46b0c12dda5a20", "fusion_lon": 0.0, "rental_uris": {"ios": "https://dc.lft.to/lastmile_qr_scan", "android": "https://dc.lft.to/lastmile_qr_scan"}, "is_reserved": 0, "fusion_lat": 0.0, "lon": -77.1204315}, {"lat": 38.939729, "type": "electric_bike", "is_disabled": 0, "name": "9b1833e447fcaa8d61a54d5d3d1981fd", "bike_id": "9b1833e447fcaa8d61a54d5d3d1981fd", "fusion_lon": 0.0, "rental_uris": {"ios": "https://dc.lft.to/lastmile_qr_scan", "android": "https://dc.lft.to/lastmile_qr_scan"}, "is_reserved": 0, "fusion_lat": 0.0, "lon": -76.98617116666667}, {"lat": 38.9023705, "type": "electric_scooter", "is_disabled": 0, "name": "437cac5e402cefcb3a931ca4e2638e76", "bike_id": "437cac5e402cefcb3a931ca4e2638e76", "fusion_lon": 0.0, "rental_uris": {"ios": "https://dc.lft.to/lastmile_qr_scan", "android": "https://dc.lft.to/lastmile_qr_scan"}, "is_reserved": 0, "fusion_lat": 0.0, "lon": -77.045348}, {"lat": 38.870736, "type": "electric_scooter", "is_disabled": 0, "name": "38c61fb0ea5bc881990a565814cad925", "bike_id": "38c61fb0ea5bc881990a565814cad925", "fusion_lon": 0.0, "rental_uris": {"ios": "https://dc.lft.to/lastmile_qr_scan", "android": "https://dc.lft.to/lastmile_qr_scan"}, "is_reserved": 0, "fusion_lat": 0.0, "lon": -76.98002333333334}, {"lat": 38.86565316666667, "type": "electric_bike", "is_disabled": 0, "name": "6ccb727de1597953fbbd769fca176915", "bike_id": "6ccb727de1597953fbbd769fca176915", "fusion_lon": 0.0, "rental_uris": {"ios": "https://dc.lft.to/lastmile_qr_scan", "android": "https://dc.lft.to/lastmile_qr_scan"}, "is_reserved": 0, "fusion_lat": 0.0, "lon": -76.97479816666667}, {"lat": 38.89227433333333, "type": "electric_scooter", "is_disabled": 0, "name": "f3b76a6bc6493bf7d41eb80b531cabc9", "bike_id": "f3b76a6bc6493bf7d41eb80b531cabc9", "fusion_lon": 0.0, "rental_uris": {"ios": "https://dc.lft.to/lastmile_qr_scan", "android": "https://dc.lft.to/lastmile_qr_scan"}, "is_reserved": 0, "fusion_lat": 0.0, "lon": -77.04801683333334}, {"lat": 38.900178, "type": "electric_scooter", "is_disabled": 0, "name": "07f09bed70880c6c38059a6866f9376d", "bike_id": "07f09bed70880c6c38059a6866f9376d", "fusion_lon": 0.0, "rental_uris": {"ios": "https://dc.lft.to/lastmile_qr_scan", "android": "https://dc.lft.to/lastmile_qr_scan"}, "is_reserved": 0, "fusion_lat": 0.0, "lon": -77.04661416666667}, {"lat": 38.897877, "type": "electric_scooter", "is_disabled": 0, "name": "7d82cff6350bee64c54affb3ebf9b6ee", "bike_id": "7d82cff6350bee64c54affb3ebf9b6ee", "fusion_lon": 0.0, "rental_uris": {"ios": "https://dc.lft.to/lastmile_qr_scan", "android": "https://dc.lft.to/lastmile_qr_scan"}, "is_reserved": 0, "fusion_lat": 0.0, "lon": -77.01226583333333}, {"lat": 38.91407783333333, "type": "electric_scooter", "is_disabled": 0, "name": "2b5f96e13353f5c5ea58dd54e29287ce", "bike_id": "2b5f96e13353f5c5ea58dd54e29287ce", "fusion_lon": 0.0, "rental_uris": {"ios": "https://dc.lft.to/lastmile_qr_scan", "android": "https://dc.lft.to/lastmile_qr_scan"}, "is_reserved": 0, "fusion_lat": 0.0, "lon": -77.032708}, {"lat": 38.924539, "type": "electric_scooter", "is_disabled": 0, "name": "9a21aeb0ebed442670a07df947c5dc4b", "bike_id": "9a21aeb0ebed442670a07df947c5dc4b", "fusion_lon": 0.0, "rental_uris": {"ios": "https://dc.lft.to/lastmile_qr_scan", "android": "https://dc.lft.to/lastmile_qr_scan"}, "is_reserved": 0, "fusion_lat": 0.0, "lon": -77.04019833333334}, {"lat": 38.89634516666667, "type": "electric_scooter", "is_disabled": 0, "name": "afe815042b7d94f273bd42bc3f88c4f5", "bike_id": "afe815042b7d94f273bd42bc3f88c4f5", "fusion_lon": 0.0, "rental_uris": {"ios": "https://dc.lft.to/lastmile_qr_scan", "android": "https://dc.lft.to/lastmile_qr_scan"}, "is_reserved": 0, "fusion_lat": 0.0, "lon": -77.02798833333334}, {"lat": 38.914437, "type": "electric_scooter", "is_disabled": 0, "name": "5de54d5da72267ab548138cba8a319b3", "bike_id": "5de54d5da72267ab548138cba8a319b3", "fusion_lon": 0.0, "rental_uris": {"ios": "https://dc.lft.to/lastmile_qr_scan", "android": "https://dc.lft.to/lastmile_qr_scan"}, "is_reserved": 0, "fusion_lat": 0.0, "lon": -77.017274}, {"lat": 38.8922145, "type": "electric_scooter", "is_disabled": 0, "name": "bebe368ed33874652814f1fc2c506b9d", "bike_id": "bebe368ed33874652814f1fc2c506b9d", "fusion_lon": 0.0, "rental_uris": {"ios": "https://dc.lft.to/lastmile_qr_scan", "android": "https://dc.lft.to/lastmile_qr_scan"}, "is_reserved": 0, "fusion_lat": 0.0, "lon": -77.02224416666667}, {"lat": 38.924716333333336, "type": "electric_scooter", "is_disabled": 0, "name": "ba93182e598bb65012ff31bad4c69930", "bike_id": "ba93182e598bb65012ff31bad4c69930", "fusion_lon": 0.0, "rental_uris": {"ios": "https://dc.lft.to/lastmile_qr_scan", "android": "https://dc.lft.to/lastmile_qr_scan"}, "is_reserved": 0, "fusion_lat": 0.0, "lon": -77.02206816666667}, {"lat": 38.88611383333333, "type": "electric_scooter", "is_disabled": 0, "name": "ea230927fe0b1e36d8cf3b524485fba8", "bike_id": "ea230927fe0b1e36d8cf3b524485fba8", "fusion_lon": 0.0, "rental_uris": {"ios": "https://dc.lft.to/lastmile_qr_scan", "android": "https://dc.lft.to/lastmile_qr_scan"}, "is_reserved": 0, "fusion_lat": 0.0, "lon": -77.00336316666667}, {"lat": 38.8874675, "type": "electric_scooter", "is_disabled": 0, "name": "48723bab28d937c5a6b9e938e5bde4fd", "bike_id": "48723bab28d937c5a6b9e938e5bde4fd", "fusion_lon": 0.0, "rental_uris": {"ios": "https://dc.lft.to/lastmile_qr_scan", "android": "https://dc.lft.to/lastmile_qr_scan"}, "is_reserved": 0, "fusion_lat": 0.0, "lon": -77.017372}, {"lat": 38.907797333333335, "type": "electric_scooter", "is_disabled": 0, "name": "d3bd58ba760f95e53f163794bbbf8707", "bike_id": "d3bd58ba760f95e53f163794bbbf8707", "fusion_lon": 0.0, "rental_uris": {"ios": "https://dc.lft.to/lastmile_qr_scan", "android": "https://dc.lft.to/lastmile_qr_scan"}, "is_reserved": 0, "fusion_lat": 0.0, "lon": -77.07169083333334}, {"lat": 38.92328933333334, "type": "electric_scooter", "is_disabled": 0, "name": "a4788def3138b18d0e35452a70b2049f", "bike_id": "a4788def3138b18d0e35452a70b2049f", "fusion_lon": 0.0, "rental_uris": {"ios": "https://dc.lft.to/lastmile_qr_scan", "android": "https://dc.lft.to/lastmile_qr_scan"}, "is_reserved": 0, "fusion_lat": 0.0, "lon": -77.0195905}, {"lat": 38.89888933333334, "type": "electric_scooter", "is_disabled": 0, "name": "284d7e5f9cba7d6e641f6a9ff0b9c425", "bike_id": "284d7e5f9cba7d6e641f6a9ff0b9c425", "fusion_lon": 0.0, "rental_uris": {"ios": "https://dc.lft.to/lastmile_qr_scan", "android": "https://dc.lft.to/lastmile_qr_scan"}, "is_reserved": 0, "fusion_lat": 0.0, "lon": -77.03321116666666}, {"lat": 38.911980666666665, "type": "electric_scooter", "is_disabled": 0, "name": "ed90b74baba4d57d4420ea9649e58d10", "bike_id": "ed90b74baba4d57d4420ea9649e58d10", "fusion_lon": 0.0, "rental_uris": {"ios": "https://dc.lft.to/lastmile_qr_scan", "android": "https://dc.lft.to/lastmile_qr_scan"}, "is_reserved": 0, "fusion_lat": 0.0, "lon": -77.018945}, {"lat": 38.908840833333336, "type": "electric_scooter", "is_disabled": 0, "name": "82a4325f60d60b94e4cf52101f6abafa", "bike_id": "82a4325f60d60b94e4cf52101f6abafa", "fusion_lon": 0.0, "rental_uris": {"ios": "https://dc.lft.to/lastmile_qr_scan", "android": "https://dc.lft.to/lastmile_qr_scan"}, "is_reserved": 0, "fusion_lat": 0.0, "lon": -77.07536683333333}, {"lat": 38.924939, "type": "electric_scooter", "is_disabled": 0, "name": "f92397fd75fd49feaa5aefcd0d77a188", "bike_id": "f92397fd75fd49feaa5aefcd0d77a188", "fusion_lon": 0.0, "rental_uris": {"ios": "https://dc.lft.to/lastmile_qr_scan", "android": "https://dc.lft.to/lastmile_qr_scan"}, "is_reserved": 0, "fusion_lat": 0.0, "lon": -77.039307}, {"lat": 38.90269983333334, "type": "electric_scooter", "is_disabled": 0, "name": "5ac5a49f1ed63a974769fcddb6c2aacd", "bike_id": "5ac5a49f1ed63a974769fcddb6c2aacd", "fusion_lon": 0.0, "rental_uris": {"ios": "https://dc.lft.to/lastmile_qr_scan", "android": "https://dc.lft.to/lastmile_qr_scan"}, "is_reserved": 0, "fusion_lat": 0.0, "lon": -77.01130683333334}, {"lat": 38.899029666666664, "type": "electric_scooter", "is_disabled": 0, "name": "4e6470a30031bf8a1c7e4983b1d6d19b", "bike_id": "4e6470a30031bf8a1c7e4983b1d6d19b", "fusion_lon": 0.0, "rental_uris": {"ios": "https://dc.lft.to/lastmile_qr_scan", "android": "https://dc.lft.to/lastmile_qr_scan"}, "is_reserved": 0, "fusion_lat": 0.0, "lon": -77.03007666666667}, {"lat": 38.9247935, "type": "electric_scooter", "is_disabled": 0, "name": "2374453a7b883c18b8826518c6c38aff", "bike_id": "2374453a7b883c18b8826518c6c38aff", "fusion_lon": 0.0, "rental_uris": {"ios": "https://dc.lft.to/lastmile_qr_scan", "android": "https://dc.lft.to/lastmile_qr_scan"}, "is_reserved": 0, "fusion_lat": 0.0, "lon": -77.03940716666666}, {"lat": 38.89889933333333, "type": "electric_scooter", "is_disabled": 0, "name": "62ca229e19390c8931d1d6962c0425c4", "bike_id": "62ca229e19390c8931d1d6962c0425c4", "fusion_lon": 0.0, "rental_uris": {"ios": "https://dc.lft.to/lastmile_qr_scan", "android": "https://dc.lft.to/lastmile_qr_scan"}, "is_reserved": 0, "fusion_lat": 0.0, "lon": -76.93174733333333}, {"lat": 38.87785783333333, "type": "electric_scooter", "is_disabled": 0, "name": "20c499a571ea8aac2b92ad616c657649", "bike_id": "20c499a571ea8aac2b92ad616c657649", "fusion_lon": 0.0, "rental_uris": {"ios": "https://dc.lft.to/lastmile_qr_scan", "android": "https://dc.lft.to/lastmile_qr_scan"}, "is_reserved": 0, "fusion_lat": 0.0, "lon": -76.99413916666667}, {"lat": 38.90534683333333, "type": "electric_scooter", "is_disabled": 0, "name": "b6ce11ed9f8e1bef1b609892f2d96a8f", "bike_id": "b6ce11ed9f8e1bef1b609892f2d96a8f", "fusion_lon": 0.0, "rental_uris": {"ios": "https://dc.lft.to/lastmile_qr_scan", "android": "https://dc.lft.to/lastmile_qr_scan"}, "is_reserved": 0, "fusion_lat": 0.0, "lon": -77.04190133333333}, {"lat": 38.907202166666664, "type": "electric_scooter", "is_disabled": 0, "name": "933cc156b0ac5c7168b2d98b00dcaa0a", "bike_id": "933cc156b0ac5c7168b2d98b00dcaa0a", "fusion_lon": 0.0, "rental_uris": {"ios": "https://dc.lft.to/lastmile_qr_scan", "android": "https://dc.lft.to/lastmile_qr_scan"}, "is_reserved": 0, "fusion_lat": 0.0, "lon": -77.03356383333333}, {"lat": 38.904289166666665, "type": "electric_scooter", "is_disabled": 0, "name": "dca88d877339fdd5de8cb77ca96755d5", "bike_id": "dca88d877339fdd5de8cb77ca96755d5", "fusion_lon": 0.0, "rental_uris": {"ios": "https://dc.lft.to/lastmile_qr_scan", "android": "https://dc.lft.to/lastmile_qr_scan"}, "is_reserved": 0, "fusion_lat": 0.0, "lon": -77.043721}, {"lat": 38.92294416666667, "type": "electric_scooter", "is_disabled": 0, "name": "9e73d611d66a43a96d7c687ea250e827", "bike_id": "9e73d611d66a43a96d7c687ea250e827", "fusion_lon": 0.0, "rental_uris": {"ios": "https://dc.lft.to/lastmile_qr_scan", "android": "https://dc.lft.to/lastmile_qr_scan"}, "is_reserved": 0, "fusion_lat": 0.0, "lon": -77.04218266666666}, {"lat": 38.903032833333334, "type": "electric_scooter", "is_disabled": 0, "name": "59a824af53873f6af30d12a293af750c", "bike_id": "59a824af53873f6af30d12a293af750c", "fusion_lon": 0.0, "rental_uris": {"ios": "https://dc.lft.to/lastmile_qr_scan", "android": "https://dc.lft.to/lastmile_qr_scan"}, "is_reserved": 0, "fusion_lat": 0.0, "lon": -77.032076}, {"lat": 38.92681866666667, "type": "electric_scooter", "is_disabled": 0, "name": "28f2e7af1bfe225712b641b9c39b915d", "bike_id": "28f2e7af1bfe225712b641b9c39b915d", "fusion_lon": 0.0, "rental_uris": {"ios": "https://dc.lft.to/lastmile_qr_scan", "android": "https://dc.lft.to/lastmile_qr_scan"}, "is_reserved": 0, "fusion_lat": 0.0, "lon": -77.02786033333334}, {"lat": 38.938567, "type": "electric_scooter", "is_disabled": 0, "name": "25584a0f405e9084dfe58b12ea74b017", "bike_id": "25584a0f405e9084dfe58b12ea74b017", "fusion_lon": 0.0, "rental_uris": {"ios": "https://dc.lft.to/lastmile_qr_scan", "android": "https://dc.lft.to/lastmile_qr_scan"}, "is_reserved": 0, "fusion_lat": 0.0, "lon": -77.02521733333333}, {"lat": 38.884239666666666, "type": "electric_scooter", "is_disabled": 0, "name": "91d5d2e2942e593319dfde67b98805e0", "bike_id": "91d5d2e2942e593319dfde67b98805e0", "fusion_lon": 0.0, "rental_uris": {"ios": "https://dc.lft.to/lastmile_qr_scan", "android": "https://dc.lft.to/lastmile_qr_scan"}, "is_reserved": 0, "fusion_lat": 0.0, "lon": -77.02562866666666}, {"lat": 38.8958285, "type": "electric_scooter", "is_disabled": 0, "name": "4cc9617f67d76ece91fa72a21e4000e1", "bike_id": "4cc9617f67d76ece91fa72a21e4000e1", "fusion_lon": 0.0, "rental_uris": {"ios": "https://dc.lft.to/lastmile_qr_scan", "android": "https://dc.lft.to/lastmile_qr_scan"}, "is_reserved": 0, "fusion_lat": 0.0, "lon": -76.94849433333333}, {"lat": 38.942031166666666, "type": "electric_scooter", "is_disabled": 0, "name": "bff557cdc64cd10b2e151355d026f98e", "bike_id": "bff557cdc64cd10b2e151355d026f98e", "fusion_lon": 0.0, "rental_uris": {"ios": "https://dc.lft.to/lastmile_qr_scan", "android": "https://dc.lft.to/lastmile_qr_scan"}, "is_reserved": 0, "fusion_lat": 0.0, "lon": -77.01831816666666}, {"lat": 38.89878783333333, "type": "electric_bike", "is_disabled": 0, "name": "fc2567ea1f4a3aa67bf8a3a010c31dcf", "bike_id": "fc2567ea1f4a3aa67bf8a3a010c31dcf", "fusion_lon": 0.0, "rental_uris": {"ios": "https://dc.lft.to/lastmile_qr_scan", "android": "https://dc.lft.to/lastmile_qr_scan"}, "is_reserved": 0, "fusion_lat": 0.0, "lon": -76.93184916666667}, {"lat": 38.892222833333335, "type": "electric_scooter", "is_disabled": 0, "name": "9646e35d8c3667e8f4964de4c2d172a2", "bike_id": "9646e35d8c3667e8f4964de4c2d172a2", "fusion_lon": 0.0, "rental_uris": {"ios": "https://dc.lft.to/lastmile_qr_scan", "android": "https://dc.lft.to/lastmile_qr_scan"}, "is_reserved": 0, "fusion_lat": 0.0, "lon": -77.04641983333333}, {"lat": 38.879404, "type": "electric_scooter", "is_disabled": 0, "name": "ca65207ac2b63ae9b8307d2df7fe0bc3", "bike_id": "ca65207ac2b63ae9b8307d2df7fe0bc3", "fusion_lon": 0.0, "rental_uris": {"ios": "https://dc.lft.to/lastmile_qr_scan", "android": "https://dc.lft.to/lastmile_qr_scan"}, "is_reserved": 0, "fusion_lat": 0.0, "lon": -77.00369566666667}, {"lat": 38.901709, "type": "electric_scooter", "is_disabled": 0, "name": "40a03f7b8ca8208b25c5815abce6840b", "bike_id": "40a03f7b8ca8208b25c5815abce6840b", "fusion_lon": 0.0, "rental_uris": {"ios": "https://dc.lft.to/lastmile_qr_scan", "android": "https://dc.lft.to/lastmile_qr_scan"}, "is_reserved": 0, "fusion_lat": 0.0, "lon": -77.021798}, {"lat": 38.89012666666667, "type": "electric_scooter", "is_disabled": 0, "name": "4ee64e748eca178ae9e49416dd478fc0", "bike_id": "4ee64e748eca178ae9e49416dd478fc0", "fusion_lon": 0.0, "rental_uris": {"ios": "https://dc.lft.to/lastmile_qr_scan", "android": "https://dc.lft.to/lastmile_qr_scan"}, "is_reserved": 0, "fusion_lat": 0.0, "lon": -76.937412}, {"lat": 38.95089, "type": "electric_scooter", "is_disabled": 0, "name": "4523842514ea8cd368fd249a076d6feb", "bike_id": "4523842514ea8cd368fd249a076d6feb", "fusion_lon": 0.0, "rental_uris": {"ios": "https://dc.lft.to/lastmile_qr_scan", "android": "https://dc.lft.to/lastmile_qr_scan"}, "is_reserved": 0, "fusion_lat": 0.0, "lon": -76.9980055}, {"lat": 38.8843955, "type": "electric_scooter", "is_disabled": 0, "name": "97a54a139c68409717fa394275d746e1", "bike_id": "97a54a139c68409717fa394275d746e1", "fusion_lon": 0.0, "rental_uris": {"ios": "https://dc.lft.to/lastmile_qr_scan", "android": "https://dc.lft.to/lastmile_qr_scan"}, "is_reserved": 0, "fusion_lat": 0.0, "lon": -76.957496}, {"lat": 38.923640666666664, "type": "electric_scooter", "is_disabled": 0, "name": "57c42b4f4aeff77f4a5d7676d4336fde", "bike_id": "57c42b4f4aeff77f4a5d7676d4336fde", "fusion_lon": 0.0, "rental_uris": {"ios": "https://dc.lft.to/lastmile_qr_scan", "android": "https://dc.lft.to/lastmile_qr_scan"}, "is_reserved": 0, "fusion_lat": 0.0, "lon": -77.05029383333333}, {"lat": 38.91126, "type": "electric_scooter", "is_disabled": 0, "name": "2114417584591de2b344f892525734ca", "bike_id": "2114417584591de2b344f892525734ca", "fusion_lon": 0.0, "rental_uris": {"ios": "https://dc.lft.to/lastmile_qr_scan", "android": "https://dc.lft.to/lastmile_qr_scan"}, "is_reserved": 0, "fusion_lat": 0.0, "lon": -77.04461533333334}, {"lat": 38.8073575, "type": "electric_bike", "is_disabled": 0, "name": "556ddf765c47908b742813984b3dffd3", "bike_id": "556ddf765c47908b742813984b3dffd3", "fusion_lon": 0.0, "rental_uris": {"ios": "https://dc.lft.to/lastmile_qr_scan", "android": "https://dc.lft.to/lastmile_qr_scan"}, "is_reserved": 0, "fusion_lat": 0.0, "lon": -76.99260116666666}, {"lat": 38.89229516666666, "type": "electric_scooter", "is_disabled": 0, "name": "4626051c0ae9e05875aae67c5b93063d", "bike_id": "4626051c0ae9e05875aae67c5b93063d", "fusion_lon": 0.0, "rental_uris": {"ios": "https://dc.lft.to/lastmile_qr_scan", "android": "https://dc.lft.to/lastmile_qr_scan"}, "is_reserved": 0, "fusion_lat": 0.0, "lon": -77.043724}, {"lat": 38.892262, "type": "electric_scooter", "is_disabled": 0, "name": "12b50abaea7fc1ad4c65330d82196bba", "bike_id": "12b50abaea7fc1ad4c65330d82196bba", "fusion_lon": 0.0, "rental_uris": {"ios": "https://dc.lft.to/lastmile_qr_scan", "android": "https://dc.lft.to/lastmile_qr_scan"}, "is_reserved": 0, "fusion_lat": 0.0, "lon": -77.0427025}, {"lat": 38.9261345, "type": "electric_scooter", "is_disabled": 0, "name": "428577e9761bc7c19d3fbdeca35be689", "bike_id": "428577e9761bc7c19d3fbdeca35be689", "fusion_lon": 0.0, "rental_uris": {"ios": "https://dc.lft.to/lastmile_qr_scan", "android": "https://dc.lft.to/lastmile_qr_scan"}, "is_reserved": 0, "fusion_lat": 0.0, "lon": -77.02160916666666}, {"lat": 38.91713816666667, "type": "electric_scooter", "is_disabled": 0, "name": "7499ae3485717883dbfc458a044e6439", "bike_id": "7499ae3485717883dbfc458a044e6439", "fusion_lon": 0.0, "rental_uris": {"ios": "https://dc.lft.to/lastmile_qr_scan", "android": "https://dc.lft.to/lastmile_qr_scan"}, "is_reserved": 0, "fusion_lat": 0.0, "lon": -77.02554533333333}, {"lat": 38.926887, "type": "electric_scooter", "is_disabled": 0, "name": "30a6be291d65f3cf6ab6bfa78f5c97eb", "bike_id": "30a6be291d65f3cf6ab6bfa78f5c97eb", "fusion_lon": 0.0, "rental_uris": {"ios": "https://dc.lft.to/lastmile_qr_scan", "android": "https://dc.lft.to/lastmile_qr_scan"}, "is_reserved": 0, "fusion_lat": 0.0, "lon": -77.02967166666667}, {"lat": 38.91802066666666, "type": "electric_scooter", "is_disabled": 0, "name": "a067109e6fd9673655bbb4f24d0b5f51", "bike_id": "a067109e6fd9673655bbb4f24d0b5f51", "fusion_lon": 0.0, "rental_uris": {"ios": "https://dc.lft.to/lastmile_qr_scan", "android": "https://dc.lft.to/lastmile_qr_scan"}, "is_reserved": 0, "fusion_lat": 0.0, "lon": -77.024886}, {"lat": 38.902768, "type": "electric_scooter", "is_disabled": 0, "name": "7f118e3f8a45aa23b59089153dfed8a8", "bike_id": "7f118e3f8a45aa23b59089153dfed8a8", "fusion_lon": 0.0, "rental_uris": {"ios": "https://dc.lft.to/lastmile_qr_scan", "android": "https://dc.lft.to/lastmile_qr_scan"}, "is_reserved": 0, "fusion_lat": 0.0, "lon": -77.03138716666666}, {"lat": 38.89966366666667, "type": "electric_scooter", "is_disabled": 0, "name": "b27bf2cec9084ac2c842ac3fb08bd734", "bike_id": "b27bf2cec9084ac2c842ac3fb08bd734", "fusion_lon": 0.0, "rental_uris": {"ios": "https://dc.lft.to/lastmile_qr_scan", "android": "https://dc.lft.to/lastmile_qr_scan"}, "is_reserved": 0, "fusion_lat": 0.0, "lon": -77.04717933333333}, {"lat": 38.897233166666666, "type": "electric_scooter", "is_disabled": 0, "name": "a7bf1ed967092a4cc953acc23690d3a5", "bike_id": "a7bf1ed967092a4cc953acc23690d3a5", "fusion_lon": 0.0, "rental_uris": {"ios": "https://dc.lft.to/lastmile_qr_scan", "android": "https://dc.lft.to/lastmile_qr_scan"}, "is_reserved": 0, "fusion_lat": 0.0, "lon": -77.00210066666666}, {"lat": 38.93103083333333, "type": "electric_scooter", "is_disabled": 0, "name": "abe785188fee1a4bc418e7503a65bf8e", "bike_id": "abe785188fee1a4bc418e7503a65bf8e", "fusion_lon": 0.0, "rental_uris": {"ios": "https://dc.lft.to/lastmile_qr_scan", "android": "https://dc.lft.to/lastmile_qr_scan"}, "is_reserved": 0, "fusion_lat": 0.0, "lon": -77.03090216666666}, {"lat": 38.916535833333334, "type": "electric_scooter", "is_disabled": 0, "name": "2987013ced6eaad5bb6e61d7ef42b1ba", "bike_id": "2987013ced6eaad5bb6e61d7ef42b1ba", "fusion_lon": 0.0, "rental_uris": {"ios": "https://dc.lft.to/lastmile_qr_scan", "android": "https://dc.lft.to/lastmile_qr_scan"}, "is_reserved": 0, "fusion_lat": 0.0, "lon": -77.0203475}, {"lat": 38.92674866666667, "type": "electric_scooter", "is_disabled": 0, "name": "4329f116ae056c140ddaa69221ab3582", "bike_id": "4329f116ae056c140ddaa69221ab3582", "fusion_lon": 0.0, "rental_uris": {"ios": "https://dc.lft.to/lastmile_qr_scan", "android": "https://dc.lft.to/lastmile_qr_scan"}, "is_reserved": 0, "fusion_lat": 0.0, "lon": -77.05441883333333}, {"lat": 38.92341116666667, "type": "electric_scooter", "is_disabled": 0, "name": "eff77f7bed62f29a0186b61bdf172351", "bike_id": "eff77f7bed62f29a0186b61bdf172351", "fusion_lon": 0.0, "rental_uris": {"ios": "https://dc.lft.to/lastmile_qr_scan", "android": "https://dc.lft.to/lastmile_qr_scan"}, "is_reserved": 0, "fusion_lat": 0.0, "lon": -77.0215075}, {"lat": 38.9164875, "type": "electric_scooter", "is_disabled": 0, "name": "2ab17b82958005239df0d8057a30cbb0", "bike_id": "2ab17b82958005239df0d8057a30cbb0", "fusion_lon": 0.0, "rental_uris": {"ios": "https://dc.lft.to/lastmile_qr_scan", "android": "https://dc.lft.to/lastmile_qr_scan"}, "is_reserved": 0, "fusion_lat": 0.0, "lon": -77.03215683333333}, {"lat": 38.91644083333333, "type": "electric_scooter", "is_disabled": 0, "name": "7eee7c246332b038740588d1b10b62f7", "bike_id": "7eee7c246332b038740588d1b10b62f7", "fusion_lon": 0.0, "rental_uris": {"ios": "https://dc.lft.to/lastmile_qr_scan", "android": "https://dc.lft.to/lastmile_qr_scan"}, "is_reserved": 0, "fusion_lat": 0.0, "lon": -77.06947316666667}, {"lat": 38.9078935, "type": "electric_scooter", "is_disabled": 0, "name": "c9f7e2764429c5f001227809c2d74eca", "bike_id": "c9f7e2764429c5f001227809c2d74eca", "fusion_lon": 0.0, "rental_uris": {"ios": "https://dc.lft.to/lastmile_qr_scan", "android": "https://dc.lft.to/lastmile_qr_scan"}, "is_reserved": 0, "fusion_lat": 0.0, "lon": -77.03201683333333}, {"lat": 38.91121916666667, "type": "electric_scooter", "is_disabled": 0, "name": "fdc9b4ce65e000cc453d15a243d8b6b1", "bike_id": "fdc9b4ce65e000cc453d15a243d8b6b1", "fusion_lon": 0.0, "rental_uris": {"ios": "https://dc.lft.to/lastmile_qr_scan", "android": "https://dc.lft.to/lastmile_qr_scan"}, "is_reserved": 0, "fusion_lat": 0.0, "lon": -77.04415483333334}, {"lat": 38.93703433333334, "type": "electric_scooter", "is_disabled": 0, "name": "cb03f427d5322bf0e063fb38e3e47c26", "bike_id": "cb03f427d5322bf0e063fb38e3e47c26", "fusion_lon": 0.0, "rental_uris": {"ios": "https://dc.lft.to/lastmile_qr_scan", "android": "https://dc.lft.to/lastmile_qr_scan"}, "is_reserved": 0, "fusion_lat": 0.0, "lon": -77.03284533333333},