{"data": {"bikes": [{"fusion_lon": 0.0, "rental_uris": {"ios": "https://dc.lft.to/lastmile_qr_scan", "android": "https://dc.lft.to/lastmile_qr_scan"}, "type": "electric_scooter", "is_reserved": 0, "is_disabled": 0, "bike_id": "57f5225234b108a59bd0cfad07c98272", "lat": 38.9203755, "lon": -77.02585283333333, "fusion_lat": 0.0, "name": "57f5225234b108a59bd0cfad07c98272"}, {"fusion_lon": 0.0, "rental_uris": {"ios": "https://dc.lft.to/lastmile_qr_scan", "android": "https://dc.lft.to/lastmile_qr_scan"}, "type": "electric_bike", "is_reserved": 0, "is_disabled": 0, "bike_id": "011ba409aaf16e078d2ffb2ef14ab175", "lat": 38.90566883333334, "lon": -77.018534, "fusion_lat": 0.0, "name": "011ba409aaf16e078d2ffb2ef14ab175"}, {"fusion_lon": 0.0, "rental_uris": {"ios": "https://dc.lft.to/lastmile_qr_scan", "android": "https://dc.lft.to/lastmile_qr_scan"}, "type": "electric_scooter", "is_reserved": 0, "is_disabled": 0, "bike_id": "471a48eaf255e5adad1a7f03fdbde0a9", "lat": 38.919464166666664, "lon": -77.018024, "fusion_lat": 0.0, "name": "471a48eaf255e5adad1a7f03fdbde0a9"}, {"fusion_lon": 0.0, "rental_uris": {"ios": "https://dc.lft.to/lastmile_qr_scan", "android": "https://dc.lft.to/lastmile_qr_scan"}, "type": "electric_scooter", "is_reserved": 0, "is_disabled": 0, "bike_id": "512656a29c5c758819639ce5cb8636ce", "lat": 38.9246975, "lon": -77.05240466666666, "fusion_lat": 0.0, "name": "512656a29c5c758819639ce5cb8636ce"}, {"fusion_lon": 0.0, "rental_uris": {"ios": "https://dc.lft.to/lastmile_qr_scan", "android": "https://dc.lft.to/lastmile_qr_scan"}, "type": "electric_scooter", "is_reserved": 0, "is_disabled": 0, "bike_id": "56379e2e69082b037e4c98b7a6040005", "lat": 38.8788615, "lon": -77.00053066666666, "fusion_lat": 0.0, "name": "56379e2e69082b037e4c98b7a6040005"}, {"fusion_lon": 0.0, "rental_uris": {"ios": "https://dc.lft.to/lastmile_qr_scan", "android": "https://dc.lft.to/lastmile_qr_scan"}, "type": "electric_scooter", "is_reserved": 0, "is_disabled": 0, "bike_id": "652207a9c90260a3eb011ad9ade1f373", "lat": 38.93133733333333, "lon": -77.0572755, "fusion_lat": 0.0, "name": "652207a9c90260a3eb011ad9ade1f373"}, {"fusion_lon": 0.0, "rental_uris": {"ios": "https://dc.lft.to/lastmile_qr_scan", "android": "https://dc.lft.to/lastmile_qr_scan"}, "type": "electric_scooter", "is_reserved": 0, "is_disabled": 0, "bike_id": "d33f1b300b68814592f0245760d66920", "lat": 38.89481033333333, "lon": -76.979124, "fusion_lat": 0.0, "name": "d33f1b300b68814592f0245760d66920"}, {"fusion_lon": 0.0, "rental_uris": {"ios": "https://dc.lft.to/lastmile_qr_scan", "android": "https://dc.lft.to/lastmile_qr_scan"}, "type": "electric_scooter", "is_reserved": 0, "is_disabled": 0, "bike_id": "02bd1f2e776825aae3b93267c07211e9", "lat": 38.9133505, "lon": -77.04814533333334, "fusion_lat": 0.0, "name": "02bd1f2e776825aae3b93267c07211e9"}, {"fusion_lon": 0.0, "rental_uris": {"ios": "https://dc.lft.to/lastmile_qr_scan", "android": "https://dc.lft.to/lastmile_qr_scan"}, "type": "electric_scooter", "is_reserved": 0, "is_disabled": 0, "bike_id": "80f47897dc6226dcd546780579d05df2", "lat": 38.921420499999996, "lon": -77.01792683333333, "fusion_lat": 0.0, "name": "80f47897dc6226dcd546780579d05df2"}, {"fusion_lon": 0.0, "rental_uris": {"ios": "https://dc.lft.to/lastmile_qr_scan", "android": "https://dc.lft.to/lastmile_qr_scan"}, "type": "electric_scooter", "is_reserved": 0, "is_disabled": 0, "bike_id": "8e4c6640f9af6019dca0bf2da5097f53", "lat": 38.895476, "lon": -77.0091495, "fusion_lat": 0.0, "name": "8e4c6640f9af6019dca0bf2da5097f53"}, {"fusion_lon": 0.0, "rental_uris": {"ios": "https://dc.lft.to/lastmile_qr_scan", "android": "https://dc.lft.to/lastmile_qr_scan"}, "type": "electric_scooter", "is_reserved": 0, "is_disabled": 0, "bike_id": "6b72cda98a0017de362a3059c0cfe360", "lat": 38.87797783333333, "lon": -77.00127816666667, "fusion_lat": 0.0, "name": "6b72cda98a0017de362a3059c0cfe360"}, {"fusion_lon": 0.0, "rental_uris": {"ios": "https://dc.lft.to/lastmile_qr_scan", "android": "https://dc.lft.to/lastmile_qr_scan"}, "type": "electric_scooter", "is_reserved": 0, "is_disabled": 0, "bike_id": "088f038dea102049cd769f40e30c7d20", "lat": 38.91418566666667, "lon": -77.021798, "fusion_lat": 0.0, "name": "088f038dea102049cd769f40e30c7d20"}, {"fusion_lon": 0.0, "rental_uris": {"ios": "https://dc.lft.to/lastmile_qr_scan", "android": "https://dc.lft.to/lastmile_qr_scan"}, "type": "electric_scooter", "is_reserved": 0, "is_disabled": 0, "bike_id": "1e1deed8aee5c3800ba2736b0b9f401e", "lat": 38.90849433333333, "lon": -77.04021516666667, "fusion_lat": 0.0, "name": "1e1deed8aee5c3800ba2736b0b9f401e"}, {"fusion_lon": 0.0, "rental_uris": {"ios": "https://dc.lft.to/lastmile_qr_scan", "android": "https://dc.lft.to/lastmile_qr_scan"}, "type": "electric_scooter", "is_reserved": 0, "is_disabled": 0, "bike_id": "9b040d3be9592a14177b411c1f221423", "lat": 38.89456166666667, "lon": -77.02427583333333, "fusion_lat": 0.0, "name": "9b040d3be9592a14177b411c1f221423"}, {"fusion_lon": 0.0, "rental_uris": {"ios": "https://dc.lft.to/lastmile_qr_scan", "android": "https://dc.lft.to/lastmile_qr_scan"}, "type": "electric_scooter", "is_reserved": 0, "is_disabled": 0, "bike_id": "d7b4d21b0f9b0ef2c6fa07530dddf8d5", "lat": 38.897331666666666, "lon": -76.925839, "fusion_lat": 0.0, "name": "d7b4d21b0f9b0ef2c6fa07530dddf8d5"}, {"fusion_lon": 0.0, "rental_uris": {"ios": "https://dc.lft.to/lastmile_qr_scan", "android": "https://dc.lft.to/lastmile_qr_scan"}, "type": "electric_scooter", "is_reserved": 0, "is_disabled": 0, "bike_id": "9c57623f30e90a0ff5d69b7186106d1e", "lat": 38.92492416666666, "lon": -77.021373, "fusion_lat": 0.0, "name": "9c57623f30e90a0ff5d69b7186106d1e"}, {"fusion_lon": 0.0, "rental_uris": {"ios": "https://dc.lft.to/lastmile_qr_scan", "android": "https://dc.lft.to/lastmile_qr_scan"}, "type": "electric_scooter", "is_reserved": 0, "is_disabled": 0, "bike_id": "cde76267bacd8d82283b9da234411ee0", "lat": 38.85524216666666, "lon": -76.98648616666667, "fusion_lat": 0.0, "name": "cde76267bacd8d82283b9da234411ee0"}, {"fusion_lon": 0.0, "rental_uris": {"ios": "https://dc.lft.to/lastmile_qr_scan", "android": "https://dc.lft.to/lastmile_qr_scan"}, "type": "electric_scooter", "is_reserved": 0, "is_disabled": 0, "bike_id": "04e6e7b32e3bba6ee9c1f1aa8d1349b4", "lat": 38.92615683333333, "lon": -77.0216255, "fusion_lat": 0.0, "name": "04e6e7b32e3bba6ee9c1f1aa8d1349b4"}, {"fusion_lon": 0.0, "rental_uris": {"ios": "https://dc.lft.to/lastmile_qr_scan", "android": "https://dc.lft.to/lastmile_qr_scan"}, "type": "electric_scooter", "is_reserved": 0, "is_disabled": 0, "bike_id": "65627ff965db054929fb0132aa61d78d", "lat": 38.89841, "lon": -77.04371416666666, "fusion_lat": 0.0, "name": "65627ff965db054929fb0132aa61d78d"}, {"fusion_lon": 0.0, "rental_uris": {"ios": "https://dc.lft.to/lastmile_qr_scan", "android": "https://dc.lft.to/lastmile_qr_scan"}, "type": "electric_scooter", "is_reserved": 0, "is_disabled": 0, "bike_id": "6d5fae03926d37ab1844b4597210775a", "lat": 38.88605066666667, "lon": -76.925057, "fusion_lat": 0.0, "name": "6d5fae03926d37ab1844b4597210775a"}, {"fusion_lon": 0.0, "rental_uris": {"ios": "https://dc.lft.to/lastmile_qr_scan", "android": "https://dc.lft.to/lastmile_qr_scan"}, "type": "electric_scooter", "is_reserved": 0, "is_disabled": 0, "bike_id": "9caf80c447eb6e8b66f2c155779a9b44", "lat": 38.912565, "lon": -77.03862183333334, "fusion_lat": 0.0, "name": "9caf80c447eb6e8b66f2c155779a9b44"}, {"fusion_lon": 0.0, "rental_uris": {"ios": "https://dc.lft.to/lastmile_qr_scan", "android": "https://dc.lft.to/lastmile_qr_scan"}, "type": "electric_scooter", "is_reserved": 0, "is_disabled": 0, "bike_id": "6dfb27c12bd8dd9dd9e40fc146c37d10", "lat": 38.887289333333335, "lon": -76.98376216666666, "fusion_lat": 0.0, "name": "6dfb27c12bd8dd9dd9e40fc146c37d10"}, {"fusion_lon": 0.0, "rental_uris": {"ios": "https://dc.lft.to/lastmile_qr_scan", "android": "https://dc.lft.to/lastmile_qr_scan"}, "type": "electric_scooter", "is_reserved": 0, "is_disabled": 0, "bike_id": "150dc98aab36329d36b0cbe1f67ebc79", "lat": 38.872870666666664, "lon": -77.01702533333334, "fusion_lat": 0.0, "name": "150dc98aab36329d36b0cbe1f67ebc79"}, {"fusion_lon": 0.0, "rental_uris": {"ios": "https://dc.lft.to/lastmile_qr_scan", "android": "https://dc.lft.to/lastmile_qr_scan"}, "type": "electric_scooter", "is_reserved": 0, "is_disabled": 0, "bike_id": "6058af414dad4961ccf81d0e611916d5", "lat": 38.9208005, "lon": -77.03654166666666, "fusion_lat": 0.0, "name": "6058af414dad4961ccf81d0e611916d5"}, {"fusion_lon": 0.0, "rental_uris": {"ios": "https://dc.lft.to/lastmile_qr_scan", "android": "https://dc.lft.to/lastmile_qr_scan"}, "type": "electric_scooter", "is_reserved": 0, "is_disabled": 0, "bike_id": "d93836e0f02a55e2616ddf1e10fafb39", "lat": 38.87680316666667, "lon": -77.00075033333333, "fusion_lat": 0.0, "name": "d93836e0f02a55e2616ddf1e10fafb39"}, {"fusion_lon": 0.0, "rental_uris": {"ios": "https://dc.lft.to/lastmile_qr_scan", "android": "https://dc.lft.to/lastmile_qr_scan"}, "type": "electric_scooter", "is_reserved": 0, "is_disabled": 0, "bike_id": "b6d111417254153dd904a3a803b5ac2a", "lat": 38.95619283333333, "lon": -77.02762033333333, "fusion_lat": 0.0, "name": "b6d111417254153dd904a3a803b5ac2a"}, {"fusion_lon": 0.0, "rental_uris": {"ios": "https://dc.lft.to/lastmile_qr_scan", "android": "https://dc.lft.to/lastmile_qr_scan"}, "type": "electric_scooter", "is_reserved": 0, "is_disabled": 0, "bike_id": "9dabfde029147a0c5704f52f33ba0a0e", "lat": 38.883980333333334, "lon": -76.99506266666667, "fusion_lat": 0.0, "name": "9dabfde029147a0c5704f52f33ba0a0e"}, {"fusion_lon": 0.0, "rental_uris": {"ios": "https://dc.lft.to/lastmile_qr_scan", "android": "https://dc.lft.to/lastmile_qr_scan"}, "type": "electric_scooter", "is_reserved": 0, "is_disabled": 0, "bike_id": "4749e993d47ea1d0ad9567c74f0b8c53", "lat": 38.88082333333333, "lon": -76.995052, "fusion_lat": 0.0, "name": "4749e993d47ea1d0ad9567c74f0b8c53"}, {"fusion_lon": 0.0, "rental_uris": {"ios": "https://dc.lft.to/lastmile_qr_scan", "android": "https://dc.lft.to/lastmile_qr_scan"}, "type": "electric_scooter", "is_reserved": 0, "is_disabled": 0, "bike_id": "a48447a6ee8e57acec070816fdeac72d", "lat": 38.9132765, "lon": -77.03178666666666, "fusion_lat": 0.0, "name": "a48447a6ee8e57acec070816fdeac72d"}, {"fusion_lon": 0.0, "rental_uris": {"ios": "https://dc.lft.to/lastmile_qr_scan", "android": "https://dc.lft.to/lastmile_qr_scan"}, "type": "electric_scooter", "is_reserved": 0, "is_disabled": 0, "bike_id": "86faaa4abfb4ded8bb6381010639d2f7", "lat": 38.89824683333333, "lon": -77.03155866666667, "fusion_lat": 0.0, "name": "86faaa4abfb4ded8bb6381010639d2f7"}, {"fusion_lon": 0.0, "rental_uris": {"ios": "https://dc.lft.to/lastmile_qr_scan", "android": "https://dc.lft.to/lastmile_qr_scan"}, "type": "electric_scooter", "is_reserved": 0, "is_disabled": 0, "bike_id": "890b3591da552a4e9b1c8653c14a1b84", "lat": 38.887162833333335, "lon": -77.02188, "fusion_lat": 0.0, "name": "890b3591da552a4e9b1c8653c14a1b84"}, {"fusion_lon": 0.0, "rental_uris": {"ios": "https://dc.lft.to/lastmile_qr_scan", "android": "https://dc.lft.to/lastmile_qr_scan"}, "type": "electric_bike", "is_reserved": 0, "is_disabled": 0, "bike_id": "534c300911dbb5fd4e23d289ba1d286a", "lat": 38.90040116666667, "lon": -76.97222283333333, "fusion_lat": 0.0, "name": "534c300911dbb5fd4e23d289ba1d286a"}, {"fusion_lon": 0.0, "rental_uris": {"ios": "https://dc.lft.to/lastmile_qr_scan", "android": "https://dc.lft.to/lastmile_qr_scan"}, "type": "electric_scooter", "is_reserved": 0, "is_disabled": 0, "bike_id": "c685720d5f186e53f56d0693bc78ee7b", "lat": 38.885182666666665, "lon": -76.92444833333333, "fusion_lat": 0.0, "name": "c685720d5f186e53f56d0693bc78ee7b"}, {"fusion_lon": 0.0, "rental_uris": {"ios": "https://dc.lft.to/lastmile_qr_scan", "android": "https://dc.lft.to/lastmile_qr_scan"}, "type": "electric_scooter", "is_reserved": 0, "is_disabled": 0, "bike_id": "9f922c7c619e07c7b53da364d285d3d3", "lat": 38.897216666666665, "lon": -77.01278266666667, "fusion_lat": 0.0, "name": "9f922c7c619e07c7b53da364d285d3d3"}, {"fusion_lon": 0.0, "rental_uris": {"ios": "https://dc.lft.to/lastmile_qr_scan", "android": "https://dc.lft.to/lastmile_qr_scan"}, "type": "electric_scooter", "is_reserved": 0, "is_disabled": 0, "bike_id": "ed2b024d1344a72a968b92fa401adcc1", "lat": 38.915737, "lon": -77.01197, "fusion_lat": 0.0, "name": "ed2b024d1344a72a968b92fa401adcc1"}, {"fusion_lon": 0.0, "rental_uris": {"ios": "https://dc.lft.to/lastmile_qr_scan", "android": "https://dc.lft.to/lastmile_qr_scan"}, "type": "electric_bike", "is_reserved": 0, "is_disabled": 0, "bike_id": "1a9c9ca305841fd89760df516e3573eb", "lat": 38.89623433333333, "lon": -76.9074665, "fusion_lat": 0.0, "name": "1a9c9ca305841fd89760df516e3573eb"}, {"fusion_lon": 0.0, "rental_uris": {"ios": "https://dc.lft.to/lastmile_qr_scan", "android": "https://dc.lft.to/lastmile_qr_scan"}, "type": "electric_scooter", "is_reserved": 0, "is_disabled": 0, "bike_id": "c55719f043c154f28a32c3f89c56d2f1", "lat": 38.92233516666667, "lon": -77.02333183333333, "fusion_lat": 0.0, "name": "c55719f043c154f28a32c3f89c56d2f1"}, {"fusion_lon": 0.0, "rental_uris": {"ios": "https://dc.lft.to/lastmile_qr_scan", "android": "https://dc.lft.to/lastmile_qr_scan"}, "type": "electric_scooter", "is_reserved": 0, "is_disabled": 0, "bike_id": "4a03d7d9130a1f70a364d04793d1cd08", "lat": 38.9267555, "lon": -77.07831366666667, "fusion_lat": 0.0, "name": "4a03d7d9130a1f70a364d04793d1cd08"}, {"fusion_lon": 0.0, "rental_uris": {"ios": "https://dc.lft.to/lastmile_qr_scan", "android": "https://dc.lft.to/lastmile_qr_scan"}, "type": "electric_scooter", "is_reserved": 0, "is_disabled": 0, "bike_id": "c57f9cab4feb24d849028d824999eb12", "lat": 38.91575266666667, "lon": -77.0318335, "fusion_lat": 0.0, "name": "c57f9cab4feb24d849028d824999eb12"}, {"fusion_lon": 0.0, "rental_uris": {"ios": "https://dc.lft.to/lastmile_qr_scan", "android": "https://dc.lft.to/lastmile_qr_scan"}, "type": "electric_scooter", "is_reserved": 0, "is_disabled": 0, "bike_id": "9779bc8294b1e485f42f34965d27feb7", "lat": 38.931188, "lon": -77.056131, "fusion_lat": 0.0, "name": "9779bc8294b1e485f42f34965d27feb7"}, {"fusion_lon": 0.0, "rental_uris": {"ios": "https://dc.lft.to/lastmile_qr_scan", "android": "https://dc.lft.to/lastmile_qr_scan"}, "type": "electric_scooter", "is_reserved": 0, "is_disabled": 0, "bike_id": "0d51f6cc53b62e952397b9cb11a83971", "lat": 38.89911766666667, "lon": -77.04202416666666, "fusion_lat": 0.0, "name": "0d51f6cc53b62e952397b9cb11a83971"}, {"fusion_lon": 0.0, "rental_uris": {"ios": "https://dc.lft.to/lastmile_qr_scan", "android": "https://dc.lft.to/lastmile_qr_scan"}, "type": "electric_scooter", "is_reserved": 0, "is_disabled": 0, "bike_id": "908aafb2073b9dd45a089e869bcd3866", "lat": 38.932915666666666, "lon": -77.03982666666667, "fusion_lat": 0.0, "name": "908aafb2073b9dd45a089e869bcd3866"}, {"fusion_lon": 0.0, "rental_uris": {"ios": "https://dc.lft.to/lastmile_qr_scan", "android": "https://dc.lft.to/lastmile_qr_scan"}, "type": "electric_scooter", "is_reserved": 0, "is_disabled": 0, "bike_id": "27181fd66995183803b68dea3ea07393", "lat": 38.904245833333334, "lon": -77.05340383333333, "fusion_lat": 0.0, "name": "27181fd66995183803b68dea3ea07393"}, {"fusion_lon": 0.0, "rental_uris": {"ios": "https://dc.lft.to/lastmile_qr_scan", "android": "https://dc.lft.to/lastmile_qr_scan"}, "type": "electric_scooter", "is_reserved": 0, "is_disabled": 0, "bike_id": "ecc4dc440386d022b19adfd3e23b8eff", "lat": 38.92468016666667, "lon": -77.02202533333333, "fusion_lat": 0.0, "name": "ecc4dc440386d022b19adfd3e23b8eff"}, {"fusion_lon": 0.0, "rental_uris": {"ios": "https://dc.lft.to/lastmile_qr_scan", "android": "https://dc.lft.to/lastmile_qr_scan"}, "type": "electric_scooter", "is_reserved": 0, "is_disabled": 0, "bike_id": "4111cfc1df8238adfccd838c4d111b82", "lat": 38.92549016666667, "lon": -77.02281016666667, "fusion_lat": 0.0, "name": "4111cfc1df8238adfccd838c4d111b82"}, {"fusion_lon": 0.0, "rental_uris": {"ios": "https://dc.lft.to/lastmile_qr_scan", "android": "https://dc.lft.to/lastmile_qr_scan"}, "type": "electric_scooter", "is_reserved": 0, "is_disabled": 0, "bike_id": "8afbd30d0e02c500b3716bdd21e443e4", "lat": 38.91647583333334, "lon": -77.02256533333333, "fusion_lat": 0.0, "name": "8afbd30d0e02c500b3716bdd21e443e4"}, {"fusion_lon": 0.0, "rental_uris": {"ios": "https://dc.lft.to/lastmile_qr_scan", "android": "https://dc.lft.to/lastmile_qr_scan"}, "type": "electric_scooter", "is_reserved": 0, "is_disabled": 0, "bike_id": "46adaa8aa63cc5927d61d49e851e5c40", "lat": 38.9210995, "lon": -77.0401295, "fusion_lat": 0.0, "name": "46adaa8aa63cc5927d61d49e851e5c40"}, {"fusion_lon": 0.0, "rental_uris": {"ios": "https://dc.lft.to/lastmile_qr_scan", "android": "https://dc.lft.to/lastmile_qr_scan"}, "type": "electric_scooter", "is_reserved": 0, "is_disabled": 0, "bike_id": "d0b1949c13619ee87b3b698a2f0f1683", "lat": 38.926134166666664, "lon": -77.02159083333333, "fusion_lat": 0.0, "name": "d0b1949c13619ee87b3b698a2f0f1683"}, {"fusion_lon": 0.0, "rental_uris": {"ios": "https://dc.lft.to/lastmile_qr_scan", "android": "https://dc.lft.to/lastmile_qr_scan"}, "type": "electric_scooter", "is_reserved": 0, "is_disabled": 0, "bike_id": "b59cf29299c69bc60229dc1bc113a692", "lat": 38.929008, "lon": -77.01656166666666, "fusion_lat": 0.0, "name": "b59cf29299c69bc60229dc1bc113a692"}, {"fusion_lon": 0.0, "rental_uris": {"ios": "https://dc.lft.to/lastmile_qr_scan", "android": "https://dc.lft.to/lastmile_qr_scan"}, "type": "electric_scooter", "is_reserved": 0, "is_disabled": 0, "bike_id": "8f86fa09f8637c712110ac9075307720", "lat": 38.884296666666664, "lon": -76.99597283333334, "fusion_lat": 0.0, "name": "8f86fa09f8637c712110ac9075307720"}, {"fusion_lon": 0.0, "rental_uris": {"ios": "https://dc.lft.to/lastmile_qr_scan", "android": "https://dc.lft.to/lastmile_qr_scan"}, "type": "electric_scooter", "is_reserved": 0, "is_disabled": 0, "bike_id": "c4d9feeb87f8adea695b7efc374619a1", "lat": 38.90042533333333, "lon": -77.03424466666667, "fusion_lat": 0.0, "name": "c4d9feeb87f8adea695b7efc374619a1"}, {"fusion_lon": 0.0, "rental_uris": {"ios": "https://dc.lft.to/lastmile_qr_scan", "android": "https://dc.lft.to/lastmile_qr_scan"}, "type": "electric_scooter", "is_reserved": 0, "is_disabled": 0, "bike_id": "33c86be3d2d1b03a854999c758cc037c", "lat": 38.9170805, "lon": -77.02301016666667, "fusion_lat": 0.0, "name": "33c86be3d2d1b03a854999c758cc037c"}, {"fusion_lon": 0.0, "rental_uris": {"ios": "https://dc.lft.to/lastmile_qr_scan", "android": "https://dc.lft.to/lastmile_qr_scan"}, "type": "electric_bike", "is_reserved": 0, "is_disabled": 0, "bike_id": "c1e02f2ce8f4ec6bf9a9c1641725973d", "lat": 38.9002925, "lon": -77.02981566666666, "fusion_lat": 0.0, "name": "c1e02f2ce8f4ec6bf9a9c1641725973d"}, {"fusion_lon": 0.0, "rental_uris": {"ios": "https://dc.lft.to/lastmile_qr_scan", "android": "https://dc.lft.to/lastmile_qr_scan"}, "type": "electric_scooter", "is_reserved": 0, "is_disabled": 0, "bike_id": "ea058612d3b09a04003c14da7c9d7f53", "lat": 38.919085833333334, "lon": -77.021298, "fusion_lat": 0.0, "name": "ea058612d3b09a04003c14da7c9d7f53"}, {"fusion_lon": 0.0, "rental_uris": {"ios": "https://dc.lft.to/lastmile_qr_scan", "android": "https://dc.lft.to/lastmile_qr_scan"}, "type": "electric_scooter", "is_reserved": 0, "is_disabled": 0, "bike_id": "c295fc422ac513a01ca95870a74ddb52", "lat": 38.918132166666666, "lon": -77.02764466666666, "fusion_lat": 0.0, "name": "c295fc422ac513a01ca95870a74ddb52"}, {"fusion_lon": 0.0, "rental_uris": {"ios": "https://dc.lft.to/lastmile_qr_scan", "android": "https://dc.lft.to/lastmile_qr_scan"}, "type": "electric_scooter", "is_reserved": 0, "is_disabled": 0, "bike_id": "7e1e721fb4c7fcafbb16ee5792420d29", "lat": 38.9047645, "lon": -77.03448883333333, "fusion_lat": 0.0, "name": "7e1e721fb4c7fcafbb16ee5792420d29"}, {"fusion_lon": 0.0, "rental_uris": {"ios": "https://dc.lft.to/lastmile_qr_scan", "android": "https://dc.lft.to/lastmile_qr_scan"}, "type": "electric_bike", "is_reserved": 0, "is_disabled": 0, "bike_id": "6ecbd5811067947eb744a7b779ec7922", "lat": 38.85067733333333, "lon": -76.95828066666667, "fusion_lat": 0.0, "name": "6ecbd5811067947eb744a7b779ec7922"}, {"fusion_lon": 0.0, "rental_uris": {"ios": "https://dc.lft.to/lastmile_qr_scan", "android": "https://dc.lft.to/lastmile_qr_scan"}, "type": "electric_scooter", "is_reserved": 0, "is_disabled": 0, "bike_id": "c01d30acf7b6d479816e4d92c94965c2", "lat": 38.918206166666664, "lon": -77.02981383333334, "fusion_lat": 0.0, "name": "c01d30acf7b6d479816e4d92c94965c2"}, {"fusion_lon": 0.0, "rental_uris": {"ios": "https://dc.lft.to/lastmile_qr_scan", "android": "https://dc.lft.to/lastmile_qr_scan"}, "type": "electric_scooter", "is_reserved": 0, "is_disabled": 0, "bike_id": "bc452b4410a1623817ecde4252668343", "lat": 38.926561166666666, "lon": -77.037074, "fusion_lat": 0.0, "name": "bc452b4410a1623817ecde4252668343"}, {"fusion_lon": 0.0, "rental_uris": {"ios": "https://dc.lft.to/lastmile_qr_scan", "android": "https://dc.lft.to/lastmile_qr_scan"}, "type": "electric_scooter", "is_reserved": 0, "is_disabled": 0, "bike_id": "fba490d39eb5a88228dedb03e3659177", "lat": 38.899475, "lon": -77.04497033333334, "fusion_lat": 0.0, "name": "fba490d39eb5a88228dedb03e3659177"}, {"fusion_lon": 0.0, "rental_uris": {"ios": "https://dc.lft.to/lastmile_qr_scan", "android": "https://dc.lft.to/lastmile_qr_scan"}, "type": "electric_bike", "is_reserved": 0, "is_disabled": 0, "bike_id": "e9847c810d527130939d709a65fe5604", "lat": 38.896249, "lon": -76.90750783333333, "fusion_lat": 0.0, "name": "e9847c810d527130939d709a65fe5604"}, {"fusion_lon": 0.0, "rental_uris": {"ios": "https://dc.lft.to/lastmile_qr_scan", "android": "https://dc.lft.to/lastmile_qr_scan"}, "type": "electric_scooter", "is_reserved": 0, "is_disabled": 0, "bike_id": "1a56a070280c2d1f4f19f4adf68e5db7", "lat": 38.89762, "lon": -77.0269595, "fusion_lat": 0.0, "name": "1a56a070280c2d1f4f19f4adf68e5db7"}, {"fusion_lon": 0.0, "rental_uris": {"ios": "https://dc.lft.to/lastmile_qr_scan", "android": "https://dc.lft.to/lastmile_qr_scan"}, "type": "electric_scooter", "is_reserved": 0, "is_disabled": 0, "bike_id": "0ecb274777bd96048dfbb8df5cabbf4f", "lat": 38.9087215, "lon": -77.00924833333333, "fusion_lat": 0.0, "name": "0ecb274777bd96048dfbb8df5cabbf4f"}, {"fusion_lon": 0.0, "rental_uris": {"ios": "https://dc.lft.to/lastmile_qr_scan", "android": "https://dc.lft.to/lastmile_qr_scan"}, "type": "electric_scooter", "is_reserved": 0, "is_disabled": 0, "bike_id": "b87cbf405c96f56f9ed41a14710a0ae2", "lat": 38.90169866666667, "lon": -77.053219, "fusion_lat": 0.0, "name": "b87cbf405c96f56f9ed41a14710a0ae2"}, {"fusion_lon": 0.0, "rental_uris": {"ios": "https://dc.lft.to/lastmile_qr_scan", "android": "https://dc.lft.to/lastmile_qr_scan"}, "type": "electric_scooter", "is_reserved": 0, "is_disabled": 0, "bike_id": "35f222bc73fd0318756ecf7c142ab7fe", "lat": 38.954202333333335, "lon": -77.02757333333334, "fusion_lat": 0.0, "name": "35f222bc73fd0318756ecf7c142ab7fe"}, {"fusion_lon": 0.0, "rental_uris": {"ios": "https://dc.lft.to/lastmile_qr_scan", "android": "https://dc.lft.to/lastmile_qr_scan"}, "type": "electric_scooter", "is_reserved": 0, "is_disabled": 0, "bike_id": "eb4e899bc284170c8cb4ffb4f2e2ff25", "lat": 38.924104166666666, "lon": -77.02001083333333, "fusion_lat": 0.0, "name": "eb4e899bc284170c8cb4ffb4f2e2ff25"}, {"fusion_lon": 0.0, "rental_uris": {"ios": "https://dc.lft.to/lastmile_qr_scan", "android": "https://dc.lft.to/lastmile_qr_scan"}, "type": "electric_scooter", "is_reserved": 0, "is_disabled": 0, "bike_id": "6b2cf96a6112e382f1870d203ef3789e", "lat": 38.912034166666665, "lon": -77.0437785, "fusion_lat": 0.0, "name": "6b2cf96a6112e382f1870d203ef3789e"}, {"fusion_lon": 0.0, "rental_uris": {"ios": "https://dc.lft.to/lastmile_qr_scan", "android": "https://dc.lft.to/lastmile_qr_scan"}, "type": "electric_scooter", "is_reserved": 0, "is_disabled": 0, "bike_id": "e54830a6b0d6f0f31327557b53aaba48", "lat": 38.90551933333333, "lon": -77.00533583333333, "fusion_lat": 0.0, "name": "e54830a6b0d6f0f31327557b53aaba48"}, {"fusion_lon": 0.0, "rental_uris": {"ios": "https://dc.lft.to/lastmile_qr_scan", "android": "https://dc.lft.to/lastmile_qr_scan"}, "type": "electric_scooter", "is_reserved": 0, "is_disabled": 0, "bike_id": "72e242728b93b41324a3a2b2d1f628d8", "lat": 38.875475, "lon": -77.00535533333333, "fusion_lat": 0.0, "name": "72e242728b93b41324a3a2b2d1f628d8"}, {"fusion_lon": 0.0, "rental_uris": {"ios": "https://dc.lft.to/lastmile_qr_scan", "android": "https://dc.lft.to/lastmile_qr_scan"}, "type": "electric_scooter", "is_reserved": 0, "is_disabled": 0, "bike_id": "d5e777e442c5becb9b392df3055ad8fc", "lat": 38.90429266666666, "lon": -77.04361416666667, "fusion_lat": 0.0, "name": "d5e777e442c5becb9b392df3055ad8fc"}, {"fusion_lon": 0.0, "rental_uris": {"ios": "https://dc.lft.to/lastmile_qr_scan", "android": "https://dc.lft.to/lastmile_qr_scan"}, "type": "electric_scooter", "is_reserved": 0, "is_disabled": 0, "bike_id": "f675b888994288a4cc12815aa977f0d9", "lat": 38.908922833333335, "lon": -76.98238183333333, "fusion_lat": 0.0, "name": "f675b888994288a4cc12815aa977f0d9"}, {"fusion_lon": 0.0, "rental_uris": {"ios": "https://dc.lft.to/lastmile_qr_scan", "android": "https://dc.lft.to/lastmile_qr_scan"}, "type": "electric_scooter", "is_reserved": 0, "is_disabled": 0, "bike_id": "8e03e52cf8fd3c87956f3442ff8573fc", "lat": 38.9229375, "lon": -77.02245433333333, "fusion_lat": 0.0, "name": "8e03e52cf8fd3c87956f3442ff8573fc"}, {"fusion_lon": 0.0, "rental_uris": {"ios": "https://dc.lft.to/lastmile_qr_scan", "android": "https://dc.lft.to/lastmile_qr_scan"}, "type": "electric_scooter", "is_reserved": 0, "is_disabled": 0, "bike_id": "c6355ffeaebc8f84d73b17c0e17dcc00", "lat": 38.899019833333334, "lon": -77.031727, "fusion_lat": 0.0, "name": "c6355ffeaebc8f84d73b17c0e17dcc00"}, {"fusion_lon": 0.0, "rental_uris": {"ios": "https://dc.lft.to/lastmile_qr_scan", "android": "https://dc.lft.to/lastmile_qr_scan"}, "type": "electric_scooter", "is_reserved": 0, "is_disabled": 0, "bike_id": "e87b05ec1963d0f035286ec1f03d9e26", "lat": 38.913247, "lon": -77.03197933333334, "fusion_lat": 0.0, "name": "e87b05ec1963d0f035286ec1f03d9e26"}, {"fusion_lon": 0.0, "rental_uris": {"ios": "https://dc.lft.to/lastmile_qr_scan", "android": "https://dc.lft.to/lastmile_qr_scan"}, "type": "electric_scooter", "is_reserved": 0, "is_disabled": 0, "bike_id": "3f20c2b4fc3f848d47c1a380affb03c4", "lat": 38.880622, "lon": -76.9320925, "fusion_lat": 0.0, "name": "3f20c2b4fc3f848d47c1a380affb03c4"}, {"fusion_lon": 0.0, "rental_uris": {"ios": "https://dc.lft.to/lastmile_qr_scan", "android": "https://dc.lft.to/lastmile_qr_scan"}, "type": "electric_scooter", "is_reserved": 0, "is_disabled": 0, "bike_id": "ecb847e1bc97654ce62f53520b03b34b", "lat": 38.896099666666665, "lon": -77.02663233333334, "fusion_lat": 0.0, "name": "ecb847e1bc97654ce62f53520b03b34b"}, {"fusion_lon": 0.0, "rental_uris": {"ios": "https://dc.lft.to/lastmile_qr_scan", "android": "https://dc.lft.to/lastmile_qr_scan"}, "type": "electric_scooter", "is_reserved": 0, "is_disabled": 0, "bike_id": "39957cbe225594f65d8f5b0c23629562", "lat": 38.896758, "lon": -77.00516333333333, "fusion_lat": 0.0, "name": "39957cbe225594f65d8f5b0c23629562"}, {"fusion_lon": 0.0, "rental_uris": {"ios": "https://dc.lft.to/lastmile_qr_scan", "android": "https://dc.lft.to/lastmile_qr_scan"}, "type": "electric_scooter", "is_reserved": 0, "is_disabled": 0, "bike_id": "577f4aa0245160c2d035dd660242d232", "lat": 38.927156, "lon": -77.06003766666667, "fusion_lat": 0.0, "name": "577f4aa0245160c2d035dd660242d232"}, {"fusion_lon": 0.0, "rental_uris": {"ios": "https://dc.lft.to/lastmile_qr_scan", "android": "https://dc.lft.to/lastmile_qr_scan"}, "type": "electric_scooter", "is_reserved": 0, "is_disabled": 0, "bike_id": "3c10e68a4c05780996684146e1b5b27d", "lat": 38.89982216666667, "lon": -77.0393725, "fusion_lat": 0.0, "name": "3c10e68a4c05780996684146e1b5b27d"}, {"fusion_lon": 0.0, "rental_uris": {"ios": "https://dc.lft.to/lastmile_qr_scan", "android": "https://dc.lft.to/lastmile_qr_scan"}, "type": "electric_scooter", "is_reserved": 0, "is_disabled": 0, "bike_id": "5c4f987d3de7c6b68d315f17578c4829", "lat": 38.92145033333333, "lon": -77.024116, "fusion_lat": 0.0, "name": "5c4f987d3de7c6b68d315f17578c4829"}, {"fusion_lon": 0.0, "rental_uris": {"ios": "https://dc.lft.to/lastmile_qr_scan", "android": "https://dc.lft.to/lastmile_qr_scan"}, "type": "electric_scooter", "is_reserved": 0, "is_disabled": 0, "bike_id": "9ee70b0b445aac932b038d9afa000f21", "lat": 38.875407, "lon": -77.00061966666667, "fusion_lat": 0.0, "name": "9ee70b0b445aac932b038d9afa000f21"}, {"fusion_lon": 0.0, "rental_uris": {"ios": "https://dc.lft.to/lastmile_qr_scan", "android": "https://dc.lft.to/lastmile_qr_scan"}, "type": "electric_scooter", "is_reserved": 0, "is_disabled": 0, "bike_id": "5b80802f1ae53278e0f08a1611d397b7", "lat": 38.9039305, "lon": -77.05368366666667, "fusion_lat": 0.0, "name": "5b80802f1ae53278e0f08a1611d397b7"}, {"fusion_lon": 0.0, "rental_uris": {"ios": "https://dc.lft.to/lastmile_qr_scan", "android": "https://dc.lft.to/lastmile_qr_scan"}, "type": "electric_scooter", "is_reserved": 0, "is_disabled": 0, "bike_id": "14b368cc5a3b173c91025c9f10523faa", "lat": 38.922578666666666, "lon": -77.01952266666666, "fusion_lat": 0.0, "name": "14b368cc5a3b173c91025c9f10523faa"}, {"fusion_lon": 0.0, "rental_uris": {"ios": "https://dc.lft.to/lastmile_qr_scan", "android": "https://dc.lft.to/lastmile_qr_scan"}, "type": "electric_scooter", "is_reserved": 0, "is_disabled": 0, "bike_id": "678ab800e03cd3bea56e5b6ad9cdef44", "lat": 38.966076666666666, "lon": -77.02103333333334, "fusion_lat": 0.0, "name": "678ab800e03cd3bea56e5b6ad9cdef44"}, {"fusion_lon": 0.0, "rental_uris": {"ios": "https://dc.lft.to/lastmile_qr_scan", "android": "https://dc.lft.to/lastmile_qr_scan"}, "type": "electric_scooter", "is_reserved": 0, "is_disabled": 0, "bike_id": "b58d515663a770200e4168c63e336920", "lat": 38.888698833333336, "lon": -77.00182883333333, "fusion_lat": 0.0, "name": "b58d515663a770200e4168c63e336920"}, {"fusion_lon": 0.0, "rental_uris": {"ios": "https://dc.lft.to/lastmile_qr_scan", "android": "https://dc.lft.to/lastmile_qr_scan"}, "type": "electric_scooter", "is_reserved": 0, "is_disabled": 0, "bike_id": "0dd851f146d6a9f5259b6699c1d4c903", "lat": 38.89352366666667, "lon": -77.00336716666666, "fusion_lat": 0.0, "name": "0dd851f146d6a9f5259b6699c1d4c903"}, {"fusion_lon": 0.0, "rental_uris": {"ios": "https://dc.lft.to/lastmile_qr_scan", "android": "https://dc.lft.to/lastmile_qr_scan"}, "type": "electric_scooter", "is_reserved": 0, "is_disabled": 0, "bike_id": "2b8eda21322990dfb7d97d7d97ac1e68", "lat": 38.91106533333333, "lon": -77.02639683333334, "fusion_lat": 0.0, "name": "2b8eda21322990dfb7d97d7d97ac1e68"}, {"fusion_lon": 0.0, "rental_uris": {"ios": "https://dc.lft.to/lastmile_qr_scan", "android": "https://dc.lft.to/lastmile_qr_scan"}, "type": "electric_scooter", "is_reserved": 0, "is_disabled": 0, "bike_id": "e896ebdf5a20c20fbe1f1144ffdad0ca", "lat": 38.924835, "lon": -77.022326, "fusion_lat": 0.0, "name": "e896ebdf5a20c20fbe1f1144ffdad0ca"}, {"fusion_lon": 0.0, "rental_uris": {"ios": "https://dc.lft.to/lastmile_qr_scan", "android": "https://dc.lft.to/lastmile_qr_scan"}, "type": "electric_scooter", "is_reserved": 0, "is_disabled": 0, "bike_id": "b343f2c81bdedba6d0651335897aba51", "lat": 38.935619833333334, "lon": -77.05873716666666, "fusion_lat": 0.0, "name": "b343f2c81bdedba6d0651335897aba51"}, {"fusion_lon": 0.0, "rental_uris": {"ios": "https://dc.lft.to/lastmile_qr_scan", "android": "https://dc.lft.to/lastmile_qr_scan"}, "type": "electric_scooter", "is_reserved": 0, "is_disabled": 0, "bike_id": "899b5e53a9f5a9c6166f78a882735010", "lat": 38.8871985, "lon": -77.02187, "fusion_lat": 0.0, "name": "899b5e53a9f5a9c6166f78a882735010"}, {"fusion_lon": 0.0, "rental_uris": {"ios": "https://dc.lft.to/lastmile_qr_scan", "android": "https://dc.lft.to/lastmile_qr_scan"}, "type": "electric_scooter", "is_reserved": 0, "is_disabled": 0, "bike_id": "94900d987d01c90329f15d876c62e70e", "lat": 38.9247755, "lon": -77.02222983333333, "fusion_lat": 0.0, "name": "94900d987d01c90329f15d876c62e70e"}, {"fusion_lon": 0.0, "rental_uris": {"ios": "https://dc.lft.to/lastmile_qr_scan", "android": "https://dc.lft.to/lastmile_qr_scan"}, "type": "electric_scooter", "is_reserved": 0, "is_disabled": 0, "bike_id": "387aba5cea0b1dae552a2a14de94d304", "lat": 38.89221166666667, "lon": -77.03172266666667, "fusion_lat": 0.0, "name": "387aba5cea0b1dae552a2a14de94d304"}, {"fusion_lon": 0.0, "rental_uris": {"ios": "https://dc.lft.to/lastmile_qr_scan", "android": "https://dc.lft.to/lastmile_qr_scan"}, "type": "electric_scooter", "is_reserved": 0, "is_disabled": 0, "bike_id": "4f10256b8bd990350a922034d162c5d7", "lat": 38.924956, "lon": -77.039277, "fusion_lat": 0.0, "name": "4f10256b8bd990350a922034d162c5d7"}, {"fusion_lon": 0.0, "rental_uris": {"ios": "https://dc.lft.to/lastmile_qr_scan", "android": "https://dc.lft.to/lastmile_qr_scan"}, "type": "electric_scooter", "is_reserved": 0, "is_disabled": 0, "bike_id": "75ff8b58e56264f2ff2ba5766ad11ed7", "lat": 38.89931716666667, "lon": -77.02816916666667, "fusion_lat": 0.0, "name": "75ff8b58e56264f2ff2ba5766ad11ed7"}, {"fusion_lon": 0.0, "rental_uris": {"ios": "https://dc.lft.to/lastmile_qr_scan", "android": "https://dc.lft.to/lastmile_qr_scan"}, "type": "electric_scooter", "is_reserved": 0, "is_disabled": 0, "bike_id": "d0d853122b09d0f6e83e05fe7a1e5ea1", "lat": 38.8835945, "lon": -76.95766766666667, "fusion_lat": 0.0, "name": "d0d853122b09d0f6e83e05fe7a1e5ea1"}, {"fusion_lon": 0.0, "rental_uris": {"ios": "https://dc.lft.to/lastmile_qr_scan", "android": "https://dc.lft.to/lastmile_qr_scan"}, "type": "electric_scooter", "is_reserved": 0, "is_disabled": 0, "bike_id": "e2ef01bbd01322d7e3b60d35b9aa0137", "lat": 38.898798166666666, "lon": -77.05335816666667, "fusion_lat": 0.0, "name": "e2ef01bbd01322d7e3b60d35b9aa0137"}, {"fusion_lon": 0.0, "rental_uris": {"ios": "https://dc.lft.to/lastmile_qr_scan", "android": "https://dc.lft.to/lastmile_qr_scan"}, "type": "electric_scooter", "is_reserved": 0, "is_disabled": 0, "bike_id": "1ac84fdf0a8acab8888837acec622e39", "lat": 38.896155, "lon": -77.04411283333333, "fusion_lat": 0.0, "name": "1ac84fdf0a8acab8888837acec622e39"}, {"fusion_lon": 0.0, "rental_uris": {"ios": "https://dc.lft.to/lastmile_qr_scan", "android": "https://dc.lft.to/lastmile_qr_scan"}, "type": "electric_scooter", "is_reserved": 0, "is_disabled": 0, "bike_id": "6004d776300cbf5a10ffca159d0e2e12", "lat": 38.893596, "lon": -77.0028595, "fusion_lat": 0.0, "name": "6004d776300cbf5a10ffca159d0e2e12"}, {"fusion_lon": 0.0, "rental_uris": {"ios": "https://dc.lft.to/lastmile_qr_scan", "android": "https://dc.lft.to/lastmile_qr_scan"}, "type": "electric_scooter", "is_reserved": 0, "is_disabled": 0, "bike_id": "3bbbbca7861e9566c7a08dec184700c1", "lat": 38.8984325, "lon": -77.02616016666667, "fusion_lat": 0.0, "name": "3bbbbca7861e9566c7a08dec184700c1"}, {"fusion_lon": 0.0, "rental_uris": {"ios": "https://dc.lft.to/lastmile_qr_scan", "android": "https://dc.lft.to/lastmile_qr_scan"}, "type": "electric_scooter", "is_reserved": 0, "is_disabled": 0, "bike_id": "4bf887141d6f20257b809583e1022446", "lat": 38.89873266666667, "lon": -77.02962316666667, "fusion_lat": 0.0, "name": "4bf887141d6f20257b809583e1022446"}, {"fusion_lon": 0.0, "rental_uris": {"ios": "https://dc.lft.to/lastmile_qr_scan", "android": "https://dc.lft.to/lastmile_qr_scan"}, "type": "electric_scooter", "is_reserved": 0, "is_disabled": 0, "bike_id": "5640b8b1a73ad5853950b0cf887feceb", "lat": 38.885921833333335, "lon": -77.02012666666667, "fusion_lat": 0.0, "name": "5640b8b1a73ad5853950b0cf887feceb"}, {"fusion_lon": 0.0, "rental_uris": {"ios": "https://dc.lft.to/lastmile_qr_scan", "android": "https://dc.lft.to/lastmile_qr_scan"}, "type": "electric_scooter", "is_reserved": 0, "is_disabled": 0, "bike_id": "9a00c557374240f22d7c59c9faa1a71a", "lat": 38.89886883333333, "lon": -77.01440716666667, "fusion_lat": 0.0, "name": "9a00c557374240f22d7c59c9faa1a71a"}, {"fusion_lon": 0.0, "rental_uris": {"ios": "https://dc.lft.to/lastmile_qr_scan", "android": "https://dc.lft.to/lastmile_qr_scan"}, "type": "electric_scooter", "is_reserved": 0, "is_disabled": 0, "bike_id": "78489afc1f2265e7956070dc594a19c4", "lat": 38.902046666666664, "lon": -77.04808766666666, "fusion_lat": 0.0, "name": "78489afc1f2265e7956070dc594a19c4"}, {"fusion_lon": 0.0, "rental_uris": {"ios": "https://dc.lft.to/lastmile_qr_scan", "android": "https://dc.lft.to/lastmile_qr_scan"}, "type": "electric_scooter", "is_reserved": 0, "is_disabled": 0, "bike_id": "a907fb2d2610f79945355b9af512f7f9", "lat": 38.9325815, "lon": -77.0194015, "fusion_lat": 0.0, "name": "a907fb2d2610f79945355b9af512f7f9"}, {"fusion_lon": 0.0, "rental_uris": {"ios": "https://dc.lft.to/lastmile_qr_scan", "android": "https://dc.lft.to/lastmile_qr_scan"}, "type": "electric_scooter", "is_reserved": 0, "is_disabled": 0, "bike_id": "7bcbf83ba5e64f66b82ef750959da989", "lat": 38.91447933333333, "lon": -77.02288133333333, "fusion_lat": 0.0, "name": "7bcbf83ba5e64f66b82ef750959da989"}, {"fusion_lon": 0.0, "rental_uris": {"ios": "https://dc.lft.to/lastmile_qr_scan", "android": "https://dc.lft.to/lastmile_qr_scan"}, "type": "electric_scooter", "is_reserved": 0, "is_disabled": 0, "bike_id": "8e1fde907a215aa9e262f3005949f3eb", "lat": 38.889709, "lon": -76.980355, "fusion_lat": 0.0, "name": "8e1fde907a215aa9e262f3005949f3eb"}, {"fusion_lon": 0.0, "rental_uris": {"ios": "https://dc.lft.to/lastmile_qr_scan", "android": "https://dc.lft.to/lastmile_qr_scan"}, "type": "electric_scooter", "is_reserved": 0, "is_disabled": 0, "bike_id": "e8a8424ac07be6d3c24e417d0b8e5d07", "lat": 38.90023883333333, "lon": -77.0308405, "fusion_lat": 0.0, "name": "e8a8424ac07be6d3c24e417d0b8e5d07"}, {"fusion_lon": 0.0, "rental_uris": {"ios": "https://dc.lft.to/lastmile_qr_scan", "android": "https://dc.lft.to/lastmile_qr_scan"}, "type": "electric_scooter", "is_reserved": 0, "is_disabled": 0, "bike_id": "edd620dc9bbec23539dfcfa90563a654", "lat": 38.902685166666664, "lon": -77.03463266666667, "fusion_lat": 0.0, "name": "edd620dc9bbec23539dfcfa90563a654"}, {"fusion_lon": 0.0, "rental_uris": {"ios": "https://dc.lft.to/lastmile_qr_scan", "android": "https://dc.lft.to/lastmile_qr_scan"}, "type": "electric_scooter", "is_reserved": 0, "is_disabled": 0, "bike_id": "b5469226c6ce618f374e953cee102c8b", "lat": 38.890317, "lon": -76.94460866666667, "fusion_lat": 0.0, "name": "b5469226c6ce618f374e953cee102c8b"}, {"fusion_lon": 0.0, "rental_uris": {"ios": "https://dc.lft.to/lastmile_qr_scan", "android": "https://dc.lft.to/lastmile_qr_scan"}, "type": "electric_scooter", "is_reserved": 0, "is_disabled": 0, "bike_id": "dc349e18d1ecb96df6ead7c4cc33f387", "lat": 38.92472716666666, "lon": -77.02223833333333, "fusion_lat": 0.0, "name": "dc349e18d1ecb96df6ead7c4cc33f387"}, {"fusion_lon": 0.0, "rental_uris": {"ios": "https://dc.lft.to/lastmile_qr_scan", "android": "https://dc.lft.to/lastmile_qr_scan"}, "type": "electric_scooter", "is_reserved": 0, "is_disabled": 0, "bike_id": "292c42c45f65782fa5cbabaf139516a9", "lat": 38.89603566666667, "lon": -77.00929566666667, "fusion_lat": 0.0, "name": "292c42c45f65782fa5cbabaf139516a9"}, {"fusion_lon": 0.0, "rental_uris": {"ios": "https://dc.lft.to/lastmile_qr_scan", "android": "https://dc.lft.to/lastmile_qr_scan"}, "type": "electric_bike", "is_reserved": 0, "is_disabled": 0, "bike_id": "611bb5314b277df716e0da067e20e19b", "lat": 38.836913, "lon": -77.10344583333334, "fusion_lat": 0.0, "name": "611bb5314b277df716e0da067e20e19b"}, {"fusion_lon": 0.0, "rental_uris": {"ios": "https://dc.lft.to/lastmile_qr_scan", "android": "https://dc.lft.to/lastmile_qr_scan"}, "type": "electric_scooter", "is_reserved": 0, "is_disabled": 0, "bike_id": "c7a2527aacb0a4bbfa1b014be9cc9216", "lat": 38.8764045, "lon": -76.99294533333334, "fusion_lat": 0.0, "name": "c7a2527aacb0a4bbfa1b014be9cc9216"}, {"fusion_lon": 0.0, "rental_uris": {"ios": "https://dc.lft.to/lastmile_qr_scan", "android": "https://dc.lft.to/lastmile_qr_scan"}, "type": "electric_scooter", "is_reserved": 0, "is_disabled": 0, "bike_id": "1a42d560b5dbf3d06d8b55c0b2057f6e", "lat": 38.917118, "lon": -77.024024, "fusion_lat": 0.0, "name": "1a42d560b5dbf3d06d8b55c0b2057f6e"}, {"fusion_lon": 0.0, "rental_uris": {"ios": "https://dc.lft.to/lastmile_qr_scan", "android": "https://dc.lft.to/lastmile_qr_scan"}, "type": "electric_scooter", "is_reserved": 0, "is_disabled": 0, "bike_id": "d5ea728acfa4f255e308d71711fc92d4", "lat": 38.896904166666666, "lon": -77.03211783333333, "fusion_lat": 0.0, "name": "d5ea728acfa4f255e308d71711fc92d4"}, {"fusion_lon": 0.0, "rental_uris": {"ios": "https://dc.lft.to/lastmile_qr_scan", "android": "https://dc.lft.to/lastmile_qr_scan"}, "type": "electric_scooter", "is_reserved": 0, "is_disabled": 0, "bike_id": "6f0f5d99725b12d896c9f26a832111f8", "lat": 38.9216365, "lon": -77.04243366666667, "fusion_lat": 0.0, "name": "6f0f5d99725b12d896c9f26a832111f8"}, {"fusion_lon": 0.0, "rental_uris": {"ios": "https://dc.lft.to/lastmile_qr_scan", "android": "https://dc.lft.to/lastmile_qr_scan"}, "type": "electric_scooter", "is_reserved": 0, "is_disabled": 0, "bike_id": "56b890b1bce999b48a1781e2d928619c", "lat": 38.876691666666666, "lon": -77.00326366666667, "fusion_lat": 0.0, "name": "56b890b1bce999b48a1781e2d928619c"}, {"fusion_lon": 0.0, "rental_uris": {"ios": "https://dc.lft.to/lastmile_qr_scan", "android": "https://dc.lft.to/lastmile_qr_scan"}, "type": "electric_scooter", "is_reserved": 0, "is_disabled": 0, "bike_id": "d6f54a1fe858e84c4907ab9a87bb5a31", "lat": 38.900056666666664, "lon": -77.031568, "fusion_lat": 0.0, "name": "d6f54a1fe858e84c4907ab9a87bb5a31"}, {"fusion_lon": 0.0, "rental_uris": {"ios": "https://dc.lft.to/lastmile_qr_scan", "android": "https://dc.lft.to/lastmile_qr_scan"}, "type": "electric_scooter", "is_reserved": 0, "is_disabled": 0, "bike_id": "e175ed48c6e8307744380f68388e97dd", "lat": 38.90231166666667, "lon": -77.02326883333333, "fusion_lat": 0.0, "name": "e175ed48c6e8307744380f68388e97dd"}, {"fusion_lon": 0.0, "rental_uris": {"ios": "https://dc.lft.to/lastmile_qr_scan", "android": "https://dc.lft.to/lastmile_qr_scan"}, "type": "electric_scooter", "is_reserved": 0, "is_disabled": 0, "bike_id": "fb48a6cfac9cbe4f790d4e47e2b5b7e8", "lat": 38.92889233333333, "lon": -77.03469916666667, "fusion_lat": 0.0, "name": "fb48a6cfac9cbe4f790d4e47e2b5b7e8"}, {"fusion_lon": 0.0, "rental_uris": {"ios": "https://dc.lft.to/lastmile_qr_scan", "android": "https://dc.lft.to/lastmile_qr_scan"}, "type": "electric_scooter", "is_reserved": 0, "is_disabled": 0, "bike_id": "53f85d5e96358ebb6a084f6518e13853", "lat": 38.9088735, "lon": -76.99138116666667, "fusion_lat": 0.0, "name": "53f85d5e96358ebb6a084f6518e13853"}, {"fusion_lon": 0.0, "rental_uris": {"ios": "https://dc.lft.to/lastmile_qr_scan", "android": "https://dc.lft.to/lastmile_qr_scan"}, "type": "electric_scooter", "is_reserved": 0, "is_disabled": 0, "bike_id": "bbe4a801a685033110096dc2de4da93e", "lat": 38.86222183333334, "lon": -76.99488883333333, "fusion_lat": 0.0, "name": "bbe4a801a685033110096dc2de4da93e"}, {"fusion_lon": 0.0, "rental_uris": {"ios": "https://dc.lft.to/lastmile_qr_scan", "android": "https://dc.lft.to/lastmile_qr_scan"}, "type": "electric_scooter", "is_reserved": 0, "is_disabled": 0, "bike_id": "ef98c9943cea3944c61e58e633b2104c", "lat": 38.895786666666666, "lon": -77.03186366666667, "fusion_lat": 0.0, "name": "ef98c9943cea3944c61e58e633b2104c"}, {"fusion_lon": 0.0, "rental_uris": {"ios": "https://dc.lft.to/lastmile_qr_scan", "android": "https://dc.lft.to/lastmile_qr_scan"}, "type": "electric_scooter", "is_reserved": 0, "is_disabled": 0, "bike_id": "c592d09e2d303e7821f9540a7658df89", "lat": 38.92265316666666, "lon": -77.01955633333333, "fusion_lat": 0.0, "name": "c592d09e2d303e7821f9540a7658df89"}, {"fusion_lon": 0.0, "rental_uris": {"ios": "https://dc.lft.to/lastmile_qr_scan", "android": "https://dc.lft.to/lastmile_qr_scan"}, "type": "electric_scooter", "is_reserved": 0, "is_disabled": 0, "bike_id": "0d2db3346828fa0a1bdc7f932d0c0564", "lat": 38.927135666666665, "lon": -77.04104583333333, "fusion_lat": 0.0, "name": "0d2db3346828fa0a1bdc7f932d0c0564"}, {"fusion_lon": 0.0, "rental_uris": {"ios": "https://dc.lft.to/lastmile_qr_scan", "android": "https://dc.lft.to/lastmile_qr_scan"}, "type": "electric_scooter", "is_reserved": 0, "is_disabled": 0, "bike_id": "bd7f643c6e38f0a67f59cb0282684e65", "lat": 38.916234, "lon": -77.032705, "fusion_lat": 0.0, "name": "bd7f643c6e38f0a67f59cb0282684e65"}, {"fusion_lon": 0.0, "rental_uris": {"ios": "https://dc.lft.to/lastmile_qr_scan", "android": "https://dc.lft.to/lastmile_qr_scan"}, "type": "electric_scooter", "is_reserved": 0, "is_disabled": 0, "bike_id": "b586657dcae9e42b8977f4c807b617bd", "lat": 38.9080605, "lon": -77.04157233333333, "fusion_lat": 0.0, "name": "b586657dcae9e42b8977f4c807b617bd"}, {"fusion_lon": 0.0, "rental_uris": {"ios": "https://dc.lft.to/lastmile_qr_scan", "android": "https://dc.lft.to/lastmile_qr_scan"}, "type": "electric_scooter", "is_reserved": 0, "is_disabled": 0, "bike_id": "4871a207b6157f7b1d4e9fdf8701b550", "lat": 38.89499383333333, "lon": -77.01083183333333, "fusion_lat": 0.0, "name": "4871a207b6157f7b1d4e9fdf8701b550"}, {"fusion_lon": 0.0, "rental_uris": {"ios": "https://dc.lft.to/lastmile_qr_scan", "android": "https://dc.lft.to/lastmile_qr_scan"}, "type": "electric_scooter", "is_reserved": 0, "is_disabled": 0, "bike_id": "e7875c6613a9c269db87fe4d8a54b9e3", "lat": 38.924944333333336, "lon": -77.02206616666666, "fusion_lat": 0.0, "name": "e7875c6613a9c269db87fe4d8a54b9e3"}, {"fusion_lon": 0.0, "rental_uris": {"ios": "https://dc.lft.to/lastmile_qr_scan", "android": "https://dc.lft.to/lastmile_qr_scan"}, "type": "electric_scooter", "is_reserved": 0, "is_disabled": 0, "bike_id": "f0240a9061536acd9f5fc2b8540cc481", "lat": 38.913131166666666, "lon": -77.019267, "fusion_lat": 0.0, "name": "f0240a9061536acd9f5fc2b8540cc481"}, {"fusion_lon": 0.0, "rental_uris": {"ios": "https://dc.lft.to/lastmile_qr_scan", "android": "https://dc.lft.to/lastmile_qr_scan"}, "type": "electric_scooter", "is_reserved": 0, "is_disabled": 0, "bike_id": "6a6177497a37234d09517d94cfe8b55a", "lat": 38.929052166666665, "lon": -77.05810983333333, "fusion_lat": 0.0, "name": "6a6177497a37234d09517d94cfe8b55a"}, {"fusion_lon": 0.0, "rental_uris": {"ios": "https://dc.lft.to/lastmile_qr_scan", "android": "https://dc.lft.to/lastmile_qr_scan"}, "type": "electric_scooter", "is_reserved": 0, "is_disabled": 0, "bike_id": "9dc989aba898f7308f6cc363bed44359", "lat": 38.89504133333333, "lon": -77.024004, "fusion_lat": 0.0, "name": "9dc989aba898f7308f6cc363bed44359"}, {"fusion_lon": 0.0, "rental_uris": {"ios": "https://dc.lft.to/lastmile_qr_scan", "android": "https://dc.lft.to/lastmile_qr_scan"}, "type": "electric_scooter", "is_reserved": 0, "is_disabled": 0, "bike_id": "336cf6f3c17e587c3defa570bcfe4439", "lat": 38.901535333333335, "lon": -77.05007233333333, "fusion_lat": 0.0, "name": "336cf6f3c17e587c3defa570bcfe4439"}, {"fusion_lon": 0.0, "rental_uris": {"ios": "https://dc.lft.to/lastmile_qr_scan", "android": "https://dc.lft.to/lastmile_qr_scan"}, "type": "electric_bike", "is_reserved": 0, "is_disabled": 0, "bike_id": "708c1188929842b6fddd08f516d19c28", "lat": 38.93631933333333, "lon": -76.96076233333334, "fusion_lat": 0.0, "name": "708c1188929842b6fddd08f516d19c28"}, {"fusion_lon": 0.0, "rental_uris": {"ios": "https://dc.lft.to/lastmile_qr_scan", "android": "https://dc.lft.to/lastmile_qr_scan"}, "type": "electric_scooter", "is_reserved": 0, "is_disabled": 0, "bike_id": "058c42e6da29f9e442af26f3f3a59358", "lat": 38.892022, "lon": -77.0029375, "fusion_lat": 0.0, "name": "058c42e6da29f9e442af26f3f3a59358"}, {"fusion_lon": 0.0, "rental_uris": {"ios": "https://dc.lft.to/lastmile_qr_scan", "android": "https://dc.lft.to/lastmile_qr_scan"}, "type": "electric_scooter", "is_reserved": 0, "is_disabled": 0, "bike_id": "29a1b6da44d90479cf78b2e7a833ee72", "lat": 38.88032316666666, "lon": -77.02503, "fusion_lat": 0.0, "name": "29a1b6da44d90479cf78b2e7a833ee72"}, {"fusion_lon": 0.0, "rental_uris": {"ios": "https://dc.lft.to/lastmile_qr_scan", "android": "https://dc.lft.to/lastmile_qr_scan"}, "type": "electric_scooter", "is_reserved": 0, "is_disabled": 0, "bike_id": "eba18d52bf6a06939ca44ef9f59aff19", "lat": 38.9396385, "lon": -77.03291616666667, "fusion_lat": 0.0, "name": "eba18d52bf6a06939ca44ef9f59aff19"}, {"fusion_lon": 0.0, "rental_uris": {"ios": "https://dc.lft.to/lastmile_qr_scan", "android": "https://dc.lft.to/lastmile_qr_scan"}, "type": "electric_scooter", "is_reserved": 0, "is_disabled": 0, "bike_id": "5d9226c1e248b078d3f8d84d593a8379", "lat": 38.898070833333335, "lon": -76.97933816666666, "fusion_lat": 0.0, "name": "5d9226c1e248b078d3f8d84d593a8379"}, {"fusion_lon": 0.0, "rental_uris": {"ios": "https://dc.lft.to/lastmile_qr_scan", "android": "https://dc.lft.to/lastmile_qr_scan"}, "type": "electric_scooter", "is_reserved": 0, "is_disabled": 0, "bike_id": "620bbb55d074a2b9b6c5e4e2f46260e0", "lat": 38.8954735, "lon": -76.98333533333333, "fusion_lat": 0.0, "name": "620bbb55d074a2b9b6c5e4e2f46260e0"}, {"fusion_lon": 0.0, "rental_uris": {"ios": "https://dc.lft.to/lastmile_qr_scan", "android": "https://dc.lft.to/lastmile_qr_scan"}, "type": "electric_scooter", "is_reserved": 0, "is_disabled": 0, "bike_id": "da111df7729f6825ef89b22898fb9dd4", "lat": 38.9234215, "lon": -77.01904216666667, "fusion_lat": 0.0, "name": "da111df7729f6825ef89b22898fb9dd4"}, {"fusion_lon": 0.0, "rental_uris": {"ios": "https://dc.lft.to/lastmile_qr_scan", "android": "https://dc.lft.to/lastmile_qr_scan"}, "type": "electric_bike", "is_reserved": 0, "is_disabled": 0, "bike_id": "16636010a3bb36119bd6ca34e2ae6458", "lat": 38.815459833333335, "lon": -77.046479, "fusion_lat": 0.0, "name": "16636010a3bb36119bd6ca34e2ae6458"}, {"fusion_lon": 0.0, "rental_uris": {"ios": "https://dc.lft.to/lastmile_qr_scan", "android": "https://dc.lft.to/lastmile_qr_scan"}, "type": "electric_scooter", "is_reserved": 0, "is_disabled": 0, "bike_id": "1646bfe30df5db8107dc1971f1728115", "lat": 38.909614, "lon": -77.00766483333334, "fusion_lat": 0.0, "name": "1646bfe30df5db8107dc1971f1728115"}, {"fusion_lon": 0.0, "rental_uris": {"ios": "https://dc.lft.to/lastmile_qr_scan", "android": "https://dc.lft.to/lastmile_qr_scan"}, "type": "electric_scooter", "is_reserved": 0, "is_disabled": 0, "bike_id": "619dd037c55057df6fcd5cd4eefd7e47", "lat": 38.886422, "lon": -77.021387, "fusion_lat": 0.0, "name": "619dd037c55057df6fcd5cd4eefd7e47"}, {"fusion_lon": 0.0, "rental_uris": {"ios": "https://dc.lft.to/lastmile_qr_scan", "android": "https://dc.lft.to/lastmile_qr_scan"}, "type": "electric_scooter", "is_reserved": 0, "is_disabled": 0, "bike_id": "2f8b8d9c566802def7e6ec83694ce69f", "lat": 38.914203666666666, "lon": -77.03819766666666, "fusion_lat": 0.0, "name": "2f8b8d9c566802def7e6ec83694ce69f"}, {"fusion_lon": 0.0, "rental_uris": {"ios": "https://dc.lft.to/lastmile_qr_scan", "android": "https://dc.lft.to/lastmile_qr_scan"}, "type": "electric_bike", "is_reserved": 0, "is_disabled": 0, "bike_id": "6e7faa89e296cab7497a74dc5bdde107", "lat": 38.90606483333333, "lon": -77.12878166666667, "fusion_lat": 0.0, "name": "6e7faa89e296cab7497a74dc5bdde107"}, {"fusion_lon": 0.0, "rental_uris": {"ios": "https://dc.lft.to/lastmile_qr_scan", "android": "https://dc.lft.to/lastmile_qr_scan"}, "type": "electric_scooter", "is_reserved": 0, "is_disabled": 0, "bike_id": "cbde8d8fad0f03260da30684a661f939", "lat": 38.904967166666665, "lon": -77.02924983333334, "fusion_lat": 0.0, "name": "cbde8d8fad0f03260da30684a661f939"}, {"fusion_lon": 0.0, "rental_uris": {"ios": "https://dc.lft.to/lastmile_qr_scan", "android": "https://dc.lft.to/lastmile_qr_scan"}, "type": "electric_scooter", "is_reserved": 0, "is_disabled": 0, "bike_id": "738dd673279c229cf87aaa1086802570", "lat": 38.91415716666667, "lon": -77.01800716666666, "fusion_lat": 0.0, "name": "738dd673279c229cf87aaa1086802570"}, {"fusion_lon": 0.0, "rental_uris": {"ios": "https://dc.lft.to/lastmile_qr_scan", "android": "https://dc.lft.to/lastmile_qr_scan"}, "type": "electric_scooter", "is_reserved": 0, "is_disabled": 0, "bike_id": "7348b11d55858f918c6f66cf0ee6dc65", "lat": 38.929814, "lon": -77.03468066666667, "fusion_lat": 0.0, "name": "7348b11d55858f918c6f66cf0ee6dc65"}, {"fusion_lon": 0.0, "rental_uris": {"ios": "https://dc.lft.to/lastmile_qr_scan", "android": "https://dc.lft.to/lastmile_qr_scan"}, "type": "electric_scooter", "is_reserved": 0, "is_disabled": 0, "bike_id": "1ffa344edd962e1d892e800f2c548fef", "lat": 38.89526983333333, "lon": -77.00341416666667, "fusion_lat": 0.0, "name": "1ffa344edd962e1d892e800f2c548fef"}, {"fusion_lon": 0.0, "rental_uris": {"ios": "https://dc.lft.to/lastmile_qr_scan", "android": "https://dc.lft.to/lastmile_qr_scan"}, "type": "electric_scooter", "is_reserved": 0, "is_disabled": 0, "bike_id": "0af6f635ac5f794cf25a195af65d6c6c", "lat": 38.86212966666667, "lon": -76.99475483333333, "fusion_lat": 0.0, "name": "0af6f635ac5f794cf25a195af65d6c6c"}, {"fusion_lon": 0.0, "rental_uris": {"ios": "https://dc.lft.to/lastmile_qr_scan", "android": "https://dc.lft.to/lastmile_qr_scan"}, "type": "electric_scooter", "is_reserved": 0, "is_disabled": 0, "bike_id": "ab9903052438878b2ab395e980cd611d", "lat": 38.9097505, "lon": -76.984645, "fusion_lat": 0.0, "name": "ab9903052438878b2ab395e980cd611d"}, {"fusion_lon": 0.0, "rental_uris": {"ios": "https://dc.lft.to/lastmile_qr_scan", "android": "https://dc.lft.to/lastmile_qr_scan"}, "type": "electric_scooter", "is_reserved": 0, "is_disabled": 0, "bike_id": "9ee7130fa9fafa969569c56a84c7c9c2", "lat": 38.900919, "lon": -76.9768145, "fusion_lat": 0.0, "name": "9ee7130fa9fafa969569c56a84c7c9c2"}, {"fusion_lon": 0.0, "rental_uris": {"ios": "https://dc.lft.to/lastmile_qr_scan", "android": "https://dc.lft.to/lastmile_qr_scan"}, "type": "electric_scooter", "is_reserved": 0, "is_disabled": 0, "bike_id": "2c6ac5342ab2fd7e777880f06c922589", "lat": 38.91297133333333, "lon": -77.047151, "fusion_lat": 0.0, "name": "2c6ac5342ab2fd7e777880f06c922589"}, {"fusion_lon": 0.0, "rental_uris": {"ios": "https://dc.lft.to/lastmile_qr_scan", "android": "https://dc.lft.to/lastmile_qr_scan"}, "type": "electric_scooter", "is_reserved": 0, "is_disabled": 0, "bike_id": "7c94dd1b63aa7f3ca7779236624b6038", "lat": 38.9080765, "lon": -76.9967955, "fusion_lat": 0.0, "name": "7c94dd1b63aa7f3ca7779236624b6038"}, {"fusion_lon": 0.0, "rental_uris": {"ios": "https://dc.lft.to/lastmile_qr_scan", "android": "https://dc.lft.to/lastmile_qr_scan"}, "type": "electric_scooter", "is_reserved": 0, "is_disabled": 0, "bike_id": "88a741f9325af5589a3e84fd710ff119", "lat": 38.924800166666664, "lon": -77.022306, "fusion_lat": 0.0, "name": "88a741f9325af5589a3e84fd710ff119"}, {"fusion_lon": 0.0, "rental_uris": {"ios": "https://dc.lft.to/lastmile_qr_scan", "android": "https://dc.lft.to/lastmile_qr_scan"}, "type": "electric_scooter", "is_reserved": 0, "is_disabled": 0, "bike_id": "6a29f2bdb1ff018fc85862e3eb2c99f3", "lat": 38.93765483333333, "lon": -76.99265333333334, "fusion_lat": 0.0, "name": "6a29f2bdb1ff018fc85862e3eb2c99f3"}, {"fusion_lon": 0.0, "rental_uris": {"ios": "https://dc.lft.to/lastmile_qr_scan", "android": "https://dc.lft.to/lastmile_qr_scan"}, "type": "electric_scooter", "is_reserved": 0, "is_disabled": 0, "bike_id": "1c5f10a2402824f8edefb98e23a5317b", "lat": 38.900436166666665, "lon": -77.02389333333333, "fusion_lat": 0.0, "name": "1c5f10a2402824f8edefb98e23a5317b"}, {"fusion_lon": 0.0, "rental_uris": {"ios": "https://dc.lft.to/lastmile_qr_scan", "android": "https://dc.lft.to/lastmile_qr_scan"}, "type": "electric_scooter", "is_reserved": 0, "is_disabled": 0, "bike_id": "aa86f44d81ca34878dbe242f85a40262", "lat": 38.90564533333333, "lon": -77.03507883333333, "fusion_lat": 0.0, "name": "aa86f44d81ca34878dbe242f85a40262"}, {"fusion_lon": 0.0, "rental_uris": {"ios": "https://dc.lft.to/lastmile_qr_scan", "android": "https://dc.lft.to/lastmile_qr_scan"}, "type": "electric_scooter", "is_reserved": 0, "is_disabled": 0, "bike_id": "ca08ff957988288fc88b6b4bca9fde78", "lat": 38.92069766666667, "lon": -77.0715875, "fusion_lat": 0.0, "name": "ca08ff957988288fc88b6b4bca9fde78"}, {"fusion_lon": 0.0, "rental_uris": {"ios": "https://dc.lft.to/lastmile_qr_scan", "android": "https://dc.lft.to/lastmile_qr_scan"}, "type": "electric_scooter", "is_reserved": 0, "is_disabled": 0, "bike_id": "ffcd074ca8c78bd6189bb41e7b3206dd", "lat": 38.9171745, "lon": -77.03093533333333, "fusion_lat": 0.0, "name": "ffcd074ca8c78bd6189bb41e7b3206dd"}, {"fusion_lon": 0.0, "rental_uris": {"ios": "https://dc.lft.to/lastmile_qr_scan", "android": "https://dc.lft.to/lastmile_qr_scan"}, "type": "electric_scooter", "is_reserved": 0, "is_disabled": 0, "bike_id": "bf043a449edda245c71155df22a94e68", "lat": 38.91645916666667, "lon": -77.02883233333333, "fusion_lat": 0.0, "name": "bf043a449edda245c71155df22a94e68"}, {"fusion_lon": 0.0, "rental_uris": {"ios": "https://dc.lft.to/lastmile_qr_scan", "android": "https://dc.lft.to/lastmile_qr_scan"}, "type": "electric_scooter", "is_reserved": 0, "is_disabled": 0, "bike_id": "2c198c063f94b50d3c5aa8191a87db7b", "lat": 38.90369483333333, "lon": -77.02992783333333, "fusion_lat": 0.0, "name": "2c198c063f94b50d3c5aa8191a87db7b"}, {"fusion_lon": 0.0, "rental_uris": {"ios": "https://dc.lft.to/lastmile_qr_scan", "android": "https://dc.lft.to/lastmile_qr_scan"}, "type": "electric_scooter", "is_reserved": 0, "is_disabled": 0, "bike_id": "2d6db6eee3d9a1cd05d71a662be7638e", "lat": 38.920408333333334, "lon": -77.01687016666666, "fusion_lat": 0.0, "name": "2d6db6eee3d9a1cd05d71a662be7638e"}, {"fusion_lon": 0.0, "rental_uris": {"ios": "https://dc.lft.to/lastmile_qr_scan", "android": "https://dc.lft.to/lastmile_qr_scan"}, "type": "electric_scooter", "is_reserved": 0, "is_disabled": 0, "bike_id": "33cd8d35221c3307d57334c45af24cf7", "lat": 38.90407033333334, "lon": -77.04159, "fusion_lat": 0.0, "name": "33cd8d35221c3307d57334c45af24cf7"}, {"fusion_lon": 0.0, "rental_uris": {"ios": "https://dc.lft.to/lastmile_qr_scan", "android": "https://dc.lft.to/lastmile_qr_scan"}, "type": "electric_bike", "is_reserved": 0, "is_disabled": 0, "bike_id": "4e87c0fbc5db6f73ed2a1c25800006fe", "lat": 38.952030666666666, "lon": -77.0027525, "fusion_lat": 0.0, "name": "4e87c0fbc5db6f73ed2a1c25800006fe"}, {"fusion_lon": 0.0, "rental_uris": {"ios": "https://dc.lft.to/lastmile_qr_scan", "android": "https://dc.lft.to/lastmile_qr_scan"}, "type": "electric_scooter", "is_reserved": 0, "is_disabled": 0, "bike_id": "b81f584319a6e356483b374d181af7eb", "lat": 38.8982935, "lon": -77.04478933333333, "fusion_lat": 0.0, "name": "b81f584319a6e356483b374d181af7eb"}, {"fusion_lon": 0.0, "rental_uris": {"ios": "https://dc.lft.to/lastmile_qr_scan", "android": "https://dc.lft.to/lastmile_qr_scan"}, "type": "electric_scooter", "is_reserved": 0, "is_disabled": 0, "bike_id": "27d09545af8f39c486e89b0eef46a1d7", "lat": 38.9131705, "lon": -77.04727433333333, "fusion_lat": 0.0, "name": "27d09545af8f39c486e89b0eef46a1d7"}, {"fusion_lon": 0.0, "rental_uris": {"ios": "https://dc.lft.to/lastmile_qr_scan", "android": "https://dc.lft.to/lastmile_qr_scan"}, "type": "electric_scooter", "is_reserved": 0, "is_disabled": 0, "bike_id": "eaaa573643c31ad5ab4eb8d64ec10ddd", "lat": 38.962071, "lon": -77.02231233333333, "fusion_lat": 0.0, "name": "eaaa573643c31ad5ab4eb8d64ec10ddd"}, {"fusion_lon": 0.0, "rental_uris": {"ios": "https://dc.lft.to/lastmile_qr_scan", "android": "https://dc.lft.to/lastmile_qr_scan"}, "type": "electric_scooter", "is_reserved": 0, "is_disabled": 0, "bike_id": "2d9c7d9ebe4d90a6c375adba8af50320", "lat": 38.967339833333334, "lon": -77.02527783333333, "fusion_lat": 0.0, "name": "2d9c7d9ebe4d90a6c375adba8af50320"}, {"fusion_lon": 0.0, "rental_uris": {"ios": "https://dc.lft.to/lastmile_qr_scan", "android": "https://dc.lft.to/lastmile_qr_scan"}, "type": "electric_scooter", "is_reserved": 0, "is_disabled": 0, "bike_id": "027e3ea9567240d6c000b65955a35445", "lat": 38.911067333333335, "lon": -77.00214283333334, "fusion_lat": 0.0, "name": "027e3ea9567240d6c000b65955a35445"}, {"fusion_lon": 0.0, "rental_uris": {"ios": "https://dc.lft.to/lastmile_qr_scan", "android": "https://dc.lft.to/lastmile_qr_scan"}, "type": "electric_scooter", "is_reserved": 0, "is_disabled": 0, "bike_id": "f5aba524f5daab8cdfa2c3d50dc71cef", "lat": 38.88492983333333, "lon": -77.00711133333333, "fusion_lat": 0.0, "name": "f5aba524f5daab8cdfa2c3d50dc71cef"}, {"fusion_lon": 0.0, "rental_uris": {"ios": "https://dc.lft.to/lastmile_qr_scan", "android": "https://dc.lft.to/lastmile_qr_scan"}, "type": "electric_scooter", "is_reserved": 0, "is_disabled": 0, "bike_id": "465b3f65023b41214d6e7d704dda6571", "lat": 38.905863833333335, "lon": -76.98543166666667, "fusion_lat": 0.0, "name": "465b3f65023b41214d6e7d704dda6571"}, {"fusion_lon": 0.0, "rental_uris": {"ios": "https://dc.lft.to/lastmile_qr_scan", "android": "https://dc.lft.to/lastmile_qr_scan"}, "type": "electric_scooter", "is_reserved": 0, "is_disabled": 0, "bike_id": "0feea4f98f4d17d0278c81165760ac59", "lat": 38.89724866666667, "lon": -77.03271316666667, "fusion_lat": 0.0, "name": "0feea4f98f4d17d0278c81165760ac59"}, {"fusion_lon": 0.0, "rental_uris": {"ios": "https://dc.lft.to/lastmile_qr_scan", "android": "https://dc.lft.to/lastmile_qr_scan"}, "type": "electric_scooter", "is_reserved": 0, "is_disabled": 0, "bike_id": "d54d7bdeb7b27bca91ed0002be0212f3", "lat": 38.899816333333334, "lon": -76.99144783333334, "fusion_lat": 0.0, "name": "d54d7bdeb7b27bca91ed0002be0212f3"}, {"fusion_lon": 0.0, "rental_uris": {"ios": "https://dc.lft.to/lastmile_qr_scan", "android": "https://dc.lft.to/lastmile_qr_scan"}, "type": "electric_scooter", "is_reserved": 0, "is_disabled": 0, "bike_id": "524782bab113c2039dd4b6eaea3d911d", "lat": 38.908137833333335, "lon": -77.0358675, "fusion_lat": 0.0, "name": "524782bab113c2039dd4b6eaea3d911d"}, {"fusion_lon": 0.0, "rental_uris": {"ios": "https://dc.lft.to/lastmile_qr_scan", "android": "https://dc.lft.to/lastmile_qr_scan"}, "type": "electric_scooter", "is_reserved": 0, "is_disabled": 0, "bike_id": "8b8cfc68cf0050af6a364d546f5e935b", "lat": 38.9236235, "lon": -77.072277, "fusion_lat": 0.0, "name": "8b8cfc68cf0050af6a364d546f5e935b"}, {"fusion_lon": 0.0, "rental_uris": {"ios": "https://dc.lft.to/lastmile_qr_scan", "android": "https://dc.lft.to/lastmile_qr_scan"}, "type": "electric_scooter", "is_reserved": 0, "is_disabled": 0, "bike_id": "7eaa76a426ffcf7de09204cdcc316e9a", "lat": 38.87899066666667, "lon": -76.935251, "fusion_lat": 0.0, "name": "7eaa76a426ffcf7de09204cdcc316e9a"}, {"fusion_lon": 0.0, "rental_uris": {"ios": "https://dc.lft.to/lastmile_qr_scan", "android": "https://dc.lft.to/lastmile_qr_scan"}, "type": "electric_bike", "is_reserved": 0, "is_disabled": 0, "bike_id": "12182d28f49c1d2cf060163cddcbfb1c", "lat": 38.822101833333335, "lon": -76.97701583333334, "fusion_lat": 0.0, "name": "12182d28f49c1d2cf060163cddcbfb1c"}, {"fusion_lon": 0.0, "rental_uris": {"ios": "https://dc.lft.to/lastmile_qr_scan", "android": "https://dc.lft.to/lastmile_qr_scan"}, "type": "electric_scooter", "is_reserved": 0, "is_disabled": 0, "bike_id": "af5af8654eacab5de2e4019af31335f9", "lat": 38.9291435, "lon": -77.03494783333333, "fusion_lat": 0.0, "name": "af5af8654eacab5de2e4019af31335f9"}, {"fusion_lon": 0.0, "rental_uris": {"ios": "https://dc.lft.to/lastmile_qr_scan", "android": "https://dc.lft.to/lastmile_qr_scan"}, "type": "electric_scooter", "is_reserved": 0, "is_disabled": 0, "bike_id": "8b3ed760e3914f8ca2cdb9dc3002ab5d", "lat": 38.9024895, "lon": -77.01447466666667, "fusion_lat": 0.0, "name": "8b3ed760e3914f8ca2cdb9dc3002ab5d"}, {"fusion_lon": 0.0, "rental_uris": {"ios": "https://dc.lft.to/lastmile_qr_scan", "android": "https://dc.lft.to/lastmile_qr_scan"}, "type": "electric_scooter", "is_reserved": 0, "is_disabled": 0, "bike_id": "2978334467d0c98eeb7ac5079eb8d068", "lat": 38.92549233333333, "lon": -77.02282533333333, "fusion_lat": 0.0, "name": "2978334467d0c98eeb7ac5079eb8d068"}, {"fusion_lon": 0.0, "rental_uris": {"ios": "https://dc.lft.to/lastmile_qr_scan", "android": "https://dc.lft.to/lastmile_qr_scan"}, "type": "electric_scooter", "is_reserved": 0, "is_disabled": 0, "bike_id": "a8c6b2fcbeca816d6620825135956377", "lat": 38.89545, "lon": -77.02900166666667, "fusion_lat": 0.0, "name": "a8c6b2fcbeca816d6620825135956377"}, {"fusion_lon": 0.0, "rental_uris": {"ios": "https://dc.lft.to/lastmile_qr_scan", "android": "https://dc.lft.to/lastmile_qr_scan"}, "type": "electric_bike", "is_reserved": 0, "is_disabled": 0, "bike_id": "c4364a31579b94a7ba1f12f03acd46ea", "lat": 38.81944133333333, "lon": -77.00208533333333, "fusion_lat": 0.0, "name": "c4364a31579b94a7ba1f12f03acd46ea"}, {"fusion_lon": 0.0, "rental_uris": {"ios": "https://dc.lft.to/lastmile_qr_scan", "android": "https://dc.lft.to/lastmile_qr_scan"}, "type": "electric_bike", "is_reserved": 0, "is_disabled": 0, "bike_id": "aa77bf603225e6529e0d426299681f66", "lat": 39.0229965, "lon": -77.021069, "fusion_lat": 0.0, "name": "aa77bf603225e6529e0d426299681f66"}, {"fusion_lon": 0.0, "rental_uris": {"ios": "https://dc.lft.to/lastmile_qr_scan", "android": "https://dc.lft.to/lastmile_qr_scan"}, "type": "electric_scooter", "is_reserved": 0, "is_disabled": 0, "bike_id": "6dcaca15ef6ea39289bfae6599521774", "lat": 38.892242333333336, "lon": -77.0317085, "fusion_lat": 0.0, "name": "6dcaca15ef6ea39289bfae6599521774"}, {"fusion_lon": 0.0, "rental_uris": {"ios": "https://dc.lft.to/lastmile_qr_scan", "android": "https://dc.lft.to/lastmile_qr_scan"}, "type": "electric_scooter", "is_reserved": 0, "is_disabled": 0, "bike_id": "8e33545435e9a568106fde5a978dcf1d", "lat": 38.951849333333335, "lon": -77.02643616666667, "fusion_lat": 0.0, "name": "8e33545435e9a568106fde5a978dcf1d"}, {"fusion_lon": 0.0, "rental_uris": {"ios": "https://dc.lft.to/lastmile_qr_scan", "android": "https://dc.lft.to/lastmile_qr_scan"}, "type": "electric_bike", "is_reserved": 0, "is_disabled": 0, "bike_id": "b7ebb3de1386109314c5900f4aede81b", "lat": 38.9043615, "lon": -77.03466416666667, "fusion_lat": 0.0, "name": "b7ebb3de1386109314c5900f4aede81b"}, {"fusion_lon": 0.0, "rental_uris": {"ios": "https://dc.lft.to/lastmile_qr_scan", "android": "https://dc.lft.to/lastmile_qr_scan"}, "type": "electric_bike", "is_reserved": 0, "is_disabled": 0, "bike_id": "cbdcc536788ba74a308cfe2c684b17c9", "lat": 38.94475966666667, "lon": -76.98688816666666, "fusion_lat": 0.0, "name": "cbdcc536788ba74a308cfe2c684b17c9"}, {"fusion_lon": 0.0, "rental_uris": {"ios": "https://dc.lft.to/lastmile_qr_scan", "android": "https://dc.lft.to/lastmile_qr_scan"}, "type": "electric_bike", "is_reserved": 0, "is_disabled": 0, "bike_id": "24215a4a19743ba54f7f5aae2957df15", "lat": 38.9186165, "lon": -76.96089283333333, "fusion_lat": 0.0, "name": "24215a4a19743ba54f7f5aae2957df15"}, {"fusion_lon": 0.0, "rental_uris": {"ios": "https://dc.lft.to/lastmile_qr_scan", "android": "https://dc.lft.to/lastmile_qr_scan"}, "type": "electric_scooter", "is_reserved": 0, "is_disabled": 0, "bike_id": "f8cad512842288716d0bf65a7fbd21a9", "lat": 38.8765445, "lon": -77.00111933333334, "fusion_lat": 0.0, "name": "f8cad512842288716d0bf65a7fbd21a9"}, {"fusion_lon": 0.0, "rental_uris": {"ios": "https://dc.lft.to/lastmile_qr_scan", "android": "https://dc.lft.to/lastmile_qr_scan"}, "type": "electric_scooter", "is_reserved": 0, "is_disabled": 0, "bike_id": "10ca308ded6ae53a38f270fb2432487b", "lat": 38.94198633333333, "lon": -77.03143166666666, "fusion_lat": 0.0, "name": "10ca308ded6ae53a38f270fb2432487b"}, {"fusion_lon": 0.0, "rental_uris": {"ios": "https://dc.lft.to/lastmile_qr_scan", "android": "https://dc.lft.to/lastmile_qr_scan"}, "type": "electric_scooter", "is_reserved": 0, "is_disabled": 0, "bike_id": "3c138eb2fbae8c945ccf1016dbbb98e9", "lat": 38.895646, "lon": -77.04676216666667, "fusion_lat": 0.0, "name": "3c138eb2fbae8c945ccf1016dbbb98e9"}, {"fusion_lon": 0.0, "rental_uris": {"ios": "https://dc.lft.to/lastmile_qr_scan", "android": "https://dc.lft.to/lastmile_qr_scan"}, "type": "electric_scooter", "is_reserved": 0, "is_disabled": 0, "bike_id": "a9474185257a8e85471bff5941b29b1e", "lat": 38.907087, "lon": -77.0298155, "fusion_lat": 0.0, "name": "a9474185257a8e85471bff5941b29b1e"}, {"fusion_lon": 0.0, "rental_uris": {"ios": "https://dc.lft.to/lastmile_qr_scan", "android": "https://dc.lft.to/lastmile_qr_scan"}, "type": "electric_scooter", "is_reserved": 0, "is_disabled": 0, "bike_id": "6fb977ef381c172b63a25f2a9fa88f1d", "lat": 38.923475333333336, "lon": -77.05182016666667, "fusion_lat": 0.0, "name": "6fb977ef381c172b63a25f2a9fa88f1d"}, {"fusion_lon": 0.0, "rental_uris": {"ios": "https://dc.lft.to/lastmile_qr_scan", "android": "https://dc.lft.to/lastmile_qr_scan"}, "type": "electric_scooter", "is_reserved": 0, "is_disabled": 0, "bike_id": "5bd0e5d6ac2148448154f10b95d38147", "lat": 38.89208516666667, "lon": -76.95695283333333, "fusion_lat": 0.0, "name": "5bd0e5d6ac2148448154f10b95d38147"}, {"fusion_lon": 0.0, "rental_uris": {"ios": "https://dc.lft.to/lastmile_qr_scan", "android": "https://dc.lft.to/lastmile_qr_scan"}, "type": "electric_scooter", "is_reserved": 0, "is_disabled": 0, "bike_id": "6d4ca9788c63ce17cd3271bf4577b507", "lat": 38.925591, "lon": -77.00003883333333, "fusion_lat": 0.0, "name": "6d4ca9788c63ce17cd3271bf4577b507"}, {"fusion_lon": 0.0, "rental_uris": {"ios": "https://dc.lft.to/lastmile_qr_scan", "android": "https://dc.lft.to/lastmile_qr_scan"}, "type": "electric_scooter", "is_reserved": 0, "is_disabled": 0, "bike_id": "348e2ca821c33cffddf844be64da8d25", "lat": 38.90032133333333, "lon": -76.9891105, "fusion_lat": 0.0, "name": "348e2ca821c33cffddf844be64da8d25"}, {"fusion_lon": 0.0, "rental_uris": {"ios": "https://dc.lft.to/lastmile_qr_scan", "android": "https://dc.lft.to/lastmile_qr_scan"}, "type": "electric_bike", "is_reserved": 0, "is_disabled": 0, "bike_id": "dd10f5f032b5bfa6f3ea6c7018422fb3", "lat": 38.9950365, "lon": -77.00135616666667, "fusion_lat": 0.0, "name": "dd10f5f032b5bfa6f3ea6c7018422fb3"}, {"fusion_lon": 0.0, "rental_uris": {"ios": "https://dc.lft.to/lastmile_qr_scan", "android": "https://dc.lft.to/lastmile_qr_scan"}, "type": "electric_scooter", "is_reserved": 0, "is_disabled": 0, "bike_id": "5b38c50e78d09c072a250ecc46c2b16c", "lat": 38.89977066666667, "lon": -77.03083966666667, "fusion_lat": 0.0, "name": "5b38c50e78d09c072a250ecc46c2b16c"}, {"fusion_lon": 0.0, "rental_uris": {"ios": "https://dc.lft.to/lastmile_qr_scan", "android": "https://dc.lft.to/lastmile_qr_scan"}, "type": "electric_scooter", "is_reserved": 0, "is_disabled": 0, "bike_id": "bf9eac01620f555675938fde3dd01960", "lat": 38.91820033333333, "lon": -77.04176766666667, "fusion_lat": 0.0, "name": "bf9eac01620f555675938fde3dd01960"}, {"fusion_lon": 0.0, "rental_uris": {"ios": "https://dc.lft.to/lastmile_qr_scan", "android": "https://dc.lft.to/lastmile_qr_scan"}, "type": "electric_scooter", "is_reserved": 0, "is_disabled": 0, "bike_id": "c3453cf5d711c5cfb9dad74c077b8560", "lat": 38.8983365, "lon": -77.04551933333333, "fusion_lat": 0.0, "name": "c3453cf5d711c5cfb9dad74c077b8560"}, {"fusion_lon": 0.0, "rental_uris": {"ios": "https://dc.lft.to/lastmile_qr_scan", "android": "https://dc.lft.to/lastmile_qr_scan"}, "type": "electric_scooter", "is_reserved": 0, "is_disabled": 0, "bike_id": "2bdc4088e80e58d111c6462daaebafb6", "lat": 38.91535366666667, "lon": -77.04421633333334, "fusion_lat": 0.0, "name": "2bdc4088e80e58d111c6462daaebafb6"}, {"fusion_lon": 0.0, "rental_uris": {"ios": "https://dc.lft.to/lastmile_qr_scan", "android": "https://dc.lft.to/lastmile_qr_scan"}, "type": "electric_scooter", "is_reserved": 0, "is_disabled": 0, "bike_id": "55c71b6ae357c82a2c721f4a7fd8ad00", "lat": 38.90039733333333, "lon": -76.99147766666667, "fusion_lat": 0.0, "name": "55c71b6ae357c82a2c721f4a7fd8ad00"}, {"fusion_lon": 0.0, "rental_uris": {"ios": "https://dc.lft.to/lastmile_qr_scan", "android": "https://dc.lft.to/lastmile_qr_scan"}, "type": "electric_scooter", "is_reserved": 0, "is_disabled": 0, "bike_id": "465154a8acdb9f9a51bad71a9f87ad99", "lat": 38.90647366666666, "lon": -77.05170433333333, "fusion_lat": 0.0, "name": "465154a8acdb9f9a51bad71a9f87ad99"}, {"fusion_lon": 0.0, "rental_uris": {"ios": "https://dc.lft.to/lastmile_qr_scan", "android": "https://dc.lft.to/lastmile_qr_scan"}, "type": "electric_scooter", "is_reserved": 0, "is_disabled": 0, "bike_id": "2440489b268cdf9fb933836c29e6af6b", "lat": 38.877070333333336, "lon": -77.00297166666667, "fusion_lat": 0.0, "name": "2440489b268cdf9fb933836c29e6af6b"}, {"fusion_lon": 0.0, "rental_uris": {"ios": "https://dc.lft.to/lastmile_qr_scan", "android": "https://dc.lft.to/lastmile_qr_scan"}, "type": "electric_scooter", "is_reserved": 0, "is_disabled": 0, "bike_id": "88f66781da471eabf4e14978ca73e6af", "lat": 38.86036266666667, "lon": -76.98373733333334, "fusion_lat": 0.0, "name": "88f66781da471eabf4e14978ca73e6af"}, {"fusion_lon": 0.0, "rental_uris": {"ios": "https://dc.lft.to/lastmile_qr_scan", "android": "https://dc.lft.to/lastmile_qr_scan"}, "type": "electric_scooter", "is_reserved": 0, "is_disabled": 0, "bike_id": "f51436d2cc04bf4fd9a50a6a6394c8ea", "lat": 38.927507, "lon": -77.02964566666667, "fusion_lat": 0.0, "name": "f51436d2cc04bf4fd9a50a6a6394c8ea"}, {"fusion_lon": 0.0, "rental_uris": {"ios": "https://dc.lft.to/lastmile_qr_scan", "android": "https://dc.lft.to/lastmile_qr_scan"}, "type": "electric_bike", "is_reserved": 0, "is_disabled": 0, "bike_id": "343d4f44137cffe0a717059af3697ac6", "lat": 38.945117333333336, "lon": -77.00673, "fusion_lat": 0.0, "name": "343d4f44137cffe0a717059af3697ac6"}, {"fusion_lon": 0.0, "rental_uris": {"ios": "https://dc.lft.to/lastmile_qr_scan", "android": "https://dc.lft.to/lastmile_qr_scan"}, "type": "electric_scooter", "is_reserved": 0, "is_disabled": 0, "bike_id": "0d9e5396c63f08ad034beacd465d984c", "lat": 38.900240333333336, "lon": -77.04351966666667, "fusion_lat": 0.0, "name": "0d9e5396c63f08ad034beacd465d984c"}, {"fusion_lon": 0.0, "rental_uris": {"ios": "https://dc.lft.to/lastmile_qr_scan", "android": "https://dc.lft.to/lastmile_qr_scan"}, "type": "electric_scooter", "is_reserved": 0, "is_disabled": 0, "bike_id": "8e48b99069ca28652a691887094dc3ef", "lat": 38.896212166666665, "lon": -76.99727966666667, "fusion_lat": 0.0, "name": "8e48b99069ca28652a691887094dc3ef"}, {"fusion_lon": 0.0, "rental_uris": {"ios": "https://dc.lft.to/lastmile_qr_scan", "android": "https://dc.lft.to/lastmile_qr_scan"}, "type": "electric_scooter", "is_reserved": 0, "is_disabled": 0, "bike_id": "76b84f22d3df0c26d9c145bada72a282", "lat": 38.9385885, "lon": -77.02461566666666, "fusion_lat": 0.0, "name": "76b84f22d3df0c26d9c145bada72a282"}, {"fusion_lon": 0.0, "rental_uris": {"ios": "https://dc.lft.to/lastmile_qr_scan", "android": "https://dc.lft.to/lastmile_qr_scan"}, "type": "electric_scooter", "is_reserved": 0, "is_disabled": 0, "bike_id": "ab7ab6e63258e2995e88b930bc5de1c6", "lat": 38.92260783333333, "lon": -77.01948466666667, "fusion_lat": 0.0, "name": "ab7ab6e63258e2995e88b930bc5de1c6"}, {"fusion_lon": 0.0, "rental_uris": {"ios": "https://dc.lft.to/lastmile_qr_scan", "android": "https://dc.lft.to/lastmile_qr_scan"}, "type": "electric_scooter", "is_reserved": 0, "is_disabled": 0, "bike_id": "c3e7da98a4629648b4d643312dabba1b", "lat": 38.927064666666666, "lon": -77.02084183333334, "fusion_lat": 0.0, "name": "c3e7da98a4629648b4d643312dabba1b"}, {"fusion_lon": 0.0, "rental_uris": {"ios": "https://dc.lft.to/lastmile_qr_scan", "android": "https://dc.lft.to/lastmile_qr_scan"}, "type": "electric_scooter", "is_reserved": 0, "is_disabled": 0, "bike_id": "5705fee3e84f09dd6287a698ce7224bf", "lat": 38.898514166666665, "lon": -77.028621, "fusion_lat": 0.0, "name": "5705fee3e84f09dd6287a698ce7224bf"}, {"fusion_lon": 0.0, "rental_uris": {"ios": "https://dc.lft.to/lastmile_qr_scan", "android": "https://dc.lft.to/lastmile_qr_scan"}, "type": "electric_scooter", "is_reserved": 0, "is_disabled": 0, "bike_id": "0b666f4e55abcab4c54a31825744ea5a", "lat": 38.906658, "lon": -77.04341566666666, "fusion_lat": 0.0, "name": "0b666f4e55abcab4c54a31825744ea5a"}, {"fusion_lon": 0.0, "rental_uris": {"ios": "https://dc.lft.to/lastmile_qr_scan", "android": "https://dc.lft.to/lastmile_qr_scan"}, "type": "electric_scooter", "is_reserved": 0, "is_disabled": 0, "bike_id": "b997468bff38c794ca19c6814d8c91ec", "lat": 38.9133015, "lon": -77.04532416666666, "fusion_lat": 0.0, "name": "b997468bff38c794ca19c6814d8c91ec"}, {"fusion_lon": 0.0, "rental_uris": {"ios": "https://dc.lft.to/lastmile_qr_scan", "android": "https://dc.lft.to/lastmile_qr_scan"}, "type": "electric_scooter", "is_reserved": 0, "is_disabled": 0, "bike_id": "da2582bb247b5a392f79694affdef7f2", "lat": 38.91406333333333, "lon": -77.032521, "fusion_lat": 0.0, "name": "da2582bb247b5a392f79694affdef7f2"}, {"fusion_lon": 0.0, "rental_uris": {"ios": "https://dc.lft.to/lastmile_qr_scan", "android": "https://dc.lft.to/lastmile_qr_scan"}, "type": "electric_scooter", "is_reserved": 0, "is_disabled": 0, "bike_id": "6e12479fe9c4d0f014fca9eb199a3a33", "lat": 38.911886333333335, "lon": -77.06082883333333, "fusion_lat": 0.0, "name": "6e12479fe9c4d0f014fca9eb199a3a33"}, {"fusion_lon": 0.0, "rental_uris": {"ios": "https://dc.lft.to/lastmile_qr_scan", "android": "https://dc.lft.to/lastmile_qr_scan"}, "type": "electric_scooter", "is_reserved": 0, "is_disabled": 0, "bike_id": "23defbc3a5e000c9b4d8e4c14e30c5cf", "lat": 38.90607933333333, "lon": -77.0404095, "fusion_lat": 0.0, "name": "23defbc3a5e000c9b4d8e4c14e30c5cf"}, {"fusion_lon": 0.0, "rental_uris": {"ios": "https://dc.lft.to/lastmile_qr_scan", "android": "https://dc.lft.to/lastmile_qr_scan"}, "type": "electric_bike", "is_reserved": 0, "is_disabled": 0, "bike_id": "92d13723ad79739a8fe8ce99fa9bf911", "lat": 38.9457475, "lon": -76.98112483333334, "fusion_lat": 0.0, "name": "92d13723ad79739a8fe8ce99fa9bf911"}, {"fusion_lon": 0.0, "rental_uris": {"ios": "https://dc.lft.to/lastmile_qr_scan", "android": "https://dc.lft.to/lastmile_qr_scan"}, "type": "electric_bike", "is_reserved": 0, "is_disabled": 0, "bike_id": "751d1aacfe690d8d764d428f27ae7083", "lat": 38.900355, "lon": -76.97225683333333, "fusion_lat": 0.0, "name": "751d1aacfe690d8d764d428f27ae7083"}, {"fusion_lon": 0.0, "rental_uris": {"ios": "https://dc.lft.to/lastmile_qr_scan", "android": "https://dc.lft.to/lastmile_qr_scan"}, "type": "electric_scooter", "is_reserved": 0, "is_disabled": 0, "bike_id": "f708e2c3d3972038d7d2300f8b539f4d", "lat": 38.94496516666667, "lon": -77.028496, "fusion_lat": 0.0, "name": "f708e2c3d3972038d7d2300f8b539f4d"}, {"fusion_lon": 0.0, "rental_uris": {"ios": "https://dc.lft.to/lastmile_qr_scan", "android": "https://dc.lft.to/lastmile_qr_scan"}, "type": "electric_scooter", "is_reserved": 0, "is_disabled": 0, "bike_id": "ebe794d735394bdef564e5e363ec3065", "lat": 38.920717333333336, "lon": -77.04379616666667, "fusion_lat": 0.0, "name": "ebe794d735394bdef564e5e363ec3065"}, {"fusion_lon": 0.0, "rental_uris": {"ios": "https://dc.lft.to/lastmile_qr_scan", "android": "https://dc.lft.to/lastmile_qr_scan"}, "type": "electric_scooter", "is_reserved": 0, "is_disabled": 0, "bike_id": "c993581fda9d5c73f4521120df628d04", "lat": 38.8922065, "lon": -77.03162383333333, "fusion_lat": 0.0, "name": "c993581fda9d5c73f4521120df628d04"}, {"fusion_lon": 0.0, "rental_uris": {"ios": "https://dc.lft.to/lastmile_qr_scan", "android": "https://dc.lft.to/lastmile_qr_scan"}, "type": "electric_scooter", "is_reserved": 0, "is_disabled": 0, "bike_id": "d1a39a01de6c7ad3a7c09b694ea5eef5", "lat": 38.9060445, "lon": -77.06374233333334, "fusion_lat": 0.0, "name": "d1a39a01de6c7ad3a7c09b694ea5eef5"}, {"fusion_lon": 0.0, "rental_uris": {"ios": "https://dc.lft.to/lastmile_qr_scan", "android": "https://dc.lft.to/lastmile_qr_scan"}, "type": "electric_scooter", "is_reserved": 0, "is_disabled": 0, "bike_id": "ae0c2e52216e9c558128601857349327", "lat": 38.9627675, "lon": -77.0302625, "fusion_lat": 0.0, "name": "ae0c2e52216e9c558128601857349327"}, {"fusion_lon": 0.0, "rental_uris": {"ios": "https://dc.lft.to/lastmile_qr_scan", "android": "https://dc.lft.to/lastmile_qr_scan"}, "type": "electric_scooter", "is_reserved": 0, "is_disabled": 0, "bike_id": "9319e60efd9e1bda60e9a0cf146ef320", "lat": 38.8986085, "lon": -77.04030383333334, "fusion_lat": 0.0, "name": "9319e60efd9e1bda60e9a0cf146ef320"}, {"fusion_lon": 0.0, "rental_uris": {"ios": "https://dc.lft.to/lastmile_qr_scan", "android": "https://dc.lft.to/lastmile_qr_scan"}, "type": "electric_scooter", "is_reserved": 0, "is_disabled": 0, "bike_id": "d5783f70393e09ef5cf31ffe2d11bcec", "lat": 38.92044466666667, "lon": -77.0388555, "fusion_lat": 0.0, "name": "d5783f70393e09ef5cf31ffe2d11bcec"}, {"fusion_lon": 0.0, "rental_uris": {"ios": "https://dc.lft.to/lastmile_qr_scan", "android": "https://dc.lft.to/lastmile_qr_scan"}, "type": "electric_scooter", "is_reserved": 0, "is_disabled": 0, "bike_id": "61cdffb2af9aab2f6fcfd91f2dca0a49", "lat": 38.939554666666666, "lon": -77.07247, "fusion_lat": 0.0, "name": "61cdffb2af9aab2f6fcfd91f2dca0a49"}, {"fusion_lon": 0.0, "rental_uris": {"ios": "https://dc.lft.to/lastmile_qr_scan", "android": "https://dc.lft.to/lastmile_qr_scan"}, "type": "electric_scooter", "is_reserved": 0, "is_disabled": 0, "bike_id": "50a1ad2f90691daba1b3258110161a03", "lat": 38.927545333333335, "lon": -77.02112133333334, "fusion_lat": 0.0, "name": "50a1ad2f90691daba1b3258110161a03"}, {"fusion_lon": 0.0, "rental_uris": {"ios": "https://dc.lft.to/lastmile_qr_scan", "android": "https://dc.lft.to/lastmile_qr_scan"}, "type": "electric_scooter", "is_reserved": 0, "is_disabled": 0, "bike_id": "e93f4d7f17d8eba8ebec98b51ad30fb8", "lat": 38.89558866666667, "lon": -77.00915583333334, "fusion_lat": 0.0, "name": "e93f4d7f17d8eba8ebec98b51ad30fb8"}, {"fusion_lon": 0.0, "rental_uris": {"ios": "https://dc.lft.to/lastmile_qr_scan", "android": "https://dc.lft.to/lastmile_qr_scan"}, "type": "electric_scooter", "is_reserved": 0, "is_disabled": 0, "bike_id": "d20da3eb22abfa7663ed4de4b6c4584c", "lat": 38.901244, "lon": -77.03370666666666, "fusion_lat": 0.0, "name": "d20da3eb22abfa7663ed4de4b6c4584c"}, {"fusion_lon": 0.0, "rental_uris": {"ios": "https://dc.lft.to/lastmile_qr_scan", "android": "https://dc.lft.to/lastmile_qr_scan"}, "type": "electric_scooter", "is_reserved": 0, "is_disabled": 0, "bike_id": "56bd46705073cc02833ee1c7d1f793a3", "lat": 38.92894583333333, "lon": -77.0362695, "fusion_lat": 0.0, "name": "56bd46705073cc02833ee1c7d1f793a3"}, {"fusion_lon": 0.0, "rental_uris": {"ios": "https://dc.lft.to/lastmile_qr_scan", "android": "https://dc.lft.to/lastmile_qr_scan"}, "type": "electric_bike", "is_reserved": 0, "is_disabled": 0, "bike_id": "08f22cb086fe43fd160d2df5aa0226c1", "lat": 38.928987, "lon": -77.23176866666667, "fusion_lat": 0.0, "name": "08f22cb086fe43fd160d2df5aa0226c1"}, {"fusion_lon": 0.0, "rental_uris": {"ios": "https://dc.lft.to/lastmile_qr_scan", "android": "https://dc.lft.to/lastmile_qr_scan"}, "type": "electric_scooter", "is_reserved": 0, "is_disabled": 0, "bike_id": "0431abaa662b6dc304d5d843987e3b58", "lat": 38.9002725, "lon": -77.023078, "fusion_lat": 0.0, "name": "0431abaa662b6dc304d5d843987e3b58"}, {"fusion_lon": 0.0, "rental_uris": {"ios": "https://dc.lft.to/lastmile_qr_scan", "android": "https://dc.lft.to/lastmile_qr_scan"}, "type": "electric_scooter", "is_reserved": 0, "is_disabled": 0, "bike_id": "009b348bbee7b9a9001febbdfaebe0af", "lat": 38.920615, "lon": -77.02308416666666, "fusion_lat": 0.0, "name": "009b348bbee7b9a9001febbdfaebe0af"}, {"fusion_lon": 0.0, "rental_uris": {"ios": "https://dc.lft.to/lastmile_qr_scan", "android": "https://dc.lft.to/lastmile_qr_scan"}, "type": "electric_scooter", "is_reserved": 0, "is_disabled": 0, "bike_id": "db7323a79e547edaf504c0b64f193904", "lat": 38.92057333333333, "lon": -77.0230465, "fusion_lat": 0.0, "name": "db7323a79e547edaf504c0b64f193904"}, {"fusion_lon": 0.0, "rental_uris": {"ios": "https://dc.lft.to/lastmile_qr_scan", "android": "https://dc.lft.to/lastmile_qr_scan"}, "type": "electric_scooter", "is_reserved": 0, "is_disabled": 0, "bike_id": "189770b023e9506dd06d9ee23f7b47b0", "lat": 38.886488, "lon": -77.000945, "fusion_lat": 0.0, "name": "189770b023e9506dd06d9ee23f7b47b0"}, {"fusion_lon": 0.0, "rental_uris": {"ios": "https://dc.lft.to/lastmile_qr_scan", "android": "https://dc.lft.to/lastmile_qr_scan"}, "type": "electric_scooter", "is_reserved": 0, "is_disabled": 0, "bike_id": "bb96b765884577ecb75ddc8374934077", "lat": 38.89225283333333, "lon": -77.03173716666667, "fusion_lat": 0.0, "name": "bb96b765884577ecb75ddc8374934077"}, {"fusion_lon": 0.0, "rental_uris": {"ios": "https://dc.lft.to/lastmile_qr_scan", "android": "https://dc.lft.to/lastmile_qr_scan"}, "type": "electric_scooter", "is_reserved": 0, "is_disabled": 0, "bike_id": "2e9aa9891a884e8411820e08b0acd9a9", "lat": 38.915933333333335, "lon": -77.04537816666667, "fusion_lat": 0.0, "name": "2e9aa9891a884e8411820e08b0acd9a9"}, {"fusion_lon": 0.0, "rental_uris": {"ios": "https://dc.lft.to/lastmile_qr_scan", "android": "https://dc.lft.to/lastmile_qr_scan"}, "type": "electric_scooter", "is_reserved": 0, "is_disabled": 0, "bike_id": "268536d86ddbbad8a0199d1a21cd3e98", "lat": 38.8989895, "lon": -77.03931216666666, "fusion_lat": 0.0, "name": "268536d86ddbbad8a0199d1a21cd3e98"}, {"fusion_lon": 0.0, "rental_uris": {"ios": "https://dc.lft.to/lastmile_qr_scan", "android": "https://dc.lft.to/lastmile_qr_scan"}, "type": "electric_scooter", "is_reserved": 0, "is_disabled": 0, "bike_id": "092828c72e0f46a7232c4faf4132cc0f", "lat": 38.95816083333333, "lon": -77.01455033333333, "fusion_lat": 0.0, "name": "092828c72e0f46a7232c4faf4132cc0f"}, {"fusion_lon": 0.0, "rental_uris": {"ios": "https://dc.lft.to/lastmile_qr_scan", "android": "https://dc.lft.to/lastmile_qr_scan"}, "type": "electric_bike", "is_reserved": 0, "is_disabled": 0, "bike_id": "84de9767c04e7034afea607d302e4070", "lat": 38.838378, "lon": -77.07905383333333, "fusion_lat": 0.0, "name": "84de9767c04e7034afea607d302e4070"}, {"fusion_lon": 0.0, "rental_uris": {"ios": "https://dc.lft.to/lastmile_qr_scan", "android": "https://dc.lft.to/lastmile_qr_scan"}, "type": "electric_scooter", "is_reserved": 0, "is_disabled": 0, "bike_id": "2a2097084425543a7c1945a1d229e654", "lat": 38.90122066666667, "lon": -77.04349233333333, "fusion_lat": 0.0, "name": "2a2097084425543a7c1945a1d229e654"}, {"fusion_lon": 0.0, "rental_uris": {"ios": "https://dc.lft.to/lastmile_qr_scan", "android": "https://dc.lft.to/lastmile_qr_scan"}, "type": "electric_scooter", "is_reserved": 0, "is_disabled": 0, "bike_id": "0cdae05b69ae5255ce014031e08ddcc0", "lat": 38.91720733333333, "lon": -77.029769, "fusion_lat": 0.0, "name": "0cdae05b69ae5255ce014031e08ddcc0"}, {"fusion_lon": 0.0, "rental_uris": {"ios": "https://dc.lft.to/lastmile_qr_scan", "android": "https://dc.lft.to/lastmile_qr_scan"}, "type": "electric_scooter", "is_reserved": 0, "is_disabled": 0, "bike_id": "bfa3b9209945bd596cf3336cc6f6c7e7", "lat": 38.926547666666664, "lon": -77.03713566666667, "fusion_lat": 0.0, "name": "bfa3b9209945bd596cf3336cc6f6c7e7"}, {"fusion_lon": 0.0, "rental_uris": {"ios": "https://dc.lft.to/lastmile_qr_scan", "android": "https://dc.lft.to/lastmile_qr_scan"}, "type": "electric_scooter", "is_reserved": 0, "is_disabled": 0, "bike_id": "2eeacb6faa44d85174c08020ce2b75df", "lat": 38.903401333333335, "lon": -77.05905516666667, "fusion_lat": 0.0, "name": "2eeacb6faa44d85174c08020ce2b75df"}, {"fusion_lon": 0.0, "rental_uris": {"ios": "https://dc.lft.to/lastmile_qr_scan", "android": "https://dc.lft.to/lastmile_qr_scan"}, "type": "electric_scooter", "is_reserved": 0, "is_disabled": 0, "bike_id": "38232711591ddb94de3b8fedd86718bb", "lat": 38.948842666666664, "lon": -77.08062366666667, "fusion_lat": 0.0, "name": "38232711591ddb94de3b8fedd86718bb"}, {"fusion_lon": 0.0, "rental_uris": {"ios": "https://dc.lft.to/lastmile_qr_scan", "android": "https://dc.lft.to/lastmile_qr_scan"}, "type": "electric_scooter", "is_reserved": 0, "is_disabled": 0, "bike_id": "b50b548e1bef1b051cdd3448591490d1", "lat": 38.920713666666664, "lon": -77.0220695, "fusion_lat": 0.0, "name": "b50b548e1bef1b051cdd3448591490d1"}, {"fusion_lon": 0.0, "rental_uris": {"ios": "https://dc.lft.to/lastmile_qr_scan", "android": "https://dc.lft.to/lastmile_qr_scan"}, "type": "electric_scooter", "is_reserved": 0, "is_disabled": 0, "bike_id": "165a33bc0bb2d15b1ffc1adc8a4b1c79", "lat": 38.897997833333335, "lon": -77.02201966666667, "fusion_lat": 0.0, "name": "165a33bc0bb2d15b1ffc1adc8a4b1c79"}, {"fusion_lon": 0.0, "rental_uris": {"ios": "https://dc.lft.to/lastmile_qr_scan", "android": "https://dc.lft.to/lastmile_qr_scan"}, "type": "electric_bike", "is_reserved": 0, "is_disabled": 0, "bike_id": "a7415f0946e0a6a185834897b7f2ea86", "lat": 38.83141716666667, "lon": -77.11318216666666, "fusion_lat": 0.0, "name": "a7415f0946e0a6a185834897b7f2ea86"}, {"fusion_lon": 0.0, "rental_uris": {"ios": "https://dc.lft.to/lastmile_qr_scan", "android": "https://dc.lft.to/lastmile_qr_scan"}, "type": "electric_scooter", "is_reserved": 0, "is_disabled": 0, "bike_id": "ed1f2750cd25096808688f3217ad4d3f", "lat": 38.909772833333335, "lon": -77.009025, "fusion_lat": 0.0, "name": "ed1f2750cd25096808688f3217ad4d3f"}, {"fusion_lon": 0.0, "rental_uris": {"ios": "https://dc.lft.to/lastmile_qr_scan", "android": "https://dc.lft.to/lastmile_qr_scan"}, "type": "electric_scooter", "is_reserved": 0, "is_disabled": 0, "bike_id": "cb7f57f9c25227efa314fb2be4774275", "lat": 38.91981916666667, "lon": -77.021724, "fusion_lat": 0.0, "name": "cb7f57f9c25227efa314fb2be4774275"}, {"fusion_lon": 0.0, "rental_uris": {"ios": "https://dc.lft.to/lastmile_qr_scan", "android": "https://dc.lft.to/lastmile_qr_scan"}, "type": "electric_scooter", "is_reserved": 0, "is_disabled": 0, "bike_id": "b8f9c2faeeb633cc7c0df3d66d29b103", "lat": 38.91634966666667, "lon": -77.03502216666666, "fusion_lat": 0.0, "name": "b8f9c2faeeb633cc7c0df3d66d29b103"}, {"fusion_lon": 0.0, "rental_uris": {"ios": "https://dc.lft.to/lastmile_qr_scan", "android": "https://dc.lft.to/lastmile_qr_scan"}, "type": "electric_scooter", "is_reserved": 0, "is_disabled": 0, "bike_id": "88ddd00f9c2c497067f6a31c9e59de9f", "lat": 38.897357666666664, "lon": -77.030666, "fusion_lat": 0.0, "name": "88ddd00f9c2c497067f6a31c9e59de9f"}, {"fusion_lon": 0.0, "rental_uris": {"ios": "https://dc.lft.to/lastmile_qr_scan", "android": "https://dc.lft.to/lastmile_qr_scan"}, "type": "electric_scooter", "is_reserved": 0, "is_disabled": 0, "bike_id": "653ca6416cc8898c8ded0bfba86e9ac1", "lat": 38.9233175, "lon": -77.053986, "fusion_lat": 0.0, "name": "653ca6416cc8898c8ded0bfba86e9ac1"}, {"fusion_lon": 0.0, "rental_uris": {"ios": "https://dc.lft.to/lastmile_qr_scan", "android": "https://dc.lft.to/lastmile_qr_scan"}, "type": "electric_scooter", "is_reserved": 0, "is_disabled": 0, "bike_id": "0a135e73c90cea09403d8cbbd2e89e81", "lat": 38.886139166666666, "lon": -77.00333816666667, "fusion_lat": 0.0, "name": "0a135e73c90cea09403d8cbbd2e89e81"}, {"fusion_lon": 0.0, "rental_uris": {"ios": "https://dc.lft.to/lastmile_qr_scan", "android": "https://dc.lft.to/lastmile_qr_scan"}, "type": "electric_scooter", "is_reserved": 0, "is_disabled": 0, "bike_id": "ca4ac07ae53e4b47a459602a24ae76a3", "lat": 38.89985316666667, "lon": -77.02191933333333, "fusion_lat": 0.0, "name": "ca4ac07ae53e4b47a459602a24ae76a3"}, {"fusion_lon": 0.0, "rental_uris": {"ios": "https://dc.lft.to/lastmile_qr_scan", "android": "https://dc.lft.to/lastmile_qr_scan"}, "type": "electric_scooter", "is_reserved": 0, "is_disabled": 0, "bike_id": "2daa2a219f8dd71b8262dce2598263a5", "lat": 38.88870816666667, "lon": -77.03999866666666, "fusion_lat": 0.0, "name": "2daa2a219f8dd71b8262dce2598263a5"}, {"fusion_lon": 0.0, "rental_uris": {"ios": "https://dc.lft.to/lastmile_qr_scan", "android": "https://dc.lft.to/lastmile_qr_scan"}, "type": "electric_scooter", "is_reserved": 0, "is_disabled": 0, "bike_id": "99af6be4e5d5707bccb333905b28c810", "lat": 38.93934766666667, "lon": -77.03271766666667, "fusion_lat": 0.0, "name": "99af6be4e5d5707bccb333905b28c810"}, {"fusion_lon": 0.0, "rental_uris": {"ios": "https://dc.lft.to/lastmile_qr_scan", "android": "https://dc.lft.to/lastmile_qr_scan"}, "type": "electric_scooter", "is_reserved": 0, "is_disabled": 0, "bike_id": "4cfcb0cde1ac266159637b2890a79c62", "lat": 38.92677483333333, "lon": -77.04063133333334, "fusion_lat": 0.0, "name": "4cfcb0cde1ac266159637b2890a79c62"}, {"fusion_lon": 0.0, "rental_uris": {"ios": "https://dc.lft.to/lastmile_qr_scan", "android": "https://dc.lft.to/lastmile_qr_scan"}, "type": "electric_scooter", "is_reserved": 0, "is_disabled": 0, "bike_id": "ab864018901275b79e25a92ff929f8f1", "lat": 38.9020655, "lon": -77.03814133333333, "fusion_lat": 0.0, "name": "ab864018901275b79e25a92ff929f8f1"}, {"fusion_lon": 0.0, "rental_uris": {"ios": "https://dc.lft.to/lastmile_qr_scan", "android": "https://dc.lft.to/lastmile_qr_scan"}, "type": "electric_scooter", "is_reserved": 0, "is_disabled": 0, "bike_id": "10dfa6ef05078977eb7566f0104559a9", "lat": 38.92421733333333, "lon": -77.02277233333334, "fusion_lat": 0.0, "name": "10dfa6ef05078977eb7566f0104559a9"}, {"fusion_lon": 0.0, "rental_uris": {"ios": "https://dc.lft.to/lastmile_qr_scan", "android": "https://dc.lft.to/lastmile_qr_scan"}, "type": "electric_scooter", "is_reserved": 0, "is_disabled": 0, "bike_id": "51cef0abd8f9a83ef07dde5b02556909", "lat": 38.8993375, "lon": -77.0500095, "fusion_lat": 0.0, "name": "51cef0abd8f9a83ef07dde5b02556909"}, {"fusion_lon": 0.0, "rental_uris": {"ios": "https://dc.lft.to/lastmile_qr_scan", "android": "https://dc.lft.to/lastmile_qr_scan"}, "type": "electric_scooter", "is_reserved": 0, "is_disabled": 0, "bike_id": "c07add2d1daea39f3e4c8119166a28d5", "lat": 38.921033333333334, "lon": -77.02507866666667, "fusion_lat": 0.0, "name": "c07add2d1daea39f3e4c8119166a28d5"}, {"fusion_lon": 0.0, "rental_uris": {"ios": "https://dc.lft.to/lastmile_qr_scan", "android": "https://dc.lft.to/lastmile_qr_scan"}, "type": "electric_scooter", "is_reserved": 0, "is_disabled": 0, "bike_id": "951faea44930d51fe6c7d001100f6396", "lat": 38.930616666666666, "lon": -77.039407, "fusion_lat": 0.0, "name": "951faea44930d51fe6c7d001100f6396"}, {"fusion_lon": 0.0, "rental_uris": {"ios": "https://dc.lft.to/lastmile_qr_scan", "android": "https://dc.lft.to/lastmile_qr_scan"}, "type": "electric_scooter", "is_reserved": 0, "is_disabled": 0, "bike_id": "878b168a6ee3787b1917d51dbb340050", "lat": 38.9218045, "lon": -77.021053, "fusion_lat": 0.0, "name": "878b168a6ee3787b1917d51dbb340050"}, {"fusion_lon": 0.0, "rental_uris": {"ios": "https://dc.lft.to/lastmile_qr_scan", "android": "https://dc.lft.to/lastmile_qr_scan"}, "type": "electric_scooter", "is_reserved": 0, "is_disabled": 0, "bike_id": "3f4d7ee34cb71945f2347fd6c9a35f9d", "lat": 38.89273033333333, "lon": -76.98372183333333, "fusion_lat": 0.0, "name": "3f4d7ee34cb71945f2347fd6c9a35f9d"}, {"fusion_lon": 0.0, "rental_uris": {"ios": "https://dc.lft.to/lastmile_qr_scan", "android": "https://dc.lft.to/lastmile_qr_scan"}, "type": "electric_scooter", "is_reserved": 0, "is_disabled": 0, "bike_id": "1b39884df66e0c62a99b674fade0e767", "lat": 38.9289865, "lon": -77.05458233333333, "fusion_lat": 0.0, "name": "1b39884df66e0c62a99b674fade0e767"}, {"fusion_lon": 0.0, "rental_uris": {"ios": "https://dc.lft.to/lastmile_qr_scan", "android": "https://dc.lft.to/lastmile_qr_scan"}, "type": "electric_scooter", "is_reserved": 0, "is_disabled": 0, "bike_id": "3b5f2bd29d51ecb0ec92cd58e0dde83c", "lat": 38.919947666666665, "lon": -77.021743, "fusion_lat": 0.0, "name": "3b5f2bd29d51ecb0ec92cd58e0dde83c"}, {"fusion_lon": 0.0, "rental_uris": {"ios": "https://dc.lft.to/lastmile_qr_scan", "android": "https://dc.lft.to/lastmile_qr_scan"}, "type": "electric_scooter", "is_reserved": 0, "is_disabled": 0, "bike_id": "6f056ba3f33627776bce898972f8eee4", "lat": 38.94935916666667, "lon": -77.0184625, "fusion_lat": 0.0, "name": "6f056ba3f33627776bce898972f8eee4"}, {"fusion_lon": 0.0, "rental_uris": {"ios": "https://dc.lft.to/lastmile_qr_scan", "android": "https://dc.lft.to/lastmile_qr_scan"}, "type": "electric_scooter", "is_reserved": 0, "is_disabled": 0, "bike_id": "f40508a1c81e58fd08009fb849034e3b", "lat": 38.900844166666666, "lon": -77.05000433333333, "fusion_lat": 0.0, "name": "f40508a1c81e58fd08009fb849034e3b"}, {"fusion_lon": 0.0, "rental_uris": {"ios": "https://dc.lft.to/lastmile_qr_scan", "android": "https://dc.lft.to/lastmile_qr_scan"}, "type": "electric_scooter", "is_reserved": 0, "is_disabled": 0, "bike_id": "7d55a251e3cd17f2d1af6e99e92a712a", "lat": 38.91270083333333, "lon": -77.02223466666666, "fusion_lat": 0.0, "name": "7d55a251e3cd17f2d1af6e99e92a712a"}, {"fusion_lon": 0.0, "rental_uris": {"ios": "https://dc.lft.to/lastmile_qr_scan", "android": "https://dc.lft.to/lastmile_qr_scan"}, "type": "electric_scooter", "is_reserved": 0, "is_disabled": 0, "bike_id": "443f292fcc76bd78f1d2ac1aebc31761", "lat": 38.921392833333336, "lon": -77.01806466666666, "fusion_lat": 0.0, "name": "443f292fcc76bd78f1d2ac1aebc31761"}, {"fusion_lon": 0.0, "rental_uris": {"ios": "https://dc.lft.to/lastmile_qr_scan", "android": "https://dc.lft.to/lastmile_qr_scan"}, "type": "electric_scooter", "is_reserved": 0, "is_disabled": 0, "bike_id": "8f942d016171193badacbfccb875da96", "lat": 38.893589166666665, "lon": -77.00337216666667, "fusion_lat": 0.0, "name": "8f942d016171193badacbfccb875da96"}, {"fusion_lon": 0.0, "rental_uris": {"ios": "https://dc.lft.to/lastmile_qr_scan", "android": "https://dc.lft.to/lastmile_qr_scan"}, "type": "electric_scooter", "is_reserved": 0, "is_disabled": 0, "bike_id": "3497b977319fc575bab3c17b555dc4b8", "lat": 38.921285833333336, "lon": -77.02509566666667, "fusion_lat": 0.0, "name": "3497b977319fc575bab3c17b555dc4b8"}, {"fusion_lon": 0.0, "rental_uris": {"ios": "https://dc.lft.to/lastmile_qr_scan", "android": "https://dc.lft.to/lastmile_qr_scan"}, "type": "electric_bike", "is_reserved": 0, "is_disabled": 0, "bike_id": "caa9278ac51d328e05137bf8f6a2be37", "lat": 38.875821333333334, "lon": -77.2341345, "fusion_lat": 0.0, "name": "caa9278ac51d328e05137bf8f6a2be37"}, {"fusion_lon": 0.0, "rental_uris": {"ios": "https://dc.lft.to/lastmile_qr_scan", "android": "https://dc.lft.to/lastmile_qr_scan"}, "type": "electric_scooter", "is_reserved": 0, "is_disabled": 0, "bike_id": "0c536508da4896ecdafd1f3bf304f0a8", "lat": 38.89536983333333, "lon": -76.94888066666667, "fusion_lat": 0.0, "name": "0c536508da4896ecdafd1f3bf304f0a8"}, {"fusion_lon": 0.0, "rental_uris": {"ios": "https://dc.lft.to/lastmile_qr_scan", "android": "https://dc.lft.to/lastmile_qr_scan"}, "type": "electric_scooter", "is_reserved": 0, "is_disabled": 0, "bike_id": "b1012486b8b1af1a710fccafbbcfbc78", "lat": 38.88860783333333, "lon": -76.97907483333333, "fusion_lat": 0.0, "name": "b1012486b8b1af1a710fccafbbcfbc78"}, {"fusion_lon": 0.0, "rental_uris": {"ios": "https://dc.lft.to/lastmile_qr_scan", "android": "https://dc.lft.to/lastmile_qr_scan"}, "type": "electric_scooter", "is_reserved": 0, "is_disabled": 0, "bike_id": "916ec1810b320ea48dac171a93a0e4ee", "lat": 38.90982116666667, "lon": -77.00883033333334, "fusion_lat": 0.0, "name": "916ec1810b320ea48dac171a93a0e4ee"}, {"fusion_lon": 0.0, "rental_uris": {"ios": "https://dc.lft.to/lastmile_qr_scan", "android": "https://dc.lft.to/lastmile_qr_scan"}, "type": "electric_scooter", "is_reserved": 0, "is_disabled": 0, "bike_id": "43a731de7c2faaac611a535c767ae90d", "lat": 38.89358716666667, "lon": -77.0033515, "fusion_lat": 0.0, "name": "43a731de7c2faaac611a535c767ae90d"}, {"fusion_lon": 0.0, "rental_uris": {"ios": "https://dc.lft.to/lastmile_qr_scan", "android": "https://dc.lft.to/lastmile_qr_scan"}, "type": "electric_scooter", "is_reserved": 0, "is_disabled": 0, "bike_id": "4335124b1dd7fca8912b23dff5f877ab", "lat": 38.890500333333335, "lon": -76.98973133333334, "fusion_lat": 0.0, "name": "4335124b1dd7fca8912b23dff5f877ab"},