{"data": {"bikes": [{"fusion_lat": 0.0, "name": "0a054fbcaaeec4b1f98b75d5848c0603", "is_disabled": 0, "rental_uris": {"android": "https://dc.lft.to/lastmile_qr_scan", "ios": "https://dc.lft.to/lastmile_qr_scan"}, "fusion_lon": 0.0, "lat": 38.9023475, "bike_id": "0a054fbcaaeec4b1f98b75d5848c0603", "type": "electric_scooter", "is_reserved": 0, "lon": -77.018088}, {"fusion_lat": 0.0, "name": "2488329d62866fdf14a0df34d07e5cf4", "is_disabled": 0, "rental_uris": {"android": "https://dc.lft.to/lastmile_qr_scan", "ios": "https://dc.lft.to/lastmile_qr_scan"}, "fusion_lon": 0.0, "lat": 38.94273883333334, "bike_id": "2488329d62866fdf14a0df34d07e5cf4", "type": "electric_scooter", "is_reserved": 0, "lon": -77.03263083333333}, {"fusion_lat": 0.0, "name": "6a3231adbddf012950f31172d82693df", "is_disabled": 0, "rental_uris": {"android": "https://dc.lft.to/lastmile_qr_scan", "ios": "https://dc.lft.to/lastmile_qr_scan"}, "fusion_lon": 0.0, "lat": 38.934886666666664, "bike_id": "6a3231adbddf012950f31172d82693df", "type": "electric_scooter", "is_reserved": 0, "lon": -77.07272033333334}, {"fusion_lat": 0.0, "name": "da1598dbbc36309b26e0659ea580cb7b", "is_disabled": 0, "rental_uris": {"android": "https://dc.lft.to/lastmile_qr_scan", "ios": "https://dc.lft.to/lastmile_qr_scan"}, "fusion_lon": 0.0, "lat": 38.89791683333333, "bike_id": "da1598dbbc36309b26e0659ea580cb7b", "type": "electric_scooter", "is_reserved": 0, "lon": -76.947304}, {"fusion_lat": 0.0, "name": "d9cde6a1b9c9eb679374f4697e0a81e1", "is_disabled": 0, "rental_uris": {"android": "https://dc.lft.to/lastmile_qr_scan", "ios": "https://dc.lft.to/lastmile_qr_scan"}, "fusion_lon": 0.0, "lat": 38.902682, "bike_id": "d9cde6a1b9c9eb679374f4697e0a81e1", "type": "electric_scooter", "is_reserved": 0, "lon": -77.03627433333334}, {"fusion_lat": 0.0, "name": "2f2446394a1dbf2702e02ba80c838d19", "is_disabled": 0, "rental_uris": {"android": "https://dc.lft.to/lastmile_qr_scan", "ios": "https://dc.lft.to/lastmile_qr_scan"}, "fusion_lon": 0.0, "lat": 38.914793333333336, "bike_id": "2f2446394a1dbf2702e02ba80c838d19", "type": "electric_scooter", "is_reserved": 0, "lon": -77.042444}, {"fusion_lat": 0.0, "name": "55271ab1eb363a1d299b1bb3051c29e5", "is_disabled": 0, "rental_uris": {"android": "https://dc.lft.to/lastmile_qr_scan", "ios": "https://dc.lft.to/lastmile_qr_scan"}, "fusion_lon": 0.0, "lat": 38.90814133333333, "bike_id": "55271ab1eb363a1d299b1bb3051c29e5", "type": "electric_scooter", "is_reserved": 0, "lon": -77.03462166666667}, {"fusion_lat": 0.0, "name": "f36d761547f9eb260dc4a11a890c8f5e", "is_disabled": 0, "rental_uris": {"android": "https://dc.lft.to/lastmile_qr_scan", "ios": "https://dc.lft.to/lastmile_qr_scan"}, "fusion_lon": 0.0, "lat": 38.9234745, "bike_id": "f36d761547f9eb260dc4a11a890c8f5e", "type": "electric_scooter", "is_reserved": 0, "lon": -77.03908}, {"fusion_lat": 0.0, "name": "5f97e6eb009cd621db048c3e7cfda0dc", "is_disabled": 0, "rental_uris": {"android": "https://dc.lft.to/lastmile_qr_scan", "ios": "https://dc.lft.to/lastmile_qr_scan"}, "fusion_lon": 0.0, "lat": 38.87533066666667, "bike_id": "5f97e6eb009cd621db048c3e7cfda0dc", "type": "electric_scooter", "is_reserved": 0, "lon": -77.0050625}, {"fusion_lat": 0.0, "name": "f8ba88f1897171ab881044572719c081", "is_disabled": 0, "rental_uris": {"android": "https://dc.lft.to/lastmile_qr_scan", "ios": "https://dc.lft.to/lastmile_qr_scan"}, "fusion_lon": 0.0, "lat": 38.92307783333333, "bike_id": "f8ba88f1897171ab881044572719c081", "type": "electric_scooter", "is_reserved": 0, "lon": -77.04229683333334}, {"fusion_lat": 0.0, "name": "7a53c8e0be8ab1b2759b2186d1e30eeb", "is_disabled": 0, "rental_uris": {"android": "https://dc.lft.to/lastmile_qr_scan", "ios": "https://dc.lft.to/lastmile_qr_scan"}, "fusion_lon": 0.0, "lat": 38.911774666666666, "bike_id": "7a53c8e0be8ab1b2759b2186d1e30eeb", "type": "electric_bike", "is_reserved": 0, "lon": -77.01148916666666}, {"fusion_lat": 0.0, "name": "e30726f6cc9e58e97e7fd55bd73b679e", "is_disabled": 0, "rental_uris": {"android": "https://dc.lft.to/lastmile_qr_scan", "ios": "https://dc.lft.to/lastmile_qr_scan"}, "fusion_lon": 0.0, "lat": 38.927505833333335, "bike_id": "e30726f6cc9e58e97e7fd55bd73b679e", "type": "electric_scooter", "is_reserved": 0, "lon": -77.02421033333333}, {"fusion_lat": 0.0, "name": "12a33293930d5d71cfd62607ac0af237", "is_disabled": 0, "rental_uris": {"android": "https://dc.lft.to/lastmile_qr_scan", "ios": "https://dc.lft.to/lastmile_qr_scan"}, "fusion_lon": 0.0, "lat": 38.87179783333333, "bike_id": "12a33293930d5d71cfd62607ac0af237", "type": "electric_scooter", "is_reserved": 0, "lon": -77.00609566666667}, {"fusion_lat": 0.0, "name": "147b54453d23d22450e7fc838241296e", "is_disabled": 0, "rental_uris": {"android": "https://dc.lft.to/lastmile_qr_scan", "ios": "https://dc.lft.to/lastmile_qr_scan"}, "fusion_lon": 0.0, "lat": 38.92119233333333, "bike_id": "147b54453d23d22450e7fc838241296e", "type": "electric_scooter", "is_reserved": 0, "lon": -77.04696116666666}, {"fusion_lat": 0.0, "name": "7739a8e0da2c53f54e9e4d08b3392d64", "is_disabled": 0, "rental_uris": {"android": "https://dc.lft.to/lastmile_qr_scan", "ios": "https://dc.lft.to/lastmile_qr_scan"}, "fusion_lon": 0.0, "lat": 38.957551333333335, "bike_id": "7739a8e0da2c53f54e9e4d08b3392d64", "type": "electric_scooter", "is_reserved": 0, "lon": -77.020567}, {"fusion_lat": 0.0, "name": "81dd1ade40b9cf80a1be3c26c0e29baa", "is_disabled": 0, "rental_uris": {"android": "https://dc.lft.to/lastmile_qr_scan", "ios": "https://dc.lft.to/lastmile_qr_scan"}, "fusion_lon": 0.0, "lat": 38.88189066666666, "bike_id": "81dd1ade40b9cf80a1be3c26c0e29baa", "type": "electric_scooter", "is_reserved": 0, "lon": -76.99485266666667}, {"fusion_lat": 0.0, "name": "e5e18d6c843424c2e6d360cb418ace24", "is_disabled": 0, "rental_uris": {"android": "https://dc.lft.to/lastmile_qr_scan", "ios": "https://dc.lft.to/lastmile_qr_scan"}, "fusion_lon": 0.0, "lat": 38.896588666666666, "bike_id": "e5e18d6c843424c2e6d360cb418ace24", "type": "electric_scooter", "is_reserved": 0, "lon": -77.033491}, {"fusion_lat": 0.0, "name": "c7ddd69614088b432ae70db7403ae286", "is_disabled": 0, "rental_uris": {"android": "https://dc.lft.to/lastmile_qr_scan", "ios": "https://dc.lft.to/lastmile_qr_scan"}, "fusion_lon": 0.0, "lat": 38.91091866666667, "bike_id": "c7ddd69614088b432ae70db7403ae286", "type": "electric_scooter", "is_reserved": 0, "lon": -77.0447585}, {"fusion_lat": 0.0, "name": "9e89798792660943c5c912f02e9f1d5b", "is_disabled": 0, "rental_uris": {"android": "https://dc.lft.to/lastmile_qr_scan", "ios": "https://dc.lft.to/lastmile_qr_scan"}, "fusion_lon": 0.0, "lat": 38.900589333333336, "bike_id": "9e89798792660943c5c912f02e9f1d5b", "type": "electric_scooter", "is_reserved": 0, "lon": -76.92745583333334}, {"fusion_lat": 0.0, "name": "e782daa79ef9e4980e10beb3f2e9e41e", "is_disabled": 0, "rental_uris": {"android": "https://dc.lft.to/lastmile_qr_scan", "ios": "https://dc.lft.to/lastmile_qr_scan"}, "fusion_lon": 0.0, "lat": 38.919134, "bike_id": "e782daa79ef9e4980e10beb3f2e9e41e", "type": "electric_scooter", "is_reserved": 0, "lon": -77.02812083333333}, {"fusion_lat": 0.0, "name": "232f37cc2bfc47acd77557627653ff60", "is_disabled": 0, "rental_uris": {"android": "https://dc.lft.to/lastmile_qr_scan", "ios": "https://dc.lft.to/lastmile_qr_scan"}, "fusion_lon": 0.0, "lat": 38.80761716666667, "bike_id": "232f37cc2bfc47acd77557627653ff60", "type": "electric_bike", "is_reserved": 0, "lon": -77.12984416666667}, {"fusion_lat": 0.0, "name": "2108dfdc2ed4504807fb05bcd655e8e1", "is_disabled": 0, "rental_uris": {"android": "https://dc.lft.to/lastmile_qr_scan", "ios": "https://dc.lft.to/lastmile_qr_scan"}, "fusion_lon": 0.0, "lat": 38.895416833333336, "bike_id": "2108dfdc2ed4504807fb05bcd655e8e1", "type": "electric_scooter", "is_reserved": 0, "lon": -76.94949016666666}, {"fusion_lat": 0.0, "name": "8e087e50e3641ebf4b8c89fc8404c808", "is_disabled": 0, "rental_uris": {"android": "https://dc.lft.to/lastmile_qr_scan", "ios": "https://dc.lft.to/lastmile_qr_scan"}, "fusion_lon": 0.0, "lat": 38.961170333333335, "bike_id": "8e087e50e3641ebf4b8c89fc8404c808", "type": "electric_scooter", "is_reserved": 0, "lon": -77.02793566666666}, {"fusion_lat": 0.0, "name": "da8c43d54f1e87e33b03fbffca4617eb", "is_disabled": 0, "rental_uris": {"android": "https://dc.lft.to/lastmile_qr_scan", "ios": "https://dc.lft.to/lastmile_qr_scan"}, "fusion_lon": 0.0, "lat": 38.901242833333335, "bike_id": "da8c43d54f1e87e33b03fbffca4617eb", "type": "electric_scooter", "is_reserved": 0, "lon": -77.00207883333333}, {"fusion_lat": 0.0, "name": "5abda700b300d987411e397285df6427", "is_disabled": 0, "rental_uris": {"android": "https://dc.lft.to/lastmile_qr_scan", "ios": "https://dc.lft.to/lastmile_qr_scan"}, "fusion_lon": 0.0, "lat": 38.887285, "bike_id": "5abda700b300d987411e397285df6427", "type": "electric_scooter", "is_reserved": 0, "lon": -77.032226}, {"fusion_lat": 0.0, "name": "cd966515887f08ecfc43f89f29e64bc3", "is_disabled": 0, "rental_uris": {"android": "https://dc.lft.to/lastmile_qr_scan", "ios": "https://dc.lft.to/lastmile_qr_scan"}, "fusion_lon": 0.0, "lat": 38.918038, "bike_id": "cd966515887f08ecfc43f89f29e64bc3", "type": "electric_scooter", "is_reserved": 0, "lon": -77.02873483333333}, {"fusion_lat": 0.0, "name": "416e7dfc39ccc0fd3b72622de36c0127", "is_disabled": 0, "rental_uris": {"android": "https://dc.lft.to/lastmile_qr_scan", "ios": "https://dc.lft.to/lastmile_qr_scan"}, "fusion_lon": 0.0, "lat": 38.896686, "bike_id": "416e7dfc39ccc0fd3b72622de36c0127", "type": "electric_scooter", "is_reserved": 0, "lon": -77.05098983333333}, {"fusion_lat": 0.0, "name": "ea62aa0d00241f0e2a9aaefd64bdaebb", "is_disabled": 0, "rental_uris": {"android": "https://dc.lft.to/lastmile_qr_scan", "ios": "https://dc.lft.to/lastmile_qr_scan"}, "fusion_lon": 0.0, "lat": 38.92032116666667, "bike_id": "ea62aa0d00241f0e2a9aaefd64bdaebb", "type": "electric_bike", "is_reserved": 0, "lon": -76.9795255}, {"fusion_lat": 0.0, "name": "811bd30ac256b4243c2e3e374d5cb566", "is_disabled": 0, "rental_uris": {"android": "https://dc.lft.to/lastmile_qr_scan", "ios": "https://dc.lft.to/lastmile_qr_scan"}, "fusion_lon": 0.0, "lat": 38.88734383333333, "bike_id": "811bd30ac256b4243c2e3e374d5cb566", "type": "electric_scooter", "is_reserved": 0, "lon": -77.01515883333333}, {"fusion_lat": 0.0, "name": "9a2b33a80db41a821951b0477fe21e9e", "is_disabled": 0, "rental_uris": {"android": "https://dc.lft.to/lastmile_qr_scan", "ios": "https://dc.lft.to/lastmile_qr_scan"}, "fusion_lon": 0.0, "lat": 38.8971715, "bike_id": "9a2b33a80db41a821951b0477fe21e9e", "type": "electric_scooter", "is_reserved": 0, "lon": -77.00799466666666}, {"fusion_lat": 0.0, "name": "4e77f2a103204a4750a8137983ad683e", "is_disabled": 0, "rental_uris": {"android": "https://dc.lft.to/lastmile_qr_scan", "ios": "https://dc.lft.to/lastmile_qr_scan"}, "fusion_lon": 0.0, "lat": 38.90001816666667, "bike_id": "4e77f2a103204a4750a8137983ad683e", "type": "electric_scooter", "is_reserved": 0, "lon": -76.99842816666667}, {"fusion_lat": 0.0, "name": "1ff0ff346e00fc49c9d065732bee9ea6", "is_disabled": 0, "rental_uris": {"android": "https://dc.lft.to/lastmile_qr_scan", "ios": "https://dc.lft.to/lastmile_qr_scan"}, "fusion_lon": 0.0, "lat": 38.918538, "bike_id": "1ff0ff346e00fc49c9d065732bee9ea6", "type": "electric_scooter", "is_reserved": 0, "lon": -77.02307066666667}, {"fusion_lat": 0.0, "name": "829be29262685ee56d19511feef76245", "is_disabled": 0, "rental_uris": {"android": "https://dc.lft.to/lastmile_qr_scan", "ios": "https://dc.lft.to/lastmile_qr_scan"}, "fusion_lon": 0.0, "lat": 38.892178333333334, "bike_id": "829be29262685ee56d19511feef76245", "type": "electric_scooter", "is_reserved": 0, "lon": -77.02310616666666}, {"fusion_lat": 0.0, "name": "6bd615427690c7eb82b440454ef7e512", "is_disabled": 0, "rental_uris": {"android": "https://dc.lft.to/lastmile_qr_scan", "ios": "https://dc.lft.to/lastmile_qr_scan"}, "fusion_lon": 0.0, "lat": 38.900196666666666, "bike_id": "6bd615427690c7eb82b440454ef7e512", "type": "electric_scooter", "is_reserved": 0, "lon": -76.99308516666666}, {"fusion_lat": 0.0, "name": "689e57f880aa020f66ea2c982c13e001", "is_disabled": 0, "rental_uris": {"android": "https://dc.lft.to/lastmile_qr_scan", "ios": "https://dc.lft.to/lastmile_qr_scan"}, "fusion_lon": 0.0, "lat": 38.931875833333336, "bike_id": "689e57f880aa020f66ea2c982c13e001", "type": "electric_scooter", "is_reserved": 0, "lon": -77.03301216666667}, {"fusion_lat": 0.0, "name": "0b6b179c0fc4edcadec4be229fc0222f", "is_disabled": 0, "rental_uris": {"android": "https://dc.lft.to/lastmile_qr_scan", "ios": "https://dc.lft.to/lastmile_qr_scan"}, "fusion_lon": 0.0, "lat": 38.93407466666667, "bike_id": "0b6b179c0fc4edcadec4be229fc0222f", "type": "electric_scooter", "is_reserved": 0, "lon": -77.02199283333333}, {"fusion_lat": 0.0, "name": "f99c43e24b24ea74979a59d5ffc69039", "is_disabled": 0, "rental_uris": {"android": "https://dc.lft.to/lastmile_qr_scan", "ios": "https://dc.lft.to/lastmile_qr_scan"}, "fusion_lon": 0.0, "lat": 38.901667833333335, "bike_id": "f99c43e24b24ea74979a59d5ffc69039", "type": "electric_scooter", "is_reserved": 0, "lon": -77.02618816666667}, {"fusion_lat": 0.0, "name": "efea0340b8a16a2090ab42262197c1d4", "is_disabled": 0, "rental_uris": {"android": "https://dc.lft.to/lastmile_qr_scan", "ios": "https://dc.lft.to/lastmile_qr_scan"}, "fusion_lon": 0.0, "lat": 38.930102166666664, "bike_id": "efea0340b8a16a2090ab42262197c1d4", "type": "electric_scooter", "is_reserved": 0, "lon": -77.03247466666667}, {"fusion_lat": 0.0, "name": "67b63036502bc1f93d1e2d912023da36", "is_disabled": 0, "rental_uris": {"android": "https://dc.lft.to/lastmile_qr_scan", "ios": "https://dc.lft.to/lastmile_qr_scan"}, "fusion_lon": 0.0, "lat": 38.905517333333336, "bike_id": "67b63036502bc1f93d1e2d912023da36", "type": "electric_scooter", "is_reserved": 0, "lon": -77.04655816666667}, {"fusion_lat": 0.0, "name": "e844e32ab9d4af8f1265b3dc8e17c40c", "is_disabled": 0, "rental_uris": {"android": "https://dc.lft.to/lastmile_qr_scan", "ios": "https://dc.lft.to/lastmile_qr_scan"}, "fusion_lon": 0.0, "lat": 38.9095695, "bike_id": "e844e32ab9d4af8f1265b3dc8e17c40c", "type": "electric_scooter", "is_reserved": 0, "lon": -77.027588}, {"fusion_lat": 0.0, "name": "f46a3a44c775333af646c1395d75aad4", "is_disabled": 0, "rental_uris": {"android": "https://dc.lft.to/lastmile_qr_scan", "ios": "https://dc.lft.to/lastmile_qr_scan"}, "fusion_lon": 0.0, "lat": 38.90068733333333, "bike_id": "f46a3a44c775333af646c1395d75aad4", "type": "electric_scooter", "is_reserved": 0, "lon": -76.94692583333334}, {"fusion_lat": 0.0, "name": "94a4184898935ec4a03c7671f3518450", "is_disabled": 0, "rental_uris": {"android": "https://dc.lft.to/lastmile_qr_scan", "ios": "https://dc.lft.to/lastmile_qr_scan"}, "fusion_lon": 0.0, "lat": 38.95420433333334, "bike_id": "94a4184898935ec4a03c7671f3518450", "type": "electric_scooter", "is_reserved": 0, "lon": -77.02765216666667}, {"fusion_lat": 0.0, "name": "64517b9378b09a4c6d7d56d2cb75af04", "is_disabled": 0, "rental_uris": {"android": "https://dc.lft.to/lastmile_qr_scan", "ios": "https://dc.lft.to/lastmile_qr_scan"}, "fusion_lon": 0.0, "lat": 38.90895866666666, "bike_id": "64517b9378b09a4c6d7d56d2cb75af04", "type": "electric_scooter", "is_reserved": 0, "lon": -77.0440395}, {"fusion_lat": 0.0, "name": "a4df17f62b2d4a16b1999210fe516326", "is_disabled": 0, "rental_uris": {"android": "https://dc.lft.to/lastmile_qr_scan", "ios": "https://dc.lft.to/lastmile_qr_scan"}, "fusion_lon": 0.0, "lat": 38.89355116666667, "bike_id": "a4df17f62b2d4a16b1999210fe516326", "type": "electric_scooter", "is_reserved": 0, "lon": -76.98654983333333}, {"fusion_lat": 0.0, "name": "9e3bc06954efc1e860061374037582e6", "is_disabled": 0, "rental_uris": {"android": "https://dc.lft.to/lastmile_qr_scan", "ios": "https://dc.lft.to/lastmile_qr_scan"}, "fusion_lon": 0.0, "lat": 38.916320999999996, "bike_id": "9e3bc06954efc1e860061374037582e6", "type": "electric_scooter", "is_reserved": 0, "lon": -77.05073766666666}, {"fusion_lat": 0.0, "name": "2532952d1fd3e0883da498b50b1c548d", "is_disabled": 0, "rental_uris": {"android": "https://dc.lft.to/lastmile_qr_scan", "ios": "https://dc.lft.to/lastmile_qr_scan"}, "fusion_lon": 0.0, "lat": 38.90794266666666, "bike_id": "2532952d1fd3e0883da498b50b1c548d", "type": "electric_scooter", "is_reserved": 0, "lon": -77.0433775}, {"fusion_lat": 0.0, "name": "a7a72c5731bd672b79990c1366a98663", "is_disabled": 0, "rental_uris": {"android": "https://dc.lft.to/lastmile_qr_scan", "ios": "https://dc.lft.to/lastmile_qr_scan"}, "fusion_lon": 0.0, "lat": 38.8841125, "bike_id": "a7a72c5731bd672b79990c1366a98663", "type": "electric_scooter", "is_reserved": 0, "lon": -77.02966366666666}, {"fusion_lat": 0.0, "name": "8c064af3f2214b51607a756a6f8b6f5e", "is_disabled": 0, "rental_uris": {"android": "https://dc.lft.to/lastmile_qr_scan", "ios": "https://dc.lft.to/lastmile_qr_scan"}, "fusion_lon": 0.0, "lat": 38.9154025, "bike_id": "8c064af3f2214b51607a756a6f8b6f5e", "type": "electric_scooter", "is_reserved": 0, "lon": -77.03204833333334}, {"fusion_lat": 0.0, "name": "8a5035afac9af7707f1e746284eb406a", "is_disabled": 0, "rental_uris": {"android": "https://dc.lft.to/lastmile_qr_scan", "ios": "https://dc.lft.to/lastmile_qr_scan"}, "fusion_lon": 0.0, "lat": 38.89598816666667, "bike_id": "8a5035afac9af7707f1e746284eb406a", "type": "electric_scooter", "is_reserved": 0, "lon": -77.0230655}, {"fusion_lat": 0.0, "name": "b903db864d70ed7a9d2d40e9d8da6a98", "is_disabled": 0, "rental_uris": {"android": "https://dc.lft.to/lastmile_qr_scan", "ios": "https://dc.lft.to/lastmile_qr_scan"}, "fusion_lon": 0.0, "lat": 38.9066675, "bike_id": "b903db864d70ed7a9d2d40e9d8da6a98", "type": "electric_scooter", "is_reserved": 0, "lon": -77.03863066666666}, {"fusion_lat": 0.0, "name": "28d55e37416824ba3dc3b5ae5d316ece", "is_disabled": 0, "rental_uris": {"android": "https://dc.lft.to/lastmile_qr_scan", "ios": "https://dc.lft.to/lastmile_qr_scan"}, "fusion_lon": 0.0, "lat": 38.901581, "bike_id": "28d55e37416824ba3dc3b5ae5d316ece", "type": "electric_scooter", "is_reserved": 0, "lon": -76.98064866666667}, {"fusion_lat": 0.0, "name": "0ff0227fe0ed05883acec54a4f84f5fe", "is_disabled": 0, "rental_uris": {"android": "https://dc.lft.to/lastmile_qr_scan", "ios": "https://dc.lft.to/lastmile_qr_scan"}, "fusion_lon": 0.0, "lat": 38.92997283333333, "bike_id": "0ff0227fe0ed05883acec54a4f84f5fe", "type": "electric_scooter", "is_reserved": 0, "lon": -77.03799266666667}, {"fusion_lat": 0.0, "name": "5cbacdae8c7d7913ef3f78802c171f87", "is_disabled": 0, "rental_uris": {"android": "https://dc.lft.to/lastmile_qr_scan", "ios": "https://dc.lft.to/lastmile_qr_scan"}, "fusion_lon": 0.0, "lat": 38.887447, "bike_id": "5cbacdae8c7d7913ef3f78802c171f87", "type": "electric_scooter", "is_reserved": 0, "lon": -76.99843716666666}, {"fusion_lat": 0.0, "name": "2a75fa8eb6f95adad2445ff1c6b57fb9", "is_disabled": 0, "rental_uris": {"android": "https://dc.lft.to/lastmile_qr_scan", "ios": "https://dc.lft.to/lastmile_qr_scan"}, "fusion_lon": 0.0, "lat": 38.9212485, "bike_id": "2a75fa8eb6f95adad2445ff1c6b57fb9", "type": "electric_scooter", "is_reserved": 0, "lon": -77.04428483333334}, {"fusion_lat": 0.0, "name": "e4678da9dbcd559011977ca06c229e4a", "is_disabled": 0, "rental_uris": {"android": "https://dc.lft.to/lastmile_qr_scan", "ios": "https://dc.lft.to/lastmile_qr_scan"}, "fusion_lon": 0.0, "lat": 38.9217705, "bike_id": "e4678da9dbcd559011977ca06c229e4a", "type": "electric_scooter", "is_reserved": 0, "lon": -77.02661983333333}, {"fusion_lat": 0.0, "name": "575942200e01c7476bbc786187868b0e", "is_disabled": 0, "rental_uris": {"android": "https://dc.lft.to/lastmile_qr_scan", "ios": "https://dc.lft.to/lastmile_qr_scan"}, "fusion_lon": 0.0, "lat": 38.83364866666667, "bike_id": "575942200e01c7476bbc786187868b0e", "type": "electric_bike", "is_reserved": 0, "lon": -77.00301083333333}, {"fusion_lat": 0.0, "name": "7ee43b394affdaada18612ee365e976b", "is_disabled": 0, "rental_uris": {"android": "https://dc.lft.to/lastmile_qr_scan", "ios": "https://dc.lft.to/lastmile_qr_scan"}, "fusion_lon": 0.0, "lat": 38.930765666666666, "bike_id": "7ee43b394affdaada18612ee365e976b", "type": "electric_scooter", "is_reserved": 0, "lon": -77.031623}, {"fusion_lat": 0.0, "name": "2c32fbaeee99ee4ec3475fd2433f5e61", "is_disabled": 0, "rental_uris": {"android": "https://dc.lft.to/lastmile_qr_scan", "ios": "https://dc.lft.to/lastmile_qr_scan"}, "fusion_lon": 0.0, "lat": 38.904282333333335, "bike_id": "2c32fbaeee99ee4ec3475fd2433f5e61", "type": "electric_scooter", "is_reserved": 0, "lon": -76.9794875}, {"fusion_lat": 0.0, "name": "bfdbc396a6e8739f8f3f50d3557a8f47", "is_disabled": 0, "rental_uris": {"android": "https://dc.lft.to/lastmile_qr_scan", "ios": "https://dc.lft.to/lastmile_qr_scan"}, "fusion_lon": 0.0, "lat": 38.90391833333334, "bike_id": "bfdbc396a6e8739f8f3f50d3557a8f47", "type": "electric_scooter", "is_reserved": 0, "lon": -77.03423266666667}, {"fusion_lat": 0.0, "name": "72e8167723860913db7a2951a14f3c07", "is_disabled": 0, "rental_uris": {"android": "https://dc.lft.to/lastmile_qr_scan", "ios": "https://dc.lft.to/lastmile_qr_scan"}, "fusion_lon": 0.0, "lat": 38.87634333333333, "bike_id": "72e8167723860913db7a2951a14f3c07", "type": "electric_scooter", "is_reserved": 0, "lon": -77.00920866666667}, {"fusion_lat": 0.0, "name": "6795048db2120773620220ffc2d17540", "is_disabled": 0, "rental_uris": {"android": "https://dc.lft.to/lastmile_qr_scan", "ios": "https://dc.lft.to/lastmile_qr_scan"}, "fusion_lon": 0.0, "lat": 38.92985083333333, "bike_id": "6795048db2120773620220ffc2d17540", "type": "electric_scooter", "is_reserved": 0, "lon": -77.03472083333334}, {"fusion_lat": 0.0, "name": "7dca355096848709420d65800b99c499", "is_disabled": 0, "rental_uris": {"android": "https://dc.lft.to/lastmile_qr_scan", "ios": "https://dc.lft.to/lastmile_qr_scan"}, "fusion_lon": 0.0, "lat": 38.9125285, "bike_id": "7dca355096848709420d65800b99c499", "type": "electric_bike", "is_reserved": 0, "lon": -77.008035}, {"fusion_lat": 0.0, "name": "cd00a4dcc4af53b3566ed9dc75129287", "is_disabled": 0, "rental_uris": {"android": "https://dc.lft.to/lastmile_qr_scan", "ios": "https://dc.lft.to/lastmile_qr_scan"}, "fusion_lon": 0.0, "lat": 38.902739833333335, "bike_id": "cd00a4dcc4af53b3566ed9dc75129287", "type": "electric_scooter", "is_reserved": 0, "lon": -77.033589}, {"fusion_lat": 0.0, "name": "39c1856ef79c47a1664319de0f36df2a", "is_disabled": 0, "rental_uris": {"android": "https://dc.lft.to/lastmile_qr_scan", "ios": "https://dc.lft.to/lastmile_qr_scan"}, "fusion_lon": 0.0, "lat": 38.9009445, "bike_id": "39c1856ef79c47a1664319de0f36df2a", "type": "electric_scooter", "is_reserved": 0, "lon": -77.05689833333334}, {"fusion_lat": 0.0, "name": "43e9dc004b3c3b74b3adc814ea0922b2", "is_disabled": 0, "rental_uris": {"android": "https://dc.lft.to/lastmile_qr_scan", "ios": "https://dc.lft.to/lastmile_qr_scan"}, "fusion_lon": 0.0, "lat": 38.924709, "bike_id": "43e9dc004b3c3b74b3adc814ea0922b2", "type": "electric_bike", "is_reserved": 0, "lon": -77.23361166666666}, {"fusion_lat": 0.0, "name": "fdcc36b8ec1a7a27d46954660071c2cf", "is_disabled": 0, "rental_uris": {"android": "https://dc.lft.to/lastmile_qr_scan", "ios": "https://dc.lft.to/lastmile_qr_scan"}, "fusion_lon": 0.0, "lat": 38.884974666666665, "bike_id": "fdcc36b8ec1a7a27d46954660071c2cf", "type": "electric_scooter", "is_reserved": 0, "lon": -77.00890866666667}, {"fusion_lat": 0.0, "name": "d84c4af33add30ad006e9612470202c0", "is_disabled": 0, "rental_uris": {"android": "https://dc.lft.to/lastmile_qr_scan", "ios": "https://dc.lft.to/lastmile_qr_scan"}, "fusion_lon": 0.0, "lat": 38.906761833333334, "bike_id": "d84c4af33add30ad006e9612470202c0", "type": "electric_scooter", "is_reserved": 0, "lon": -77.0364195}, {"fusion_lat": 0.0, "name": "51ba4ec7eebf9ece1076a5c947f3e2a2", "is_disabled": 0, "rental_uris": {"android": "https://dc.lft.to/lastmile_qr_scan", "ios": "https://dc.lft.to/lastmile_qr_scan"}, "fusion_lon": 0.0, "lat": 38.905631166666666, "bike_id": "51ba4ec7eebf9ece1076a5c947f3e2a2", "type": "electric_scooter", "is_reserved": 0, "lon": -76.98143116666667}, {"fusion_lat": 0.0, "name": "deba634a5565763d34de7011374d4726", "is_disabled": 0, "rental_uris": {"android": "https://dc.lft.to/lastmile_qr_scan", "ios": "https://dc.lft.to/lastmile_qr_scan"}, "fusion_lon": 0.0, "lat": 38.89668983333333, "bike_id": "deba634a5565763d34de7011374d4726", "type": "electric_scooter", "is_reserved": 0, "lon": -76.9320405}, {"fusion_lat": 0.0, "name": "32d80c0a425e0d5204057bf2da536790", "is_disabled": 0, "rental_uris": {"android": "https://dc.lft.to/lastmile_qr_scan", "ios": "https://dc.lft.to/lastmile_qr_scan"}, "fusion_lon": 0.0, "lat": 38.91105133333333, "bike_id": "32d80c0a425e0d5204057bf2da536790", "type": "electric_scooter", "is_reserved": 0, "lon": -77.04205116666667}, {"fusion_lat": 0.0, "name": "83299db2bbd90df3c0d9eb6374900b74", "is_disabled": 0, "rental_uris": {"android": "https://dc.lft.to/lastmile_qr_scan", "ios": "https://dc.lft.to/lastmile_qr_scan"}, "fusion_lon": 0.0, "lat": 38.911251666666665, "bike_id": "83299db2bbd90df3c0d9eb6374900b74", "type": "electric_scooter", "is_reserved": 0, "lon": -77.0383215}, {"fusion_lat": 0.0, "name": "d14774b4d2b43b06a1755f5234c8ae19", "is_disabled": 0, "rental_uris": {"android": "https://dc.lft.to/lastmile_qr_scan", "ios": "https://dc.lft.to/lastmile_qr_scan"}, "fusion_lon": 0.0, "lat": 38.923844, "bike_id": "d14774b4d2b43b06a1755f5234c8ae19", "type": "electric_scooter", "is_reserved": 0, "lon": -77.0273115}, {"fusion_lat": 0.0, "name": "bc081f37b0143ae9429569d71d9cf396", "is_disabled": 0, "rental_uris": {"android": "https://dc.lft.to/lastmile_qr_scan", "ios": "https://dc.lft.to/lastmile_qr_scan"}, "fusion_lon": 0.0, "lat": 38.93260766666667, "bike_id": "bc081f37b0143ae9429569d71d9cf396", "type": "electric_scooter", "is_reserved": 0, "lon": -77.01917033333334}, {"fusion_lat": 0.0, "name": "8939ca51d8cddb37953e23ecb6c5cfb6", "is_disabled": 0, "rental_uris": {"android": "https://dc.lft.to/lastmile_qr_scan", "ios": "https://dc.lft.to/lastmile_qr_scan"}, "fusion_lon": 0.0, "lat": 38.912735166666664, "bike_id": "8939ca51d8cddb37953e23ecb6c5cfb6", "type": "electric_scooter", "is_reserved": 0, "lon": -77.03180183333333}, {"fusion_lat": 0.0, "name": "38eb76eaa09ba95e7af4ae720e85c5e2", "is_disabled": 0, "rental_uris": {"android": "https://dc.lft.to/lastmile_qr_scan", "ios": "https://dc.lft.to/lastmile_qr_scan"}, "fusion_lon": 0.0, "lat": 38.93165833333333, "bike_id": "38eb76eaa09ba95e7af4ae720e85c5e2", "type": "electric_scooter", "is_reserved": 0, "lon": -77.056461}, {"fusion_lat": 0.0, "name": "5fa52c87b4641048dc77c13cd3f94d72", "is_disabled": 0, "rental_uris": {"android": "https://dc.lft.to/lastmile_qr_scan", "ios": "https://dc.lft.to/lastmile_qr_scan"}, "fusion_lon": 0.0, "lat": 38.9020515, "bike_id": "5fa52c87b4641048dc77c13cd3f94d72", "type": "electric_scooter", "is_reserved": 0, "lon": -77.03193916666666}, {"fusion_lat": 0.0, "name": "ff92df3a599312adfdf82a3f9bc7f0d4", "is_disabled": 0, "rental_uris": {"android": "https://dc.lft.to/lastmile_qr_scan", "ios": "https://dc.lft.to/lastmile_qr_scan"}, "fusion_lon": 0.0, "lat": 38.90682433333333, "bike_id": "ff92df3a599312adfdf82a3f9bc7f0d4", "type": "electric_scooter", "is_reserved": 0, "lon": -77.07166983333333}, {"fusion_lat": 0.0, "name": "ca9d980802ca1801f5883cb831941602", "is_disabled": 0, "rental_uris": {"android": "https://dc.lft.to/lastmile_qr_scan", "ios": "https://dc.lft.to/lastmile_qr_scan"}, "fusion_lon": 0.0, "lat": 38.8883575, "bike_id": "ca9d980802ca1801f5883cb831941602", "type": "electric_scooter", "is_reserved": 0, "lon": -77.04845983333334}, {"fusion_lat": 0.0, "name": "c1e24154b417ffa756fc57a08d4a7174", "is_disabled": 0, "rental_uris": {"android": "https://dc.lft.to/lastmile_qr_scan", "ios": "https://dc.lft.to/lastmile_qr_scan"}, "fusion_lon": 0.0, "lat": 38.91712916666667, "bike_id": "c1e24154b417ffa756fc57a08d4a7174", "type": "electric_scooter", "is_reserved": 0, "lon": -77.03873116666666}, {"fusion_lat": 0.0, "name": "362b2d6b2fc85ed1bd84e5fdc8fa574e", "is_disabled": 0, "rental_uris": {"android": "https://dc.lft.to/lastmile_qr_scan", "ios": "https://dc.lft.to/lastmile_qr_scan"}, "fusion_lon": 0.0, "lat": 38.81231916666667, "bike_id": "362b2d6b2fc85ed1bd84e5fdc8fa574e", "type": "electric_bike", "is_reserved": 0, "lon": -77.11764933333333}, {"fusion_lat": 0.0, "name": "f93577ba3c93b5a260b4ba806da6cd78", "is_disabled": 0, "rental_uris": {"android": "https://dc.lft.to/lastmile_qr_scan", "ios": "https://dc.lft.to/lastmile_qr_scan"}, "fusion_lon": 0.0, "lat": 38.925354166666665, "bike_id": "f93577ba3c93b5a260b4ba806da6cd78", "type": "electric_scooter", "is_reserved": 0, "lon": -77.00759233333333}, {"fusion_lat": 0.0, "name": "fa5d109cff848c5d59f0616e8525c50b", "is_disabled": 0, "rental_uris": {"android": "https://dc.lft.to/lastmile_qr_scan", "ios": "https://dc.lft.to/lastmile_qr_scan"}, "fusion_lon": 0.0, "lat": 38.80709, "bike_id": "fa5d109cff848c5d59f0616e8525c50b", "type": "electric_bike", "is_reserved": 0, "lon": -77.06172616666667}, {"fusion_lat": 0.0, "name": "a7c917573215b527a830ecb55676f56a", "is_disabled": 0, "rental_uris": {"android": "https://dc.lft.to/lastmile_qr_scan", "ios": "https://dc.lft.to/lastmile_qr_scan"}, "fusion_lon": 0.0, "lat": 38.907291, "bike_id": "a7c917573215b527a830ecb55676f56a", "type": "electric_scooter", "is_reserved": 0, "lon": -76.93545583333334}, {"fusion_lat": 0.0, "name": "5009c838ef248f4ada5fa4949bbb777e", "is_disabled": 0, "rental_uris": {"android": "https://dc.lft.to/lastmile_qr_scan", "ios": "https://dc.lft.to/lastmile_qr_scan"}, "fusion_lon": 0.0, "lat": 38.92715, "bike_id": "5009c838ef248f4ada5fa4949bbb777e", "type": "electric_scooter", "is_reserved": 0, "lon": -77.030593}, {"fusion_lat": 0.0, "name": "bb09eddeda6ccac4d1fd7b2a0bc2192d", "is_disabled": 0, "rental_uris": {"android": "https://dc.lft.to/lastmile_qr_scan", "ios": "https://dc.lft.to/lastmile_qr_scan"}, "fusion_lon": 0.0, "lat": 38.92233683333333, "bike_id": "bb09eddeda6ccac4d1fd7b2a0bc2192d", "type": "electric_scooter", "is_reserved": 0, "lon": -77.042454}, {"fusion_lat": 0.0, "name": "4cfbf7e1e519ef51690ace9d2bd55905", "is_disabled": 0, "rental_uris": {"android": "https://dc.lft.to/lastmile_qr_scan", "ios": "https://dc.lft.to/lastmile_qr_scan"}, "fusion_lon": 0.0, "lat": 38.924853, "bike_id": "4cfbf7e1e519ef51690ace9d2bd55905", "type": "electric_bike", "is_reserved": 0, "lon": -77.03198183333333}, {"fusion_lat": 0.0, "name": "9fde9333470fe4da5bedef1e557facbc", "is_disabled": 0, "rental_uris": {"android": "https://dc.lft.to/lastmile_qr_scan", "ios": "https://dc.lft.to/lastmile_qr_scan"}, "fusion_lon": 0.0, "lat": 38.819107333333335, "bike_id": "9fde9333470fe4da5bedef1e557facbc", "type": "electric_bike", "is_reserved": 0, "lon": -77.0478615}, {"fusion_lat": 0.0, "name": "38e542d64b003f491c33934276248072", "is_disabled": 0, "rental_uris": {"android": "https://dc.lft.to/lastmile_qr_scan", "ios": "https://dc.lft.to/lastmile_qr_scan"}, "fusion_lon": 0.0, "lat": 38.9038735, "bike_id": "38e542d64b003f491c33934276248072", "type": "electric_scooter", "is_reserved": 0, "lon": -77.06798416666666}, {"fusion_lat": 0.0, "name": "7f3e695123de0521ea19356ae1f87264", "is_disabled": 0, "rental_uris": {"android": "https://dc.lft.to/lastmile_qr_scan", "ios": "https://dc.lft.to/lastmile_qr_scan"}, "fusion_lon": 0.0, "lat": 38.883057, "bike_id": "7f3e695123de0521ea19356ae1f87264", "type": "electric_scooter", "is_reserved": 0, "lon": -76.94860566666667}, {"fusion_lat": 0.0, "name": "22ff3fdd23171171e04ce12af9311913", "is_disabled": 0, "rental_uris": {"android": "https://dc.lft.to/lastmile_qr_scan", "ios": "https://dc.lft.to/lastmile_qr_scan"}, "fusion_lon": 0.0, "lat": 38.9208365, "bike_id": "22ff3fdd23171171e04ce12af9311913", "type": "electric_scooter", "is_reserved": 0, "lon": -77.02403916666667}, {"fusion_lat": 0.0, "name": "b2cace7099b69a1ea3d6b9e15cf70388", "is_disabled": 0, "rental_uris": {"android": "https://dc.lft.to/lastmile_qr_scan", "ios": "https://dc.lft.to/lastmile_qr_scan"}, "fusion_lon": 0.0, "lat": 38.908116166666666, "bike_id": "b2cace7099b69a1ea3d6b9e15cf70388", "type": "electric_scooter", "is_reserved": 0, "lon": -77.03453716666667}, {"fusion_lat": 0.0, "name": "b940820c32dceeac65d27204124511bc", "is_disabled": 0, "rental_uris": {"android": "https://dc.lft.to/lastmile_qr_scan", "ios": "https://dc.lft.to/lastmile_qr_scan"}, "fusion_lon": 0.0, "lat": 38.917067333333335, "bike_id": "b940820c32dceeac65d27204124511bc", "type": "electric_scooter", "is_reserved": 0, "lon": -76.97663716666666}, {"fusion_lat": 0.0, "name": "a6a227fcf7a89eee32b06b6f69c6aa14", "is_disabled": 0, "rental_uris": {"android": "https://dc.lft.to/lastmile_qr_scan", "ios": "https://dc.lft.to/lastmile_qr_scan"}, "fusion_lon": 0.0, "lat": 38.938776833333336, "bike_id": "a6a227fcf7a89eee32b06b6f69c6aa14", "type": "electric_scooter", "is_reserved": 0, "lon": -77.032797}, {"fusion_lat": 0.0, "name": "6021a6462fc4e5aa23abf2de0978105f", "is_disabled": 0, "rental_uris": {"android": "https://dc.lft.to/lastmile_qr_scan", "ios": "https://dc.lft.to/lastmile_qr_scan"}, "fusion_lon": 0.0, "lat": 38.900886, "bike_id": "6021a6462fc4e5aa23abf2de0978105f", "type": "electric_scooter", "is_reserved": 0, "lon": -76.98327366666666}, {"fusion_lat": 0.0, "name": "624cffdca7c01de459974dc28cfa1ec8", "is_disabled": 0, "rental_uris": {"android": "https://dc.lft.to/lastmile_qr_scan", "ios": "https://dc.lft.to/lastmile_qr_scan"}, "fusion_lon": 0.0, "lat": 38.919262, "bike_id": "624cffdca7c01de459974dc28cfa1ec8", "type": "electric_scooter", "is_reserved": 0, "lon": -77.0317835}, {"fusion_lat": 0.0, "name": "c4e73f26d521ad69cde56a744be6c33c", "is_disabled": 0, "rental_uris": {"android": "https://dc.lft.to/lastmile_qr_scan", "ios": "https://dc.lft.to/lastmile_qr_scan"}, "fusion_lon": 0.0, "lat": 38.879662333333336, "bike_id": "c4e73f26d521ad69cde56a744be6c33c", "type": "electric_bike", "is_reserved": 0, "lon": -76.91614533333333}, {"fusion_lat": 0.0, "name": "174f2aba9dc2f9d260a361611ca639c6", "is_disabled": 0, "rental_uris": {"android": "https://dc.lft.to/lastmile_qr_scan", "ios": "https://dc.lft.to/lastmile_qr_scan"}, "fusion_lon": 0.0, "lat": 38.956043, "bike_id": "174f2aba9dc2f9d260a361611ca639c6", "type": "electric_scooter", "is_reserved": 0, "lon": -77.03352883333334}, {"fusion_lat": 0.0, "name": "f0c0147f2a96a47361daba54bf4b67f0", "is_disabled": 0, "rental_uris": {"android": "https://dc.lft.to/lastmile_qr_scan", "ios": "https://dc.lft.to/lastmile_qr_scan"}, "fusion_lon": 0.0, "lat": 38.917892333333334, "bike_id": "f0c0147f2a96a47361daba54bf4b67f0", "type": "electric_bike", "is_reserved": 0, "lon": -77.03202683333333}, {"fusion_lat": 0.0, "name": "941e0118defbdad3cbd299791c6dbd72", "is_disabled": 0, "rental_uris": {"android": "https://dc.lft.to/lastmile_qr_scan", "ios": "https://dc.lft.to/lastmile_qr_scan"}, "fusion_lon": 0.0, "lat": 38.9156095, "bike_id": "941e0118defbdad3cbd299791c6dbd72", "type": "electric_scooter", "is_reserved": 0, "lon": -77.0313695}, {"fusion_lat": 0.0, "name": "f86d3abd5aadf5f01e7e9fdb5faae273", "is_disabled": 0, "rental_uris": {"android": "https://dc.lft.to/lastmile_qr_scan", "ios": "https://dc.lft.to/lastmile_qr_scan"}, "fusion_lon": 0.0, "lat": 38.885367333333335, "bike_id": "f86d3abd5aadf5f01e7e9fdb5faae273", "type": "electric_scooter", "is_reserved": 0, "lon": -77.00063883333333}, {"fusion_lat": 0.0, "name": "4516953eba56e53d0a46567794354bd0", "is_disabled": 0, "rental_uris": {"android": "https://dc.lft.to/lastmile_qr_scan", "ios": "https://dc.lft.to/lastmile_qr_scan"}, "fusion_lon": 0.0, "lat": 38.88537616666667, "bike_id": "4516953eba56e53d0a46567794354bd0", "type": "electric_scooter", "is_reserved": 0, "lon": -77.0006115}, {"fusion_lat": 0.0, "name": "45e8dd045646a354118a3c17dbe7e046", "is_disabled": 0, "rental_uris": {"android": "https://dc.lft.to/lastmile_qr_scan", "ios": "https://dc.lft.to/lastmile_qr_scan"}, "fusion_lon": 0.0, "lat": 38.92371083333333, "bike_id": "45e8dd045646a354118a3c17dbe7e046", "type": "electric_scooter", "is_reserved": 0, "lon": -77.043149}, {"fusion_lat": 0.0, "name": "46b4a63b4010c2e49a2f86775e79a519", "is_disabled": 0, "rental_uris": {"android": "https://dc.lft.to/lastmile_qr_scan", "ios": "https://dc.lft.to/lastmile_qr_scan"}, "fusion_lon": 0.0, "lat": 38.877319166666666, "bike_id": "46b4a63b4010c2e49a2f86775e79a519", "type": "electric_scooter", "is_reserved": 0, "lon": -76.9966815}, {"fusion_lat": 0.0, "name": "5daff4b510a6c3007f37e3efc6d77578", "is_disabled": 0, "rental_uris": {"android": "https://dc.lft.to/lastmile_qr_scan", "ios": "https://dc.lft.to/lastmile_qr_scan"}, "fusion_lon": 0.0, "lat": 38.90452966666667, "bike_id": "5daff4b510a6c3007f37e3efc6d77578", "type": "electric_scooter", "is_reserved": 0, "lon": -77.00161133333333}, {"fusion_lat": 0.0, "name": "c9c6e8fa2d89a6c7688042324f970e34", "is_disabled": 0, "rental_uris": {"android": "https://dc.lft.to/lastmile_qr_scan", "ios": "https://dc.lft.to/lastmile_qr_scan"}, "fusion_lon": 0.0, "lat": 38.91809516666667, "bike_id": "c9c6e8fa2d89a6c7688042324f970e34", "type": "electric_scooter", "is_reserved": 0, "lon": -77.03910416666666}, {"fusion_lat": 0.0, "name": "dbd99389c704dde3971a6ff2baa22361", "is_disabled": 0, "rental_uris": {"android": "https://dc.lft.to/lastmile_qr_scan", "ios": "https://dc.lft.to/lastmile_qr_scan"}, "fusion_lon": 0.0, "lat": 38.954206, "bike_id": "dbd99389c704dde3971a6ff2baa22361", "type": "electric_scooter", "is_reserved": 0, "lon": -77.02764016666667}, {"fusion_lat": 0.0, "name": "080bfdd22de3bfc36fe17d02c078b0f0", "is_disabled": 0, "rental_uris": {"android": "https://dc.lft.to/lastmile_qr_scan", "ios": "https://dc.lft.to/lastmile_qr_scan"}, "fusion_lon": 0.0, "lat": 38.916843166666666, "bike_id": "080bfdd22de3bfc36fe17d02c078b0f0", "type": "electric_scooter", "is_reserved": 0, "lon": -77.02352083333334}, {"fusion_lat": 0.0, "name": "7ab99e75a92f41f000fb3ed8af24ef6c", "is_disabled": 0, "rental_uris": {"android": "https://dc.lft.to/lastmile_qr_scan", "ios": "https://dc.lft.to/lastmile_qr_scan"}, "fusion_lon": 0.0, "lat": 38.90638033333333, "bike_id": "7ab99e75a92f41f000fb3ed8af24ef6c", "type": "electric_scooter", "is_reserved": 0, "lon": -77.04865716666667}, {"fusion_lat": 0.0, "name": "7d144565b28e7159a7c1ddd7cd8b1432", "is_disabled": 0, "rental_uris": {"android": "https://dc.lft.to/lastmile_qr_scan", "ios": "https://dc.lft.to/lastmile_qr_scan"}, "fusion_lon": 0.0, "lat": 38.860124166666665, "bike_id": "7d144565b28e7159a7c1ddd7cd8b1432", "type": "electric_bike", "is_reserved": 0, "lon": -77.12806783333333}, {"fusion_lat": 0.0, "name": "17153e648f64b1feb66fe9687441930b", "is_disabled": 0, "rental_uris": {"android": "https://dc.lft.to/lastmile_qr_scan", "ios": "https://dc.lft.to/lastmile_qr_scan"}, "fusion_lon": 0.0, "lat": 38.87454683333333, "bike_id": "17153e648f64b1feb66fe9687441930b", "type": "electric_scooter", "is_reserved": 0, "lon": -77.00282383333334}, {"fusion_lat": 0.0, "name": "2587de0f29a463b82dc015b963e2ba80", "is_disabled": 0, "rental_uris": {"android": "https://dc.lft.to/lastmile_qr_scan", "ios": "https://dc.lft.to/lastmile_qr_scan"}, "fusion_lon": 0.0, "lat": 38.930762, "bike_id": "2587de0f29a463b82dc015b963e2ba80", "type": "electric_scooter", "is_reserved": 0, "lon": -77.02793016666666}, {"fusion_lat": 0.0, "name": "7e2d6a14992df2b9f835b23d9921176c", "is_disabled": 0, "rental_uris": {"android": "https://dc.lft.to/lastmile_qr_scan", "ios": "https://dc.lft.to/lastmile_qr_scan"}, "fusion_lon": 0.0, "lat": 38.91481783333333, "bike_id": "7e2d6a14992df2b9f835b23d9921176c", "type": "electric_scooter", "is_reserved": 0, "lon": -77.04609133333334}, {"fusion_lat": 0.0, "name": "054a903867b25bd367a226f1953510cd", "is_disabled": 0, "rental_uris": {"android": "https://dc.lft.to/lastmile_qr_scan", "ios": "https://dc.lft.to/lastmile_qr_scan"}, "fusion_lon": 0.0, "lat": 38.9172465, "bike_id": "054a903867b25bd367a226f1953510cd", "type": "electric_scooter", "is_reserved": 0, "lon": -77.019172}, {"fusion_lat": 0.0, "name": "00ed3b7bef1b65f3914c60355818bc24", "is_disabled": 0, "rental_uris": {"android": "https://dc.lft.to/lastmile_qr_scan", "ios": "https://dc.lft.to/lastmile_qr_scan"}, "fusion_lon": 0.0, "lat": 38.9206455, "bike_id": "00ed3b7bef1b65f3914c60355818bc24", "type": "electric_scooter", "is_reserved": 0, "lon": -77.0380565}, {"fusion_lat": 0.0, "name": "dce193135a7cd034485c3f227474d52d", "is_disabled": 0, "rental_uris": {"android": "https://dc.lft.to/lastmile_qr_scan", "ios": "https://dc.lft.to/lastmile_qr_scan"}, "fusion_lon": 0.0, "lat": 38.9288135, "bike_id": "dce193135a7cd034485c3f227474d52d", "type": "electric_scooter", "is_reserved": 0, "lon": -77.01421966666666}, {"fusion_lat": 0.0, "name": "4629b35e159116d7250d4d12d172c42b", "is_disabled": 0, "rental_uris": {"android": "https://dc.lft.to/lastmile_qr_scan", "ios": "https://dc.lft.to/lastmile_qr_scan"}, "fusion_lon": 0.0, "lat": 38.94097333333333, "bike_id": "4629b35e159116d7250d4d12d172c42b", "type": "electric_scooter", "is_reserved": 0, "lon": -77.03281}, {"fusion_lat": 0.0, "name": "a3f81e113cba1035f68c8dd153b81333", "is_disabled": 0, "rental_uris": {"android": "https://dc.lft.to/lastmile_qr_scan", "ios": "https://dc.lft.to/lastmile_qr_scan"}, "fusion_lon": 0.0, "lat": 38.920481833333334, "bike_id": "a3f81e113cba1035f68c8dd153b81333", "type": "electric_scooter", "is_reserved": 0, "lon": -77.02362333333333}, {"fusion_lat": 0.0, "name": "5da260682693a5f288ba01d9d88a9c89", "is_disabled": 0, "rental_uris": {"android": "https://dc.lft.to/lastmile_qr_scan", "ios": "https://dc.lft.to/lastmile_qr_scan"}, "fusion_lon": 0.0, "lat": 38.9307225, "bike_id": "5da260682693a5f288ba01d9d88a9c89", "type": "electric_scooter", "is_reserved": 0, "lon": -77.0776095}, {"fusion_lat": 0.0, "name": "0e9a4161c7d7b2278649b6e815431c12", "is_disabled": 0, "rental_uris": {"android": "https://dc.lft.to/lastmile_qr_scan", "ios": "https://dc.lft.to/lastmile_qr_scan"}, "fusion_lon": 0.0, "lat": 38.91850216666667, "bike_id": "0e9a4161c7d7b2278649b6e815431c12", "type": "electric_scooter", "is_reserved": 0, "lon": -77.024567}, {"fusion_lat": 0.0, "name": "7720b9fe034fcc3d60636e8596263493", "is_disabled": 0, "rental_uris": {"android": "https://dc.lft.to/lastmile_qr_scan", "ios": "https://dc.lft.to/lastmile_qr_scan"}, "fusion_lon": 0.0, "lat": 38.921452, "bike_id": "7720b9fe034fcc3d60636e8596263493", "type": "electric_scooter", "is_reserved": 0, "lon": -77.04353766666667}, {"fusion_lat": 0.0, "name": "402f4b96cee1c29d1d1f995aa8e90616", "is_disabled": 0, "rental_uris": {"android": "https://dc.lft.to/lastmile_qr_scan", "ios": "https://dc.lft.to/lastmile_qr_scan"}, "fusion_lon": 0.0, "lat": 38.903825166666664, "bike_id": "402f4b96cee1c29d1d1f995aa8e90616", "type": "electric_scooter", "is_reserved": 0, "lon": -77.01773216666666}, {"fusion_lat": 0.0, "name": "37e980e47281b17f5e5e67b875efc90c", "is_disabled": 0, "rental_uris": {"android": "https://dc.lft.to/lastmile_qr_scan", "ios": "https://dc.lft.to/lastmile_qr_scan"}, "fusion_lon": 0.0, "lat": 38.921308, "bike_id": "37e980e47281b17f5e5e67b875efc90c", "type": "electric_scooter", "is_reserved": 0, "lon": -77.00400166666667}, {"fusion_lat": 0.0, "name": "2a2fb03d5661124e802e6b3117a67252", "is_disabled": 0, "rental_uris": {"android": "https://dc.lft.to/lastmile_qr_scan", "ios": "https://dc.lft.to/lastmile_qr_scan"}, "fusion_lon": 0.0, "lat": 38.905554333333335, "bike_id": "2a2fb03d5661124e802e6b3117a67252", "type": "electric_scooter", "is_reserved": 0, "lon": -77.04269833333333}, {"fusion_lat": 0.0, "name": "74b8987ef8921471a606d606b8fb0bf3", "is_disabled": 0, "rental_uris": {"android": "https://dc.lft.to/lastmile_qr_scan", "ios": "https://dc.lft.to/lastmile_qr_scan"}, "fusion_lon": 0.0, "lat": 38.902059333333334, "bike_id": "74b8987ef8921471a606d606b8fb0bf3", "type": "electric_scooter", "is_reserved": 0, "lon": -77.05077516666667}, {"fusion_lat": 0.0, "name": "e460c515720a73cbcfad2b3a62231ce1", "is_disabled": 0, "rental_uris": {"android": "https://dc.lft.to/lastmile_qr_scan", "ios": "https://dc.lft.to/lastmile_qr_scan"}, "fusion_lon": 0.0, "lat": 38.83812416666667, "bike_id": "e460c515720a73cbcfad2b3a62231ce1", "type": "electric_bike", "is_reserved": 0, "lon": -77.095205}, {"fusion_lat": 0.0, "name": "7b3a7bbca664b5fea3cc2231ff0e4138", "is_disabled": 0, "rental_uris": {"android": "https://dc.lft.to/lastmile_qr_scan", "ios": "https://dc.lft.to/lastmile_qr_scan"}, "fusion_lon": 0.0, "lat": 38.87479783333333, "bike_id": "7b3a7bbca664b5fea3cc2231ff0e4138", "type": "electric_scooter", "is_reserved": 0, "lon": -77.00597666666667}, {"fusion_lat": 0.0, "name": "4697d21fd4e3764a12bea2e6365376c2", "is_disabled": 0, "rental_uris": {"android": "https://dc.lft.to/lastmile_qr_scan", "ios": "https://dc.lft.to/lastmile_qr_scan"}, "fusion_lon": 0.0, "lat": 38.93305383333333, "bike_id": "4697d21fd4e3764a12bea2e6365376c2", "type": "electric_scooter", "is_reserved": 0, "lon": -77.030844}, {"fusion_lat": 0.0, "name": "786aa35d3df505273038441e32ccde64", "is_disabled": 0, "rental_uris": {"android": "https://dc.lft.to/lastmile_qr_scan", "ios": "https://dc.lft.to/lastmile_qr_scan"}, "fusion_lon": 0.0, "lat": 38.97878033333333, "bike_id": "786aa35d3df505273038441e32ccde64", "type": "electric_bike", "is_reserved": 0, "lon": -77.06026866666667}, {"fusion_lat": 0.0, "name": "925b25087d4546c37354f3fb88c22e74", "is_disabled": 0, "rental_uris": {"android": "https://dc.lft.to/lastmile_qr_scan", "ios": "https://dc.lft.to/lastmile_qr_scan"}, "fusion_lon": 0.0, "lat": 38.9111895, "bike_id": "925b25087d4546c37354f3fb88c22e74", "type": "electric_scooter", "is_reserved": 0, "lon": -77.03831966666667}, {"fusion_lat": 0.0, "name": "953cc0d5a09376a5ba4a137df4533125", "is_disabled": 0, "rental_uris": {"android": "https://dc.lft.to/lastmile_qr_scan", "ios": "https://dc.lft.to/lastmile_qr_scan"}, "fusion_lon": 0.0, "lat": 38.874509, "bike_id": "953cc0d5a09376a5ba4a137df4533125", "type": "electric_scooter", "is_reserved": 0, "lon": -77.00926266666667}, {"fusion_lat": 0.0, "name": "a9adf0cd030328faa1a0b938ccf0b5e8", "is_disabled": 0, "rental_uris": {"android": "https://dc.lft.to/lastmile_qr_scan", "ios": "https://dc.lft.to/lastmile_qr_scan"}, "fusion_lon": 0.0, "lat": 38.92371216666667, "bike_id": "a9adf0cd030328faa1a0b938ccf0b5e8", "type": "electric_scooter", "is_reserved": 0, "lon": -77.05254433333333}, {"fusion_lat": 0.0, "name": "fe730f6e4609c8d4a8628e2ef3e67fe1", "is_disabled": 0, "rental_uris": {"android": "https://dc.lft.to/lastmile_qr_scan", "ios": "https://dc.lft.to/lastmile_qr_scan"}, "fusion_lon": 0.0, "lat": 38.924208, "bike_id": "fe730f6e4609c8d4a8628e2ef3e67fe1", "type": "electric_scooter", "is_reserved": 0, "lon": -77.04455166666666}, {"fusion_lat": 0.0, "name": "dda5fd5e1fbc90fd0ffb2017a23c89ec", "is_disabled": 0, "rental_uris": {"android": "https://dc.lft.to/lastmile_qr_scan", "ios": "https://dc.lft.to/lastmile_qr_scan"}, "fusion_lon": 0.0, "lat": 38.90646483333333, "bike_id": "dda5fd5e1fbc90fd0ffb2017a23c89ec", "type": "electric_scooter", "is_reserved": 0, "lon": -77.06289816666667}, {"fusion_lat": 0.0, "name": "87af99412c6b1a1d7264733acb32c110", "is_disabled": 0, "rental_uris": {"android": "https://dc.lft.to/lastmile_qr_scan", "ios": "https://dc.lft.to/lastmile_qr_scan"}, "fusion_lon": 0.0, "lat": 38.895708, "bike_id": "87af99412c6b1a1d7264733acb32c110", "type": "electric_scooter", "is_reserved": 0, "lon": -76.98320433333333}, {"fusion_lat": 0.0, "name": "94b3adc38370e1d25a640a7d7e4bd2f4", "is_disabled": 0, "rental_uris": {"android": "https://dc.lft.to/lastmile_qr_scan", "ios": "https://dc.lft.to/lastmile_qr_scan"}, "fusion_lon": 0.0, "lat": 38.963852333333335, "bike_id": "94b3adc38370e1d25a640a7d7e4bd2f4", "type": "electric_bike", "is_reserved": 0, "lon": -76.95034783333334}, {"fusion_lat": 0.0, "name": "b8900295cad688570ad9dd0a23cf4aeb", "is_disabled": 0, "rental_uris": {"android": "https://dc.lft.to/lastmile_qr_scan", "ios": "https://dc.lft.to/lastmile_qr_scan"}, "fusion_lon": 0.0, "lat": 38.91842333333334, "bike_id": "b8900295cad688570ad9dd0a23cf4aeb", "type": "electric_scooter", "is_reserved": 0, "lon": -77.03516133333333}, {"fusion_lat": 0.0, "name": "383a09dad69c62f8fc05ecd229e89d92", "is_disabled": 0, "rental_uris": {"android": "https://dc.lft.to/lastmile_qr_scan", "ios": "https://dc.lft.to/lastmile_qr_scan"}, "fusion_lon": 0.0, "lat": 38.9207395, "bike_id": "383a09dad69c62f8fc05ecd229e89d92", "type": "electric_scooter", "is_reserved": 0, "lon": -77.02410766666667}, {"fusion_lat": 0.0, "name": "8d3d16fbad9826c8c6fea236f71d419c", "is_disabled": 0, "rental_uris": {"android": "https://dc.lft.to/lastmile_qr_scan", "ios": "https://dc.lft.to/lastmile_qr_scan"}, "fusion_lon": 0.0, "lat": 38.89217266666667, "bike_id": "8d3d16fbad9826c8c6fea236f71d419c", "type": "electric_scooter", "is_reserved": 0, "lon": -76.95743483333334}, {"fusion_lat": 0.0, "name": "fd5ba3f5e01ec597f081f9c05159ceb0", "is_disabled": 0, "rental_uris": {"android": "https://dc.lft.to/lastmile_qr_scan", "ios": "https://dc.lft.to/lastmile_qr_scan"}, "fusion_lon": 0.0, "lat": 38.93356283333333, "bike_id": "fd5ba3f5e01ec597f081f9c05159ceb0", "type": "electric_scooter", "is_reserved": 0, "lon": -77.07310666666666}, {"fusion_lat": 0.0, "name": "0b73960939c661ff2219bf0e636b7058", "is_disabled": 0, "rental_uris": {"android": "https://dc.lft.to/lastmile_qr_scan", "ios": "https://dc.lft.to/lastmile_qr_scan"}, "fusion_lon": 0.0, "lat": 38.9123495, "bike_id": "0b73960939c661ff2219bf0e636b7058", "type": "electric_scooter", "is_reserved": 0, "lon": -77.04518766666666}, {"fusion_lat": 0.0, "name": "95872f90004353aabc01c983201806aa", "is_disabled": 0, "rental_uris": {"android": "https://dc.lft.to/lastmile_qr_scan", "ios": "https://dc.lft.to/lastmile_qr_scan"}, "fusion_lon": 0.0, "lat": 38.920688, "bike_id": "95872f90004353aabc01c983201806aa", "type": "electric_scooter", "is_reserved": 0, "lon": -77.04379366666667}, {"fusion_lat": 0.0, "name": "158a8b3582c0f3ce4a6264f2e421595e", "is_disabled": 0, "rental_uris": {"android": "https://dc.lft.to/lastmile_qr_scan", "ios": "https://dc.lft.to/lastmile_qr_scan"}, "fusion_lon": 0.0, "lat": 38.917013833333336, "bike_id": "158a8b3582c0f3ce4a6264f2e421595e", "type": "electric_scooter", "is_reserved": 0, "lon": -77.02400183333333}, {"fusion_lat": 0.0, "name": "3052039af3282c8513f47f8d4c2a3e25", "is_disabled": 0, "rental_uris": {"android": "https://dc.lft.to/lastmile_qr_scan", "ios": "https://dc.lft.to/lastmile_qr_scan"}, "fusion_lon": 0.0, "lat": 38.925363, "bike_id": "3052039af3282c8513f47f8d4c2a3e25", "type": "electric_scooter", "is_reserved": 0, "lon": -77.05246583333333}, {"fusion_lat": 0.0, "name": "90ca0eecf0f54e091a5c4e2816779861", "is_disabled": 0, "rental_uris": {"android": "https://dc.lft.to/lastmile_qr_scan", "ios": "https://dc.lft.to/lastmile_qr_scan"}, "fusion_lon": 0.0, "lat": 38.87848783333333, "bike_id": "90ca0eecf0f54e091a5c4e2816779861", "type": "electric_scooter", "is_reserved": 0, "lon": -77.00558216666667}, {"fusion_lat": 0.0, "name": "92a6ad2c15812c2bde62f13d0e033607", "is_disabled": 0, "rental_uris": {"android": "https://dc.lft.to/lastmile_qr_scan", "ios": "https://dc.lft.to/lastmile_qr_scan"}, "fusion_lon": 0.0, "lat": 38.916278166666665, "bike_id": "92a6ad2c15812c2bde62f13d0e033607", "type": "electric_scooter", "is_reserved": 0, "lon": -77.05070666666667}, {"fusion_lat": 0.0, "name": "a68497338625925a90ccfc3405904c73", "is_disabled": 0, "rental_uris": {"android": "https://dc.lft.to/lastmile_qr_scan", "ios": "https://dc.lft.to/lastmile_qr_scan"}, "fusion_lon": 0.0, "lat": 38.897735833333336, "bike_id": "a68497338625925a90ccfc3405904c73", "type": "electric_bike", "is_reserved": 0, "lon": -77.00748316666666}, {"fusion_lat": 0.0, "name": "de2877e79afacbbbe264618f573c24a9", "is_disabled": 0, "rental_uris": {"android": "https://dc.lft.to/lastmile_qr_scan", "ios": "https://dc.lft.to/lastmile_qr_scan"}, "fusion_lon": 0.0, "lat": 38.89631983333334, "bike_id": "de2877e79afacbbbe264618f573c24a9", "type": "electric_scooter", "is_reserved": 0, "lon": -77.0241375}, {"fusion_lat": 0.0, "name": "3b76bda7bedb73295ca28c9a84e6ac52", "is_disabled": 0, "rental_uris": {"android": "https://dc.lft.to/lastmile_qr_scan", "ios": "https://dc.lft.to/lastmile_qr_scan"}, "fusion_lon": 0.0, "lat": 38.920287, "bike_id": "3b76bda7bedb73295ca28c9a84e6ac52", "type": "electric_scooter", "is_reserved": 0, "lon": -77.08190166666667}, {"fusion_lat": 0.0, "name": "fbe1e86ee0f097cd70c74727cd5b76ba", "is_disabled": 0, "rental_uris": {"android": "https://dc.lft.to/lastmile_qr_scan", "ios": "https://dc.lft.to/lastmile_qr_scan"}, "fusion_lon": 0.0, "lat": 38.9024805, "bike_id": "fbe1e86ee0f097cd70c74727cd5b76ba", "type": "electric_scooter", "is_reserved": 0, "lon": -77.01094}, {"fusion_lat": 0.0, "name": "914ad4f4e602bfde950b96135e463d61", "is_disabled": 0, "rental_uris": {"android": "https://dc.lft.to/lastmile_qr_scan", "ios": "https://dc.lft.to/lastmile_qr_scan"}, "fusion_lon": 0.0, "lat": 38.911754333333334, "bike_id": "914ad4f4e602bfde950b96135e463d61", "type": "electric_scooter", "is_reserved": 0, "lon": -77.03205733333333}, {"fusion_lat": 0.0, "name": "3cfe4cd3b208170f47488717a58e3900", "is_disabled": 0, "rental_uris": {"android": "https://dc.lft.to/lastmile_qr_scan", "ios": "https://dc.lft.to/lastmile_qr_scan"}, "fusion_lon": 0.0, "lat": 38.915482, "bike_id": "3cfe4cd3b208170f47488717a58e3900", "type": "electric_scooter", "is_reserved": 0, "lon": -77.02082133333333}, {"fusion_lat": 0.0, "name": "bdea48719d1abbf0fc97c78370d36d38", "is_disabled": 0, "rental_uris": {"android": "https://dc.lft.to/lastmile_qr_scan", "ios": "https://dc.lft.to/lastmile_qr_scan"}, "fusion_lon": 0.0, "lat": 38.887449, "bike_id": "bdea48719d1abbf0fc97c78370d36d38", "type": "electric_scooter", "is_reserved": 0, "lon": -77.02775633333333}, {"fusion_lat": 0.0, "name": "6446da180d7ad4979db3543dd4a88f7f", "is_disabled": 0, "rental_uris": {"android": "https://dc.lft.to/lastmile_qr_scan", "ios": "https://dc.lft.to/lastmile_qr_scan"}, "fusion_lon": 0.0, "lat": 38.934195833333334, "bike_id": "6446da180d7ad4979db3543dd4a88f7f", "type": "electric_scooter", "is_reserved": 0, "lon": -77.04274916666667}, {"fusion_lat": 0.0, "name": "aecb0898b83f1d3acbc1b474212b9462", "is_disabled": 0, "rental_uris": {"android": "https://dc.lft.to/lastmile_qr_scan", "ios": "https://dc.lft.to/lastmile_qr_scan"}, "fusion_lon": 0.0, "lat": 38.9299825, "bike_id": "aecb0898b83f1d3acbc1b474212b9462", "type": "electric_scooter", "is_reserved": 0, "lon": -77.021852}, {"fusion_lat": 0.0, "name": "6a2f2b1ea6295be1f51fd1cc9c3c4f6b", "is_disabled": 0, "rental_uris": {"android": "https://dc.lft.to/lastmile_qr_scan", "ios": "https://dc.lft.to/lastmile_qr_scan"}, "fusion_lon": 0.0, "lat": 38.898546333333336, "bike_id": "6a2f2b1ea6295be1f51fd1cc9c3c4f6b", "type": "electric_bike", "is_reserved": 0, "lon": -77.01950116666667}, {"fusion_lat": 0.0, "name": "9960394a52d55a5bf7ea7862c3d58372", "is_disabled": 0, "rental_uris": {"android": "https://dc.lft.to/lastmile_qr_scan", "ios": "https://dc.lft.to/lastmile_qr_scan"}, "fusion_lon": 0.0, "lat": 38.90814266666667, "bike_id": "9960394a52d55a5bf7ea7862c3d58372", "type": "electric_scooter", "is_reserved": 0, "lon": -77.043274}, {"fusion_lat": 0.0, "name": "853f292a677891add55b980cd1d2f6fb", "is_disabled": 0, "rental_uris": {"android": "https://dc.lft.to/lastmile_qr_scan", "ios": "https://dc.lft.to/lastmile_qr_scan"}, "fusion_lon": 0.0, "lat": 38.9122135, "bike_id": "853f292a677891add55b980cd1d2f6fb", "type": "electric_scooter", "is_reserved": 0, "lon": -77.03186283333334}, {"fusion_lat": 0.0, "name": "052082b48b6b7dd9bb20c1d682149049", "is_disabled": 0, "rental_uris": {"android": "https://dc.lft.to/lastmile_qr_scan", "ios": "https://dc.lft.to/lastmile_qr_scan"}, "fusion_lon": 0.0, "lat": 38.899690166666666, "bike_id": "052082b48b6b7dd9bb20c1d682149049", "type": "electric_scooter", "is_reserved": 0, "lon": -77.0247385}, {"fusion_lat": 0.0, "name": "0a9aedd3d69b72588e4b83a41ee35782", "is_disabled": 0, "rental_uris": {"android": "https://dc.lft.to/lastmile_qr_scan", "ios": "https://dc.lft.to/lastmile_qr_scan"}, "fusion_lon": 0.0, "lat": 38.91447566666667, "bike_id": "0a9aedd3d69b72588e4b83a41ee35782", "type": "electric_scooter", "is_reserved": 0, "lon": -77.04501783333333}, {"fusion_lat": 0.0, "name": "08c1a08f02a6f8873412620e55bb231d", "is_disabled": 0, "rental_uris": {"android": "https://dc.lft.to/lastmile_qr_scan", "ios": "https://dc.lft.to/lastmile_qr_scan"}, "fusion_lon": 0.0, "lat": 38.90727616666667, "bike_id": "08c1a08f02a6f8873412620e55bb231d", "type": "electric_scooter", "is_reserved": 0, "lon": -77.025276}, {"fusion_lat": 0.0, "name": "78d45c6f722f3f5d6df56e9daea60dd1", "is_disabled": 0, "rental_uris": {"android": "https://dc.lft.to/lastmile_qr_scan", "ios": "https://dc.lft.to/lastmile_qr_scan"}, "fusion_lon": 0.0, "lat": 38.92439533333334, "bike_id": "78d45c6f722f3f5d6df56e9daea60dd1", "type": "electric_scooter", "is_reserved": 0, "lon": -77.05228783333334}, {"fusion_lat": 0.0, "name": "2f0e28d88f4357e80c0de33a7c2c3c34", "is_disabled": 0, "rental_uris": {"android": "https://dc.lft.to/lastmile_qr_scan", "ios": "https://dc.lft.to/lastmile_qr_scan"}, "fusion_lon": 0.0, "lat": 38.9125015, "bike_id": "2f0e28d88f4357e80c0de33a7c2c3c34", "type": "electric_scooter", "is_reserved": 0, "lon": -77.00801466666667}, {"fusion_lat": 0.0, "name": "3c00077b9a84d480f757d278a1bf7d4b", "is_disabled": 0, "rental_uris": {"android": "https://dc.lft.to/lastmile_qr_scan", "ios": "https://dc.lft.to/lastmile_qr_scan"}, "fusion_lon": 0.0, "lat": 38.892458833333336, "bike_id": "3c00077b9a84d480f757d278a1bf7d4b", "type": "electric_scooter", "is_reserved": 0, "lon": -77.03957916666667}, {"fusion_lat": 0.0, "name": "b435a1b1aa6211b7cd5c5dffc4d518ca", "is_disabled": 0, "rental_uris": {"android": "https://dc.lft.to/lastmile_qr_scan", "ios": "https://dc.lft.to/lastmile_qr_scan"}, "fusion_lon": 0.0, "lat": 38.889869833333336, "bike_id": "b435a1b1aa6211b7cd5c5dffc4d518ca", "type": "electric_scooter", "is_reserved": 0, "lon": -76.91417983333334}, {"fusion_lat": 0.0, "name": "d5ecab5a4a99c25f5db86dd448ee5b39", "is_disabled": 0, "rental_uris": {"android": "https://dc.lft.to/lastmile_qr_scan", "ios": "https://dc.lft.to/lastmile_qr_scan"}, "fusion_lon": 0.0, "lat": 38.91102816666667, "bike_id": "d5ecab5a4a99c25f5db86dd448ee5b39", "type": "electric_scooter", "is_reserved": 0, "lon": -77.041991}, {"fusion_lat": 0.0, "name": "4bd48cf9382cd640959cc8ceef9f5d1f", "is_disabled": 0, "rental_uris": {"android": "https://dc.lft.to/lastmile_qr_scan", "ios": "https://dc.lft.to/lastmile_qr_scan"}, "fusion_lon": 0.0, "lat": 38.90625416666666, "bike_id": "4bd48cf9382cd640959cc8ceef9f5d1f", "type": "electric_scooter", "is_reserved": 0, "lon": -77.00598616666667}, {"fusion_lat": 0.0, "name": "f4e2aeaf6b820d43c5c5222e3aa56ad3", "is_disabled": 0, "rental_uris": {"android": "https://dc.lft.to/lastmile_qr_scan", "ios": "https://dc.lft.to/lastmile_qr_scan"}, "fusion_lon": 0.0, "lat": 38.915572166666664, "bike_id": "f4e2aeaf6b820d43c5c5222e3aa56ad3", "type": "electric_scooter", "is_reserved": 0, "lon": -77.02141033333334}, {"fusion_lat": 0.0, "name": "e8c4714dcdd312a266f79252b0e778d4", "is_disabled": 0, "rental_uris": {"android": "https://dc.lft.to/lastmile_qr_scan", "ios": "https://dc.lft.to/lastmile_qr_scan"}, "fusion_lon": 0.0, "lat": 38.9055385, "bike_id": "e8c4714dcdd312a266f79252b0e778d4", "type": "electric_scooter", "is_reserved": 0, "lon": -77.04668733333334}, {"fusion_lat": 0.0, "name": "392db1e2befa79e8a632f5499635ccf9", "is_disabled": 0, "rental_uris": {"android": "https://dc.lft.to/lastmile_qr_scan", "ios": "https://dc.lft.to/lastmile_qr_scan"}, "fusion_lon": 0.0, "lat": 38.89743266666667, "bike_id": "392db1e2befa79e8a632f5499635ccf9", "type": "electric_scooter", "is_reserved": 0, "lon": -77.00851616666667}, {"fusion_lat": 0.0, "name": "1dff1db38fe0b116830196d957a7838e", "is_disabled": 0, "rental_uris": {"android": "https://dc.lft.to/lastmile_qr_scan", "ios": "https://dc.lft.to/lastmile_qr_scan"}, "fusion_lon": 0.0, "lat": 38.954865166666664, "bike_id": "1dff1db38fe0b116830196d957a7838e", "type": "electric_bike", "is_reserved": 0, "lon": -77.02666433333333}, {"fusion_lat": 0.0, "name": "e9e6a08d3db7c34eea3fe9abeb119a42", "is_disabled": 0, "rental_uris": {"android": "https://dc.lft.to/lastmile_qr_scan", "ios": "https://dc.lft.to/lastmile_qr_scan"}, "fusion_lon": 0.0, "lat": 38.92205033333333, "bike_id": "e9e6a08d3db7c34eea3fe9abeb119a42", "type": "electric_scooter", "is_reserved": 0, "lon": -77.08090416666667}, {"fusion_lat": 0.0, "name": "f4a3ec5b1a46238cb379573e1537bf35", "is_disabled": 0, "rental_uris": {"android": "https://dc.lft.to/lastmile_qr_scan", "ios": "https://dc.lft.to/lastmile_qr_scan"}, "fusion_lon": 0.0, "lat": 38.95800766666667, "bike_id": "f4a3ec5b1a46238cb379573e1537bf35", "type": "electric_bike", "is_reserved": 0, "lon": -76.96045466666666}, {"fusion_lat": 0.0, "name": "8a0bfacd3bc3edeaf1bc5d12a6f4a0ec", "is_disabled": 0, "rental_uris": {"android": "https://dc.lft.to/lastmile_qr_scan", "ios": "https://dc.lft.to/lastmile_qr_scan"}, "fusion_lon": 0.0, "lat": 38.8991, "bike_id": "8a0bfacd3bc3edeaf1bc5d12a6f4a0ec", "type": "electric_scooter", "is_reserved": 0, "lon": -76.93343716666666}, {"fusion_lat": 0.0, "name": "76454ea8d290b3c00c9d129bcd2a5568", "is_disabled": 0, "rental_uris": {"android": "https://dc.lft.to/lastmile_qr_scan", "ios": "https://dc.lft.to/lastmile_qr_scan"}, "fusion_lon": 0.0, "lat": 38.91693983333333, "bike_id": "76454ea8d290b3c00c9d129bcd2a5568", "type": "electric_scooter", "is_reserved": 0, "lon": -77.03382366666666}, {"fusion_lat": 0.0, "name": "1cc53085b5c52d1f31d3c16f09f8e4bd", "is_disabled": 0, "rental_uris": {"android": "https://dc.lft.to/lastmile_qr_scan", "ios": "https://dc.lft.to/lastmile_qr_scan"}, "fusion_lon": 0.0, "lat": 38.93537883333333, "bike_id": "1cc53085b5c52d1f31d3c16f09f8e4bd", "type": "electric_scooter", "is_reserved": 0, "lon": -77.05741483333334}, {"fusion_lat": 0.0, "name": "7ae1750e7645b2348a41cdde748eff1a", "is_disabled": 0, "rental_uris": {"android": "https://dc.lft.to/lastmile_qr_scan", "ios": "https://dc.lft.to/lastmile_qr_scan"}, "fusion_lon": 0.0, "lat": 38.892935333333334, "bike_id": "7ae1750e7645b2348a41cdde748eff1a", "type": "electric_scooter", "is_reserved": 0, "lon": -77.01227333333334}, {"fusion_lat": 0.0, "name": "fd62c0fbf1119ea21dcb95cf0e4a5ee2", "is_disabled": 0, "rental_uris": {"android": "https://dc.lft.to/lastmile_qr_scan", "ios": "https://dc.lft.to/lastmile_qr_scan"}, "fusion_lon": 0.0, "lat": 38.901227666666664, "bike_id": "fd62c0fbf1119ea21dcb95cf0e4a5ee2", "type": "electric_scooter", "is_reserved": 0, "lon": -77.00205633333333}, {"fusion_lat": 0.0, "name": "8ba6c86f8a6c6d47a028dc1c0479f226", "is_disabled": 0, "rental_uris": {"android": "https://dc.lft.to/lastmile_qr_scan", "ios": "https://dc.lft.to/lastmile_qr_scan"}, "fusion_lon": 0.0, "lat": 38.90989416666667, "bike_id": "8ba6c86f8a6c6d47a028dc1c0479f226", "type": "electric_scooter", "is_reserved": 0, "lon": -77.04666983333334}, {"fusion_lat": 0.0, "name": "29413bace1e8fd88233a3f2a1a5f1c2c", "is_disabled": 0, "rental_uris": {"android": "https://dc.lft.to/lastmile_qr_scan", "ios": "https://dc.lft.to/lastmile_qr_scan"}, "fusion_lon": 0.0, "lat": 38.905736166666664, "bike_id": "29413bace1e8fd88233a3f2a1a5f1c2c", "type": "electric_scooter", "is_reserved": 0, "lon": -77.04674866666667}, {"fusion_lat": 0.0, "name": "fd3af1601e9e17470e0ca1ed2b3f57ee", "is_disabled": 0, "rental_uris": {"android": "https://dc.lft.to/lastmile_qr_scan", "ios": "https://dc.lft.to/lastmile_qr_scan"}, "fusion_lon": 0.0, "lat": 38.9386055, "bike_id": "fd3af1601e9e17470e0ca1ed2b3f57ee", "type": "electric_scooter", "is_reserved": 0, "lon": -77.0343115}, {"fusion_lat": 0.0, "name": "db0ef99de5c2af5a292a9348c31c726a", "is_disabled": 0, "rental_uris": {"android": "https://dc.lft.to/lastmile_qr_scan", "ios": "https://dc.lft.to/lastmile_qr_scan"}, "fusion_lon": 0.0, "lat": 38.914964166666664, "bike_id": "db0ef99de5c2af5a292a9348c31c726a", "type": "electric_bike", "is_reserved": 0, "lon": -77.01849933333334}, {"fusion_lat": 0.0, "name": "eea4ff6d0417c07ad3c31b8c400c70cf", "is_disabled": 0, "rental_uris": {"android": "https://dc.lft.to/lastmile_qr_scan", "ios": "https://dc.lft.to/lastmile_qr_scan"}, "fusion_lon": 0.0, "lat": 38.93396533333333, "bike_id": "eea4ff6d0417c07ad3c31b8c400c70cf", "type": "electric_scooter", "is_reserved": 0, "lon": -77.05743166666667}, {"fusion_lat": 0.0, "name": "c86f6c6cb28514758da35f86b95b3e12", "is_disabled": 0, "rental_uris": {"android": "https://dc.lft.to/lastmile_qr_scan", "ios": "https://dc.lft.to/lastmile_qr_scan"}, "fusion_lon": 0.0, "lat": 38.904824166666664, "bike_id": "c86f6c6cb28514758da35f86b95b3e12", "type": "electric_scooter", "is_reserved": 0, "lon": -77.04878366666667}, {"fusion_lat": 0.0, "name": "f964bd5b6721c55912fe8d0e8fffee90", "is_disabled": 0, "rental_uris": {"android": "https://dc.lft.to/lastmile_qr_scan", "ios": "https://dc.lft.to/lastmile_qr_scan"}, "fusion_lon": 0.0, "lat": 38.9113395, "bike_id": "f964bd5b6721c55912fe8d0e8fffee90", "type": "electric_scooter", "is_reserved": 0, "lon": -77.03218266666667}, {"fusion_lat": 0.0, "name": "a82ddf3daef6f9ebb667f5a6ad7ecdf5", "is_disabled": 0, "rental_uris": {"android": "https://dc.lft.to/lastmile_qr_scan", "ios": "https://dc.lft.to/lastmile_qr_scan"}, "fusion_lon": 0.0, "lat": 38.892427, "bike_id": "a82ddf3daef6f9ebb667f5a6ad7ecdf5", "type": "electric_scooter", "is_reserved": 0, "lon": -77.028268}, {"fusion_lat": 0.0, "name": "3142e4437eb9ea112a78c116f9fe8389", "is_disabled": 0, "rental_uris": {"android": "https://dc.lft.to/lastmile_qr_scan", "ios": "https://dc.lft.to/lastmile_qr_scan"}, "fusion_lon": 0.0, "lat": 38.90714833333333, "bike_id": "3142e4437eb9ea112a78c116f9fe8389", "type": "electric_scooter", "is_reserved": 0, "lon": -77.04813866666667}, {"fusion_lat": 0.0, "name": "fe0c92d37e689bdd325c8c98b26f5e01", "is_disabled": 0, "rental_uris": {"android": "https://dc.lft.to/lastmile_qr_scan", "ios": "https://dc.lft.to/lastmile_qr_scan"}, "fusion_lon": 0.0, "lat": 38.88539733333333, "bike_id": "fe0c92d37e689bdd325c8c98b26f5e01", "type": "electric_scooter", "is_reserved": 0, "lon": -77.02006133333333}, {"fusion_lat": 0.0, "name": "f9e54632f2ecab270ce84f10b0586eb1", "is_disabled": 0, "rental_uris": {"android": "https://dc.lft.to/lastmile_qr_scan", "ios": "https://dc.lft.to/lastmile_qr_scan"}, "fusion_lon": 0.0, "lat": 38.887343666666666, "bike_id": "f9e54632f2ecab270ce84f10b0586eb1", "type": "electric_scooter", "is_reserved": 0, "lon": -77.00344033333333}, {"fusion_lat": 0.0, "name": "56926a839afa79ae5b011e1a589ef5f2", "is_disabled": 0, "rental_uris": {"android": "https://dc.lft.to/lastmile_qr_scan", "ios": "https://dc.lft.to/lastmile_qr_scan"}, "fusion_lon": 0.0, "lat": 38.90548916666667, "bike_id": "56926a839afa79ae5b011e1a589ef5f2", "type": "electric_scooter", "is_reserved": 0, "lon": -77.06294916666667}, {"fusion_lat": 0.0, "name": "2ad63b8835bd37b33611c9c60905397a", "is_disabled": 0, "rental_uris": {"android": "https://dc.lft.to/lastmile_qr_scan", "ios": "https://dc.lft.to/lastmile_qr_scan"}, "fusion_lon": 0.0, "lat": 38.9002575, "bike_id": "2ad63b8835bd37b33611c9c60905397a", "type": "electric_scooter", "is_reserved": 0, "lon": -77.01210716666667}, {"fusion_lat": 0.0, "name": "4bb1c7c4922bb673913016d67200565a", "is_disabled": 0, "rental_uris": {"android": "https://dc.lft.to/lastmile_qr_scan", "ios": "https://dc.lft.to/lastmile_qr_scan"}, "fusion_lon": 0.0, "lat": 38.916276333333336, "bike_id": "4bb1c7c4922bb673913016d67200565a", "type": "electric_scooter", "is_reserved": 0, "lon": -77.01347533333333}, {"fusion_lat": 0.0, "name": "eea67e8d95c87d68817bafdfec313427", "is_disabled": 0, "rental_uris": {"android": "https://dc.lft.to/lastmile_qr_scan", "ios": "https://dc.lft.to/lastmile_qr_scan"}, "fusion_lon": 0.0, "lat": 38.937719333333334, "bike_id": "eea67e8d95c87d68817bafdfec313427", "type": "electric_bike", "is_reserved": 0, "lon": -77.01876333333334}, {"fusion_lat": 0.0, "name": "cbc17777d888164a20b35462adca49b6", "is_disabled": 0, "rental_uris": {"android": "https://dc.lft.to/lastmile_qr_scan", "ios": "https://dc.lft.to/lastmile_qr_scan"}, "fusion_lon": 0.0, "lat": 38.903034, "bike_id": "cbc17777d888164a20b35462adca49b6", "type": "electric_scooter", "is_reserved": 0, "lon": -77.01185333333333}, {"fusion_lat": 0.0, "name": "09389829162e47ca7b7bfeed481caa6a", "is_disabled": 0, "rental_uris": {"android": "https://dc.lft.to/lastmile_qr_scan", "ios": "https://dc.lft.to/lastmile_qr_scan"}, "fusion_lon": 0.0, "lat": 38.93464733333333, "bike_id": "09389829162e47ca7b7bfeed481caa6a", "type": "electric_scooter", "is_reserved": 0, "lon": -77.041149}, {"fusion_lat": 0.0, "name": "174613100d3ca7dc48325365165c1695", "is_disabled": 0, "rental_uris": {"android": "https://dc.lft.to/lastmile_qr_scan", "ios": "https://dc.lft.to/lastmile_qr_scan"}, "fusion_lon": 0.0, "lat": 38.91218283333333, "bike_id": "174613100d3ca7dc48325365165c1695", "type": "electric_scooter", "is_reserved": 0, "lon": -77.03188116666666}, {"fusion_lat": 0.0, "name": "26e8eed08d8700d14dc02bdb13d49eaa", "is_disabled": 0, "rental_uris": {"android": "https://dc.lft.to/lastmile_qr_scan", "ios": "https://dc.lft.to/lastmile_qr_scan"}, "fusion_lon": 0.0, "lat": 38.910896666666666, "bike_id": "26e8eed08d8700d14dc02bdb13d49eaa", "type": "electric_scooter", "is_reserved": 0, "lon": -77.044476}, {"fusion_lat": 0.0, "name": "1883561866b1cd17980af25305f44488", "is_disabled": 0, "rental_uris": {"android": "https://dc.lft.to/lastmile_qr_scan", "ios": "https://dc.lft.to/lastmile_qr_scan"}, "fusion_lon": 0.0, "lat": 38.884018833333336, "bike_id": "1883561866b1cd17980af25305f44488", "type": "electric_scooter", "is_reserved": 0, "lon": -77.0083535}, {"fusion_lat": 0.0, "name": "620798dfe1baa0540e4a1b6c92d6b0ae", "is_disabled": 0, "rental_uris": {"android": "https://dc.lft.to/lastmile_qr_scan", "ios": "https://dc.lft.to/lastmile_qr_scan"}, "fusion_lon": 0.0, "lat": 38.912677, "bike_id": "620798dfe1baa0540e4a1b6c92d6b0ae", "type": "electric_scooter", "is_reserved": 0, "lon": -77.03643983333333}, {"fusion_lat": 0.0, "name": "0f87fd22d829a1fd6a24d545a64f6821", "is_disabled": 0, "rental_uris": {"android": "https://dc.lft.to/lastmile_qr_scan", "ios": "https://dc.lft.to/lastmile_qr_scan"}, "fusion_lon": 0.0, "lat": 38.903944833333334, "bike_id": "0f87fd22d829a1fd6a24d545a64f6821", "type": "electric_scooter", "is_reserved": 0, "lon": -77.06291516666667}, {"fusion_lat": 0.0, "name": "220421cc52730e05a91c1cd700e39ccb", "is_disabled": 0, "rental_uris": {"android": "https://dc.lft.to/lastmile_qr_scan", "ios": "https://dc.lft.to/lastmile_qr_scan"}, "fusion_lon": 0.0, "lat": 38.90457266666667, "bike_id": "220421cc52730e05a91c1cd700e39ccb", "type": "electric_scooter", "is_reserved": 0, "lon": -77.049021}, {"fusion_lat": 0.0, "name": "97f725cdc5b86d581556f0b1b3cf589b", "is_disabled": 0, "rental_uris": {"android": "https://dc.lft.to/lastmile_qr_scan", "ios": "https://dc.lft.to/lastmile_qr_scan"}, "fusion_lon": 0.0, "lat": 38.922876, "bike_id": "97f725cdc5b86d581556f0b1b3cf589b", "type": "electric_scooter", "is_reserved": 0, "lon": -77.02963683333333}, {"fusion_lat": 0.0, "name": "fd8e0ea23bb365e998d583ae2e771f5d", "is_disabled": 0, "rental_uris": {"android": "https://dc.lft.to/lastmile_qr_scan", "ios": "https://dc.lft.to/lastmile_qr_scan"}, "fusion_lon": 0.0, "lat": 38.92525833333333, "bike_id": "fd8e0ea23bb365e998d583ae2e771f5d", "type": "electric_scooter", "is_reserved": 0, "lon": -77.0410505}, {"fusion_lat": 0.0, "name": "88b275e666f473d5193687240b1177ed", "is_disabled": 0, "rental_uris": {"android": "https://dc.lft.to/lastmile_qr_scan", "ios": "https://dc.lft.to/lastmile_qr_scan"}, "fusion_lon": 0.0, "lat": 38.9035025, "bike_id": "88b275e666f473d5193687240b1177ed", "type": "electric_scooter", "is_reserved": 0, "lon": -76.97475466666667}, {"fusion_lat": 0.0, "name": "14236770d07d0d7202c8d0dffb616534", "is_disabled": 0, "rental_uris": {"android": "https://dc.lft.to/lastmile_qr_scan", "ios": "https://dc.lft.to/lastmile_qr_scan"}, "fusion_lon": 0.0, "lat": 38.907282333333335, "bike_id": "14236770d07d0d7202c8d0dffb616534", "type": "electric_scooter", "is_reserved": 0, "lon": -77.04192933333333}, {"fusion_lat": 0.0, "name": "177e0e734980323064b380a5454819d0", "is_disabled": 0, "rental_uris": {"android": "https://dc.lft.to/lastmile_qr_scan", "ios": "https://dc.lft.to/lastmile_qr_scan"}, "fusion_lon": 0.0, "lat": 38.894505333333335, "bike_id": "177e0e734980323064b380a5454819d0", "type": "electric_scooter", "is_reserved": 0, "lon": -77.027192}, {"fusion_lat": 0.0, "name": "265c63e46ea8232cf9ae984a170ad552", "is_disabled": 0, "rental_uris": {"android": "https://dc.lft.to/lastmile_qr_scan", "ios": "https://dc.lft.to/lastmile_qr_scan"}, "fusion_lon": 0.0, "lat": 38.903073166666665, "bike_id": "265c63e46ea8232cf9ae984a170ad552", "type": "electric_scooter", "is_reserved": 0, "lon": -76.97804116666667}, {"fusion_lat": 0.0, "name": "9f3e3d708e9b16de5fe0a30f74fbe784", "is_disabled": 0, "rental_uris": {"android": "https://dc.lft.to/lastmile_qr_scan", "ios": "https://dc.lft.to/lastmile_qr_scan"}, "fusion_lon": 0.0, "lat": 38.90235416666667, "bike_id": "9f3e3d708e9b16de5fe0a30f74fbe784", "type": "electric_scooter", "is_reserved": 0, "lon": -77.017973}, {"fusion_lat": 0.0, "name": "01b09653eccde3b94e8021f49a4450f4", "is_disabled": 0, "rental_uris": {"android": "https://dc.lft.to/lastmile_qr_scan", "ios": "https://dc.lft.to/lastmile_qr_scan"}, "fusion_lon": 0.0, "lat": 38.90556016666667, "bike_id": "01b09653eccde3b94e8021f49a4450f4", "type": "electric_scooter", "is_reserved": 0, "lon": -77.002842}, {"fusion_lat": 0.0, "name": "30ee92354bd1799dcb9ab2fd590d89b8", "is_disabled": 0, "rental_uris": {"android": "https://dc.lft.to/lastmile_qr_scan", "ios": "https://dc.lft.to/lastmile_qr_scan"}, "fusion_lon": 0.0, "lat": 38.9210605, "bike_id": "30ee92354bd1799dcb9ab2fd590d89b8", "type": "electric_scooter", "is_reserved": 0, "lon": -77.02513366666666}, {"fusion_lat": 0.0, "name": "d2f36ddc286ccbbbe33e277c4f231253", "is_disabled": 0, "rental_uris": {"android": "https://dc.lft.to/lastmile_qr_scan", "ios": "https://dc.lft.to/lastmile_qr_scan"}, "fusion_lon": 0.0, "lat": 38.8757705, "bike_id": "d2f36ddc286ccbbbe33e277c4f231253", "type": "electric_bike", "is_reserved": 0, "lon": -77.2340945}, {"fusion_lat": 0.0, "name": "b92331d7a5416575d9184bf2adb69813", "is_disabled": 0, "rental_uris": {"android": "https://dc.lft.to/lastmile_qr_scan", "ios": "https://dc.lft.to/lastmile_qr_scan"}, "fusion_lon": 0.0, "lat": 38.92835516666667, "bike_id": "b92331d7a5416575d9184bf2adb69813", "type": "electric_scooter", "is_reserved": 0, "lon": -77.015914}, {"fusion_lat": 0.0, "name": "af1f9da8ffd256477bd35f72d1ea23bb", "is_disabled": 0, "rental_uris": {"android": "https://dc.lft.to/lastmile_qr_scan", "ios": "https://dc.lft.to/lastmile_qr_scan"}, "fusion_lon": 0.0, "lat": 38.950550166666666, "bike_id": "af1f9da8ffd256477bd35f72d1ea23bb", "type": "electric_scooter", "is_reserved": 0, "lon": -77.08028866666666}, {"fusion_lat": 0.0, "name": "8f85740e343608231175bcb7160d00a3", "is_disabled": 0, "rental_uris": {"android": "https://dc.lft.to/lastmile_qr_scan", "ios": "https://dc.lft.to/lastmile_qr_scan"}, "fusion_lon": 0.0, "lat": 38.891948166666666, "bike_id": "8f85740e343608231175bcb7160d00a3", "type": "electric_scooter", "is_reserved": 0, "lon": -77.01555983333333}, {"fusion_lat": 0.0, "name": "f1b232601f0e71ce3d737216daa3b427", "is_disabled": 0, "rental_uris": {"android": "https://dc.lft.to/lastmile_qr_scan", "ios": "https://dc.lft.to/lastmile_qr_scan"}, "fusion_lon": 0.0, "lat": 38.899120833333335, "bike_id": "f1b232601f0e71ce3d737216daa3b427", "type": "electric_scooter", "is_reserved": 0, "lon": -76.94585416666666}, {"fusion_lat": 0.0, "name": "fd382b42f4c2e1e07c4fc9aa3bb76d55", "is_disabled": 0, "rental_uris": {"android": "https://dc.lft.to/lastmile_qr_scan", "ios": "https://dc.lft.to/lastmile_qr_scan"}, "fusion_lon": 0.0, "lat": 38.907898333333335, "bike_id": "fd382b42f4c2e1e07c4fc9aa3bb76d55", "type": "electric_scooter", "is_reserved": 0, "lon": -77.04229633333334}, {"fusion_lat": 0.0, "name": "1406df19cc531af4be17e09543356f38", "is_disabled": 0, "rental_uris": {"android": "https://dc.lft.to/lastmile_qr_scan", "ios": "https://dc.lft.to/lastmile_qr_scan"}, "fusion_lon": 0.0, "lat": 38.908406666666664, "bike_id": "1406df19cc531af4be17e09543356f38", "type": "electric_scooter", "is_reserved": 0, "lon": -77.032997}, {"fusion_lat": 0.0, "name": "8779521222d24c44c09133617314334d", "is_disabled": 0, "rental_uris": {"android": "https://dc.lft.to/lastmile_qr_scan", "ios": "https://dc.lft.to/lastmile_qr_scan"}, "fusion_lon": 0.0, "lat": 38.911041833333336, "bike_id": "8779521222d24c44c09133617314334d", "type": "electric_scooter", "is_reserved": 0, "lon": -77.04200816666666}, {"fusion_lat": 0.0, "name": "f3b1cc73679a1d95c6d44991b52aaac2", "is_disabled": 0, "rental_uris": {"android": "https://dc.lft.to/lastmile_qr_scan", "ios": "https://dc.lft.to/lastmile_qr_scan"}, "fusion_lon": 0.0, "lat": 38.9148965, "bike_id": "f3b1cc73679a1d95c6d44991b52aaac2", "type": "electric_scooter", "is_reserved": 0, "lon": -77.01990233333333}, {"fusion_lat": 0.0, "name": "f2352605629df5a55f2944f82660cbf4", "is_disabled": 0, "rental_uris": {"android": "https://dc.lft.to/lastmile_qr_scan", "ios": "https://dc.lft.to/lastmile_qr_scan"}, "fusion_lon": 0.0, "lat": 38.916138, "bike_id": "f2352605629df5a55f2944f82660cbf4", "type": "electric_scooter", "is_reserved": 0, "lon": -77.0318715}, {"fusion_lat": 0.0, "name": "c4eabb145698986b463af8d227b46d28", "is_disabled": 0, "rental_uris": {"android": "https://dc.lft.to/lastmile_qr_scan", "ios": "https://dc.lft.to/lastmile_qr_scan"}, "fusion_lon": 0.0, "lat": 38.885248, "bike_id": "c4eabb145698986b463af8d227b46d28", "type": "electric_scooter", "is_reserved": 0, "lon": -76.92914666666667}, {"fusion_lat": 0.0, "name": "5be80a9e52595da63e81a9017dd3b581", "is_disabled": 0, "rental_uris": {"android": "https://dc.lft.to/lastmile_qr_scan", "ios": "https://dc.lft.to/lastmile_qr_scan"}, "fusion_lon": 0.0, "lat": 38.924095666666666, "bike_id": "5be80a9e52595da63e81a9017dd3b581", "type": "electric_scooter", "is_reserved": 0, "lon": -77.052569}, {"fusion_lat": 0.0, "name": "278f33b4002b871f71245fb9f78ad3b1", "is_disabled": 0, "rental_uris": {"android": "https://dc.lft.to/lastmile_qr_scan", "ios": "https://dc.lft.to/lastmile_qr_scan"}, "fusion_lon": 0.0, "lat": 38.899013, "bike_id": "278f33b4002b871f71245fb9f78ad3b1", "type": "electric_scooter", "is_reserved": 0, "lon": -76.93356866666667}, {"fusion_lat": 0.0, "name": "b527a0160dfcbf6cf2e8afc323a70cc0", "is_disabled": 0, "rental_uris": {"android": "https://dc.lft.to/lastmile_qr_scan", "ios": "https://dc.lft.to/lastmile_qr_scan"}, "fusion_lon": 0.0, "lat": 38.899649333333336, "bike_id": "b527a0160dfcbf6cf2e8afc323a70cc0", "type": "electric_scooter", "is_reserved": 0, "lon": -77.0273155}, {"fusion_lat": 0.0, "name": "e63795549d1f43b28f2c66d5a3c2de24", "is_disabled": 0, "rental_uris": {"android": "https://dc.lft.to/lastmile_qr_scan", "ios": "https://dc.lft.to/lastmile_qr_scan"}, "fusion_lon": 0.0, "lat": 38.93537466666667, "bike_id": "e63795549d1f43b28f2c66d5a3c2de24", "type": "electric_scooter", "is_reserved": 0, "lon": -77.057498}, {"fusion_lat": 0.0, "name": "4d21ece3173fef1ec47c1caf8aaefcea", "is_disabled": 0, "rental_uris": {"android": "https://dc.lft.to/lastmile_qr_scan", "ios": "https://dc.lft.to/lastmile_qr_scan"}, "fusion_lon": 0.0, "lat": 38.90855, "bike_id": "4d21ece3173fef1ec47c1caf8aaefcea", "type": "electric_bike", "is_reserved": 0, "lon": -77.02294333333333}, {"fusion_lat": 0.0, "name": "98e5276e82277792fff5853227c05941", "is_disabled": 0, "rental_uris": {"android": "https://dc.lft.to/lastmile_qr_scan", "ios": "https://dc.lft.to/lastmile_qr_scan"}, "fusion_lon": 0.0, "lat": 38.9167685, "bike_id": "98e5276e82277792fff5853227c05941", "type": "electric_scooter", "is_reserved": 0, "lon": -77.027183}, {"fusion_lat": 0.0, "name": "23d21fdaeb8575162cd4f49958c99370", "is_disabled": 0, "rental_uris": {"android": "https://dc.lft.to/lastmile_qr_scan", "ios": "https://dc.lft.to/lastmile_qr_scan"}, "fusion_lon": 0.0, "lat": 38.92478466666667, "bike_id": "23d21fdaeb8575162cd4f49958c99370", "type": "electric_scooter", "is_reserved": 0, "lon": -77.035318}, {"fusion_lat": 0.0, "name": "193c775471a6d263cc25559f067f0542", "is_disabled": 0, "rental_uris": {"android": "https://dc.lft.to/lastmile_qr_scan", "ios": "https://dc.lft.to/lastmile_qr_scan"}, "fusion_lon": 0.0, "lat": 38.993862, "bike_id": "193c775471a6d263cc25559f067f0542", "type": "electric_bike", "is_reserved": 0, "lon": -76.92888216666667}, {"fusion_lat": 0.0, "name": "f25c01021fe50f3007c9eebddc69a39d", "is_disabled": 0, "rental_uris": {"android": "https://dc.lft.to/lastmile_qr_scan", "ios": "https://dc.lft.to/lastmile_qr_scan"}, "fusion_lon": 0.0, "lat": 38.90128033333333, "bike_id": "f25c01021fe50f3007c9eebddc69a39d", "type": "electric_scooter", "is_reserved": 0, "lon": -77.0447575}, {"fusion_lat": 0.0, "name": "ecf594ce9d19231e3b4519beb4607a71", "is_disabled": 0, "rental_uris": {"android": "https://dc.lft.to/lastmile_qr_scan", "ios": "https://dc.lft.to/lastmile_qr_scan"}, "fusion_lon": 0.0, "lat": 38.920436333333335, "bike_id": "ecf594ce9d19231e3b4519beb4607a71", "type": "electric_scooter", "is_reserved": 0, "lon": -77.034106}, {"fusion_lat": 0.0, "name": "2624f458d826448d2a961ff12f4e069d", "is_disabled": 0, "rental_uris": {"android": "https://dc.lft.to/lastmile_qr_scan", "ios": "https://dc.lft.to/lastmile_qr_scan"}, "fusion_lon": 0.0, "lat": 38.916561, "bike_id": "2624f458d826448d2a961ff12f4e069d", "type": "electric_scooter", "is_reserved": 0, "lon": -77.0227495}, {"fusion_lat": 0.0, "name": "c527c421b6bd73e8b6a37119741e4aff", "is_disabled": 0, "rental_uris": {"android": "https://dc.lft.to/lastmile_qr_scan", "ios": "https://dc.lft.to/lastmile_qr_scan"}, "fusion_lon": 0.0, "lat": 38.89845316666667, "bike_id": "c527c421b6bd73e8b6a37119741e4aff", "type": "electric_scooter", "is_reserved": 0, "lon": -77.02975816666667}, {"fusion_lat": 0.0, "name": "704133fde2fae3682b9651c211fe6cd5", "is_disabled": 0, "rental_uris": {"android": "https://dc.lft.to/lastmile_qr_scan", "ios": "https://dc.lft.to/lastmile_qr_scan"}, "fusion_lon": 0.0, "lat": 38.90059433333333, "bike_id": "704133fde2fae3682b9651c211fe6cd5", "type": "electric_bike", "is_reserved": 0, "lon": -77.02196483333333}, {"fusion_lat": 0.0, "name": "0d4211a79891fc0c5f926172ff2fcd43", "is_disabled": 0, "rental_uris": {"android": "https://dc.lft.to/lastmile_qr_scan", "ios": "https://dc.lft.to/lastmile_qr_scan"}, "fusion_lon": 0.0, "lat": 38.94918116666667, "bike_id": "0d4211a79891fc0c5f926172ff2fcd43", "type": "electric_bike", "is_reserved": 0, "lon": -77.0079495}, {"fusion_lat": 0.0, "name": "118b17da70f7f6b5111988469dc8bdd9", "is_disabled": 0, "rental_uris": {"android": "https://dc.lft.to/lastmile_qr_scan", "ios": "https://dc.lft.to/lastmile_qr_scan"}, "fusion_lon": 0.0, "lat": 38.9307925, "bike_id": "118b17da70f7f6b5111988469dc8bdd9", "type": "electric_scooter", "is_reserved": 0, "lon": -77.0200305}, {"fusion_lat": 0.0, "name": "f1670cc3e20b214835a3ecb4456b8ce4", "is_disabled": 0, "rental_uris": {"android": "https://dc.lft.to/lastmile_qr_scan", "ios": "https://dc.lft.to/lastmile_qr_scan"}, "fusion_lon": 0.0, "lat": 38.920824833333334, "bike_id": "f1670cc3e20b214835a3ecb4456b8ce4", "type": "electric_scooter", "is_reserved": 0, "lon": -77.0240775}, {"fusion_lat": 0.0, "name": "54890e8a39c5228c775385fcfd9fd04a", "is_disabled": 0, "rental_uris": {"android": "https://dc.lft.to/lastmile_qr_scan", "ios": "https://dc.lft.to/lastmile_qr_scan"}, "fusion_lon": 0.0, "lat": 38.903858666666665, "bike_id": "54890e8a39c5228c775385fcfd9fd04a", "type": "electric_scooter", "is_reserved": 0, "lon": -77.03836066666666}, {"fusion_lat": 0.0, "name": "b98376c97de8ce1d780d05cbbbf50d0b", "is_disabled": 0, "rental_uris": {"android": "https://dc.lft.to/lastmile_qr_scan", "ios": "https://dc.lft.to/lastmile_qr_scan"}, "fusion_lon": 0.0, "lat": 38.8435585, "bike_id": "b98376c97de8ce1d780d05cbbbf50d0b", "type": "electric_bike", "is_reserved": 0, "lon": -76.978251}, {"fusion_lat": 0.0, "name": "21daca24aeb84a53cc7189d34aafcea6", "is_disabled": 0, "rental_uris": {"android": "https://dc.lft.to/lastmile_qr_scan", "ios": "https://dc.lft.to/lastmile_qr_scan"}, "fusion_lon": 0.0, "lat": 38.89657533333333, "bike_id": "21daca24aeb84a53cc7189d34aafcea6", "type": "electric_scooter", "is_reserved": 0, "lon": -77.02481683333333}, {"fusion_lat": 0.0, "name": "fea8b927cf427fa26d140de93d29be81", "is_disabled": 0, "rental_uris": {"android": "https://dc.lft.to/lastmile_qr_scan", "ios": "https://dc.lft.to/lastmile_qr_scan"}, "fusion_lon": 0.0, "lat": 38.883618, "bike_id": "fea8b927cf427fa26d140de93d29be81", "type": "electric_scooter", "is_reserved": 0, "lon": -76.94154066666667}, {"fusion_lat": 0.0, "name": "c3598de9f56b592aea5930812d3bcbad", "is_disabled": 0, "rental_uris": {"android": "https://dc.lft.to/lastmile_qr_scan", "ios": "https://dc.lft.to/lastmile_qr_scan"}, "fusion_lon": 0.0, "lat": 38.923429166666665, "bike_id": "c3598de9f56b592aea5930812d3bcbad", "type": "electric_scooter", "is_reserved": 0, "lon": -77.05231916666666}, {"fusion_lat": 0.0, "name": "79a0d84e3d188a6120e877753fa8f344", "is_disabled": 0, "rental_uris": {"android": "https://dc.lft.to/lastmile_qr_scan", "ios": "https://dc.lft.to/lastmile_qr_scan"}, "fusion_lon": 0.0, "lat": 38.91574833333333, "bike_id": "79a0d84e3d188a6120e877753fa8f344", "type": "electric_scooter", "is_reserved": 0, "lon": -76.9839995}, {"fusion_lat": 0.0, "name": "16a16f1238ceefad7639fec1c8a6daf6", "is_disabled": 0, "rental_uris": {"android": "https://dc.lft.to/lastmile_qr_scan", "ios": "https://dc.lft.to/lastmile_qr_scan"}, "fusion_lon": 0.0, "lat": 38.901619833333335, "bike_id": "16a16f1238ceefad7639fec1c8a6daf6", "type": "electric_scooter", "is_reserved": 0, "lon": -77.05925933333333}, {"fusion_lat": 0.0, "name": "25af12ea0f2d3c114f4c694ba5edb19b", "is_disabled": 0, "rental_uris": {"android": "https://dc.lft.to/lastmile_qr_scan", "ios": "https://dc.lft.to/lastmile_qr_scan"}, "fusion_lon": 0.0, "lat": 38.9171195, "bike_id": "25af12ea0f2d3c114f4c694ba5edb19b", "type": "electric_scooter", "is_reserved": 0, "lon": -77.0322545}, {"fusion_lat": 0.0, "name": "c3bd1a5f6a2243281f0419a177c55044", "is_disabled": 0, "rental_uris": {"android": "https://dc.lft.to/lastmile_qr_scan", "ios": "https://dc.lft.to/lastmile_qr_scan"}, "fusion_lon": 0.0, "lat": 38.9562595, "bike_id": "c3bd1a5f6a2243281f0419a177c55044", "type": "electric_scooter", "is_reserved": 0, "lon": -77.028363}, {"fusion_lat": 0.0, "name": "1792ffc912c27b326b8778697f181fc1", "is_disabled": 0, "rental_uris": {"android": "https://dc.lft.to/lastmile_qr_scan", "ios": "https://dc.lft.to/lastmile_qr_scan"}, "fusion_lon": 0.0, "lat": 38.92045516666667, "bike_id": "1792ffc912c27b326b8778697f181fc1", "type": "electric_bike", "is_reserved": 0, "lon": -76.99822366666666}, {"fusion_lat": 0.0, "name": "993eee95ac455c6acabefa927a0944a1", "is_disabled": 0, "rental_uris": {"android": "https://dc.lft.to/lastmile_qr_scan", "ios": "https://dc.lft.to/lastmile_qr_scan"}, "fusion_lon": 0.0, "lat": 38.917789, "bike_id": "993eee95ac455c6acabefa927a0944a1", "type": "electric_bike", "is_reserved": 0, "lon": -77.042595}, {"fusion_lat": 0.0, "name": "cf6ba04d97c2c3119715da59a8ffccf0", "is_disabled": 0, "rental_uris": {"android": "https://dc.lft.to/lastmile_qr_scan", "ios": "https://dc.lft.to/lastmile_qr_scan"}, "fusion_lon": 0.0, "lat": 38.903559333333334, "bike_id": "cf6ba04d97c2c3119715da59a8ffccf0", "type": "electric_scooter", "is_reserved": 0, "lon": -77.03551666666667}, {"fusion_lat": 0.0, "name": "a2554eb6ff7f89c40408d1bae041ac02", "is_disabled": 0, "rental_uris": {"android": "https://dc.lft.to/lastmile_qr_scan", "ios": "https://dc.lft.to/lastmile_qr_scan"}, "fusion_lon": 0.0, "lat": 38.905025, "bike_id": "a2554eb6ff7f89c40408d1bae041ac02", "type": "electric_bike", "is_reserved": 0, "lon": -76.97447466666667}, {"fusion_lat": 0.0, "name": "6e0223b575a292eb27ddd49dc9d55d12", "is_disabled": 0, "rental_uris": {"android": "https://dc.lft.to/lastmile_qr_scan", "ios": "https://dc.lft.to/lastmile_qr_scan"}, "fusion_lon": 0.0, "lat": 38.9313495, "bike_id": "6e0223b575a292eb27ddd49dc9d55d12", "type": "electric_bike", "is_reserved": 0, "lon": -77.0197355}, {"fusion_lat": 0.0, "name": "e344de8947935a528ea5e7ac9a196b60", "is_disabled": 0, "rental_uris": {"android": "https://dc.lft.to/lastmile_qr_scan", "ios": "https://dc.lft.to/lastmile_qr_scan"}, "fusion_lon": 0.0, "lat": 38.900254833333335, "bike_id": "e344de8947935a528ea5e7ac9a196b60", "type": "electric_scooter", "is_reserved": 0, "lon": -77.03311033333334}, {"fusion_lat": 0.0, "name": "164124d2437b8d059ccc5d7c6efb17ec", "is_disabled": 0, "rental_uris": {"android": "https://dc.lft.to/lastmile_qr_scan", "ios": "https://dc.lft.to/lastmile_qr_scan"}, "fusion_lon": 0.0, "lat": 38.887382, "bike_id": "164124d2437b8d059ccc5d7c6efb17ec", "type": "electric_scooter", "is_reserved": 0, "lon": -77.021294}, {"fusion_lat": 0.0, "name": "91d67185e9f4ac17a3ab1654046f83ed", "is_disabled": 0, "rental_uris": {"android": "https://dc.lft.to/lastmile_qr_scan", "ios": "https://dc.lft.to/lastmile_qr_scan"}, "fusion_lon": 0.0, "lat": 38.901881, "bike_id": "91d67185e9f4ac17a3ab1654046f83ed", "type": "electric_scooter", "is_reserved": 0, "lon": -77.02416433333333}, {"fusion_lat": 0.0, "name": "ee369b502a9663c0a8807075c14bf5d6", "is_disabled": 0, "rental_uris": {"android": "https://dc.lft.to/lastmile_qr_scan", "ios": "https://dc.lft.to/lastmile_qr_scan"}, "fusion_lon": 0.0, "lat": 38.909500666666666, "bike_id": "ee369b502a9663c0a8807075c14bf5d6", "type": "electric_scooter", "is_reserved": 0, "lon": -77.0237635}, {"fusion_lat": 0.0, "name": "f1d9f343c94eee6627b7699c79644dbc", "is_disabled": 0, "rental_uris": {"android": "https://dc.lft.to/lastmile_qr_scan", "ios": "https://dc.lft.to/lastmile_qr_scan"}, "fusion_lon": 0.0, "lat": 38.921141666666664, "bike_id": "f1d9f343c94eee6627b7699c79644dbc", "type": "electric_scooter", "is_reserved": 0, "lon": -77.044302}, {"fusion_lat": 0.0, "name": "f20a844b6324e7f22c057e26a7abacb0", "is_disabled": 0, "rental_uris": {"android": "https://dc.lft.to/lastmile_qr_scan", "ios": "https://dc.lft.to/lastmile_qr_scan"}, "fusion_lon": 0.0, "lat": 38.9155755, "bike_id": "f20a844b6324e7f22c057e26a7abacb0", "type": "electric_bike", "is_reserved": 0, "lon": -77.00583383333333}, {"fusion_lat": 0.0, "name": "0fffd365c07f049fc686f53ef07c49ae", "is_disabled": 0, "rental_uris": {"android": "https://dc.lft.to/lastmile_qr_scan", "ios": "https://dc.lft.to/lastmile_qr_scan"}, "fusion_lon": 0.0, "lat": 38.899390833333335, "bike_id": "0fffd365c07f049fc686f53ef07c49ae", "type": "electric_scooter", "is_reserved": 0, "lon": -77.02191566666667}, {"fusion_lat": 0.0, "name": "93effd82c27cc5d9b7c10ddbd1066a13", "is_disabled": 0, "rental_uris": {"android": "https://dc.lft.to/lastmile_qr_scan", "ios": "https://dc.lft.to/lastmile_qr_scan"}, "fusion_lon": 0.0, "lat": 38.9244845, "bike_id": "93effd82c27cc5d9b7c10ddbd1066a13", "type": "electric_scooter", "is_reserved": 0, "lon": -77.03970083333333}, {"fusion_lat": 0.0, "name": "f86bc31832df78ae6fcc223943fd8656", "is_disabled": 0, "rental_uris": {"android": "https://dc.lft.to/lastmile_qr_scan", "ios": "https://dc.lft.to/lastmile_qr_scan"}, "fusion_lon": 0.0, "lat": 38.90575483333333, "bike_id": "f86bc31832df78ae6fcc223943fd8656", "type": "electric_scooter", "is_reserved": 0, "lon": -77.00272833333334}, {"fusion_lat": 0.0, "name": "bd320ccb06847ce0d3ab147356150fa2", "is_disabled": 0, "rental_uris": {"android": "https://dc.lft.to/lastmile_qr_scan", "ios": "https://dc.lft.to/lastmile_qr_scan"}, "fusion_lon": 0.0, "lat": 38.9213415, "bike_id": "bd320ccb06847ce0d3ab147356150fa2", "type": "electric_scooter", "is_reserved": 0, "lon": -77.0040205}, {"fusion_lat": 0.0, "name": "2c184b60b87d0c5577c43d89d4199001", "is_disabled": 0, "rental_uris": {"android": "https://dc.lft.to/lastmile_qr_scan", "ios": "https://dc.lft.to/lastmile_qr_scan"}, "fusion_lon": 0.0, "lat": 38.899035833333336, "bike_id": "2c184b60b87d0c5577c43d89d4199001", "type": "electric_scooter", "is_reserved": 0, "lon": -77.03925116666667}, {"fusion_lat": 0.0, "name": "52617422cf37636cc82d160e94415c4d", "is_disabled": 0, "rental_uris": {"android": "https://dc.lft.to/lastmile_qr_scan", "ios": "https://dc.lft.to/lastmile_qr_scan"}, "fusion_lon": 0.0, "lat": 38.9164285, "bike_id": "52617422cf37636cc82d160e94415c4d", "type": "electric_scooter", "is_reserved": 0, "lon": -77.02178933333333}, {"fusion_lat": 0.0, "name": "e70e54b00a820f7f294d9806e1b87e82", "is_disabled": 0, "rental_uris": {"android": "https://dc.lft.to/lastmile_qr_scan", "ios": "https://dc.lft.to/lastmile_qr_scan"}, "fusion_lon": 0.0, "lat": 38.9922655, "bike_id": "e70e54b00a820f7f294d9806e1b87e82", "type": "electric_bike", "is_reserved": 0, "lon": -76.94429633333333}, {"fusion_lat": 0.0, "name": "562235e98a1a7b62a8eb1cf233c2befd", "is_disabled": 0, "rental_uris": {"android": "https://dc.lft.to/lastmile_qr_scan", "ios": "https://dc.lft.to/lastmile_qr_scan"}, "fusion_lon": 0.0, "lat": 38.877400333333334, "bike_id": "562235e98a1a7b62a8eb1cf233c2befd", "type": "electric_scooter", "is_reserved": 0, "lon": -76.97031266666667}, {"fusion_lat": 0.0, "name": "8f5ac3493a5c9cc19987f22676de652f", "is_disabled": 0, "rental_uris": {"android": "https://dc.lft.to/lastmile_qr_scan", "ios": "https://dc.lft.to/lastmile_qr_scan"}, "fusion_lon": 0.0, "lat": 38.98607166666667, "bike_id": "8f5ac3493a5c9cc19987f22676de652f", "type": "electric_scooter", "is_reserved": 0, "lon": -77.0269575}, {"fusion_lat": 0.0, "name": "8c4164b78a52a1d03753fa58368d0bb3", "is_disabled": 0, "rental_uris": {"android": "https://dc.lft.to/lastmile_qr_scan", "ios": "https://dc.lft.to/lastmile_qr_scan"}, "fusion_lon": 0.0, "lat": 38.920739, "bike_id": "8c4164b78a52a1d03753fa58368d0bb3", "type": "electric_scooter", "is_reserved": 0, "lon": -77.0241505}, {"fusion_lat": 0.0, "name": "f7a8e5357e593ee90809d7bc7345356e", "is_disabled": 0, "rental_uris": {"android": "https://dc.lft.to/lastmile_qr_scan", "ios": "https://dc.lft.to/lastmile_qr_scan"}, "fusion_lon": 0.0, "lat": 38.903958833333334, "bike_id": "f7a8e5357e593ee90809d7bc7345356e", "type": "electric_scooter", "is_reserved": 0, "lon": -77.0488805}, {"fusion_lat": 0.0, "name": "3eab00e391bf7fa07cbd114260f1a706", "is_disabled": 0, "rental_uris": {"android": "https://dc.lft.to/lastmile_qr_scan", "ios": "https://dc.lft.to/lastmile_qr_scan"}, "fusion_lon": 0.0, "lat": 38.9035015, "bike_id": "3eab00e391bf7fa07cbd114260f1a706", "type": "electric_scooter", "is_reserved": 0, "lon": -77.03632683333333}, {"fusion_lat": 0.0, "name": "a67c58d0b322a48682a93245a4dbd44b", "is_disabled": 0, "rental_uris": {"android": "https://dc.lft.to/lastmile_qr_scan", "ios": "https://dc.lft.to/lastmile_qr_scan"}, "fusion_lon": 0.0, "lat": 38.919802833333335, "bike_id": "a67c58d0b322a48682a93245a4dbd44b", "type": "electric_scooter", "is_reserved": 0, "lon": -77.0408205}, {"fusion_lat": 0.0, "name": "9ca227dff69303e3702bfb2520a063f5", "is_disabled": 0, "rental_uris": {"android": "https://dc.lft.to/lastmile_qr_scan", "ios": "https://dc.lft.to/lastmile_qr_scan"}, "fusion_lon": 0.0, "lat": 38.92604266666667, "bike_id": "9ca227dff69303e3702bfb2520a063f5", "type": "electric_bike", "is_reserved": 0, "lon": -77.064149}, {"fusion_lat": 0.0, "name": "9a8777cfcacc07bd7c76a433673cd5f6", "is_disabled": 0, "rental_uris": {"android": "https://dc.lft.to/lastmile_qr_scan", "ios": "https://dc.lft.to/lastmile_qr_scan"}, "fusion_lon": 0.0, "lat": 38.939375, "bike_id": "9a8777cfcacc07bd7c76a433673cd5f6", "type": "electric_scooter", "is_reserved": 0, "lon": -77.036703}, {"fusion_lat": 0.0, "name": "95ee8fb73dd6c767be3d551ce792edf6", "is_disabled": 0, "rental_uris": {"android": "https://dc.lft.to/lastmile_qr_scan", "ios": "https://dc.lft.to/lastmile_qr_scan"}, "fusion_lon": 0.0, "lat": 38.911300833333335, "bike_id": "95ee8fb73dd6c767be3d551ce792edf6", "type": "electric_scooter", "is_reserved": 0, "lon": -77.0653705}, {"fusion_lat": 0.0, "name": "13ac820d2cde3425d412ecb996fd1104", "is_disabled": 0, "rental_uris": {"android": "https://dc.lft.to/lastmile_qr_scan", "ios": "https://dc.lft.to/lastmile_qr_scan"}, "fusion_lon": 0.0, "lat": 38.92482483333333, "bike_id": "13ac820d2cde3425d412ecb996fd1104", "type": "electric_scooter", "is_reserved": 0, "lon": -77.02599316666667}, {"fusion_lat": 0.0, "name": "d1f407b9bf97ae086a2a8a60a0aaa0e3", "is_disabled": 0, "rental_uris": {"android": "https://dc.lft.to/lastmile_qr_scan", "ios": "https://dc.lft.to/lastmile_qr_scan"}, "fusion_lon": 0.0, "lat": 38.9115465, "bike_id": "d1f407b9bf97ae086a2a8a60a0aaa0e3", "type": "electric_scooter", "is_reserved": 0, "lon": -77.03200283333334}, {"fusion_lat": 0.0, "name": "4014ac589ee03f0a3ee51cc580d85137", "is_disabled": 0, "rental_uris": {"android": "https://dc.lft.to/lastmile_qr_scan", "ios": "https://dc.lft.to/lastmile_qr_scan"}, "fusion_lon": 0.0, "lat": 38.87445, "bike_id": "4014ac589ee03f0a3ee51cc580d85137", "type": "electric_scooter", "is_reserved": 0, "lon": -77.0089335}, {"fusion_lat": 0.0, "name": "ce04ea9aecf19ba9d521894e83c0488e", "is_disabled": 0, "rental_uris": {"android": "https://dc.lft.to/lastmile_qr_scan", "ios": "https://dc.lft.to/lastmile_qr_scan"}, "fusion_lon": 0.0, "lat": 38.92867666666667, "bike_id": "ce04ea9aecf19ba9d521894e83c0488e", "type": "electric_scooter", "is_reserved": 0, "lon": -77.03407583333333}, {"fusion_lat": 0.0, "name": "1001d3c0aefe4f5e58631f237d4b449a", "is_disabled": 0, "rental_uris": {"android": "https://dc.lft.to/lastmile_qr_scan", "ios": "https://dc.lft.to/lastmile_qr_scan"}, "fusion_lon": 0.0, "lat": 38.936896833333336, "bike_id": "1001d3c0aefe4f5e58631f237d4b449a", "type": "electric_bike", "is_reserved": 0, "lon": -76.99057816666667}, {"fusion_lat": 0.0, "name": "372b542d36fbb7f80959ee625629e5ea", "is_disabled": 0, "rental_uris": {"android": "https://dc.lft.to/lastmile_qr_scan", "ios": "https://dc.lft.to/lastmile_qr_scan"}, "fusion_lon": 0.0, "lat": 38.880329833333334, "bike_id": "372b542d36fbb7f80959ee625629e5ea", "type": "electric_scooter", "is_reserved": 0, "lon": -77.02499283333333}, {"fusion_lat": 0.0, "name": "3e1828e26f146e621395212d9613c7f9", "is_disabled": 0, "rental_uris": {"android": "https://dc.lft.to/lastmile_qr_scan", "ios": "https://dc.lft.to/lastmile_qr_scan"}, "fusion_lon": 0.0, "lat": 38.9347985, "bike_id": "3e1828e26f146e621395212d9613c7f9", "type": "electric_scooter", "is_reserved": 0, "lon": -77.0726035}, {"fusion_lat": 0.0, "name": "f5047f1c68e851165f10b2f30040716e", "is_disabled": 0, "rental_uris": {"android": "https://dc.lft.to/lastmile_qr_scan", "ios": "https://dc.lft.to/lastmile_qr_scan"}, "fusion_lon": 0.0, "lat": 38.93995066666667, "bike_id": "f5047f1c68e851165f10b2f30040716e", "type": "electric_scooter", "is_reserved": 0, "lon": -77.01656266666667}, {"fusion_lat": 0.0, "name": "d5ed5ac2e8cbe06f1bcd90dd1e295a65", "is_disabled": 0, "rental_uris": {"android": "https://dc.lft.to/lastmile_qr_scan", "ios": "https://dc.lft.to/lastmile_qr_scan"}, "fusion_lon": 0.0, "lat": 38.90286166666667, "bike_id": "d5ed5ac2e8cbe06f1bcd90dd1e295a65", "type": "electric_scooter", "is_reserved": 0, "lon": -77.03642616666667}, {"fusion_lat": 0.0, "name": "ca08ee5fd504fab0ba99359988f6c935", "is_disabled": 0, "rental_uris": {"android": "https://dc.lft.to/lastmile_qr_scan", "ios": "https://dc.lft.to/lastmile_qr_scan"}, "fusion_lon": 0.0, "lat": 38.87699416666667, "bike_id": "ca08ee5fd504fab0ba99359988f6c935", "type": "electric_scooter", "is_reserved": 0, "lon": -77.006755},