{"data": {"bikes": [{"rental_uris": {"ios": "https://dc.lft.to/lastmile_qr_scan", "android": "https://dc.lft.to/lastmile_qr_scan"}, "lon": -76.99608266666667, "type": "electric_scooter", "fusion_lat": 0.0, "lat": 38.886211833333334, "name": "5cdabc85fa549051fbe12dee22cfc446", "fusion_lon": 0.0, "bike_id": "5cdabc85fa549051fbe12dee22cfc446", "is_disabled": 0, "is_reserved": 0}, {"rental_uris": {"ios": "https://dc.lft.to/lastmile_qr_scan", "android": "https://dc.lft.to/lastmile_qr_scan"}, "lon": -77.044982, "type": "electric_scooter", "fusion_lat": 0.0, "lat": 38.91520033333333, "name": "1ba63f88c808eb14a63308a626657f49", "fusion_lon": 0.0, "bike_id": "1ba63f88c808eb14a63308a626657f49", "is_disabled": 0, "is_reserved": 0}, {"rental_uris": {"ios": "https://dc.lft.to/lastmile_qr_scan", "android": "https://dc.lft.to/lastmile_qr_scan"}, "lon": -77.010949, "type": "electric_scooter", "fusion_lat": 0.0, "lat": 38.915614, "name": "b1d8b4ba20d820d994280ae99fc33a71", "fusion_lon": 0.0, "bike_id": "b1d8b4ba20d820d994280ae99fc33a71", "is_disabled": 0, "is_reserved": 0}, {"rental_uris": {"ios": "https://dc.lft.to/lastmile_qr_scan", "android": "https://dc.lft.to/lastmile_qr_scan"}, "lon": -76.985659, "type": "electric_scooter", "fusion_lat": 0.0, "lat": 38.861514666666665, "name": "ea70b01a9822caf435df9be17dc0ef1d", "fusion_lon": 0.0, "bike_id": "ea70b01a9822caf435df9be17dc0ef1d", "is_disabled": 0, "is_reserved": 0}, {"rental_uris": {"ios": "https://dc.lft.to/lastmile_qr_scan", "android": "https://dc.lft.to/lastmile_qr_scan"}, "lon": -77.0432725, "type": "electric_scooter", "fusion_lat": 0.0, "lat": 38.926193833333336, "name": "c693ca04be61093720a52d3c3d046872", "fusion_lon": 0.0, "bike_id": "c693ca04be61093720a52d3c3d046872", "is_disabled": 0, "is_reserved": 0}, {"rental_uris": {"ios": "https://dc.lft.to/lastmile_qr_scan", "android": "https://dc.lft.to/lastmile_qr_scan"}, "lon": -77.04634016666667, "type": "electric_scooter", "fusion_lat": 0.0, "lat": 38.892222333333336, "name": "8d03dc86d108bdc887ff19c409b8c056", "fusion_lon": 0.0, "bike_id": "8d03dc86d108bdc887ff19c409b8c056", "is_disabled": 0, "is_reserved": 0}, {"rental_uris": {"ios": "https://dc.lft.to/lastmile_qr_scan", "android": "https://dc.lft.to/lastmile_qr_scan"}, "lon": -76.99871466666667, "type": "electric_scooter", "fusion_lat": 0.0, "lat": 38.9003075, "name": "9049eb00cd6f9556ea86e6afcc6bb619", "fusion_lon": 0.0, "bike_id": "9049eb00cd6f9556ea86e6afcc6bb619", "is_disabled": 0, "is_reserved": 0}, {"rental_uris": {"ios": "https://dc.lft.to/lastmile_qr_scan", "android": "https://dc.lft.to/lastmile_qr_scan"}, "lon": -77.046524, "type": "electric_scooter", "fusion_lat": 0.0, "lat": 38.896358, "name": "222b2dd230a2235d706b9f4c5471a4ef", "fusion_lon": 0.0, "bike_id": "222b2dd230a2235d706b9f4c5471a4ef", "is_disabled": 0, "is_reserved": 0}, {"rental_uris": {"ios": "https://dc.lft.to/lastmile_qr_scan", "android": "https://dc.lft.to/lastmile_qr_scan"}, "lon": -76.98373166666667, "type": "electric_scooter", "fusion_lat": 0.0, "lat": 38.86032616666667, "name": "d31520e076e9b4c55576c8735494032b", "fusion_lon": 0.0, "bike_id": "d31520e076e9b4c55576c8735494032b", "is_disabled": 0, "is_reserved": 0}, {"rental_uris": {"ios": "https://dc.lft.to/lastmile_qr_scan", "android": "https://dc.lft.to/lastmile_qr_scan"}, "lon": -77.04039666666667, "type": "electric_bike", "fusion_lat": 0.0, "lat": 38.80430366666667, "name": "f78cc72241af8d5037dccf80c21eb5b7", "fusion_lon": 0.0, "bike_id": "f78cc72241af8d5037dccf80c21eb5b7", "is_disabled": 0, "is_reserved": 0}, {"rental_uris": {"ios": "https://dc.lft.to/lastmile_qr_scan", "android": "https://dc.lft.to/lastmile_qr_scan"}, "lon": -76.9750105, "type": "electric_bike", "fusion_lat": 0.0, "lat": 38.91936183333333, "name": "a514defed387b6887d28ed9ac23a7e13", "fusion_lon": 0.0, "bike_id": "a514defed387b6887d28ed9ac23a7e13", "is_disabled": 0, "is_reserved": 0}, {"rental_uris": {"ios": "https://dc.lft.to/lastmile_qr_scan", "android": "https://dc.lft.to/lastmile_qr_scan"}, "lon": -76.97320266666667, "type": "electric_scooter", "fusion_lat": 0.0, "lat": 38.930248166666665, "name": "d3892dba83882080cb3b51a7d9175098", "fusion_lon": 0.0, "bike_id": "d3892dba83882080cb3b51a7d9175098", "is_disabled": 0, "is_reserved": 0}, {"rental_uris": {"ios": "https://dc.lft.to/lastmile_qr_scan", "android": "https://dc.lft.to/lastmile_qr_scan"}, "lon": -76.97564416666667, "type": "electric_scooter", "fusion_lat": 0.0, "lat": 38.904472, "name": "3504e4ceb2cb8d784a20d726be819373", "fusion_lon": 0.0, "bike_id": "3504e4ceb2cb8d784a20d726be819373", "is_disabled": 0, "is_reserved": 0}, {"rental_uris": {"ios": "https://dc.lft.to/lastmile_qr_scan", "android": "https://dc.lft.to/lastmile_qr_scan"}, "lon": -77.01115, "type": "electric_scooter", "fusion_lat": 0.0, "lat": 38.9001975, "name": "a26f542a508b87c2fad9a59a8f44fa6d", "fusion_lon": 0.0, "bike_id": "a26f542a508b87c2fad9a59a8f44fa6d", "is_disabled": 0, "is_reserved": 0}, {"rental_uris": {"ios": "https://dc.lft.to/lastmile_qr_scan", "android": "https://dc.lft.to/lastmile_qr_scan"}, "lon": -76.9826115, "type": "electric_scooter", "fusion_lat": 0.0, "lat": 38.863539833333334, "name": "acf615118664b98454f487ec72461126", "fusion_lon": 0.0, "bike_id": "acf615118664b98454f487ec72461126", "is_disabled": 0, "is_reserved": 0}, {"rental_uris": {"ios": "https://dc.lft.to/lastmile_qr_scan", "android": "https://dc.lft.to/lastmile_qr_scan"}, "lon": -77.005275, "type": "electric_scooter", "fusion_lat": 0.0, "lat": 38.928882333333334, "name": "c07e9481976546be44662c9617d36623", "fusion_lon": 0.0, "bike_id": "c07e9481976546be44662c9617d36623", "is_disabled": 0, "is_reserved": 0}, {"rental_uris": {"ios": "https://dc.lft.to/lastmile_qr_scan", "android": "https://dc.lft.to/lastmile_qr_scan"}, "lon": -77.01655116666667, "type": "electric_scooter", "fusion_lat": 0.0, "lat": 38.95330283333333, "name": "e66e2e787bc9fb727d3d60ef1e964026", "fusion_lon": 0.0, "bike_id": "e66e2e787bc9fb727d3d60ef1e964026", "is_disabled": 0, "is_reserved": 0}, {"rental_uris": {"ios": "https://dc.lft.to/lastmile_qr_scan", "android": "https://dc.lft.to/lastmile_qr_scan"}, "lon": -77.00262133333334, "type": "electric_scooter", "fusion_lat": 0.0, "lat": 38.87746466666667, "name": "c970e33154728d1151601a2f09d35b26", "fusion_lon": 0.0, "bike_id": "c970e33154728d1151601a2f09d35b26", "is_disabled": 0, "is_reserved": 0}, {"rental_uris": {"ios": "https://dc.lft.to/lastmile_qr_scan", "android": "https://dc.lft.to/lastmile_qr_scan"}, "lon": -77.05440083333333, "type": "electric_scooter", "fusion_lat": 0.0, "lat": 38.896064, "name": "a25a0912d695440b0a91c27cf94a8645", "fusion_lon": 0.0, "bike_id": "a25a0912d695440b0a91c27cf94a8645", "is_disabled": 0, "is_reserved": 0}, {"rental_uris": {"ios": "https://dc.lft.to/lastmile_qr_scan", "android": "https://dc.lft.to/lastmile_qr_scan"}, "lon": -77.03814066666666, "type": "electric_scooter", "fusion_lat": 0.0, "lat": 38.9097365, "name": "84d13c4df544324ff594a7e4edc0863b", "fusion_lon": 0.0, "bike_id": "84d13c4df544324ff594a7e4edc0863b", "is_disabled": 0, "is_reserved": 0}, {"rental_uris": {"ios": "https://dc.lft.to/lastmile_qr_scan", "android": "https://dc.lft.to/lastmile_qr_scan"}, "lon": -77.04790483333333, "type": "electric_scooter", "fusion_lat": 0.0, "lat": 38.8936755, "name": "47a8fd48c65ffd22ba79b6daa5671a1d", "fusion_lon": 0.0, "bike_id": "47a8fd48c65ffd22ba79b6daa5671a1d", "is_disabled": 0, "is_reserved": 0}, {"rental_uris": {"ios": "https://dc.lft.to/lastmile_qr_scan", "android": "https://dc.lft.to/lastmile_qr_scan"}, "lon": -77.02126133333333, "type": "electric_scooter", "fusion_lat": 0.0, "lat": 38.90971233333333, "name": "b438006c4767744e43ebcf4b53c7ecbd", "fusion_lon": 0.0, "bike_id": "b438006c4767744e43ebcf4b53c7ecbd", "is_disabled": 0, "is_reserved": 0}, {"rental_uris": {"ios": "https://dc.lft.to/lastmile_qr_scan", "android": "https://dc.lft.to/lastmile_qr_scan"}, "lon": -77.0441635, "type": "electric_scooter", "fusion_lat": 0.0, "lat": 38.905768, "name": "f6cd11e2a629ed55f13457f984a53aee", "fusion_lon": 0.0, "bike_id": "f6cd11e2a629ed55f13457f984a53aee", "is_disabled": 0, "is_reserved": 0}, {"rental_uris": {"ios": "https://dc.lft.to/lastmile_qr_scan", "android": "https://dc.lft.to/lastmile_qr_scan"}, "lon": -76.98555233333333, "type": "electric_bike", "fusion_lat": 0.0, "lat": 38.8921235, "name": "337e3076da5b5bb5f1e87b917dbbe5fd", "fusion_lon": 0.0, "bike_id": "337e3076da5b5bb5f1e87b917dbbe5fd", "is_disabled": 0, "is_reserved": 0}, {"rental_uris": {"ios": "https://dc.lft.to/lastmile_qr_scan", "android": "https://dc.lft.to/lastmile_qr_scan"}, "lon": -77.03374466666666, "type": "electric_scooter", "fusion_lat": 0.0, "lat": 38.938362166666664, "name": "6c33a34bcb1b270bc59d6c61bd3bff74", "fusion_lon": 0.0, "bike_id": "6c33a34bcb1b270bc59d6c61bd3bff74", "is_disabled": 0, "is_reserved": 0}, {"rental_uris": {"ios": "https://dc.lft.to/lastmile_qr_scan", "android": "https://dc.lft.to/lastmile_qr_scan"}, "lon": -77.018393, "type": "electric_scooter", "fusion_lat": 0.0, "lat": 38.908757, "name": "7063a2721ae0fb2163617803ad27a93e", "fusion_lon": 0.0, "bike_id": "7063a2721ae0fb2163617803ad27a93e", "is_disabled": 0, "is_reserved": 0}, {"rental_uris": {"ios": "https://dc.lft.to/lastmile_qr_scan", "android": "https://dc.lft.to/lastmile_qr_scan"}, "lon": -77.04196216666666, "type": "electric_scooter", "fusion_lat": 0.0, "lat": 38.9262285, "name": "a19c082d9612d88f673a76bba5f3d6d0", "fusion_lon": 0.0, "bike_id": "a19c082d9612d88f673a76bba5f3d6d0", "is_disabled": 0, "is_reserved": 0}, {"rental_uris": {"ios": "https://dc.lft.to/lastmile_qr_scan", "android": "https://dc.lft.to/lastmile_qr_scan"}, "lon": -76.94727016666667, "type": "electric_scooter", "fusion_lat": 0.0, "lat": 38.89679483333333, "name": "746ea8fe6cab5f6f7075bbe1b2948ec5", "fusion_lon": 0.0, "bike_id": "746ea8fe6cab5f6f7075bbe1b2948ec5", "is_disabled": 0, "is_reserved": 0}, {"rental_uris": {"ios": "https://dc.lft.to/lastmile_qr_scan", "android": "https://dc.lft.to/lastmile_qr_scan"}, "lon": -77.01105133333333, "type": "electric_scooter", "fusion_lat": 0.0, "lat": 38.8951195, "name": "c1c0c9eba4ab5013427bea87c69ea239", "fusion_lon": 0.0, "bike_id": "c1c0c9eba4ab5013427bea87c69ea239", "is_disabled": 0, "is_reserved": 0}, {"rental_uris": {"ios": "https://dc.lft.to/lastmile_qr_scan", "android": "https://dc.lft.to/lastmile_qr_scan"}, "lon": -77.04150566666667, "type": "electric_scooter", "fusion_lat": 0.0, "lat": 38.9191345, "name": "1a36dad13597c8aa1e427719e1d235a1", "fusion_lon": 0.0, "bike_id": "1a36dad13597c8aa1e427719e1d235a1", "is_disabled": 0, "is_reserved": 0}, {"rental_uris": {"ios": "https://dc.lft.to/lastmile_qr_scan", "android": "https://dc.lft.to/lastmile_qr_scan"}, "lon": -77.01813183333333, "type": "electric_scooter", "fusion_lat": 0.0, "lat": 38.919766, "name": "5f52d13e00a2f4a8358265f41775eba4", "fusion_lon": 0.0, "bike_id": "5f52d13e00a2f4a8358265f41775eba4", "is_disabled": 0, "is_reserved": 0}, {"rental_uris": {"ios": "https://dc.lft.to/lastmile_qr_scan", "android": "https://dc.lft.to/lastmile_qr_scan"}, "lon": -77.0255865, "type": "electric_scooter", "fusion_lat": 0.0, "lat": 38.9253335, "name": "cf65b7548d0e58c7459d192ff3240983", "fusion_lon": 0.0, "bike_id": "cf65b7548d0e58c7459d192ff3240983", "is_disabled": 0, "is_reserved": 0}, {"rental_uris": {"ios": "https://dc.lft.to/lastmile_qr_scan", "android": "https://dc.lft.to/lastmile_qr_scan"}, "lon": -76.99943983333333, "type": "electric_scooter", "fusion_lat": 0.0, "lat": 38.842907333333336, "name": "124d22188106f48d68aca2812dd87473", "fusion_lon": 0.0, "bike_id": "124d22188106f48d68aca2812dd87473", "is_disabled": 0, "is_reserved": 0}, {"rental_uris": {"ios": "https://dc.lft.to/lastmile_qr_scan", "android": "https://dc.lft.to/lastmile_qr_scan"}, "lon": -77.0419505, "type": "electric_scooter", "fusion_lat": 0.0, "lat": 38.9202305, "name": "fe84be56deac135bfd2f64c35bf4b63b", "fusion_lon": 0.0, "bike_id": "fe84be56deac135bfd2f64c35bf4b63b", "is_disabled": 0, "is_reserved": 0}, {"rental_uris": {"ios": "https://dc.lft.to/lastmile_qr_scan", "android": "https://dc.lft.to/lastmile_qr_scan"}, "lon": -77.02728966666666, "type": "electric_scooter", "fusion_lat": 0.0, "lat": 38.924796, "name": "8448b68aebc5bf37ae8ae5729e497d5e", "fusion_lon": 0.0, "bike_id": "8448b68aebc5bf37ae8ae5729e497d5e", "is_disabled": 0, "is_reserved": 0}, {"rental_uris": {"ios": "https://dc.lft.to/lastmile_qr_scan", "android": "https://dc.lft.to/lastmile_qr_scan"}, "lon": -77.03316816666667, "type": "electric_scooter", "fusion_lat": 0.0, "lat": 38.90035866666667, "name": "795669eb8ab49e6da228f2b6cee65a36", "fusion_lon": 0.0, "bike_id": "795669eb8ab49e6da228f2b6cee65a36", "is_disabled": 0, "is_reserved": 0}, {"rental_uris": {"ios": "https://dc.lft.to/lastmile_qr_scan", "android": "https://dc.lft.to/lastmile_qr_scan"}, "lon": -77.02725316666667, "type": "electric_scooter", "fusion_lat": 0.0, "lat": 38.92479516666667, "name": "eefcad720f95c0021d51e6fea520b614", "fusion_lon": 0.0, "bike_id": "eefcad720f95c0021d51e6fea520b614", "is_disabled": 0, "is_reserved": 0}, {"rental_uris": {"ios": "https://dc.lft.to/lastmile_qr_scan", "android": "https://dc.lft.to/lastmile_qr_scan"}, "lon": -77.04646166666667, "type": "electric_bike", "fusion_lat": 0.0, "lat": 38.852099333333335, "name": "cbb3d2f3e74e38a92413944c46c01880", "fusion_lon": 0.0, "bike_id": "cbb3d2f3e74e38a92413944c46c01880", "is_disabled": 0, "is_reserved": 0}, {"rental_uris": {"ios": "https://dc.lft.to/lastmile_qr_scan", "android": "https://dc.lft.to/lastmile_qr_scan"}, "lon": -77.04385133333334, "type": "electric_scooter", "fusion_lat": 0.0, "lat": 38.91785, "name": "8a9cba4ca9481120215d74d45dfd7d51", "fusion_lon": 0.0, "bike_id": "8a9cba4ca9481120215d74d45dfd7d51", "is_disabled": 0, "is_reserved": 0}, {"rental_uris": {"ios": "https://dc.lft.to/lastmile_qr_scan", "android": "https://dc.lft.to/lastmile_qr_scan"}, "lon": -77.01163266666667, "type": "electric_scooter", "fusion_lat": 0.0, "lat": 38.8970945, "name": "07a899fe7750c65e0ac32568d223e52e", "fusion_lon": 0.0, "bike_id": "07a899fe7750c65e0ac32568d223e52e", "is_disabled": 0, "is_reserved": 0}, {"rental_uris": {"ios": "https://dc.lft.to/lastmile_qr_scan", "android": "https://dc.lft.to/lastmile_qr_scan"}, "lon": -77.03629316666667, "type": "electric_scooter", "fusion_lat": 0.0, "lat": 38.929116, "name": "93cf551ed13eea200b45ec21fb00f456", "fusion_lon": 0.0, "bike_id": "93cf551ed13eea200b45ec21fb00f456", "is_disabled": 0, "is_reserved": 0}, {"rental_uris": {"ios": "https://dc.lft.to/lastmile_qr_scan", "android": "https://dc.lft.to/lastmile_qr_scan"}, "lon": -77.04475816666667, "type": "electric_scooter", "fusion_lat": 0.0, "lat": 38.906502, "name": "c74a6e04800692b610a0f6f884be1044", "fusion_lon": 0.0, "bike_id": "c74a6e04800692b610a0f6f884be1044", "is_disabled": 0, "is_reserved": 0}, {"rental_uris": {"ios": "https://dc.lft.to/lastmile_qr_scan", "android": "https://dc.lft.to/lastmile_qr_scan"}, "lon": -77.0124975, "type": "electric_scooter", "fusion_lat": 0.0, "lat": 38.8996185, "name": "fbdf7363c0788775509e3e8e595f0167", "fusion_lon": 0.0, "bike_id": "fbdf7363c0788775509e3e8e595f0167", "is_disabled": 0, "is_reserved": 0}, {"rental_uris": {"ios": "https://dc.lft.to/lastmile_qr_scan", "android": "https://dc.lft.to/lastmile_qr_scan"}, "lon": -77.01439683333334, "type": "electric_scooter", "fusion_lat": 0.0, "lat": 38.87769, "name": "83c53c9c83c5ee38e5a9eaec355e0207", "fusion_lon": 0.0, "bike_id": "83c53c9c83c5ee38e5a9eaec355e0207", "is_disabled": 0, "is_reserved": 0}, {"rental_uris": {"ios": "https://dc.lft.to/lastmile_qr_scan", "android": "https://dc.lft.to/lastmile_qr_scan"}, "lon": -77.05254316666667, "type": "electric_scooter", "fusion_lat": 0.0, "lat": 38.923824833333335, "name": "f9717631345153016fd37cd086439f20", "fusion_lon": 0.0, "bike_id": "f9717631345153016fd37cd086439f20", "is_disabled": 0, "is_reserved": 0}, {"rental_uris": {"ios": "https://dc.lft.to/lastmile_qr_scan", "android": "https://dc.lft.to/lastmile_qr_scan"}, "lon": -77.03661183333334, "type": "electric_scooter", "fusion_lat": 0.0, "lat": 38.9131205, "name": "a419237479484b570740301c524a6f1a", "fusion_lon": 0.0, "bike_id": "a419237479484b570740301c524a6f1a", "is_disabled": 0, "is_reserved": 0}, {"rental_uris": {"ios": "https://dc.lft.to/lastmile_qr_scan", "android": "https://dc.lft.to/lastmile_qr_scan"}, "lon": -76.94866583333334, "type": "electric_scooter", "fusion_lat": 0.0, "lat": 38.89459, "name": "70f7e8f1a5e0cb7b51bb7e8845e4a92a", "fusion_lon": 0.0, "bike_id": "70f7e8f1a5e0cb7b51bb7e8845e4a92a", "is_disabled": 0, "is_reserved": 0}, {"rental_uris": {"ios": "https://dc.lft.to/lastmile_qr_scan", "android": "https://dc.lft.to/lastmile_qr_scan"}, "lon": -77.04307466666667, "type": "electric_scooter", "fusion_lat": 0.0, "lat": 38.922509166666664, "name": "a4c0c67fa83147a25fcf8088aee54442", "fusion_lon": 0.0, "bike_id": "a4c0c67fa83147a25fcf8088aee54442", "is_disabled": 0, "is_reserved": 0}, {"rental_uris": {"ios": "https://dc.lft.to/lastmile_qr_scan", "android": "https://dc.lft.to/lastmile_qr_scan"}, "lon": -77.135948, "type": "electric_bike", "fusion_lat": 0.0, "lat": 39.05346083333333, "name": "c665c1d2da91ba176976880fc53c2d43", "fusion_lon": 0.0, "bike_id": "c665c1d2da91ba176976880fc53c2d43", "is_disabled": 0, "is_reserved": 0}, {"rental_uris": {"ios": "https://dc.lft.to/lastmile_qr_scan", "android": "https://dc.lft.to/lastmile_qr_scan"}, "lon": -76.98613533333334, "type": "electric_scooter", "fusion_lat": 0.0, "lat": 38.86814866666667, "name": "b9f7bd7b68a349fe828c2cb978946e9c", "fusion_lon": 0.0, "bike_id": "b9f7bd7b68a349fe828c2cb978946e9c", "is_disabled": 0, "is_reserved": 0}, {"rental_uris": {"ios": "https://dc.lft.to/lastmile_qr_scan", "android": "https://dc.lft.to/lastmile_qr_scan"}, "lon": -77.0297515, "type": "electric_scooter", "fusion_lat": 0.0, "lat": 38.96229816666666, "name": "b2c2991b188a37bba983618fe3ca7fe6", "fusion_lon": 0.0, "bike_id": "b2c2991b188a37bba983618fe3ca7fe6", "is_disabled": 0, "is_reserved": 0}, {"rental_uris": {"ios": "https://dc.lft.to/lastmile_qr_scan", "android": "https://dc.lft.to/lastmile_qr_scan"}, "lon": -77.001372, "type": "electric_scooter", "fusion_lat": 0.0, "lat": 38.90423333333333, "name": "020a4e2fafa1845626a9e1818f95daa2", "fusion_lon": 0.0, "bike_id": "020a4e2fafa1845626a9e1818f95daa2", "is_disabled": 0, "is_reserved": 0}, {"rental_uris": {"ios": "https://dc.lft.to/lastmile_qr_scan", "android": "https://dc.lft.to/lastmile_qr_scan"}, "lon": -77.103446, "type": "electric_bike", "fusion_lat": 0.0, "lat": 38.852251333333335, "name": "69c54f8a50e42f5afc2dc68156dfe5d4", "fusion_lon": 0.0, "bike_id": "69c54f8a50e42f5afc2dc68156dfe5d4", "is_disabled": 0, "is_reserved": 0}, {"rental_uris": {"ios": "https://dc.lft.to/lastmile_qr_scan", "android": "https://dc.lft.to/lastmile_qr_scan"}, "lon": -77.00879966666666, "type": "electric_scooter", "fusion_lat": 0.0, "lat": 38.914025333333335, "name": "75734eee97ed5c453dc911374ff65561", "fusion_lon": 0.0, "bike_id": "75734eee97ed5c453dc911374ff65561", "is_disabled": 0, "is_reserved": 0}, {"rental_uris": {"ios": "https://dc.lft.to/lastmile_qr_scan", "android": "https://dc.lft.to/lastmile_qr_scan"}, "lon": -76.9479225, "type": "electric_scooter", "fusion_lat": 0.0, "lat": 38.89633666666667, "name": "48566d2eff2e1b8a641f357913c0b5fd", "fusion_lon": 0.0, "bike_id": "48566d2eff2e1b8a641f357913c0b5fd", "is_disabled": 0, "is_reserved": 0}, {"rental_uris": {"ios": "https://dc.lft.to/lastmile_qr_scan", "android": "https://dc.lft.to/lastmile_qr_scan"}, "lon": -76.931571, "type": "electric_scooter", "fusion_lat": 0.0, "lat": 38.89875883333333, "name": "5f16e73c9e0fbdb6f089e6bf48db7e31", "fusion_lon": 0.0, "bike_id": "5f16e73c9e0fbdb6f089e6bf48db7e31", "is_disabled": 0, "is_reserved": 0}, {"rental_uris": {"ios": "https://dc.lft.to/lastmile_qr_scan", "android": "https://dc.lft.to/lastmile_qr_scan"}, "lon": -77.03897866666667, "type": "electric_scooter", "fusion_lat": 0.0, "lat": 38.92241683333334, "name": "809ee3ebbc173c08a8fda57a4414629d", "fusion_lon": 0.0, "bike_id": "809ee3ebbc173c08a8fda57a4414629d", "is_disabled": 0, "is_reserved": 0}, {"rental_uris": {"ios": "https://dc.lft.to/lastmile_qr_scan", "android": "https://dc.lft.to/lastmile_qr_scan"}, "lon": -77.04569883333333, "type": "electric_scooter", "fusion_lat": 0.0, "lat": 38.910593, "name": "c857e8c5c2f8125547a924e183c301dc", "fusion_lon": 0.0, "bike_id": "c857e8c5c2f8125547a924e183c301dc", "is_disabled": 0, "is_reserved": 0}, {"rental_uris": {"ios": "https://dc.lft.to/lastmile_qr_scan", "android": "https://dc.lft.to/lastmile_qr_scan"}, "lon": -77.0201155, "type": "electric_bike", "fusion_lat": 0.0, "lat": 38.937245833333336, "name": "c06df1952d0bb99fba1bdae54864a866", "fusion_lon": 0.0, "bike_id": "c06df1952d0bb99fba1bdae54864a866", "is_disabled": 0, "is_reserved": 0}, {"rental_uris": {"ios": "https://dc.lft.to/lastmile_qr_scan", "android": "https://dc.lft.to/lastmile_qr_scan"}, "lon": -76.94846533333333, "type": "electric_scooter", "fusion_lat": 0.0, "lat": 38.88413533333333, "name": "ccc809735326a8e15b6b916a6a2afd5b", "fusion_lon": 0.0, "bike_id": "ccc809735326a8e15b6b916a6a2afd5b", "is_disabled": 0, "is_reserved": 0}, {"rental_uris": {"ios": "https://dc.lft.to/lastmile_qr_scan", "android": "https://dc.lft.to/lastmile_qr_scan"}, "lon": -76.92878416666667, "type": "electric_scooter", "fusion_lat": 0.0, "lat": 38.88444716666667, "name": "65c554d473bfd747314fa0ffa78532d6", "fusion_lon": 0.0, "bike_id": "65c554d473bfd747314fa0ffa78532d6", "is_disabled": 0, "is_reserved": 0}, {"rental_uris": {"ios": "https://dc.lft.to/lastmile_qr_scan", "android": "https://dc.lft.to/lastmile_qr_scan"}, "lon": -77.04822116666666, "type": "electric_scooter", "fusion_lat": 0.0, "lat": 38.909620833333335, "name": "aedc6d5c028a209f6129935e652c1a8e", "fusion_lon": 0.0, "bike_id": "aedc6d5c028a209f6129935e652c1a8e", "is_disabled": 0, "is_reserved": 0}, {"rental_uris": {"ios": "https://dc.lft.to/lastmile_qr_scan", "android": "https://dc.lft.to/lastmile_qr_scan"}, "lon": -77.08048716666667, "type": "electric_bike", "fusion_lat": 0.0, "lat": 38.848423333333336, "name": "ea18874c6593b312d1c1005999fce381", "fusion_lon": 0.0, "bike_id": "ea18874c6593b312d1c1005999fce381", "is_disabled": 0, "is_reserved": 0}, {"rental_uris": {"ios": "https://dc.lft.to/lastmile_qr_scan", "android": "https://dc.lft.to/lastmile_qr_scan"}, "lon": -77.0364215, "type": "electric_scooter", "fusion_lat": 0.0, "lat": 38.90283133333333, "name": "cfb7bf1a3a1af2011850039e4978c248", "fusion_lon": 0.0, "bike_id": "cfb7bf1a3a1af2011850039e4978c248", "is_disabled": 0, "is_reserved": 0}, {"rental_uris": {"ios": "https://dc.lft.to/lastmile_qr_scan", "android": "https://dc.lft.to/lastmile_qr_scan"}, "lon": -76.98519583333334, "type": "electric_scooter", "fusion_lat": 0.0, "lat": 38.91003216666667, "name": "679f651311fb4105da00672915c4ddd0", "fusion_lon": 0.0, "bike_id": "679f651311fb4105da00672915c4ddd0", "is_disabled": 0, "is_reserved": 0}, {"rental_uris": {"ios": "https://dc.lft.to/lastmile_qr_scan", "android": "https://dc.lft.to/lastmile_qr_scan"}, "lon": -76.98605533333334, "type": "electric_scooter", "fusion_lat": 0.0, "lat": 38.8783335, "name": "675cc35d3f00cff39a7b434b9d71e70c", "fusion_lon": 0.0, "bike_id": "675cc35d3f00cff39a7b434b9d71e70c", "is_disabled": 0, "is_reserved": 0}, {"rental_uris": {"ios": "https://dc.lft.to/lastmile_qr_scan", "android": "https://dc.lft.to/lastmile_qr_scan"}, "lon": -77.038425, "type": "electric_scooter", "fusion_lat": 0.0, "lat": 38.907497666666664, "name": "6f3e65910e351620a1b440229a527acc", "fusion_lon": 0.0, "bike_id": "6f3e65910e351620a1b440229a527acc", "is_disabled": 0, "is_reserved": 0}, {"rental_uris": {"ios": "https://dc.lft.to/lastmile_qr_scan", "android": "https://dc.lft.to/lastmile_qr_scan"}, "lon": -76.97410916666666, "type": "electric_scooter", "fusion_lat": 0.0, "lat": 38.90236983333333, "name": "63f85b1edfca1588718ae8b8d9e2f377", "fusion_lon": 0.0, "bike_id": "63f85b1edfca1588718ae8b8d9e2f377", "is_disabled": 0, "is_reserved": 0}, {"rental_uris": {"ios": "https://dc.lft.to/lastmile_qr_scan", "android": "https://dc.lft.to/lastmile_qr_scan"}, "lon": -77.01110716666666, "type": "electric_scooter", "fusion_lat": 0.0, "lat": 38.870637333333335, "name": "9e0475589a381adf1cc8dd28556174ad", "fusion_lon": 0.0, "bike_id": "9e0475589a381adf1cc8dd28556174ad", "is_disabled": 0, "is_reserved": 0}, {"rental_uris": {"ios": "https://dc.lft.to/lastmile_qr_scan", "android": "https://dc.lft.to/lastmile_qr_scan"}, "lon": -77.03426, "type": "electric_scooter", "fusion_lat": 0.0, "lat": 38.924303, "name": "2175ceb01ed608c73ea0ac20ceb2f20c", "fusion_lon": 0.0, "bike_id": "2175ceb01ed608c73ea0ac20ceb2f20c", "is_disabled": 0, "is_reserved": 0}, {"rental_uris": {"ios": "https://dc.lft.to/lastmile_qr_scan", "android": "https://dc.lft.to/lastmile_qr_scan"}, "lon": -77.03159, "type": "electric_scooter", "fusion_lat": 0.0, "lat": 38.893580666666665, "name": "5488b4e7ced69c73fb365dc0325974fe", "fusion_lon": 0.0, "bike_id": "5488b4e7ced69c73fb365dc0325974fe", "is_disabled": 0, "is_reserved": 0}, {"rental_uris": {"ios": "https://dc.lft.to/lastmile_qr_scan", "android": "https://dc.lft.to/lastmile_qr_scan"}, "lon": -76.9568175, "type": "electric_bike", "fusion_lat": 0.0, "lat": 38.947318, "name": "4a6a5a37facace499f161cc48ed73fe3", "fusion_lon": 0.0, "bike_id": "4a6a5a37facace499f161cc48ed73fe3", "is_disabled": 0, "is_reserved": 0}, {"rental_uris": {"ios": "https://dc.lft.to/lastmile_qr_scan", "android": "https://dc.lft.to/lastmile_qr_scan"}, "lon": -76.99459933333333, "type": "electric_scooter", "fusion_lat": 0.0, "lat": 38.851617833333336, "name": "fdec141e8e572486bc9dd3c8cceab243", "fusion_lon": 0.0, "bike_id": "fdec141e8e572486bc9dd3c8cceab243", "is_disabled": 0, "is_reserved": 0}, {"rental_uris": {"ios": "https://dc.lft.to/lastmile_qr_scan", "android": "https://dc.lft.to/lastmile_qr_scan"}, "lon": -76.928474, "type": "electric_scooter", "fusion_lat": 0.0, "lat": 38.883590833333336, "name": "c093c2d01e4d0d4d11e1666edf8a5db4", "fusion_lon": 0.0, "bike_id": "c093c2d01e4d0d4d11e1666edf8a5db4", "is_disabled": 0, "is_reserved": 0}, {"rental_uris": {"ios": "https://dc.lft.to/lastmile_qr_scan", "android": "https://dc.lft.to/lastmile_qr_scan"}, "lon": -77.03570683333334, "type": "electric_scooter", "fusion_lat": 0.0, "lat": 38.939765, "name": "023ff08de75cff4ad8c16369c9e7d267", "fusion_lon": 0.0, "bike_id": "023ff08de75cff4ad8c16369c9e7d267", "is_disabled": 0, "is_reserved": 0}, {"rental_uris": {"ios": "https://dc.lft.to/lastmile_qr_scan", "android": "https://dc.lft.to/lastmile_qr_scan"}, "lon": -77.0393185, "type": "electric_scooter", "fusion_lat": 0.0, "lat": 38.902772166666665, "name": "2135f370af0adc1907bf92376e378f5a", "fusion_lon": 0.0, "bike_id": "2135f370af0adc1907bf92376e378f5a", "is_disabled": 0, "is_reserved": 0}, {"rental_uris": {"ios": "https://dc.lft.to/lastmile_qr_scan", "android": "https://dc.lft.to/lastmile_qr_scan"}, "lon": -77.003334, "type": "electric_bike", "fusion_lat": 0.0, "lat": 38.876605, "name": "e23b6eef940670542e9231f6af75e393", "fusion_lon": 0.0, "bike_id": "e23b6eef940670542e9231f6af75e393", "is_disabled": 0, "is_reserved": 0}, {"rental_uris": {"ios": "https://dc.lft.to/lastmile_qr_scan", "android": "https://dc.lft.to/lastmile_qr_scan"}, "lon": -77.03305116666667, "type": "electric_scooter", "fusion_lat": 0.0, "lat": 38.909095, "name": "b46cd4c50170274d44a4fa99f63a5913", "fusion_lon": 0.0, "bike_id": "b46cd4c50170274d44a4fa99f63a5913", "is_disabled": 0, "is_reserved": 0}, {"rental_uris": {"ios": "https://dc.lft.to/lastmile_qr_scan", "android": "https://dc.lft.to/lastmile_qr_scan"}, "lon": -77.04541666666667, "type": "electric_scooter", "fusion_lat": 0.0, "lat": 38.89479883333333, "name": "a9746a1852c93e002214ca9c0e3b58e9", "fusion_lon": 0.0, "bike_id": "a9746a1852c93e002214ca9c0e3b58e9", "is_disabled": 0, "is_reserved": 0}, {"rental_uris": {"ios": "https://dc.lft.to/lastmile_qr_scan", "android": "https://dc.lft.to/lastmile_qr_scan"}, "lon": -77.0550425, "type": "electric_scooter", "fusion_lat": 0.0, "lat": 38.8996965, "name": "9054c9284706081d4e574400ca0e9c53", "fusion_lon": 0.0, "bike_id": "9054c9284706081d4e574400ca0e9c53", "is_disabled": 0, "is_reserved": 0}, {"rental_uris": {"ios": "https://dc.lft.to/lastmile_qr_scan", "android": "https://dc.lft.to/lastmile_qr_scan"}, "lon": -77.027127, "type": "electric_scooter", "fusion_lat": 0.0, "lat": 38.909443833333334, "name": "1709e3d1f40fd98b653df7ed5959025d", "fusion_lon": 0.0, "bike_id": "1709e3d1f40fd98b653df7ed5959025d", "is_disabled": 0, "is_reserved": 0}, {"rental_uris": {"ios": "https://dc.lft.to/lastmile_qr_scan", "android": "https://dc.lft.to/lastmile_qr_scan"}, "lon": -76.98349683333333, "type": "electric_scooter", "fusion_lat": 0.0, "lat": 38.9153355, "name": "7b9e52e7787aad14657d49f0efa6f007", "fusion_lon": 0.0, "bike_id": "7b9e52e7787aad14657d49f0efa6f007", "is_disabled": 0, "is_reserved": 0}, {"rental_uris": {"ios": "https://dc.lft.to/lastmile_qr_scan", "android": "https://dc.lft.to/lastmile_qr_scan"}, "lon": -77.03186116666667, "type": "electric_scooter", "fusion_lat": 0.0, "lat": 38.89844083333333, "name": "cdf614dbf31710d24d3b77777b1d2099", "fusion_lon": 0.0, "bike_id": "cdf614dbf31710d24d3b77777b1d2099", "is_disabled": 0, "is_reserved": 0}, {"rental_uris": {"ios": "https://dc.lft.to/lastmile_qr_scan", "android": "https://dc.lft.to/lastmile_qr_scan"}, "lon": -77.02706516666667, "type": "electric_scooter", "fusion_lat": 0.0, "lat": 38.90670433333333, "name": "ab0144bd7fbeba62c28e5365a5b85328", "fusion_lon": 0.0, "bike_id": "ab0144bd7fbeba62c28e5365a5b85328", "is_disabled": 0, "is_reserved": 0}, {"rental_uris": {"ios": "https://dc.lft.to/lastmile_qr_scan", "android": "https://dc.lft.to/lastmile_qr_scan"}, "lon": -77.03222333333333, "type": "electric_scooter", "fusion_lat": 0.0, "lat": 38.900424666666666, "name": "f988d93a3cb7aa4aa58fb09a2cc70da4", "fusion_lon": 0.0, "bike_id": "f988d93a3cb7aa4aa58fb09a2cc70da4", "is_disabled": 0, "is_reserved": 0}, {"rental_uris": {"ios": "https://dc.lft.to/lastmile_qr_scan", "android": "https://dc.lft.to/lastmile_qr_scan"}, "lon": -77.02653633333334, "type": "electric_scooter", "fusion_lat": 0.0, "lat": 38.8811715, "name": "664c348844a5692e88a5bf289a167155", "fusion_lon": 0.0, "bike_id": "664c348844a5692e88a5bf289a167155", "is_disabled": 0, "is_reserved": 0}, {"rental_uris": {"ios": "https://dc.lft.to/lastmile_qr_scan", "android": "https://dc.lft.to/lastmile_qr_scan"}, "lon": -77.028458, "type": "electric_scooter", "fusion_lat": 0.0, "lat": 38.934497, "name": "99a278a5d06ab88cf8684ab21b5a4e36", "fusion_lon": 0.0, "bike_id": "99a278a5d06ab88cf8684ab21b5a4e36", "is_disabled": 0, "is_reserved": 0}, {"rental_uris": {"ios": "https://dc.lft.to/lastmile_qr_scan", "android": "https://dc.lft.to/lastmile_qr_scan"}, "lon": -77.073054, "type": "electric_scooter", "fusion_lat": 0.0, "lat": 38.9361295, "name": "43c41a466feb1285917426b34620c004", "fusion_lon": 0.0, "bike_id": "43c41a466feb1285917426b34620c004", "is_disabled": 0, "is_reserved": 0}, {"rental_uris": {"ios": "https://dc.lft.to/lastmile_qr_scan", "android": "https://dc.lft.to/lastmile_qr_scan"}, "lon": -77.006639, "type": "electric_scooter", "fusion_lat": 0.0, "lat": 38.87654083333334, "name": "f708b05186f8b34a04098bcd5a393eb7", "fusion_lon": 0.0, "bike_id": "f708b05186f8b34a04098bcd5a393eb7", "is_disabled": 0, "is_reserved": 0}, {"rental_uris": {"ios": "https://dc.lft.to/lastmile_qr_scan", "android": "https://dc.lft.to/lastmile_qr_scan"}, "lon": -76.99065133333333, "type": "electric_scooter", "fusion_lat": 0.0, "lat": 38.863562333333334, "name": "1423c9451e2e04b4a07e2d840487cdff", "fusion_lon": 0.0, "bike_id": "1423c9451e2e04b4a07e2d840487cdff", "is_disabled": 0, "is_reserved": 0}, {"rental_uris": {"ios": "https://dc.lft.to/lastmile_qr_scan", "android": "https://dc.lft.to/lastmile_qr_scan"}, "lon": -77.0384685, "type": "electric_scooter", "fusion_lat": 0.0, "lat": 38.9263915, "name": "7947b2cce862e84a9aea674e7e2e916d", "fusion_lon": 0.0, "bike_id": "7947b2cce862e84a9aea674e7e2e916d", "is_disabled": 0, "is_reserved": 0}, {"rental_uris": {"ios": "https://dc.lft.to/lastmile_qr_scan", "android": "https://dc.lft.to/lastmile_qr_scan"}, "lon": -77.03660233333333, "type": "electric_scooter", "fusion_lat": 0.0, "lat": 38.91310033333333, "name": "f553883af366dd8038132f8ad9398c29", "fusion_lon": 0.0, "bike_id": "f553883af366dd8038132f8ad9398c29", "is_disabled": 0, "is_reserved": 0}, {"rental_uris": {"ios": "https://dc.lft.to/lastmile_qr_scan", "android": "https://dc.lft.to/lastmile_qr_scan"}, "lon": -77.01089966666666, "type": "electric_scooter", "fusion_lat": 0.0, "lat": 38.894019166666666, "name": "c2f8437234ed9468ff401ad060566094", "fusion_lon": 0.0, "bike_id": "c2f8437234ed9468ff401ad060566094", "is_disabled": 0, "is_reserved": 0}, {"rental_uris": {"ios": "https://dc.lft.to/lastmile_qr_scan", "android": "https://dc.lft.to/lastmile_qr_scan"}, "lon": -77.04467183333334, "type": "electric_scooter", "fusion_lat": 0.0, "lat": 38.90652983333333, "name": "ea54a36bb968eb29e6e1fd30f5658e18", "fusion_lon": 0.0, "bike_id": "ea54a36bb968eb29e6e1fd30f5658e18", "is_disabled": 0, "is_reserved": 0}, {"rental_uris": {"ios": "https://dc.lft.to/lastmile_qr_scan", "android": "https://dc.lft.to/lastmile_qr_scan"}, "lon": -77.0325385, "type": "electric_scooter", "fusion_lat": 0.0, "lat": 38.92164833333333, "name": "e3a18de14d5c2167c3ddad6279e960ff", "fusion_lon": 0.0, "bike_id": "e3a18de14d5c2167c3ddad6279e960ff", "is_disabled": 0, "is_reserved": 0}, {"rental_uris": {"ios": "https://dc.lft.to/lastmile_qr_scan", "android": "https://dc.lft.to/lastmile_qr_scan"}, "lon": -76.98827416666667, "type": "electric_scooter", "fusion_lat": 0.0, "lat": 38.8802365, "name": "a95cd745901a320fc1229c61a44677b0", "fusion_lon": 0.0, "bike_id": "a95cd745901a320fc1229c61a44677b0", "is_disabled": 0, "is_reserved": 0}, {"rental_uris": {"ios": "https://dc.lft.to/lastmile_qr_scan", "android": "https://dc.lft.to/lastmile_qr_scan"}, "lon": -77.03212233333333, "type": "electric_scooter", "fusion_lat": 0.0, "lat": 38.88703616666667, "name": "220e953590fd1a0ebb1a72374a2ad19b", "fusion_lon": 0.0, "bike_id": "220e953590fd1a0ebb1a72374a2ad19b", "is_disabled": 0, "is_reserved": 0}, {"rental_uris": {"ios": "https://dc.lft.to/lastmile_qr_scan", "android": "https://dc.lft.to/lastmile_qr_scan"}, "lon": -77.02404866666667, "type": "electric_scooter", "fusion_lat": 0.0, "lat": 38.884625166666666, "name": "bf9cb9029ad63b298753568a8a50a92a", "fusion_lon": 0.0, "bike_id": "bf9cb9029ad63b298753568a8a50a92a", "is_disabled": 0, "is_reserved": 0}, {"rental_uris": {"ios": "https://dc.lft.to/lastmile_qr_scan", "android": "https://dc.lft.to/lastmile_qr_scan"}, "lon": -77.03347533333333, "type": "electric_scooter", "fusion_lat": 0.0, "lat": 38.89945916666667, "name": "3c1a9cedd2297a07682632d62b2c5474", "fusion_lon": 0.0, "bike_id": "3c1a9cedd2297a07682632d62b2c5474", "is_disabled": 0, "is_reserved": 0}, {"rental_uris": {"ios": "https://dc.lft.to/lastmile_qr_scan", "android": "https://dc.lft.to/lastmile_qr_scan"}, "lon": -77.11317566666666, "type": "electric_bike", "fusion_lat": 0.0, "lat": 38.85562983333333, "name": "1271c2d3986d08878e948c8b8890334d", "fusion_lon": 0.0, "bike_id": "1271c2d3986d08878e948c8b8890334d", "is_disabled": 0, "is_reserved": 0}, {"rental_uris": {"ios": "https://dc.lft.to/lastmile_qr_scan", "android": "https://dc.lft.to/lastmile_qr_scan"}, "lon": -77.0367085, "type": "electric_scooter", "fusion_lat": 0.0, "lat": 38.9181175, "name": "0a6eeb0eb57a80964c3d001764b02784", "fusion_lon": 0.0, "bike_id": "0a6eeb0eb57a80964c3d001764b02784", "is_disabled": 0, "is_reserved": 0}, {"rental_uris": {"ios": "https://dc.lft.to/lastmile_qr_scan", "android": "https://dc.lft.to/lastmile_qr_scan"}, "lon": -77.03855033333333, "type": "electric_scooter", "fusion_lat": 0.0, "lat": 38.91207033333333, "name": "a8ed13074937cc9f4afe4d0b6f3411e0", "fusion_lon": 0.0, "bike_id": "a8ed13074937cc9f4afe4d0b6f3411e0", "is_disabled": 0, "is_reserved": 0}, {"rental_uris": {"ios": "https://dc.lft.to/lastmile_qr_scan", "android": "https://dc.lft.to/lastmile_qr_scan"}, "lon": -76.986903, "type": "electric_scooter", "fusion_lat": 0.0, "lat": 38.91287833333333, "name": "a4b8bd17f947b22acabf42a096d8b735", "fusion_lon": 0.0, "bike_id": "a4b8bd17f947b22acabf42a096d8b735", "is_disabled": 0, "is_reserved": 0}, {"rental_uris": {"ios": "https://dc.lft.to/lastmile_qr_scan", "android": "https://dc.lft.to/lastmile_qr_scan"}, "lon": -77.03205166666666, "type": "electric_scooter", "fusion_lat": 0.0, "lat": 38.925795, "name": "dab371399c67f5157f9952e7ac2ff73e", "fusion_lon": 0.0, "bike_id": "dab371399c67f5157f9952e7ac2ff73e", "is_disabled": 0, "is_reserved": 0}, {"rental_uris": {"ios": "https://dc.lft.to/lastmile_qr_scan", "android": "https://dc.lft.to/lastmile_qr_scan"}, "lon": -77.06880266666667, "type": "electric_scooter", "fusion_lat": 0.0, "lat": 38.9051675, "name": "ea3a47396b56aab61b78b89f34f93a00", "fusion_lon": 0.0, "bike_id": "ea3a47396b56aab61b78b89f34f93a00", "is_disabled": 0, "is_reserved": 0}, {"rental_uris": {"ios": "https://dc.lft.to/lastmile_qr_scan", "android": "https://dc.lft.to/lastmile_qr_scan"}, "lon": -77.00258616666666, "type": "electric_bike", "fusion_lat": 0.0, "lat": 38.91176083333333, "name": "ef78664e5fc505ce42c2b19a39cac7bf", "fusion_lon": 0.0, "bike_id": "ef78664e5fc505ce42c2b19a39cac7bf", "is_disabled": 0, "is_reserved": 0}, {"rental_uris": {"ios": "https://dc.lft.to/lastmile_qr_scan", "android": "https://dc.lft.to/lastmile_qr_scan"}, "lon": -77.03295733333333, "type": "electric_scooter", "fusion_lat": 0.0, "lat": 38.90159466666667, "name": "c2885ac95f346b4c575913d2628e8571", "fusion_lon": 0.0, "bike_id": "c2885ac95f346b4c575913d2628e8571", "is_disabled": 0, "is_reserved": 0}, {"rental_uris": {"ios": "https://dc.lft.to/lastmile_qr_scan", "android": "https://dc.lft.to/lastmile_qr_scan"}, "lon": -77.04007683333333, "type": "electric_scooter", "fusion_lat": 0.0, "lat": 38.9001495, "name": "7525443e5ea4e95f58c92c51800aef08", "fusion_lon": 0.0, "bike_id": "7525443e5ea4e95f58c92c51800aef08", "is_disabled": 0, "is_reserved": 0}, {"rental_uris": {"ios": "https://dc.lft.to/lastmile_qr_scan", "android": "https://dc.lft.to/lastmile_qr_scan"}, "lon": -76.97814, "type": "electric_scooter", "fusion_lat": 0.0, "lat": 38.895127333333335, "name": "ccf63c1b0a8e57993979a01e944f7e30", "fusion_lon": 0.0, "bike_id": "ccf63c1b0a8e57993979a01e944f7e30", "is_disabled": 0, "is_reserved": 0}, {"rental_uris": {"ios": "https://dc.lft.to/lastmile_qr_scan", "android": "https://dc.lft.to/lastmile_qr_scan"}, "lon": -77.18294266666666, "type": "electric_bike", "fusion_lat": 0.0, "lat": 38.88345833333333, "name": "cbdcc56844a943f6de913c751485bf79", "fusion_lon": 0.0, "bike_id": "cbdcc56844a943f6de913c751485bf79", "is_disabled": 0, "is_reserved": 0}, {"rental_uris": {"ios": "https://dc.lft.to/lastmile_qr_scan", "android": "https://dc.lft.to/lastmile_qr_scan"}, "lon": -76.99023933333334, "type": "electric_scooter", "fusion_lat": 0.0, "lat": 38.85871016666667, "name": "1f667ad6ca209f8d7d1bc453a70102df", "fusion_lon": 0.0, "bike_id": "1f667ad6ca209f8d7d1bc453a70102df", "is_disabled": 0, "is_reserved": 0}, {"rental_uris": {"ios": "https://dc.lft.to/lastmile_qr_scan", "android": "https://dc.lft.to/lastmile_qr_scan"}, "lon": -77.01745083333333, "type": "electric_scooter", "fusion_lat": 0.0, "lat": 38.90562633333333, "name": "8f430e91059d16a09e18de7206c71a50", "fusion_lon": 0.0, "bike_id": "8f430e91059d16a09e18de7206c71a50", "is_disabled": 0, "is_reserved": 0}, {"rental_uris": {"ios": "https://dc.lft.to/lastmile_qr_scan", "android": "https://dc.lft.to/lastmile_qr_scan"}, "lon": -77.025848, "type": "electric_scooter", "fusion_lat": 0.0, "lat": 38.920336166666665, "name": "040e4eb93428dfcb098942a15b1c864f", "fusion_lon": 0.0, "bike_id": "040e4eb93428dfcb098942a15b1c864f", "is_disabled": 0, "is_reserved": 0}, {"rental_uris": {"ios": "https://dc.lft.to/lastmile_qr_scan", "android": "https://dc.lft.to/lastmile_qr_scan"}, "lon": -77.01738616666667, "type": "electric_scooter", "fusion_lat": 0.0, "lat": 38.877213, "name": "6efaf5f793adc23b5b1693c476fb1632", "fusion_lon": 0.0, "bike_id": "6efaf5f793adc23b5b1693c476fb1632", "is_disabled": 0, "is_reserved": 0}, {"rental_uris": {"ios": "https://dc.lft.to/lastmile_qr_scan", "android": "https://dc.lft.to/lastmile_qr_scan"}, "lon": -77.03863933333334, "type": "electric_scooter", "fusion_lat": 0.0, "lat": 38.90832183333333, "name": "5a40c5fc072d9fdb3537fcf9ce714afd", "fusion_lon": 0.0, "bike_id": "5a40c5fc072d9fdb3537fcf9ce714afd", "is_disabled": 0, "is_reserved": 0}, {"rental_uris": {"ios": "https://dc.lft.to/lastmile_qr_scan", "android": "https://dc.lft.to/lastmile_qr_scan"}, "lon": -77.03614016666667, "type": "electric_scooter", "fusion_lat": 0.0, "lat": 38.937377833333336, "name": "2d7eb57ead5cc6bc7bc380faa59dfa37", "fusion_lon": 0.0, "bike_id": "2d7eb57ead5cc6bc7bc380faa59dfa37", "is_disabled": 0, "is_reserved": 0}, {"rental_uris": {"ios": "https://dc.lft.to/lastmile_qr_scan", "android": "https://dc.lft.to/lastmile_qr_scan"}, "lon": -77.01863683333333, "type": "electric_scooter", "fusion_lat": 0.0, "lat": 38.892627166666664, "name": "0e89060c0918670859836460b4e835c2", "fusion_lon": 0.0, "bike_id": "0e89060c0918670859836460b4e835c2", "is_disabled": 0, "is_reserved": 0}, {"rental_uris": {"ios": "https://dc.lft.to/lastmile_qr_scan", "android": "https://dc.lft.to/lastmile_qr_scan"}, "lon": -77.06353116666666, "type": "electric_scooter", "fusion_lat": 0.0, "lat": 38.944481, "name": "bba95f6351099779f25c534d4fd5bcc3", "fusion_lon": 0.0, "bike_id": "bba95f6351099779f25c534d4fd5bcc3", "is_disabled": 0, "is_reserved": 0}, {"rental_uris": {"ios": "https://dc.lft.to/lastmile_qr_scan", "android": "https://dc.lft.to/lastmile_qr_scan"}, "lon": -77.02543833333333, "type": "electric_scooter", "fusion_lat": 0.0, "lat": 38.892261, "name": "b9bd84ffb037642285049756924e82c9", "fusion_lon": 0.0, "bike_id": "b9bd84ffb037642285049756924e82c9", "is_disabled": 0, "is_reserved": 0}, {"rental_uris": {"ios": "https://dc.lft.to/lastmile_qr_scan", "android": "https://dc.lft.to/lastmile_qr_scan"}, "lon": -77.00468416666666, "type": "electric_scooter", "fusion_lat": 0.0, "lat": 38.91186283333333, "name": "ec27ba315e15ec4392c2b2572c234115", "fusion_lon": 0.0, "bike_id": "ec27ba315e15ec4392c2b2572c234115", "is_disabled": 0, "is_reserved": 0}, {"rental_uris": {"ios": "https://dc.lft.to/lastmile_qr_scan", "android": "https://dc.lft.to/lastmile_qr_scan"}, "lon": -77.06377133333334, "type": "electric_scooter", "fusion_lat": 0.0, "lat": 38.9050135, "name": "20db785984e285b4e44060de3faf4bc4", "fusion_lon": 0.0, "bike_id": "20db785984e285b4e44060de3faf4bc4", "is_disabled": 0, "is_reserved": 0}, {"rental_uris": {"ios": "https://dc.lft.to/lastmile_qr_scan", "android": "https://dc.lft.to/lastmile_qr_scan"}, "lon": -77.0484585, "type": "electric_scooter", "fusion_lat": 0.0, "lat": 38.91968333333333, "name": "6025ccd2ccd68995006bdc08a272e70d", "fusion_lon": 0.0, "bike_id": "6025ccd2ccd68995006bdc08a272e70d", "is_disabled": 0, "is_reserved": 0}, {"rental_uris": {"ios": "https://dc.lft.to/lastmile_qr_scan", "android": "https://dc.lft.to/lastmile_qr_scan"}, "lon": -77.03462283333333, "type": "electric_scooter", "fusion_lat": 0.0, "lat": 38.93448433333333, "name": "c50b96ca6a27a4bed53d79ac94268cc9", "fusion_lon": 0.0, "bike_id": "c50b96ca6a27a4bed53d79ac94268cc9", "is_disabled": 0, "is_reserved": 0}, {"rental_uris": {"ios": "https://dc.lft.to/lastmile_qr_scan", "android": "https://dc.lft.to/lastmile_qr_scan"}, "lon": -77.00726966666667, "type": "electric_scooter", "fusion_lat": 0.0, "lat": 38.8849365, "name": "e2bfb862a14a0831dee47d201217a2da", "fusion_lon": 0.0, "bike_id": "e2bfb862a14a0831dee47d201217a2da", "is_disabled": 0, "is_reserved": 0}, {"rental_uris": {"ios": "https://dc.lft.to/lastmile_qr_scan", "android": "https://dc.lft.to/lastmile_qr_scan"}, "lon": -77.01631816666666, "type": "electric_scooter", "fusion_lat": 0.0, "lat": 38.872214, "name": "7a4c4f92a37c738b0eb459d96b6f8a03", "fusion_lon": 0.0, "bike_id": "7a4c4f92a37c738b0eb459d96b6f8a03", "is_disabled": 0, "is_reserved": 0}, {"rental_uris": {"ios": "https://dc.lft.to/lastmile_qr_scan", "android": "https://dc.lft.to/lastmile_qr_scan"}, "lon": -77.04785416666667, "type": "electric_scooter", "fusion_lat": 0.0, "lat": 38.89223716666667, "name": "6070adabbde2581145f20f2bbe609329", "fusion_lon": 0.0, "bike_id": "6070adabbde2581145f20f2bbe609329", "is_disabled": 0, "is_reserved": 0}, {"rental_uris": {"ios": "https://dc.lft.to/lastmile_qr_scan", "android": "https://dc.lft.to/lastmile_qr_scan"}, "lon": -77.0020495, "type": "electric_scooter", "fusion_lat": 0.0, "lat": 38.900344833333335, "name": "cedbfe7eefd0bd75a400c340476e90a8", "fusion_lon": 0.0, "bike_id": "cedbfe7eefd0bd75a400c340476e90a8", "is_disabled": 0, "is_reserved": 0}, {"rental_uris": {"ios": "https://dc.lft.to/lastmile_qr_scan", "android": "https://dc.lft.to/lastmile_qr_scan"}, "lon": -77.178433, "type": "electric_bike", "fusion_lat": 0.0, "lat": 39.0890275, "name": "4e658bc8d915e6810ecf423aa41c3449", "fusion_lon": 0.0, "bike_id": "4e658bc8d915e6810ecf423aa41c3449", "is_disabled": 0, "is_reserved": 0}, {"rental_uris": {"ios": "https://dc.lft.to/lastmile_qr_scan", "android": "https://dc.lft.to/lastmile_qr_scan"}, "lon": -77.085459, "type": "electric_bike", "fusion_lat": 0.0, "lat": 38.8561995, "name": "366863c10ec0b858bfe06680fa18730d", "fusion_lon": 0.0, "bike_id": "366863c10ec0b858bfe06680fa18730d", "is_disabled": 0, "is_reserved": 0}, {"rental_uris": {"ios": "https://dc.lft.to/lastmile_qr_scan", "android": "https://dc.lft.to/lastmile_qr_scan"}, "lon": -77.033553, "type": "electric_scooter", "fusion_lat": 0.0, "lat": 38.88502066666667, "name": "3bd422ae4bc14d7dbc23fadf9b12fdc1", "fusion_lon": 0.0, "bike_id": "3bd422ae4bc14d7dbc23fadf9b12fdc1", "is_disabled": 0, "is_reserved": 0}, {"rental_uris": {"ios": "https://dc.lft.to/lastmile_qr_scan", "android": "https://dc.lft.to/lastmile_qr_scan"}, "lon": -77.02098633333334, "type": "electric_scooter", "fusion_lat": 0.0, "lat": 38.93114883333333, "name": "b42eae41d6c6902cea13588b4e354fe6", "fusion_lon": 0.0, "bike_id": "b42eae41d6c6902cea13588b4e354fe6", "is_disabled": 0, "is_reserved": 0}, {"rental_uris": {"ios": "https://dc.lft.to/lastmile_qr_scan", "android": "https://dc.lft.to/lastmile_qr_scan"}, "lon": -77.03829933333333, "type": "electric_scooter", "fusion_lat": 0.0, "lat": 38.911106, "name": "95a0a8c51cf6286d8115099d737735fc", "fusion_lon": 0.0, "bike_id": "95a0a8c51cf6286d8115099d737735fc", "is_disabled": 0, "is_reserved": 0}, {"rental_uris": {"ios": "https://dc.lft.to/lastmile_qr_scan", "android": "https://dc.lft.to/lastmile_qr_scan"}, "lon": -77.02976966666667, "type": "electric_scooter", "fusion_lat": 0.0, "lat": 38.96232, "name": "6c2e4eebc4a5073418e4f2640ec7e6c2", "fusion_lon": 0.0, "bike_id": "6c2e4eebc4a5073418e4f2640ec7e6c2", "is_disabled": 0, "is_reserved": 0}, {"rental_uris": {"ios": "https://dc.lft.to/lastmile_qr_scan", "android": "https://dc.lft.to/lastmile_qr_scan"}, "lon": -77.04105133333333, "type": "electric_scooter", "fusion_lat": 0.0, "lat": 38.918548666666666, "name": "42e5832d89a9a7348cef24747f66b2b9", "fusion_lon": 0.0, "bike_id": "42e5832d89a9a7348cef24747f66b2b9", "is_disabled": 0, "is_reserved": 0}, {"rental_uris": {"ios": "https://dc.lft.to/lastmile_qr_scan", "android": "https://dc.lft.to/lastmile_qr_scan"}, "lon": -77.02629266666666, "type": "electric_bike", "fusion_lat": 0.0, "lat": 38.962229666666666, "name": "f19f32f9a92f0a8a294dd624c7d5c1f2", "fusion_lon": 0.0, "bike_id": "f19f32f9a92f0a8a294dd624c7d5c1f2", "is_disabled": 0, "is_reserved": 0}, {"rental_uris": {"ios": "https://dc.lft.to/lastmile_qr_scan", "android": "https://dc.lft.to/lastmile_qr_scan"}, "lon": -77.04419483333334, "type": "electric_scooter", "fusion_lat": 0.0, "lat": 38.89221783333333, "name": "7f2cdea86a9f598feb35cfd4bfbbf93f", "fusion_lon": 0.0, "bike_id": "7f2cdea86a9f598feb35cfd4bfbbf93f", "is_disabled": 0, "is_reserved": 0}, {"rental_uris": {"ios": "https://dc.lft.to/lastmile_qr_scan", "android": "https://dc.lft.to/lastmile_qr_scan"}, "lon": -76.98966633333333, "type": "electric_scooter", "fusion_lat": 0.0, "lat": 38.902454666666664, "name": "a5c372bb8b0cdaeaa64a696be703cab2", "fusion_lon": 0.0, "bike_id": "a5c372bb8b0cdaeaa64a696be703cab2", "is_disabled": 0, "is_reserved": 0}, {"rental_uris": {"ios": "https://dc.lft.to/lastmile_qr_scan", "android": "https://dc.lft.to/lastmile_qr_scan"}, "lon": -76.9992745, "type": "electric_scooter", "fusion_lat": 0.0, "lat": 38.9091575, "name": "ec909a53aecba1d5356c429e17b3c6b3", "fusion_lon": 0.0, "bike_id": "ec909a53aecba1d5356c429e17b3c6b3", "is_disabled": 0, "is_reserved": 0}, {"rental_uris": {"ios": "https://dc.lft.to/lastmile_qr_scan", "android": "https://dc.lft.to/lastmile_qr_scan"}, "lon": -77.031897, "type": "electric_scooter", "fusion_lat": 0.0, "lat": 38.914632166666664, "name": "0ae43d4ba5688de0fbc8bfdc9622e251", "fusion_lon": 0.0, "bike_id": "0ae43d4ba5688de0fbc8bfdc9622e251", "is_disabled": 0, "is_reserved": 0}, {"rental_uris": {"ios": "https://dc.lft.to/lastmile_qr_scan", "android": "https://dc.lft.to/lastmile_qr_scan"}, "lon": -76.94633933333333, "type": "electric_scooter", "fusion_lat": 0.0, "lat": 38.89834183333333, "name": "f336aa0e0f5ab3aaa3c6075d36f30d80", "fusion_lon": 0.0, "bike_id": "f336aa0e0f5ab3aaa3c6075d36f30d80", "is_disabled": 0, "is_reserved": 0}, {"rental_uris": {"ios": "https://dc.lft.to/lastmile_qr_scan", "android": "https://dc.lft.to/lastmile_qr_scan"}, "lon": -77.03605516666667, "type": "electric_scooter", "fusion_lat": 0.0, "lat": 38.93484483333334, "name": "42f99979561b199c88a0e014249d6f62", "fusion_lon": 0.0, "bike_id": "42f99979561b199c88a0e014249d6f62", "is_disabled": 0, "is_reserved": 0}, {"rental_uris": {"ios": "https://dc.lft.to/lastmile_qr_scan", "android": "https://dc.lft.to/lastmile_qr_scan"}, "lon": -77.01380533333334, "type": "electric_scooter", "fusion_lat": 0.0, "lat": 38.92862383333333, "name": "5be4f44b1ef4fd9e405015e0519ecc63", "fusion_lon": 0.0, "bike_id": "5be4f44b1ef4fd9e405015e0519ecc63", "is_disabled": 0, "is_reserved": 0}, {"rental_uris": {"ios": "https://dc.lft.to/lastmile_qr_scan", "android": "https://dc.lft.to/lastmile_qr_scan"}, "lon": -77.0284185, "type": "electric_scooter", "fusion_lat": 0.0, "lat": 38.934145, "name": "834b4ff06a55afec2e4f52397af05d20", "fusion_lon": 0.0, "bike_id": "834b4ff06a55afec2e4f52397af05d20", "is_disabled": 0, "is_reserved": 0}, {"rental_uris": {"ios": "https://dc.lft.to/lastmile_qr_scan", "android": "https://dc.lft.to/lastmile_qr_scan"}, "lon": -77.020077, "type": "electric_scooter", "fusion_lat": 0.0, "lat": 38.913116333333335, "name": "e7c7a8a8848d4ca16c6cd81c09587cdc", "fusion_lon": 0.0, "bike_id": "e7c7a8a8848d4ca16c6cd81c09587cdc", "is_disabled": 0, "is_reserved": 0}, {"rental_uris": {"ios": "https://dc.lft.to/lastmile_qr_scan", "android": "https://dc.lft.to/lastmile_qr_scan"}, "lon": -77.045457, "type": "electric_scooter", "fusion_lat": 0.0, "lat": 38.93412266666667, "name": "7f4dbac7b636edcd2c2e3cd61b37e3d4", "fusion_lon": 0.0, "bike_id": "7f4dbac7b636edcd2c2e3cd61b37e3d4", "is_disabled": 0, "is_reserved": 0}, {"rental_uris": {"ios": "https://dc.lft.to/lastmile_qr_scan", "android": "https://dc.lft.to/lastmile_qr_scan"}, "lon": -77.02707833333334, "type": "electric_scooter", "fusion_lat": 0.0, "lat": 38.94997583333333, "name": "d34e42d341eac0d8cef30ec06ce6417c", "fusion_lon": 0.0, "bike_id": "d34e42d341eac0d8cef30ec06ce6417c", "is_disabled": 0, "is_reserved": 0}, {"rental_uris": {"ios": "https://dc.lft.to/lastmile_qr_scan", "android": "https://dc.lft.to/lastmile_qr_scan"}, "lon": -77.00618, "type": "electric_scooter", "fusion_lat": 0.0, "lat": 38.90260983333334, "name": "7bf0c5b0f12922b7c0f38645d1104e52", "fusion_lon": 0.0, "bike_id": "7bf0c5b0f12922b7c0f38645d1104e52", "is_disabled": 0, "is_reserved": 0}, {"rental_uris": {"ios": "https://dc.lft.to/lastmile_qr_scan", "android": "https://dc.lft.to/lastmile_qr_scan"}, "lon": -77.00209316666667, "type": "electric_scooter", "fusion_lat": 0.0, "lat": 38.902225666666666, "name": "aff83ab55c73796385c40fd75aacefdc", "fusion_lon": 0.0, "bike_id": "aff83ab55c73796385c40fd75aacefdc", "is_disabled": 0, "is_reserved": 0}, {"rental_uris": {"ios": "https://dc.lft.to/lastmile_qr_scan", "android": "https://dc.lft.to/lastmile_qr_scan"}, "lon": -77.04658383333333, "type": "electric_scooter", "fusion_lat": 0.0, "lat": 38.8933615, "name": "4bd15def8acab211b506311fee7e3135", "fusion_lon": 0.0, "bike_id": "4bd15def8acab211b506311fee7e3135", "is_disabled": 0, "is_reserved": 0}, {"rental_uris": {"ios": "https://dc.lft.to/lastmile_qr_scan", "android": "https://dc.lft.to/lastmile_qr_scan"}, "lon": -77.0515675, "type": "electric_scooter", "fusion_lat": 0.0, "lat": 38.897663, "name": "6af3e564e345256a0e889836e383afdf", "fusion_lon": 0.0, "bike_id": "6af3e564e345256a0e889836e383afdf", "is_disabled": 0, "is_reserved": 0}, {"rental_uris": {"ios": "https://dc.lft.to/lastmile_qr_scan", "android": "https://dc.lft.to/lastmile_qr_scan"}, "lon": -76.99457633333333, "type": "electric_bike", "fusion_lat": 0.0, "lat": 38.940654, "name": "dc7fae0bb038c9127dc0092b5c356236", "fusion_lon": 0.0, "bike_id": "dc7fae0bb038c9127dc0092b5c356236", "is_disabled": 0, "is_reserved": 0}, {"rental_uris": {"ios": "https://dc.lft.to/lastmile_qr_scan", "android": "https://dc.lft.to/lastmile_qr_scan"}, "lon": -77.1201525, "type": "electric_bike", "fusion_lat": 0.0, "lat": 38.855146833333336, "name": "3c46449f03c5f29a9a2f6ab0aa2d4d40", "fusion_lon": 0.0, "bike_id": "3c46449f03c5f29a9a2f6ab0aa2d4d40", "is_disabled": 0, "is_reserved": 0}, {"rental_uris": {"ios": "https://dc.lft.to/lastmile_qr_scan", "android": "https://dc.lft.to/lastmile_qr_scan"}, "lon": -76.93175533333333, "type": "electric_scooter", "fusion_lat": 0.0, "lat": 38.898809666666665, "name": "f17768f14d0e08e85added89a4113218", "fusion_lon": 0.0, "bike_id": "f17768f14d0e08e85added89a4113218", "is_disabled": 0, "is_reserved": 0}, {"rental_uris": {"ios": "https://dc.lft.to/lastmile_qr_scan", "android": "https://dc.lft.to/lastmile_qr_scan"}, "lon": -76.949647, "type": "electric_scooter", "fusion_lat": 0.0, "lat": 38.893738166666665, "name": "e81f1b00cc09b204fdb3453571bddd51", "fusion_lon": 0.0, "bike_id": "e81f1b00cc09b204fdb3453571bddd51", "is_disabled": 0, "is_reserved": 0}, {"rental_uris": {"ios": "https://dc.lft.to/lastmile_qr_scan", "android": "https://dc.lft.to/lastmile_qr_scan"}, "lon": -77.01869833333333, "type": "electric_scooter", "fusion_lat": 0.0, "lat": 38.90077983333333, "name": "c77403f34318cd57872b943359ec0068", "fusion_lon": 0.0, "bike_id": "c77403f34318cd57872b943359ec0068", "is_disabled": 0, "is_reserved": 0}, {"rental_uris": {"ios": "https://dc.lft.to/lastmile_qr_scan", "android": "https://dc.lft.to/lastmile_qr_scan"}, "lon": -77.031743, "type": "electric_scooter", "fusion_lat": 0.0, "lat": 38.886256, "name": "acffe3359ebf966eef278b20e0afe021", "fusion_lon": 0.0, "bike_id": "acffe3359ebf966eef278b20e0afe021", "is_disabled": 0, "is_reserved": 0}, {"rental_uris": {"ios": "https://dc.lft.to/lastmile_qr_scan", "android": "https://dc.lft.to/lastmile_qr_scan"}, "lon": -77.02629433333334, "type": "electric_scooter", "fusion_lat": 0.0, "lat": 38.9279135, "name": "98a1862e989e38a36070ba69b345092b", "fusion_lon": 0.0, "bike_id": "98a1862e989e38a36070ba69b345092b", "is_disabled": 0, "is_reserved": 0}, {"rental_uris": {"ios": "https://dc.lft.to/lastmile_qr_scan", "android": "https://dc.lft.to/lastmile_qr_scan"}, "lon": -76.99334166666667, "type": "electric_bike", "fusion_lat": 0.0, "lat": 38.961983833333335, "name": "135b2344c3ffe3c5e004dda5f61a930d", "fusion_lon": 0.0, "bike_id": "135b2344c3ffe3c5e004dda5f61a930d", "is_disabled": 0, "is_reserved": 0}, {"rental_uris": {"ios": "https://dc.lft.to/lastmile_qr_scan", "android": "https://dc.lft.to/lastmile_qr_scan"}, "lon": -77.02928266666666, "type": "electric_scooter", "fusion_lat": 0.0, "lat": 38.88220716666667, "name": "62b5d4276ec2789b879ad1781e33f5b3", "fusion_lon": 0.0, "bike_id": "62b5d4276ec2789b879ad1781e33f5b3", "is_disabled": 0, "is_reserved": 0}, {"rental_uris": {"ios": "https://dc.lft.to/lastmile_qr_scan", "android": "https://dc.lft.to/lastmile_qr_scan"}, "lon": -77.07359933333333, "type": "electric_scooter", "fusion_lat": 0.0, "lat": 38.937363833333336, "name": "22c19f8917b0dcd3ac32aa4d119a9b99", "fusion_lon": 0.0, "bike_id": "22c19f8917b0dcd3ac32aa4d119a9b99", "is_disabled": 0, "is_reserved": 0}, {"rental_uris": {"ios": "https://dc.lft.to/lastmile_qr_scan", "android": "https://dc.lft.to/lastmile_qr_scan"}, "lon": -77.018677, "type": "electric_scooter", "fusion_lat": 0.0, "lat": 38.948977666666664, "name": "ba9b95ceb2c9eb89a0b2dbf7c78ade4a", "fusion_lon": 0.0, "bike_id": "ba9b95ceb2c9eb89a0b2dbf7c78ade4a", "is_disabled": 0, "is_reserved": 0}, {"rental_uris": {"ios": "https://dc.lft.to/lastmile_qr_scan", "android": "https://dc.lft.to/lastmile_qr_scan"}, "lon": -77.05534583333333, "type": "electric_scooter", "fusion_lat": 0.0, "lat": 38.900021833333334, "name": "66b81aa8997febdaadc0e2c981702b15", "fusion_lon": 0.0, "bike_id": "66b81aa8997febdaadc0e2c981702b15", "is_disabled": 0, "is_reserved": 0}, {"rental_uris": {"ios": "https://dc.lft.to/lastmile_qr_scan", "android": "https://dc.lft.to/lastmile_qr_scan"}, "lon": -76.97625933333333, "type": "electric_scooter", "fusion_lat": 0.0, "lat": 38.90571766666667, "name": "ba617c8684617d1c4076c3e6f248a7f8", "fusion_lon": 0.0, "bike_id": "ba617c8684617d1c4076c3e6f248a7f8", "is_disabled": 0, "is_reserved": 0}, {"rental_uris": {"ios": "https://dc.lft.to/lastmile_qr_scan", "android": "https://dc.lft.to/lastmile_qr_scan"}, "lon": -77.048249, "type": "electric_scooter", "fusion_lat": 0.0, "lat": 38.897452333333334, "name": "fd41dba01a9a281fcf6271744e1756bc", "fusion_lon": 0.0, "bike_id": "fd41dba01a9a281fcf6271744e1756bc", "is_disabled": 0, "is_reserved": 0}, {"rental_uris": {"ios": "https://dc.lft.to/lastmile_qr_scan", "android": "https://dc.lft.to/lastmile_qr_scan"}, "lon": -77.06646433333333, "type": "electric_scooter", "fusion_lat": 0.0, "lat": 38.913767666666665, "name": "cbf48e139bdad451e628d5bf36043add", "fusion_lon": 0.0, "bike_id": "cbf48e139bdad451e628d5bf36043add", "is_disabled": 0, "is_reserved": 0}, {"rental_uris": {"ios": "https://dc.lft.to/lastmile_qr_scan", "android": "https://dc.lft.to/lastmile_qr_scan"}, "lon": -77.0318355, "type": "electric_scooter", "fusion_lat": 0.0, "lat": 38.90846966666667, "name": "67d66a073d0e9a05f311f0eb71f03e95", "fusion_lon": 0.0, "bike_id": "67d66a073d0e9a05f311f0eb71f03e95", "is_disabled": 0, "is_reserved": 0}, {"rental_uris": {"ios": "https://dc.lft.to/lastmile_qr_scan", "android": "https://dc.lft.to/lastmile_qr_scan"}, "lon": -77.029746, "type": "electric_bike", "fusion_lat": 0.0, "lat": 38.93704783333333, "name": "6ef0e42edecdb00d7765560925e0bb62", "fusion_lon": 0.0, "bike_id": "6ef0e42edecdb00d7765560925e0bb62", "is_disabled": 0, "is_reserved": 0}, {"rental_uris": {"ios": "https://dc.lft.to/lastmile_qr_scan", "android": "https://dc.lft.to/lastmile_qr_scan"}, "lon": -76.9652135, "type": "electric_scooter", "fusion_lat": 0.0, "lat": 38.876268, "name": "f34c7fb2d7d7f7a44d336b202cdc0208", "fusion_lon": 0.0, "bike_id": "f34c7fb2d7d7f7a44d336b202cdc0208", "is_disabled": 0, "is_reserved": 0}, {"rental_uris": {"ios": "https://dc.lft.to/lastmile_qr_scan", "android": "https://dc.lft.to/lastmile_qr_scan"}, "lon": -77.04616783333333, "type": "electric_scooter", "fusion_lat": 0.0, "lat": 38.9026405, "name": "9aae6fd5d718629d5e30682d9af0b8ec", "fusion_lon": 0.0, "bike_id": "9aae6fd5d718629d5e30682d9af0b8ec", "is_disabled": 0, "is_reserved": 0}, {"rental_uris": {"ios": "https://dc.lft.to/lastmile_qr_scan", "android": "https://dc.lft.to/lastmile_qr_scan"}, "lon": -77.01514233333333, "type": "electric_scooter", "fusion_lat": 0.0, "lat": 38.91608083333333, "name": "244b657fb00d221ae44bc8e5f4e45050", "fusion_lon": 0.0, "bike_id": "244b657fb00d221ae44bc8e5f4e45050", "is_disabled": 0, "is_reserved": 0}, {"rental_uris": {"ios": "https://dc.lft.to/lastmile_qr_scan", "android": "https://dc.lft.to/lastmile_qr_scan"}, "lon": -77.02546333333333, "type": "electric_scooter", "fusion_lat": 0.0, "lat": 38.89234033333334, "name": "a3781eaad11617872de527aea8e6a009", "fusion_lon": 0.0, "bike_id": "a3781eaad11617872de527aea8e6a009", "is_disabled": 0, "is_reserved": 0}, {"rental_uris": {"ios": "https://dc.lft.to/lastmile_qr_scan", "android": "https://dc.lft.to/lastmile_qr_scan"}, "lon": -77.057475, "type": "electric_scooter", "fusion_lat": 0.0, "lat": 38.93539116666667, "name": "f12a2b9837773de01d5fc1b3b1f29115", "fusion_lon": 0.0, "bike_id": "f12a2b9837773de01d5fc1b3b1f29115", "is_disabled": 0, "is_reserved": 0}, {"rental_uris": {"ios": "https://dc.lft.to/lastmile_qr_scan", "android": "https://dc.lft.to/lastmile_qr_scan"}, "lon": -77.01291616666667, "type": "electric_bike", "fusion_lat": 0.0, "lat": 39.003824333333334, "name": "ffb30239405b8efeca3d84c97ac1a104", "fusion_lon": 0.0, "bike_id": "ffb30239405b8efeca3d84c97ac1a104", "is_disabled": 0, "is_reserved": 0}, {"rental_uris": {"ios": "https://dc.lft.to/lastmile_qr_scan", "android": "https://dc.lft.to/lastmile_qr_scan"}, "lon": -77.0109925, "type": "electric_scooter", "fusion_lat": 0.0, "lat": 38.903616666666665, "name": "294528af3b30124b5268d9b6f457ad4f", "fusion_lon": 0.0, "bike_id": "294528af3b30124b5268d9b6f457ad4f", "is_disabled": 0, "is_reserved": 0}, {"rental_uris": {"ios": "https://dc.lft.to/lastmile_qr_scan", "android": "https://dc.lft.to/lastmile_qr_scan"}, "lon": -77.01702216666666, "type": "electric_scooter", "fusion_lat": 0.0, "lat": 38.87924016666667, "name": "515a69fe50e5211f69d8f6c5ff9c476e", "fusion_lon": 0.0, "bike_id": "515a69fe50e5211f69d8f6c5ff9c476e", "is_disabled": 0, "is_reserved": 0}, {"rental_uris": {"ios": "https://dc.lft.to/lastmile_qr_scan", "android": "https://dc.lft.to/lastmile_qr_scan"}, "lon": -77.03843216666667, "type": "electric_scooter", "fusion_lat": 0.0, "lat": 38.910882666666666, "name": "56b1cf00fb85c82695f36bc33848f6a4", "fusion_lon": 0.0, "bike_id": "56b1cf00fb85c82695f36bc33848f6a4", "is_disabled": 0, "is_reserved": 0}, {"rental_uris": {"ios": "https://dc.lft.to/lastmile_qr_scan", "android": "https://dc.lft.to/lastmile_qr_scan"}, "lon": -77.00053166666666, "type": "electric_scooter", "fusion_lat": 0.0, "lat": 38.889000833333334, "name": "8c2479135b4a8bc46355d7ebcdc79920", "fusion_lon": 0.0, "bike_id": "8c2479135b4a8bc46355d7ebcdc79920", "is_disabled": 0, "is_reserved": 0}, {"rental_uris": {"ios": "https://dc.lft.to/lastmile_qr_scan", "android": "https://dc.lft.to/lastmile_qr_scan"}, "lon": -77.03698633333333, "type": "electric_bike", "fusion_lat": 0.0, "lat": 38.93561783333333, "name": "a8a611610e44b6784460be244962f326", "fusion_lon": 0.0, "bike_id": "a8a611610e44b6784460be244962f326", "is_disabled": 0, "is_reserved": 0}, {"rental_uris": {"ios": "https://dc.lft.to/lastmile_qr_scan", "android": "https://dc.lft.to/lastmile_qr_scan"}, "lon": -77.07540883333333, "type": "electric_bike", "fusion_lat": 0.0, "lat": 38.91061283333333, "name": "80b2fc8e9ccea6c728ccbac2277c7c32", "fusion_lon": 0.0, "bike_id": "80b2fc8e9ccea6c728ccbac2277c7c32", "is_disabled": 0, "is_reserved": 0}, {"rental_uris": {"ios": "https://dc.lft.to/lastmile_qr_scan", "android": "https://dc.lft.to/lastmile_qr_scan"}, "lon": -77.08845216666667, "type": "electric_bike", "fusion_lat": 0.0, "lat": 38.8407965, "name": "0484dff4321688af7c8b49d9e1840247", "fusion_lon": 0.0, "bike_id": "0484dff4321688af7c8b49d9e1840247", "is_disabled": 0, "is_reserved": 0}, {"rental_uris": {"ios": "https://dc.lft.to/lastmile_qr_scan", "android": "https://dc.lft.to/lastmile_qr_scan"}, "lon": -76.96548033333333, "type": "electric_bike", "fusion_lat": 0.0, "lat": 38.95102083333333, "name": "72d186af0ed057f7da2f7c25581e9c4c", "fusion_lon": 0.0, "bike_id": "72d186af0ed057f7da2f7c25581e9c4c", "is_disabled": 0, "is_reserved": 0}, {"rental_uris": {"ios": "https://dc.lft.to/lastmile_qr_scan", "android": "https://dc.lft.to/lastmile_qr_scan"}, "lon": -77.00068766666666, "type": "electric_scooter", "fusion_lat": 0.0, "lat": 38.90052583333333, "name": "17c4d944febbe8b31aba6652b6dc7aa9", "fusion_lon": 0.0, "bike_id": "17c4d944febbe8b31aba6652b6dc7aa9", "is_disabled": 0, "is_reserved": 0}, {"rental_uris": {"ios": "https://dc.lft.to/lastmile_qr_scan", "android": "https://dc.lft.to/lastmile_qr_scan"}, "lon": -77.051668, "type": "electric_scooter", "fusion_lat": 0.0, "lat": 38.897713, "name": "2eebd5a377b9d45feb6eb9cf7defdc5a", "fusion_lon": 0.0, "bike_id": "2eebd5a377b9d45feb6eb9cf7defdc5a", "is_disabled": 0, "is_reserved": 0}, {"rental_uris": {"ios": "https://dc.lft.to/lastmile_qr_scan", "android": "https://dc.lft.to/lastmile_qr_scan"}, "lon": -77.01393183333333, "type": "electric_scooter", "fusion_lat": 0.0, "lat": 38.928555833333334, "name": "d973cf03643e14cebe6207d74e5ac7bf", "fusion_lon": 0.0, "bike_id": "d973cf03643e14cebe6207d74e5ac7bf", "is_disabled": 0, "is_reserved": 0}, {"rental_uris": {"ios": "https://dc.lft.to/lastmile_qr_scan", "android": "https://dc.lft.to/lastmile_qr_scan"}, "lon": -77.002631, "type": "electric_scooter", "fusion_lat": 0.0, "lat": 38.87742883333333, "name": "a78f7496cbcd1b811fc84fd0f5285ccd", "fusion_lon": 0.0, "bike_id": "a78f7496cbcd1b811fc84fd0f5285ccd", "is_disabled": 0, "is_reserved": 0}, {"rental_uris": {"ios": "https://dc.lft.to/lastmile_qr_scan", "android": "https://dc.lft.to/lastmile_qr_scan"}, "lon": -77.02175516666667, "type": "electric_scooter", "fusion_lat": 0.0, "lat": 38.88036266666667, "name": "5fe648d6709a0fd43e76ef2981cac88b", "fusion_lon": 0.0, "bike_id": "5fe648d6709a0fd43e76ef2981cac88b", "is_disabled": 0, "is_reserved": 0}, {"rental_uris": {"ios": "https://dc.lft.to/lastmile_qr_scan", "android": "https://dc.lft.to/lastmile_qr_scan"}, "lon": -77.003161, "type": "electric_scooter", "fusion_lat": 0.0, "lat": 38.90122016666667, "name": "ebce98f894d5cb79863582d4f8e8dd42", "fusion_lon": 0.0, "bike_id": "ebce98f894d5cb79863582d4f8e8dd42", "is_disabled": 0, "is_reserved": 0}, {"rental_uris": {"ios": "https://dc.lft.to/lastmile_qr_scan", "android": "https://dc.lft.to/lastmile_qr_scan"}, "lon": -77.03255333333334, "type": "electric_scooter", "fusion_lat": 0.0, "lat": 38.918169, "name": "97fba7bf250c410849ae6fc9448b2b7b", "fusion_lon": 0.0, "bike_id": "97fba7bf250c410849ae6fc9448b2b7b", "is_disabled": 0, "is_reserved": 0}, {"rental_uris": {"ios": "https://dc.lft.to/lastmile_qr_scan", "android": "https://dc.lft.to/lastmile_qr_scan"}, "lon": -77.05593216666666, "type": "electric_scooter", "fusion_lat": 0.0, "lat": 38.927795, "name": "9a4ba5ca8a4a7513f0e3286ea55d4097", "fusion_lon": 0.0, "bike_id": "9a4ba5ca8a4a7513f0e3286ea55d4097", "is_disabled": 0, "is_reserved": 0}, {"rental_uris": {"ios": "https://dc.lft.to/lastmile_qr_scan", "android": "https://dc.lft.to/lastmile_qr_scan"}, "lon": -77.0452335, "type": "electric_scooter", "fusion_lat": 0.0, "lat": 38.9097425, "name": "a46adf9ac2658ec7e02104216d80870d", "fusion_lon": 0.0, "bike_id": "a46adf9ac2658ec7e02104216d80870d", "is_disabled": 0, "is_reserved": 0}, {"rental_uris": {"ios": "https://dc.lft.to/lastmile_qr_scan", "android": "https://dc.lft.to/lastmile_qr_scan"}, "lon": -77.03356933333333, "type": "electric_scooter", "fusion_lat": 0.0, "lat": 38.88508783333333, "name": "07506aebdf619a5a2f1185312f296c11", "fusion_lon": 0.0, "bike_id": "07506aebdf619a5a2f1185312f296c11", "is_disabled": 0, "is_reserved": 0}, {"rental_uris": {"ios": "https://dc.lft.to/lastmile_qr_scan", "android": "https://dc.lft.to/lastmile_qr_scan"}, "lon": -77.03196483333333, "type": "electric_scooter", "fusion_lat": 0.0, "lat": 38.91310683333333, "name": "4b6924b1059763de6505b263a1168a0b", "fusion_lon": 0.0, "bike_id": "4b6924b1059763de6505b263a1168a0b", "is_disabled": 0, "is_reserved": 0}, {"rental_uris": {"ios": "https://dc.lft.to/lastmile_qr_scan", "android": "https://dc.lft.to/lastmile_qr_scan"}, "lon": -77.0444955, "type": "electric_scooter", "fusion_lat": 0.0, "lat": 38.91876083333333, "name": "6b2f252b5d5e820c27eef9b6c5cb20bd", "fusion_lon": 0.0, "bike_id": "6b2f252b5d5e820c27eef9b6c5cb20bd", "is_disabled": 0, "is_reserved": 0}, {"rental_uris": {"ios": "https://dc.lft.to/lastmile_qr_scan", "android": "https://dc.lft.to/lastmile_qr_scan"}, "lon": -77.095202, "type": "electric_bike", "fusion_lat": 0.0, "lat": 38.838120333333336, "name": "88ee751e9c6dcd2aebe1e7bf584e1163", "fusion_lon": 0.0, "bike_id": "88ee751e9c6dcd2aebe1e7bf584e1163", "is_disabled": 0, "is_reserved": 0}, {"rental_uris": {"ios": "https://dc.lft.to/lastmile_qr_scan", "android": "https://dc.lft.to/lastmile_qr_scan"}, "lon": -76.994831, "type": "electric_scooter", "fusion_lat": 0.0, "lat": 38.86236683333333, "name": "4d0815dd594bb29f3b39a108e8d7313b", "fusion_lon": 0.0, "bike_id": "4d0815dd594bb29f3b39a108e8d7313b", "is_disabled": 0, "is_reserved": 0}, {"rental_uris": {"ios": "https://dc.lft.to/lastmile_qr_scan", "android": "https://dc.lft.to/lastmile_qr_scan"}, "lon": -77.0436375, "type": "electric_scooter", "fusion_lat": 0.0, "lat": 38.9026715, "name": "a440f42901a051ba0f214e00f22fb9d8", "fusion_lon": 0.0, "bike_id": "a440f42901a051ba0f214e00f22fb9d8", "is_disabled": 0, "is_reserved": 0}, {"rental_uris": {"ios": "https://dc.lft.to/lastmile_qr_scan", "android": "https://dc.lft.to/lastmile_qr_scan"}, "lon": -77.03824733333333, "type": "electric_scooter", "fusion_lat": 0.0, "lat": 38.92048166666667, "name": "51fa6a7b45cb2d73dde9fb6cc5c0ffde", "fusion_lon": 0.0, "bike_id": "51fa6a7b45cb2d73dde9fb6cc5c0ffde", "is_disabled": 0, "is_reserved": 0}, {"rental_uris": {"ios": "https://dc.lft.to/lastmile_qr_scan", "android": "https://dc.lft.to/lastmile_qr_scan"}, "lon": -77.04001766666667, "type": "electric_scooter", "fusion_lat": 0.0, "lat": 38.88892216666667, "name": "9195f5fa7d59a6cdb7b99e9b090787d0", "fusion_lon": 0.0, "bike_id": "9195f5fa7d59a6cdb7b99e9b090787d0", "is_disabled": 0, "is_reserved": 0}, {"rental_uris": {"ios": "https://dc.lft.to/lastmile_qr_scan", "android": "https://dc.lft.to/lastmile_qr_scan"}, "lon": -77.0389195, "type": "electric_scooter", "fusion_lat": 0.0, "lat": 38.895186, "name": "215d89425f90428693b94fdfc7cda20f", "fusion_lon": 0.0, "bike_id": "215d89425f90428693b94fdfc7cda20f", "is_disabled": 0, "is_reserved": 0}, {"rental_uris": {"ios": "https://dc.lft.to/lastmile_qr_scan", "android": "https://dc.lft.to/lastmile_qr_scan"}, "lon": -77.03568383333334, "type": "electric_scooter", "fusion_lat": 0.0, "lat": 38.91816433333334, "name": "35769e2031a58b1dd5a4289b588367c1", "fusion_lon": 0.0, "bike_id": "35769e2031a58b1dd5a4289b588367c1", "is_disabled": 0, "is_reserved": 0}, {"rental_uris": {"ios": "https://dc.lft.to/lastmile_qr_scan", "android": "https://dc.lft.to/lastmile_qr_scan"}, "lon": -77.03210283333334, "type": "electric_scooter", "fusion_lat": 0.0, "lat": 38.916964, "name": "363a148d0fca25afb1a560a7b4179e8f", "fusion_lon": 0.0, "bike_id": "363a148d0fca25afb1a560a7b4179e8f", "is_disabled": 0, "is_reserved": 0}, {"rental_uris": {"ios": "https://dc.lft.to/lastmile_qr_scan", "android": "https://dc.lft.to/lastmile_qr_scan"}, "lon": -77.0320685, "type": "electric_scooter", "fusion_lat": 0.0, "lat": 38.9174275, "name": "a67fd60415e6b339b85981907d37e652", "fusion_lon": 0.0, "bike_id": "a67fd60415e6b339b85981907d37e652", "is_disabled": 0, "is_reserved": 0}, {"rental_uris": {"ios": "https://dc.lft.to/lastmile_qr_scan", "android": "https://dc.lft.to/lastmile_qr_scan"}, "lon": -76.95816966666666, "type": "electric_scooter", "fusion_lat": 0.0, "lat": 38.890542833333335, "name": "483685a7e0711a7c4d6261e1e3da7bfb", "fusion_lon": 0.0, "bike_id": "483685a7e0711a7c4d6261e1e3da7bfb", "is_disabled": 0, "is_reserved": 0}, {"rental_uris": {"ios": "https://dc.lft.to/lastmile_qr_scan", "android": "https://dc.lft.to/lastmile_qr_scan"}, "lon": -77.0515345, "type": "electric_scooter", "fusion_lat": 0.0, "lat": 38.89760833333333, "name": "7a8eb3fceaee2698f3f72c49cdb0720f", "fusion_lon": 0.0, "bike_id": "7a8eb3fceaee2698f3f72c49cdb0720f", "is_disabled": 0, "is_reserved": 0}, {"rental_uris": {"ios": "https://dc.lft.to/lastmile_qr_scan", "android": "https://dc.lft.to/lastmile_qr_scan"}, "lon": -77.12899716666666, "type": "electric_bike", "fusion_lat": 0.0, "lat": 38.8637795, "name": "e0c8806fe8ce7e189909bede4fb3aa62", "fusion_lon": 0.0, "bike_id": "e0c8806fe8ce7e189909bede4fb3aa62", "is_disabled": 0, "is_reserved": 0}, {"rental_uris": {"ios": "https://dc.lft.to/lastmile_qr_scan", "android": "https://dc.lft.to/lastmile_qr_scan"}, "lon": -77.0425775, "type": "electric_scooter", "fusion_lat": 0.0, "lat": 38.920627, "name": "d4800900f062406157565ddcc2330939", "fusion_lon": 0.0, "bike_id": "d4800900f062406157565ddcc2330939", "is_disabled": 0, "is_reserved": 0}, {"rental_uris": {"ios": "https://dc.lft.to/lastmile_qr_scan", "android": "https://dc.lft.to/lastmile_qr_scan"}, "lon": -77.00788416666667, "type": "electric_scooter", "fusion_lat": 0.0, "lat": 38.8974205, "name": "69046377d7c809ab7be756dfdc0d7b70", "fusion_lon": 0.0, "bike_id": "69046377d7c809ab7be756dfdc0d7b70", "is_disabled": 0, "is_reserved": 0}, {"rental_uris": {"ios": "https://dc.lft.to/lastmile_qr_scan", "android": "https://dc.lft.to/lastmile_qr_scan"}, "lon": -77.0338745, "type": "electric_scooter", "fusion_lat": 0.0, "lat": 38.8865845, "name": "c228f68df1633b8f232cdb356fb8ce85", "fusion_lon": 0.0, "bike_id": "c228f68df1633b8f232cdb356fb8ce85", "is_disabled": 0, "is_reserved": 0}, {"rental_uris": {"ios": "https://dc.lft.to/lastmile_qr_scan", "android": "https://dc.lft.to/lastmile_qr_scan"}, "lon": -77.02118116666666, "type": "electric_scooter", "fusion_lat": 0.0, "lat": 38.89479883333333, "name": "a79857a692a2b62a54e153922db9cdd4", "fusion_lon": 0.0, "bike_id": "a79857a692a2b62a54e153922db9cdd4", "is_disabled": 0, "is_reserved": 0}, {"rental_uris": {"ios": "https://dc.lft.to/lastmile_qr_scan", "android": "https://dc.lft.to/lastmile_qr_scan"}, "lon": -77.02081483333333, "type": "electric_scooter", "fusion_lat": 0.0, "lat": 38.88182966666667, "name": "9e9c1dbe9cea3fdefda73e6f0129943c", "fusion_lon": 0.0, "bike_id": "9e9c1dbe9cea3fdefda73e6f0129943c", "is_disabled": 0, "is_reserved": 0}, {"rental_uris": {"ios": "https://dc.lft.to/lastmile_qr_scan", "android": "https://dc.lft.to/lastmile_qr_scan"}, "lon": -77.053098, "type": "electric_scooter", "fusion_lat": 0.0, "lat": 38.92796583333333, "name": "e669f9038302831485f2090197c8036a", "fusion_lon": 0.0, "bike_id": "e669f9038302831485f2090197c8036a", "is_disabled": 0, "is_reserved": 0}, {"rental_uris": {"ios": "https://dc.lft.to/lastmile_qr_scan", "android": "https://dc.lft.to/lastmile_qr_scan"}, "lon": -77.02598183333333, "type": "electric_scooter", "fusion_lat": 0.0, "lat": 38.9758665, "name": "65067b3bc82b1d89f3a8c03ec03d2757", "fusion_lon": 0.0, "bike_id": "65067b3bc82b1d89f3a8c03ec03d2757", "is_disabled": 0, "is_reserved": 0}, {"rental_uris": {"ios": "https://dc.lft.to/lastmile_qr_scan", "android": "https://dc.lft.to/lastmile_qr_scan"}, "lon": -77.02686283333334, "type": "electric_scooter", "fusion_lat": 0.0, "lat": 38.90639866666667, "name": "c54ec4076e57c26f45463842a65515bc", "fusion_lon": 0.0, "bike_id": "c54ec4076e57c26f45463842a65515bc", "is_disabled": 0, "is_reserved": 0}, {"rental_uris": {"ios": "https://dc.lft.to/lastmile_qr_scan", "android": "https://dc.lft.to/lastmile_qr_scan"}, "lon": -77.05357233333334, "type": "electric_scooter", "fusion_lat": 0.0, "lat": 38.9280285, "name": "d46de6851cf98b57e3cf271bcc85457f", "fusion_lon": 0.0, "bike_id": "d46de6851cf98b57e3cf271bcc85457f", "is_disabled": 0, "is_reserved": 0}, {"rental_uris": {"ios": "https://dc.lft.to/lastmile_qr_scan", "android": "https://dc.lft.to/lastmile_qr_scan"}, "lon": -77.02387916666666, "type": "electric_scooter", "fusion_lat": 0.0, "lat": 38.915919, "name": "1b39d56352c55bc58782d8419dfc2bcc", "fusion_lon": 0.0, "bike_id": "1b39d56352c55bc58782d8419dfc2bcc", "is_disabled": 0, "is_reserved": 0}, {"rental_uris": {"ios": "https://dc.lft.to/lastmile_qr_scan", "android": "https://dc.lft.to/lastmile_qr_scan"}, "lon": -77.05222816666667, "type": "electric_scooter", "fusion_lat": 0.0, "lat": 38.924959666666666, "name": "ecd0837019ad429de76f480620e97638", "fusion_lon": 0.0, "bike_id": "ecd0837019ad429de76f480620e97638", "is_disabled": 0, "is_reserved": 0}, {"rental_uris": {"ios": "https://dc.lft.to/lastmile_qr_scan", "android": "https://dc.lft.to/lastmile_qr_scan"}, "lon": -77.026961, "type": "electric_scooter", "fusion_lat": 0.0, "lat": 38.90869716666667, "name": "e5a4a2614f5fe2488150a7b15ea894d8", "fusion_lon": 0.0, "bike_id": "e5a4a2614f5fe2488150a7b15ea894d8", "is_disabled": 0, "is_reserved": 0}, {"rental_uris": {"ios": "https://dc.lft.to/lastmile_qr_scan", "android": "https://dc.lft.to/lastmile_qr_scan"}, "lon": -77.018453, "type": "electric_scooter", "fusion_lat": 0.0, "lat": 38.877211833333334, "name": "88d6a1c06d414c9b0bedef25e1642f1a", "fusion_lon": 0.0, "bike_id": "88d6a1c06d414c9b0bedef25e1642f1a", "is_disabled": 0, "is_reserved": 0}, {"rental_uris": {"ios": "https://dc.lft.to/lastmile_qr_scan", "android": "https://dc.lft.to/lastmile_qr_scan"}, "lon": -76.983741, "type": "electric_scooter", "fusion_lat": 0.0, "lat": 38.86032616666667, "name": "99af17d70017cc6fd3a780b36347e7aa", "fusion_lon": 0.0, "bike_id": "99af17d70017cc6fd3a780b36347e7aa", "is_disabled": 0, "is_reserved": 0}, {"rental_uris": {"ios": "https://dc.lft.to/lastmile_qr_scan", "android": "https://dc.lft.to/lastmile_qr_scan"}, "lon": -77.04905683333334, "type": "electric_scooter", "fusion_lat": 0.0, "lat": 38.90599983333333, "name": "42f2a587a098b4f11440b4bdefabafa9", "fusion_lon": 0.0, "bike_id": "42f2a587a098b4f11440b4bdefabafa9", "is_disabled": 0, "is_reserved": 0}, {"rental_uris": {"ios": "https://dc.lft.to/lastmile_qr_scan", "android": "https://dc.lft.to/lastmile_qr_scan"}, "lon": -77.003348, "type": "electric_scooter", "fusion_lat": 0.0, "lat": 38.8935795, "name": "5a31680a9968ca9f534191e0138abcd4", "fusion_lon": 0.0, "bike_id": "5a31680a9968ca9f534191e0138abcd4", "is_disabled": 0, "is_reserved": 0}, {"rental_uris": {"ios": "https://dc.lft.to/lastmile_qr_scan", "android": "https://dc.lft.to/lastmile_qr_scan"}, "lon": -77.05475983333334, "type": "electric_scooter", "fusion_lat": 0.0, "lat": 38.89390266666667, "name": "a5d63a2ce3191889f9653afe6cf0ea36", "fusion_lon": 0.0, "bike_id": "a5d63a2ce3191889f9653afe6cf0ea36", "is_disabled": 0, "is_reserved": 0}, {"rental_uris": {"ios": "https://dc.lft.to/lastmile_qr_scan", "android": "https://dc.lft.to/lastmile_qr_scan"}, "lon": -77.12963083333334, "type": "electric_bike", "fusion_lat": 0.0, "lat": 38.852175333333335, "name": "459b5d2ff3640c0d1c621e670d0391ff", "fusion_lon": 0.0, "bike_id": "459b5d2ff3640c0d1c621e670d0391ff", "is_disabled": 0, "is_reserved": 0}, {"rental_uris": {"ios": "https://dc.lft.to/lastmile_qr_scan", "android": "https://dc.lft.to/lastmile_qr_scan"}, "lon": -76.93226366666667, "type": "electric_bike", "fusion_lat": 0.0, "lat": 38.86594083333333, "name": "fb9a207b0a8830e8fd1ef7d1fcf10084", "fusion_lon": 0.0, "bike_id": "fb9a207b0a8830e8fd1ef7d1fcf10084", "is_disabled": 0, "is_reserved": 0}, {"rental_uris": {"ios": "https://dc.lft.to/lastmile_qr_scan", "android": "https://dc.lft.to/lastmile_qr_scan"}, "lon": -77.0071985, "type": "electric_scooter", "fusion_lat": 0.0, "lat": 38.87901383333333, "name": "ea3b7361c967552dbd239e64bfb574eb", "fusion_lon": 0.0, "bike_id": "ea3b7361c967552dbd239e64bfb574eb", "is_disabled": 0, "is_reserved": 0}, {"rental_uris": {"ios": "https://dc.lft.to/lastmile_qr_scan", "android": "https://dc.lft.to/lastmile_qr_scan"}, "lon": -76.99515833333334, "type": "electric_scooter", "fusion_lat": 0.0, "lat": 38.894837833333334, "name": "913968d44c67d90e7e70c1c44d47a972", "fusion_lon": 0.0, "bike_id": "913968d44c67d90e7e70c1c44d47a972", "is_disabled": 0, "is_reserved": 0}, {"rental_uris": {"ios": "https://dc.lft.to/lastmile_qr_scan", "android": "https://dc.lft.to/lastmile_qr_scan"}, "lon": -76.996915, "type": "electric_scooter", "fusion_lat": 0.0, "lat": 38.90070766666667, "name": "8b488608d78a909a68516f638bed87dd", "fusion_lon": 0.0, "bike_id": "8b488608d78a909a68516f638bed87dd", "is_disabled": 0, "is_reserved": 0}, {"rental_uris": {"ios": "https://dc.lft.to/lastmile_qr_scan", "android": "https://dc.lft.to/lastmile_qr_scan"}, "lon": -77.04635683333333, "type": "electric_scooter", "fusion_lat": 0.0, "lat": 38.89221116666667, "name": "9ceffe8dc8257e7d8702c1cb9ee0b693", "fusion_lon": 0.0, "bike_id": "9ceffe8dc8257e7d8702c1cb9ee0b693", "is_disabled": 0, "is_reserved": 0}, {"rental_uris": {"ios": "https://dc.lft.to/lastmile_qr_scan", "android": "https://dc.lft.to/lastmile_qr_scan"}, "lon": -76.972975, "type": "electric_scooter", "fusion_lat": 0.0, "lat": 38.903376333333334, "name": "ad4dc1a45335cf949c46c20063be6cf2", "fusion_lon": 0.0, "bike_id": "ad4dc1a45335cf949c46c20063be6cf2", "is_disabled": 0, "is_reserved": 0}, {"rental_uris": {"ios": "https://dc.lft.to/lastmile_qr_scan", "android": "https://dc.lft.to/lastmile_qr_scan"}, "lon": -76.942169, "type": "electric_scooter", "fusion_lat": 0.0, "lat": 38.896829333333336, "name": "5f4272581ee786a2add2d1aebb8e9a7c", "fusion_lon": 0.0, "bike_id": "5f4272581ee786a2add2d1aebb8e9a7c", "is_disabled": 0, "is_reserved": 0}, {"rental_uris": {"ios": "https://dc.lft.to/lastmile_qr_scan", "android": "https://dc.lft.to/lastmile_qr_scan"}, "lon": -77.03417716666667, "type": "electric_scooter", "fusion_lat": 0.0, "lat": 38.91922683333333, "name": "fba2368918c74c61a24d0a31fb454794", "fusion_lon": 0.0, "bike_id": "fba2368918c74c61a24d0a31fb454794", "is_disabled": 0, "is_reserved": 0}, {"rental_uris": {"ios": "https://dc.lft.to/lastmile_qr_scan", "android": "https://dc.lft.to/lastmile_qr_scan"}, "lon": -77.092105, "type": "electric_scooter", "fusion_lat": 0.0, "lat": 38.941302666666665, "name": "535931a4e9ae1ff34b14bb67113c3aca", "fusion_lon": 0.0, "bike_id": "535931a4e9ae1ff34b14bb67113c3aca", "is_disabled": 0, "is_reserved": 0}, {"rental_uris": {"ios": "https://dc.lft.to/lastmile_qr_scan", "android": "https://dc.lft.to/lastmile_qr_scan"}, "lon": -76.972032, "type": "electric_scooter", "fusion_lat": 0.0, "lat": 38.8550055, "name": "3c53f90f13137801912542fb975654c8", "fusion_lon": 0.0, "bike_id": "3c53f90f13137801912542fb975654c8", "is_disabled": 0, "is_reserved": 0}, {"rental_uris": {"ios": "https://dc.lft.to/lastmile_qr_scan", "android": "https://dc.lft.to/lastmile_qr_scan"}, "lon": -76.98555383333333, "type": "electric_bike", "fusion_lat": 0.0, "lat": 38.868961666666664, "name": "5995807f2554e936fc99a5b9a1011e2a", "fusion_lon": 0.0, "bike_id": "5995807f2554e936fc99a5b9a1011e2a", "is_disabled": 0, "is_reserved": 0}, {"rental_uris": {"ios": "https://dc.lft.to/lastmile_qr_scan", "android": "https://dc.lft.to/lastmile_qr_scan"}, "lon": -77.0346295, "type": "electric_scooter", "fusion_lat": 0.0, "lat": 38.907568833333336, "name": "5c39df950e30dfeee464c292bd236aaf", "fusion_lon": 0.0, "bike_id": "5c39df950e30dfeee464c292bd236aaf", "is_disabled": 0, "is_reserved": 0}, {"rental_uris": {"ios": "https://dc.lft.to/lastmile_qr_scan", "android": "https://dc.lft.to/lastmile_qr_scan"}, "lon": -77.03282933333334, "type": "electric_scooter", "fusion_lat": 0.0, "lat": 38.932063, "name": "5dd4e199f8ccc688450bd366eb024706", "fusion_lon": 0.0, "bike_id": "5dd4e199f8ccc688450bd366eb024706", "is_disabled": 0, "is_reserved": 0}, {"rental_uris": {"ios": "https://dc.lft.to/lastmile_qr_scan", "android": "https://dc.lft.to/lastmile_qr_scan"}, "lon": -76.99142483333333, "type": "electric_scooter", "fusion_lat": 0.0, "lat": 38.885881, "name": "cffdb1e2482a11178f6bf67462c27693", "fusion_lon": 0.0, "bike_id": "cffdb1e2482a11178f6bf67462c27693", "is_disabled": 0, "is_reserved": 0}, {"rental_uris": {"ios": "https://dc.lft.to/lastmile_qr_scan", "android": "https://dc.lft.to/lastmile_qr_scan"}, "lon": -77.0363265, "type": "electric_scooter", "fusion_lat": 0.0, "lat": 38.937178, "name": "739b22fb288001953ef1c50ed35cc665", "fusion_lon": 0.0, "bike_id": "739b22fb288001953ef1c50ed35cc665", "is_disabled": 0, "is_reserved": 0}, {"rental_uris": {"ios": "https://dc.lft.to/lastmile_qr_scan", "android": "https://dc.lft.to/lastmile_qr_scan"}, "lon": -77.07162233333334, "type": "electric_scooter", "fusion_lat": 0.0, "lat": 38.90751016666667, "name": "37f66e49a13d034ef69f201c8d1ebc14", "fusion_lon": 0.0, "bike_id": "37f66e49a13d034ef69f201c8d1ebc14", "is_disabled": 0, "is_reserved": 0}, {"rental_uris": {"ios": "https://dc.lft.to/lastmile_qr_scan", "android": "https://dc.lft.to/lastmile_qr_scan"}, "lon": -77.02190283333333, "type": "electric_scooter", "fusion_lat": 0.0, "lat": 38.907760333333336, "name": "a31bb0ced6c942fc24cffae8e07b1fb2", "fusion_lon": 0.0, "bike_id": "a31bb0ced6c942fc24cffae8e07b1fb2", "is_disabled": 0, "is_reserved": 0}, {"rental_uris": {"ios": "https://dc.lft.to/lastmile_qr_scan", "android": "https://dc.lft.to/lastmile_qr_scan"}, "lon": -77.02687633333333, "type": "electric_scooter", "fusion_lat": 0.0, "lat": 38.909316833333335, "name": "a9465f3ae8caf83482d40b22e17255f8", "fusion_lon": 0.0, "bike_id": "a9465f3ae8caf83482d40b22e17255f8", "is_disabled": 0, "is_reserved": 0}, {"rental_uris": {"ios": "https://dc.lft.to/lastmile_qr_scan", "android": "https://dc.lft.to/lastmile_qr_scan"}, "lon": -76.94629416666666, "type": "electric_bike", "fusion_lat": 0.0, "lat": 38.94624133333333, "name": "624cfe1280cd88516abd7806188a344d", "fusion_lon": 0.0, "bike_id": "624cfe1280cd88516abd7806188a344d", "is_disabled": 0, "is_reserved": 0}, {"rental_uris": {"ios": "https://dc.lft.to/lastmile_qr_scan", "android": "https://dc.lft.to/lastmile_qr_scan"}, "lon": -77.04267283333333, "type": "electric_scooter", "fusion_lat": 0.0, "lat": 38.934104166666664, "name": "355d0cd1db5abd0b0a3d7d9a5a0a1998", "fusion_lon": 0.0, "bike_id": "355d0cd1db5abd0b0a3d7d9a5a0a1998", "is_disabled": 0, "is_reserved": 0}, {"rental_uris": {"ios": "https://dc.lft.to/lastmile_qr_scan", "android": "https://dc.lft.to/lastmile_qr_scan"}, "lon": -77.022029, "type": "electric_scooter", "fusion_lat": 0.0, "lat": 38.91539483333333, "name": "8fe3f16f10e88c1985a85a9b289d9031", "fusion_lon": 0.0, "bike_id": "8fe3f16f10e88c1985a85a9b289d9031", "is_disabled": 0, "is_reserved": 0}, {"rental_uris": {"ios": "https://dc.lft.to/lastmile_qr_scan", "android": "https://dc.lft.to/lastmile_qr_scan"}, "lon": -77.031814, "type": "electric_scooter", "fusion_lat": 0.0, "lat": 38.893904666666664, "name": "3b4c1d6df8744702a19f2e7033b492b3", "fusion_lon": 0.0, "bike_id": "3b4c1d6df8744702a19f2e7033b492b3", "is_disabled": 0, "is_reserved": 0}, {"rental_uris": {"ios": "https://dc.lft.to/lastmile_qr_scan", "android": "https://dc.lft.to/lastmile_qr_scan"}, "lon": -77.03958633333333, "type": "electric_scooter", "fusion_lat": 0.0, "lat": 38.892438166666665, "name": "b7a840284f40492e9e5434a4e4e77c75", "fusion_lon": 0.0, "bike_id": "b7a840284f40492e9e5434a4e4e77c75", "is_disabled": 0, "is_reserved": 0}, {"rental_uris": {"ios": "https://dc.lft.to/lastmile_qr_scan", "android": "https://dc.lft.to/lastmile_qr_scan"}, "lon": -76.95517866666667, "type": "electric_scooter", "fusion_lat": 0.0, "lat": 38.89054466666666, "name": "dcc3453e6aeeeb30be00f5a435b511f4", "fusion_lon": 0.0, "bike_id": "dcc3453e6aeeeb30be00f5a435b511f4", "is_disabled": 0, "is_reserved": 0}, {"rental_uris": {"ios": "https://dc.lft.to/lastmile_qr_scan", "android": "https://dc.lft.to/lastmile_qr_scan"}, "lon": -77.05163716666667, "type": "electric_scooter", "fusion_lat": 0.0, "lat": 38.90599316666667, "name": "e383d7db45c71f1772aa610c11e4e77d", "fusion_lon": 0.0, "bike_id": "e383d7db45c71f1772aa610c11e4e77d", "is_disabled": 0, "is_reserved": 0}, {"rental_uris": {"ios": "https://dc.lft.to/lastmile_qr_scan", "android": "https://dc.lft.to/lastmile_qr_scan"}, "lon": -77.05078716666667, "type": "electric_scooter", "fusion_lat": 0.0, "lat": 38.896002, "name": "9d4df15110ffdc59083524ebce78a36c", "fusion_lon": 0.0, "bike_id": "9d4df15110ffdc59083524ebce78a36c", "is_disabled": 0, "is_reserved": 0}, {"rental_uris": {"ios": "https://dc.lft.to/lastmile_qr_scan", "android": "https://dc.lft.to/lastmile_qr_scan"}, "lon": -76.99873483333333, "type": "electric_scooter", "fusion_lat": 0.0, "lat": 38.9075415, "name": "127bd063b5d228d44c4883f53969e14a", "fusion_lon": 0.0, "bike_id": "127bd063b5d228d44c4883f53969e14a", "is_disabled": 0, "is_reserved": 0}, {"rental_uris": {"ios": "https://dc.lft.to/lastmile_qr_scan", "android": "https://dc.lft.to/lastmile_qr_scan"}, "lon": -76.99017033333334, "type": "electric_scooter", "fusion_lat": 0.0, "lat": 38.86101933333333, "name": "0d781c6d5aa00f1ada53a218ede56d50", "fusion_lon": 0.0, "bike_id": "0d781c6d5aa00f1ada53a218ede56d50", "is_disabled": 0, "is_reserved": 0}, {"rental_uris": {"ios": "https://dc.lft.to/lastmile_qr_scan", "android": "https://dc.lft.to/lastmile_qr_scan"}, "lon": -76.99746366666666, "type": "electric_scooter", "fusion_lat": 0.0, "lat": 38.90025166666667, "name": "696f692ab52141ed8ae6a296c6406c07", "fusion_lon": 0.0, "bike_id": "696f692ab52141ed8ae6a296c6406c07", "is_disabled": 0, "is_reserved": 0}, {"rental_uris": {"ios": "https://dc.lft.to/lastmile_qr_scan", "android": "https://dc.lft.to/lastmile_qr_scan"}, "lon": -77.0308455, "type": "electric_scooter", "fusion_lat": 0.0, "lat": 38.90558816666667, "name": "cb669c2d55e2b5e3a31dba950c6d3333", "fusion_lon": 0.0, "bike_id": "cb669c2d55e2b5e3a31dba950c6d3333", "is_disabled": 0, "is_reserved": 0}, {"rental_uris": {"ios": "https://dc.lft.to/lastmile_qr_scan", "android": "https://dc.lft.to/lastmile_qr_scan"}, "lon": -76.97999866666666, "type": "electric_bike", "fusion_lat": 0.0, "lat": 38.902659, "name": "885153a7188e506f71c72caddbb02808", "fusion_lon": 0.0, "bike_id": "885153a7188e506f71c72caddbb02808", "is_disabled": 0, "is_reserved": 0}, {"rental_uris": {"ios": "https://dc.lft.to/lastmile_qr_scan", "android": "https://dc.lft.to/lastmile_qr_scan"}, "lon": -77.02782466666666, "type": "electric_scooter", "fusion_lat": 0.0, "lat": 38.9267845, "name": "7facd642fafa29fc8722f338f20c1227", "fusion_lon": 0.0, "bike_id": "7facd642fafa29fc8722f338f20c1227", "is_disabled": 0, "is_reserved": 0}, {"rental_uris": {"ios": "https://dc.lft.to/lastmile_qr_scan", "android": "https://dc.lft.to/lastmile_qr_scan"}, "lon": -76.94755883333333, "type": "electric_scooter", "fusion_lat": 0.0, "lat": 38.90047533333333, "name": "02de628f401b17c94a6f13445feb9683", "fusion_lon": 0.0, "bike_id": "02de628f401b17c94a6f13445feb9683", "is_disabled": 0, "is_reserved": 0}, {"rental_uris": {"ios": "https://dc.lft.to/lastmile_qr_scan", "android": "https://dc.lft.to/lastmile_qr_scan"}, "lon": -77.03305583333334, "type": "electric_scooter", "fusion_lat": 0.0, "lat": 38.9264505, "name": "a56eda445105eeb9417960d3d3d5a64f", "fusion_lon": 0.0, "bike_id": "a56eda445105eeb9417960d3d3d5a64f", "is_disabled": 0, "is_reserved": 0}, {"rental_uris": {"ios": "https://dc.lft.to/lastmile_qr_scan", "android": "https://dc.lft.to/lastmile_qr_scan"}, "lon": -77.02133683333334, "type": "electric_scooter", "fusion_lat": 0.0, "lat": 38.937636833333336, "name": "43ef197aec22352517ae35d87e9bd2cf", "fusion_lon": 0.0, "bike_id": "43ef197aec22352517ae35d87e9bd2cf", "is_disabled": 0, "is_reserved": 0}, {"rental_uris": {"ios": "https://dc.lft.to/lastmile_qr_scan", "android": "https://dc.lft.to/lastmile_qr_scan"}, "lon": -76.976755, "type": "electric_scooter", "fusion_lat": 0.0, "lat": 38.89877633333333, "name": "c8a5fe5e271088f7f50f9c1b2b379c78", "fusion_lon": 0.0, "bike_id": "c8a5fe5e271088f7f50f9c1b2b379c78", "is_disabled": 0, "is_reserved": 0}, {"rental_uris": {"ios": "https://dc.lft.to/lastmile_qr_scan", "android": "https://dc.lft.to/lastmile_qr_scan"}, "lon": -77.04520466666666, "type": "electric_scooter", "fusion_lat": 0.0, "lat": 38.907743333333336, "name": "9aa45345dab829ac775356c79661e588", "fusion_lon": 0.0, "bike_id": "9aa45345dab829ac775356c79661e588", "is_disabled": 0, "is_reserved": 0}, {"rental_uris": {"ios": "https://dc.lft.to/lastmile_qr_scan", "android": "https://dc.lft.to/lastmile_qr_scan"}, "lon": -76.996316, "type": "electric_scooter", "fusion_lat": 0.0, "lat": 38.846222166666664, "name": "5d6b4f383d0a6d012c720c8b366f45d0", "fusion_lon": 0.0, "bike_id": "5d6b4f383d0a6d012c720c8b366f45d0", "is_disabled": 0, "is_reserved": 0}, {"rental_uris": {"ios": "https://dc.lft.to/lastmile_qr_scan", "android": "https://dc.lft.to/lastmile_qr_scan"}, "lon": -77.02381616666666, "type": "electric_scooter", "fusion_lat": 0.0, "lat": 38.95243683333333, "name": "c2fb5506120d01f706c2dd67031a090a", "fusion_lon": 0.0, "bike_id": "c2fb5506120d01f706c2dd67031a090a", "is_disabled": 0, "is_reserved": 0}, {"rental_uris": {"ios": "https://dc.lft.to/lastmile_qr_scan", "android": "https://dc.lft.to/lastmile_qr_scan"}, "lon": -77.0161425, "type": "electric_scooter", "fusion_lat": 0.0, "lat": 38.911300833333335, "name": "788245b1879f9e998000ebebcf7f0580", "fusion_lon": 0.0, "bike_id": "788245b1879f9e998000ebebcf7f0580", "is_disabled": 0, "is_reserved": 0}, {"rental_uris": {"ios": "https://dc.lft.to/lastmile_qr_scan", "android": "https://dc.lft.to/lastmile_qr_scan"}, "lon": -76.93174483333334, "type": "electric_scooter", "fusion_lat": 0.0, "lat": 38.898839333333335, "name": "9491224d9e1d7a70fd93fa40c6029299", "fusion_lon": 0.0, "bike_id": "9491224d9e1d7a70fd93fa40c6029299", "is_disabled": 0, "is_reserved": 0}, {"rental_uris": {"ios": "https://dc.lft.to/lastmile_qr_scan", "android": "https://dc.lft.to/lastmile_qr_scan"}, "lon": -76.93737333333334, "type": "electric_scooter", "fusion_lat": 0.0, "lat": 38.89016616666667, "name": "4234512da71b454ad670df9b332162d5", "fusion_lon": 0.0, "bike_id": "4234512da71b454ad670df9b332162d5", "is_disabled": 0, "is_reserved": 0}, {"rental_uris": {"ios": "https://dc.lft.to/lastmile_qr_scan", "android": "https://dc.lft.to/lastmile_qr_scan"}, "lon": -77.00031816666667, "type": "electric_scooter", "fusion_lat": 0.0, "lat": 38.87641766666667, "name": "5aea219addd3d6151d31ef762a7803f5", "fusion_lon": 0.0, "bike_id": "5aea219addd3d6151d31ef762a7803f5", "is_disabled": 0, "is_reserved": 0}, {"rental_uris": {"ios": "https://dc.lft.to/lastmile_qr_scan", "android": "https://dc.lft.to/lastmile_qr_scan"}, "lon": -77.037879, "type": "electric_scooter", "fusion_lat": 0.0, "lat": 38.93024716666667, "name": "7014b66e80f18907f981fdc5d457e3d6", "fusion_lon": 0.0, "bike_id": "7014b66e80f18907f981fdc5d457e3d6", "is_disabled": 0, "is_reserved": 0}, {"rental_uris": {"ios": "https://dc.lft.to/lastmile_qr_scan", "android": "https://dc.lft.to/lastmile_qr_scan"}, "lon": -77.04156683333333, "type": "electric_scooter", "fusion_lat": 0.0, "lat": 38.91487683333333, "name": "7a979e31185e4f26d9c04eb80b6ccc78", "fusion_lon": 0.0, "bike_id": "7a979e31185e4f26d9c04eb80b6ccc78", "is_disabled": 0, "is_reserved": 0}, {"rental_uris": {"ios": "https://dc.lft.to/lastmile_qr_scan", "android": "https://dc.lft.to/lastmile_qr_scan"}, "lon": -77.02664516666667, "type": "electric_scooter", "fusion_lat": 0.0, "lat": 38.880999, "name": "029d253fcd2909eef33fb2a3eaea2808", "fusion_lon": 0.0, "bike_id": "029d253fcd2909eef33fb2a3eaea2808", "is_disabled": 0, "is_reserved": 0}, {"rental_uris": {"ios": "https://dc.lft.to/lastmile_qr_scan", "android": "https://dc.lft.to/lastmile_qr_scan"}, "lon": -77.0241585, "type": "electric_scooter", "fusion_lat": 0.0, "lat": 38.91854683333333, "name": "ceedcd521d84acf7164922a85c6a3a95", "fusion_lon": 0.0, "bike_id": "ceedcd521d84acf7164922a85c6a3a95", "is_disabled": 0, "is_reserved": 0}, {"rental_uris": {"ios": "https://dc.lft.to/lastmile_qr_scan", "android": "https://dc.lft.to/lastmile_qr_scan"}, "lon": -76.99929033333333, "type": "electric_scooter", "fusion_lat": 0.0, "lat": 38.909546, "name": "8e8cde10bc0427f7a40c266c5fcc82d9", "fusion_lon": 0.0, "bike_id": "8e8cde10bc0427f7a40c266c5fcc82d9", "is_disabled": 0, "is_reserved": 0}, {"rental_uris": {"ios": "https://dc.lft.to/lastmile_qr_scan", "android": "https://dc.lft.to/lastmile_qr_scan"}, "lon": -77.03650833333333, "type": "electric_scooter", "fusion_lat": 0.0, "lat": 38.9027815, "name": "74cf6c1fc9bc4c920dddd2b747632f15", "fusion_lon": 0.0, "bike_id": "74cf6c1fc9bc4c920dddd2b747632f15", "is_disabled": 0, "is_reserved": 0}, {"rental_uris": {"ios": "https://dc.lft.to/lastmile_qr_scan", "android": "https://dc.lft.to/lastmile_qr_scan"}, "lon": -77.05178166666667, "type": "electric_scooter", "fusion_lat": 0.0, "lat": 38.924148, "name": "f0b50aff8511517610ce80d52764598e", "fusion_lon": 0.0, "bike_id": "f0b50aff8511517610ce80d52764598e", "is_disabled": 0, "is_reserved": 0}, {"rental_uris": {"ios": "https://dc.lft.to/lastmile_qr_scan", "android": "https://dc.lft.to/lastmile_qr_scan"}, "lon": -77.02817116666667, "type": "electric_scooter", "fusion_lat": 0.0, "lat": 38.9093595, "name": "cabec6490871128515201945c0f814b7", "fusion_lon": 0.0, "bike_id": "cabec6490871128515201945c0f814b7", "is_disabled": 0, "is_reserved": 0}, {"rental_uris": {"ios": "https://dc.lft.to/lastmile_qr_scan", "android": "https://dc.lft.to/lastmile_qr_scan"}, "lon": -77.0275015, "type": "electric_scooter", "fusion_lat": 0.0, "lat": 38.96624583333333, "name": "ec2e3f02e7f0019a77c2924713536814", "fusion_lon": 0.0, "bike_id": "ec2e3f02e7f0019a77c2924713536814", "is_disabled": 0, "is_reserved": 0}, {"rental_uris": {"ios": "https://dc.lft.to/lastmile_qr_scan", "android": "https://dc.lft.to/lastmile_qr_scan"}, "lon": -76.9849665, "type": "electric_scooter", "fusion_lat": 0.0, "lat": 38.860398833333335, "name": "6020050feb85b1b5b2725d3833f84df0", "fusion_lon": 0.0, "bike_id": "6020050feb85b1b5b2725d3833f84df0", "is_disabled": 0, "is_reserved": 0}, {"rental_uris": {"ios": "https://dc.lft.to/lastmile_qr_scan", "android": "https://dc.lft.to/lastmile_qr_scan"}, "lon": -77.03176833333333, "type": "electric_scooter", "fusion_lat": 0.0, "lat": 38.8934675, "name": "7b9f0144b2fd7156913a5e8b8c580253", "fusion_lon": 0.0, "bike_id": "7b9f0144b2fd7156913a5e8b8c580253", "is_disabled": 0, "is_reserved": 0}, {"rental_uris": {"ios": "https://dc.lft.to/lastmile_qr_scan", "android": "https://dc.lft.to/lastmile_qr_scan"}, "lon": -77.00756266666667, "type": "electric_scooter", "fusion_lat": 0.0, "lat": 38.8765035, "name": "353f7379eaaa43ae4fab93e6d28b7df1", "fusion_lon": 0.0, "bike_id": "353f7379eaaa43ae4fab93e6d28b7df1", "is_disabled": 0, "is_reserved": 0}, {"rental_uris": {"ios": "https://dc.lft.to/lastmile_qr_scan", "android": "https://dc.lft.to/lastmile_qr_scan"}, "lon": -76.99539633333333, "type": "electric_scooter", "fusion_lat": 0.0, "lat": 38.926694499999996, "name": "dab52e6574affd046055386a9e51d6ad", "fusion_lon": 0.0, "bike_id": "dab52e6574affd046055386a9e51d6ad", "is_disabled": 0, "is_reserved": 0}, {"rental_uris": {"ios": "https://dc.lft.to/lastmile_qr_scan", "android": "https://dc.lft.to/lastmile_qr_scan"}, "lon": -76.9951065, "type": "electric_scooter", "fusion_lat": 0.0, "lat": 38.84470366666667, "name": "59cfe6a004a7bf6fbf0c84d8c162ea12", "fusion_lon": 0.0, "bike_id": "59cfe6a004a7bf6fbf0c84d8c162ea12", "is_disabled": 0, "is_reserved": 0}, {"rental_uris": {"ios": "https://dc.lft.to/lastmile_qr_scan", "android": "https://dc.lft.to/lastmile_qr_scan"}, "lon": -77.02941416666667, "type": "electric_scooter", "fusion_lat": 0.0, "lat": 38.90008816666667, "name": "b6c48d493b577717f40f769d07ae1140", "fusion_lon": 0.0, "bike_id": "b6c48d493b577717f40f769d07ae1140", "is_disabled": 0, "is_reserved": 0}, {"rental_uris": {"ios": "https://dc.lft.to/lastmile_qr_scan", "android": "https://dc.lft.to/lastmile_qr_scan"}, "lon": -77.03015283333333, "type": "electric_scooter", "fusion_lat": 0.0, "lat": 38.919246, "name": "a3863b9d649966f9171e36eebcb21688", "fusion_lon": 0.0, "bike_id": "a3863b9d649966f9171e36eebcb21688", "is_disabled": 0, "is_reserved": 0}, {"rental_uris": {"ios": "https://dc.lft.to/lastmile_qr_scan", "android": "https://dc.lft.to/lastmile_qr_scan"},