{"data": {"bikes": [{"fusion_lon": 0.0, "name": "c44736ca68f81c0db79a6fbd91eebc47", "rental_uris": {"android": "https://dc.lft.to/lastmile_qr_scan", "ios": "https://dc.lft.to/lastmile_qr_scan"}, "lat": 38.901968, "bike_id": "c44736ca68f81c0db79a6fbd91eebc47", "is_disabled": 0, "lon": -77.05900233333334, "is_reserved": 0, "fusion_lat": 0.0, "type": "electric_scooter"}, {"fusion_lon": 0.0, "name": "253d09385769c4a1d56c6aacf46fe067", "rental_uris": {"android": "https://dc.lft.to/lastmile_qr_scan", "ios": "https://dc.lft.to/lastmile_qr_scan"}, "lat": 38.894563166666664, "bike_id": "253d09385769c4a1d56c6aacf46fe067", "is_disabled": 0, "lon": -77.02679233333333, "is_reserved": 0, "fusion_lat": 0.0, "type": "electric_scooter"}, {"fusion_lon": 0.0, "name": "a29d19c72ab1240413235a81d3415e98", "rental_uris": {"android": "https://dc.lft.to/lastmile_qr_scan", "ios": "https://dc.lft.to/lastmile_qr_scan"}, "lat": 38.90399216666667, "bike_id": "a29d19c72ab1240413235a81d3415e98", "is_disabled": 0, "lon": -77.04375583333334, "is_reserved": 0, "fusion_lat": 0.0, "type": "electric_scooter"}, {"fusion_lon": 0.0, "name": "e6f9f087dfa60edfd6a9c2121e9eb319", "rental_uris": {"android": "https://dc.lft.to/lastmile_qr_scan", "ios": "https://dc.lft.to/lastmile_qr_scan"}, "lat": 38.9296465, "bike_id": "e6f9f087dfa60edfd6a9c2121e9eb319", "is_disabled": 0, "lon": -77.02798066666666, "is_reserved": 0, "fusion_lat": 0.0, "type": "electric_scooter"}, {"fusion_lon": 0.0, "name": "341114899d3b3a50d7804824aec94ff4", "rental_uris": {"android": "https://dc.lft.to/lastmile_qr_scan", "ios": "https://dc.lft.to/lastmile_qr_scan"}, "lat": 38.9232405, "bike_id": "341114899d3b3a50d7804824aec94ff4", "is_disabled": 0, "lon": -77.02137983333333, "is_reserved": 0, "fusion_lat": 0.0, "type": "electric_scooter"}, {"fusion_lon": 0.0, "name": "b28af0c8fc67a754a4c7b64edaa7c9ae", "rental_uris": {"android": "https://dc.lft.to/lastmile_qr_scan", "ios": "https://dc.lft.to/lastmile_qr_scan"}, "lat": 39.08492533333333, "bike_id": "b28af0c8fc67a754a4c7b64edaa7c9ae", "is_disabled": 0, "lon": -76.95047183333334, "is_reserved": 0, "fusion_lat": 0.0, "type": "electric_bike"}, {"fusion_lon": 0.0, "name": "f9b3c0f26e2d092963bfad918e60b03c", "rental_uris": {"android": "https://dc.lft.to/lastmile_qr_scan", "ios": "https://dc.lft.to/lastmile_qr_scan"}, "lat": 38.907643166666666, "bike_id": "f9b3c0f26e2d092963bfad918e60b03c", "is_disabled": 0, "lon": -77.00390183333333, "is_reserved": 0, "fusion_lat": 0.0, "type": "electric_scooter"}, {"fusion_lon": 0.0, "name": "0974e9047de6f6a68cf987043373ae9a", "rental_uris": {"android": "https://dc.lft.to/lastmile_qr_scan", "ios": "https://dc.lft.to/lastmile_qr_scan"}, "lat": 38.901589333333334, "bike_id": "0974e9047de6f6a68cf987043373ae9a", "is_disabled": 0, "lon": -77.05069366666666, "is_reserved": 0, "fusion_lat": 0.0, "type": "electric_scooter"}, {"fusion_lon": 0.0, "name": "0f9d4484cf91dfbc1d03e285462cedab", "rental_uris": {"android": "https://dc.lft.to/lastmile_qr_scan", "ios": "https://dc.lft.to/lastmile_qr_scan"}, "lat": 38.9007005, "bike_id": "0f9d4484cf91dfbc1d03e285462cedab", "is_disabled": 0, "lon": -77.0316975, "is_reserved": 0, "fusion_lat": 0.0, "type": "electric_scooter"}, {"fusion_lon": 0.0, "name": "852ddcb51121319f6f75e9761d0e0351", "rental_uris": {"android": "https://dc.lft.to/lastmile_qr_scan", "ios": "https://dc.lft.to/lastmile_qr_scan"}, "lat": 38.89228933333333, "bike_id": "852ddcb51121319f6f75e9761d0e0351", "is_disabled": 0, "lon": -77.03375716666666, "is_reserved": 0, "fusion_lat": 0.0, "type": "electric_scooter"}, {"fusion_lon": 0.0, "name": "238e5f9832ceceec5da478b8770450cb", "rental_uris": {"android": "https://dc.lft.to/lastmile_qr_scan", "ios": "https://dc.lft.to/lastmile_qr_scan"}, "lat": 38.89533, "bike_id": "238e5f9832ceceec5da478b8770450cb", "is_disabled": 0, "lon": -77.04472, "is_reserved": 0, "fusion_lat": 0.0, "type": "electric_scooter"}, {"fusion_lon": 0.0, "name": "8188663f073d12a1dc43e153d77c3c42", "rental_uris": {"android": "https://dc.lft.to/lastmile_qr_scan", "ios": "https://dc.lft.to/lastmile_qr_scan"}, "lat": 38.892295833333336, "bike_id": "8188663f073d12a1dc43e153d77c3c42", "is_disabled": 0, "lon": -77.02504316666666, "is_reserved": 0, "fusion_lat": 0.0, "type": "electric_scooter"}, {"fusion_lon": 0.0, "name": "4057c9723c39fce686a3abda952a4348", "rental_uris": {"android": "https://dc.lft.to/lastmile_qr_scan", "ios": "https://dc.lft.to/lastmile_qr_scan"}, "lat": 38.91498683333333, "bike_id": "4057c9723c39fce686a3abda952a4348", "is_disabled": 0, "lon": -77.03831066666666, "is_reserved": 0, "fusion_lat": 0.0, "type": "electric_scooter"}, {"fusion_lon": 0.0, "name": "a59461bff52423da93bd76161eb3951c", "rental_uris": {"android": "https://dc.lft.to/lastmile_qr_scan", "ios": "https://dc.lft.to/lastmile_qr_scan"}, "lat": 38.944281, "bike_id": "a59461bff52423da93bd76161eb3951c", "is_disabled": 0, "lon": -77.05521716666667, "is_reserved": 0, "fusion_lat": 0.0, "type": "electric_scooter"}, {"fusion_lon": 0.0, "name": "b35cb802e5d04bfb5dc76f1b95a2e3cf", "rental_uris": {"android": "https://dc.lft.to/lastmile_qr_scan", "ios": "https://dc.lft.to/lastmile_qr_scan"}, "lat": 38.8861555, "bike_id": "b35cb802e5d04bfb5dc76f1b95a2e3cf", "is_disabled": 0, "lon": -77.00278366666667, "is_reserved": 0, "fusion_lat": 0.0, "type": "electric_scooter"}, {"fusion_lon": 0.0, "name": "5d816c3834d264766d20d0ba3945ff22", "rental_uris": {"android": "https://dc.lft.to/lastmile_qr_scan", "ios": "https://dc.lft.to/lastmile_qr_scan"}, "lat": 38.903755833333335, "bike_id": "5d816c3834d264766d20d0ba3945ff22", "is_disabled": 0, "lon": -77.04503716666666, "is_reserved": 0, "fusion_lat": 0.0, "type": "electric_scooter"}, {"fusion_lon": 0.0, "name": "24c83847a2bdaf1b5087e180ba75c91a", "rental_uris": {"android": "https://dc.lft.to/lastmile_qr_scan", "ios": "https://dc.lft.to/lastmile_qr_scan"}, "lat": 38.91704416666666, "bike_id": "24c83847a2bdaf1b5087e180ba75c91a", "is_disabled": 0, "lon": -77.00111916666667, "is_reserved": 0, "fusion_lat": 0.0, "type": "electric_scooter"}, {"fusion_lon": 0.0, "name": "c79e5c8e5e26f6f357cbad9c27082b97", "rental_uris": {"android": "https://dc.lft.to/lastmile_qr_scan", "ios": "https://dc.lft.to/lastmile_qr_scan"}, "lat": 38.93065583333333, "bike_id": "c79e5c8e5e26f6f357cbad9c27082b97", "is_disabled": 0, "lon": -77.03938333333333, "is_reserved": 0, "fusion_lat": 0.0, "type": "electric_scooter"}, {"fusion_lon": 0.0, "name": "128b806c918356550d430b6c359b8367", "rental_uris": {"android": "https://dc.lft.to/lastmile_qr_scan", "ios": "https://dc.lft.to/lastmile_qr_scan"}, "lat": 38.962667333333336, "bike_id": "128b806c918356550d430b6c359b8367", "is_disabled": 0, "lon": -77.013559, "is_reserved": 0, "fusion_lat": 0.0, "type": "electric_scooter"}, {"fusion_lon": 0.0, "name": "c2175b83f2d89933782396ba9574ee2a", "rental_uris": {"android": "https://dc.lft.to/lastmile_qr_scan", "ios": "https://dc.lft.to/lastmile_qr_scan"}, "lat": 38.87685366666667, "bike_id": "c2175b83f2d89933782396ba9574ee2a", "is_disabled": 0, "lon": -77.00078583333334, "is_reserved": 0, "fusion_lat": 0.0, "type": "electric_scooter"}, {"fusion_lon": 0.0, "name": "2b655e52b0a068065db43eddf6ee4c94", "rental_uris": {"android": "https://dc.lft.to/lastmile_qr_scan", "ios": "https://dc.lft.to/lastmile_qr_scan"}, "lat": 38.898561, "bike_id": "2b655e52b0a068065db43eddf6ee4c94", "is_disabled": 0, "lon": -77.05398733333334, "is_reserved": 0, "fusion_lat": 0.0, "type": "electric_scooter"}, {"fusion_lon": 0.0, "name": "dcdd940b503a66d262cc48153d544ba8", "rental_uris": {"android": "https://dc.lft.to/lastmile_qr_scan", "ios": "https://dc.lft.to/lastmile_qr_scan"}, "lat": 38.95092133333333, "bike_id": "dcdd940b503a66d262cc48153d544ba8", "is_disabled": 0, "lon": -76.9979255, "is_reserved": 0, "fusion_lat": 0.0, "type": "electric_bike"}, {"fusion_lon": 0.0, "name": "013eeba29149c5c9e21b06634fa17cc8", "rental_uris": {"android": "https://dc.lft.to/lastmile_qr_scan", "ios": "https://dc.lft.to/lastmile_qr_scan"}, "lat": 38.885157166666666, "bike_id": "013eeba29149c5c9e21b06634fa17cc8", "is_disabled": 0, "lon": -77.01747366666666, "is_reserved": 0, "fusion_lat": 0.0, "type": "electric_scooter"}, {"fusion_lon": 0.0, "name": "42c18da074d9eb082fd7bfc07153b046", "rental_uris": {"android": "https://dc.lft.to/lastmile_qr_scan", "ios": "https://dc.lft.to/lastmile_qr_scan"}, "lat": 38.934657, "bike_id": "42c18da074d9eb082fd7bfc07153b046", "is_disabled": 0, "lon": -77.05807, "is_reserved": 0, "fusion_lat": 0.0, "type": "electric_scooter"}, {"fusion_lon": 0.0, "name": "5131f9655d091ef1b81a06b8845980b8", "rental_uris": {"android": "https://dc.lft.to/lastmile_qr_scan", "ios": "https://dc.lft.to/lastmile_qr_scan"}, "lat": 38.9340465, "bike_id": "5131f9655d091ef1b81a06b8845980b8", "is_disabled": 0, "lon": -77.03831, "is_reserved": 0, "fusion_lat": 0.0, "type": "electric_scooter"}, {"fusion_lon": 0.0, "name": "0cc7993079c059e906c99e5bc1fa90a5", "rental_uris": {"android": "https://dc.lft.to/lastmile_qr_scan", "ios": "https://dc.lft.to/lastmile_qr_scan"}, "lat": 38.90513966666666, "bike_id": "0cc7993079c059e906c99e5bc1fa90a5", "is_disabled": 0, "lon": -76.98480133333334, "is_reserved": 0, "fusion_lat": 0.0, "type": "electric_scooter"}, {"fusion_lon": 0.0, "name": "daf0dd357b75ff7f1c7bdc2c36e4386b", "rental_uris": {"android": "https://dc.lft.to/lastmile_qr_scan", "ios": "https://dc.lft.to/lastmile_qr_scan"}, "lat": 38.90366866666667, "bike_id": "daf0dd357b75ff7f1c7bdc2c36e4386b", "is_disabled": 0, "lon": -77.040077, "is_reserved": 0, "fusion_lat": 0.0, "type": "electric_scooter"}, {"fusion_lon": 0.0, "name": "640de76cab0bb948124a86ce59aec2dd", "rental_uris": {"android": "https://dc.lft.to/lastmile_qr_scan", "ios": "https://dc.lft.to/lastmile_qr_scan"}, "lat": 38.926029, "bike_id": "640de76cab0bb948124a86ce59aec2dd", "is_disabled": 0, "lon": -77.021584, "is_reserved": 0, "fusion_lat": 0.0, "type": "electric_scooter"}, {"fusion_lon": 0.0, "name": "e1b56cedeb0d8f43c4ab76be22bfe055", "rental_uris": {"android": "https://dc.lft.to/lastmile_qr_scan", "ios": "https://dc.lft.to/lastmile_qr_scan"}, "lat": 38.90354716666667, "bike_id": "e1b56cedeb0d8f43c4ab76be22bfe055", "is_disabled": 0, "lon": -77.03232366666667, "is_reserved": 0, "fusion_lat": 0.0, "type": "electric_scooter"}, {"fusion_lon": 0.0, "name": "40af9f949220fe46575c3449bbadc237", "rental_uris": {"android": "https://dc.lft.to/lastmile_qr_scan", "ios": "https://dc.lft.to/lastmile_qr_scan"}, "lat": 38.923676666666665, "bike_id": "40af9f949220fe46575c3449bbadc237", "is_disabled": 0, "lon": -77.01911433333333, "is_reserved": 0, "fusion_lat": 0.0, "type": "electric_scooter"}, {"fusion_lon": 0.0, "name": "51094376bf7cd581640ed3d7298f5c35", "rental_uris": {"android": "https://dc.lft.to/lastmile_qr_scan", "ios": "https://dc.lft.to/lastmile_qr_scan"}, "lat": 38.949799166666665, "bike_id": "51094376bf7cd581640ed3d7298f5c35", "is_disabled": 0, "lon": -77.02017216666667, "is_reserved": 0, "fusion_lat": 0.0, "type": "electric_scooter"}, {"fusion_lon": 0.0, "name": "ffb84b6c7dad6e15ae01bc671fe2d2ea", "rental_uris": {"android": "https://dc.lft.to/lastmile_qr_scan", "ios": "https://dc.lft.to/lastmile_qr_scan"}, "lat": 38.90565616666667, "bike_id": "ffb84b6c7dad6e15ae01bc671fe2d2ea", "is_disabled": 0, "lon": -77.02805966666666, "is_reserved": 0, "fusion_lat": 0.0, "type": "electric_scooter"}, {"fusion_lon": 0.0, "name": "ba5d6b57e0d8d93582d743b95b90657d", "rental_uris": {"android": "https://dc.lft.to/lastmile_qr_scan", "ios": "https://dc.lft.to/lastmile_qr_scan"}, "lat": 38.9248995, "bike_id": "ba5d6b57e0d8d93582d743b95b90657d", "is_disabled": 0, "lon": -77.0213795, "is_reserved": 0, "fusion_lat": 0.0, "type": "electric_scooter"}, {"fusion_lon": 0.0, "name": "0fcbab2e54c10b98164301607d850607", "rental_uris": {"android": "https://dc.lft.to/lastmile_qr_scan", "ios": "https://dc.lft.to/lastmile_qr_scan"}, "lat": 38.887181166666664, "bike_id": "0fcbab2e54c10b98164301607d850607", "is_disabled": 0, "lon": -77.02142683333334, "is_reserved": 0, "fusion_lat": 0.0, "type": "electric_scooter"}, {"fusion_lon": 0.0, "name": "d00d670e72393f79e747891211592e96", "rental_uris": {"android": "https://dc.lft.to/lastmile_qr_scan", "ios": "https://dc.lft.to/lastmile_qr_scan"}, "lat": 38.902746, "bike_id": "d00d670e72393f79e747891211592e96", "is_disabled": 0, "lon": -77.0396975, "is_reserved": 0, "fusion_lat": 0.0, "type": "electric_scooter"}, {"fusion_lon": 0.0, "name": "469574f61da471464099ae480f15b304", "rental_uris": {"android": "https://dc.lft.to/lastmile_qr_scan", "ios": "https://dc.lft.to/lastmile_qr_scan"}, "lat": 38.933809833333335, "bike_id": "469574f61da471464099ae480f15b304", "is_disabled": 0, "lon": -77.0324995, "is_reserved": 0, "fusion_lat": 0.0, "type": "electric_scooter"}, {"fusion_lon": 0.0, "name": "73af61877163de774e623d28a70d8928", "rental_uris": {"android": "https://dc.lft.to/lastmile_qr_scan", "ios": "https://dc.lft.to/lastmile_qr_scan"}, "lat": 38.90372983333334, "bike_id": "73af61877163de774e623d28a70d8928", "is_disabled": 0, "lon": -77.03205366666667, "is_reserved": 0, "fusion_lat": 0.0, "type": "electric_scooter"}, {"fusion_lon": 0.0, "name": "e3c782949a3df6fe4b03afde50e33013", "rental_uris": {"android": "https://dc.lft.to/lastmile_qr_scan", "ios": "https://dc.lft.to/lastmile_qr_scan"}, "lat": 38.99676616666667, "bike_id": "e3c782949a3df6fe4b03afde50e33013", "is_disabled": 0, "lon": -77.03788033333333, "is_reserved": 0, "fusion_lat": 0.0, "type": "electric_bike"}, {"fusion_lon": 0.0, "name": "7aaa56efc30ca36af8a2ba0c459fa370", "rental_uris": {"android": "https://dc.lft.to/lastmile_qr_scan", "ios": "https://dc.lft.to/lastmile_qr_scan"}, "lat": 38.924406166666664, "bike_id": "7aaa56efc30ca36af8a2ba0c459fa370", "is_disabled": 0, "lon": -77.05206966666667, "is_reserved": 0, "fusion_lat": 0.0, "type": "electric_scooter"}, {"fusion_lon": 0.0, "name": "d3dd674d547d3ac63685b30bf105054b", "rental_uris": {"android": "https://dc.lft.to/lastmile_qr_scan", "ios": "https://dc.lft.to/lastmile_qr_scan"}, "lat": 38.926109333333336, "bike_id": "d3dd674d547d3ac63685b30bf105054b", "is_disabled": 0, "lon": -77.02239966666667, "is_reserved": 0, "fusion_lat": 0.0, "type": "electric_scooter"}, {"fusion_lon": 0.0, "name": "d59271f12a11158b360de931afec3469", "rental_uris": {"android": "https://dc.lft.to/lastmile_qr_scan", "ios": "https://dc.lft.to/lastmile_qr_scan"}, "lat": 38.924707166666664, "bike_id": "d59271f12a11158b360de931afec3469", "is_disabled": 0, "lon": -77.02203416666667, "is_reserved": 0, "fusion_lat": 0.0, "type": "electric_scooter"}, {"fusion_lon": 0.0, "name": "dac6a4411cc6dbcf4af4a0742316d1fa", "rental_uris": {"android": "https://dc.lft.to/lastmile_qr_scan", "ios": "https://dc.lft.to/lastmile_qr_scan"}, "lat": 38.92446616666667, "bike_id": "dac6a4411cc6dbcf4af4a0742316d1fa", "is_disabled": 0, "lon": -77.02155783333333, "is_reserved": 0, "fusion_lat": 0.0, "type": "electric_scooter"}, {"fusion_lon": 0.0, "name": "8a65b1bfc5ed0e48cfc04ef973e72e6d", "rental_uris": {"android": "https://dc.lft.to/lastmile_qr_scan", "ios": "https://dc.lft.to/lastmile_qr_scan"}, "lat": 38.88318233333333, "bike_id": "8a65b1bfc5ed0e48cfc04ef973e72e6d", "is_disabled": 0, "lon": -77.00598633333334, "is_reserved": 0, "fusion_lat": 0.0, "type": "electric_scooter"}, {"fusion_lon": 0.0, "name": "cb9c2d2f06de87a857ce44de3683b931", "rental_uris": {"android": "https://dc.lft.to/lastmile_qr_scan", "ios": "https://dc.lft.to/lastmile_qr_scan"}, "lat": 38.920398166666665, "bike_id": "cb9c2d2f06de87a857ce44de3683b931", "is_disabled": 0, "lon": -77.0168015, "is_reserved": 0, "fusion_lat": 0.0, "type": "electric_scooter"}, {"fusion_lon": 0.0, "name": "ccf166842656ad4265cf5f227bad79cc", "rental_uris": {"android": "https://dc.lft.to/lastmile_qr_scan", "ios": "https://dc.lft.to/lastmile_qr_scan"}, "lat": 38.892309166666664, "bike_id": "ccf166842656ad4265cf5f227bad79cc", "is_disabled": 0, "lon": -77.03375033333333, "is_reserved": 0, "fusion_lat": 0.0, "type": "electric_scooter"}, {"fusion_lon": 0.0, "name": "78cc135d578523a40a516f3e2e13a7df", "rental_uris": {"android": "https://dc.lft.to/lastmile_qr_scan", "ios": "https://dc.lft.to/lastmile_qr_scan"}, "lat": 38.8984325, "bike_id": "78cc135d578523a40a516f3e2e13a7df", "is_disabled": 0, "lon": -77.03332916666666, "is_reserved": 0, "fusion_lat": 0.0, "type": "electric_scooter"}, {"fusion_lon": 0.0, "name": "fa8827d8ece95963dcf5bfc266a0338a", "rental_uris": {"android": "https://dc.lft.to/lastmile_qr_scan", "ios": "https://dc.lft.to/lastmile_qr_scan"}, "lat": 38.908192166666666, "bike_id": "fa8827d8ece95963dcf5bfc266a0338a", "is_disabled": 0, "lon": -77.03945866666666, "is_reserved": 0, "fusion_lat": 0.0, "type": "electric_scooter"}, {"fusion_lon": 0.0, "name": "cfef41cda0feefa1ec82e048cd9dbf59", "rental_uris": {"android": "https://dc.lft.to/lastmile_qr_scan", "ios": "https://dc.lft.to/lastmile_qr_scan"}, "lat": 38.925139333333334, "bike_id": "cfef41cda0feefa1ec82e048cd9dbf59", "is_disabled": 0, "lon": -77.02282966666667, "is_reserved": 0, "fusion_lat": 0.0, "type": "electric_scooter"}, {"fusion_lon": 0.0, "name": "c72b31a61702eeb778a590585ea50ae3", "rental_uris": {"android": "https://dc.lft.to/lastmile_qr_scan", "ios": "https://dc.lft.to/lastmile_qr_scan"}, "lat": 38.877861333333335, "bike_id": "c72b31a61702eeb778a590585ea50ae3", "is_disabled": 0, "lon": -76.9935955, "is_reserved": 0, "fusion_lat": 0.0, "type": "electric_scooter"}, {"fusion_lon": 0.0, "name": "8675d0c307f2a68d66e7ed8bac13811c", "rental_uris": {"android": "https://dc.lft.to/lastmile_qr_scan", "ios": "https://dc.lft.to/lastmile_qr_scan"}, "lat": 38.921382, "bike_id": "8675d0c307f2a68d66e7ed8bac13811c", "is_disabled": 0, "lon": -77.035155, "is_reserved": 0, "fusion_lat": 0.0, "type": "electric_scooter"}, {"fusion_lon": 0.0, "name": "cd3ad4273ceeb98c28e5e6da952c0d20", "rental_uris": {"android": "https://dc.lft.to/lastmile_qr_scan", "ios": "https://dc.lft.to/lastmile_qr_scan"}, "lat": 38.9155495, "bike_id": "cd3ad4273ceeb98c28e5e6da952c0d20", "is_disabled": 0, "lon": -77.03967316666666, "is_reserved": 0, "fusion_lat": 0.0, "type": "electric_scooter"}, {"fusion_lon": 0.0, "name": "15802122566f663d3ab052c02f1f15c6", "rental_uris": {"android": "https://dc.lft.to/lastmile_qr_scan", "ios": "https://dc.lft.to/lastmile_qr_scan"}, "lat": 38.893390833333335, "bike_id": "15802122566f663d3ab052c02f1f15c6", "is_disabled": 0, "lon": -76.99378216666666, "is_reserved": 0, "fusion_lat": 0.0, "type": "electric_scooter"}, {"fusion_lon": 0.0, "name": "9dfe7961cefed76b871e51fbfcd7f812", "rental_uris": {"android": "https://dc.lft.to/lastmile_qr_scan", "ios": "https://dc.lft.to/lastmile_qr_scan"}, "lat": 38.90095183333333, "bike_id": "9dfe7961cefed76b871e51fbfcd7f812", "is_disabled": 0, "lon": -77.03664933333333, "is_reserved": 0, "fusion_lat": 0.0, "type": "electric_scooter"}, {"fusion_lon": 0.0, "name": "839c6cca5ff9b1d274f7d2a7421e57ac", "rental_uris": {"android": "https://dc.lft.to/lastmile_qr_scan", "ios": "https://dc.lft.to/lastmile_qr_scan"}, "lat": 38.92891483333333, "bike_id": "839c6cca5ff9b1d274f7d2a7421e57ac", "is_disabled": 0, "lon": -77.034769, "is_reserved": 0, "fusion_lat": 0.0, "type": "electric_scooter"}, {"fusion_lon": 0.0, "name": "63ae84e823908ef2819961446ce7412c", "rental_uris": {"android": "https://dc.lft.to/lastmile_qr_scan", "ios": "https://dc.lft.to/lastmile_qr_scan"}, "lat": 38.895428, "bike_id": "63ae84e823908ef2819961446ce7412c", "is_disabled": 0, "lon": -76.98891666666667, "is_reserved": 0, "fusion_lat": 0.0, "type": "electric_scooter"}, {"fusion_lon": 0.0, "name": "ce066ce9c0cf401c6fbf6c4c2fc96d1a", "rental_uris": {"android": "https://dc.lft.to/lastmile_qr_scan", "ios": "https://dc.lft.to/lastmile_qr_scan"}, "lat": 38.89338133333333, "bike_id": "ce066ce9c0cf401c6fbf6c4c2fc96d1a", "is_disabled": 0, "lon": -77.0317865, "is_reserved": 0, "fusion_lat": 0.0, "type": "electric_scooter"}, {"fusion_lon": 0.0, "name": "4eab5a806651db933a8c7955a46e2a7a", "rental_uris": {"android": "https://dc.lft.to/lastmile_qr_scan", "ios": "https://dc.lft.to/lastmile_qr_scan"}, "lat": 38.928067666666664, "bike_id": "4eab5a806651db933a8c7955a46e2a7a", "is_disabled": 0, "lon": -77.03276633333333, "is_reserved": 0, "fusion_lat": 0.0, "type": "electric_scooter"}, {"fusion_lon": 0.0, "name": "95abfb8cea699b86d33c429dfeda94c8", "rental_uris": {"android": "https://dc.lft.to/lastmile_qr_scan", "ios": "https://dc.lft.to/lastmile_qr_scan"}, "lat": 38.935326333333336, "bike_id": "95abfb8cea699b86d33c429dfeda94c8", "is_disabled": 0, "lon": -77.0284585, "is_reserved": 0, "fusion_lat": 0.0, "type": "electric_scooter"}, {"fusion_lon": 0.0, "name": "137e2966c6040491c285311ed70a2901", "rental_uris": {"android": "https://dc.lft.to/lastmile_qr_scan", "ios": "https://dc.lft.to/lastmile_qr_scan"}, "lat": 38.8853325, "bike_id": "137e2966c6040491c285311ed70a2901", "is_disabled": 0, "lon": -76.97956516666666, "is_reserved": 0, "fusion_lat": 0.0, "type": "electric_scooter"}, {"fusion_lon": 0.0, "name": "710df5e63af3684c51ec62ec7533bbb2", "rental_uris": {"android": "https://dc.lft.to/lastmile_qr_scan", "ios": "https://dc.lft.to/lastmile_qr_scan"}, "lat": 38.8967285, "bike_id": "710df5e63af3684c51ec62ec7533bbb2", "is_disabled": 0, "lon": -77.02725183333334, "is_reserved": 0, "fusion_lat": 0.0, "type": "electric_scooter"}, {"fusion_lon": 0.0, "name": "0313db8125ed982a307b8ec65d27fabf", "rental_uris": {"android": "https://dc.lft.to/lastmile_qr_scan", "ios": "https://dc.lft.to/lastmile_qr_scan"}, "lat": 38.93517283333333, "bike_id": "0313db8125ed982a307b8ec65d27fabf", "is_disabled": 0, "lon": -77.03381333333333, "is_reserved": 0, "fusion_lat": 0.0, "type": "electric_scooter"}, {"fusion_lon": 0.0, "name": "18eb5454eddd82272aed077264cf86ba", "rental_uris": {"android": "https://dc.lft.to/lastmile_qr_scan", "ios": "https://dc.lft.to/lastmile_qr_scan"}, "lat": 38.9024945, "bike_id": "18eb5454eddd82272aed077264cf86ba", "is_disabled": 0, "lon": -77.01748166666667, "is_reserved": 0, "fusion_lat": 0.0, "type": "electric_scooter"}, {"fusion_lon": 0.0, "name": "d0eb0ecbc24f6f691eb62f2dc269ad43", "rental_uris": {"android": "https://dc.lft.to/lastmile_qr_scan", "ios": "https://dc.lft.to/lastmile_qr_scan"}, "lat": 38.895143166666664, "bike_id": "d0eb0ecbc24f6f691eb62f2dc269ad43", "is_disabled": 0, "lon": -77.01090316666667, "is_reserved": 0, "fusion_lat": 0.0, "type": "electric_scooter"}, {"fusion_lon": 0.0, "name": "a0b2e1323bedc3b8f1da7a3f340990a3", "rental_uris": {"android": "https://dc.lft.to/lastmile_qr_scan", "ios": "https://dc.lft.to/lastmile_qr_scan"}, "lat": 38.89162866666667, "bike_id": "a0b2e1323bedc3b8f1da7a3f340990a3", "is_disabled": 0, "lon": -77.021785, "is_reserved": 0, "fusion_lat": 0.0, "type": "electric_scooter"}, {"fusion_lon": 0.0, "name": "178f36bb968c325193f638ccf5f4bda1", "rental_uris": {"android": "https://dc.lft.to/lastmile_qr_scan", "ios": "https://dc.lft.to/lastmile_qr_scan"}, "lat": 38.9354855, "bike_id": "178f36bb968c325193f638ccf5f4bda1", "is_disabled": 0, "lon": -76.997932, "is_reserved": 0, "fusion_lat": 0.0, "type": "electric_scooter"}, {"fusion_lon": 0.0, "name": "f3002fbb62e443f52a94fb69a7bcfc58", "rental_uris": {"android": "https://dc.lft.to/lastmile_qr_scan", "ios": "https://dc.lft.to/lastmile_qr_scan"}, "lat": 38.8757665, "bike_id": "f3002fbb62e443f52a94fb69a7bcfc58", "is_disabled": 0, "lon": -77.00578516666667, "is_reserved": 0, "fusion_lat": 0.0, "type": "electric_scooter"}, {"fusion_lon": 0.0, "name": "fd6c9dbcf69b9d6068be9c5fc6872f22", "rental_uris": {"android": "https://dc.lft.to/lastmile_qr_scan", "ios": "https://dc.lft.to/lastmile_qr_scan"}, "lat": 38.926877833333336, "bike_id": "fd6c9dbcf69b9d6068be9c5fc6872f22", "is_disabled": 0, "lon": -77.01485116666667, "is_reserved": 0, "fusion_lat": 0.0, "type": "electric_scooter"}, {"fusion_lon": 0.0, "name": "90f3426556863b1dc4f3364a50ad7571", "rental_uris": {"android": "https://dc.lft.to/lastmile_qr_scan", "ios": "https://dc.lft.to/lastmile_qr_scan"}, "lat": 38.897977833333336, "bike_id": "90f3426556863b1dc4f3364a50ad7571", "is_disabled": 0, "lon": -77.0321735, "is_reserved": 0, "fusion_lat": 0.0, "type": "electric_scooter"}, {"fusion_lon": 0.0, "name": "5024440931e4c0e76be6691868cd565d", "rental_uris": {"android": "https://dc.lft.to/lastmile_qr_scan", "ios": "https://dc.lft.to/lastmile_qr_scan"}, "lat": 38.897998333333334, "bike_id": "5024440931e4c0e76be6691868cd565d", "is_disabled": 0, "lon": -77.018993, "is_reserved": 0, "fusion_lat": 0.0, "type": "electric_scooter"}, {"fusion_lon": 0.0, "name": "aeac81e45cc712e2de36a5b347fd7f87", "rental_uris": {"android": "https://dc.lft.to/lastmile_qr_scan", "ios": "https://dc.lft.to/lastmile_qr_scan"}, "lat": 38.92604883333333, "bike_id": "aeac81e45cc712e2de36a5b347fd7f87", "is_disabled": 0, "lon": -77.02160983333333, "is_reserved": 0, "fusion_lat": 0.0, "type": "electric_scooter"}, {"fusion_lon": 0.0, "name": "5dcaea5384122bd00420bfdbe6a7eca8", "rental_uris": {"android": "https://dc.lft.to/lastmile_qr_scan", "ios": "https://dc.lft.to/lastmile_qr_scan"}, "lat": 38.917150666666664, "bike_id": "5dcaea5384122bd00420bfdbe6a7eca8", "is_disabled": 0, "lon": -77.0386805, "is_reserved": 0, "fusion_lat": 0.0, "type": "electric_scooter"}, {"fusion_lon": 0.0, "name": "6e3ecb5837e5c1003419b921d683af10", "rental_uris": {"android": "https://dc.lft.to/lastmile_qr_scan", "ios": "https://dc.lft.to/lastmile_qr_scan"}, "lat": 38.950296, "bike_id": "6e3ecb5837e5c1003419b921d683af10", "is_disabled": 0, "lon": -76.9709905, "is_reserved": 0, "fusion_lat": 0.0, "type": "electric_bike"}, {"fusion_lon": 0.0, "name": "d07cac8a891c79b75f6c2325049f61c8", "rental_uris": {"android": "https://dc.lft.to/lastmile_qr_scan", "ios": "https://dc.lft.to/lastmile_qr_scan"}, "lat": 38.897861666666664, "bike_id": "d07cac8a891c79b75f6c2325049f61c8", "is_disabled": 0, "lon": -77.01654016666667, "is_reserved": 0, "fusion_lat": 0.0, "type": "electric_scooter"}, {"fusion_lon": 0.0, "name": "ba22c50ec1aac06c7c1da045d6ceb6d4", "rental_uris": {"android": "https://dc.lft.to/lastmile_qr_scan", "ios": "https://dc.lft.to/lastmile_qr_scan"}, "lat": 38.91695566666667, "bike_id": "ba22c50ec1aac06c7c1da045d6ceb6d4", "is_disabled": 0, "lon": -77.03211133333333, "is_reserved": 0, "fusion_lat": 0.0, "type": "electric_scooter"}, {"fusion_lon": 0.0, "name": "a443e6e64288a5e4b44c434cfd386288", "rental_uris": {"android": "https://dc.lft.to/lastmile_qr_scan", "ios": "https://dc.lft.to/lastmile_qr_scan"}, "lat": 38.91908033333333, "bike_id": "a443e6e64288a5e4b44c434cfd386288", "is_disabled": 0, "lon": -77.04107183333333, "is_reserved": 0, "fusion_lat": 0.0, "type": "electric_scooter"}, {"fusion_lon": 0.0, "name": "aebd701728f4498a99402fc76a616464", "rental_uris": {"android": "https://dc.lft.to/lastmile_qr_scan", "ios": "https://dc.lft.to/lastmile_qr_scan"}, "lat": 38.8916255, "bike_id": "aebd701728f4498a99402fc76a616464", "is_disabled": 0, "lon": -77.02179283333334, "is_reserved": 0, "fusion_lat": 0.0, "type": "electric_scooter"}, {"fusion_lon": 0.0, "name": "92cc69dbde271a470e4cfda142680e12", "rental_uris": {"android": "https://dc.lft.to/lastmile_qr_scan", "ios": "https://dc.lft.to/lastmile_qr_scan"}, "lat": 38.90571766666667, "bike_id": "92cc69dbde271a470e4cfda142680e12", "is_disabled": 0, "lon": -77.0402445, "is_reserved": 0, "fusion_lat": 0.0, "type": "electric_scooter"}, {"fusion_lon": 0.0, "name": "ff4c2025c7bae2b5bc3d8a247e49aec9", "rental_uris": {"android": "https://dc.lft.to/lastmile_qr_scan", "ios": "https://dc.lft.to/lastmile_qr_scan"}, "lat": 38.8973355, "bike_id": "ff4c2025c7bae2b5bc3d8a247e49aec9", "is_disabled": 0, "lon": -77.02492633333334, "is_reserved": 0, "fusion_lat": 0.0, "type": "electric_scooter"}, {"fusion_lon": 0.0, "name": "390a11bfe87c6b7dc7fd4bafd0ff5a18", "rental_uris": {"android": "https://dc.lft.to/lastmile_qr_scan", "ios": "https://dc.lft.to/lastmile_qr_scan"}, "lat": 38.92041716666667, "bike_id": "390a11bfe87c6b7dc7fd4bafd0ff5a18", "is_disabled": 0, "lon": -77.04814833333333, "is_reserved": 0, "fusion_lat": 0.0, "type": "electric_scooter"}, {"fusion_lon": 0.0, "name": "b20537c23e36866ddf1f09a35fdee596", "rental_uris": {"android": "https://dc.lft.to/lastmile_qr_scan", "ios": "https://dc.lft.to/lastmile_qr_scan"}, "lat": 38.88494216666667, "bike_id": "b20537c23e36866ddf1f09a35fdee596", "is_disabled": 0, "lon": -77.00710883333333, "is_reserved": 0, "fusion_lat": 0.0, "type": "electric_scooter"}, {"fusion_lon": 0.0, "name": "fe78649baf690a3bbb13572f4bc689e8", "rental_uris": {"android": "https://dc.lft.to/lastmile_qr_scan", "ios": "https://dc.lft.to/lastmile_qr_scan"}, "lat": 38.92895816666667, "bike_id": "fe78649baf690a3bbb13572f4bc689e8", "is_disabled": 0, "lon": -77.01372983333333, "is_reserved": 0, "fusion_lat": 0.0, "type": "electric_scooter"}, {"fusion_lon": 0.0, "name": "d53e5f06b904d5c5d2bf008e7e20824e", "rental_uris": {"android": "https://dc.lft.to/lastmile_qr_scan", "ios": "https://dc.lft.to/lastmile_qr_scan"}, "lat": 38.9560425, "bike_id": "d53e5f06b904d5c5d2bf008e7e20824e", "is_disabled": 0, "lon": -76.96474833333333, "is_reserved": 0, "fusion_lat": 0.0, "type": "electric_bike"}, {"fusion_lon": 0.0, "name": "f26587102b81e2f950aa2174149edc8c", "rental_uris": {"android": "https://dc.lft.to/lastmile_qr_scan", "ios": "https://dc.lft.to/lastmile_qr_scan"}, "lat": 38.8986845, "bike_id": "f26587102b81e2f950aa2174149edc8c", "is_disabled": 0, "lon": -76.94676933333334, "is_reserved": 0, "fusion_lat": 0.0, "type": "electric_scooter"}, {"fusion_lon": 0.0, "name": "7a4dc8fa668291d8aca1a920bd615add", "rental_uris": {"android": "https://dc.lft.to/lastmile_qr_scan", "ios": "https://dc.lft.to/lastmile_qr_scan"}, "lat": 38.912569500000004, "bike_id": "7a4dc8fa668291d8aca1a920bd615add", "is_disabled": 0, "lon": -77.038657, "is_reserved": 0, "fusion_lat": 0.0, "type": "electric_scooter"}, {"fusion_lon": 0.0, "name": "e06234fe98f1dfb386c84a5e9b78871b", "rental_uris": {"android": "https://dc.lft.to/lastmile_qr_scan", "ios": "https://dc.lft.to/lastmile_qr_scan"}, "lat": 38.915509, "bike_id": "e06234fe98f1dfb386c84a5e9b78871b", "is_disabled": 0, "lon": -77.0351215, "is_reserved": 0, "fusion_lat": 0.0, "type": "electric_scooter"}, {"fusion_lon": 0.0, "name": "e762d04ca172d925fd42563f2cde048e", "rental_uris": {"android": "https://dc.lft.to/lastmile_qr_scan", "ios": "https://dc.lft.to/lastmile_qr_scan"}, "lat": 38.88623533333333, "bike_id": "e762d04ca172d925fd42563f2cde048e", "is_disabled": 0, "lon": -77.0321185, "is_reserved": 0, "fusion_lat": 0.0, "type": "electric_scooter"}, {"fusion_lon": 0.0, "name": "1b7e71077ab78e92a9e2971f56ddb5e5", "rental_uris": {"android": "https://dc.lft.to/lastmile_qr_scan", "ios": "https://dc.lft.to/lastmile_qr_scan"}, "lat": 38.91506616666667, "bike_id": "1b7e71077ab78e92a9e2971f56ddb5e5", "is_disabled": 0, "lon": -77.02176366666667, "is_reserved": 0, "fusion_lat": 0.0, "type": "electric_scooter"}, {"fusion_lon": 0.0, "name": "ef2bec085c6a2171384afbc78daa1ee2", "rental_uris": {"android": "https://dc.lft.to/lastmile_qr_scan", "ios": "https://dc.lft.to/lastmile_qr_scan"}, "lat": 38.92436333333333, "bike_id": "ef2bec085c6a2171384afbc78daa1ee2", "is_disabled": 0, "lon": -77.003209, "is_reserved": 0, "fusion_lat": 0.0, "type": "electric_scooter"}, {"fusion_lon": 0.0, "name": "a283203426a1ac2565c53f9b02ec113d", "rental_uris": {"android": "https://dc.lft.to/lastmile_qr_scan", "ios": "https://dc.lft.to/lastmile_qr_scan"}, "lat": 38.86565733333333, "bike_id": "a283203426a1ac2565c53f9b02ec113d", "is_disabled": 0, "lon": -76.97842, "is_reserved": 0, "fusion_lat": 0.0, "type": "electric_scooter"}, {"fusion_lon": 0.0, "name": "907e92ecee2adbde61aeb38996df6408", "rental_uris": {"android": "https://dc.lft.to/lastmile_qr_scan", "ios": "https://dc.lft.to/lastmile_qr_scan"}, "lat": 38.90747366666667, "bike_id": "907e92ecee2adbde61aeb38996df6408", "is_disabled": 0, "lon": -76.98345716666667, "is_reserved": 0, "fusion_lat": 0.0, "type": "electric_scooter"}, {"fusion_lon": 0.0, "name": "9ef1aee8d028e9d0dc06ee2b306370dd", "rental_uris": {"android": "https://dc.lft.to/lastmile_qr_scan", "ios": "https://dc.lft.to/lastmile_qr_scan"}, "lat": 38.915646833333334, "bike_id": "9ef1aee8d028e9d0dc06ee2b306370dd", "is_disabled": 0, "lon": -77.0270755, "is_reserved": 0, "fusion_lat": 0.0, "type": "electric_scooter"}, {"fusion_lon": 0.0, "name": "6b150952f2f294c5786b813005efefd7", "rental_uris": {"android": "https://dc.lft.to/lastmile_qr_scan", "ios": "https://dc.lft.to/lastmile_qr_scan"}, "lat": 38.928931, "bike_id": "6b150952f2f294c5786b813005efefd7", "is_disabled": 0, "lon": -77.03463033333334, "is_reserved": 0, "fusion_lat": 0.0, "type": "electric_scooter"}, {"fusion_lon": 0.0, "name": "bed170055bd566d468f20a10f5dd8106", "rental_uris": {"android": "https://dc.lft.to/lastmile_qr_scan", "ios": "https://dc.lft.to/lastmile_qr_scan"}, "lat": 38.900255333333334, "bike_id": "bed170055bd566d468f20a10f5dd8106", "is_disabled": 0, "lon": -76.98681716666667, "is_reserved": 0, "fusion_lat": 0.0, "type": "electric_scooter"}, {"fusion_lon": 0.0, "name": "ab360c224b5bc1320b560aac258a296e", "rental_uris": {"android": "https://dc.lft.to/lastmile_qr_scan", "ios": "https://dc.lft.to/lastmile_qr_scan"}, "lat": 38.90164466666667, "bike_id": "ab360c224b5bc1320b560aac258a296e", "is_disabled": 0, "lon": -77.04642666666666, "is_reserved": 0, "fusion_lat": 0.0, "type": "electric_scooter"}, {"fusion_lon": 0.0, "name": "c833d0005a3f49c488e1a38f2fd7466c", "rental_uris": {"android": "https://dc.lft.to/lastmile_qr_scan", "ios": "https://dc.lft.to/lastmile_qr_scan"}, "lat": 38.904456, "bike_id": "c833d0005a3f49c488e1a38f2fd7466c", "is_disabled": 0, "lon": -77.05315116666667, "is_reserved": 0, "fusion_lat": 0.0, "type": "electric_scooter"}, {"fusion_lon": 0.0, "name": "febbbc536e6eabc4790c000f7778d1c3", "rental_uris": {"android": "https://dc.lft.to/lastmile_qr_scan", "ios": "https://dc.lft.to/lastmile_qr_scan"}, "lat": 38.932506000000004, "bike_id": "febbbc536e6eabc4790c000f7778d1c3", "is_disabled": 0, "lon": -77.038649, "is_reserved": 0, "fusion_lat": 0.0, "type": "electric_scooter"}, {"fusion_lon": 0.0, "name": "43a6784f2190c9b554e4c1e887154bcc", "rental_uris": {"android": "https://dc.lft.to/lastmile_qr_scan", "ios": "https://dc.lft.to/lastmile_qr_scan"}, "lat": 38.8987565, "bike_id": "43a6784f2190c9b554e4c1e887154bcc", "is_disabled": 0, "lon": -76.931848, "is_reserved": 0, "fusion_lat": 0.0, "type": "electric_scooter"}, {"fusion_lon": 0.0, "name": "48b19034a301ea0462bd0f20d2bbee9c", "rental_uris": {"android": "https://dc.lft.to/lastmile_qr_scan", "ios": "https://dc.lft.to/lastmile_qr_scan"}, "lat": 38.93352183333333, "bike_id": "48b19034a301ea0462bd0f20d2bbee9c", "is_disabled": 0, "lon": -77.08575966666666, "is_reserved": 0, "fusion_lat": 0.0, "type": "electric_scooter"}, {"fusion_lon": 0.0, "name": "3189cfd212c8eb7f39dcd6e34e7f5a83", "rental_uris": {"android": "https://dc.lft.to/lastmile_qr_scan", "ios": "https://dc.lft.to/lastmile_qr_scan"}, "lat": 38.90575166666667, "bike_id": "3189cfd212c8eb7f39dcd6e34e7f5a83", "is_disabled": 0, "lon": -77.02179166666667, "is_reserved": 0, "fusion_lat": 0.0, "type": "electric_scooter"}, {"fusion_lon": 0.0, "name": "0f902a5196963be2a6457a93b214495b", "rental_uris": {"android": "https://dc.lft.to/lastmile_qr_scan", "ios": "https://dc.lft.to/lastmile_qr_scan"}, "lat": 38.9003405, "bike_id": "0f902a5196963be2a6457a93b214495b", "is_disabled": 0, "lon": -77.0329475, "is_reserved": 0, "fusion_lat": 0.0, "type": "electric_scooter"}, {"fusion_lon": 0.0, "name": "82543085a14847c859489e7c12168024", "rental_uris": {"android": "https://dc.lft.to/lastmile_qr_scan", "ios": "https://dc.lft.to/lastmile_qr_scan"}, "lat": 38.92137916666667, "bike_id": "82543085a14847c859489e7c12168024", "is_disabled": 0, "lon": -77.02091933333334, "is_reserved": 0, "fusion_lat": 0.0, "type": "electric_scooter"}, {"fusion_lon": 0.0, "name": "77b8765c30849b29aa668c0a9d38d32c", "rental_uris": {"android": "https://dc.lft.to/lastmile_qr_scan", "ios": "https://dc.lft.to/lastmile_qr_scan"}, "lat": 38.92799083333333, "bike_id": "77b8765c30849b29aa668c0a9d38d32c", "is_disabled": 0, "lon": -77.05526216666667, "is_reserved": 0, "fusion_lat": 0.0, "type": "electric_scooter"}, {"fusion_lon": 0.0, "name": "66d6e3c31dd76b9d862bf388a3f1f283", "rental_uris": {"android": "https://dc.lft.to/lastmile_qr_scan", "ios": "https://dc.lft.to/lastmile_qr_scan"}, "lat": 38.90852233333333, "bike_id": "66d6e3c31dd76b9d862bf388a3f1f283", "is_disabled": 0, "lon": -77.01021283333333, "is_reserved": 0, "fusion_lat": 0.0, "type": "electric_scooter"}, {"fusion_lon": 0.0, "name": "70a408730821f81fc160e0480f60a9cf", "rental_uris": {"android": "https://dc.lft.to/lastmile_qr_scan", "ios": "https://dc.lft.to/lastmile_qr_scan"}, "lat": 38.89390733333333, "bike_id": "70a408730821f81fc160e0480f60a9cf", "is_disabled": 0, "lon": -76.86845883333334, "is_reserved": 0, "fusion_lat": 0.0, "type": "electric_bike"}, {"fusion_lon": 0.0, "name": "a532752f0e18d57118d9c61089999aad", "rental_uris": {"android": "https://dc.lft.to/lastmile_qr_scan", "ios": "https://dc.lft.to/lastmile_qr_scan"}, "lat": 38.919836333333336, "bike_id": "a532752f0e18d57118d9c61089999aad", "is_disabled": 0, "lon": -77.04069616666666, "is_reserved": 0, "fusion_lat": 0.0, "type": "electric_scooter"}, {"fusion_lon": 0.0, "name": "d8e94ebaab061f4bfcf7041be7daa47d", "rental_uris": {"android": "https://dc.lft.to/lastmile_qr_scan", "ios": "https://dc.lft.to/lastmile_qr_scan"}, "lat": 38.911102166666666, "bike_id": "d8e94ebaab061f4bfcf7041be7daa47d", "is_disabled": 0, "lon": -77.04454666666666, "is_reserved": 0, "fusion_lat": 0.0, "type": "electric_scooter"}, {"fusion_lon": 0.0, "name": "dd7f476e4499541c38534d2e21229c2a", "rental_uris": {"android": "https://dc.lft.to/lastmile_qr_scan", "ios": "https://dc.lft.to/lastmile_qr_scan"}, "lat": 38.876790166666666, "bike_id": "dd7f476e4499541c38534d2e21229c2a", "is_disabled": 0, "lon": -77.0197225, "is_reserved": 0, "fusion_lat": 0.0, "type": "electric_scooter"}, {"fusion_lon": 0.0, "name": "2277531d553eb37b05db588983aef519", "rental_uris": {"android": "https://dc.lft.to/lastmile_qr_scan", "ios": "https://dc.lft.to/lastmile_qr_scan"}, "lat": 38.92061866666667, "bike_id": "2277531d553eb37b05db588983aef519", "is_disabled": 0, "lon": -77.02292966666667, "is_reserved": 0, "fusion_lat": 0.0, "type": "electric_scooter"}, {"fusion_lon": 0.0, "name": "9d9ad113e1c67c5c0bd6a28f41ec9ccb", "rental_uris": {"android": "https://dc.lft.to/lastmile_qr_scan", "ios": "https://dc.lft.to/lastmile_qr_scan"}, "lat": 38.9067455, "bike_id": "9d9ad113e1c67c5c0bd6a28f41ec9ccb", "is_disabled": 0, "lon": -77.027161, "is_reserved": 0, "fusion_lat": 0.0, "type": "electric_scooter"}, {"fusion_lon": 0.0, "name": "ce354f6c339776e79069732ba408d829", "rental_uris": {"android": "https://dc.lft.to/lastmile_qr_scan", "ios": "https://dc.lft.to/lastmile_qr_scan"}, "lat": 38.9265155, "bike_id": "ce354f6c339776e79069732ba408d829", "is_disabled": 0, "lon": -77.04066433333334, "is_reserved": 0, "fusion_lat": 0.0, "type": "electric_scooter"}, {"fusion_lon": 0.0, "name": "77c780d8c4fc16553aed260ba6a7a2f0", "rental_uris": {"android": "https://dc.lft.to/lastmile_qr_scan", "ios": "https://dc.lft.to/lastmile_qr_scan"}, "lat": 38.903941833333334, "bike_id": "77c780d8c4fc16553aed260ba6a7a2f0", "is_disabled": 0, "lon": -76.9810705, "is_reserved": 0, "fusion_lat": 0.0, "type": "electric_scooter"}, {"fusion_lon": 0.0, "name": "320705980a93f6955a3a9d0e08310450", "rental_uris": {"android": "https://dc.lft.to/lastmile_qr_scan", "ios": "https://dc.lft.to/lastmile_qr_scan"}, "lat": 38.907763333333335, "bike_id": "320705980a93f6955a3a9d0e08310450", "is_disabled": 0, "lon": -77.0245485, "is_reserved": 0, "fusion_lat": 0.0, "type": "electric_scooter"}, {"fusion_lon": 0.0, "name": "0a41c32ea2b681d021098d1b3cd82952", "rental_uris": {"android": "https://dc.lft.to/lastmile_qr_scan", "ios": "https://dc.lft.to/lastmile_qr_scan"}, "lat": 38.9226225, "bike_id": "0a41c32ea2b681d021098d1b3cd82952", "is_disabled": 0, "lon": -77.01953266666666, "is_reserved": 0, "fusion_lat": 0.0, "type": "electric_scooter"}, {"fusion_lon": 0.0, "name": "b2944ea576137d626b84b784ab57d3b7", "rental_uris": {"android": "https://dc.lft.to/lastmile_qr_scan", "ios": "https://dc.lft.to/lastmile_qr_scan"}, "lat": 38.8766215, "bike_id": "b2944ea576137d626b84b784ab57d3b7", "is_disabled": 0, "lon": -76.99321983333333, "is_reserved": 0, "fusion_lat": 0.0, "type": "electric_scooter"}, {"fusion_lon": 0.0, "name": "422032ad39c58b839585771854dbd90f", "rental_uris": {"android": "https://dc.lft.to/lastmile_qr_scan", "ios": "https://dc.lft.to/lastmile_qr_scan"}, "lat": 38.904165166666665, "bike_id": "422032ad39c58b839585771854dbd90f", "is_disabled": 0, "lon": -76.97330683333334, "is_reserved": 0, "fusion_lat": 0.0, "type": "electric_scooter"}, {"fusion_lon": 0.0, "name": "0f4a91081b0a2391fcdda2d6f4a0e0fc", "rental_uris": {"android": "https://dc.lft.to/lastmile_qr_scan", "ios": "https://dc.lft.to/lastmile_qr_scan"}, "lat": 38.9234305, "bike_id": "0f4a91081b0a2391fcdda2d6f4a0e0fc", "is_disabled": 0, "lon": -77.048523, "is_reserved": 0, "fusion_lat": 0.0, "type": "electric_scooter"}, {"fusion_lon": 0.0, "name": "013a3c24eddbab79f5cc5bf385d31008", "rental_uris": {"android": "https://dc.lft.to/lastmile_qr_scan", "ios": "https://dc.lft.to/lastmile_qr_scan"}, "lat": 38.930775833333335, "bike_id": "013a3c24eddbab79f5cc5bf385d31008", "is_disabled": 0, "lon": -77.027758, "is_reserved": 0, "fusion_lat": 0.0, "type": "electric_scooter"}, {"fusion_lon": 0.0, "name": "592b7ff4528dbc33a345a5f410bb4c23", "rental_uris": {"android": "https://dc.lft.to/lastmile_qr_scan", "ios": "https://dc.lft.to/lastmile_qr_scan"}, "lat": 38.913299333333335, "bike_id": "592b7ff4528dbc33a345a5f410bb4c23", "is_disabled": 0, "lon": -77.04534233333334, "is_reserved": 0, "fusion_lat": 0.0, "type": "electric_scooter"}, {"fusion_lon": 0.0, "name": "4b3c63a9bfda5ec94094e622e2ca83d7", "rental_uris": {"android": "https://dc.lft.to/lastmile_qr_scan", "ios": "https://dc.lft.to/lastmile_qr_scan"}, "lat": 38.90370083333333, "bike_id": "4b3c63a9bfda5ec94094e622e2ca83d7", "is_disabled": 0, "lon": -77.03749933333333, "is_reserved": 0, "fusion_lat": 0.0, "type": "electric_scooter"}, {"fusion_lon": 0.0, "name": "15390f31ae6ff228826d55273f2709e6", "rental_uris": {"android": "https://dc.lft.to/lastmile_qr_scan", "ios": "https://dc.lft.to/lastmile_qr_scan"}, "lat": 38.92082033333333, "bike_id": "15390f31ae6ff228826d55273f2709e6", "is_disabled": 0, "lon": -77.035653, "is_reserved": 0, "fusion_lat": 0.0, "type": "electric_scooter"}, {"fusion_lon": 0.0, "name": "00bbc448e755d29e4e795033b655b92c", "rental_uris": {"android": "https://dc.lft.to/lastmile_qr_scan", "ios": "https://dc.lft.to/lastmile_qr_scan"}, "lat": 38.906836, "bike_id": "00bbc448e755d29e4e795033b655b92c", "is_disabled": 0, "lon": -77.0269315, "is_reserved": 0, "fusion_lat": 0.0, "type": "electric_scooter"}, {"fusion_lon": 0.0, "name": "f0bfa7318a6e083ba48fd1133cf244e5", "rental_uris": {"android": "https://dc.lft.to/lastmile_qr_scan", "ios": "https://dc.lft.to/lastmile_qr_scan"}, "lat": 38.93048816666666, "bike_id": "f0bfa7318a6e083ba48fd1133cf244e5", "is_disabled": 0, "lon": -76.958351, "is_reserved": 0, "fusion_lat": 0.0, "type": "electric_scooter"}, {"fusion_lon": 0.0, "name": "441001db46f9553e535afef444fcdeb1", "rental_uris": {"android": "https://dc.lft.to/lastmile_qr_scan", "ios": "https://dc.lft.to/lastmile_qr_scan"}, "lat": 38.95547083333334, "bike_id": "441001db46f9553e535afef444fcdeb1", "is_disabled": 0, "lon": -77.0693225, "is_reserved": 0, "fusion_lat": 0.0, "type": "electric_bike"}, {"fusion_lon": 0.0, "name": "292df8e565baca4792c5c5661e634d95", "rental_uris": {"android": "https://dc.lft.to/lastmile_qr_scan", "ios": "https://dc.lft.to/lastmile_qr_scan"}, "lat": 38.846744666666666, "bike_id": "292df8e565baca4792c5c5661e634d95", "is_disabled": 0, "lon": -77.13921983333333, "is_reserved": 0, "fusion_lat": 0.0, "type": "electric_bike"}, {"fusion_lon": 0.0, "name": "75c45e854c663cbfc3822aa146582fc3", "rental_uris": {"android": "https://dc.lft.to/lastmile_qr_scan", "ios": "https://dc.lft.to/lastmile_qr_scan"}, "lat": 38.896327666666664, "bike_id": "75c45e854c663cbfc3822aa146582fc3", "is_disabled": 0, "lon": -77.03999266666666, "is_reserved": 0, "fusion_lat": 0.0, "type": "electric_scooter"}, {"fusion_lon": 0.0, "name": "49b0e6ebf702b00f850055c55b454426", "rental_uris": {"android": "https://dc.lft.to/lastmile_qr_scan", "ios": "https://dc.lft.to/lastmile_qr_scan"}, "lat": 38.921507166666665, "bike_id": "49b0e6ebf702b00f850055c55b454426", "is_disabled": 0, "lon": -77.02108766666667, "is_reserved": 0, "fusion_lat": 0.0, "type": "electric_scooter"}, {"fusion_lon": 0.0, "name": "1e585b3235c5a5d93d3e2675ec3ff0d6", "rental_uris": {"android": "https://dc.lft.to/lastmile_qr_scan", "ios": "https://dc.lft.to/lastmile_qr_scan"}, "lat": 38.915698166666665, "bike_id": "1e585b3235c5a5d93d3e2675ec3ff0d6", "is_disabled": 0, "lon": -77.0227255, "is_reserved": 0, "fusion_lat": 0.0, "type": "electric_scooter"}, {"fusion_lon": 0.0, "name": "bdea1757b42b04f603e9ca8107ff6980", "rental_uris": {"android": "https://dc.lft.to/lastmile_qr_scan", "ios": "https://dc.lft.to/lastmile_qr_scan"}, "lat": 38.86487533333333, "bike_id": "bdea1757b42b04f603e9ca8107ff6980", "is_disabled": 0, "lon": -76.97745683333333, "is_reserved": 0, "fusion_lat": 0.0, "type": "electric_bike"}, {"fusion_lon": 0.0, "name": "46c9f95b8f04f15eec5e8164e9cb0a8c", "rental_uris": {"android": "https://dc.lft.to/lastmile_qr_scan", "ios": "https://dc.lft.to/lastmile_qr_scan"}, "lat": 38.892214, "bike_id": "46c9f95b8f04f15eec5e8164e9cb0a8c", "is_disabled": 0, "lon": -77.04507466666666, "is_reserved": 0, "fusion_lat": 0.0, "type": "electric_scooter"}, {"fusion_lon": 0.0, "name": "5eb10c52eb44b92ddcc63ebebe8d3dcb", "rental_uris": {"android": "https://dc.lft.to/lastmile_qr_scan", "ios": "https://dc.lft.to/lastmile_qr_scan"}, "lat": 38.901830833333335, "bike_id": "5eb10c52eb44b92ddcc63ebebe8d3dcb", "is_disabled": 0, "lon": -77.02405366666666, "is_reserved": 0, "fusion_lat": 0.0, "type": "electric_scooter"}, {"fusion_lon": 0.0, "name": "ece8aba898176c2051bc468d484bb51f", "rental_uris": {"android": "https://dc.lft.to/lastmile_qr_scan", "ios": "https://dc.lft.to/lastmile_qr_scan"}, "lat": 38.920628666666666, "bike_id": "ece8aba898176c2051bc468d484bb51f", "is_disabled": 0, "lon": -77.02294733333333, "is_reserved": 0, "fusion_lat": 0.0, "type": "electric_scooter"}, {"fusion_lon": 0.0, "name": "a6d4170cebbbefa70a21fc76b6c97cdc", "rental_uris": {"android": "https://dc.lft.to/lastmile_qr_scan", "ios": "https://dc.lft.to/lastmile_qr_scan"}, "lat": 38.9228925, "bike_id": "a6d4170cebbbefa70a21fc76b6c97cdc", "is_disabled": 0, "lon": -76.9976365, "is_reserved": 0, "fusion_lat": 0.0, "type": "electric_scooter"}, {"fusion_lon": 0.0, "name": "4d787487b1a475bcbb6ce3bd62b45e49", "rental_uris": {"android": "https://dc.lft.to/lastmile_qr_scan", "ios": "https://dc.lft.to/lastmile_qr_scan"}, "lat": 38.92719183333333, "bike_id": "4d787487b1a475bcbb6ce3bd62b45e49", "is_disabled": 0, "lon": -77.03553733333334, "is_reserved": 0, "fusion_lat": 0.0, "type": "electric_scooter"}, {"fusion_lon": 0.0, "name": "5aba15940df56fb29bad04ad8ae6cabe", "rental_uris": {"android": "https://dc.lft.to/lastmile_qr_scan", "ios": "https://dc.lft.to/lastmile_qr_scan"}, "lat": 38.88423933333333, "bike_id": "5aba15940df56fb29bad04ad8ae6cabe", "is_disabled": 0, "lon": -76.99697433333333, "is_reserved": 0, "fusion_lat": 0.0, "type": "electric_scooter"}, {"fusion_lon": 0.0, "name": "0f2d1e4d830187a1e7d6f691820f5d52", "rental_uris": {"android": "https://dc.lft.to/lastmile_qr_scan", "ios": "https://dc.lft.to/lastmile_qr_scan"}, "lat": 38.910988333333336, "bike_id": "0f2d1e4d830187a1e7d6f691820f5d52", "is_disabled": 0, "lon": -77.07348283333333, "is_reserved": 0, "fusion_lat": 0.0, "type": "electric_scooter"}, {"fusion_lon": 0.0, "name": "48f19ee31dd862b7521de769f582dae8", "rental_uris": {"android": "https://dc.lft.to/lastmile_qr_scan", "ios": "https://dc.lft.to/lastmile_qr_scan"}, "lat": 38.9518815, "bike_id": "48f19ee31dd862b7521de769f582dae8", "is_disabled": 0, "lon": -76.991748, "is_reserved": 0, "fusion_lat": 0.0, "type": "electric_scooter"}, {"fusion_lon": 0.0, "name": "7fb9aea527ded1b46897104d2e77c59c", "rental_uris": {"android": "https://dc.lft.to/lastmile_qr_scan", "ios": "https://dc.lft.to/lastmile_qr_scan"}, "lat": 38.895481833333335, "bike_id": "7fb9aea527ded1b46897104d2e77c59c", "is_disabled": 0, "lon": -77.00916533333333, "is_reserved": 0, "fusion_lat": 0.0, "type": "electric_scooter"}, {"fusion_lon": 0.0, "name": "9c31a9d2664d3cde713c91032aacbc07", "rental_uris": {"android": "https://dc.lft.to/lastmile_qr_scan", "ios": "https://dc.lft.to/lastmile_qr_scan"}, "lat": 38.94318716666667, "bike_id": "9c31a9d2664d3cde713c91032aacbc07", "is_disabled": 0, "lon": -77.06154933333333, "is_reserved": 0, "fusion_lat": 0.0, "type": "electric_scooter"}, {"fusion_lon": 0.0, "name": "605ce9b4ffcb171331ba00a0e5f4f8e5", "rental_uris": {"android": "https://dc.lft.to/lastmile_qr_scan", "ios": "https://dc.lft.to/lastmile_qr_scan"}, "lat": 38.935201666666664, "bike_id": "605ce9b4ffcb171331ba00a0e5f4f8e5", "is_disabled": 0, "lon": -77.0869995, "is_reserved": 0, "fusion_lat": 0.0, "type": "electric_scooter"}, {"fusion_lon": 0.0, "name": "6d2c1776924425dd2adfc21a831c40bc", "rental_uris": {"android": "https://dc.lft.to/lastmile_qr_scan", "ios": "https://dc.lft.to/lastmile_qr_scan"}, "lat": 38.89879116666667, "bike_id": "6d2c1776924425dd2adfc21a831c40bc", "is_disabled": 0, "lon": -76.98008933333334, "is_reserved": 0, "fusion_lat": 0.0, "type": "electric_scooter"}, {"fusion_lon": 0.0, "name": "c6cc50e32c16929c243b46b187847a30", "rental_uris": {"android": "https://dc.lft.to/lastmile_qr_scan", "ios": "https://dc.lft.to/lastmile_qr_scan"}, "lat": 38.937718, "bike_id": "c6cc50e32c16929c243b46b187847a30", "is_disabled": 0, "lon": -77.03245, "is_reserved": 0, "fusion_lat": 0.0, "type": "electric_scooter"}, {"fusion_lon": 0.0, "name": "a24041d2ab92480c18bc0dcdd1314ada", "rental_uris": {"android": "https://dc.lft.to/lastmile_qr_scan", "ios": "https://dc.lft.to/lastmile_qr_scan"}, "lat": 38.898582, "bike_id": "a24041d2ab92480c18bc0dcdd1314ada", "is_disabled": 0, "lon": -77.04375533333334, "is_reserved": 0, "fusion_lat": 0.0, "type": "electric_scooter"}, {"fusion_lon": 0.0, "name": "6a107a41da96f74e4a2e00e9e1912d75", "rental_uris": {"android": "https://dc.lft.to/lastmile_qr_scan", "ios": "https://dc.lft.to/lastmile_qr_scan"}, "lat": 38.92481433333333, "bike_id": "6a107a41da96f74e4a2e00e9e1912d75", "is_disabled": 0, "lon": -77.02243933333334, "is_reserved": 0, "fusion_lat": 0.0, "type": "electric_scooter"}, {"fusion_lon": 0.0, "name": "58d1753ef122e55baba8bd8bdcb1723a", "rental_uris": {"android": "https://dc.lft.to/lastmile_qr_scan", "ios": "https://dc.lft.to/lastmile_qr_scan"}, "lat": 38.902655, "bike_id": "58d1753ef122e55baba8bd8bdcb1723a", "is_disabled": 0, "lon": -77.03853166666667, "is_reserved": 0, "fusion_lat": 0.0, "type": "electric_scooter"}, {"fusion_lon": 0.0, "name": "4a3c69a624c8ba72de39dfb68e3d37b0", "rental_uris": {"android": "https://dc.lft.to/lastmile_qr_scan", "ios": "https://dc.lft.to/lastmile_qr_scan"}, "lat": 38.94168033333333, "bike_id": "4a3c69a624c8ba72de39dfb68e3d37b0", "is_disabled": 0, "lon": -77.02557566666667, "is_reserved": 0, "fusion_lat": 0.0, "type": "electric_scooter"}, {"fusion_lon": 0.0, "name": "05141ec9635030413a3a3497d3d08d2c", "rental_uris": {"android": "https://dc.lft.to/lastmile_qr_scan", "ios": "https://dc.lft.to/lastmile_qr_scan"}, "lat": 38.9207235, "bike_id": "05141ec9635030413a3a3497d3d08d2c", "is_disabled": 0, "lon": -77.03462366666666, "is_reserved": 0, "fusion_lat": 0.0, "type": "electric_scooter"}, {"fusion_lon": 0.0, "name": "d90984dbf81f828673e0ad032748beb9", "rental_uris": {"android": "https://dc.lft.to/lastmile_qr_scan", "ios": "https://dc.lft.to/lastmile_qr_scan"}, "lat": 38.888726, "bike_id": "d90984dbf81f828673e0ad032748beb9", "is_disabled": 0, "lon": -76.99033716666666, "is_reserved": 0, "fusion_lat": 0.0, "type": "electric_scooter"}, {"fusion_lon": 0.0, "name": "4577ce6d0f7ee3acf993409f8950a65a", "rental_uris": {"android": "https://dc.lft.to/lastmile_qr_scan", "ios": "https://dc.lft.to/lastmile_qr_scan"}, "lat": 38.93457683333333, "bike_id": "4577ce6d0f7ee3acf993409f8950a65a", "is_disabled": 0, "lon": -77.03512483333333, "is_reserved": 0, "fusion_lat": 0.0, "type": "electric_scooter"}, {"fusion_lon": 0.0, "name": "136228bee5334bdc9a75fc04a05f487b", "rental_uris": {"android": "https://dc.lft.to/lastmile_qr_scan", "ios": "https://dc.lft.to/lastmile_qr_scan"}, "lat": 38.90725233333333, "bike_id": "136228bee5334bdc9a75fc04a05f487b", "is_disabled": 0, "lon": -77.025578, "is_reserved": 0, "fusion_lat": 0.0, "type": "electric_scooter"}, {"fusion_lon": 0.0, "name": "be46ededc6e279dd8d7df93e785f0c55", "rental_uris": {"android": "https://dc.lft.to/lastmile_qr_scan", "ios": "https://dc.lft.to/lastmile_qr_scan"}, "lat": 38.93719216666667, "bike_id": "be46ededc6e279dd8d7df93e785f0c55", "is_disabled": 0, "lon": -77.03287, "is_reserved": 0, "fusion_lat": 0.0, "type": "electric_scooter"}, {"fusion_lon": 0.0, "name": "445095e4f3e3731f4883861454884f56", "rental_uris": {"android": "https://dc.lft.to/lastmile_qr_scan", "ios": "https://dc.lft.to/lastmile_qr_scan"}, "lat": 38.903267, "bike_id": "445095e4f3e3731f4883861454884f56", "is_disabled": 0, "lon": -77.03872716666666, "is_reserved": 0, "fusion_lat": 0.0, "type": "electric_scooter"}, {"fusion_lon": 0.0, "name": "8c76521cc92cebd46e70afc33c7174ea", "rental_uris": {"android": "https://dc.lft.to/lastmile_qr_scan", "ios": "https://dc.lft.to/lastmile_qr_scan"}, "lat": 38.91823466666666, "bike_id": "8c76521cc92cebd46e70afc33c7174ea", "is_disabled": 0, "lon": -77.04174066666667, "is_reserved": 0, "fusion_lat": 0.0, "type": "electric_scooter"}, {"fusion_lon": 0.0, "name": "f62571a22eaec4944c2797ded38413b9", "rental_uris": {"android": "https://dc.lft.to/lastmile_qr_scan", "ios": "https://dc.lft.to/lastmile_qr_scan"}, "lat": 38.91421533333333, "bike_id": "f62571a22eaec4944c2797ded38413b9", "is_disabled": 0, "lon": -77.0450025, "is_reserved": 0, "fusion_lat": 0.0, "type": "electric_scooter"}, {"fusion_lon": 0.0, "name": "9f61f601661075ec27e1048cc9132747", "rental_uris": {"android": "https://dc.lft.to/lastmile_qr_scan", "ios": "https://dc.lft.to/lastmile_qr_scan"}, "lat": 38.87910183333334, "bike_id": "9f61f601661075ec27e1048cc9132747", "is_disabled": 0, "lon": -77.00601766666666, "is_reserved": 0, "fusion_lat": 0.0, "type": "electric_scooter"}, {"fusion_lon": 0.0, "name": "13c6098ddc39db46644eb4a0e4ded424", "rental_uris": {"android": "https://dc.lft.to/lastmile_qr_scan", "ios": "https://dc.lft.to/lastmile_qr_scan"}, "lat": 38.88503266666667, "bike_id": "13c6098ddc39db46644eb4a0e4ded424", "is_disabled": 0, "lon": -77.02177816666666, "is_reserved": 0, "fusion_lat": 0.0, "type": "electric_scooter"}, {"fusion_lon": 0.0, "name": "2f7cd92d27c249e17e39f627f813e44c", "rental_uris": {"android": "https://dc.lft.to/lastmile_qr_scan", "ios": "https://dc.lft.to/lastmile_qr_scan"}, "lat": 38.8360925, "bike_id": "2f7cd92d27c249e17e39f627f813e44c", "is_disabled": 0, "lon": -77.00383166666667, "is_reserved": 0, "fusion_lat": 0.0, "type": "electric_bike"}, {"fusion_lon": 0.0, "name": "98ce4b4eda3b9ed7303815930388f25f", "rental_uris": {"android": "https://dc.lft.to/lastmile_qr_scan", "ios": "https://dc.lft.to/lastmile_qr_scan"}, "lat": 38.90291833333333, "bike_id": "98ce4b4eda3b9ed7303815930388f25f", "is_disabled": 0, "lon": -77.03473166666667, "is_reserved": 0, "fusion_lat": 0.0, "type": "electric_scooter"}, {"fusion_lon": 0.0, "name": "5436db052324d900674fe1b783eb997d", "rental_uris": {"android": "https://dc.lft.to/lastmile_qr_scan", "ios": "https://dc.lft.to/lastmile_qr_scan"}, "lat": 38.90155516666667, "bike_id": "5436db052324d900674fe1b783eb997d", "is_disabled": 0, "lon": -77.053336, "is_reserved": 0, "fusion_lat": 0.0, "type": "electric_scooter"}, {"fusion_lon": 0.0, "name": "e1d683d0a858ad6b2f679e649e5edd58", "rental_uris": {"android": "https://dc.lft.to/lastmile_qr_scan", "ios": "https://dc.lft.to/lastmile_qr_scan"}, "lat": 38.91510233333333, "bike_id": "e1d683d0a858ad6b2f679e649e5edd58", "is_disabled": 0, "lon": -77.0320785, "is_reserved": 0, "fusion_lat": 0.0, "type": "electric_scooter"}, {"fusion_lon": 0.0, "name": "8ba0bba0b25b1721be8be38272a1cba5", "rental_uris": {"android": "https://dc.lft.to/lastmile_qr_scan", "ios": "https://dc.lft.to/lastmile_qr_scan"}, "lat": 38.90018716666667, "bike_id": "8ba0bba0b25b1721be8be38272a1cba5", "is_disabled": 0, "lon": -77.04125383333333, "is_reserved": 0, "fusion_lat": 0.0, "type": "electric_scooter"}, {"fusion_lon": 0.0, "name": "36c132bf56d0615dddbb27b80af001af", "rental_uris": {"android": "https://dc.lft.to/lastmile_qr_scan", "ios": "https://dc.lft.to/lastmile_qr_scan"}, "lat": 38.90156133333333, "bike_id": "36c132bf56d0615dddbb27b80af001af", "is_disabled": 0, "lon": -76.97425633333333, "is_reserved": 0, "fusion_lat": 0.0, "type": "electric_scooter"}, {"fusion_lon": 0.0, "name": "cce717e1c4f39963650f73b86d814379", "rental_uris": {"android": "https://dc.lft.to/lastmile_qr_scan", "ios": "https://dc.lft.to/lastmile_qr_scan"}, "lat": 38.917418833333336, "bike_id": "cce717e1c4f39963650f73b86d814379", "is_disabled": 0, "lon": -77.02116183333334, "is_reserved": 0, "fusion_lat": 0.0, "type": "electric_scooter"}, {"fusion_lon": 0.0, "name": "f221e0f9d6e45009f92226bcdca4fbe2", "rental_uris": {"android": "https://dc.lft.to/lastmile_qr_scan", "ios": "https://dc.lft.to/lastmile_qr_scan"}, "lat": 38.920878, "bike_id": "f221e0f9d6e45009f92226bcdca4fbe2", "is_disabled": 0, "lon": -77.0230085, "is_reserved": 0, "fusion_lat": 0.0, "type": "electric_scooter"}, {"fusion_lon": 0.0, "name": "bdf540d56071c4d3324e2f7e6aca769c", "rental_uris": {"android": "https://dc.lft.to/lastmile_qr_scan", "ios": "https://dc.lft.to/lastmile_qr_scan"}, "lat": 38.901383333333335, "bike_id": "bdf540d56071c4d3324e2f7e6aca769c", "is_disabled": 0, "lon": -77.05006283333333, "is_reserved": 0, "fusion_lat": 0.0, "type": "electric_scooter"}, {"fusion_lon": 0.0, "name": "033083614eed5a2ecbc86a4386c06d98", "rental_uris": {"android": "https://dc.lft.to/lastmile_qr_scan", "ios": "https://dc.lft.to/lastmile_qr_scan"}, "lat": 38.918568, "bike_id": "033083614eed5a2ecbc86a4386c06d98", "is_disabled": 0, "lon": -76.96087433333334, "is_reserved": 0, "fusion_lat": 0.0, "type": "electric_bike"}, {"fusion_lon": 0.0, "name": "265805f938dada52a66ac3912a63121e", "rental_uris": {"android": "https://dc.lft.to/lastmile_qr_scan", "ios": "https://dc.lft.to/lastmile_qr_scan"}, "lat": 38.917531, "bike_id": "265805f938dada52a66ac3912a63121e", "is_disabled": 0, "lon": -77.02810566666666, "is_reserved": 0, "fusion_lat": 0.0, "type": "electric_scooter"}, {"fusion_lon": 0.0, "name": "8bac32d8241ce8d2ad26026d62665053", "rental_uris": {"android": "https://dc.lft.to/lastmile_qr_scan", "ios": "https://dc.lft.to/lastmile_qr_scan"}, "lat": 38.89579616666666, "bike_id": "8bac32d8241ce8d2ad26026d62665053", "is_disabled": 0, "lon": -77.04143966666666, "is_reserved": 0, "fusion_lat": 0.0, "type": "electric_scooter"}, {"fusion_lon": 0.0, "name": "e8783622a738e7345c5300c892fecef3", "rental_uris": {"android": "https://dc.lft.to/lastmile_qr_scan", "ios": "https://dc.lft.to/lastmile_qr_scan"}, "lat": 38.9015615, "bike_id": "e8783622a738e7345c5300c892fecef3", "is_disabled": 0, "lon": -77.04056183333333, "is_reserved": 0, "fusion_lat": 0.0, "type": "electric_scooter"}, {"fusion_lon": 0.0, "name": "c9fff9495e3320723a2ea855ef4eeca3", "rental_uris": {"android": "https://dc.lft.to/lastmile_qr_scan", "ios": "https://dc.lft.to/lastmile_qr_scan"}, "lat": 38.92669316666667, "bike_id": "c9fff9495e3320723a2ea855ef4eeca3", "is_disabled": 0, "lon": -77.01500666666666, "is_reserved": 0, "fusion_lat": 0.0, "type": "electric_scooter"}, {"fusion_lon": 0.0, "name": "68855e0b210e4b60433629a8fa670368", "rental_uris": {"android": "https://dc.lft.to/lastmile_qr_scan", "ios": "https://dc.lft.to/lastmile_qr_scan"}, "lat": 38.926430333333336, "bike_id": "68855e0b210e4b60433629a8fa670368", "is_disabled": 0, "lon": -77.025037, "is_reserved": 0, "fusion_lat": 0.0, "type": "electric_scooter"}, {"fusion_lon": 0.0, "name": "f7d2f36b75b00c171afd2ffcfe9807a0", "rental_uris": {"android": "https://dc.lft.to/lastmile_qr_scan", "ios": "https://dc.lft.to/lastmile_qr_scan"}, "lat": 38.91540583333333, "bike_id": "f7d2f36b75b00c171afd2ffcfe9807a0", "is_disabled": 0, "lon": -77.0447625, "is_reserved": 0, "fusion_lat": 0.0, "type": "electric_scooter"}, {"fusion_lon": 0.0, "name": "b2cb917e050bb8682d9a43cbfc417a36", "rental_uris": {"android": "https://dc.lft.to/lastmile_qr_scan", "ios": "https://dc.lft.to/lastmile_qr_scan"}, "lat": 38.930313, "bike_id": "b2cb917e050bb8682d9a43cbfc417a36", "is_disabled": 0, "lon": -77.01295283333333, "is_reserved": 0, "fusion_lat": 0.0, "type": "electric_scooter"}, {"fusion_lon": 0.0, "name": "9d1e2fb537b804fd77bdc27d29ade2fd", "rental_uris": {"android": "https://dc.lft.to/lastmile_qr_scan", "ios": "https://dc.lft.to/lastmile_qr_scan"}, "lat": 38.904297, "bike_id": "9d1e2fb537b804fd77bdc27d29ade2fd", "is_disabled": 0, "lon": -77.05330916666666, "is_reserved": 0, "fusion_lat": 0.0, "type": "electric_scooter"}, {"fusion_lon": 0.0, "name": "7aa977f7f9c8a9340444a81805eaf8e9", "rental_uris": {"android": "https://dc.lft.to/lastmile_qr_scan", "ios": "https://dc.lft.to/lastmile_qr_scan"}, "lat": 38.93041216666667, "bike_id": "7aa977f7f9c8a9340444a81805eaf8e9", "is_disabled": 0, "lon": -77.02961633333334, "is_reserved": 0, "fusion_lat": 0.0, "type": "electric_scooter"}, {"fusion_lon": 0.0, "name": "c4a8aac88766f4f703c264e78f259e61", "rental_uris": {"android": "https://dc.lft.to/lastmile_qr_scan", "ios": "https://dc.lft.to/lastmile_qr_scan"}, "lat": 38.905941166666665, "bike_id": "c4a8aac88766f4f703c264e78f259e61", "is_disabled": 0, "lon": -77.040588, "is_reserved": 0, "fusion_lat": 0.0, "type": "electric_scooter"}, {"fusion_lon": 0.0, "name": "6a31ba2fa635dac9324d208b6cb89ad2", "rental_uris": {"android": "https://dc.lft.to/lastmile_qr_scan", "ios": "https://dc.lft.to/lastmile_qr_scan"}, "lat": 38.900351666666666, "bike_id": "6a31ba2fa635dac9324d208b6cb89ad2", "is_disabled": 0, "lon": -77.04097983333334, "is_reserved": 0, "fusion_lat": 0.0, "type": "electric_scooter"}, {"fusion_lon": 0.0, "name": "14ec2f7fc2efa659142767a3a8684a66", "rental_uris": {"android": "https://dc.lft.to/lastmile_qr_scan", "ios": "https://dc.lft.to/lastmile_qr_scan"}, "lat": 38.926024166666664, "bike_id": "14ec2f7fc2efa659142767a3a8684a66", "is_disabled": 0, "lon": -77.02153816666667, "is_reserved": 0, "fusion_lat": 0.0, "type": "electric_scooter"}, {"fusion_lon": 0.0, "name": "d6e1ca631a696d7637fd0ad41318e3d9", "rental_uris": {"android": "https://dc.lft.to/lastmile_qr_scan", "ios": "https://dc.lft.to/lastmile_qr_scan"}, "lat": 38.9368415, "bike_id": "d6e1ca631a696d7637fd0ad41318e3d9", "is_disabled": 0, "lon": -77.05994616666666, "is_reserved": 0, "fusion_lat": 0.0, "type": "electric_scooter"}, {"fusion_lon": 0.0, "name": "4699293d394b2527e98330ba04ac3081", "rental_uris": {"android": "https://dc.lft.to/lastmile_qr_scan", "ios": "https://dc.lft.to/lastmile_qr_scan"}, "lat": 38.929663166666664, "bike_id": "4699293d394b2527e98330ba04ac3081", "is_disabled": 0, "lon": -77.04200166666666, "is_reserved": 0, "fusion_lat": 0.0, "type": "electric_scooter"}, {"fusion_lon": 0.0, "name": "4ee4501640c3d05b23e5e29984538bef", "rental_uris": {"android": "https://dc.lft.to/lastmile_qr_scan", "ios": "https://dc.lft.to/lastmile_qr_scan"}, "lat": 38.901631, "bike_id": "4ee4501640c3d05b23e5e29984538bef", "is_disabled": 0, "lon": -77.03178483333333, "is_reserved": 0, "fusion_lat": 0.0, "type": "electric_scooter"}, {"fusion_lon": 0.0, "name": "b7ffc63471439862fa3e53ae394f29e7", "rental_uris": {"android": "https://dc.lft.to/lastmile_qr_scan", "ios": "https://dc.lft.to/lastmile_qr_scan"}, "lat": 39.0843085, "bike_id": "b7ffc63471439862fa3e53ae394f29e7", "is_disabled": 0, "lon": -76.95147016666667, "is_reserved": 0, "fusion_lat": 0.0, "type": "electric_bike"}, {"fusion_lon": 0.0, "name": "ef24306cbd3cf6a9a01c03cade2f600a", "rental_uris": {"android": "https://dc.lft.to/lastmile_qr_scan", "ios": "https://dc.lft.to/lastmile_qr_scan"}, "lat": 38.94544233333333, "bike_id": "ef24306cbd3cf6a9a01c03cade2f600a", "is_disabled": 0, "lon": -77.34458866666667, "is_reserved": 0, "fusion_lat": 0.0, "type": "electric_bike"}, {"fusion_lon": 0.0, "name": "74d292af9ec6a4b4f8be5f504b470be3", "rental_uris": {"android": "https://dc.lft.to/lastmile_qr_scan", "ios": "https://dc.lft.to/lastmile_qr_scan"}, "lat": 38.91862183333333, "bike_id": "74d292af9ec6a4b4f8be5f504b470be3", "is_disabled": 0, "lon": -77.025313, "is_reserved": 0, "fusion_lat": 0.0, "type": "electric_scooter"}, {"fusion_lon": 0.0, "name": "b96db326d827f21aa15235677e4bd6bc", "rental_uris": {"android": "https://dc.lft.to/lastmile_qr_scan", "ios": "https://dc.lft.to/lastmile_qr_scan"}, "lat": 38.90262716666667, "bike_id": "b96db326d827f21aa15235677e4bd6bc", "is_disabled": 0, "lon": -77.046107, "is_reserved": 0, "fusion_lat": 0.0, "type": "electric_scooter"}, {"fusion_lon": 0.0, "name": "e363c0acfe09dc25e3862315cb847aa1", "rental_uris": {"android": "https://dc.lft.to/lastmile_qr_scan", "ios": "https://dc.lft.to/lastmile_qr_scan"}, "lat": 38.919222500000004, "bike_id": "e363c0acfe09dc25e3862315cb847aa1", "is_disabled": 0, "lon": -77.0099535, "is_reserved": 0, "fusion_lat": 0.0, "type": "electric_scooter"}, {"fusion_lon": 0.0, "name": "3e1f42ab73f111abeb626453e6a44899", "rental_uris": {"android": "https://dc.lft.to/lastmile_qr_scan", "ios": "https://dc.lft.to/lastmile_qr_scan"}, "lat": 38.931262, "bike_id": "3e1f42ab73f111abeb626453e6a44899", "is_disabled": 0, "lon": -77.03605333333333, "is_reserved": 0, "fusion_lat": 0.0, "type": "electric_scooter"}, {"fusion_lon": 0.0, "name": "9d74955cfc84eb78ffda5f533f81615c", "rental_uris": {"android": "https://dc.lft.to/lastmile_qr_scan", "ios": "https://dc.lft.to/lastmile_qr_scan"}, "lat": 38.92454516666667, "bike_id": "9d74955cfc84eb78ffda5f533f81615c", "is_disabled": 0, "lon": -77.02159333333333, "is_reserved": 0, "fusion_lat": 0.0, "type": "electric_scooter"}, {"fusion_lon": 0.0, "name": "5629f3869139f0e4e6714cc00867714b", "rental_uris": {"android": "https://dc.lft.to/lastmile_qr_scan", "ios": "https://dc.lft.to/lastmile_qr_scan"}, "lat": 38.90027366666666, "bike_id": "5629f3869139f0e4e6714cc00867714b", "is_disabled": 0, "lon": -77.03338916666667, "is_reserved": 0, "fusion_lat": 0.0, "type": "electric_scooter"}, {"fusion_lon": 0.0, "name": "417941e54a7d47b62bba6b760602e7e1", "rental_uris": {"android": "https://dc.lft.to/lastmile_qr_scan", "ios": "https://dc.lft.to/lastmile_qr_scan"}, "lat": 38.8926805, "bike_id": "417941e54a7d47b62bba6b760602e7e1", "is_disabled": 0, "lon": -77.04207383333333, "is_reserved": 0, "fusion_lat": 0.0, "type": "electric_scooter"}, {"fusion_lon": 0.0, "name": "413ed0341e357cb3dce049a6623dd82b", "rental_uris": {"android": "https://dc.lft.to/lastmile_qr_scan", "ios": "https://dc.lft.to/lastmile_qr_scan"}, "lat": 38.90530783333333, "bike_id": "413ed0341e357cb3dce049a6623dd82b", "is_disabled": 0, "lon": -77.06533933333333, "is_reserved": 0, "fusion_lat": 0.0, "type": "electric_scooter"}, {"fusion_lon": 0.0, "name": "a049632cc1bc758469d4c5ceef8b7382", "rental_uris": {"android": "https://dc.lft.to/lastmile_qr_scan", "ios": "https://dc.lft.to/lastmile_qr_scan"}, "lat": 38.92223583333333, "bike_id": "a049632cc1bc758469d4c5ceef8b7382", "is_disabled": 0, "lon": -77.024181, "is_reserved": 0, "fusion_lat": 0.0, "type": "electric_scooter"}, {"fusion_lon": 0.0, "name": "a5f2d6851a6c943bcb1bc5e39d106ec2", "rental_uris": {"android": "https://dc.lft.to/lastmile_qr_scan", "ios": "https://dc.lft.to/lastmile_qr_scan"}, "lat": 38.918397666666664, "bike_id": "a5f2d6851a6c943bcb1bc5e39d106ec2", "is_disabled": 0, "lon": -77.03195216666667, "is_reserved": 0, "fusion_lat": 0.0, "type": "electric_scooter"}, {"fusion_lon": 0.0, "name": "64bce8fcfb1fdd735212155ade5e3619", "rental_uris": {"android": "https://dc.lft.to/lastmile_qr_scan", "ios": "https://dc.lft.to/lastmile_qr_scan"}, "lat": 38.886635166666665, "bike_id": "64bce8fcfb1fdd735212155ade5e3619", "is_disabled": 0, "lon": -76.936725, "is_reserved": 0, "fusion_lat": 0.0, "type": "electric_scooter"}, {"fusion_lon": 0.0, "name": "2646cf3852d9866b052c0753f5050e75", "rental_uris": {"android": "https://dc.lft.to/lastmile_qr_scan", "ios": "https://dc.lft.to/lastmile_qr_scan"}, "lat": 38.919907333333335, "bike_id": "2646cf3852d9866b052c0753f5050e75", "is_disabled": 0, "lon": -77.02377883333334, "is_reserved": 0, "fusion_lat": 0.0, "type": "electric_scooter"}, {"fusion_lon": 0.0, "name": "0146ad671a5400b1e77919135d94e60e", "rental_uris": {"android": "https://dc.lft.to/lastmile_qr_scan", "ios": "https://dc.lft.to/lastmile_qr_scan"}, "lat": 38.93019266666667, "bike_id": "0146ad671a5400b1e77919135d94e60e", "is_disabled": 0, "lon": -77.0618795, "is_reserved": 0, "fusion_lat": 0.0, "type": "electric_scooter"}, {"fusion_lon": 0.0, "name": "cda306ae766869c7b63ecb218f8f2109", "rental_uris": {"android": "https://dc.lft.to/lastmile_qr_scan", "ios": "https://dc.lft.to/lastmile_qr_scan"}, "lat": 38.89751366666667, "bike_id": "cda306ae766869c7b63ecb218f8f2109", "is_disabled": 0, "lon": -76.97692633333334, "is_reserved": 0, "fusion_lat": 0.0, "type": "electric_scooter"}, {"fusion_lon": 0.0, "name": "d7602d709ac05b2b0fdbc4ce263533a3", "rental_uris": {"android": "https://dc.lft.to/lastmile_qr_scan", "ios": "https://dc.lft.to/lastmile_qr_scan"}, "lat": 38.90143283333333, "bike_id": "d7602d709ac05b2b0fdbc4ce263533a3", "is_disabled": 0, "lon": -76.9916265, "is_reserved": 0, "fusion_lat": 0.0, "type": "electric_scooter"}, {"fusion_lon": 0.0, "name": "0173ebff67d5457d486d0afba8dfd891", "rental_uris": {"android": "https://dc.lft.to/lastmile_qr_scan", "ios": "https://dc.lft.to/lastmile_qr_scan"}, "lat": 38.884015, "bike_id": "0173ebff67d5457d486d0afba8dfd891", "is_disabled": 0, "lon": -76.996244, "is_reserved": 0, "fusion_lat": 0.0, "type": "electric_scooter"}, {"fusion_lon": 0.0, "name": "a28f39de5bbe39fd6b8076d6cecc6c04", "rental_uris": {"android": "https://dc.lft.to/lastmile_qr_scan", "ios": "https://dc.lft.to/lastmile_qr_scan"}, "lat": 38.90153566666667, "bike_id": "a28f39de5bbe39fd6b8076d6cecc6c04", "is_disabled": 0, "lon": -76.974208, "is_reserved": 0, "fusion_lat": 0.0, "type": "electric_scooter"}, {"fusion_lon": 0.0, "name": "66deb7d81886657f366370c480c15b89", "rental_uris": {"android": "https://dc.lft.to/lastmile_qr_scan", "ios": "https://dc.lft.to/lastmile_qr_scan"}, "lat": 38.9088515, "bike_id": "66deb7d81886657f366370c480c15b89", "is_disabled": 0, "lon": -77.0229275, "is_reserved": 0, "fusion_lat": 0.0, "type": "electric_scooter"}, {"fusion_lon": 0.0, "name": "8f4db182e39f906a29a59a9bc8198694", "rental_uris": {"android": "https://dc.lft.to/lastmile_qr_scan", "ios": "https://dc.lft.to/lastmile_qr_scan"}, "lat": 38.90263316666667, "bike_id": "8f4db182e39f906a29a59a9bc8198694", "is_disabled": 0, "lon": -77.03262883333333, "is_reserved": 0, "fusion_lat": 0.0, "type": "electric_scooter"}, {"fusion_lon": 0.0, "name": "c756ea99f52a2b6eeb4ec3d3e95ec47c", "rental_uris": {"android": "https://dc.lft.to/lastmile_qr_scan", "ios": "https://dc.lft.to/lastmile_qr_scan"}, "lat": 38.915328, "bike_id": "c756ea99f52a2b6eeb4ec3d3e95ec47c", "is_disabled": 0, "lon": -77.044688, "is_reserved": 0, "fusion_lat": 0.0, "type": "electric_scooter"}, {"fusion_lon": 0.0, "name": "c68ea4842550fe0976bada4a3f5f3e51", "rental_uris": {"android": "https://dc.lft.to/lastmile_qr_scan", "ios": "https://dc.lft.to/lastmile_qr_scan"}, "lat": 38.960296, "bike_id": "c68ea4842550fe0976bada4a3f5f3e51", "is_disabled": 0, "lon": -77.03326116666666, "is_reserved": 0, "fusion_lat": 0.0, "type": "electric_scooter"}, {"fusion_lon": 0.0, "name": "ba7515aaec4247315284bcaa84cde152", "rental_uris": {"android": "https://dc.lft.to/lastmile_qr_scan", "ios": "https://dc.lft.to/lastmile_qr_scan"}, "lat": 38.878791666666665, "bike_id": "ba7515aaec4247315284bcaa84cde152", "is_disabled": 0, "lon": -77.01622216666667, "is_reserved": 0, "fusion_lat": 0.0, "type": "electric_scooter"}, {"fusion_lon": 0.0, "name": "1cd7f5906e108c6953828843d7b6c6a2", "rental_uris": {"android": "https://dc.lft.to/lastmile_qr_scan", "ios": "https://dc.lft.to/lastmile_qr_scan"}, "lat": 38.91485333333333, "bike_id": "1cd7f5906e108c6953828843d7b6c6a2", "is_disabled": 0, "lon": -77.01888466666666, "is_reserved": 0, "fusion_lat": 0.0, "type": "electric_scooter"}, {"fusion_lon": 0.0, "name": "06cdf328b071548dabe6e3097432e231", "rental_uris": {"android": "https://dc.lft.to/lastmile_qr_scan", "ios": "https://dc.lft.to/lastmile_qr_scan"}, "lat": 38.9340415, "bike_id": "06cdf328b071548dabe6e3097432e231", "is_disabled": 0, "lon": -77.03821416666666, "is_reserved": 0, "fusion_lat": 0.0, "type": "electric_scooter"}, {"fusion_lon": 0.0, "name": "ba2198c9abe31aa166af3679ed355107", "rental_uris": {"android": "https://dc.lft.to/lastmile_qr_scan", "ios": "https://dc.lft.to/lastmile_qr_scan"}, "lat": 38.906158833333336, "bike_id": "ba2198c9abe31aa166af3679ed355107", "is_disabled": 0, "lon": -77.039694, "is_reserved": 0, "fusion_lat": 0.0, "type": "electric_scooter"}, {"fusion_lon": 0.0, "name": "df9979245c586837adbba76b5e2b4ea8", "rental_uris": {"android": "https://dc.lft.to/lastmile_qr_scan", "ios": "https://dc.lft.to/lastmile_qr_scan"}, "lat": 38.95894916666666, "bike_id": "df9979245c586837adbba76b5e2b4ea8", "is_disabled": 0, "lon": -76.970519, "is_reserved": 0, "fusion_lat": 0.0, "type": "electric_bike"}, {"fusion_lon": 0.0, "name": "479cd1c5a89c6b86bbc2634bb3de4957", "rental_uris": {"android": "https://dc.lft.to/lastmile_qr_scan", "ios": "https://dc.lft.to/lastmile_qr_scan"}, "lat": 38.876656, "bike_id": "479cd1c5a89c6b86bbc2634bb3de4957", "is_disabled": 0, "lon": -77.011658, "is_reserved": 0, "fusion_lat": 0.0, "type": "electric_scooter"}, {"fusion_lon": 0.0, "name": "ec0bd4d2a96a31f9fc5b052c99f273bc", "rental_uris": {"android": "https://dc.lft.to/lastmile_qr_scan", "ios": "https://dc.lft.to/lastmile_qr_scan"}, "lat": 38.90180866666667, "bike_id": "ec0bd4d2a96a31f9fc5b052c99f273bc", "is_disabled": 0, "lon": -77.024045, "is_reserved": 0, "fusion_lat": 0.0, "type": "electric_scooter"}, {"fusion_lon": 0.0, "name": "55d5465534044a7a1163307c83fa4193", "rental_uris": {"android": "https://dc.lft.to/lastmile_qr_scan", "ios": "https://dc.lft.to/lastmile_qr_scan"}, "lat": 38.8991285, "bike_id": "55d5465534044a7a1163307c83fa4193", "is_disabled": 0, "lon": -77.03289533333333, "is_reserved": 0, "fusion_lat": 0.0, "type": "electric_scooter"}, {"fusion_lon": 0.0, "name": "f4a623a1e07871caf1256d4aeaa43763", "rental_uris": {"android": "https://dc.lft.to/lastmile_qr_scan", "ios": "https://dc.lft.to/lastmile_qr_scan"}, "lat": 38.928168166666666, "bike_id": "f4a623a1e07871caf1256d4aeaa43763", "is_disabled": 0, "lon": -77.03144416666666, "is_reserved": 0, "fusion_lat": 0.0, "type": "electric_scooter"}, {"fusion_lon": 0.0, "name": "68150667a1798af55788f591e47af623", "rental_uris": {"android": "https://dc.lft.to/lastmile_qr_scan", "ios": "https://dc.lft.to/lastmile_qr_scan"}, "lat": 38.90373916666667, "bike_id": "68150667a1798af55788f591e47af623", "is_disabled": 0, "lon": -77.03709616666667, "is_reserved": 0, "fusion_lat": 0.0, "type": "electric_scooter"}, {"fusion_lon": 0.0, "name": "63cf5bb8ab5bd46f180d484b035d91b8", "rental_uris": {"android": "https://dc.lft.to/lastmile_qr_scan", "ios": "https://dc.lft.to/lastmile_qr_scan"}, "lat": 38.94263983333333, "bike_id": "63cf5bb8ab5bd46f180d484b035d91b8", "is_disabled": 0, "lon": -76.99074033333333, "is_reserved": 0, "fusion_lat": 0.0, "type": "electric_bike"}, {"fusion_lon": 0.0, "name": "b80e4e63ab7782f540825a8a35765f10", "rental_uris": {"android": "https://dc.lft.to/lastmile_qr_scan", "ios": "https://dc.lft.to/lastmile_qr_scan"}, "lat": 38.91699916666666, "bike_id": "b80e4e63ab7782f540825a8a35765f10", "is_disabled": 0, "lon": -77.042232, "is_reserved": 0, "fusion_lat": 0.0, "type": "electric_scooter"}, {"fusion_lon": 0.0, "name": "a82044615565df918309dd846fed1fce", "rental_uris": {"android": "https://dc.lft.to/lastmile_qr_scan", "ios": "https://dc.lft.to/lastmile_qr_scan"}, "lat": 38.9013945, "bike_id": "a82044615565df918309dd846fed1fce", "is_disabled": 0, "lon": -76.99799833333333, "is_reserved": 0, "fusion_lat": 0.0, "type": "electric_scooter"}, {"fusion_lon": 0.0, "name": "88acd095e6cf99447966f87a3102d746", "rental_uris": {"android": "https://dc.lft.to/lastmile_qr_scan", "ios": "https://dc.lft.to/lastmile_qr_scan"}, "lat": 38.916720166666664, "bike_id": "88acd095e6cf99447966f87a3102d746", "is_disabled": 0, "lon": -77.04616666666666, "is_reserved": 0, "fusion_lat": 0.0, "type": "electric_scooter"}, {"fusion_lon": 0.0, "name": "767c0cb500a5bc6865b3e8ca8e0dc95b", "rental_uris": {"android": "https://dc.lft.to/lastmile_qr_scan", "ios": "https://dc.lft.to/lastmile_qr_scan"}, "lat": 38.906425, "bike_id": "767c0cb500a5bc6865b3e8ca8e0dc95b", "is_disabled": 0, "lon": -77.04176983333333, "is_reserved": 0, "fusion_lat": 0.0, "type": "electric_scooter"}, {"fusion_lon": 0.0, "name": "42e5a4d4f11cd044959c897d22c92a5e", "rental_uris": {"android": "https://dc.lft.to/lastmile_qr_scan", "ios": "https://dc.lft.to/lastmile_qr_scan"}, "lat": 38.90670266666667, "bike_id": "42e5a4d4f11cd044959c897d22c92a5e", "is_disabled": 0, "lon": -77.02807466666667, "is_reserved": 0, "fusion_lat": 0.0, "type": "electric_scooter"}, {"fusion_lon": 0.0, "name": "3867cfd984deccff7d3e2b10ded094dd", "rental_uris": {"android": "https://dc.lft.to/lastmile_qr_scan", "ios": "https://dc.lft.to/lastmile_qr_scan"}, "lat": 38.806858, "bike_id": "3867cfd984deccff7d3e2b10ded094dd", "is_disabled": 0, "lon": -77.13380716666667, "is_reserved": 0, "fusion_lat": 0.0, "type": "electric_bike"}, {"fusion_lon": 0.0, "name": "f73bfbaff0e6cb4fe0285352adb71e43", "rental_uris": {"android": "https://dc.lft.to/lastmile_qr_scan", "ios": "https://dc.lft.to/lastmile_qr_scan"}, "lat": 38.843577333333336, "bike_id": "f73bfbaff0e6cb4fe0285352adb71e43", "is_disabled": 0, "lon": -76.97655533333334, "is_reserved": 0, "fusion_lat": 0.0, "type": "electric_scooter"}, {"fusion_lon": 0.0, "name": "597b8b9c41013ed9199d3f14ff59aab5", "rental_uris": {"android": "https://dc.lft.to/lastmile_qr_scan", "ios": "https://dc.lft.to/lastmile_qr_scan"}, "lat": 38.964073666666664, "bike_id": "597b8b9c41013ed9199d3f14ff59aab5", "is_disabled": 0, "lon": -77.02763666666667, "is_reserved": 0, "fusion_lat": 0.0, "type": "electric_scooter"}, {"fusion_lon": 0.0, "name": "7c1a9fcd30fc26a9c632434db08c09c4", "rental_uris": {"android": "https://dc.lft.to/lastmile_qr_scan", "ios": "https://dc.lft.to/lastmile_qr_scan"}, "lat": 38.934633, "bike_id": "7c1a9fcd30fc26a9c632434db08c09c4", "is_disabled": 0, "lon": -77.05805683333334, "is_reserved": 0, "fusion_lat": 0.0, "type": "electric_scooter"}, {"fusion_lon": 0.0, "name": "593fc187d7548a2fad41faeafb1a982f", "rental_uris": {"android": "https://dc.lft.to/lastmile_qr_scan", "ios": "https://dc.lft.to/lastmile_qr_scan"}, "lat": 38.898248, "bike_id": "593fc187d7548a2fad41faeafb1a982f", "is_disabled": 0, "lon": -76.9465295, "is_reserved": 0, "fusion_lat": 0.0, "type": "electric_scooter"}, {"fusion_lon": 0.0, "name": "66abd789abe73d08bacf7709a4738d4a", "rental_uris": {"android": "https://dc.lft.to/lastmile_qr_scan", "ios": "https://dc.lft.to/lastmile_qr_scan"}, "lat": 38.884865, "bike_id": "66abd789abe73d08bacf7709a4738d4a", "is_disabled": 0, "lon": -77.01530783333334, "is_reserved": 0, "fusion_lat": 0.0, "type": "electric_scooter"}, {"fusion_lon": 0.0, "name": "10ddb76b0abeaa1d3344337fb38cc22e", "rental_uris": {"android": "https://dc.lft.to/lastmile_qr_scan", "ios": "https://dc.lft.to/lastmile_qr_scan"}, "lat": 38.927945333333334, "bike_id": "10ddb76b0abeaa1d3344337fb38cc22e", "is_disabled": 0, "lon": -77.02176166666666, "is_reserved": 0, "fusion_lat": 0.0, "type": "electric_bike"}, {"fusion_lon": 0.0, "name": "4efef42b32444c38d8b476416e6234fb", "rental_uris": {"android": "https://dc.lft.to/lastmile_qr_scan", "ios": "https://dc.lft.to/lastmile_qr_scan"}, "lat": 38.9056445, "bike_id": "4efef42b32444c38d8b476416e6234fb", "is_disabled": 0, "lon": -76.98208616666666, "is_reserved": 0, "fusion_lat": 0.0, "type": "electric_scooter"}, {"fusion_lon": 0.0, "name": "66e8b6d44860201d9af20601f7834345", "rental_uris": {"android": "https://dc.lft.to/lastmile_qr_scan", "ios": "https://dc.lft.to/lastmile_qr_scan"}, "lat": 38.90182183333334, "bike_id": "66e8b6d44860201d9af20601f7834345", "is_disabled": 0, "lon": -77.0240415, "is_reserved": 0, "fusion_lat": 0.0, "type": "electric_scooter"}, {"fusion_lon": 0.0, "name": "567b2ccb6c9a461a59c4ecfd77bdcb31", "rental_uris": {"android": "https://dc.lft.to/lastmile_qr_scan", "ios": "https://dc.lft.to/lastmile_qr_scan"}, "lat": 38.897612333333335, "bike_id": "567b2ccb6c9a461a59c4ecfd77bdcb31", "is_disabled": 0, "lon": -77.02687733333333, "is_reserved": 0, "fusion_lat": 0.0, "type": "electric_scooter"}, {"fusion_lon": 0.0, "name": "08af29aeb1e16d144c37dcf02acfdfb8", "rental_uris": {"android": "https://dc.lft.to/lastmile_qr_scan", "ios": "https://dc.lft.to/lastmile_qr_scan"}, "lat": 38.89714416666666, "bike_id": "08af29aeb1e16d144c37dcf02acfdfb8", "is_disabled": 0, "lon": -77.0450175, "is_reserved": 0, "fusion_lat": 0.0, "type": "electric_scooter"}, {"fusion_lon": 0.0, "name": "ec0724d9ca038155cc8211e68e5759bc", "rental_uris": {"android": "https://dc.lft.to/lastmile_qr_scan", "ios": "https://dc.lft.to/lastmile_qr_scan"}, "lat": 38.877858833333335, "bike_id": "ec0724d9ca038155cc8211e68e5759bc", "is_disabled": 0, "lon": -76.99405966666667, "is_reserved": 0, "fusion_lat": 0.0, "type": "electric_scooter"}, {"fusion_lon": 0.0, "name": "d294af1ff4cf2a5240e06ece7e1d7a2e", "rental_uris": {"android": "https://dc.lft.to/lastmile_qr_scan", "ios": "https://dc.lft.to/lastmile_qr_scan"}, "lat": 38.929298333333335, "bike_id": "d294af1ff4cf2a5240e06ece7e1d7a2e", "is_disabled": 0, "lon": -77.00673216666667, "is_reserved": 0, "fusion_lat": 0.0, "type": "electric_scooter"}, {"fusion_lon": 0.0, "name": "dbaecffae48614ff650335385581b90a", "rental_uris": {"android": "https://dc.lft.to/lastmile_qr_scan", "ios": "https://dc.lft.to/lastmile_qr_scan"}, "lat": 38.8849595, "bike_id": "dbaecffae48614ff650335385581b90a", "is_disabled": 0, "lon": -77.0072845, "is_reserved": 0, "fusion_lat": 0.0, "type": "electric_scooter"}, {"fusion_lon": 0.0, "name": "a50de70de73f5d08769ce149d7cc992b", "rental_uris": {"android": "https://dc.lft.to/lastmile_qr_scan", "ios": "https://dc.lft.to/lastmile_qr_scan"}, "lat": 38.88709016666667, "bike_id": "a50de70de73f5d08769ce149d7cc992b", "is_disabled": 0, "lon": -77.0136465, "is_reserved": 0, "fusion_lat": 0.0, "type": "electric_scooter"}, {"fusion_lon": 0.0, "name": "353a11ca381bf6e6ca3946734dd6ac4d", "rental_uris": {"android": "https://dc.lft.to/lastmile_qr_scan", "ios": "https://dc.lft.to/lastmile_qr_scan"}, "lat": 38.907271, "bike_id": "353a11ca381bf6e6ca3946734dd6ac4d", "is_disabled": 0, "lon": -77.04004366666666, "is_reserved": 0, "fusion_lat": 0.0, "type": "electric_scooter"}, {"fusion_lon": 0.0, "name": "38cf2d762e847f7e491295880daab4ef", "rental_uris": {"android": "https://dc.lft.to/lastmile_qr_scan", "ios": "https://dc.lft.to/lastmile_qr_scan"}, "lat": 38.92671133333333, "bike_id": "38cf2d762e847f7e491295880daab4ef", "is_disabled": 0, "lon": -77.030908, "is_reserved": 0, "fusion_lat": 0.0, "type": "electric_scooter"}, {"fusion_lon": 0.0, "name": "9891b928f76a65facfc67cff471148e7", "rental_uris": {"android": "https://dc.lft.to/lastmile_qr_scan", "ios": "https://dc.lft.to/lastmile_qr_scan"}, "lat": 38.92544266666667, "bike_id": "9891b928f76a65facfc67cff471148e7", "is_disabled": 0, "lon": -77.029785, "is_reserved": 0, "fusion_lat": 0.0, "type": "electric_scooter"}, {"fusion_lon": 0.0, "name": "d986d223c68c5380a99e902aaf043e87", "rental_uris": {"android": "https://dc.lft.to/lastmile_qr_scan", "ios": "https://dc.lft.to/lastmile_qr_scan"}, "lat": 38.8850375, "bike_id": "d986d223c68c5380a99e902aaf043e87", "is_disabled": 0, "lon": -77.02178066666667, "is_reserved": 0, "fusion_lat": 0.0, "type": "electric_scooter"}, {"fusion_lon": 0.0, "name": "c0798d392d1d587805e4b7113fb6b146", "rental_uris": {"android": "https://dc.lft.to/lastmile_qr_scan", "ios": "https://dc.lft.to/lastmile_qr_scan"}, "lat": 38.928982833333336, "bike_id": "c0798d392d1d587805e4b7113fb6b146", "is_disabled": 0, "lon": -77.03273133333333, "is_reserved": 0, "fusion_lat": 0.0, "type": "electric_scooter"}, {"fusion_lon": 0.0, "name": "3ec7988127ea55ac751d3868fadda0a2", "rental_uris": {"android": "https://dc.lft.to/lastmile_qr_scan", "ios": "https://dc.lft.to/lastmile_qr_scan"}, "lat": 38.93064283333333, "bike_id": "3ec7988127ea55ac751d3868fadda0a2", "is_disabled": 0, "lon": -77.02787483333333, "is_reserved": 0, "fusion_lat": 0.0, "type": "electric_scooter"}, {"fusion_lon": 0.0, "name": "098aa98eb107fc7427fd8c32c75c5eb5", "rental_uris": {"android": "https://dc.lft.to/lastmile_qr_scan", "ios": "https://dc.lft.to/lastmile_qr_scan"}, "lat": 38.91121616666667, "bike_id": "098aa98eb107fc7427fd8c32c75c5eb5", "is_disabled": 0, "lon": -77.03832316666667, "is_reserved": 0, "fusion_lat": 0.0, "type": "electric_scooter"}, {"fusion_lon": 0.0, "name": "55120b5e497849d5fc3bc50dc7e48a1f", "rental_uris": {"android": "https://dc.lft.to/lastmile_qr_scan", "ios": "https://dc.lft.to/lastmile_qr_scan"}, "lat": 38.921029833333336, "bike_id": "55120b5e497849d5fc3bc50dc7e48a1f", "is_disabled": 0, "lon": -77.004423, "is_reserved": 0, "fusion_lat": 0.0, "type": "electric_scooter"}, {"fusion_lon": 0.0, "name": "e575cd5a177396ad0465b9c2b6b26692", "rental_uris": {"android": "https://dc.lft.to/lastmile_qr_scan", "ios": "https://dc.lft.to/lastmile_qr_scan"}, "lat": 38.91177833333333, "bike_id": "e575cd5a177396ad0465b9c2b6b26692", "is_disabled": 0, "lon": -77.03207633333334, "is_reserved": 0, "fusion_lat": 0.0, "type": "electric_scooter"}, {"fusion_lon": 0.0, "name": "c552453f3bcbe81c4ec02ec66c681f8b", "rental_uris": {"android": "https://dc.lft.to/lastmile_qr_scan", "ios": "https://dc.lft.to/lastmile_qr_scan"}, "lat": 38.91418383333333, "bike_id": "c552453f3bcbe81c4ec02ec66c681f8b", "is_disabled": 0, "lon": -77.0282905, "is_reserved": 0, "fusion_lat": 0.0, "type": "electric_scooter"}, {"fusion_lon": 0.0, "name": "031eb6679763133875ffe1f6dc2aab64", "rental_uris": {"android": "https://dc.lft.to/lastmile_qr_scan", "ios": "https://dc.lft.to/lastmile_qr_scan"}, "lat": 38.894727, "bike_id": "031eb6679763133875ffe1f6dc2aab64", "is_disabled": 0, "lon": -77.02013083333334, "is_reserved": 0, "fusion_lat": 0.0, "type": "electric_scooter"}, {"fusion_lon": 0.0, "name": "9a13777ea5b8f0b1b2e747955a3c253e", "rental_uris": {"android": "https://dc.lft.to/lastmile_qr_scan", "ios": "https://dc.lft.to/lastmile_qr_scan"}, "lat": 38.89544583333333, "bike_id": "9a13777ea5b8f0b1b2e747955a3c253e", "is_disabled": 0, "lon": -77.01129483333334, "is_reserved": 0, "fusion_lat": 0.0, "type": "electric_scooter"}, {"fusion_lon": 0.0, "name": "ec50981b7807570d31c6161e6f38b2ae", "rental_uris": {"android": "https://dc.lft.to/lastmile_qr_scan", "ios": "https://dc.lft.to/lastmile_qr_scan"}, "lat": 38.91017933333333, "bike_id": "ec50981b7807570d31c6161e6f38b2ae", "is_disabled": 0, "lon": -77.04452433333333, "is_reserved": 0, "fusion_lat": 0.0, "type": "electric_scooter"}, {"fusion_lon": 0.0, "name": "263f35d7f83d3b577d2714febed27062", "rental_uris": {"android": "https://dc.lft.to/lastmile_qr_scan", "ios": "https://dc.lft.to/lastmile_qr_scan"}, "lat": 38.909472666666666, "bike_id": "263f35d7f83d3b577d2714febed27062", "is_disabled": 0, "lon": -77.0467235, "is_reserved": 0, "fusion_lat": 0.0, "type": "electric_scooter"}, {"fusion_lon": 0.0, "name": "28f65607c2977132abfbe93ad16d76e0", "rental_uris": {"android": "https://dc.lft.to/lastmile_qr_scan", "ios": "https://dc.lft.to/lastmile_qr_scan"}, "lat": 38.9096285, "bike_id": "28f65607c2977132abfbe93ad16d76e0", "is_disabled": 0, "lon": -77.07340233333333, "is_reserved": 0, "fusion_lat": 0.0, "type": "electric_scooter"}, {"fusion_lon": 0.0, "name": "72f24a0580f169a1e5441dd4e7a16ede", "rental_uris": {"android": "https://dc.lft.to/lastmile_qr_scan", "ios": "https://dc.lft.to/lastmile_qr_scan"}, "lat": 38.921518, "bike_id": "72f24a0580f169a1e5441dd4e7a16ede", "is_disabled": 0, "lon": -77.0351595, "is_reserved": 0, "fusion_lat": 0.0, "type": "electric_scooter"}, {"fusion_lon": 0.0, "name": "a1e0fbe6ccb93d222d17d670e80421cf", "rental_uris": {"android": "https://dc.lft.to/lastmile_qr_scan", "ios": "https://dc.lft.to/lastmile_qr_scan"}, "lat": 38.9418565, "bike_id": "a1e0fbe6ccb93d222d17d670e80421cf", "is_disabled": 0, "lon": -77.02486733333333, "is_reserved": 0, "fusion_lat": 0.0, "type": "electric_scooter"}, {"fusion_lon": 0.0, "name": "2f161ee11f4e825c28c04bbcd2641321", "rental_uris": {"android": "https://dc.lft.to/lastmile_qr_scan", "ios": "https://dc.lft.to/lastmile_qr_scan"}, "lat": 38.878461, "bike_id": "2f161ee11f4e825c28c04bbcd2641321", "is_disabled": 0, "lon": -77.01965216666666, "is_reserved": 0, "fusion_lat": 0.0, "type": "electric_scooter"}, {"fusion_lon": 0.0, "name": "c12d0d3afb8fd3f170e2719e4ecafae5", "rental_uris": {"android": "https://dc.lft.to/lastmile_qr_scan", "ios": "https://dc.lft.to/lastmile_qr_scan"}, "lat": 38.9064455, "bike_id": "c12d0d3afb8fd3f170e2719e4ecafae5", "is_disabled": 0, "lon": -77.01426433333333, "is_reserved": 0, "fusion_lat": 0.0, "type": "electric_scooter"}, {"fusion_lon": 0.0, "name": "5ea5987f1c9395b2aa32bb0d028df10c", "rental_uris": {"android": "https://dc.lft.to/lastmile_qr_scan", "ios": "https://dc.lft.to/lastmile_qr_scan"}, "lat": 38.9054935, "bike_id": "5ea5987f1c9395b2aa32bb0d028df10c", "is_disabled": 0, "lon": -77.047498, "is_reserved": 0, "fusion_lat": 0.0, "type": "electric_scooter"}, {"fusion_lon": 0.0, "name": "29cd459866243d71520c471128e79add", "rental_uris": {"android": "https://dc.lft.to/lastmile_qr_scan", "ios": "https://dc.lft.to/lastmile_qr_scan"}, "lat": 38.937443333333334, "bike_id": "29cd459866243d71520c471128e79add", "is_disabled": 0, "lon": -77.03264333333334, "is_reserved": 0, "fusion_lat": 0.0, "type": "electric_scooter"}, {"fusion_lon": 0.0, "name": "20f7566f8e60b1ef1843f7ffa9ca6599", "rental_uris": {"android": "https://dc.lft.to/lastmile_qr_scan", "ios": "https://dc.lft.to/lastmile_qr_scan"}, "lat": 38.89237683333333, "bike_id": "20f7566f8e60b1ef1843f7ffa9ca6599", "is_disabled": 0, "lon": -77.04875116666666, "is_reserved": 0, "fusion_lat": 0.0, "type": "electric_scooter"}, {"fusion_lon": 0.0, "name": "7f652fa556e99e380bd33ba00336afab", "rental_uris": {"android": "https://dc.lft.to/lastmile_qr_scan", "ios": "https://dc.lft.to/lastmile_qr_scan"}, "lat": 38.936960166666665, "bike_id": "7f652fa556e99e380bd33ba00336afab", "is_disabled": 0, "lon": -77.02712883333334, "is_reserved": 0, "fusion_lat": 0.0, "type": "electric_scooter"}, {"fusion_lon": 0.0, "name": "f2c3ac6b8be2b355da6d633be7918592", "rental_uris": {"android": "https://dc.lft.to/lastmile_qr_scan", "ios": "https://dc.lft.to/lastmile_qr_scan"}, "lat": 38.90182183333334, "bike_id": "f2c3ac6b8be2b355da6d633be7918592", "is_disabled": 0, "lon": -77.03665966666667, "is_reserved": 0, "fusion_lat": 0.0, "type": "electric_scooter"}, {"fusion_lon": 0.0, "name": "2a210c5790aafeb5bf27a3622a01191b", "rental_uris": {"android": "https://dc.lft.to/lastmile_qr_scan", "ios": "https://dc.lft.to/lastmile_qr_scan"}, "lat": 38.902659, "bike_id": "2a210c5790aafeb5bf27a3622a01191b", "is_disabled": 0, "lon": -77.030706, "is_reserved": 0, "fusion_lat": 0.0, "type": "electric_scooter"}, {"fusion_lon": 0.0, "name": "f5a130064b68182444e5a9f779039504", "rental_uris": {"android": "https://dc.lft.to/lastmile_qr_scan", "ios": "https://dc.lft.to/lastmile_qr_scan"}, "lat": 38.89358266666667, "bike_id": "f5a130064b68182444e5a9f779039504", "is_disabled": 0, "lon": -77.00333583333334, "is_reserved": 0, "fusion_lat": 0.0, "type": "electric_scooter"}, {"fusion_lon": 0.0, "name": "70ebf9c2d9d6d604283e389e06d39158", "rental_uris": {"android": "https://dc.lft.to/lastmile_qr_scan", "ios": "https://dc.lft.to/lastmile_qr_scan"}, "lat": 38.876614833333335, "bike_id": "70ebf9c2d9d6d604283e389e06d39158", "is_disabled": 0, "lon": -77.00391316666666, "is_reserved": 0, "fusion_lat": 0.0, "type": "electric_scooter"}, {"fusion_lon": 0.0, "name": "4f81e00fc51acbb39f33d7e13a20e83c", "rental_uris": {"android": "https://dc.lft.to/lastmile_qr_scan", "ios": "https://dc.lft.to/lastmile_qr_scan"}, "lat": 38.88588133333333, "bike_id": "4f81e00fc51acbb39f33d7e13a20e83c", "is_disabled": 0, "lon": -76.991484, "is_reserved": 0, "fusion_lat": 0.0, "type": "electric_bike"}, {"fusion_lon": 0.0, "name": "58dfa5ac85cb0abca17c76250c355846", "rental_uris": {"android": "https://dc.lft.to/lastmile_qr_scan", "ios": "https://dc.lft.to/lastmile_qr_scan"}, "lat": 39.025446, "bike_id": "58dfa5ac85cb0abca17c76250c355846", "is_disabled": 0, "lon": -77.04445433333333, "is_reserved": 0, "fusion_lat": 0.0, "type": "electric_bike"}, {"fusion_lon": 0.0, "name": "7462ea358ceabc53795141a50734ce69", "rental_uris": {"android": "https://dc.lft.to/lastmile_qr_scan", "ios": "https://dc.lft.to/lastmile_qr_scan"}, "lat": 38.89714333333333, "bike_id": "7462ea358ceabc53795141a50734ce69", "is_disabled": 0, "lon": -76.99119866666666, "is_reserved": 0, "fusion_lat": 0.0, "type": "electric_scooter"}, {"fusion_lon": 0.0, "name": "84e647303a610a128e1e04d9910fdf02", "rental_uris": {"android": "https://dc.lft.to/lastmile_qr_scan", "ios": "https://dc.lft.to/lastmile_qr_scan"}, "lat": 38.9989405, "bike_id": "84e647303a610a128e1e04d9910fdf02", "is_disabled": 0, "lon": -76.90858283333333, "is_reserved": 0, "fusion_lat": 0.0, "type": "electric_bike"}, {"fusion_lon": 0.0, "name": "0f844edae945313d5cdb5a3c4544a71d", "rental_uris": {"android": "https://dc.lft.to/lastmile_qr_scan", "ios": "https://dc.lft.to/lastmile_qr_scan"}, "lat": 38.87038033333333, "bike_id": "0f844edae945313d5cdb5a3c4544a71d", "is_disabled": 0, "lon": -77.22910866666666, "is_reserved": 0, "fusion_lat": 0.0, "type": "electric_bike"}, {"fusion_lon": 0.0, "name": "1364603651966423727fc9a8ec18f666", "rental_uris": {"android": "https://dc.lft.to/lastmile_qr_scan", "ios": "https://dc.lft.to/lastmile_qr_scan"}, "lat": 38.93536733333333, "bike_id": "1364603651966423727fc9a8ec18f666", "is_disabled": 0, "lon": -77.02304516666666, "is_reserved": 0, "fusion_lat": 0.0, "type": "electric_scooter"}, {"fusion_lon": 0.0, "name": "2f1bc8ab3996c5e03a3dea91c0f62faf", "rental_uris": {"android": "https://dc.lft.to/lastmile_qr_scan", "ios": "https://dc.lft.to/lastmile_qr_scan"}, "lat": 38.898297, "bike_id": "2f1bc8ab3996c5e03a3dea91c0f62faf", "is_disabled": 0, "lon": -77.00747333333334, "is_reserved": 0, "fusion_lat": 0.0, "type": "electric_scooter"}, {"fusion_lon": 0.0, "name": "e7514797b69b90f89cea979b96d3dd39", "rental_uris": {"android": "https://dc.lft.to/lastmile_qr_scan", "ios": "https://dc.lft.to/lastmile_qr_scan"}, "lat": 38.9033435, "bike_id": "e7514797b69b90f89cea979b96d3dd39", "is_disabled": 0, "lon": -76.975954, "is_reserved": 0, "fusion_lat": 0.0, "type": "electric_scooter"}, {"fusion_lon": 0.0, "name": "a8ce1c7d11e8684621d083d672dfabb5", "rental_uris": {"android": "https://dc.lft.to/lastmile_qr_scan", "ios": "https://dc.lft.to/lastmile_qr_scan"}, "lat": 38.904013666666664, "bike_id": "a8ce1c7d11e8684621d083d672dfabb5", "is_disabled": 0, "lon": -77.004305, "is_reserved": 0, "fusion_lat": 0.0, "type": "electric_scooter"}, {"fusion_lon": 0.0, "name": "942a17dc19750f4cb1dd9e216f274481", "rental_uris": {"android": "https://dc.lft.to/lastmile_qr_scan", "ios": "https://dc.lft.to/lastmile_qr_scan"}, "lat": 38.91677383333333, "bike_id": "942a17dc19750f4cb1dd9e216f274481", "is_disabled": 0, "lon": -77.02896483333333, "is_reserved": 0, "fusion_lat": 0.0, "type": "electric_scooter"}, {"fusion_lon": 0.0, "name": "016be7fdd71fd876a6e918591dc22068", "rental_uris": {"android": "https://dc.lft.to/lastmile_qr_scan", "ios": "https://dc.lft.to/lastmile_qr_scan"}, "lat": 38.950781166666665, "bike_id": "016be7fdd71fd876a6e918591dc22068", "is_disabled": 0, "lon": -77.02980683333334, "is_reserved": 0, "fusion_lat": 0.0, "type": "electric_scooter"}, {"fusion_lon": 0.0, "name": "edbbe94fa43a3508bdaf6b4c34bc62d7", "rental_uris": {"android": "https://dc.lft.to/lastmile_qr_scan", "ios": "https://dc.lft.to/lastmile_qr_scan"}, "lat": 38.900316833333335, "bike_id": "edbbe94fa43a3508bdaf6b4c34bc62d7", "is_disabled": 0, "lon": -76.986879, "is_reserved": 0, "fusion_lat": 0.0, "type": "electric_scooter"}, {"fusion_lon": 0.0, "name": "8bb6f5298dfa89559c603db9814ccecd", "rental_uris": {"android": "https://dc.lft.to/lastmile_qr_scan", "ios": "https://dc.lft.to/lastmile_qr_scan"}, "lat": 38.8543635, "bike_id": "8bb6f5298dfa89559c603db9814ccecd", "is_disabled": 0, "lon": -77.08317766666667, "is_reserved": 0, "fusion_lat": 0.0, "type": "electric_bike"}, {"fusion_lon": 0.0, "name": "f6182647f4901075a520bfe98269e0b3", "rental_uris": {"android": "https://dc.lft.to/lastmile_qr_scan", "ios": "https://dc.lft.to/lastmile_qr_scan"}, "lat": 38.926163833333334, "bike_id": "f6182647f4901075a520bfe98269e0b3", "is_disabled": 0, "lon": -77.02158366666667, "is_reserved": 0, "fusion_lat": 0.0, "type": "electric_scooter"}, {"fusion_lon": 0.0, "name": "099eed9be56a03e27b9fde7a4f6f48a9", "rental_uris": {"android": "https://dc.lft.to/lastmile_qr_scan", "ios": "https://dc.lft.to/lastmile_qr_scan"}, "lat": 38.94679, "bike_id": "099eed9be56a03e27b9fde7a4f6f48a9", "is_disabled": 0, "lon": -76.99327466666666, "is_reserved": 0, "fusion_lat": 0.0, "type": "electric_bike"}, {"fusion_lon": 0.0, "name": "022c4d692305d6a53d9afb36d487251b", "rental_uris": {"android": "https://dc.lft.to/lastmile_qr_scan", "ios": "https://dc.lft.to/lastmile_qr_scan"}, "lat": 38.926822666666666, "bike_id": "022c4d692305d6a53d9afb36d487251b", "is_disabled": 0, "lon": -76.99559966666666, "is_reserved": 0, "fusion_lat": 0.0, "type": "electric_scooter"}, {"fusion_lon": 0.0, "name": "1237539574d6103cab001f73f37c765a", "rental_uris": {"android": "https://dc.lft.to/lastmile_qr_scan", "ios": "https://dc.lft.to/lastmile_qr_scan"}, "lat": 38.85814033333333, "bike_id": "1237539574d6103cab001f73f37c765a", "is_disabled": 0, "lon": -76.98914316666666, "is_reserved": 0, "fusion_lat": 0.0, "type": "electric_scooter"}, {"fusion_lon": 0.0, "name": "9d74d9978df9dead6d586ac9f76b9349", "rental_uris": {"android": "https://dc.lft.to/lastmile_qr_scan", "ios": "https://dc.lft.to/lastmile_qr_scan"}, "lat": 38.900316, "bike_id": "9d74d9978df9dead6d586ac9f76b9349", "is_disabled": 0, "lon": -77.01200433333334, "is_reserved": 0, "fusion_lat": 0.0, "type": "electric_scooter"}, {"fusion_lon": 0.0, "name": "1c0aa610e173e34f4abd06ca56eeb901", "rental_uris": {"android": "https://dc.lft.to/lastmile_qr_scan", "ios": "https://dc.lft.to/lastmile_qr_scan"}, "lat": 38.915732, "bike_id": "1c0aa610e173e34f4abd06ca56eeb901", "is_disabled": 0, "lon": -77.050238, "is_reserved": 0, "fusion_lat": 0.0, "type": "electric_scooter"}, {"fusion_lon": 0.0, "name": "dc9e30d1f0a389b882c5f9720a7fa84c", "rental_uris": {"android": "https://dc.lft.to/lastmile_qr_scan", "ios": "https://dc.lft.to/lastmile_qr_scan"}, "lat": 38.90843533333334, "bike_id": "dc9e30d1f0a389b882c5f9720a7fa84c", "is_disabled": 0, "lon": -77.040144, "is_reserved": 0, "fusion_lat": 0.0, "type": "electric_scooter"}, {"fusion_lon": 0.0, "name": "ab12a3febf8b00b2767e2b0eaaf22b53", "rental_uris": {"android": "https://dc.lft.to/lastmile_qr_scan", "ios": "https://dc.lft.to/lastmile_qr_scan"}, "lat": 38.906037166666664, "bike_id": "ab12a3febf8b00b2767e2b0eaaf22b53", "is_disabled": 0, "lon": -77.12879966666667, "is_reserved": 0, "fusion_lat": 0.0, "type": "electric_bike"},