{"data": {"bikes": [{"type": "electric_scooter", "fusion_lon": 0.0, "name": "c72e6c01273d74aa258affa8a0224b24", "lon": -76.9980115, "fusion_lat": 0.0, "is_disabled": 0, "is_reserved": 0, "rental_uris": {"ios": "https://dc.lft.to/lastmile_qr_scan", "android": "https://dc.lft.to/lastmile_qr_scan"}, "bike_id": "c72e6c01273d74aa258affa8a0224b24", "lat": 38.90851133333334}, {"type": "electric_scooter", "fusion_lon": 0.0, "name": "9b3ac5a201d2ba193caccaea3436f3e2", "lon": -77.0245065, "fusion_lat": 0.0, "is_disabled": 0, "is_reserved": 0, "rental_uris": {"ios": "https://dc.lft.to/lastmile_qr_scan", "android": "https://dc.lft.to/lastmile_qr_scan"}, "bike_id": "9b3ac5a201d2ba193caccaea3436f3e2", "lat": 38.920527666666665}, {"type": "electric_bike", "fusion_lon": 0.0, "name": "5e191470132cbaf3fd221e2d31f4a9b1", "lon": -77.1092025, "fusion_lat": 0.0, "is_disabled": 0, "is_reserved": 0, "rental_uris": {"ios": "https://dc.lft.to/lastmile_qr_scan", "android": "https://dc.lft.to/lastmile_qr_scan"}, "bike_id": "5e191470132cbaf3fd221e2d31f4a9b1", "lat": 39.05203566666667}, {"type": "electric_scooter", "fusion_lon": 0.0, "name": "dca40c298620211d47099599cb310c51", "lon": -77.02316316666666, "fusion_lat": 0.0, "is_disabled": 0, "is_reserved": 0, "rental_uris": {"ios": "https://dc.lft.to/lastmile_qr_scan", "android": "https://dc.lft.to/lastmile_qr_scan"}, "bike_id": "dca40c298620211d47099599cb310c51", "lat": 38.9492405}, {"type": "electric_scooter", "fusion_lon": 0.0, "name": "3a0a04b67fc82d519c854a512b496901", "lon": -77.03400933333333, "fusion_lat": 0.0, "is_disabled": 0, "is_reserved": 0, "rental_uris": {"ios": "https://dc.lft.to/lastmile_qr_scan", "android": "https://dc.lft.to/lastmile_qr_scan"}, "bike_id": "3a0a04b67fc82d519c854a512b496901", "lat": 38.926441}, {"type": "electric_scooter", "fusion_lon": 0.0, "name": "bf4f3cf14fea6a2a237b9f16465a3585", "lon": -77.03713566666667, "fusion_lat": 0.0, "is_disabled": 0, "is_reserved": 0, "rental_uris": {"ios": "https://dc.lft.to/lastmile_qr_scan", "android": "https://dc.lft.to/lastmile_qr_scan"}, "bike_id": "bf4f3cf14fea6a2a237b9f16465a3585", "lat": 38.913346833333335}, {"type": "electric_scooter", "fusion_lon": 0.0, "name": "742baa3f9383e38bfd4b79c526d456a3", "lon": -76.949683, "fusion_lat": 0.0, "is_disabled": 0, "is_reserved": 0, "rental_uris": {"ios": "https://dc.lft.to/lastmile_qr_scan", "android": "https://dc.lft.to/lastmile_qr_scan"}, "bike_id": "742baa3f9383e38bfd4b79c526d456a3", "lat": 38.90491266666667}, {"type": "electric_scooter", "fusion_lon": 0.0, "name": "1f40d410c6d31dd024ceaa48b54add2b", "lon": -77.03179916666667, "fusion_lat": 0.0, "is_disabled": 0, "is_reserved": 0, "rental_uris": {"ios": "https://dc.lft.to/lastmile_qr_scan", "android": "https://dc.lft.to/lastmile_qr_scan"}, "bike_id": "1f40d410c6d31dd024ceaa48b54add2b", "lat": 38.915477833333334}, {"type": "electric_scooter", "fusion_lon": 0.0, "name": "779d909505f5c82923c4b9e783639718", "lon": -77.004117, "fusion_lat": 0.0, "is_disabled": 0, "is_reserved": 0, "rental_uris": {"ios": "https://dc.lft.to/lastmile_qr_scan", "android": "https://dc.lft.to/lastmile_qr_scan"}, "bike_id": "779d909505f5c82923c4b9e783639718", "lat": 38.876685333333334}, {"type": "electric_scooter", "fusion_lon": 0.0, "name": "5ecaeda5df1c575c67f8dab31f372b34", "lon": -76.94855816666667, "fusion_lat": 0.0, "is_disabled": 0, "is_reserved": 0, "rental_uris": {"ios": "https://dc.lft.to/lastmile_qr_scan", "android": "https://dc.lft.to/lastmile_qr_scan"}, "bike_id": "5ecaeda5df1c575c67f8dab31f372b34", "lat": 38.8668365}, {"type": "electric_scooter", "fusion_lon": 0.0, "name": "a9ea0700701e308f7bf7c4baf350c595", "lon": -77.02638416666667, "fusion_lat": 0.0, "is_disabled": 0, "is_reserved": 0, "rental_uris": {"ios": "https://dc.lft.to/lastmile_qr_scan", "android": "https://dc.lft.to/lastmile_qr_scan"}, "bike_id": "a9ea0700701e308f7bf7c4baf350c595", "lat": 38.88477666666667}, {"type": "electric_scooter", "fusion_lon": 0.0, "name": "186b17787c3d2c29f5d69e6512ba10b4", "lon": -76.9822905, "fusion_lat": 0.0, "is_disabled": 0, "is_reserved": 0, "rental_uris": {"ios": "https://dc.lft.to/lastmile_qr_scan", "android": "https://dc.lft.to/lastmile_qr_scan"}, "bike_id": "186b17787c3d2c29f5d69e6512ba10b4", "lat": 38.85633033333333}, {"type": "electric_scooter", "fusion_lon": 0.0, "name": "28ce4d5691f238a9d3460acc2db8d5a3", "lon": -77.03669933333333, "fusion_lat": 0.0, "is_disabled": 0, "is_reserved": 0, "rental_uris": {"ios": "https://dc.lft.to/lastmile_qr_scan", "android": "https://dc.lft.to/lastmile_qr_scan"}, "bike_id": "28ce4d5691f238a9d3460acc2db8d5a3", "lat": 38.921223833333336}, {"type": "electric_scooter", "fusion_lon": 0.0, "name": "69ee06ced34cba14c873ad6e0c29a03e", "lon": -77.04252983333333, "fusion_lat": 0.0, "is_disabled": 0, "is_reserved": 0, "rental_uris": {"ios": "https://dc.lft.to/lastmile_qr_scan", "android": "https://dc.lft.to/lastmile_qr_scan"}, "bike_id": "69ee06ced34cba14c873ad6e0c29a03e", "lat": 38.9076925}, {"type": "electric_scooter", "fusion_lon": 0.0, "name": "5bf286cdcb5a869211628c8772fdacce", "lon": -77.02366333333333, "fusion_lat": 0.0, "is_disabled": 0, "is_reserved": 0, "rental_uris": {"ios": "https://dc.lft.to/lastmile_qr_scan", "android": "https://dc.lft.to/lastmile_qr_scan"}, "bike_id": "5bf286cdcb5a869211628c8772fdacce", "lat": 38.89222216666667}, {"type": "electric_bike", "fusion_lon": 0.0, "name": "de11f0404cdfa64a2ff8d8beb868bf4a", "lon": -77.02402533333333, "fusion_lat": 0.0, "is_disabled": 0, "is_reserved": 0, "rental_uris": {"ios": "https://dc.lft.to/lastmile_qr_scan", "android": "https://dc.lft.to/lastmile_qr_scan"}, "bike_id": "de11f0404cdfa64a2ff8d8beb868bf4a", "lat": 38.9159835}, {"type": "electric_bike", "fusion_lon": 0.0, "name": "b7b8680f925eefa937ad01b5011c1a62", "lon": -77.05743316666667, "fusion_lat": 0.0, "is_disabled": 0, "is_reserved": 0, "rental_uris": {"ios": "https://dc.lft.to/lastmile_qr_scan", "android": "https://dc.lft.to/lastmile_qr_scan"}, "bike_id": "b7b8680f925eefa937ad01b5011c1a62", "lat": 38.80769016666667}, {"type": "electric_scooter", "fusion_lon": 0.0, "name": "4ea5140c9329db68f978b2b8ead088a4", "lon": -77.04012866666666, "fusion_lat": 0.0, "is_disabled": 0, "is_reserved": 0, "rental_uris": {"ios": "https://dc.lft.to/lastmile_qr_scan", "android": "https://dc.lft.to/lastmile_qr_scan"}, "bike_id": "4ea5140c9329db68f978b2b8ead088a4", "lat": 38.9015145}, {"type": "electric_scooter", "fusion_lon": 0.0, "name": "6fa3d63ffbe125aaece9d24832bf338e", "lon": -77.01489716666667, "fusion_lat": 0.0, "is_disabled": 0, "is_reserved": 0, "rental_uris": {"ios": "https://dc.lft.to/lastmile_qr_scan", "android": "https://dc.lft.to/lastmile_qr_scan"}, "bike_id": "6fa3d63ffbe125aaece9d24832bf338e", "lat": 38.974784}, {"type": "electric_scooter", "fusion_lon": 0.0, "name": "78cdb605b35c99eaf4008706e8284815", "lon": -77.04885316666666, "fusion_lat": 0.0, "is_disabled": 0, "is_reserved": 0, "rental_uris": {"ios": "https://dc.lft.to/lastmile_qr_scan", "android": "https://dc.lft.to/lastmile_qr_scan"}, "bike_id": "78cdb605b35c99eaf4008706e8284815", "lat": 38.9140315}, {"type": "electric_scooter", "fusion_lon": 0.0, "name": "d9a0b70662db97aae2145047786b7367", "lon": -77.02849466666666, "fusion_lat": 0.0, "is_disabled": 0, "is_reserved": 0, "rental_uris": {"ios": "https://dc.lft.to/lastmile_qr_scan", "android": "https://dc.lft.to/lastmile_qr_scan"}, "bike_id": "d9a0b70662db97aae2145047786b7367", "lat": 38.930646}, {"type": "electric_scooter", "fusion_lon": 0.0, "name": "0c6339e42bb91476d19e618ae8121d18", "lon": -76.9773445, "fusion_lat": 0.0, "is_disabled": 0, "is_reserved": 0, "rental_uris": {"ios": "https://dc.lft.to/lastmile_qr_scan", "android": "https://dc.lft.to/lastmile_qr_scan"}, "bike_id": "0c6339e42bb91476d19e618ae8121d18", "lat": 38.8951975}, {"type": "electric_scooter", "fusion_lon": 0.0, "name": "e1cfabfb9f91cbc2f480ddc692167041", "lon": -77.00507216666666, "fusion_lat": 0.0, "is_disabled": 0, "is_reserved": 0, "rental_uris": {"ios": "https://dc.lft.to/lastmile_qr_scan", "android": "https://dc.lft.to/lastmile_qr_scan"}, "bike_id": "e1cfabfb9f91cbc2f480ddc692167041", "lat": 38.912633}, {"type": "electric_scooter", "fusion_lon": 0.0, "name": "729f23aa9daf6e7d7c1cd1cc74006ef4", "lon": -77.03857633333334, "fusion_lat": 0.0, "is_disabled": 0, "is_reserved": 0, "rental_uris": {"ios": "https://dc.lft.to/lastmile_qr_scan", "android": "https://dc.lft.to/lastmile_qr_scan"}, "bike_id": "729f23aa9daf6e7d7c1cd1cc74006ef4", "lat": 38.91177416666667}, {"type": "electric_scooter", "fusion_lon": 0.0, "name": "d4d1cab867bd0d078298b27511dce369", "lon": -77.036442, "fusion_lat": 0.0, "is_disabled": 0, "is_reserved": 0, "rental_uris": {"ios": "https://dc.lft.to/lastmile_qr_scan", "android": "https://dc.lft.to/lastmile_qr_scan"}, "bike_id": "d4d1cab867bd0d078298b27511dce369", "lat": 38.918251833333336}, {"type": "electric_scooter", "fusion_lon": 0.0, "name": "047895f7b95ca74a68390129b480d04d", "lon": -77.02031316666667, "fusion_lat": 0.0, "is_disabled": 0, "is_reserved": 0, "rental_uris": {"ios": "https://dc.lft.to/lastmile_qr_scan", "android": "https://dc.lft.to/lastmile_qr_scan"}, "bike_id": "047895f7b95ca74a68390129b480d04d", "lat": 38.922049}, {"type": "electric_scooter", "fusion_lon": 0.0, "name": "4c98fc61fa0e023d08db85ac948261d1", "lon": -77.05058366666667, "fusion_lat": 0.0, "is_disabled": 0, "is_reserved": 0, "rental_uris": {"ios": "https://dc.lft.to/lastmile_qr_scan", "android": "https://dc.lft.to/lastmile_qr_scan"}, "bike_id": "4c98fc61fa0e023d08db85ac948261d1", "lat": 38.916220833333334}, {"type": "electric_scooter", "fusion_lon": 0.0, "name": "38b6455c20ca896bbd5daf5de1124633", "lon": -77.06304133333333, "fusion_lat": 0.0, "is_disabled": 0, "is_reserved": 0, "rental_uris": {"ios": "https://dc.lft.to/lastmile_qr_scan", "android": "https://dc.lft.to/lastmile_qr_scan"}, "bike_id": "38b6455c20ca896bbd5daf5de1124633", "lat": 38.906901833333336}, {"type": "electric_scooter", "fusion_lon": 0.0, "name": "9cdfdd458771dfbf6297eb21246471fb", "lon": -77.0386485, "fusion_lat": 0.0, "is_disabled": 0, "is_reserved": 0, "rental_uris": {"ios": "https://dc.lft.to/lastmile_qr_scan", "android": "https://dc.lft.to/lastmile_qr_scan"}, "bike_id": "9cdfdd458771dfbf6297eb21246471fb", "lat": 38.912585666666665}, {"type": "electric_scooter", "fusion_lon": 0.0, "name": "89a5f7a5385aa8aeb6d5807e1f6e8f39", "lon": -77.04504483333334, "fusion_lat": 0.0, "is_disabled": 0, "is_reserved": 0, "rental_uris": {"ios": "https://dc.lft.to/lastmile_qr_scan", "android": "https://dc.lft.to/lastmile_qr_scan"}, "bike_id": "89a5f7a5385aa8aeb6d5807e1f6e8f39", "lat": 38.909556}, {"type": "electric_scooter", "fusion_lon": 0.0, "name": "3de5045fef589cee9db96e752310d9aa", "lon": -77.012413, "fusion_lat": 0.0, "is_disabled": 0, "is_reserved": 0, "rental_uris": {"ios": "https://dc.lft.to/lastmile_qr_scan", "android": "https://dc.lft.to/lastmile_qr_scan"}, "bike_id": "3de5045fef589cee9db96e752310d9aa", "lat": 38.89846166666667}, {"type": "electric_scooter", "fusion_lon": 0.0, "name": "22b67c597ec392eb522d01d83ca71c75", "lon": -77.0111635, "fusion_lat": 0.0, "is_disabled": 0, "is_reserved": 0, "rental_uris": {"ios": "https://dc.lft.to/lastmile_qr_scan", "android": "https://dc.lft.to/lastmile_qr_scan"}, "bike_id": "22b67c597ec392eb522d01d83ca71c75", "lat": 38.895316666666666}, {"type": "electric_scooter", "fusion_lon": 0.0, "name": "3c0587a2162a1f418727ff6fadd0fd49", "lon": -77.036611, "fusion_lat": 0.0, "is_disabled": 0, "is_reserved": 0, "rental_uris": {"ios": "https://dc.lft.to/lastmile_qr_scan", "android": "https://dc.lft.to/lastmile_qr_scan"}, "bike_id": "3c0587a2162a1f418727ff6fadd0fd49", "lat": 38.918328}, {"type": "electric_bike", "fusion_lon": 0.0, "name": "1f069a829b7615468b9e97900007f70d", "lon": -77.23413183333334, "fusion_lat": 0.0, "is_disabled": 0, "is_reserved": 0, "rental_uris": {"ios": "https://dc.lft.to/lastmile_qr_scan", "android": "https://dc.lft.to/lastmile_qr_scan"}, "bike_id": "1f069a829b7615468b9e97900007f70d", "lat": 38.875811666666664}, {"type": "electric_scooter", "fusion_lon": 0.0, "name": "b4e8f73a7d066282ef0e45a112c4b5f2", "lon": -76.97970066666667, "fusion_lat": 0.0, "is_disabled": 0, "is_reserved": 0, "rental_uris": {"ios": "https://dc.lft.to/lastmile_qr_scan", "android": "https://dc.lft.to/lastmile_qr_scan"}, "bike_id": "b4e8f73a7d066282ef0e45a112c4b5f2", "lat": 38.8706935}, {"type": "electric_scooter", "fusion_lon": 0.0, "name": "350d1c76320e8d911b4276e634714e71", "lon": -77.04242416666666, "fusion_lat": 0.0, "is_disabled": 0, "is_reserved": 0, "rental_uris": {"ios": "https://dc.lft.to/lastmile_qr_scan", "android": "https://dc.lft.to/lastmile_qr_scan"}, "bike_id": "350d1c76320e8d911b4276e634714e71", "lat": 38.922428833333335}, {"type": "electric_scooter", "fusion_lon": 0.0, "name": "5a111a72a1d2e331b14c1f282ee5d4f1", "lon": -76.9272865, "fusion_lat": 0.0, "is_disabled": 0, "is_reserved": 0, "rental_uris": {"ios": "https://dc.lft.to/lastmile_qr_scan", "android": "https://dc.lft.to/lastmile_qr_scan"}, "bike_id": "5a111a72a1d2e331b14c1f282ee5d4f1", "lat": 38.88035633333333}, {"type": "electric_scooter", "fusion_lon": 0.0, "name": "a74f88d5a828a4794adcc98bf541fa63", "lon": -77.02202216666667, "fusion_lat": 0.0, "is_disabled": 0, "is_reserved": 0, "rental_uris": {"ios": "https://dc.lft.to/lastmile_qr_scan", "android": "https://dc.lft.to/lastmile_qr_scan"}, "bike_id": "a74f88d5a828a4794adcc98bf541fa63", "lat": 38.924688833333335}, {"type": "electric_scooter", "fusion_lon": 0.0, "name": "9e5d15e9e6bbae520dd10d3883cf4712", "lon": -77.0220245, "fusion_lat": 0.0, "is_disabled": 0, "is_reserved": 0, "rental_uris": {"ios": "https://dc.lft.to/lastmile_qr_scan", "android": "https://dc.lft.to/lastmile_qr_scan"}, "bike_id": "9e5d15e9e6bbae520dd10d3883cf4712", "lat": 38.9104905}, {"type": "electric_scooter", "fusion_lon": 0.0, "name": "6397348d7a2af9497ac7353a95e9b505", "lon": -77.000679, "fusion_lat": 0.0, "is_disabled": 0, "is_reserved": 0, "rental_uris": {"ios": "https://dc.lft.to/lastmile_qr_scan", "android": "https://dc.lft.to/lastmile_qr_scan"}, "bike_id": "6397348d7a2af9497ac7353a95e9b505", "lat": 38.876792}, {"type": "electric_scooter", "fusion_lon": 0.0, "name": "ec7bb83cfc925f4a49906f558769a828", "lon": -77.00070283333334, "fusion_lat": 0.0, "is_disabled": 0, "is_reserved": 0, "rental_uris": {"ios": "https://dc.lft.to/lastmile_qr_scan", "android": "https://dc.lft.to/lastmile_qr_scan"}, "bike_id": "ec7bb83cfc925f4a49906f558769a828", "lat": 38.92440533333333}, {"type": "electric_scooter", "fusion_lon": 0.0, "name": "62b9221d1e366eb7409674e47b74f09f", "lon": -77.02506, "fusion_lat": 0.0, "is_disabled": 0, "is_reserved": 0, "rental_uris": {"ios": "https://dc.lft.to/lastmile_qr_scan", "android": "https://dc.lft.to/lastmile_qr_scan"}, "bike_id": "62b9221d1e366eb7409674e47b74f09f", "lat": 38.91985716666667}, {"type": "electric_scooter", "fusion_lon": 0.0, "name": "1979dfb9aad100eb0f8803cf013c353a", "lon": -77.02238383333334, "fusion_lat": 0.0, "is_disabled": 0, "is_reserved": 0, "rental_uris": {"ios": "https://dc.lft.to/lastmile_qr_scan", "android": "https://dc.lft.to/lastmile_qr_scan"}, "bike_id": "1979dfb9aad100eb0f8803cf013c353a", "lat": 38.956855833333336}, {"type": "electric_bike", "fusion_lon": 0.0, "name": "454ef3558e435546c64aa73431600ad5", "lon": -77.06015283333333, "fusion_lat": 0.0, "is_disabled": 0, "is_reserved": 0, "rental_uris": {"ios": "https://dc.lft.to/lastmile_qr_scan", "android": "https://dc.lft.to/lastmile_qr_scan"}, "bike_id": "454ef3558e435546c64aa73431600ad5", "lat": 38.827722666666666}, {"type": "electric_scooter", "fusion_lon": 0.0, "name": "4c358d6687ef36db174a431c75f6cab0", "lon": -77.04180383333333, "fusion_lat": 0.0, "is_disabled": 0, "is_reserved": 0, "rental_uris": {"ios": "https://dc.lft.to/lastmile_qr_scan", "android": "https://dc.lft.to/lastmile_qr_scan"}, "bike_id": "4c358d6687ef36db174a431c75f6cab0", "lat": 38.90522416666667}, {"type": "electric_scooter", "fusion_lon": 0.0, "name": "fadc07a7dad5a780c830e60229d2815b", "lon": -77.028079, "fusion_lat": 0.0, "is_disabled": 0, "is_reserved": 0, "rental_uris": {"ios": "https://dc.lft.to/lastmile_qr_scan", "android": "https://dc.lft.to/lastmile_qr_scan"}, "bike_id": "fadc07a7dad5a780c830e60229d2815b", "lat": 38.89227066666667}, {"type": "electric_scooter", "fusion_lon": 0.0, "name": "bf985f27c1efbcf2e7771b9ed8f73113", "lon": -76.9899635, "fusion_lat": 0.0, "is_disabled": 0, "is_reserved": 0, "rental_uris": {"ios": "https://dc.lft.to/lastmile_qr_scan", "android": "https://dc.lft.to/lastmile_qr_scan"}, "bike_id": "bf985f27c1efbcf2e7771b9ed8f73113", "lat": 38.85815933333333}, {"type": "electric_scooter", "fusion_lon": 0.0, "name": "dd88690e519f0188b3e99507ac424a3e", "lon": -77.02685416666667, "fusion_lat": 0.0, "is_disabled": 0, "is_reserved": 0, "rental_uris": {"ios": "https://dc.lft.to/lastmile_qr_scan", "android": "https://dc.lft.to/lastmile_qr_scan"}, "bike_id": "dd88690e519f0188b3e99507ac424a3e", "lat": 38.92472933333333}, {"type": "electric_scooter", "fusion_lon": 0.0, "name": "974b71418fe0da64fe1b32a4d1a0ff26", "lon": -77.0675505, "fusion_lat": 0.0, "is_disabled": 0, "is_reserved": 0, "rental_uris": {"ios": "https://dc.lft.to/lastmile_qr_scan", "android": "https://dc.lft.to/lastmile_qr_scan"}, "bike_id": "974b71418fe0da64fe1b32a4d1a0ff26", "lat": 38.949679}, {"type": "electric_scooter", "fusion_lon": 0.0, "name": "52cbfd12ab4df69c2a94558d5810df6c", "lon": -76.98570933333333, "fusion_lat": 0.0, "is_disabled": 0, "is_reserved": 0, "rental_uris": {"ios": "https://dc.lft.to/lastmile_qr_scan", "android": "https://dc.lft.to/lastmile_qr_scan"}, "bike_id": "52cbfd12ab4df69c2a94558d5810df6c", "lat": 38.880250333333336}, {"type": "electric_scooter", "fusion_lon": 0.0, "name": "09c0e01b6ad27902b720af63dbbf2f9c", "lon": -77.02827716666667, "fusion_lat": 0.0, "is_disabled": 0, "is_reserved": 0, "rental_uris": {"ios": "https://dc.lft.to/lastmile_qr_scan", "android": "https://dc.lft.to/lastmile_qr_scan"}, "bike_id": "09c0e01b6ad27902b720af63dbbf2f9c", "lat": 38.908534}, {"type": "electric_scooter", "fusion_lon": 0.0, "name": "de8b0a879bd5bb46dab8b51dd6423787", "lon": -77.02400566666667, "fusion_lat": 0.0, "is_disabled": 0, "is_reserved": 0, "rental_uris": {"ios": "https://dc.lft.to/lastmile_qr_scan", "android": "https://dc.lft.to/lastmile_qr_scan"}, "bike_id": "de8b0a879bd5bb46dab8b51dd6423787", "lat": 38.95730566666667}, {"type": "electric_scooter", "fusion_lon": 0.0, "name": "6f73e2df612c3a2b726bfbf8d1dba7b8", "lon": -77.03505066666666, "fusion_lat": 0.0, "is_disabled": 0, "is_reserved": 0, "rental_uris": {"ios": "https://dc.lft.to/lastmile_qr_scan", "android": "https://dc.lft.to/lastmile_qr_scan"}, "bike_id": "6f73e2df612c3a2b726bfbf8d1dba7b8", "lat": 38.91698616666667}, {"type": "electric_bike", "fusion_lon": 0.0, "name": "696a4224f59fbce89164133a063de1a5", "lon": -77.03685866666666, "fusion_lat": 0.0, "is_disabled": 0, "is_reserved": 0, "rental_uris": {"ios": "https://dc.lft.to/lastmile_qr_scan", "android": "https://dc.lft.to/lastmile_qr_scan"}, "bike_id": "696a4224f59fbce89164133a063de1a5", "lat": 39.026462333333335}, {"type": "electric_scooter", "fusion_lon": 0.0, "name": "7385fa9e171a48ebee62a34295a5e8a9", "lon": -77.04047966666667, "fusion_lat": 0.0, "is_disabled": 0, "is_reserved": 0, "rental_uris": {"ios": "https://dc.lft.to/lastmile_qr_scan", "android": "https://dc.lft.to/lastmile_qr_scan"}, "bike_id": "7385fa9e171a48ebee62a34295a5e8a9", "lat": 38.930665166666664}, {"type": "electric_scooter", "fusion_lon": 0.0, "name": "812535e16d03b2c428ece2db0b8c534d", "lon": -77.0362395, "fusion_lat": 0.0, "is_disabled": 0, "is_reserved": 0, "rental_uris": {"ios": "https://dc.lft.to/lastmile_qr_scan", "android": "https://dc.lft.to/lastmile_qr_scan"}, "bike_id": "812535e16d03b2c428ece2db0b8c534d", "lat": 38.900295166666666}, {"type": "electric_scooter", "fusion_lon": 0.0, "name": "7a8d91d2abd0a077a0b339afbfe42216", "lon": -77.009154, "fusion_lat": 0.0, "is_disabled": 0, "is_reserved": 0, "rental_uris": {"ios": "https://dc.lft.to/lastmile_qr_scan", "android": "https://dc.lft.to/lastmile_qr_scan"}, "bike_id": "7a8d91d2abd0a077a0b339afbfe42216", "lat": 38.914794666666666}, {"type": "electric_scooter", "fusion_lon": 0.0, "name": "a6b04ffe9f45de144e5f1b66a3357fb7", "lon": -76.95189583333334, "fusion_lat": 0.0, "is_disabled": 0, "is_reserved": 0, "rental_uris": {"ios": "https://dc.lft.to/lastmile_qr_scan", "android": "https://dc.lft.to/lastmile_qr_scan"}, "bike_id": "a6b04ffe9f45de144e5f1b66a3357fb7", "lat": 38.90510166666667}, {"type": "electric_scooter", "fusion_lon": 0.0, "name": "08fb9de61825c3bca1471ce829c2b071", "lon": -77.00127916666666, "fusion_lat": 0.0, "is_disabled": 0, "is_reserved": 0, "rental_uris": {"ios": "https://dc.lft.to/lastmile_qr_scan", "android": "https://dc.lft.to/lastmile_qr_scan"}, "bike_id": "08fb9de61825c3bca1471ce829c2b071", "lat": 38.907556}, {"type": "electric_scooter", "fusion_lon": 0.0, "name": "fb72dc2cdbf365b37e72708be1e0cc91", "lon": -76.9956435, "fusion_lat": 0.0, "is_disabled": 0, "is_reserved": 0, "rental_uris": {"ios": "https://dc.lft.to/lastmile_qr_scan", "android": "https://dc.lft.to/lastmile_qr_scan"}, "bike_id": "fb72dc2cdbf365b37e72708be1e0cc91", "lat": 38.9251275}, {"type": "electric_scooter", "fusion_lon": 0.0, "name": "2ac6d9a764cc36d48455fd6cdc31f316", "lon": -77.0433635, "fusion_lat": 0.0, "is_disabled": 0, "is_reserved": 0, "rental_uris": {"ios": "https://dc.lft.to/lastmile_qr_scan", "android": "https://dc.lft.to/lastmile_qr_scan"}, "bike_id": "2ac6d9a764cc36d48455fd6cdc31f316", "lat": 38.89226216666667}, {"type": "electric_scooter", "fusion_lon": 0.0, "name": "2c00b4a8151a68249c6daaf8d9275750", "lon": -76.92632583333334, "fusion_lat": 0.0, "is_disabled": 0, "is_reserved": 0, "rental_uris": {"ios": "https://dc.lft.to/lastmile_qr_scan", "android": "https://dc.lft.to/lastmile_qr_scan"}, "bike_id": "2c00b4a8151a68249c6daaf8d9275750", "lat": 38.886252166666665}, {"type": "electric_scooter", "fusion_lon": 0.0, "name": "8fddf1ac1b1dd6cf0084a0274531c046", "lon": -77.05212233333333, "fusion_lat": 0.0, "is_disabled": 0, "is_reserved": 0, "rental_uris": {"ios": "https://dc.lft.to/lastmile_qr_scan", "android": "https://dc.lft.to/lastmile_qr_scan"}, "bike_id": "8fddf1ac1b1dd6cf0084a0274531c046", "lat": 38.9141855}, {"type": "electric_scooter", "fusion_lon": 0.0, "name": "0e51a0bc0726b3eddb524cd3066df7ff", "lon": -77.02690166666666, "fusion_lat": 0.0, "is_disabled": 0, "is_reserved": 0, "rental_uris": {"ios": "https://dc.lft.to/lastmile_qr_scan", "android": "https://dc.lft.to/lastmile_qr_scan"}, "bike_id": "0e51a0bc0726b3eddb524cd3066df7ff", "lat": 38.94331583333334}, {"type": "electric_scooter", "fusion_lon": 0.0, "name": "4cc806a0e77cd092ff26c23668b5f95d", "lon": -77.02714616666667, "fusion_lat": 0.0, "is_disabled": 0, "is_reserved": 0, "rental_uris": {"ios": "https://dc.lft.to/lastmile_qr_scan", "android": "https://dc.lft.to/lastmile_qr_scan"}, "bike_id": "4cc806a0e77cd092ff26c23668b5f95d", "lat": 38.899936}, {"type": "electric_scooter", "fusion_lon": 0.0, "name": "b9a466fed895e8d7ce86db8bdebb989a", "lon": -77.06048083333333, "fusion_lat": 0.0, "is_disabled": 0, "is_reserved": 0, "rental_uris": {"ios": "https://dc.lft.to/lastmile_qr_scan", "android": "https://dc.lft.to/lastmile_qr_scan"}, "bike_id": "b9a466fed895e8d7ce86db8bdebb989a", "lat": 38.9051565}, {"type": "electric_scooter", "fusion_lon": 0.0, "name": "690e5ca45d349c103999a2231e9ca1e7", "lon": -77.05146583333334, "fusion_lat": 0.0, "is_disabled": 0, "is_reserved": 0, "rental_uris": {"ios": "https://dc.lft.to/lastmile_qr_scan", "android": "https://dc.lft.to/lastmile_qr_scan"}, "bike_id": "690e5ca45d349c103999a2231e9ca1e7", "lat": 38.90508483333333}, {"type": "electric_scooter", "fusion_lon": 0.0, "name": "f380fbdb9d021e8d0393a0a219e9a96b", "lon": -77.03433, "fusion_lat": 0.0, "is_disabled": 0, "is_reserved": 0, "rental_uris": {"ios": "https://dc.lft.to/lastmile_qr_scan", "android": "https://dc.lft.to/lastmile_qr_scan"}, "bike_id": "f380fbdb9d021e8d0393a0a219e9a96b", "lat": 38.918081}, {"type": "electric_scooter", "fusion_lon": 0.0, "name": "408fcdea31873d390143f0b27274cb89", "lon": -77.019795, "fusion_lat": 0.0, "is_disabled": 0, "is_reserved": 0, "rental_uris": {"ios": "https://dc.lft.to/lastmile_qr_scan", "android": "https://dc.lft.to/lastmile_qr_scan"}, "bike_id": "408fcdea31873d390143f0b27274cb89", "lat": 38.8951295}, {"type": "electric_scooter", "fusion_lon": 0.0, "name": "f9df6b371345d3762821056fe441b292", "lon": -77.00567433333333, "fusion_lat": 0.0, "is_disabled": 0, "is_reserved": 0, "rental_uris": {"ios": "https://dc.lft.to/lastmile_qr_scan", "android": "https://dc.lft.to/lastmile_qr_scan"}, "bike_id": "f9df6b371345d3762821056fe441b292", "lat": 38.88503866666667}, {"type": "electric_scooter", "fusion_lon": 0.0, "name": "3cd15b2faaf15537887f6e8cbfb0b9ce", "lon": -77.044346, "fusion_lat": 0.0, "is_disabled": 0, "is_reserved": 0, "rental_uris": {"ios": "https://dc.lft.to/lastmile_qr_scan", "android": "https://dc.lft.to/lastmile_qr_scan"}, "bike_id": "3cd15b2faaf15537887f6e8cbfb0b9ce", "lat": 38.90142133333333}, {"type": "electric_bike", "fusion_lon": 0.0, "name": "1f9a083d68b3cec8e1bea7ba13180039", "lon": -77.128917, "fusion_lat": 0.0, "is_disabled": 0, "is_reserved": 0, "rental_uris": {"ios": "https://dc.lft.to/lastmile_qr_scan", "android": "https://dc.lft.to/lastmile_qr_scan"}, "bike_id": "1f9a083d68b3cec8e1bea7ba13180039", "lat": 38.9060335}, {"type": "electric_scooter", "fusion_lon": 0.0, "name": "5357c5f4bd6b6ee822b7efa9800daf9f", "lon": -77.02794966666667, "fusion_lat": 0.0, "is_disabled": 0, "is_reserved": 0, "rental_uris": {"ios": "https://dc.lft.to/lastmile_qr_scan", "android": "https://dc.lft.to/lastmile_qr_scan"}, "bike_id": "5357c5f4bd6b6ee822b7efa9800daf9f", "lat": 38.90719766666667}, {"type": "electric_scooter", "fusion_lon": 0.0, "name": "3da2aef653eb9618177dc05be512f0fa", "lon": -77.03172016666667, "fusion_lat": 0.0, "is_disabled": 0, "is_reserved": 0, "rental_uris": {"ios": "https://dc.lft.to/lastmile_qr_scan", "android": "https://dc.lft.to/lastmile_qr_scan"}, "bike_id": "3da2aef653eb9618177dc05be512f0fa", "lat": 38.920282666666665}, {"type": "electric_scooter", "fusion_lon": 0.0, "name": "6a8995e404ae42e1b7b7ad214354089a", "lon": -77.00191233333334, "fusion_lat": 0.0, "is_disabled": 0, "is_reserved": 0, "rental_uris": {"ios": "https://dc.lft.to/lastmile_qr_scan", "android": "https://dc.lft.to/lastmile_qr_scan"}, "bike_id": "6a8995e404ae42e1b7b7ad214354089a", "lat": 38.8876665}, {"type": "electric_scooter", "fusion_lon": 0.0, "name": "d1b8fb11bce99aac5016174a8e969e68", "lon": -77.02819016666666, "fusion_lat": 0.0, "is_disabled": 0, "is_reserved": 0, "rental_uris": {"ios": "https://dc.lft.to/lastmile_qr_scan", "android": "https://dc.lft.to/lastmile_qr_scan"}, "bike_id": "d1b8fb11bce99aac5016174a8e969e68", "lat": 38.9035015}, {"type": "electric_scooter", "fusion_lon": 0.0, "name": "2baf3af22060c5c6e4b75c4b55602e58", "lon": -77.029791, "fusion_lat": 0.0, "is_disabled": 0, "is_reserved": 0, "rental_uris": {"ios": "https://dc.lft.to/lastmile_qr_scan", "android": "https://dc.lft.to/lastmile_qr_scan"}, "bike_id": "2baf3af22060c5c6e4b75c4b55602e58", "lat": 38.93445616666666}, {"type": "electric_scooter", "fusion_lon": 0.0, "name": "ced154bba7ee2c941d7b1665ef0aef39", "lon": -77.02421, "fusion_lat": 0.0, "is_disabled": 0, "is_reserved": 0, "rental_uris": {"ios": "https://dc.lft.to/lastmile_qr_scan", "android": "https://dc.lft.to/lastmile_qr_scan"}, "bike_id": "ced154bba7ee2c941d7b1665ef0aef39", "lat": 38.8922425}, {"type": "electric_scooter", "fusion_lon": 0.0, "name": "6b5867fdff9b0cbe32f7a23ce1a17ab8", "lon": -77.03477933333333, "fusion_lat": 0.0, "is_disabled": 0, "is_reserved": 0, "rental_uris": {"ios": "https://dc.lft.to/lastmile_qr_scan", "android": "https://dc.lft.to/lastmile_qr_scan"}, "bike_id": "6b5867fdff9b0cbe32f7a23ce1a17ab8", "lat": 38.9169775}, {"type": "electric_scooter", "fusion_lon": 0.0, "name": "982556bab3fffb4cf0181bef51e231c2", "lon": -77.02243966666667, "fusion_lat": 0.0, "is_disabled": 0, "is_reserved": 0, "rental_uris": {"ios": "https://dc.lft.to/lastmile_qr_scan", "android": "https://dc.lft.to/lastmile_qr_scan"}, "bike_id": "982556bab3fffb4cf0181bef51e231c2", "lat": 38.9245075}, {"type": "electric_scooter", "fusion_lon": 0.0, "name": "ab05e9a1d9c9c9f00f6ac02e1d50a60c", "lon": -77.04665383333334, "fusion_lat": 0.0, "is_disabled": 0, "is_reserved": 0, "rental_uris": {"ios": "https://dc.lft.to/lastmile_qr_scan", "android": "https://dc.lft.to/lastmile_qr_scan"}, "bike_id": "ab05e9a1d9c9c9f00f6ac02e1d50a60c", "lat": 38.90139333333333}, {"type": "electric_scooter", "fusion_lon": 0.0, "name": "c0d4bc2490f995d4eb3b37492d8c3e0a", "lon": -77.01291033333334, "fusion_lat": 0.0, "is_disabled": 0, "is_reserved": 0, "rental_uris": {"ios": "https://dc.lft.to/lastmile_qr_scan", "android": "https://dc.lft.to/lastmile_qr_scan"}, "bike_id": "c0d4bc2490f995d4eb3b37492d8c3e0a", "lat": 38.950846}, {"type": "electric_scooter", "fusion_lon": 0.0, "name": "2dd52cda8d6d6030ef1459b202abe9c9", "lon": -77.02519966666667, "fusion_lat": 0.0, "is_disabled": 0, "is_reserved": 0, "rental_uris": {"ios": "https://dc.lft.to/lastmile_qr_scan", "android": "https://dc.lft.to/lastmile_qr_scan"}, "bike_id": "2dd52cda8d6d6030ef1459b202abe9c9", "lat": 38.89610066666667}, {"type": "electric_scooter", "fusion_lon": 0.0, "name": "99e5d59a642601686364ee9e2db376f9", "lon": -77.02852866666667, "fusion_lat": 0.0, "is_disabled": 0, "is_reserved": 0, "rental_uris": {"ios": "https://dc.lft.to/lastmile_qr_scan", "android": "https://dc.lft.to/lastmile_qr_scan"}, "bike_id": "99e5d59a642601686364ee9e2db376f9", "lat": 38.92242133333333}, {"type": "electric_scooter", "fusion_lon": 0.0, "name": "90e64fd02fd063d85184c8b7c1cc6ebe", "lon": -76.99804516666667, "fusion_lat": 0.0, "is_disabled": 0, "is_reserved": 0, "rental_uris": {"ios": "https://dc.lft.to/lastmile_qr_scan", "android": "https://dc.lft.to/lastmile_qr_scan"}, "bike_id": "90e64fd02fd063d85184c8b7c1cc6ebe", "lat": 38.9084845}, {"type": "electric_scooter", "fusion_lon": 0.0, "name": "ce16aa186f17d7e40ed990dd19fc693d", "lon": -77.0774985, "fusion_lat": 0.0, "is_disabled": 0, "is_reserved": 0, "rental_uris": {"ios": "https://dc.lft.to/lastmile_qr_scan", "android": "https://dc.lft.to/lastmile_qr_scan"}, "bike_id": "ce16aa186f17d7e40ed990dd19fc693d", "lat": 38.91229933333334}, {"type": "electric_scooter", "fusion_lon": 0.0, "name": "e29069037e31e03d5d8a9471ab268940", "lon": -77.02472866666666, "fusion_lat": 0.0, "is_disabled": 0, "is_reserved": 0, "rental_uris": {"ios": "https://dc.lft.to/lastmile_qr_scan", "android": "https://dc.lft.to/lastmile_qr_scan"}, "bike_id": "e29069037e31e03d5d8a9471ab268940", "lat": 38.920661333333335}, {"type": "electric_scooter", "fusion_lon": 0.0, "name": "fa062690c7aa303784f0b2b0b7f7e624", "lon": -77.05082783333333, "fusion_lat": 0.0, "is_disabled": 0, "is_reserved": 0, "rental_uris": {"ios": "https://dc.lft.to/lastmile_qr_scan", "android": "https://dc.lft.to/lastmile_qr_scan"}, "bike_id": "fa062690c7aa303784f0b2b0b7f7e624", "lat": 38.901850333333336}, {"type": "electric_scooter", "fusion_lon": 0.0, "name": "a3c837042ee5985367fdfd0dfc0b8903", "lon": -77.02595866666667, "fusion_lat": 0.0, "is_disabled": 0, "is_reserved": 0, "rental_uris": {"ios": "https://dc.lft.to/lastmile_qr_scan", "android": "https://dc.lft.to/lastmile_qr_scan"}, "bike_id": "a3c837042ee5985367fdfd0dfc0b8903", "lat": 38.91847216666667}, {"type": "electric_scooter", "fusion_lon": 0.0, "name": "373561277882e74cf9e972b87356f894", "lon": -77.04197116666667, "fusion_lat": 0.0, "is_disabled": 0, "is_reserved": 0, "rental_uris": {"ios": "https://dc.lft.to/lastmile_qr_scan", "android": "https://dc.lft.to/lastmile_qr_scan"}, "bike_id": "373561277882e74cf9e972b87356f894", "lat": 38.929744}, {"type": "electric_scooter", "fusion_lon": 0.0, "name": "82ae3fc9af263611da11b53426a31080", "lon": -77.01188533333334, "fusion_lat": 0.0, "is_disabled": 0, "is_reserved": 0, "rental_uris": {"ios": "https://dc.lft.to/lastmile_qr_scan", "android": "https://dc.lft.to/lastmile_qr_scan"}, "bike_id": "82ae3fc9af263611da11b53426a31080", "lat": 38.900294333333335}, {"type": "electric_scooter", "fusion_lon": 0.0, "name": "dc4a88d9e2d6a95d2ddbdaabe767c879", "lon": -77.042031, "fusion_lat": 0.0, "is_disabled": 0, "is_reserved": 0, "rental_uris": {"ios": "https://dc.lft.to/lastmile_qr_scan", "android": "https://dc.lft.to/lastmile_qr_scan"}, "bike_id": "dc4a88d9e2d6a95d2ddbdaabe767c879", "lat": 38.92451833333333}, {"type": "electric_scooter", "fusion_lon": 0.0, "name": "c340c86dece6e0ed658570c418b2b085", "lon": -77.00564933333334, "fusion_lat": 0.0, "is_disabled": 0, "is_reserved": 0, "rental_uris": {"ios": "https://dc.lft.to/lastmile_qr_scan", "android": "https://dc.lft.to/lastmile_qr_scan"}, "bike_id": "c340c86dece6e0ed658570c418b2b085", "lat": 38.8850255}, {"type": "electric_scooter", "fusion_lon": 0.0, "name": "79d007c8c3a99d8ee71a9438c874e71b", "lon": -77.04814183333333, "fusion_lat": 0.0, "is_disabled": 0, "is_reserved": 0, "rental_uris": {"ios": "https://dc.lft.to/lastmile_qr_scan", "android": "https://dc.lft.to/lastmile_qr_scan"}, "bike_id": "79d007c8c3a99d8ee71a9438c874e71b", "lat": 38.9003955}, {"type": "electric_scooter", "fusion_lon": 0.0, "name": "acf5a0fb18203ea7eb624d8b602cca1b", "lon": -77.052824, "fusion_lat": 0.0, "is_disabled": 0, "is_reserved": 0, "rental_uris": {"ios": "https://dc.lft.to/lastmile_qr_scan", "android": "https://dc.lft.to/lastmile_qr_scan"}, "bike_id": "acf5a0fb18203ea7eb624d8b602cca1b", "lat": 38.91018283333333}, {"type": "electric_scooter", "fusion_lon": 0.0, "name": "6a733e21e26cafa5f95d455f1f124b5f", "lon": -76.99006066666666, "fusion_lat": 0.0, "is_disabled": 0, "is_reserved": 0, "rental_uris": {"ios": "https://dc.lft.to/lastmile_qr_scan", "android": "https://dc.lft.to/lastmile_qr_scan"}, "bike_id": "6a733e21e26cafa5f95d455f1f124b5f", "lat": 38.90393483333333}, {"type": "electric_scooter", "fusion_lon": 0.0, "name": "c0f0dcea839fbb88eef62e729a03c9e1", "lon": -77.00069933333333, "fusion_lat": 0.0, "is_disabled": 0, "is_reserved": 0, "rental_uris": {"ios": "https://dc.lft.to/lastmile_qr_scan", "android": "https://dc.lft.to/lastmile_qr_scan"}, "bike_id": "c0f0dcea839fbb88eef62e729a03c9e1", "lat": 38.92392066666667}, {"type": "electric_scooter", "fusion_lon": 0.0, "name": "47990fcc5f718bce0bd43000a9ea9796", "lon": -77.03376383333334, "fusion_lat": 0.0, "is_disabled": 0, "is_reserved": 0, "rental_uris": {"ios": "https://dc.lft.to/lastmile_qr_scan", "android": "https://dc.lft.to/lastmile_qr_scan"}, "bike_id": "47990fcc5f718bce0bd43000a9ea9796", "lat": 38.909904}, {"type": "electric_scooter", "fusion_lon": 0.0, "name": "dd34728a7eaeaf65def9851496018d24", "lon": -76.98825283333333, "fusion_lat": 0.0, "is_disabled": 0, "is_reserved": 0, "rental_uris": {"ios": "https://dc.lft.to/lastmile_qr_scan", "android": "https://dc.lft.to/lastmile_qr_scan"}, "bike_id": "dd34728a7eaeaf65def9851496018d24", "lat": 38.900488333333335}, {"type": "electric_scooter", "fusion_lon": 0.0, "name": "ad124138807808baabe469a4332c8d9d", "lon": -77.0175925, "fusion_lat": 0.0, "is_disabled": 0, "is_reserved": 0, "rental_uris": {"ios": "https://dc.lft.to/lastmile_qr_scan", "android": "https://dc.lft.to/lastmile_qr_scan"}, "bike_id": "ad124138807808baabe469a4332c8d9d", "lat": 38.90267983333333}, {"type": "electric_scooter", "fusion_lon": 0.0, "name": "1dc2986f4b82ee923199f7f44fb89641", "lon": -77.0280315, "fusion_lat": 0.0, "is_disabled": 0, "is_reserved": 0, "rental_uris": {"ios": "https://dc.lft.to/lastmile_qr_scan", "android": "https://dc.lft.to/lastmile_qr_scan"}, "bike_id": "1dc2986f4b82ee923199f7f44fb89641", "lat": 38.89228683333333}, {"type": "electric_scooter", "fusion_lon": 0.0, "name": "1352184b688b42d65d437a74bf9356b7", "lon": -77.03166083333333, "fusion_lat": 0.0, "is_disabled": 0, "is_reserved": 0, "rental_uris": {"ios": "https://dc.lft.to/lastmile_qr_scan", "android": "https://dc.lft.to/lastmile_qr_scan"}, "bike_id": "1352184b688b42d65d437a74bf9356b7", "lat": 38.892266166666666}, {"type": "electric_scooter", "fusion_lon": 0.0, "name": "7ba6e0f116141843cade098b771be834", "lon": -77.03300833333333, "fusion_lat": 0.0, "is_disabled": 0, "is_reserved": 0, "rental_uris": {"ios": "https://dc.lft.to/lastmile_qr_scan", "android": "https://dc.lft.to/lastmile_qr_scan"}, "bike_id": "7ba6e0f116141843cade098b771be834", "lat": 38.92895866666667}, {"type": "electric_scooter", "fusion_lon": 0.0, "name": "5e798935471fb777f9e67ab5a899cf16", "lon": -77.0433645, "fusion_lat": 0.0, "is_disabled": 0, "is_reserved": 0, "rental_uris": {"ios": "https://dc.lft.to/lastmile_qr_scan", "android": "https://dc.lft.to/lastmile_qr_scan"}, "bike_id": "5e798935471fb777f9e67ab5a899cf16", "lat": 38.89230883333333}, {"type": "electric_scooter", "fusion_lon": 0.0, "name": "79c08f74d5c81d73734e65df9a3da1e1", "lon": -77.0217065, "fusion_lat": 0.0, "is_disabled": 0, "is_reserved": 0, "rental_uris": {"ios": "https://dc.lft.to/lastmile_qr_scan", "android": "https://dc.lft.to/lastmile_qr_scan"}, "bike_id": "79c08f74d5c81d73734e65df9a3da1e1", "lat": 38.9424695}, {"type": "electric_scooter", "fusion_lon": 0.0, "name": "10f6f0241d4cd7b73c5426c755ca3890", "lon": -77.0270565, "fusion_lat": 0.0, "is_disabled": 0, "is_reserved": 0, "rental_uris": {"ios": "https://dc.lft.to/lastmile_qr_scan", "android": "https://dc.lft.to/lastmile_qr_scan"}, "bike_id": "10f6f0241d4cd7b73c5426c755ca3890", "lat": 38.89699383333333}, {"type": "electric_scooter", "fusion_lon": 0.0, "name": "986091b9b762046a95c3e98f1aa41ed2", "lon": -77.04531566666667, "fusion_lat": 0.0, "is_disabled": 0, "is_reserved": 0, "rental_uris": {"ios": "https://dc.lft.to/lastmile_qr_scan", "android": "https://dc.lft.to/lastmile_qr_scan"}, "bike_id": "986091b9b762046a95c3e98f1aa41ed2", "lat": 38.900685333333335}, {"type": "electric_scooter", "fusion_lon": 0.0, "name": "36effe056d125ec40b25d1692415919a", "lon": -76.97932966666667, "fusion_lat": 0.0, "is_disabled": 0, "is_reserved": 0, "rental_uris": {"ios": "https://dc.lft.to/lastmile_qr_scan", "android": "https://dc.lft.to/lastmile_qr_scan"}, "bike_id": "36effe056d125ec40b25d1692415919a", "lat": 38.9067755}, {"type": "electric_scooter", "fusion_lon": 0.0, "name": "c2f6ef94daf9cb76e45fa1d52561661b", "lon": -77.030945, "fusion_lat": 0.0, "is_disabled": 0, "is_reserved": 0, "rental_uris": {"ios": "https://dc.lft.to/lastmile_qr_scan", "android": "https://dc.lft.to/lastmile_qr_scan"}, "bike_id": "c2f6ef94daf9cb76e45fa1d52561661b", "lat": 38.959256}, {"type": "electric_scooter", "fusion_lon": 0.0, "name": "e86b7640349602ee324478a7dbf5713f", "lon": -77.02590416666666, "fusion_lat": 0.0, "is_disabled": 0, "is_reserved": 0, "rental_uris": {"ios": "https://dc.lft.to/lastmile_qr_scan", "android": "https://dc.lft.to/lastmile_qr_scan"}, "bike_id": "e86b7640349602ee324478a7dbf5713f", "lat": 38.90416316666666}, {"type": "electric_scooter", "fusion_lon": 0.0, "name": "b437df601594ea88ed4543d75de9ff6e", "lon": -77.031827, "fusion_lat": 0.0, "is_disabled": 0, "is_reserved": 0, "rental_uris": {"ios": "https://dc.lft.to/lastmile_qr_scan", "android": "https://dc.lft.to/lastmile_qr_scan"}, "bike_id": "b437df601594ea88ed4543d75de9ff6e", "lat": 38.933148833333334}, {"type": "electric_scooter", "fusion_lon": 0.0, "name": "62368bab6680e9806dcf772803f8dee0", "lon": -77.04272, "fusion_lat": 0.0, "is_disabled": 0, "is_reserved": 0, "rental_uris": {"ios": "https://dc.lft.to/lastmile_qr_scan", "android": "https://dc.lft.to/lastmile_qr_scan"}, "bike_id": "62368bab6680e9806dcf772803f8dee0", "lat": 38.90786583333333}, {"type": "electric_scooter", "fusion_lon": 0.0, "name": "4698fc8f96f9dca6f0b156b5d3a064a1", "lon": -77.05027083333333, "fusion_lat": 0.0, "is_disabled": 0, "is_reserved": 0, "rental_uris": {"ios": "https://dc.lft.to/lastmile_qr_scan", "android": "https://dc.lft.to/lastmile_qr_scan"}, "bike_id": "4698fc8f96f9dca6f0b156b5d3a064a1", "lat": 38.89260216666667}, {"type": "electric_scooter", "fusion_lon": 0.0, "name": "3043b4f6b7090b5e0740bff128a84dde", "lon": -77.0175915, "fusion_lat": 0.0, "is_disabled": 0, "is_reserved": 0, "rental_uris": {"ios": "https://dc.lft.to/lastmile_qr_scan", "android": "https://dc.lft.to/lastmile_qr_scan"}, "bike_id": "3043b4f6b7090b5e0740bff128a84dde", "lat": 38.876699}, {"type": "electric_scooter", "fusion_lon": 0.0, "name": "c90744ed0975f4dfdda0dcf3675f303f", "lon": -77.02140783333333, "fusion_lat": 0.0, "is_disabled": 0, "is_reserved": 0, "rental_uris": {"ios": "https://dc.lft.to/lastmile_qr_scan", "android": "https://dc.lft.to/lastmile_qr_scan"}, "bike_id": "c90744ed0975f4dfdda0dcf3675f303f", "lat": 38.92481683333333}, {"type": "electric_scooter", "fusion_lon": 0.0, "name": "d1a9a764d82c7727f8efb0eedefe7fed", "lon": -76.923027, "fusion_lat": 0.0, "is_disabled": 0, "is_reserved": 0, "rental_uris": {"ios": "https://dc.lft.to/lastmile_qr_scan", "android": "https://dc.lft.to/lastmile_qr_scan"}, "bike_id": "d1a9a764d82c7727f8efb0eedefe7fed", "lat": 38.893844}, {"type": "electric_scooter", "fusion_lon": 0.0, "name": "bbcd353b8222d4bccbd40594ba1bc159", "lon": -77.02554, "fusion_lat": 0.0, "is_disabled": 0, "is_reserved": 0, "rental_uris": {"ios": "https://dc.lft.to/lastmile_qr_scan", "android": "https://dc.lft.to/lastmile_qr_scan"}, "bike_id": "bbcd353b8222d4bccbd40594ba1bc159", "lat": 38.9008505}, {"type": "electric_scooter", "fusion_lon": 0.0, "name": "b61be0d014998465b6fddefa3d38dc90", "lon": -77.0318865, "fusion_lat": 0.0, "is_disabled": 0, "is_reserved": 0, "rental_uris": {"ios": "https://dc.lft.to/lastmile_qr_scan", "android": "https://dc.lft.to/lastmile_qr_scan"}, "bike_id": "b61be0d014998465b6fddefa3d38dc90", "lat": 38.894537166666666}, {"type": "electric_scooter", "fusion_lon": 0.0, "name": "5597951c59ef68d6101450ad3316444c", "lon": -77.0335405, "fusion_lat": 0.0, "is_disabled": 0, "is_reserved": 0, "rental_uris": {"ios": "https://dc.lft.to/lastmile_qr_scan", "android": "https://dc.lft.to/lastmile_qr_scan"}, "bike_id": "5597951c59ef68d6101450ad3316444c", "lat": 38.884798333333336}, {"type": "electric_scooter", "fusion_lon": 0.0, "name": "9aa9b713401c5aa1bbd335e7133549ad", "lon": -77.0453675, "fusion_lat": 0.0, "is_disabled": 0, "is_reserved": 0, "rental_uris": {"ios": "https://dc.lft.to/lastmile_qr_scan", "android": "https://dc.lft.to/lastmile_qr_scan"}, "bike_id": "9aa9b713401c5aa1bbd335e7133549ad", "lat": 38.911963666666665}, {"type": "electric_scooter", "fusion_lon": 0.0, "name": "afbdb55e89ada8685660c8c925459c82", "lon": -77.03661566666666, "fusion_lat": 0.0, "is_disabled": 0, "is_reserved": 0, "rental_uris": {"ios": "https://dc.lft.to/lastmile_qr_scan", "android": "https://dc.lft.to/lastmile_qr_scan"}, "bike_id": "afbdb55e89ada8685660c8c925459c82", "lat": 38.9228815}, {"type": "electric_bike", "fusion_lon": 0.0, "name": "c4040b8986ae64eab305489ff32a9743", "lon": -76.935481, "fusion_lat": 0.0, "is_disabled": 0, "is_reserved": 0, "rental_uris": {"ios": "https://dc.lft.to/lastmile_qr_scan", "android": "https://dc.lft.to/lastmile_qr_scan"}, "bike_id": "c4040b8986ae64eab305489ff32a9743", "lat": 38.87647066666667}, {"type": "electric_scooter", "fusion_lon": 0.0, "name": "defd083206c81cb499f24e7692a25a5b", "lon": -76.99215116666667, "fusion_lat": 0.0, "is_disabled": 0, "is_reserved": 0, "rental_uris": {"ios": "https://dc.lft.to/lastmile_qr_scan", "android": "https://dc.lft.to/lastmile_qr_scan"}, "bike_id": "defd083206c81cb499f24e7692a25a5b", "lat": 38.893532}, {"type": "electric_scooter", "fusion_lon": 0.0, "name": "94a2e7e57f5f0344bd381d58a37d9d33", "lon": -77.02102633333334, "fusion_lat": 0.0, "is_disabled": 0, "is_reserved": 0, "rental_uris": {"ios": "https://dc.lft.to/lastmile_qr_scan", "android": "https://dc.lft.to/lastmile_qr_scan"}, "bike_id": "94a2e7e57f5f0344bd381d58a37d9d33", "lat": 38.91205683333333}, {"type": "electric_scooter", "fusion_lon": 0.0, "name": "8e2383100c4fb63160a7b708794852fa", "lon": -77.053111, "fusion_lat": 0.0, "is_disabled": 0, "is_reserved": 0, "rental_uris": {"ios": "https://dc.lft.to/lastmile_qr_scan", "android": "https://dc.lft.to/lastmile_qr_scan"}, "bike_id": "8e2383100c4fb63160a7b708794852fa", "lat": 38.907214833333335}, {"type": "electric_scooter", "fusion_lon": 0.0, "name": "74784341029ed19001a0a44029883375", "lon": -77.00726333333333, "fusion_lat": 0.0, "is_disabled": 0, "is_reserved": 0, "rental_uris": {"ios": "https://dc.lft.to/lastmile_qr_scan", "android": "https://dc.lft.to/lastmile_qr_scan"}, "bike_id": "74784341029ed19001a0a44029883375", "lat": 38.9047565}, {"type": "electric_bike", "fusion_lon": 0.0, "name": "c90335392ddbf29da95aa20c4567be0e", "lon": -77.11757216666666, "fusion_lat": 0.0, "is_disabled": 0, "is_reserved": 0, "rental_uris": {"ios": "https://dc.lft.to/lastmile_qr_scan", "android": "https://dc.lft.to/lastmile_qr_scan"}, "bike_id": "c90335392ddbf29da95aa20c4567be0e", "lat": 38.8751625}, {"type": "electric_scooter", "fusion_lon": 0.0, "name": "7f30fc7d05dc70774e72d1686a57b1d3", "lon": -76.950499, "fusion_lat": 0.0, "is_disabled": 0, "is_reserved": 0, "rental_uris": {"ios": "https://dc.lft.to/lastmile_qr_scan", "android": "https://dc.lft.to/lastmile_qr_scan"}, "bike_id": "7f30fc7d05dc70774e72d1686a57b1d3", "lat": 38.9047775}, {"type": "electric_scooter", "fusion_lon": 0.0, "name": "9435d9380497d54ad6917df5c80e42f0", "lon": -77.0240205, "fusion_lat": 0.0, "is_disabled": 0, "is_reserved": 0, "rental_uris": {"ios": "https://dc.lft.to/lastmile_qr_scan", "android": "https://dc.lft.to/lastmile_qr_scan"}, "bike_id": "9435d9380497d54ad6917df5c80e42f0", "lat": 38.917629}, {"type": "electric_bike", "fusion_lon": 0.0, "name": "7094d1a558cb595c36b4565a607cb9d9", "lon": -77.08747916666667, "fusion_lat": 0.0, "is_disabled": 0, "is_reserved": 0, "rental_uris": {"ios": "https://dc.lft.to/lastmile_qr_scan", "android": "https://dc.lft.to/lastmile_qr_scan"}, "bike_id": "7094d1a558cb595c36b4565a607cb9d9", "lat": 38.985678166666666}, {"type": "electric_scooter", "fusion_lon": 0.0, "name": "a99a57572abd1418caf230c9efa82844", "lon": -76.99188716666667, "fusion_lat": 0.0, "is_disabled": 0, "is_reserved": 0, "rental_uris": {"ios": "https://dc.lft.to/lastmile_qr_scan", "android": "https://dc.lft.to/lastmile_qr_scan"}, "bike_id": "a99a57572abd1418caf230c9efa82844", "lat": 38.85532833333333}, {"type": "electric_scooter", "fusion_lon": 0.0, "name": "2e4779f79cd5894e8d1077b7c69e9796", "lon": -77.050142, "fusion_lat": 0.0, "is_disabled": 0, "is_reserved": 0, "rental_uris": {"ios": "https://dc.lft.to/lastmile_qr_scan", "android": "https://dc.lft.to/lastmile_qr_scan"}, "bike_id": "2e4779f79cd5894e8d1077b7c69e9796", "lat": 38.9014585}, {"type": "electric_scooter", "fusion_lon": 0.0, "name": "d282b15dcb7615c75ef46c6d48d0fd16", "lon": -77.041751, "fusion_lat": 0.0, "is_disabled": 0, "is_reserved": 0, "rental_uris": {"ios": "https://dc.lft.to/lastmile_qr_scan", "android": "https://dc.lft.to/lastmile_qr_scan"}, "bike_id": "d282b15dcb7615c75ef46c6d48d0fd16", "lat": 38.919895}, {"type": "electric_scooter", "fusion_lon": 0.0, "name": "fe9891adcb5286cf12f4f7225de6696f", "lon": -77.02785083333333, "fusion_lat": 0.0, "is_disabled": 0, "is_reserved": 0, "rental_uris": {"ios": "https://dc.lft.to/lastmile_qr_scan", "android": "https://dc.lft.to/lastmile_qr_scan"}, "bike_id": "fe9891adcb5286cf12f4f7225de6696f", "lat": 38.8922415}, {"type": "electric_scooter", "fusion_lon": 0.0, "name": "9e6761b18c26b6b119d49edc0567efd4", "lon": -77.0347935, "fusion_lat": 0.0, "is_disabled": 0, "is_reserved": 0, "rental_uris": {"ios": "https://dc.lft.to/lastmile_qr_scan", "android": "https://dc.lft.to/lastmile_qr_scan"}, "bike_id": "9e6761b18c26b6b119d49edc0567efd4", "lat": 38.923514}, {"type": "electric_scooter", "fusion_lon": 0.0, "name": "ad09be3827319add1bd3c970fbc0b254", "lon": -77.00455666666667, "fusion_lat": 0.0, "is_disabled": 0, "is_reserved": 0, "rental_uris": {"ios": "https://dc.lft.to/lastmile_qr_scan", "android": "https://dc.lft.to/lastmile_qr_scan"}, "bike_id": "ad09be3827319add1bd3c970fbc0b254", "lat": 38.9114985}, {"type": "electric_bike", "fusion_lon": 0.0, "name": "24a6da47a8a9950936f7a01d8b512a08", "lon": -77.06625366666667, "fusion_lat": 0.0, "is_disabled": 0, "is_reserved": 0, "rental_uris": {"ios": "https://dc.lft.to/lastmile_qr_scan", "android": "https://dc.lft.to/lastmile_qr_scan"}, "bike_id": "24a6da47a8a9950936f7a01d8b512a08", "lat": 38.867811}, {"type": "electric_scooter", "fusion_lon": 0.0, "name": "4cea543874b3ae52100863e0190c0ca5", "lon": -77.01719183333333, "fusion_lat": 0.0, "is_disabled": 0, "is_reserved": 0, "rental_uris": {"ios": "https://dc.lft.to/lastmile_qr_scan", "android": "https://dc.lft.to/lastmile_qr_scan"}, "bike_id": "4cea543874b3ae52100863e0190c0ca5", "lat": 38.9048075}, {"type": "electric_scooter", "fusion_lon": 0.0, "name": "086bd649d0212534538f18a18ba30b25", "lon": -77.0066515, "fusion_lat": 0.0, "is_disabled": 0, "is_reserved": 0, "rental_uris": {"ios": "https://dc.lft.to/lastmile_qr_scan", "android": "https://dc.lft.to/lastmile_qr_scan"}, "bike_id": "086bd649d0212534538f18a18ba30b25", "lat": 38.876346166666664}, {"type": "electric_bike", "fusion_lon": 0.0, "name": "16ab56d3cb62edc9ed9a79b69293637e", "lon": -77.07432933333334, "fusion_lat": 0.0, "is_disabled": 0, "is_reserved": 0, "rental_uris": {"ios": "https://dc.lft.to/lastmile_qr_scan", "android": "https://dc.lft.to/lastmile_qr_scan"}, "bike_id": "16ab56d3cb62edc9ed9a79b69293637e", "lat": 38.9956725}, {"type": "electric_scooter", "fusion_lon": 0.0, "name": "7c3ccab161648efbc6e880482966afb0", "lon": -77.05743933333333, "fusion_lat": 0.0, "is_disabled": 0, "is_reserved": 0, "rental_uris": {"ios": "https://dc.lft.to/lastmile_qr_scan", "android": "https://dc.lft.to/lastmile_qr_scan"}, "bike_id": "7c3ccab161648efbc6e880482966afb0", "lat": 38.933953}, {"type": "electric_scooter", "fusion_lon": 0.0, "name": "b3e3f902fa80e496d5d0da6998b0cab1", "lon": -77.03037316666666, "fusion_lat": 0.0, "is_disabled": 0, "is_reserved": 0, "rental_uris": {"ios": "https://dc.lft.to/lastmile_qr_scan", "android": "https://dc.lft.to/lastmile_qr_scan"}, "bike_id": "b3e3f902fa80e496d5d0da6998b0cab1", "lat": 38.925807666666664}, {"type": "electric_scooter", "fusion_lon": 0.0, "name": "3c8242fde358219833144cc465ba55fd", "lon": -77.02161416666667, "fusion_lat": 0.0, "is_disabled": 0, "is_reserved": 0, "rental_uris": {"ios": "https://dc.lft.to/lastmile_qr_scan", "android": "https://dc.lft.to/lastmile_qr_scan"}, "bike_id": "3c8242fde358219833144cc465ba55fd", "lat": 38.92017966666667}, {"type": "electric_scooter", "fusion_lon": 0.0, "name": "ace8c810bb5afb99ae228b1c77224d6a", "lon": -77.04046866666667, "fusion_lat": 0.0, "is_disabled": 0, "is_reserved": 0, "rental_uris": {"ios": "https://dc.lft.to/lastmile_qr_scan", "android": "https://dc.lft.to/lastmile_qr_scan"}, "bike_id": "ace8c810bb5afb99ae228b1c77224d6a", "lat": 38.93068616666667}, {"type": "electric_scooter", "fusion_lon": 0.0, "name": "7f7e254d0373183bfc15e22b9722be98", "lon": -77.045186, "fusion_lat": 0.0, "is_disabled": 0, "is_reserved": 0, "rental_uris": {"ios": "https://dc.lft.to/lastmile_qr_scan", "android": "https://dc.lft.to/lastmile_qr_scan"}, "bike_id": "7f7e254d0373183bfc15e22b9722be98", "lat": 38.909679}, {"type": "electric_bike", "fusion_lon": 0.0, "name": "31d43b2d2e5b34f2e9aa7cf7dbbf8884", "lon": -77.02671083333334, "fusion_lat": 0.0, "is_disabled": 0, "is_reserved": 0, "rental_uris": {"ios": "https://dc.lft.to/lastmile_qr_scan", "android": "https://dc.lft.to/lastmile_qr_scan"}, "bike_id": "31d43b2d2e5b34f2e9aa7cf7dbbf8884", "lat": 38.929765333333336}, {"type": "electric_bike", "fusion_lon": 0.0, "name": "c0bfd7aebbf5b2c4731c1804a4e940be", "lon": -76.98142816666666, "fusion_lat": 0.0, "is_disabled": 0, "is_reserved": 0, "rental_uris": {"ios": "https://dc.lft.to/lastmile_qr_scan", "android": "https://dc.lft.to/lastmile_qr_scan"}, "bike_id": "c0bfd7aebbf5b2c4731c1804a4e940be", "lat": 39.00717216666666}, {"type": "electric_scooter", "fusion_lon": 0.0, "name": "fb1d849b18bf1d3a55d3ca14bdd06cde", "lon": -77.066586, "fusion_lat": 0.0, "is_disabled": 0, "is_reserved": 0, "rental_uris": {"ios": "https://dc.lft.to/lastmile_qr_scan", "android": "https://dc.lft.to/lastmile_qr_scan"}, "bike_id": "fb1d849b18bf1d3a55d3ca14bdd06cde", "lat": 38.949537166666666}, {"type": "electric_scooter", "fusion_lon": 0.0, "name": "8669101b467462ad814485579278478e", "lon": -77.04153533333333, "fusion_lat": 0.0, "is_disabled": 0, "is_reserved": 0, "rental_uris": {"ios": "https://dc.lft.to/lastmile_qr_scan", "android": "https://dc.lft.to/lastmile_qr_scan"}, "bike_id": "8669101b467462ad814485579278478e", "lat": 38.907426666666666}, {"type": "electric_scooter", "fusion_lon": 0.0, "name": "56c04b4cbe7b92b8207ba04ce76d4c8f", "lon": -76.98678033333333, "fusion_lat": 0.0, "is_disabled": 0, "is_reserved": 0, "rental_uris": {"ios": "https://dc.lft.to/lastmile_qr_scan", "android": "https://dc.lft.to/lastmile_qr_scan"}, "bike_id": "56c04b4cbe7b92b8207ba04ce76d4c8f", "lat": 38.8988545}, {"type": "electric_scooter", "fusion_lon": 0.0, "name": "b12c186ca3197fd5ea61e8a6517af5f7", "lon": -77.04478516666667, "fusion_lat": 0.0, "is_disabled": 0, "is_reserved": 0, "rental_uris": {"ios": "https://dc.lft.to/lastmile_qr_scan", "android": "https://dc.lft.to/lastmile_qr_scan"}, "bike_id": "b12c186ca3197fd5ea61e8a6517af5f7", "lat": 38.9054965}, {"type": "electric_scooter", "fusion_lon": 0.0, "name": "3f7ea0b28c14fe9564177b1d7c40ec70", "lon": -77.03737783333334, "fusion_lat": 0.0, "is_disabled": 0, "is_reserved": 0, "rental_uris": {"ios": "https://dc.lft.to/lastmile_qr_scan", "android": "https://dc.lft.to/lastmile_qr_scan"}, "bike_id": "3f7ea0b28c14fe9564177b1d7c40ec70", "lat": 38.902489833333334}, {"type": "electric_scooter", "fusion_lon": 0.0, "name": "12382b98a5e3d1491d1d85079a221462", "lon": -76.928048, "fusion_lat": 0.0, "is_disabled": 0, "is_reserved": 0, "rental_uris": {"ios": "https://dc.lft.to/lastmile_qr_scan", "android": "https://dc.lft.to/lastmile_qr_scan"}, "bike_id": "12382b98a5e3d1491d1d85079a221462", "lat": 38.896429}, {"type": "electric_scooter", "fusion_lon": 0.0, "name": "7406f04452267c6286d8927f696ba14c", "lon": -77.03222516666666, "fusion_lat": 0.0, "is_disabled": 0, "is_reserved": 0, "rental_uris": {"ios": "https://dc.lft.to/lastmile_qr_scan", "android": "https://dc.lft.to/lastmile_qr_scan"}, "bike_id": "7406f04452267c6286d8927f696ba14c", "lat": 38.916481833333336}, {"type": "electric_scooter", "fusion_lon": 0.0, "name": "26d3fc0f994ff0d25552973e9caffad8", "lon": -77.05032, "fusion_lat": 0.0, "is_disabled": 0, "is_reserved": 0, "rental_uris": {"ios": "https://dc.lft.to/lastmile_qr_scan", "android": "https://dc.lft.to/lastmile_qr_scan"}, "bike_id": "26d3fc0f994ff0d25552973e9caffad8", "lat": 38.9236685}, {"type": "electric_scooter", "fusion_lon": 0.0, "name": "78874da05ee00a44ed22fbc3a1bdc077", "lon": -77.02951683333333, "fusion_lat": 0.0, "is_disabled": 0, "is_reserved": 0, "rental_uris": {"ios": "https://dc.lft.to/lastmile_qr_scan", "android": "https://dc.lft.to/lastmile_qr_scan"}, "bike_id": "78874da05ee00a44ed22fbc3a1bdc077", "lat": 38.917117}, {"type": "electric_scooter", "fusion_lon": 0.0, "name": "7ed7509e21250b39ebaf25733bd2d610", "lon": -77.02639983333333, "fusion_lat": 0.0, "is_disabled": 0, "is_reserved": 0, "rental_uris": {"ios": "https://dc.lft.to/lastmile_qr_scan", "android": "https://dc.lft.to/lastmile_qr_scan"}, "bike_id": "7ed7509e21250b39ebaf25733bd2d610", "lat": 38.89613283333333}, {"type": "electric_scooter", "fusion_lon": 0.0, "name": "c184a0bf7ef3a3c8d87a73bce6d15dfc", "lon": -77.04810316666666, "fusion_lat": 0.0, "is_disabled": 0, "is_reserved": 0, "rental_uris": {"ios": "https://dc.lft.to/lastmile_qr_scan", "android": "https://dc.lft.to/lastmile_qr_scan"}, "bike_id": "c184a0bf7ef3a3c8d87a73bce6d15dfc", "lat": 38.91635983333333}, {"type": "electric_scooter", "fusion_lon": 0.0, "name": "57cd56a2f5406e4b1b3008d832338581", "lon": -76.981769, "fusion_lat": 0.0, "is_disabled": 0, "is_reserved": 0, "rental_uris": {"ios": "https://dc.lft.to/lastmile_qr_scan", "android": "https://dc.lft.to/lastmile_qr_scan"}, "bike_id": "57cd56a2f5406e4b1b3008d832338581", "lat": 38.88974916666667}, {"type": "electric_scooter", "fusion_lon": 0.0, "name": "e00300a4956656c321a500df4509342c", "lon": -77.03192783333333, "fusion_lat": 0.0, "is_disabled": 0, "is_reserved": 0, "rental_uris": {"ios": "https://dc.lft.to/lastmile_qr_scan", "android": "https://dc.lft.to/lastmile_qr_scan"}, "bike_id": "e00300a4956656c321a500df4509342c", "lat": 38.92115916666667}, {"type": "electric_scooter", "fusion_lon": 0.0, "name": "5b7b62c914fd9a44b73870a02b5cdef9", "lon": -77.019337, "fusion_lat": 0.0, "is_disabled": 0, "is_reserved": 0, "rental_uris": {"ios": "https://dc.lft.to/lastmile_qr_scan", "android": "https://dc.lft.to/lastmile_qr_scan"}, "bike_id": "5b7b62c914fd9a44b73870a02b5cdef9", "lat": 38.917804}, {"type": "electric_scooter", "fusion_lon": 0.0, "name": "c7878b8d0417a22f492340cf5811bef2", "lon": -77.04689133333333, "fusion_lat": 0.0, "is_disabled": 0, "is_reserved": 0, "rental_uris": {"ios": "https://dc.lft.to/lastmile_qr_scan", "android": "https://dc.lft.to/lastmile_qr_scan"}, "bike_id": "c7878b8d0417a22f492340cf5811bef2", "lat": 38.916652166666665}, {"type": "electric_bike", "fusion_lon": 0.0, "name": "dde0a71cf9dc5ce58094fc0871e0936a", "lon": -76.90751683333333, "fusion_lat": 0.0, "is_disabled": 0, "is_reserved": 0, "rental_uris": {"ios": "https://dc.lft.to/lastmile_qr_scan", "android": "https://dc.lft.to/lastmile_qr_scan"}, "bike_id": "dde0a71cf9dc5ce58094fc0871e0936a", "lat": 38.89623683333333}, {"type": "electric_scooter", "fusion_lon": 0.0, "name": "db73a344fa1dcfb02705b9485eb07eb3", "lon": -77.03093733333333, "fusion_lat": 0.0, "is_disabled": 0, "is_reserved": 0, "rental_uris": {"ios": "https://dc.lft.to/lastmile_qr_scan", "android": "https://dc.lft.to/lastmile_qr_scan"}, "bike_id": "db73a344fa1dcfb02705b9485eb07eb3", "lat": 38.9102345}, {"type": "electric_scooter", "fusion_lon": 0.0, "name": "d36e3cd277c7f39dc67f0d2efdf22532", "lon": -77.03456483333333, "fusion_lat": 0.0, "is_disabled": 0, "is_reserved": 0, "rental_uris": {"ios": "https://dc.lft.to/lastmile_qr_scan", "android": "https://dc.lft.to/lastmile_qr_scan"}, "bike_id": "d36e3cd277c7f39dc67f0d2efdf22532", "lat": 38.92253016666667}, {"type": "electric_scooter", "fusion_lon": 0.0, "name": "975d832af4daf13ab3258b371e8fab6f", "lon": -77.00387716666667, "fusion_lat": 0.0, "is_disabled": 0, "is_reserved": 0, "rental_uris": {"ios": "https://dc.lft.to/lastmile_qr_scan", "android": "https://dc.lft.to/lastmile_qr_scan"}, "bike_id": "975d832af4daf13ab3258b371e8fab6f", "lat": 38.91058916666667}, {"type": "electric_scooter", "fusion_lon": 0.0, "name": "9f7cd5cc2977187bd45a41043f288dbe", "lon": -77.03789233333333, "fusion_lat": 0.0, "is_disabled": 0, "is_reserved": 0, "rental_uris": {"ios": "https://dc.lft.to/lastmile_qr_scan", "android": "https://dc.lft.to/lastmile_qr_scan"}, "bike_id": "9f7cd5cc2977187bd45a41043f288dbe", "lat": 38.925118}, {"type": "electric_scooter", "fusion_lon": 0.0, "name": "0cea08bc99675ff29cc33b2c979ee03e", "lon": -77.03952766666667, "fusion_lat": 0.0, "is_disabled": 0, "is_reserved": 0, "rental_uris": {"ios": "https://dc.lft.to/lastmile_qr_scan", "android": "https://dc.lft.to/lastmile_qr_scan"}, "bike_id": "0cea08bc99675ff29cc33b2c979ee03e", "lat": 38.9025735}, {"type": "electric_scooter", "fusion_lon": 0.0, "name": "3009dbbb0534d9d32f1d74e8a2d3ce85", "lon": -76.96548133333333, "fusion_lat": 0.0, "is_disabled": 0, "is_reserved": 0, "rental_uris": {"ios": "https://dc.lft.to/lastmile_qr_scan", "android": "https://dc.lft.to/lastmile_qr_scan"}, "bike_id": "3009dbbb0534d9d32f1d74e8a2d3ce85", "lat": 38.87885816666667}, {"type": "electric_scooter", "fusion_lon": 0.0, "name": "ed0135f9d6423a8f28e7be1897e65f51", "lon": -77.02212533333334, "fusion_lat": 0.0, "is_disabled": 0, "is_reserved": 0, "rental_uris": {"ios": "https://dc.lft.to/lastmile_qr_scan", "android": "https://dc.lft.to/lastmile_qr_scan"}, "bike_id": "ed0135f9d6423a8f28e7be1897e65f51", "lat": 38.90600966666667}, {"type": "electric_scooter", "fusion_lon": 0.0, "name": "c0d3c9f3e005e648bbfde48aa15a35cb", "lon": -77.0221365, "fusion_lat": 0.0, "is_disabled": 0, "is_reserved": 0, "rental_uris": {"ios": "https://dc.lft.to/lastmile_qr_scan", "android": "https://dc.lft.to/lastmile_qr_scan"}, "bike_id": "c0d3c9f3e005e648bbfde48aa15a35cb", "lat": 38.92103133333333}, {"type": "electric_scooter", "fusion_lon": 0.0, "name": "883ec06a35bf31771c5684ec8f5f539b", "lon": -77.022393, "fusion_lat": 0.0, "is_disabled": 0, "is_reserved": 0, "rental_uris": {"ios": "https://dc.lft.to/lastmile_qr_scan", "android": "https://dc.lft.to/lastmile_qr_scan"}, "bike_id": "883ec06a35bf31771c5684ec8f5f539b", "lat": 38.95684466666667}, {"type": "electric_bike", "fusion_lon": 0.0, "name": "8a417400cf2535fa4893490a30b8b061", "lon": -77.01404383333333, "fusion_lat": 0.0, "is_disabled": 0, "is_reserved": 0, "rental_uris": {"ios": "https://dc.lft.to/lastmile_qr_scan", "android": "https://dc.lft.to/lastmile_qr_scan"}, "bike_id": "8a417400cf2535fa4893490a30b8b061", "lat": 38.95876883333333}, {"type": "electric_scooter", "fusion_lon": 0.0, "name": "c7ad47c6287d728f25e745bd871d010c", "lon": -77.02799716666667, "fusion_lat": 0.0, "is_disabled": 0, "is_reserved": 0, "rental_uris": {"ios": "https://dc.lft.to/lastmile_qr_scan", "android": "https://dc.lft.to/lastmile_qr_scan"}, "bike_id": "c7ad47c6287d728f25e745bd871d010c", "lat": 38.89940133333333}, {"type": "electric_scooter", "fusion_lon": 0.0, "name": "2cb8b407efdf0b0cbe6f86890a04b89b", "lon": -77.04014466666666, "fusion_lat": 0.0, "is_disabled": 0, "is_reserved": 0, "rental_uris": {"ios": "https://dc.lft.to/lastmile_qr_scan", "android": "https://dc.lft.to/lastmile_qr_scan"}, "bike_id": "2cb8b407efdf0b0cbe6f86890a04b89b", "lat": 38.901339666666665}, {"type": "electric_scooter", "fusion_lon": 0.0, "name": "76b980ca159cda766c19254a8401ee54", "lon": -77.0293715, "fusion_lat": 0.0, "is_disabled": 0, "is_reserved": 0, "rental_uris": {"ios": "https://dc.lft.to/lastmile_qr_scan", "android": "https://dc.lft.to/lastmile_qr_scan"}, "bike_id": "76b980ca159cda766c19254a8401ee54", "lat": 38.901416166666664}, {"type": "electric_scooter", "fusion_lon": 0.0, "name": "297fe41ad3de6cb651bc2db48e334eeb", "lon": -77.05135533333333, "fusion_lat": 0.0, "is_disabled": 0, "is_reserved": 0, "rental_uris": {"ios": "https://dc.lft.to/lastmile_qr_scan", "android": "https://dc.lft.to/lastmile_qr_scan"}, "bike_id": "297fe41ad3de6cb651bc2db48e334eeb", "lat": 38.921611666666664}, {"type": "electric_scooter", "fusion_lon": 0.0, "name": "940393f036e844503389a330613ca3d5", "lon": -77.03287433333334, "fusion_lat": 0.0, "is_disabled": 0, "is_reserved": 0, "rental_uris": {"ios": "https://dc.lft.to/lastmile_qr_scan", "android": "https://dc.lft.to/lastmile_qr_scan"}, "bike_id": "940393f036e844503389a330613ca3d5", "lat": 38.96409933333333}, {"type": "electric_scooter", "fusion_lon": 0.0, "name": "f2cf865984272a0563269d73635b623c", "lon": -76.986949, "fusion_lat": 0.0, "is_disabled": 0, "is_reserved": 0, "rental_uris": {"ios": "https://dc.lft.to/lastmile_qr_scan", "android": "https://dc.lft.to/lastmile_qr_scan"}, "bike_id": "f2cf865984272a0563269d73635b623c", "lat": 38.907074333333334}, {"type": "electric_scooter", "fusion_lon": 0.0, "name": "93aded9f206f61fd5f1e63e2a49780f0", "lon": -77.02207933333334, "fusion_lat": 0.0, "is_disabled": 0, "is_reserved": 0, "rental_uris": {"ios": "https://dc.lft.to/lastmile_qr_scan", "android": "https://dc.lft.to/lastmile_qr_scan"}, "bike_id": "93aded9f206f61fd5f1e63e2a49780f0", "lat": 38.92108283333334}, {"type": "electric_scooter", "fusion_lon": 0.0, "name": "d5ab7a65509e929f2e252ebd5bd22228", "lon": -77.00510016666667, "fusion_lat": 0.0, "is_disabled": 0, "is_reserved": 0, "rental_uris": {"ios": "https://dc.lft.to/lastmile_qr_scan", "android": "https://dc.lft.to/lastmile_qr_scan"}, "bike_id": "d5ab7a65509e929f2e252ebd5bd22228", "lat": 38.874593}, {"type": "electric_scooter", "fusion_lon": 0.0, "name": "00a2c522095d6f4997131c03f0710cfd", "lon": -77.01575283333334, "fusion_lat": 0.0, "is_disabled": 0, "is_reserved": 0, "rental_uris": {"ios": "https://dc.lft.to/lastmile_qr_scan", "android": "https://dc.lft.to/lastmile_qr_scan"}, "bike_id": "00a2c522095d6f4997131c03f0710cfd", "lat": 38.89179766666667}, {"type": "electric_bike", "fusion_lon": 0.0, "name": "dbe7d941a562923129c792b1d4eb2673", "lon": -77.11031116666666, "fusion_lat": 0.0, "is_disabled": 0, "is_reserved": 0, "rental_uris": {"ios": "https://dc.lft.to/lastmile_qr_scan", "android": "https://dc.lft.to/lastmile_qr_scan"}, "bike_id": "dbe7d941a562923129c792b1d4eb2673", "lat": 38.87066316666667}, {"type": "electric_scooter", "fusion_lon": 0.0, "name": "aa2ada7d65451ea4180fa5f9a1e69b84", "lon": -77.036411, "fusion_lat": 0.0, "is_disabled": 0, "is_reserved": 0, "rental_uris": {"ios": "https://dc.lft.to/lastmile_qr_scan", "android": "https://dc.lft.to/lastmile_qr_scan"}, "bike_id": "aa2ada7d65451ea4180fa5f9a1e69b84", "lat": 38.9050675}, {"type": "electric_scooter", "fusion_lon": 0.0, "name": "8ce5feb9d47a9e4d0650a4868d904fb8", "lon": -77.04993116666667, "fusion_lat": 0.0, "is_disabled": 0, "is_reserved": 0, "rental_uris": {"ios": "https://dc.lft.to/lastmile_qr_scan", "android": "https://dc.lft.to/lastmile_qr_scan"}, "bike_id": "8ce5feb9d47a9e4d0650a4868d904fb8", "lat": 38.8973035}, {"type": "electric_scooter", "fusion_lon": 0.0, "name": "c622351e14989078727054f089e33316", "lon": -77.04643883333334, "fusion_lat": 0.0, "is_disabled": 0, "is_reserved": 0, "rental_uris": {"ios": "https://dc.lft.to/lastmile_qr_scan", "android": "https://dc.lft.to/lastmile_qr_scan"}, "bike_id": "c622351e14989078727054f089e33316", "lat": 38.91975516666667}, {"type": "electric_scooter", "fusion_lon": 0.0, "name": "e7f3853824376d2f943ad5b09957d90b", "lon": -77.01799933333334, "fusion_lat": 0.0, "is_disabled": 0, "is_reserved": 0, "rental_uris": {"ios": "https://dc.lft.to/lastmile_qr_scan", "android": "https://dc.lft.to/lastmile_qr_scan"}, "bike_id": "e7f3853824376d2f943ad5b09957d90b", "lat": 38.9142255}, {"type": "electric_bike", "fusion_lon": 0.0, "name": "2f445f6d70bea6f56eb2e10ea91e08e1", "lon": -77.00609016666667, "fusion_lat": 0.0, "is_disabled": 0, "is_reserved": 0, "rental_uris": {"ios": "https://dc.lft.to/lastmile_qr_scan", "android": "https://dc.lft.to/lastmile_qr_scan"}, "bike_id": "2f445f6d70bea6f56eb2e10ea91e08e1", "lat": 38.8717955}, {"type": "electric_scooter", "fusion_lon": 0.0, "name": "cb2b9a02a880c4968096170353650edd", "lon": -77.02815733333334, "fusion_lat": 0.0, "is_disabled": 0, "is_reserved": 0, "rental_uris": {"ios": "https://dc.lft.to/lastmile_qr_scan", "android": "https://dc.lft.to/lastmile_qr_scan"}, "bike_id": "cb2b9a02a880c4968096170353650edd", "lat": 38.9093855}, {"type": "electric_scooter", "fusion_lon": 0.0, "name": "792821147980ab8edd28d1c663f5e97f", "lon": -77.0488355, "fusion_lat": 0.0, "is_disabled": 0, "is_reserved": 0, "rental_uris": {"ios": "https://dc.lft.to/lastmile_qr_scan", "android": "https://dc.lft.to/lastmile_qr_scan"}, "bike_id": "792821147980ab8edd28d1c663f5e97f", "lat": 38.900681666666664}, {"type": "electric_scooter", "fusion_lon": 0.0, "name": "06c11da074a81498ad01a7432685bb81", "lon": -77.02288883333334, "fusion_lat": 0.0, "is_disabled": 0, "is_reserved": 0, "rental_uris": {"ios": "https://dc.lft.to/lastmile_qr_scan", "android": "https://dc.lft.to/lastmile_qr_scan"}, "bike_id": "06c11da074a81498ad01a7432685bb81", "lat": 38.925073}, {"type": "electric_scooter", "fusion_lon": 0.0, "name": "721a435cb41fa1c8dbd3f3fb6a955e9f", "lon": -77.01975383333334, "fusion_lat": 0.0, "is_disabled": 0, "is_reserved": 0, "rental_uris": {"ios": "https://dc.lft.to/lastmile_qr_scan", "android": "https://dc.lft.to/lastmile_qr_scan"}, "bike_id": "721a435cb41fa1c8dbd3f3fb6a955e9f", "lat": 38.890584}, {"type": "electric_scooter", "fusion_lon": 0.0, "name": "da07798d0853076071fbd1581d90705d", "lon": -77.021682, "fusion_lat": 0.0, "is_disabled": 0, "is_reserved": 0, "rental_uris": {"ios": "https://dc.lft.to/lastmile_qr_scan", "android": "https://dc.lft.to/lastmile_qr_scan"}, "bike_id": "da07798d0853076071fbd1581d90705d", "lat": 38.91995133333333}, {"type": "electric_scooter", "fusion_lon": 0.0, "name": "1e3e7870147b3b868e4b3bec90bb50f9", "lon": -77.02793733333333, "fusion_lat": 0.0, "is_disabled": 0, "is_reserved": 0, "rental_uris": {"ios": "https://dc.lft.to/lastmile_qr_scan", "android": "https://dc.lft.to/lastmile_qr_scan"}, "bike_id": "1e3e7870147b3b868e4b3bec90bb50f9", "lat": 38.91011016666667}, {"type": "electric_scooter", "fusion_lon": 0.0, "name": "6ce0eca16443e5b0ed8a6f2887ba4415", "lon": -77.0330855, "fusion_lat": 0.0, "is_disabled": 0, "is_reserved": 0, "rental_uris": {"ios": "https://dc.lft.to/lastmile_qr_scan", "android": "https://dc.lft.to/lastmile_qr_scan"}, "bike_id": "6ce0eca16443e5b0ed8a6f2887ba4415", "lat": 38.928634333333335}, {"type": "electric_scooter", "fusion_lon": 0.0, "name": "0f649953be7a86e0799c76f1d6a928a5", "lon": -77.033534, "fusion_lat": 0.0, "is_disabled": 0, "is_reserved": 0, "rental_uris": {"ios": "https://dc.lft.to/lastmile_qr_scan", "android": "https://dc.lft.to/lastmile_qr_scan"}, "bike_id": "0f649953be7a86e0799c76f1d6a928a5", "lat": 38.922374833333336}, {"type": "electric_scooter", "fusion_lon": 0.0, "name": "4c3af4ce04f8ddd2837ec9d4559b4cc3", "lon": -77.02827416666666, "fusion_lat": 0.0, "is_disabled": 0, "is_reserved": 0, "rental_uris": {"ios": "https://dc.lft.to/lastmile_qr_scan", "android": "https://dc.lft.to/lastmile_qr_scan"}, "bike_id": "4c3af4ce04f8ddd2837ec9d4559b4cc3", "lat": 38.922380833333335}, {"type": "electric_scooter", "fusion_lon": 0.0, "name": "e5c57bdda6d7464741faa6cf711f03e3", "lon": -77.02405466666667, "fusion_lat": 0.0, "is_disabled": 0, "is_reserved": 0, "rental_uris": {"ios": "https://dc.lft.to/lastmile_qr_scan", "android": "https://dc.lft.to/lastmile_qr_scan"}, "bike_id": "e5c57bdda6d7464741faa6cf711f03e3", "lat": 38.896602333333334}, {"type": "electric_bike", "fusion_lon": 0.0, "name": "cd931a7f4d34d4b144d81c40a9771822", "lon": -76.92333816666667, "fusion_lat": 0.0, "is_disabled": 0, "is_reserved": 0, "rental_uris": {"ios": "https://dc.lft.to/lastmile_qr_scan", "android": "https://dc.lft.to/lastmile_qr_scan"}, "bike_id": "cd931a7f4d34d4b144d81c40a9771822", "lat": 38.91032533333333}, {"type": "electric_scooter", "fusion_lon": 0.0, "name": "a12ca81a762aba5d9d3f640ea35d5818", "lon": -77.04487066666667, "fusion_lat": 0.0, "is_disabled": 0, "is_reserved": 0, "rental_uris": {"ios": "https://dc.lft.to/lastmile_qr_scan", "android": "https://dc.lft.to/lastmile_qr_scan"}, "bike_id": "a12ca81a762aba5d9d3f640ea35d5818", "lat": 38.8997865}, {"type": "electric_scooter", "fusion_lon": 0.0, "name": "d6ac3352b83bde9493ce0cfb3b27c8a2", "lon": -77.02707766666667, "fusion_lat": 0.0, "is_disabled": 0, "is_reserved": 0, "rental_uris": {"ios": "https://dc.lft.to/lastmile_qr_scan", "android": "https://dc.lft.to/lastmile_qr_scan"}, "bike_id": "d6ac3352b83bde9493ce0cfb3b27c8a2", "lat": 38.899904166666666}, {"type": "electric_scooter", "fusion_lon": 0.0, "name": "2fa88f0fc1f8724d6c0f350cc3044ecb", "lon": -77.02494866666666, "fusion_lat": 0.0, "is_disabled": 0, "is_reserved": 0, "rental_uris": {"ios": "https://dc.lft.to/lastmile_qr_scan", "android": "https://dc.lft.to/lastmile_qr_scan"}, "bike_id": "2fa88f0fc1f8724d6c0f350cc3044ecb", "lat": 38.9180655}, {"type": "electric_scooter", "fusion_lon": 0.0, "name": "7842e2946a09ea61a6ed5c0459b3fc7a", "lon": -77.05098483333333, "fusion_lat": 0.0, "is_disabled": 0, "is_reserved": 0, "rental_uris": {"ios": "https://dc.lft.to/lastmile_qr_scan", "android": "https://dc.lft.to/lastmile_qr_scan"}, "bike_id": "7842e2946a09ea61a6ed5c0459b3fc7a", "lat": 38.923612166666665}, {"type": "electric_scooter", "fusion_lon": 0.0, "name": "50fda010783250fd5bf9714bd53a6454", "lon": -77.06282083333333, "fusion_lat": 0.0, "is_disabled": 0, "is_reserved": 0, "rental_uris": {"ios": "https://dc.lft.to/lastmile_qr_scan", "android": "https://dc.lft.to/lastmile_qr_scan"}, "bike_id": "50fda010783250fd5bf9714bd53a6454", "lat": 38.90569883333333}, {"type": "electric_scooter", "fusion_lon": 0.0, "name": "eb03fea90bf7ea0a79410efdeca7a3da", "lon": -77.032594, "fusion_lat": 0.0, "is_disabled": 0, "is_reserved": 0, "rental_uris": {"ios": "https://dc.lft.to/lastmile_qr_scan", "android": "https://dc.lft.to/lastmile_qr_scan"}, "bike_id": "eb03fea90bf7ea0a79410efdeca7a3da", "lat": 38.911214666666666}, {"type": "electric_scooter", "fusion_lon": 0.0, "name": "5d7489fbed194defa445340bed0bfef4", "lon": -77.07264416666666, "fusion_lat": 0.0, "is_disabled": 0, "is_reserved": 0, "rental_uris": {"ios": "https://dc.lft.to/lastmile_qr_scan", "android": "https://dc.lft.to/lastmile_qr_scan"}, "bike_id": "5d7489fbed194defa445340bed0bfef4", "lat": 38.907892}, {"type": "electric_scooter", "fusion_lon": 0.0, "name": "b84155510b4dad3fb639be8f951dd78e", "lon": -77.0270345, "fusion_lat": 0.0, "is_disabled": 0, "is_reserved": 0, "rental_uris": {"ios": "https://dc.lft.to/lastmile_qr_scan", "android": "https://dc.lft.to/lastmile_qr_scan"}, "bike_id": "b84155510b4dad3fb639be8f951dd78e", "lat": 38.881463333333336}, {"type": "electric_scooter", "fusion_lon": 0.0, "name": "3c056ee48e7a88028d838a0050fd0a9a", "lon": -77.015528, "fusion_lat": 0.0, "is_disabled": 0, "is_reserved": 0, "rental_uris": {"ios": "https://dc.lft.to/lastmile_qr_scan", "android": "https://dc.lft.to/lastmile_qr_scan"}, "bike_id": "3c056ee48e7a88028d838a0050fd0a9a", "lat": 38.891741833333334}, {"type": "electric_scooter", "fusion_lon": 0.0, "name": "40f64a1db55f3122e1b275ad27186ef0", "lon": -77.01367333333333, "fusion_lat": 0.0, "is_disabled": 0, "is_reserved": 0, "rental_uris": {"ios": "https://dc.lft.to/lastmile_qr_scan", "android": "https://dc.lft.to/lastmile_qr_scan"}, "bike_id": "40f64a1db55f3122e1b275ad27186ef0", "lat": 38.88706766666667}, {"type": "electric_scooter", "fusion_lon": 0.0, "name": "d300c84e6b9ae305329732833a4613fe", "lon": -76.982789, "fusion_lat": 0.0, "is_disabled": 0, "is_reserved": 0, "rental_uris": {"ios": "https://dc.lft.to/lastmile_qr_scan", "android": "https://dc.lft.to/lastmile_qr_scan"}, "bike_id": "d300c84e6b9ae305329732833a4613fe", "lat": 38.903431}, {"type": "electric_bike", "fusion_lon": 0.0, "name": "85d1e26fcfacd82d2d25db6ad54bef80", "lon": -77.06381483333334, "fusion_lat": 0.0, "is_disabled": 0, "is_reserved": 0, "rental_uris": {"ios": "https://dc.lft.to/lastmile_qr_scan", "android": "https://dc.lft.to/lastmile_qr_scan"}, "bike_id": "85d1e26fcfacd82d2d25db6ad54bef80", "lat": 38.8428945}, {"type": "electric_bike", "fusion_lon": 0.0, "name": "2c84971e053ded4900d5456067178974", "lon": -77.02320766666666, "fusion_lat": 0.0, "is_disabled": 0, "is_reserved": 0, "rental_uris": {"ios": "https://dc.lft.to/lastmile_qr_scan", "android": "https://dc.lft.to/lastmile_qr_scan"}, "bike_id": "2c84971e053ded4900d5456067178974", "lat": 38.994057}, {"type": "electric_scooter", "fusion_lon": 0.0, "name": "8a45cab6358559b224291351d9f4a5b9", "lon": -77.036285, "fusion_lat": 0.0, "is_disabled": 0, "is_reserved": 0, "rental_uris": {"ios": "https://dc.lft.to/lastmile_qr_scan", "android": "https://dc.lft.to/lastmile_qr_scan"}, "bike_id": "8a45cab6358559b224291351d9f4a5b9", "lat": 38.908417}, {"type": "electric_scooter", "fusion_lon": 0.0, "name": "762c9c604c184c56dd4068ba60a3654e", "lon": -77.03659816666666, "fusion_lat": 0.0, "is_disabled": 0, "is_reserved": 0, "rental_uris": {"ios": "https://dc.lft.to/lastmile_qr_scan", "android": "https://dc.lft.to/lastmile_qr_scan"}, "bike_id": "762c9c604c184c56dd4068ba60a3654e", "lat": 38.902747833333336}, {"type": "electric_scooter", "fusion_lon": 0.0, "name": "b29e1a53f17c47ebed610cb3e21f5304", "lon": -77.02717, "fusion_lat": 0.0, "is_disabled": 0, "is_reserved": 0, "rental_uris": {"ios": "https://dc.lft.to/lastmile_qr_scan", "android": "https://dc.lft.to/lastmile_qr_scan"}, "bike_id": "b29e1a53f17c47ebed610cb3e21f5304", "lat": 38.9723905}, {"type": "electric_scooter", "fusion_lon": 0.0, "name": "230d31c388c4ce7df8929930378af41e", "lon": -77.0229075, "fusion_lat": 0.0, "is_disabled": 0, "is_reserved": 0, "rental_uris": {"ios": "https://dc.lft.to/lastmile_qr_scan", "android": "https://dc.lft.to/lastmile_qr_scan"}, "bike_id": "230d31c388c4ce7df8929930378af41e", "lat": 38.91683616666667}, {"type": "electric_bike", "fusion_lon": 0.0, "name": "f9f3a0f1cf676229d9a3f2186dc77625", "lon": -76.93179383333333, "fusion_lat": 0.0, "is_disabled": 0, "is_reserved": 0, "rental_uris": {"ios": "https://dc.lft.to/lastmile_qr_scan", "android": "https://dc.lft.to/lastmile_qr_scan"}, "bike_id": "f9f3a0f1cf676229d9a3f2186dc77625", "lat": 38.902189166666666}, {"type": "electric_scooter", "fusion_lon": 0.0, "name": "0ce55e5b7449f960e74e202a75671fd8", "lon": -77.02022866666667, "fusion_lat": 0.0, "is_disabled": 0, "is_reserved": 0, "rental_uris": {"ios": "https://dc.lft.to/lastmile_qr_scan", "android": "https://dc.lft.to/lastmile_qr_scan"}, "bike_id": "0ce55e5b7449f960e74e202a75671fd8", "lat": 38.92174133333333}, {"type": "electric_scooter", "fusion_lon": 0.0, "name": "b635fb8066a0684e33936b6cb8957303", "lon": -76.97935366666667, "fusion_lat": 0.0, "is_disabled": 0, "is_reserved": 0, "rental_uris": {"ios": "https://dc.lft.to/lastmile_qr_scan", "android": "https://dc.lft.to/lastmile_qr_scan"}, "bike_id": "b635fb8066a0684e33936b6cb8957303", "lat": 38.9068615}, {"type": "electric_scooter", "fusion_lon": 0.0, "name": "a8c11a04a758fd49adca12425f2c1f80", "lon": -77.03814166666666, "fusion_lat": 0.0, "is_disabled": 0, "is_reserved": 0, "rental_uris": {"ios": "https://dc.lft.to/lastmile_qr_scan", "android": "https://dc.lft.to/lastmile_qr_scan"}, "bike_id": "a8c11a04a758fd49adca12425f2c1f80", "lat": 38.9248435}, {"type": "electric_scooter", "fusion_lon": 0.0, "name": "182e3af9eca4db5cf4012b7f638284ff", "lon": -77.02712933333333, "fusion_lat": 0.0, "is_disabled": 0, "is_reserved": 0, "rental_uris": {"ios": "https://dc.lft.to/lastmile_qr_scan", "android": "https://dc.lft.to/lastmile_qr_scan"}, "bike_id": "182e3af9eca4db5cf4012b7f638284ff", "lat": 38.924660833333334}, {"type": "electric_scooter", "fusion_lon": 0.0, "name": "8904d5796f403f04edb49af601719c5d", "lon": -77.03282433333334, "fusion_lat": 0.0, "is_disabled": 0, "is_reserved": 0, "rental_uris": {"ios": "https://dc.lft.to/lastmile_qr_scan", "android": "https://dc.lft.to/lastmile_qr_scan"}, "bike_id": "8904d5796f403f04edb49af601719c5d", "lat": 38.931115166666665}, {"type": "electric_scooter", "fusion_lon": 0.0, "name": "582c5e067ca84a51005e70a1cab6a321", "lon": -77.04188316666666, "fusion_lat": 0.0, "is_disabled": 0, "is_reserved": 0, "rental_uris": {"ios": "https://dc.lft.to/lastmile_qr_scan", "android": "https://dc.lft.to/lastmile_qr_scan"}, "bike_id": "582c5e067ca84a51005e70a1cab6a321", "lat": 38.905357}, {"type": "electric_scooter", "fusion_lon": 0.0, "name": "200ccf6bd4c7228583d96e63cdc08d2a", "lon": -77.0604835, "fusion_lat": 0.0, "is_disabled": 0, "is_reserved": 0, "rental_uris": {"ios": "https://dc.lft.to/lastmile_qr_scan", "android": "https://dc.lft.to/lastmile_qr_scan"}, "bike_id": "200ccf6bd4c7228583d96e63cdc08d2a", "lat": 38.905185833333334}, {"type": "electric_scooter", "fusion_lon": 0.0, "name": "6d77c06441c5313deec396be91e220a6", "lon": -77.05553783333333, "fusion_lat": 0.0, "is_disabled": 0, "is_reserved": 0, "rental_uris": {"ios": "https://dc.lft.to/lastmile_qr_scan", "android": "https://dc.lft.to/lastmile_qr_scan"}, "bike_id": "6d77c06441c5313deec396be91e220a6", "lat": 38.90008783333333}, {"type": "electric_bike", "fusion_lon": 0.0, "name": "9e8e41d390a1539e5c0c39d4a84c0510", "lon": -76.99703816666667, "fusion_lat": 0.0, "is_disabled": 0, "is_reserved": 0, "rental_uris": {"ios": "https://dc.lft.to/lastmile_qr_scan", "android": "https://dc.lft.to/lastmile_qr_scan"}, "bike_id": "9e8e41d390a1539e5c0c39d4a84c0510", "lat": 38.83868183333333}, {"type": "electric_scooter", "fusion_lon": 0.0, "name": "390f07da0e99df9411d5729415ef7849", "lon": -77.04146083333333, "fusion_lat": 0.0, "is_disabled": 0, "is_reserved": 0, "rental_uris": {"ios": "https://dc.lft.to/lastmile_qr_scan", "android": "https://dc.lft.to/lastmile_qr_scan"}, "bike_id": "390f07da0e99df9411d5729415ef7849", "lat": 38.8822015}, {"type": "electric_scooter", "fusion_lon": 0.0, "name": "ae85ae37e9526bbe64183e7499085c6b", "lon": -77.02349883333333, "fusion_lat": 0.0, "is_disabled": 0, "is_reserved": 0, "rental_uris": {"ios": "https://dc.lft.to/lastmile_qr_scan", "android": "https://dc.lft.to/lastmile_qr_scan"}, "bike_id": "ae85ae37e9526bbe64183e7499085c6b", "lat": 38.9352765}, {"type": "electric_scooter", "fusion_lon": 0.0, "name": "b2d2948acc151fbd4ead2ffcbfe6b3a8", "lon": -77.01500883333334, "fusion_lat": 0.0, "is_disabled": 0, "is_reserved": 0, "rental_uris": {"ios": "https://dc.lft.to/lastmile_qr_scan", "android": "https://dc.lft.to/lastmile_qr_scan"}, "bike_id": "b2d2948acc151fbd4ead2ffcbfe6b3a8", "lat": 38.90149666666667}, {"type": "electric_scooter", "fusion_lon": 0.0, "name": "b1680ff11a069992b98b6c27cd89e3d9", "lon": -77.02690966666667, "fusion_lat": 0.0, "is_disabled": 0, "is_reserved": 0, "rental_uris": {"ios": "https://dc.lft.to/lastmile_qr_scan", "android": "https://dc.lft.to/lastmile_qr_scan"}, "bike_id": "b1680ff11a069992b98b6c27cd89e3d9", "lat": 38.89720616666666}, {"type": "electric_scooter", "fusion_lon": 0.0, "name": "551cfecb7bc6d242120b8cef43ba6036", "lon": -77.06124383333334, "fusion_lat": 0.0, "is_disabled": 0, "is_reserved": 0, "rental_uris": {"ios": "https://dc.lft.to/lastmile_qr_scan", "android": "https://dc.lft.to/lastmile_qr_scan"}, "bike_id": "551cfecb7bc6d242120b8cef43ba6036", "lat": 38.90454616666667}, {"type": "electric_scooter", "fusion_lon": 0.0, "name": "6463c1f13ba07aad22af4954c6d6f80d", "lon": -77.01803783333334, "fusion_lat": 0.0, "is_disabled": 0, "is_reserved": 0, "rental_uris": {"ios": "https://dc.lft.to/lastmile_qr_scan", "android": "https://dc.lft.to/lastmile_qr_scan"}, "bike_id": "6463c1f13ba07aad22af4954c6d6f80d", "lat": 38.91421966666667}, {"type": "electric_scooter", "fusion_lon": 0.0, "name": "3ad334d989cb2c3c3a195692dca13148", "lon": -76.99503783333333, "fusion_lat": 0.0, "is_disabled": 0, "is_reserved": 0, "rental_uris": {"ios": "https://dc.lft.to/lastmile_qr_scan", "android": "https://dc.lft.to/lastmile_qr_scan"}, "bike_id": "3ad334d989cb2c3c3a195692dca13148", "lat": 38.89514066666667}, {"type": "electric_scooter", "fusion_lon": 0.0, "name": "ccda4cdf72b0a27bbfe23eaa1ef6ef80", "lon": -76.98249183333333, "fusion_lat": 0.0, "is_disabled": 0, "is_reserved": 0, "rental_uris": {"ios": "https://dc.lft.to/lastmile_qr_scan", "android": "https://dc.lft.to/lastmile_qr_scan"}, "bike_id": "ccda4cdf72b0a27bbfe23eaa1ef6ef80", "lat": 38.904538333333335}, {"type": "electric_scooter", "fusion_lon": 0.0, "name": "0d65f46a34b644142aeb25dfe51053fc", "lon": -77.02838466666667, "fusion_lat": 0.0, "is_disabled": 0, "is_reserved": 0, "rental_uris": {"ios": "https://dc.lft.to/lastmile_qr_scan", "android": "https://dc.lft.to/lastmile_qr_scan"}, "bike_id": "0d65f46a34b644142aeb25dfe51053fc", "lat": 38.93454366666667}, {"type": "electric_scooter", "fusion_lon": 0.0, "name": "3dd0a47cf77e744522b590ce065b3ff0", "lon": -77.07306116666666, "fusion_lat": 0.0, "is_disabled": 0, "is_reserved": 0, "rental_uris": {"ios": "https://dc.lft.to/lastmile_qr_scan", "android": "https://dc.lft.to/lastmile_qr_scan"}, "bike_id": "3dd0a47cf77e744522b590ce065b3ff0", "lat": 38.90835466666667}, {"type": "electric_scooter", "fusion_lon": 0.0, "name": "375415d98477055a58c69c996a6651b0", "lon": -77.024043, "fusion_lat": 0.0, "is_disabled": 0, "is_reserved": 0, "rental_uris": {"ios": "https://dc.lft.to/lastmile_qr_scan", "android": "https://dc.lft.to/lastmile_qr_scan"}, "bike_id": "375415d98477055a58c69c996a6651b0", "lat": 38.896832}, {"type": "electric_scooter", "fusion_lon": 0.0, "name": "44ef2602c749c229dcc3f01f9c7fac5b", "lon": -77.02600983333333, "fusion_lat": 0.0, "is_disabled": 0, "is_reserved": 0, "rental_uris": {"ios": "https://dc.lft.to/lastmile_qr_scan", "android": "https://dc.lft.to/lastmile_qr_scan"}, "bike_id": "44ef2602c749c229dcc3f01f9c7fac5b", "lat": 38.916931}, {"type": "electric_scooter", "fusion_lon": 0.0, "name": "3e4ff8ce77b5e5d05842cbd8915d1785", "lon": -77.02054333333334, "fusion_lat": 0.0, "is_disabled": 0, "is_reserved": 0, "rental_uris": {"ios": "https://dc.lft.to/lastmile_qr_scan", "android": "https://dc.lft.to/lastmile_qr_scan"}, "bike_id": "3e4ff8ce77b5e5d05842cbd8915d1785", "lat": 38.91360983333333}, {"type": "electric_scooter", "fusion_lon": 0.0, "name": "3d42cb1ea07c6d7ac103b7f548f166ef", "lon": -77.02361366666666, "fusion_lat": 0.0, "is_disabled": 0, "is_reserved": 0, "rental_uris": {"ios": "https://dc.lft.to/lastmile_qr_scan", "android": "https://dc.lft.to/lastmile_qr_scan"}, "bike_id": "3d42cb1ea07c6d7ac103b7f548f166ef", "lat": 38.925170666666666}, {"type": "electric_scooter", "fusion_lon": 0.0, "name": "a58f03ee12863d153e1da7e62d5cd2cb", "lon": -77.02621116666667, "fusion_lat": 0.0, "is_disabled": 0, "is_reserved": 0, "rental_uris": {"ios": "https://dc.lft.to/lastmile_qr_scan", "android": "https://dc.lft.to/lastmile_qr_scan"}, "bike_id": "a58f03ee12863d153e1da7e62d5cd2cb", "lat": 38.8921995}, {"type": "electric_bike", "fusion_lon": 0.0, "name": "060e235fbc5d752bf03da70c2028c456", "lon": -77.004899, "fusion_lat": 0.0, "is_disabled": 0, "is_reserved": 0, "rental_uris": {"ios": "https://dc.lft.to/lastmile_qr_scan", "android": "https://dc.lft.to/lastmile_qr_scan"}, "bike_id": "060e235fbc5d752bf03da70c2028c456", "lat": 38.879488}, {"type": "electric_scooter", "fusion_lon": 0.0, "name": "def8d2816f1648511fc7ede81a1e0bec", "lon": -76.9375315, "fusion_lat": 0.0, "is_disabled": 0, "is_reserved": 0, "rental_uris": {"ios": "https://dc.lft.to/lastmile_qr_scan", "android": "https://dc.lft.to/lastmile_qr_scan"}, "bike_id": "def8d2816f1648511fc7ede81a1e0bec", "lat": 38.8904175}, {"type": "electric_scooter", "fusion_lon": 0.0, "name": "d2a184465674e5d12c5643f91fb635e4", "lon": -77.02153516666667, "fusion_lat": 0.0, "is_disabled": 0, "is_reserved": 0, "rental_uris": {"ios": "https://dc.lft.to/lastmile_qr_scan", "android": "https://dc.lft.to/lastmile_qr_scan"}, "bike_id": "d2a184465674e5d12c5643f91fb635e4", "lat": 38.877332833333334}, {"type": "electric_scooter", "fusion_lon": 0.0, "name": "737c2990a63f5702c40e0ae015f33a83", "lon": -77.0351815, "fusion_lat": 0.0, "is_disabled": 0, "is_reserved": 0, "rental_uris": {"ios": "https://dc.lft.to/lastmile_qr_scan", "android": "https://dc.lft.to/lastmile_qr_scan"}, "bike_id": "737c2990a63f5702c40e0ae015f33a83", "lat": 38.9183645}, {"type": "electric_scooter", "fusion_lon": 0.0, "name": "2fa273c576cf50342a78f6511221b91f", "lon": -77.03227166666667, "fusion_lat": 0.0, "is_disabled": 0, "is_reserved": 0, "rental_uris": {"ios": "https://dc.lft.to/lastmile_qr_scan", "android": "https://dc.lft.to/lastmile_qr_scan"}, "bike_id": "2fa273c576cf50342a78f6511221b91f", "lat": 38.9617735}, {"type": "electric_scooter", "fusion_lon": 0.0, "name": "b7fe0c821669a10864b06a5d01561b15", "lon": -77.02302816666666, "fusion_lat": 0.0, "is_disabled": 0, "is_reserved": 0, "rental_uris": {"ios": "https://dc.lft.to/lastmile_qr_scan", "android": "https://dc.lft.to/lastmile_qr_scan"}, "bike_id": "b7fe0c821669a10864b06a5d01561b15", "lat": 38.91780333333333}, {"type": "electric_bike", "fusion_lon": 0.0, "name": "6363dbed30e4b8639498df66d764b2e7", "lon": -77.0337045, "fusion_lat": 0.0, "is_disabled": 0, "is_reserved": 0, "rental_uris": {"ios": "https://dc.lft.to/lastmile_qr_scan", "android": "https://dc.lft.to/lastmile_qr_scan"}, "bike_id": "6363dbed30e4b8639498df66d764b2e7", "lat": 38.9650685}, {"type": "electric_scooter", "fusion_lon": 0.0, "name": "46d1989517df1ae4843c43b81d841acd", "lon": -76.93603116666667, "fusion_lat": 0.0, "is_disabled": 0, "is_reserved": 0, "rental_uris": {"ios": "https://dc.lft.to/lastmile_qr_scan", "android": "https://dc.lft.to/lastmile_qr_scan"}, "bike_id": "46d1989517df1ae4843c43b81d841acd", "lat": 38.88959366666667}, {"type": "electric_scooter", "fusion_lon": 0.0, "name": "89725ae43164f905177591f8fb72af1d", "lon": -77.04172116666666, "fusion_lat": 0.0, "is_disabled": 0, "is_reserved": 0, "rental_uris": {"ios": "https://dc.lft.to/lastmile_qr_scan", "android": "https://dc.lft.to/lastmile_qr_scan"}, "bike_id": "89725ae43164f905177591f8fb72af1d", "lat": 38.894994833333335}, {"type": "electric_scooter", "fusion_lon": 0.0, "name": "b28d55189eab76874cce5c22cd7359c9", "lon": -77.041613, "fusion_lat": 0.0, "is_disabled": 0, "is_reserved": 0, "rental_uris": {"ios": "https://dc.lft.to/lastmile_qr_scan", "android": "https://dc.lft.to/lastmile_qr_scan"}, "bike_id": "b28d55189eab76874cce5c22cd7359c9", "lat": 38.92417616666667}, {"type": "electric_scooter", "fusion_lon": 0.0, "name": "bca0485486764efc6a803d1eef402672", "lon": -77.048663, "fusion_lat": 0.0, "is_disabled": 0, "is_reserved": 0, "rental_uris": {"ios": "https://dc.lft.to/lastmile_qr_scan", "android": "https://dc.lft.to/lastmile_qr_scan"}, "bike_id": "bca0485486764efc6a803d1eef402672", "lat": 38.8922155}, {"type": "electric_scooter", "fusion_lon": 0.0, "name": "fbeedd1a7479dd76554565ba4ee4a7f9", "lon": -77.03815116666667, "fusion_lat": 0.0, "is_disabled": 0, "is_reserved": 0, "rental_uris": {"ios": "https://dc.lft.to/lastmile_qr_scan", "android": "https://dc.lft.to/lastmile_qr_scan"}, "bike_id": "fbeedd1a7479dd76554565ba4ee4a7f9", "lat": 38.93523533333333}, {"type": "electric_scooter", "fusion_lon": 0.0, "name": "32de2268e36c23909ae789d4c3e821dd", "lon": -77.03350733333333, "fusion_lat": 0.0, "is_disabled": 0, "is_reserved": 0, "rental_uris": {"ios": "https://dc.lft.to/lastmile_qr_scan", "android": "https://dc.lft.to/lastmile_qr_scan"}, "bike_id": "32de2268e36c23909ae789d4c3e821dd", "lat": 38.89244983333333}, {"type": "electric_scooter", "fusion_lon": 0.0, "name": "6c3b50ed15c311bcc60ad906d93d90eb", "lon": -76.99434783333334, "fusion_lat": 0.0, "is_disabled": 0, "is_reserved": 0, "rental_uris": {"ios": "https://dc.lft.to/lastmile_qr_scan", "android": "https://dc.lft.to/lastmile_qr_scan"}, "bike_id": "6c3b50ed15c311bcc60ad906d93d90eb", "lat": 38.93861883333334}, {"type": "electric_scooter", "fusion_lon": 0.0, "name": "cf81a1dde7bdaac5577a9f51fb22df9d", "lon": -77.037985, "fusion_lat": 0.0, "is_disabled": 0, "is_reserved": 0, "rental_uris": {"ios": "https://dc.lft.to/lastmile_qr_scan", "android": "https://dc.lft.to/lastmile_qr_scan"}, "bike_id": "cf81a1dde7bdaac5577a9f51fb22df9d", "lat": 38.916985333333336}, {"type": "electric_scooter", "fusion_lon": 0.0, "name": "cf63bffe87821b9dd25345c2ffa02456", "lon": -77.02352616666667, "fusion_lat": 0.0, "is_disabled": 0, "is_reserved": 0, "rental_uris": {"ios": "https://dc.lft.to/lastmile_qr_scan", "android": "https://dc.lft.to/lastmile_qr_scan"}, "bike_id": "cf63bffe87821b9dd25345c2ffa02456", "lat": 38.90866033333333}, {"type": "electric_scooter", "fusion_lon": 0.0, "name": "1bf19751d3f571cf5d48d1ea5d8e48a7", "lon": -77.00982633333334, "fusion_lat": 0.0, "is_disabled": 0, "is_reserved": 0, "rental_uris": {"ios": "https://dc.lft.to/lastmile_qr_scan", "android": "https://dc.lft.to/lastmile_qr_scan"}, "bike_id": "1bf19751d3f571cf5d48d1ea5d8e48a7", "lat": 38.87210316666667}, {"type": "electric_scooter", "fusion_lon": 0.0, "name": "f284ee4c72c6df9f04aea091472b5693", "lon": -77.03408366666666, "fusion_lat": 0.0, "is_disabled": 0, "is_reserved": 0, "rental_uris": {"ios": "https://dc.lft.to/lastmile_qr_scan", "android": "https://dc.lft.to/lastmile_qr_scan"}, "bike_id": "f284ee4c72c6df9f04aea091472b5693", "lat": 38.9025025}, {"type": "electric_scooter", "fusion_lon": 0.0, "name": "fc73f78f2071c88dd819a3ce51bc8ba4", "lon": -77.0441245, "fusion_lat": 0.0, "is_disabled": 0, "is_reserved": 0, "rental_uris": {"ios": "https://dc.lft.to/lastmile_qr_scan", "android": "https://dc.lft.to/lastmile_qr_scan"}, "bike_id": "fc73f78f2071c88dd819a3ce51bc8ba4", "lat": 38.92581783333333}, {"type": "electric_scooter", "fusion_lon": 0.0, "name": "2b9bbfa22874190363ae7922fe0f5630", "lon": -77.03175316666666, "fusion_lat": 0.0, "is_disabled": 0, "is_reserved": 0, "rental_uris": {"ios": "https://dc.lft.to/lastmile_qr_scan", "android": "https://dc.lft.to/lastmile_qr_scan"}, "bike_id": "2b9bbfa22874190363ae7922fe0f5630", "lat": 38.91418633333333}, {"type": "electric_scooter", "fusion_lon": 0.0, "name": "f6df06a8e426e48a307fe6316f903653", "lon": -77.0770175, "fusion_lat": 0.0, "is_disabled": 0, "is_reserved": 0, "rental_uris": {"ios": "https://dc.lft.to/lastmile_qr_scan", "android": "https://dc.lft.to/lastmile_qr_scan"}, "bike_id": "f6df06a8e426e48a307fe6316f903653", "lat": 38.9355405}, {"type": "electric_scooter", "fusion_lon": 0.0, "name": "95f3580ba9fdbacfb4221e92ccdf92ef", "lon": -77.011878, "fusion_lat": 0.0, "is_disabled": 0, "is_reserved": 0, "rental_uris": {"ios": "https://dc.lft.to/lastmile_qr_scan", "android": "https://dc.lft.to/lastmile_qr_scan"}, "bike_id": "95f3580ba9fdbacfb4221e92ccdf92ef", "lat": 38.90015283333334}, {"type": "electric_scooter", "fusion_lon": 0.0, "name": "d3c6c1a7ca9fd78656628b3ad33750a8", "lon": -77.0567805, "fusion_lat": 0.0, "is_disabled": 0, "is_reserved": 0, "rental_uris": {"ios": "https://dc.lft.to/lastmile_qr_scan", "android": "https://dc.lft.to/lastmile_qr_scan"}, "bike_id": "d3c6c1a7ca9fd78656628b3ad33750a8", "lat": 38.923296}, {"type": "electric_scooter", "fusion_lon": 0.0, "name": "69b5ff73e64f8771922abec1be782996", "lon": -77.04057283333333, "fusion_lat": 0.0, "is_disabled": 0, "is_reserved": 0, "rental_uris": {"ios": "https://dc.lft.to/lastmile_qr_scan", "android": "https://dc.lft.to/lastmile_qr_scan"}, "bike_id": "69b5ff73e64f8771922abec1be782996", "lat": 38.89898183333333}, {"type": "electric_scooter", "fusion_lon": 0.0, "name": "8fc5ab1d09ea74aaa9cd9f0bdec96f65", "lon": -77.03505633333333, "fusion_lat": 0.0, "is_disabled": 0, "is_reserved": 0, "rental_uris": {"ios": "https://dc.lft.to/lastmile_qr_scan", "android": "https://dc.lft.to/lastmile_qr_scan"}, "bike_id": "8fc5ab1d09ea74aaa9cd9f0bdec96f65", "lat": 38.91706033333333}, {"type": "electric_scooter", "fusion_lon": 0.0, "name": "6e4f5f5477532095fe4afbc75cfc28af", "lon": -77.03216716666667, "fusion_lat": 0.0, "is_disabled": 0, "is_reserved": 0, "rental_uris": {"ios": "https://dc.lft.to/lastmile_qr_scan", "android": "https://dc.lft.to/lastmile_qr_scan"}, "bike_id": "6e4f5f5477532095fe4afbc75cfc28af", "lat": 38.928631833333334}, {"type": "electric_scooter", "fusion_lon": 0.0, "name": "3d6a4cf0385831bd55c5ac465818e009", "lon": -77.0267605, "fusion_lat": 0.0, "is_disabled": 0, "is_reserved": 0, "rental_uris": {"ios": "https://dc.lft.to/lastmile_qr_scan", "android": "https://dc.lft.to/lastmile_qr_scan"}, "bike_id": "3d6a4cf0385831bd55c5ac465818e009", "lat": 38.9754805}, {"type": "electric_scooter", "fusion_lon": 0.0, "name": "d28189f632e1ce67b2a1cc5f114a26c8", "lon": -77.0750785, "fusion_lat": 0.0, "is_disabled": 0, "is_reserved": 0, "rental_uris": {"ios": "https://dc.lft.to/lastmile_qr_scan", "android": "https://dc.lft.to/lastmile_qr_scan"}, "bike_id": "d28189f632e1ce67b2a1cc5f114a26c8", "lat": 38.906754}, {"type": "electric_bike", "fusion_lon": 0.0, "name": "6f6c0fce79a06121f6eae52a95216fa2", "lon": -76.94519033333333, "fusion_lat": 0.0, "is_disabled": 0, "is_reserved": 0, "rental_uris": {"ios": "https://dc.lft.to/lastmile_qr_scan", "android": "https://dc.lft.to/lastmile_qr_scan"}, "bike_id": "6f6c0fce79a06121f6eae52a95216fa2", "lat": 38.86281016666667}, {"type": "electric_scooter", "fusion_lon": 0.0, "name": "09ed017bf50242a79ba44f4cf3ce2ce9", "lon": -77.04179, "fusion_lat": 0.0, "is_disabled": 0, "is_reserved": 0, "rental_uris": {"ios": "https://dc.lft.to/lastmile_qr_scan", "android": "https://dc.lft.to/lastmile_qr_scan"}, "bike_id": "09ed017bf50242a79ba44f4cf3ce2ce9", "lat": 38.900043}, {"type": "electric_scooter", "fusion_lon": 0.0, "name": "af76b76ec144e3e1b742db96ab09f3ba", "lon": -77.04671583333334, "fusion_lat": 0.0, "is_disabled": 0, "is_reserved": 0, "rental_uris": {"ios": "https://dc.lft.to/lastmile_qr_scan", "android": "https://dc.lft.to/lastmile_qr_scan"}, "bike_id": "af76b76ec144e3e1b742db96ab09f3ba", "lat": 38.9097175}, {"type": "electric_scooter", "fusion_lon": 0.0, "name": "1f25e80a5da73034d3206874d1fd7de4", "lon": -77.07308466666667, "fusion_lat": 0.0, "is_disabled": 0, "is_reserved": 0, "rental_uris": {"ios": "https://dc.lft.to/lastmile_qr_scan", "android": "https://dc.lft.to/lastmile_qr_scan"}, "bike_id": "1f25e80a5da73034d3206874d1fd7de4", "lat": 38.9354685}, {"type": "electric_scooter", "fusion_lon": 0.0, "name": "071d435a61dd9a6a6b345ba4d23e3b30", "lon": -77.04192566666667, "fusion_lat": 0.0, "is_disabled": 0, "is_reserved": 0, "rental_uris": {"ios": "https://dc.lft.to/lastmile_qr_scan", "android": "https://dc.lft.to/lastmile_qr_scan"}, "bike_id": "071d435a61dd9a6a6b345ba4d23e3b30", "lat": 38.92336783333333}, {"type": "electric_scooter", "fusion_lon": 0.0, "name": "516aa6a800b733ce021105fe4b554b41", "lon": -77.031159, "fusion_lat": 0.0, "is_disabled": 0, "is_reserved": 0, "rental_uris": {"ios": "https://dc.lft.to/lastmile_qr_scan", "android": "https://dc.lft.to/lastmile_qr_scan"}, "bike_id": "516aa6a800b733ce021105fe4b554b41", "lat": 38.92383916666667}, {"type": "electric_scooter", "fusion_lon": 0.0, "name": "28bff59bd5c6ab9f8f78d41ec2d682b3", "lon": -77.01872, "fusion_lat": 0.0, "is_disabled": 0, "is_reserved": 0, "rental_uris": {"ios": "https://dc.lft.to/lastmile_qr_scan", "android": "https://dc.lft.to/lastmile_qr_scan"}, "bike_id": "28bff59bd5c6ab9f8f78d41ec2d682b3", "lat": 38.91779666666667}, {"type": "electric_scooter", "fusion_lon": 0.0, "name": "f73e2c947946bdcf22275fda6a57fc5f", "lon": -76.979432, "fusion_lat": 0.0, "is_disabled": 0, "is_reserved": 0, "rental_uris": {"ios": "https://dc.lft.to/lastmile_qr_scan", "android": "https://dc.lft.to/lastmile_qr_scan"}, "bike_id": "f73e2c947946bdcf22275fda6a57fc5f", "lat": 38.906528333333334}, {"type": "electric_scooter", "fusion_lon": 0.0, "name": "e11737778f3d2cd59a3390f0779cac8c", "lon": -77.00745116666667, "fusion_lat": 0.0, "is_disabled": 0, "is_reserved": 0, "rental_uris": {"ios": "https://dc.lft.to/lastmile_qr_scan", "android": "https://dc.lft.to/lastmile_qr_scan"}, "bike_id": "e11737778f3d2cd59a3390f0779cac8c", "lat": 38.898448}, {"type": "electric_scooter", "fusion_lon": 0.0, "name": "6d8389a34232df2676df8a0ab8bed4dd", "lon": -77.013599, "fusion_lat": 0.0, "is_disabled": 0, "is_reserved": 0, "rental_uris": {"ios": "https://dc.lft.to/lastmile_qr_scan", "android": "https://dc.lft.to/lastmile_qr_scan"}, "bike_id": "6d8389a34232df2676df8a0ab8bed4dd", "lat": 38.871642}, {"type": "electric_scooter", "fusion_lon": 0.0, "name": "4c7bb27226ede09710f94bbf325392fa", "lon": -77.04494016666666, "fusion_lat": 0.0, "is_disabled": 0, "is_reserved": 0, "rental_uris": {"ios": "https://dc.lft.to/lastmile_qr_scan", "android": "https://dc.lft.to/lastmile_qr_scan"}, "bike_id": "4c7bb27226ede09710f94bbf325392fa", "lat": 38.91929016666667}, {"type": "electric_scooter", "fusion_lon": 0.0, "name": "e8a89605f41de9ee56d8060a5d592a0b", "lon": -77.04381316666667, "fusion_lat": 0.0, "is_disabled": 0, "is_reserved": 0, "rental_uris": {"ios": "https://dc.lft.to/lastmile_qr_scan", "android": "https://dc.lft.to/lastmile_qr_scan"}, "bike_id": "e8a89605f41de9ee56d8060a5d592a0b", "lat": 38.895942833333336}, {"type": "electric_scooter", "fusion_lon": 0.0, "name": "156345563cc742ef7f36b4ab0e490436", "lon": -77.04512483333333, "fusion_lat": 0.0, "is_disabled": 0, "is_reserved": 0, "rental_uris": {"ios": "https://dc.lft.to/lastmile_qr_scan", "android": "https://dc.lft.to/lastmile_qr_scan"}, "bike_id": "156345563cc742ef7f36b4ab0e490436", "lat": 38.91287033333333}, {"type": "electric_scooter", "fusion_lon": 0.0, "name": "82a575152a6e657ae2fb611f2a2ad39e", "lon": -77.02911333333333, "fusion_lat": 0.0, "is_disabled": 0, "is_reserved": 0, "rental_uris": {"ios": "https://dc.lft.to/lastmile_qr_scan", "android": "https://dc.lft.to/lastmile_qr_scan"},