{"data": {"bikes": [{"lon": -76.97388383333333, "bike_id": "627714a2b1ac004b90db0ef149d17b53", "lat": 38.90560283333333, "fusion_lon": 0.0, "fusion_lat": 0.0, "type": "electric_scooter", "name": "627714a2b1ac004b90db0ef149d17b53", "is_disabled": 0, "rental_uris": {"ios": "https://dc.lft.to/lastmile_qr_scan", "android": "https://dc.lft.to/lastmile_qr_scan"}, "is_reserved": 0}, {"lon": -77.02677916666667, "bike_id": "acc62ff1532de8da76ee30367dd00cff", "lat": 38.8972435, "fusion_lon": 0.0, "fusion_lat": 0.0, "type": "electric_scooter", "name": "acc62ff1532de8da76ee30367dd00cff", "is_disabled": 0, "rental_uris": {"ios": "https://dc.lft.to/lastmile_qr_scan", "android": "https://dc.lft.to/lastmile_qr_scan"}, "is_reserved": 0}, {"lon": -77.02572933333333, "bike_id": "caff64f24f16bb8688d18c693e600be2", "lat": 38.88406, "fusion_lon": 0.0, "fusion_lat": 0.0, "type": "electric_scooter", "name": "caff64f24f16bb8688d18c693e600be2", "is_disabled": 0, "rental_uris": {"ios": "https://dc.lft.to/lastmile_qr_scan", "android": "https://dc.lft.to/lastmile_qr_scan"}, "is_reserved": 0}, {"lon": -77.03397366666667, "bike_id": "38834276c2bbe17817ac3cd905cbf7b7", "lat": 38.90974033333333, "fusion_lon": 0.0, "fusion_lat": 0.0, "type": "electric_scooter", "name": "38834276c2bbe17817ac3cd905cbf7b7", "is_disabled": 0, "rental_uris": {"ios": "https://dc.lft.to/lastmile_qr_scan", "android": "https://dc.lft.to/lastmile_qr_scan"}, "is_reserved": 0}, {"lon": -77.023534, "bike_id": "6ca5cc5df4dd1e71d0a05af1df1283df", "lat": 38.93020083333333, "fusion_lon": 0.0, "fusion_lat": 0.0, "type": "electric_scooter", "name": "6ca5cc5df4dd1e71d0a05af1df1283df", "is_disabled": 0, "rental_uris": {"ios": "https://dc.lft.to/lastmile_qr_scan", "android": "https://dc.lft.to/lastmile_qr_scan"}, "is_reserved": 0}, {"lon": -77.084565, "bike_id": "95d410f486245c47c3a1c4e48d74cdee", "lat": 38.848213666666666, "fusion_lon": 0.0, "fusion_lat": 0.0, "type": "electric_bike", "name": "95d410f486245c47c3a1c4e48d74cdee", "is_disabled": 0, "rental_uris": {"ios": "https://dc.lft.to/lastmile_qr_scan", "android": "https://dc.lft.to/lastmile_qr_scan"}, "is_reserved": 0}, {"lon": -77.03425483333334, "bike_id": "0f2232cc715cab5c76e3b1c8caba3dcd", "lat": 38.92245233333333, "fusion_lon": 0.0, "fusion_lat": 0.0, "type": "electric_scooter", "name": "0f2232cc715cab5c76e3b1c8caba3dcd", "is_disabled": 0, "rental_uris": {"ios": "https://dc.lft.to/lastmile_qr_scan", "android": "https://dc.lft.to/lastmile_qr_scan"}, "is_reserved": 0}, {"lon": -77.03891883333333, "bike_id": "3dea9b183840c6e7d31b9faad4bc935c", "lat": 38.923596, "fusion_lon": 0.0, "fusion_lat": 0.0, "type": "electric_scooter", "name": "3dea9b183840c6e7d31b9faad4bc935c", "is_disabled": 0, "rental_uris": {"ios": "https://dc.lft.to/lastmile_qr_scan", "android": "https://dc.lft.to/lastmile_qr_scan"}, "is_reserved": 0}, {"lon": -77.03500466666667, "bike_id": "08558b54c88b19770fd33ccbdc14b40c", "lat": 38.93755916666667, "fusion_lon": 0.0, "fusion_lat": 0.0, "type": "electric_scooter", "name": "08558b54c88b19770fd33ccbdc14b40c", "is_disabled": 0, "rental_uris": {"ios": "https://dc.lft.to/lastmile_qr_scan", "android": "https://dc.lft.to/lastmile_qr_scan"}, "is_reserved": 0}, {"lon": -77.03399983333334, "bike_id": "7df1da66ed338c73ff01251412a67bc8", "lat": 38.909888333333335, "fusion_lon": 0.0, "fusion_lat": 0.0, "type": "electric_scooter", "name": "7df1da66ed338c73ff01251412a67bc8", "is_disabled": 0, "rental_uris": {"ios": "https://dc.lft.to/lastmile_qr_scan", "android": "https://dc.lft.to/lastmile_qr_scan"}, "is_reserved": 0}, {"lon": -76.97549916666667, "bike_id": "f858813340aa5480be416a8e7cd48f4d", "lat": 38.90325033333333, "fusion_lon": 0.0, "fusion_lat": 0.0, "type": "electric_scooter", "name": "f858813340aa5480be416a8e7cd48f4d", "is_disabled": 0, "rental_uris": {"ios": "https://dc.lft.to/lastmile_qr_scan", "android": "https://dc.lft.to/lastmile_qr_scan"}, "is_reserved": 0}, {"lon": -77.03204883333333, "bike_id": "379fe83b172613e149e948360cb75f6a", "lat": 38.916501333333336, "fusion_lon": 0.0, "fusion_lat": 0.0, "type": "electric_scooter", "name": "379fe83b172613e149e948360cb75f6a", "is_disabled": 0, "rental_uris": {"ios": "https://dc.lft.to/lastmile_qr_scan", "android": "https://dc.lft.to/lastmile_qr_scan"}, "is_reserved": 0}, {"lon": -76.946333, "bike_id": "1d34dbb0853e81e3547ea7d527e75faa", "lat": 38.8983495, "fusion_lon": 0.0, "fusion_lat": 0.0, "type": "electric_scooter", "name": "1d34dbb0853e81e3547ea7d527e75faa", "is_disabled": 0, "rental_uris": {"ios": "https://dc.lft.to/lastmile_qr_scan", "android": "https://dc.lft.to/lastmile_qr_scan"}, "is_reserved": 0}, {"lon": -77.0634135, "bike_id": "123d20155baba4c6b9d7b63de2b6cfa2", "lat": 38.90684483333333, "fusion_lon": 0.0, "fusion_lat": 0.0, "type": "electric_scooter", "name": "123d20155baba4c6b9d7b63de2b6cfa2", "is_disabled": 0, "rental_uris": {"ios": "https://dc.lft.to/lastmile_qr_scan", "android": "https://dc.lft.to/lastmile_qr_scan"}, "is_reserved": 0}, {"lon": -77.02313966666667, "bike_id": "266d6b723335b1fe41477b3fb74401f7", "lat": 38.9166035, "fusion_lon": 0.0, "fusion_lat": 0.0, "type": "electric_scooter", "name": "266d6b723335b1fe41477b3fb74401f7", "is_disabled": 0, "rental_uris": {"ios": "https://dc.lft.to/lastmile_qr_scan", "android": "https://dc.lft.to/lastmile_qr_scan"}, "is_reserved": 0}, {"lon": -77.05531916666666, "bike_id": "3db30a15ecee2a06b085d9e1ea7762fc", "lat": 38.93433483333333, "fusion_lon": 0.0, "fusion_lat": 0.0, "type": "electric_scooter", "name": "3db30a15ecee2a06b085d9e1ea7762fc", "is_disabled": 0, "rental_uris": {"ios": "https://dc.lft.to/lastmile_qr_scan", "android": "https://dc.lft.to/lastmile_qr_scan"}, "is_reserved": 0}, {"lon": -76.99075083333334, "bike_id": "fcf86fbf9b8b16c9307a40639a6a8a0e", "lat": 38.898074666666666, "fusion_lon": 0.0, "fusion_lat": 0.0, "type": "electric_bike", "name": "fcf86fbf9b8b16c9307a40639a6a8a0e", "is_disabled": 0, "rental_uris": {"ios": "https://dc.lft.to/lastmile_qr_scan", "android": "https://dc.lft.to/lastmile_qr_scan"}, "is_reserved": 0}, {"lon": -77.031082, "bike_id": "c180274d27818abc713fd1e9a40aff4c", "lat": 38.9156205, "fusion_lon": 0.0, "fusion_lat": 0.0, "type": "electric_scooter", "name": "c180274d27818abc713fd1e9a40aff4c", "is_disabled": 0, "rental_uris": {"ios": "https://dc.lft.to/lastmile_qr_scan", "android": "https://dc.lft.to/lastmile_qr_scan"}, "is_reserved": 0}, {"lon": -77.02004766666667, "bike_id": "4e208bd4bf45e69e897b3174114403a7", "lat": 38.92424533333333, "fusion_lon": 0.0, "fusion_lat": 0.0, "type": "electric_scooter", "name": "4e208bd4bf45e69e897b3174114403a7", "is_disabled": 0, "rental_uris": {"ios": "https://dc.lft.to/lastmile_qr_scan", "android": "https://dc.lft.to/lastmile_qr_scan"}, "is_reserved": 0}, {"lon": -77.0215245, "bike_id": "88d3b533e3ffbff2d48be242d91282f6", "lat": 38.95081583333333, "fusion_lon": 0.0, "fusion_lat": 0.0, "type": "electric_scooter", "name": "88d3b533e3ffbff2d48be242d91282f6", "is_disabled": 0, "rental_uris": {"ios": "https://dc.lft.to/lastmile_qr_scan", "android": "https://dc.lft.to/lastmile_qr_scan"}, "is_reserved": 0}, {"lon": -77.0341855, "bike_id": "f34cc8c66d3e3be79ae069544a3c37d3", "lat": 38.90265566666667, "fusion_lon": 0.0, "fusion_lat": 0.0, "type": "electric_scooter", "name": "f34cc8c66d3e3be79ae069544a3c37d3", "is_disabled": 0, "rental_uris": {"ios": "https://dc.lft.to/lastmile_qr_scan", "android": "https://dc.lft.to/lastmile_qr_scan"}, "is_reserved": 0}, {"lon": -77.03438516666667, "bike_id": "e9c1d967ecbf4d9e60b5361980253ff4", "lat": 38.909879333333336, "fusion_lon": 0.0, "fusion_lat": 0.0, "type": "electric_scooter", "name": "e9c1d967ecbf4d9e60b5361980253ff4", "is_disabled": 0, "rental_uris": {"ios": "https://dc.lft.to/lastmile_qr_scan", "android": "https://dc.lft.to/lastmile_qr_scan"}, "is_reserved": 0}, {"lon": -77.03736583333334, "bike_id": "8489b7553ac062bcb9eeb17d52752ad3", "lat": 38.92028766666667, "fusion_lon": 0.0, "fusion_lat": 0.0, "type": "electric_scooter", "name": "8489b7553ac062bcb9eeb17d52752ad3", "is_disabled": 0, "rental_uris": {"ios": "https://dc.lft.to/lastmile_qr_scan", "android": "https://dc.lft.to/lastmile_qr_scan"}, "is_reserved": 0}, {"lon": -77.052387, "bike_id": "3d07296f00b40d47cae54fb41b5f9243", "lat": 38.9246865, "fusion_lon": 0.0, "fusion_lat": 0.0, "type": "electric_scooter", "name": "3d07296f00b40d47cae54fb41b5f9243", "is_disabled": 0, "rental_uris": {"ios": "https://dc.lft.to/lastmile_qr_scan", "android": "https://dc.lft.to/lastmile_qr_scan"}, "is_reserved": 0}, {"lon": -76.99611616666667, "bike_id": "267c00670117947968c9b02f78b7fb4f", "lat": 38.8870195, "fusion_lon": 0.0, "fusion_lat": 0.0, "type": "electric_scooter", "name": "267c00670117947968c9b02f78b7fb4f", "is_disabled": 0, "rental_uris": {"ios": "https://dc.lft.to/lastmile_qr_scan", "android": "https://dc.lft.to/lastmile_qr_scan"}, "is_reserved": 0}, {"lon": -76.9898445, "bike_id": "16ebdfdb7793626bd2d17edb6bf1bed6", "lat": 38.93365516666667, "fusion_lon": 0.0, "fusion_lat": 0.0, "type": "electric_scooter", "name": "16ebdfdb7793626bd2d17edb6bf1bed6", "is_disabled": 0, "rental_uris": {"ios": "https://dc.lft.to/lastmile_qr_scan", "android": "https://dc.lft.to/lastmile_qr_scan"}, "is_reserved": 0}, {"lon": -76.98018433333333, "bike_id": "e7487cfe0c0bfc31fab5d56fceea1aa7", "lat": 38.85329266666667, "fusion_lon": 0.0, "fusion_lat": 0.0, "type": "electric_bike", "name": "e7487cfe0c0bfc31fab5d56fceea1aa7", "is_disabled": 0, "rental_uris": {"ios": "https://dc.lft.to/lastmile_qr_scan", "android": "https://dc.lft.to/lastmile_qr_scan"}, "is_reserved": 0}, {"lon": -77.03508833333333, "bike_id": "ac6436ff36c5d64b0fe2500406bbf754", "lat": 38.923500833333335, "fusion_lon": 0.0, "fusion_lat": 0.0, "type": "electric_scooter", "name": "ac6436ff36c5d64b0fe2500406bbf754", "is_disabled": 0, "rental_uris": {"ios": "https://dc.lft.to/lastmile_qr_scan", "android": "https://dc.lft.to/lastmile_qr_scan"}, "is_reserved": 0}, {"lon": -77.07963966666667, "bike_id": "f018928ed00febe576406f72b32751a1", "lat": 38.85732466666666, "fusion_lon": 0.0, "fusion_lat": 0.0, "type": "electric_bike", "name": "f018928ed00febe576406f72b32751a1", "is_disabled": 0, "rental_uris": {"ios": "https://dc.lft.to/lastmile_qr_scan", "android": "https://dc.lft.to/lastmile_qr_scan"}, "is_reserved": 0}, {"lon": -76.995201, "bike_id": "1293fb97d8f8ac1f4cbc184b284101ba", "lat": 38.8626365, "fusion_lon": 0.0, "fusion_lat": 0.0, "type": "electric_scooter", "name": "1293fb97d8f8ac1f4cbc184b284101ba", "is_disabled": 0, "rental_uris": {"ios": "https://dc.lft.to/lastmile_qr_scan", "android": "https://dc.lft.to/lastmile_qr_scan"}, "is_reserved": 0}, {"lon": -76.9488545, "bike_id": "66aaa96308d88afd963b91dff3206d34", "lat": 38.89513266666667, "fusion_lon": 0.0, "fusion_lat": 0.0, "type": "electric_scooter", "name": "66aaa96308d88afd963b91dff3206d34", "is_disabled": 0, "rental_uris": {"ios": "https://dc.lft.to/lastmile_qr_scan", "android": "https://dc.lft.to/lastmile_qr_scan"}, "is_reserved": 0}, {"lon": -77.02492233333334, "bike_id": "70dbdad45fbff403f5fecc8d769475c2", "lat": 38.919224, "fusion_lon": 0.0, "fusion_lat": 0.0, "type": "electric_scooter", "name": "70dbdad45fbff403f5fecc8d769475c2", "is_disabled": 0, "rental_uris": {"ios": "https://dc.lft.to/lastmile_qr_scan", "android": "https://dc.lft.to/lastmile_qr_scan"}, "is_reserved": 0}, {"lon": -77.03927966666667, "bike_id": "4bff600e4411e6c815156273916ddfaf", "lat": 38.9249515, "fusion_lon": 0.0, "fusion_lat": 0.0, "type": "electric_scooter", "name": "4bff600e4411e6c815156273916ddfaf", "is_disabled": 0, "rental_uris": {"ios": "https://dc.lft.to/lastmile_qr_scan", "android": "https://dc.lft.to/lastmile_qr_scan"}, "is_reserved": 0}, {"lon": -77.01576083333333, "bike_id": "fcfc8b6dd7799091343dcfc95bee04e6", "lat": 38.89471183333333, "fusion_lon": 0.0, "fusion_lat": 0.0, "type": "electric_scooter", "name": "fcfc8b6dd7799091343dcfc95bee04e6", "is_disabled": 0, "rental_uris": {"ios": "https://dc.lft.to/lastmile_qr_scan", "android": "https://dc.lft.to/lastmile_qr_scan"}, "is_reserved": 0}, {"lon": -77.03215316666666, "bike_id": "796462577dfbd5658364106c8ce680c2", "lat": 38.892229666666665, "fusion_lon": 0.0, "fusion_lat": 0.0, "type": "electric_scooter", "name": "796462577dfbd5658364106c8ce680c2", "is_disabled": 0, "rental_uris": {"ios": "https://dc.lft.to/lastmile_qr_scan", "android": "https://dc.lft.to/lastmile_qr_scan"}, "is_reserved": 0}, {"lon": -76.98362316666666, "bike_id": "4633c189bab8d95218e566dd8fc1159e", "lat": 38.86113533333334, "fusion_lon": 0.0, "fusion_lat": 0.0, "type": "electric_scooter", "name": "4633c189bab8d95218e566dd8fc1159e", "is_disabled": 0, "rental_uris": {"ios": "https://dc.lft.to/lastmile_qr_scan", "android": "https://dc.lft.to/lastmile_qr_scan"}, "is_reserved": 0}, {"lon": -77.03206366666667, "bike_id": "b55f9d737dcc5c035229725c045840a8", "lat": 38.914269166666664, "fusion_lon": 0.0, "fusion_lat": 0.0, "type": "electric_scooter", "name": "b55f9d737dcc5c035229725c045840a8", "is_disabled": 0, "rental_uris": {"ios": "https://dc.lft.to/lastmile_qr_scan", "android": "https://dc.lft.to/lastmile_qr_scan"}, "is_reserved": 0}, {"lon": -77.0339265, "bike_id": "7b0ae2c0956f5c2b17eb4fa985983307", "lat": 38.92053116666666, "fusion_lon": 0.0, "fusion_lat": 0.0, "type": "electric_scooter", "name": "7b0ae2c0956f5c2b17eb4fa985983307", "is_disabled": 0, "rental_uris": {"ios": "https://dc.lft.to/lastmile_qr_scan", "android": "https://dc.lft.to/lastmile_qr_scan"}, "is_reserved": 0}, {"lon": -76.93358783333333, "bike_id": "1b0aa56ad8ec202265da932619d23c2c", "lat": 38.899201833333336, "fusion_lon": 0.0, "fusion_lat": 0.0, "type": "electric_scooter", "name": "1b0aa56ad8ec202265da932619d23c2c", "is_disabled": 0, "rental_uris": {"ios": "https://dc.lft.to/lastmile_qr_scan", "android": "https://dc.lft.to/lastmile_qr_scan"}, "is_reserved": 0}, {"lon": -77.03761033333333, "bike_id": "921fe46f16ec18731a601bc6555b3580", "lat": 38.907870833333334, "fusion_lon": 0.0, "fusion_lat": 0.0, "type": "electric_scooter", "name": "921fe46f16ec18731a601bc6555b3580", "is_disabled": 0, "rental_uris": {"ios": "https://dc.lft.to/lastmile_qr_scan", "android": "https://dc.lft.to/lastmile_qr_scan"}, "is_reserved": 0}, {"lon": -77.03881833333334, "bike_id": "d7f83bbe062b590be55e70ea09b9e428", "lat": 38.911121333333334, "fusion_lon": 0.0, "fusion_lat": 0.0, "type": "electric_scooter", "name": "d7f83bbe062b590be55e70ea09b9e428", "is_disabled": 0, "rental_uris": {"ios": "https://dc.lft.to/lastmile_qr_scan", "android": "https://dc.lft.to/lastmile_qr_scan"}, "is_reserved": 0}, {"lon": -77.05635566666666, "bike_id": "aa21811136735733b497c62e12a49508", "lat": 38.89432933333333, "fusion_lon": 0.0, "fusion_lat": 0.0, "type": "electric_scooter", "name": "aa21811136735733b497c62e12a49508", "is_disabled": 0, "rental_uris": {"ios": "https://dc.lft.to/lastmile_qr_scan", "android": "https://dc.lft.to/lastmile_qr_scan"}, "is_reserved": 0}, {"lon": -76.93173416666667, "bike_id": "3f486396f468f816790f63415ac36fc3", "lat": 38.89887366666667, "fusion_lon": 0.0, "fusion_lat": 0.0, "type": "electric_scooter", "name": "3f486396f468f816790f63415ac36fc3", "is_disabled": 0, "rental_uris": {"ios": "https://dc.lft.to/lastmile_qr_scan", "android": "https://dc.lft.to/lastmile_qr_scan"}, "is_reserved": 0}, {"lon": -77.044459, "bike_id": "a3a65ec22c3a47e46ca66952f50f359e", "lat": 38.91940733333333, "fusion_lon": 0.0, "fusion_lat": 0.0, "type": "electric_scooter", "name": "a3a65ec22c3a47e46ca66952f50f359e", "is_disabled": 0, "rental_uris": {"ios": "https://dc.lft.to/lastmile_qr_scan", "android": "https://dc.lft.to/lastmile_qr_scan"}, "is_reserved": 0}, {"lon": -77.04124716666666, "bike_id": "b7910eeaf46bcafc3a7f3a8a07c7d4a5", "lat": 38.909738, "fusion_lon": 0.0, "fusion_lat": 0.0, "type": "electric_scooter", "name": "b7910eeaf46bcafc3a7f3a8a07c7d4a5", "is_disabled": 0, "rental_uris": {"ios": "https://dc.lft.to/lastmile_qr_scan", "android": "https://dc.lft.to/lastmile_qr_scan"}, "is_reserved": 0}, {"lon": -77.0239025, "bike_id": "684ed2d954fb3d056f6b61b98e561d1e", "lat": 38.90022116666667, "fusion_lon": 0.0, "fusion_lat": 0.0, "type": "electric_scooter", "name": "684ed2d954fb3d056f6b61b98e561d1e", "is_disabled": 0, "rental_uris": {"ios": "https://dc.lft.to/lastmile_qr_scan", "android": "https://dc.lft.to/lastmile_qr_scan"}, "is_reserved": 0}, {"lon": -76.995664, "bike_id": "92c03c238a609353295b63e68282793e", "lat": 38.851898166666665, "fusion_lon": 0.0, "fusion_lat": 0.0, "type": "electric_bike", "name": "92c03c238a609353295b63e68282793e", "is_disabled": 0, "rental_uris": {"ios": "https://dc.lft.to/lastmile_qr_scan", "android": "https://dc.lft.to/lastmile_qr_scan"}, "is_reserved": 0}, {"lon": -76.99604516666666, "bike_id": "3cf14f4ad13a7d2c4d1d3e7b9ca9f509", "lat": 38.88321716666667, "fusion_lon": 0.0, "fusion_lat": 0.0, "type": "electric_scooter", "name": "3cf14f4ad13a7d2c4d1d3e7b9ca9f509", "is_disabled": 0, "rental_uris": {"ios": "https://dc.lft.to/lastmile_qr_scan", "android": "https://dc.lft.to/lastmile_qr_scan"}, "is_reserved": 0}, {"lon": -77.03869116666667, "bike_id": "23fb4b1f340accd983dd4362d076f87f", "lat": 38.921529666666665, "fusion_lon": 0.0, "fusion_lat": 0.0, "type": "electric_scooter", "name": "23fb4b1f340accd983dd4362d076f87f", "is_disabled": 0, "rental_uris": {"ios": "https://dc.lft.to/lastmile_qr_scan", "android": "https://dc.lft.to/lastmile_qr_scan"}, "is_reserved": 0}, {"lon": -77.03348383333334, "bike_id": "57eef4ada49d40846c6b91edf422c501", "lat": 38.94715883333333, "fusion_lon": 0.0, "fusion_lat": 0.0, "type": "electric_scooter", "name": "57eef4ada49d40846c6b91edf422c501", "is_disabled": 0, "rental_uris": {"ios": "https://dc.lft.to/lastmile_qr_scan", "android": "https://dc.lft.to/lastmile_qr_scan"}, "is_reserved": 0}, {"lon": -77.03172833333333, "bike_id": "5283b11e91b68a0b733b44b8002a2525", "lat": 38.887417166666665, "fusion_lon": 0.0, "fusion_lat": 0.0, "type": "electric_scooter", "name": "5283b11e91b68a0b733b44b8002a2525", "is_disabled": 0, "rental_uris": {"ios": "https://dc.lft.to/lastmile_qr_scan", "android": "https://dc.lft.to/lastmile_qr_scan"}, "is_reserved": 0}, {"lon": -77.02948333333333, "bike_id": "06642d3f46ee8df2308e1a83cae977e7", "lat": 38.9066125, "fusion_lon": 0.0, "fusion_lat": 0.0, "type": "electric_scooter", "name": "06642d3f46ee8df2308e1a83cae977e7", "is_disabled": 0, "rental_uris": {"ios": "https://dc.lft.to/lastmile_qr_scan", "android": "https://dc.lft.to/lastmile_qr_scan"}, "is_reserved": 0}, {"lon": -77.04262183333333, "bike_id": "1f8bdbd2d313ef6fdef2fa625e493323", "lat": 38.91048166666667, "fusion_lon": 0.0, "fusion_lat": 0.0, "type": "electric_scooter", "name": "1f8bdbd2d313ef6fdef2fa625e493323", "is_disabled": 0, "rental_uris": {"ios": "https://dc.lft.to/lastmile_qr_scan", "android": "https://dc.lft.to/lastmile_qr_scan"}, "is_reserved": 0}, {"lon": -76.93360633333333, "bike_id": "144b670c7d60404eb0c2f5b6a6c4ab0d", "lat": 38.899220666666665, "fusion_lon": 0.0, "fusion_lat": 0.0, "type": "electric_scooter", "name": "144b670c7d60404eb0c2f5b6a6c4ab0d", "is_disabled": 0, "rental_uris": {"ios": "https://dc.lft.to/lastmile_qr_scan", "android": "https://dc.lft.to/lastmile_qr_scan"}, "is_reserved": 0}, {"lon": -77.02696666666667, "bike_id": "6a2eb6fa5524ecb7a28cdd3ffbcf5418", "lat": 38.9062615, "fusion_lon": 0.0, "fusion_lat": 0.0, "type": "electric_scooter", "name": "6a2eb6fa5524ecb7a28cdd3ffbcf5418", "is_disabled": 0, "rental_uris": {"ios": "https://dc.lft.to/lastmile_qr_scan", "android": "https://dc.lft.to/lastmile_qr_scan"}, "is_reserved": 0}, {"lon": -77.0393975, "bike_id": "19cf9624eb289da20a87edb06ee17b53", "lat": 38.930614, "fusion_lon": 0.0, "fusion_lat": 0.0, "type": "electric_scooter", "name": "19cf9624eb289da20a87edb06ee17b53", "is_disabled": 0, "rental_uris": {"ios": "https://dc.lft.to/lastmile_qr_scan", "android": "https://dc.lft.to/lastmile_qr_scan"}, "is_reserved": 0}, {"lon": -77.06755283333334, "bike_id": "38da437c16af9e52fe028d5bdae359b7", "lat": 38.90344133333333, "fusion_lon": 0.0, "fusion_lat": 0.0, "type": "electric_scooter", "name": "38da437c16af9e52fe028d5bdae359b7", "is_disabled": 0, "rental_uris": {"ios": "https://dc.lft.to/lastmile_qr_scan", "android": "https://dc.lft.to/lastmile_qr_scan"}, "is_reserved": 0}, {"lon": -77.0447505, "bike_id": "bdc0e2af10fd5a7bd4bcb23a94ddbed2", "lat": 38.900780166666664, "fusion_lon": 0.0, "fusion_lat": 0.0, "type": "electric_scooter", "name": "bdc0e2af10fd5a7bd4bcb23a94ddbed2", "is_disabled": 0, "rental_uris": {"ios": "https://dc.lft.to/lastmile_qr_scan", "android": "https://dc.lft.to/lastmile_qr_scan"}, "is_reserved": 0}, {"lon": -76.98106833333334, "bike_id": "56f1e5cdb3ea8e15a48fa192c5620da5", "lat": 38.90405166666667, "fusion_lon": 0.0, "fusion_lat": 0.0, "type": "electric_scooter", "name": "56f1e5cdb3ea8e15a48fa192c5620da5", "is_disabled": 0, "rental_uris": {"ios": "https://dc.lft.to/lastmile_qr_scan", "android": "https://dc.lft.to/lastmile_qr_scan"}, "is_reserved": 0}, {"lon": -77.029793, "bike_id": "3cd08fee8d2966472ef86b3d47d0af9c", "lat": 38.93283533333334, "fusion_lon": 0.0, "fusion_lat": 0.0, "type": "electric_scooter", "name": "3cd08fee8d2966472ef86b3d47d0af9c", "is_disabled": 0, "rental_uris": {"ios": "https://dc.lft.to/lastmile_qr_scan", "android": "https://dc.lft.to/lastmile_qr_scan"}, "is_reserved": 0}, {"lon": -77.032742, "bike_id": "3d8d9d81ef9f43cb1a198334933cc098", "lat": 38.90971566666666, "fusion_lon": 0.0, "fusion_lat": 0.0, "type": "electric_scooter", "name": "3d8d9d81ef9f43cb1a198334933cc098", "is_disabled": 0, "rental_uris": {"ios": "https://dc.lft.to/lastmile_qr_scan", "android": "https://dc.lft.to/lastmile_qr_scan"}, "is_reserved": 0}, {"lon": -77.043437, "bike_id": "5d74b414d774daeb07d80c76f6d98083", "lat": 38.929694, "fusion_lon": 0.0, "fusion_lat": 0.0, "type": "electric_scooter", "name": "5d74b414d774daeb07d80c76f6d98083", "is_disabled": 0, "rental_uris": {"ios": "https://dc.lft.to/lastmile_qr_scan", "android": "https://dc.lft.to/lastmile_qr_scan"}, "is_reserved": 0}, {"lon": -77.08186466666666, "bike_id": "f5e175d014325d2f1b1984f48761ba16", "lat": 38.9497225, "fusion_lon": 0.0, "fusion_lat": 0.0, "type": "electric_scooter", "name": "f5e175d014325d2f1b1984f48761ba16", "is_disabled": 0, "rental_uris": {"ios": "https://dc.lft.to/lastmile_qr_scan", "android": "https://dc.lft.to/lastmile_qr_scan"}, "is_reserved": 0}, {"lon": -76.99030466666666, "bike_id": "f699d56c1d4b6a4d3f2b0578149aa9cf", "lat": 38.89858783333333, "fusion_lon": 0.0, "fusion_lat": 0.0, "type": "electric_scooter", "name": "f699d56c1d4b6a4d3f2b0578149aa9cf", "is_disabled": 0, "rental_uris": {"ios": "https://dc.lft.to/lastmile_qr_scan", "android": "https://dc.lft.to/lastmile_qr_scan"}, "is_reserved": 0}, {"lon": -76.99455066666667, "bike_id": "d1fd24bcab55f5c50e78f51e4d597f64", "lat": 38.966273666666666, "fusion_lon": 0.0, "fusion_lat": 0.0, "type": "electric_bike", "name": "d1fd24bcab55f5c50e78f51e4d597f64", "is_disabled": 0, "rental_uris": {"ios": "https://dc.lft.to/lastmile_qr_scan", "android": "https://dc.lft.to/lastmile_qr_scan"}, "is_reserved": 0}, {"lon": -76.9936795, "bike_id": "5229748b537b1a3e1ef6c16fdabe1919", "lat": 38.879787, "fusion_lon": 0.0, "fusion_lat": 0.0, "type": "electric_scooter", "name": "5229748b537b1a3e1ef6c16fdabe1919", "is_disabled": 0, "rental_uris": {"ios": "https://dc.lft.to/lastmile_qr_scan", "android": "https://dc.lft.to/lastmile_qr_scan"}, "is_reserved": 0}, {"lon": -76.9900365, "bike_id": "33e93ab454a8bb4574f21edef4b2db66", "lat": 38.8651295, "fusion_lon": 0.0, "fusion_lat": 0.0, "type": "electric_scooter", "name": "33e93ab454a8bb4574f21edef4b2db66", "is_disabled": 0, "rental_uris": {"ios": "https://dc.lft.to/lastmile_qr_scan", "android": "https://dc.lft.to/lastmile_qr_scan"}, "is_reserved": 0}, {"lon": -77.03742533333333, "bike_id": "8043afb52eb356f493bfb50fc2493213", "lat": 38.9181485, "fusion_lon": 0.0, "fusion_lat": 0.0, "type": "electric_scooter", "name": "8043afb52eb356f493bfb50fc2493213", "is_disabled": 0, "rental_uris": {"ios": "https://dc.lft.to/lastmile_qr_scan", "android": "https://dc.lft.to/lastmile_qr_scan"}, "is_reserved": 0}, {"lon": -77.02713683333333, "bike_id": "52bffa091e38a618f3a56506097b4440", "lat": 38.89746233333334, "fusion_lon": 0.0, "fusion_lat": 0.0, "type": "electric_scooter", "name": "52bffa091e38a618f3a56506097b4440", "is_disabled": 0, "rental_uris": {"ios": "https://dc.lft.to/lastmile_qr_scan", "android": "https://dc.lft.to/lastmile_qr_scan"}, "is_reserved": 0}, {"lon": -77.054734, "bike_id": "4b0aee3018f5f20a0a73f4c7d59bcfff", "lat": 38.897319833333334, "fusion_lon": 0.0, "fusion_lat": 0.0, "type": "electric_scooter", "name": "4b0aee3018f5f20a0a73f4c7d59bcfff", "is_disabled": 0, "rental_uris": {"ios": "https://dc.lft.to/lastmile_qr_scan", "android": "https://dc.lft.to/lastmile_qr_scan"}, "is_reserved": 0}, {"lon": -77.02722616666667, "bike_id": "a44cf0381ab701d8ace17aa212d4cf83", "lat": 38.91336716666667, "fusion_lon": 0.0, "fusion_lat": 0.0, "type": "electric_scooter", "name": "a44cf0381ab701d8ace17aa212d4cf83", "is_disabled": 0, "rental_uris": {"ios": "https://dc.lft.to/lastmile_qr_scan", "android": "https://dc.lft.to/lastmile_qr_scan"}, "is_reserved": 0}, {"lon": -77.02765033333333, "bike_id": "d953e93bb2a69b39885c3571cbf9e4cd", "lat": 38.89220383333333, "fusion_lon": 0.0, "fusion_lat": 0.0, "type": "electric_scooter", "name": "d953e93bb2a69b39885c3571cbf9e4cd", "is_disabled": 0, "rental_uris": {"ios": "https://dc.lft.to/lastmile_qr_scan", "android": "https://dc.lft.to/lastmile_qr_scan"}, "is_reserved": 0}, {"lon": -77.03182133333334, "bike_id": "812e02b2fc673fb60b823d3a2b91137c", "lat": 38.89576116666667, "fusion_lon": 0.0, "fusion_lat": 0.0, "type": "electric_scooter", "name": "812e02b2fc673fb60b823d3a2b91137c", "is_disabled": 0, "rental_uris": {"ios": "https://dc.lft.to/lastmile_qr_scan", "android": "https://dc.lft.to/lastmile_qr_scan"}, "is_reserved": 0}, {"lon": -76.97923366666667, "bike_id": "1e528e67ededd5fa08b07d70d7740f15", "lat": 38.90508666666667, "fusion_lon": 0.0, "fusion_lat": 0.0, "type": "electric_scooter", "name": "1e528e67ededd5fa08b07d70d7740f15", "is_disabled": 0, "rental_uris": {"ios": "https://dc.lft.to/lastmile_qr_scan", "android": "https://dc.lft.to/lastmile_qr_scan"}, "is_reserved": 0}, {"lon": -77.03817683333334, "bike_id": "fbb70edde614f92b4e2c47376caf5d76", "lat": 38.909826, "fusion_lon": 0.0, "fusion_lat": 0.0, "type": "electric_scooter", "name": "fbb70edde614f92b4e2c47376caf5d76", "is_disabled": 0, "rental_uris": {"ios": "https://dc.lft.to/lastmile_qr_scan", "android": "https://dc.lft.to/lastmile_qr_scan"}, "is_reserved": 0}, {"lon": -76.99368383333334, "bike_id": "182d6a4bdda6cbde8576839219f8bcfe", "lat": 38.94030333333333, "fusion_lon": 0.0, "fusion_lat": 0.0, "type": "electric_scooter", "name": "182d6a4bdda6cbde8576839219f8bcfe", "is_disabled": 0, "rental_uris": {"ios": "https://dc.lft.to/lastmile_qr_scan", "android": "https://dc.lft.to/lastmile_qr_scan"}, "is_reserved": 0}, {"lon": -77.02970016666667, "bike_id": "28ab291d9b7640ebdd97e591908b259c", "lat": 38.91277133333333, "fusion_lon": 0.0, "fusion_lat": 0.0, "type": "electric_scooter", "name": "28ab291d9b7640ebdd97e591908b259c", "is_disabled": 0, "rental_uris": {"ios": "https://dc.lft.to/lastmile_qr_scan", "android": "https://dc.lft.to/lastmile_qr_scan"}, "is_reserved": 0}, {"lon": -76.99012866666666, "bike_id": "f38ba1a47ce492dfb941e90f0b46a156", "lat": 38.94599316666667, "fusion_lon": 0.0, "fusion_lat": 0.0, "type": "electric_scooter", "name": "f38ba1a47ce492dfb941e90f0b46a156", "is_disabled": 0, "rental_uris": {"ios": "https://dc.lft.to/lastmile_qr_scan", "android": "https://dc.lft.to/lastmile_qr_scan"}, "is_reserved": 0}, {"lon": -77.03863616666666, "bike_id": "1dcf82795a2902220dbd1608246c0921", "lat": 38.92016516666666, "fusion_lon": 0.0, "fusion_lat": 0.0, "type": "electric_scooter", "name": "1dcf82795a2902220dbd1608246c0921", "is_disabled": 0, "rental_uris": {"ios": "https://dc.lft.to/lastmile_qr_scan", "android": "https://dc.lft.to/lastmile_qr_scan"}, "is_reserved": 0}, {"lon": -77.07666816666666, "bike_id": "2da2208865105fe4389f1a8f2ef670e2", "lat": 38.86259, "fusion_lon": 0.0, "fusion_lat": 0.0, "type": "electric_bike", "name": "2da2208865105fe4389f1a8f2ef670e2", "is_disabled": 0, "rental_uris": {"ios": "https://dc.lft.to/lastmile_qr_scan", "android": "https://dc.lft.to/lastmile_qr_scan"}, "is_reserved": 0}, {"lon": -77.05144083333333, "bike_id": "2c0ceaf16445f346b5bb3dce5d230055", "lat": 38.89863116666667, "fusion_lon": 0.0, "fusion_lat": 0.0, "type": "electric_scooter", "name": "2c0ceaf16445f346b5bb3dce5d230055", "is_disabled": 0, "rental_uris": {"ios": "https://dc.lft.to/lastmile_qr_scan", "android": "https://dc.lft.to/lastmile_qr_scan"}, "is_reserved": 0}, {"lon": -76.99487316666666, "bike_id": "df4660fde0e147d9ab0fcc022a9b6341", "lat": 38.87954166666667, "fusion_lon": 0.0, "fusion_lat": 0.0, "type": "electric_scooter", "name": "df4660fde0e147d9ab0fcc022a9b6341", "is_disabled": 0, "rental_uris": {"ios": "https://dc.lft.to/lastmile_qr_scan", "android": "https://dc.lft.to/lastmile_qr_scan"}, "is_reserved": 0}, {"lon": -76.9786395, "bike_id": "e3f519e5047397be9a32d61541c09e42", "lat": 38.883074666666666, "fusion_lon": 0.0, "fusion_lat": 0.0, "type": "electric_scooter", "name": "e3f519e5047397be9a32d61541c09e42", "is_disabled": 0, "rental_uris": {"ios": "https://dc.lft.to/lastmile_qr_scan", "android": "https://dc.lft.to/lastmile_qr_scan"}, "is_reserved": 0}, {"lon": -77.04979166666666, "bike_id": "adab813a8636507e0ab2d2c04c8a566d", "lat": 39.06303283333333, "fusion_lon": 0.0, "fusion_lat": 0.0, "type": "electric_bike", "name": "adab813a8636507e0ab2d2c04c8a566d", "is_disabled": 0, "rental_uris": {"ios": "https://dc.lft.to/lastmile_qr_scan", "android": "https://dc.lft.to/lastmile_qr_scan"}, "is_reserved": 0}, {"lon": -77.03208566666666, "bike_id": "7656efe97bd529a0ea393d326ed6b768", "lat": 38.912785, "fusion_lon": 0.0, "fusion_lat": 0.0, "type": "electric_scooter", "name": "7656efe97bd529a0ea393d326ed6b768", "is_disabled": 0, "rental_uris": {"ios": "https://dc.lft.to/lastmile_qr_scan", "android": "https://dc.lft.to/lastmile_qr_scan"}, "is_reserved": 0}, {"lon": -77.033982, "bike_id": "36170f3473fb83f4fb182800e75974f5", "lat": 38.93420783333333, "fusion_lon": 0.0, "fusion_lat": 0.0, "type": "electric_scooter", "name": "36170f3473fb83f4fb182800e75974f5", "is_disabled": 0, "rental_uris": {"ios": "https://dc.lft.to/lastmile_qr_scan", "android": "https://dc.lft.to/lastmile_qr_scan"}, "is_reserved": 0}, {"lon": -77.02359483333333, "bike_id": "fbc8bc1a048424e1a030f4c7833903da", "lat": 38.930982, "fusion_lon": 0.0, "fusion_lat": 0.0, "type": "electric_scooter", "name": "fbc8bc1a048424e1a030f4c7833903da", "is_disabled": 0, "rental_uris": {"ios": "https://dc.lft.to/lastmile_qr_scan", "android": "https://dc.lft.to/lastmile_qr_scan"}, "is_reserved": 0}, {"lon": -77.039959, "bike_id": "662de775bc4288b6dc8db3a20ab3d18c", "lat": 38.90362666666667, "fusion_lon": 0.0, "fusion_lat": 0.0, "type": "electric_scooter", "name": "662de775bc4288b6dc8db3a20ab3d18c", "is_disabled": 0, "rental_uris": {"ios": "https://dc.lft.to/lastmile_qr_scan", "android": "https://dc.lft.to/lastmile_qr_scan"}, "is_reserved": 0}, {"lon": -77.046287, "bike_id": "958bffce24240e607a39ad7aae402828", "lat": 38.921282166666664, "fusion_lon": 0.0, "fusion_lat": 0.0, "type": "electric_scooter", "name": "958bffce24240e607a39ad7aae402828", "is_disabled": 0, "rental_uris": {"ios": "https://dc.lft.to/lastmile_qr_scan", "android": "https://dc.lft.to/lastmile_qr_scan"}, "is_reserved": 0}, {"lon": -77.03661416666667, "bike_id": "d5f78100cb315581db62c7c46291ae8f", "lat": 38.922855, "fusion_lon": 0.0, "fusion_lat": 0.0, "type": "electric_scooter", "name": "d5f78100cb315581db62c7c46291ae8f", "is_disabled": 0, "rental_uris": {"ios": "https://dc.lft.to/lastmile_qr_scan", "android": "https://dc.lft.to/lastmile_qr_scan"}, "is_reserved": 0}, {"lon": -77.02709183333333, "bike_id": "753670e544be1186de95f28151331625", "lat": 38.92878133333333, "fusion_lon": 0.0, "fusion_lat": 0.0, "type": "electric_scooter", "name": "753670e544be1186de95f28151331625", "is_disabled": 0, "rental_uris": {"ios": "https://dc.lft.to/lastmile_qr_scan", "android": "https://dc.lft.to/lastmile_qr_scan"}, "is_reserved": 0}, {"lon": -77.05906966666667, "bike_id": "9ce2e79ccf3a5b4222852a788044dd86", "lat": 38.93632383333333, "fusion_lon": 0.0, "fusion_lat": 0.0, "type": "electric_scooter", "name": "9ce2e79ccf3a5b4222852a788044dd86", "is_disabled": 0, "rental_uris": {"ios": "https://dc.lft.to/lastmile_qr_scan", "android": "https://dc.lft.to/lastmile_qr_scan"}, "is_reserved": 0}, {"lon": -77.03485266666667, "bike_id": "b6da38b4190aea17a0bd3d9976ce955e", "lat": 38.91704283333333, "fusion_lon": 0.0, "fusion_lat": 0.0, "type": "electric_scooter", "name": "b6da38b4190aea17a0bd3d9976ce955e", "is_disabled": 0, "rental_uris": {"ios": "https://dc.lft.to/lastmile_qr_scan", "android": "https://dc.lft.to/lastmile_qr_scan"}, "is_reserved": 0}, {"lon": -77.03178166666666, "bike_id": "476580e73c8daac6fef816e69333b522", "lat": 38.9184585, "fusion_lon": 0.0, "fusion_lat": 0.0, "type": "electric_scooter", "name": "476580e73c8daac6fef816e69333b522", "is_disabled": 0, "rental_uris": {"ios": "https://dc.lft.to/lastmile_qr_scan", "android": "https://dc.lft.to/lastmile_qr_scan"}, "is_reserved": 0}, {"lon": -77.061046, "bike_id": "79f9970dca4e6c3b957956cecf171930", "lat": 38.93710316666667, "fusion_lon": 0.0, "fusion_lat": 0.0, "type": "electric_scooter", "name": "79f9970dca4e6c3b957956cecf171930", "is_disabled": 0, "rental_uris": {"ios": "https://dc.lft.to/lastmile_qr_scan", "android": "https://dc.lft.to/lastmile_qr_scan"}, "is_reserved": 0}, {"lon": -77.003718, "bike_id": "4eedc76f461eba7ffc1a0c229d5734c9", "lat": 38.897311333333334, "fusion_lon": 0.0, "fusion_lat": 0.0, "type": "electric_scooter", "name": "4eedc76f461eba7ffc1a0c229d5734c9", "is_disabled": 0, "rental_uris": {"ios": "https://dc.lft.to/lastmile_qr_scan", "android": "https://dc.lft.to/lastmile_qr_scan"}, "is_reserved": 0}, {"lon": -76.94884266666666, "bike_id": "52b7a319295119ede69f3cb77bc11072", "lat": 38.895120666666664, "fusion_lon": 0.0, "fusion_lat": 0.0, "type": "electric_scooter", "name": "52b7a319295119ede69f3cb77bc11072", "is_disabled": 0, "rental_uris": {"ios": "https://dc.lft.to/lastmile_qr_scan", "android": "https://dc.lft.to/lastmile_qr_scan"}, "is_reserved": 0}, {"lon": -77.00365383333333, "bike_id": "87f5bf7acfd7b0d1cc68e1cc649b113d", "lat": 38.89728266666667, "fusion_lon": 0.0, "fusion_lat": 0.0, "type": "electric_scooter", "name": "87f5bf7acfd7b0d1cc68e1cc649b113d", "is_disabled": 0, "rental_uris": {"ios": "https://dc.lft.to/lastmile_qr_scan", "android": "https://dc.lft.to/lastmile_qr_scan"}, "is_reserved": 0}, {"lon": -77.03218, "bike_id": "db68749e47fcd0561932f8ac700f0235", "lat": 38.912670166666665, "fusion_lon": 0.0, "fusion_lat": 0.0, "type": "electric_scooter", "name": "db68749e47fcd0561932f8ac700f0235", "is_disabled": 0, "rental_uris": {"ios": "https://dc.lft.to/lastmile_qr_scan", "android": "https://dc.lft.to/lastmile_qr_scan"}, "is_reserved": 0}, {"lon": -77.13100433333334, "bike_id": "a4f87919a48cf8c75c12e92e1afb9ab0", "lat": 39.0243855, "fusion_lon": 0.0, "fusion_lat": 0.0, "type": "electric_bike", "name": "a4f87919a48cf8c75c12e92e1afb9ab0", "is_disabled": 0, "rental_uris": {"ios": "https://dc.lft.to/lastmile_qr_scan", "android": "https://dc.lft.to/lastmile_qr_scan"}, "is_reserved": 0}, {"lon": -77.01923633333334, "bike_id": "e4afcd895627acabb6b419f8874e5ad9", "lat": 38.92215566666667, "fusion_lon": 0.0, "fusion_lat": 0.0, "type": "electric_scooter", "name": "e4afcd895627acabb6b419f8874e5ad9", "is_disabled": 0, "rental_uris": {"ios": "https://dc.lft.to/lastmile_qr_scan", "android": "https://dc.lft.to/lastmile_qr_scan"}, "is_reserved": 0}, {"lon": -77.02112333333334, "bike_id": "01e0b30d55db937e345db23cfa681a11", "lat": 38.9142235, "fusion_lon": 0.0, "fusion_lat": 0.0, "type": "electric_scooter", "name": "01e0b30d55db937e345db23cfa681a11", "is_disabled": 0, "rental_uris": {"ios": "https://dc.lft.to/lastmile_qr_scan", "android": "https://dc.lft.to/lastmile_qr_scan"}, "is_reserved": 0}, {"lon": -77.03263183333334, "bike_id": "c06b158dbdd7a2896dc312e6a3654fb9", "lat": 38.92557633333333, "fusion_lon": 0.0, "fusion_lat": 0.0, "type": "electric_scooter", "name": "c06b158dbdd7a2896dc312e6a3654fb9", "is_disabled": 0, "rental_uris": {"ios": "https://dc.lft.to/lastmile_qr_scan", "android": "https://dc.lft.to/lastmile_qr_scan"}, "is_reserved": 0}, {"lon": -77.06391066666667, "bike_id": "5254cb38c315884c149016be9d94741c", "lat": 38.90825483333333, "fusion_lon": 0.0, "fusion_lat": 0.0, "type": "electric_scooter", "name": "5254cb38c315884c149016be9d94741c", "is_disabled": 0, "rental_uris": {"ios": "https://dc.lft.to/lastmile_qr_scan", "android": "https://dc.lft.to/lastmile_qr_scan"}, "is_reserved": 0}, {"lon": -77.02829816666667, "bike_id": "2b321ec55e2daf6d78136c7d5eb59835", "lat": 38.9328325, "fusion_lon": 0.0, "fusion_lat": 0.0, "type": "electric_scooter", "name": "2b321ec55e2daf6d78136c7d5eb59835", "is_disabled": 0, "rental_uris": {"ios": "https://dc.lft.to/lastmile_qr_scan", "android": "https://dc.lft.to/lastmile_qr_scan"}, "is_reserved": 0}, {"lon": -77.05058733333334, "bike_id": "61479aedb368b6734deedc3d3d15e01f", "lat": 38.90094366666667, "fusion_lon": 0.0, "fusion_lat": 0.0, "type": "electric_scooter", "name": "61479aedb368b6734deedc3d3d15e01f", "is_disabled": 0, "rental_uris": {"ios": "https://dc.lft.to/lastmile_qr_scan", "android": "https://dc.lft.to/lastmile_qr_scan"}, "is_reserved": 0}, {"lon": -77.02503233333333, "bike_id": "71a4f8b08cc8986d66c073ceef84b8aa", "lat": 38.92082283333333, "fusion_lon": 0.0, "fusion_lat": 0.0, "type": "electric_scooter", "name": "71a4f8b08cc8986d66c073ceef84b8aa", "is_disabled": 0, "rental_uris": {"ios": "https://dc.lft.to/lastmile_qr_scan", "android": "https://dc.lft.to/lastmile_qr_scan"}, "is_reserved": 0}, {"lon": -77.0276245, "bike_id": "2866f2c49e2ec7ffec38a5ea08d03dca", "lat": 38.93470283333333, "fusion_lon": 0.0, "fusion_lat": 0.0, "type": "electric_scooter", "name": "2866f2c49e2ec7ffec38a5ea08d03dca", "is_disabled": 0, "rental_uris": {"ios": "https://dc.lft.to/lastmile_qr_scan", "android": "https://dc.lft.to/lastmile_qr_scan"}, "is_reserved": 0}, {"lon": -77.0392205, "bike_id": "c6e95669e01eddb8a2521f6084ad5623", "lat": 38.9249045, "fusion_lon": 0.0, "fusion_lat": 0.0, "type": "electric_scooter", "name": "c6e95669e01eddb8a2521f6084ad5623", "is_disabled": 0, "rental_uris": {"ios": "https://dc.lft.to/lastmile_qr_scan", "android": "https://dc.lft.to/lastmile_qr_scan"}, "is_reserved": 0}, {"lon": -77.03130283333333, "bike_id": "f77d53cf5321078256eb265a442856bc", "lat": 38.91494816666667, "fusion_lon": 0.0, "fusion_lat": 0.0, "type": "electric_scooter", "name": "f77d53cf5321078256eb265a442856bc", "is_disabled": 0, "rental_uris": {"ios": "https://dc.lft.to/lastmile_qr_scan", "android": "https://dc.lft.to/lastmile_qr_scan"}, "is_reserved": 0}, {"lon": -77.08682366666666, "bike_id": "f1dd96605cf9d749e8e72a780266fe01", "lat": 38.873983333333335, "fusion_lon": 0.0, "fusion_lat": 0.0, "type": "electric_bike", "name": "f1dd96605cf9d749e8e72a780266fe01", "is_disabled": 0, "rental_uris": {"ios": "https://dc.lft.to/lastmile_qr_scan", "android": "https://dc.lft.to/lastmile_qr_scan"}, "is_reserved": 0}, {"lon": -77.04864383333333, "bike_id": "41ea5527f7d47a1075bd637e8091e7bf", "lat": 38.909664, "fusion_lon": 0.0, "fusion_lat": 0.0, "type": "electric_scooter", "name": "41ea5527f7d47a1075bd637e8091e7bf", "is_disabled": 0, "rental_uris": {"ios": "https://dc.lft.to/lastmile_qr_scan", "android": "https://dc.lft.to/lastmile_qr_scan"}, "is_reserved": 0}, {"lon": -77.019215, "bike_id": "03ff5395ccfe2b52afcd85c12db6ea3a", "lat": 38.931994, "fusion_lon": 0.0, "fusion_lat": 0.0, "type": "electric_scooter", "name": "03ff5395ccfe2b52afcd85c12db6ea3a", "is_disabled": 0, "rental_uris": {"ios": "https://dc.lft.to/lastmile_qr_scan", "android": "https://dc.lft.to/lastmile_qr_scan"}, "is_reserved": 0}, {"lon": -77.017249, "bike_id": "177937811861b89c643690734c60148b", "lat": 38.87296683333334, "fusion_lon": 0.0, "fusion_lat": 0.0, "type": "electric_scooter", "name": "177937811861b89c643690734c60148b", "is_disabled": 0, "rental_uris": {"ios": "https://dc.lft.to/lastmile_qr_scan", "android": "https://dc.lft.to/lastmile_qr_scan"}, "is_reserved": 0}, {"lon": -77.02841233333334, "bike_id": "0f7ed9e5db6e5f999212287831a08a0b", "lat": 38.925842333333335, "fusion_lon": 0.0, "fusion_lat": 0.0, "type": "electric_scooter", "name": "0f7ed9e5db6e5f999212287831a08a0b", "is_disabled": 0, "rental_uris": {"ios": "https://dc.lft.to/lastmile_qr_scan", "android": "https://dc.lft.to/lastmile_qr_scan"}, "is_reserved": 0}, {"lon": -76.95758566666666, "bike_id": "75842a646122a302d8d263fb1c0fae36", "lat": 38.88434933333333, "fusion_lon": 0.0, "fusion_lat": 0.0, "type": "electric_scooter", "name": "75842a646122a302d8d263fb1c0fae36", "is_disabled": 0, "rental_uris": {"ios": "https://dc.lft.to/lastmile_qr_scan", "android": "https://dc.lft.to/lastmile_qr_scan"}, "is_reserved": 0}, {"lon": -77.05235066666667, "bike_id": "a67540bcc53da71b63bb3cfbcd9f62ba", "lat": 38.9246845, "fusion_lon": 0.0, "fusion_lat": 0.0, "type": "electric_scooter", "name": "a67540bcc53da71b63bb3cfbcd9f62ba", "is_disabled": 0, "rental_uris": {"ios": "https://dc.lft.to/lastmile_qr_scan", "android": "https://dc.lft.to/lastmile_qr_scan"}, "is_reserved": 0}, {"lon": -76.9907815, "bike_id": "5562c934ab3be4d8bc9eaf3a006fd227", "lat": 38.90033783333333, "fusion_lon": 0.0, "fusion_lat": 0.0, "type": "electric_scooter", "name": "5562c934ab3be4d8bc9eaf3a006fd227", "is_disabled": 0, "rental_uris": {"ios": "https://dc.lft.to/lastmile_qr_scan", "android": "https://dc.lft.to/lastmile_qr_scan"}, "is_reserved": 0}, {"lon": -77.03249083333333, "bike_id": "8c9175e7f3ea75627f29c7d2f6eddbe6", "lat": 38.9140495, "fusion_lon": 0.0, "fusion_lat": 0.0, "type": "electric_scooter", "name": "8c9175e7f3ea75627f29c7d2f6eddbe6", "is_disabled": 0, "rental_uris": {"ios": "https://dc.lft.to/lastmile_qr_scan", "android": "https://dc.lft.to/lastmile_qr_scan"}, "is_reserved": 0}, {"lon": -77.03810633333333, "bike_id": "59e45b1b6a4007c46f44701dda685b69", "lat": 38.931143, "fusion_lon": 0.0, "fusion_lat": 0.0, "type": "electric_scooter", "name": "59e45b1b6a4007c46f44701dda685b69", "is_disabled": 0, "rental_uris": {"ios": "https://dc.lft.to/lastmile_qr_scan", "android": "https://dc.lft.to/lastmile_qr_scan"}, "is_reserved": 0}, {"lon": -77.031936, "bike_id": "4c06e57fe6158cc83fc280a5cd26cab2", "lat": 38.9182805, "fusion_lon": 0.0, "fusion_lat": 0.0, "type": "electric_scooter", "name": "4c06e57fe6158cc83fc280a5cd26cab2", "is_disabled": 0, "rental_uris": {"ios": "https://dc.lft.to/lastmile_qr_scan", "android": "https://dc.lft.to/lastmile_qr_scan"}, "is_reserved": 0}, {"lon": -77.02758666666666, "bike_id": "9b5d45b0023555af8dd4e773c7dc63dc", "lat": 38.954344, "fusion_lon": 0.0, "fusion_lat": 0.0, "type": "electric_scooter", "name": "9b5d45b0023555af8dd4e773c7dc63dc", "is_disabled": 0, "rental_uris": {"ios": "https://dc.lft.to/lastmile_qr_scan", "android": "https://dc.lft.to/lastmile_qr_scan"}, "is_reserved": 0}, {"lon": -77.04816016666666, "bike_id": "127ff96fe49213cb618600183f6983fb", "lat": 38.911139166666665, "fusion_lon": 0.0, "fusion_lat": 0.0, "type": "electric_scooter", "name": "127ff96fe49213cb618600183f6983fb", "is_disabled": 0, "rental_uris": {"ios": "https://dc.lft.to/lastmile_qr_scan", "android": "https://dc.lft.to/lastmile_qr_scan"}, "is_reserved": 0}, {"lon": -77.044724, "bike_id": "c3b9a9a91c309413c5170d81393b7593", "lat": 38.923893166666666, "fusion_lon": 0.0, "fusion_lat": 0.0, "type": "electric_scooter", "name": "c3b9a9a91c309413c5170d81393b7593", "is_disabled": 0, "rental_uris": {"ios": "https://dc.lft.to/lastmile_qr_scan", "android": "https://dc.lft.to/lastmile_qr_scan"}, "is_reserved": 0}, {"lon": -76.9073995, "bike_id": "b1d66aa24ffc1d075dbefc65b1aa8f8b", "lat": 38.89620033333333, "fusion_lon": 0.0, "fusion_lat": 0.0, "type": "electric_bike", "name": "b1d66aa24ffc1d075dbefc65b1aa8f8b", "is_disabled": 0, "rental_uris": {"ios": "https://dc.lft.to/lastmile_qr_scan", "android": "https://dc.lft.to/lastmile_qr_scan"}, "is_reserved": 0}, {"lon": -77.004903, "bike_id": "bf974bb2442e12ae2db79a7b1a912065", "lat": 38.905803666666664, "fusion_lon": 0.0, "fusion_lat": 0.0, "type": "electric_scooter", "name": "bf974bb2442e12ae2db79a7b1a912065", "is_disabled": 0, "rental_uris": {"ios": "https://dc.lft.to/lastmile_qr_scan", "android": "https://dc.lft.to/lastmile_qr_scan"}, "is_reserved": 0}, {"lon": -76.97427983333333, "bike_id": "ba6bc2178ce6647db3982d34c7860d3b", "lat": 38.903997, "fusion_lon": 0.0, "fusion_lat": 0.0, "type": "electric_scooter", "name": "ba6bc2178ce6647db3982d34c7860d3b", "is_disabled": 0, "rental_uris": {"ios": "https://dc.lft.to/lastmile_qr_scan", "android": "https://dc.lft.to/lastmile_qr_scan"}, "is_reserved": 0}, {"lon": -77.0580235, "bike_id": "df60b79eee18752616c45b230d489a1c", "lat": 38.90114583333333, "fusion_lon": 0.0, "fusion_lat": 0.0, "type": "electric_scooter", "name": "df60b79eee18752616c45b230d489a1c", "is_disabled": 0, "rental_uris": {"ios": "https://dc.lft.to/lastmile_qr_scan", "android": "https://dc.lft.to/lastmile_qr_scan"}, "is_reserved": 0}, {"lon": -77.02701366666666, "bike_id": "ba7983498b8bacb6bde1b73b72074081", "lat": 38.917817, "fusion_lon": 0.0, "fusion_lat": 0.0, "type": "electric_scooter", "name": "ba7983498b8bacb6bde1b73b72074081", "is_disabled": 0, "rental_uris": {"ios": "https://dc.lft.to/lastmile_qr_scan", "android": "https://dc.lft.to/lastmile_qr_scan"}, "is_reserved": 0}, {"lon": -77.02292516666667, "bike_id": "c282c2d81563cad5e993efa3c7e3968f", "lat": 38.92230966666666, "fusion_lon": 0.0, "fusion_lat": 0.0, "type": "electric_scooter", "name": "c282c2d81563cad5e993efa3c7e3968f", "is_disabled": 0, "rental_uris": {"ios": "https://dc.lft.to/lastmile_qr_scan", "android": "https://dc.lft.to/lastmile_qr_scan"}, "is_reserved": 0}, {"lon": -77.00557683333334, "bike_id": "287e5fbbb98e4972de1afbb5a4a5fdd7", "lat": 38.87474266666667, "fusion_lon": 0.0, "fusion_lat": 0.0, "type": "electric_scooter", "name": "287e5fbbb98e4972de1afbb5a4a5fdd7", "is_disabled": 0, "rental_uris": {"ios": "https://dc.lft.to/lastmile_qr_scan", "android": "https://dc.lft.to/lastmile_qr_scan"}, "is_reserved": 0}, {"lon": -77.04097016666667, "bike_id": "01872244b4853eba2e8748a72e74a8c4", "lat": 38.917164, "fusion_lon": 0.0, "fusion_lat": 0.0, "type": "electric_scooter", "name": "01872244b4853eba2e8748a72e74a8c4", "is_disabled": 0, "rental_uris": {"ios": "https://dc.lft.to/lastmile_qr_scan", "android": "https://dc.lft.to/lastmile_qr_scan"}, "is_reserved": 0}, {"lon": -76.98526, "bike_id": "1a924d328f29096ca384c5fb20aeb262", "lat": 38.866866, "fusion_lon": 0.0, "fusion_lat": 0.0, "type": "electric_scooter", "name": "1a924d328f29096ca384c5fb20aeb262", "is_disabled": 0, "rental_uris": {"ios": "https://dc.lft.to/lastmile_qr_scan", "android": "https://dc.lft.to/lastmile_qr_scan"}, "is_reserved": 0}, {"lon": -77.03325116666667, "bike_id": "cfa4e64b978f8c9ad59854d98018cb0d", "lat": 38.896532, "fusion_lon": 0.0, "fusion_lat": 0.0, "type": "electric_scooter", "name": "cfa4e64b978f8c9ad59854d98018cb0d", "is_disabled": 0, "rental_uris": {"ios": "https://dc.lft.to/lastmile_qr_scan", "android": "https://dc.lft.to/lastmile_qr_scan"}, "is_reserved": 0}, {"lon": -77.03651766666667, "bike_id": "1d2959657302d24bb0903bd583a12431", "lat": 38.91292833333333, "fusion_lon": 0.0, "fusion_lat": 0.0, "type": "electric_scooter", "name": "1d2959657302d24bb0903bd583a12431", "is_disabled": 0, "rental_uris": {"ios": "https://dc.lft.to/lastmile_qr_scan", "android": "https://dc.lft.to/lastmile_qr_scan"}, "is_reserved": 0}, {"lon": -77.12223583333333, "bike_id": "70a15a432de0f081d909607074beeb2a", "lat": 38.85304883333333, "fusion_lon": 0.0, "fusion_lat": 0.0, "type": "electric_bike", "name": "70a15a432de0f081d909607074beeb2a", "is_disabled": 0, "rental_uris": {"ios": "https://dc.lft.to/lastmile_qr_scan", "android": "https://dc.lft.to/lastmile_qr_scan"}, "is_reserved": 0}, {"lon": -77.04267283333333, "bike_id": "24bad464ddcbc344b8f9654cf03b53de", "lat": 38.910485666666666, "fusion_lon": 0.0, "fusion_lat": 0.0, "type": "electric_scooter", "name": "24bad464ddcbc344b8f9654cf03b53de", "is_disabled": 0, "rental_uris": {"ios": "https://dc.lft.to/lastmile_qr_scan", "android": "https://dc.lft.to/lastmile_qr_scan"}, "is_reserved": 0}, {"lon": -77.01452533333334, "bike_id": "baed6c448cfe07253fb29774a6dec6c8", "lat": 38.90522433333334, "fusion_lon": 0.0, "fusion_lat": 0.0, "type": "electric_scooter", "name": "baed6c448cfe07253fb29774a6dec6c8", "is_disabled": 0, "rental_uris": {"ios": "https://dc.lft.to/lastmile_qr_scan", "android": "https://dc.lft.to/lastmile_qr_scan"}, "is_reserved": 0}, {"lon": -77.04061866666666, "bike_id": "f8523c5b69b4e0c57db8e0c3bcd3c3fa", "lat": 38.914916833333336, "fusion_lon": 0.0, "fusion_lat": 0.0, "type": "electric_scooter", "name": "f8523c5b69b4e0c57db8e0c3bcd3c3fa", "is_disabled": 0, "rental_uris": {"ios": "https://dc.lft.to/lastmile_qr_scan", "android": "https://dc.lft.to/lastmile_qr_scan"}, "is_reserved": 0}, {"lon": -77.0435415, "bike_id": "605244fc73808941f79f39a29dfbd209", "lat": 38.921473666666664, "fusion_lon": 0.0, "fusion_lat": 0.0, "type": "electric_scooter", "name": "605244fc73808941f79f39a29dfbd209", "is_disabled": 0, "rental_uris": {"ios": "https://dc.lft.to/lastmile_qr_scan", "android": "https://dc.lft.to/lastmile_qr_scan"}, "is_reserved": 0}, {"lon": -76.97737166666667, "bike_id": "ad6caac430748cdebba40ded02ac9278", "lat": 38.8648035, "fusion_lon": 0.0, "fusion_lat": 0.0, "type": "electric_scooter", "name": "ad6caac430748cdebba40ded02ac9278", "is_disabled": 0, "rental_uris": {"ios": "https://dc.lft.to/lastmile_qr_scan", "android": "https://dc.lft.to/lastmile_qr_scan"}, "is_reserved": 0}, {"lon": -76.98847133333334, "bike_id": "1a3e96e74bdb41f5f24c9fcc8f54f69c", "lat": 38.9012945, "fusion_lon": 0.0, "fusion_lat": 0.0, "type": "electric_scooter", "name": "1a3e96e74bdb41f5f24c9fcc8f54f69c", "is_disabled": 0, "rental_uris": {"ios": "https://dc.lft.to/lastmile_qr_scan", "android": "https://dc.lft.to/lastmile_qr_scan"}, "is_reserved": 0}, {"lon": -77.003285, "bike_id": "eb955d17e3065d32dd4bbf0a98eb079a", "lat": 38.8973185, "fusion_lon": 0.0, "fusion_lat": 0.0, "type": "electric_scooter", "name": "eb955d17e3065d32dd4bbf0a98eb079a", "is_disabled": 0, "rental_uris": {"ios": "https://dc.lft.to/lastmile_qr_scan", "android": "https://dc.lft.to/lastmile_qr_scan"}, "is_reserved": 0}, {"lon": -77.03445333333333, "bike_id": "44602f8aa685f5546a84b58c3a7762a8", "lat": 38.91808733333333, "fusion_lon": 0.0, "fusion_lat": 0.0, "type": "electric_scooter", "name": "44602f8aa685f5546a84b58c3a7762a8", "is_disabled": 0, "rental_uris": {"ios": "https://dc.lft.to/lastmile_qr_scan", "android": "https://dc.lft.to/lastmile_qr_scan"}, "is_reserved": 0}, {"lon": -77.02802033333333, "bike_id": "2ff0c079e92a31545ec5f287a86aceac", "lat": 38.93084433333333, "fusion_lon": 0.0, "fusion_lat": 0.0, "type": "electric_scooter", "name": "2ff0c079e92a31545ec5f287a86aceac", "is_disabled": 0, "rental_uris": {"ios": "https://dc.lft.to/lastmile_qr_scan", "android": "https://dc.lft.to/lastmile_qr_scan"}, "is_reserved": 0}, {"lon": -77.02529833333334, "bike_id": "448e2747b33ef7acbac1a34f0f2e6bf3", "lat": 38.90726033333333, "fusion_lon": 0.0, "fusion_lat": 0.0, "type": "electric_scooter", "name": "448e2747b33ef7acbac1a34f0f2e6bf3", "is_disabled": 0, "rental_uris": {"ios": "https://dc.lft.to/lastmile_qr_scan", "android": "https://dc.lft.to/lastmile_qr_scan"}, "is_reserved": 0}, {"lon": -77.05235316666666, "bike_id": "34939cb7f7a32b0f91d70d5a1baa7fc1", "lat": 38.923437, "fusion_lon": 0.0, "fusion_lat": 0.0, "type": "electric_scooter", "name": "34939cb7f7a32b0f91d70d5a1baa7fc1", "is_disabled": 0, "rental_uris": {"ios": "https://dc.lft.to/lastmile_qr_scan", "android": "https://dc.lft.to/lastmile_qr_scan"}, "is_reserved": 0}, {"lon": -77.04334233333333, "bike_id": "809ce9b8c0fbc488ab286bbd140c511d", "lat": 38.91116566666667, "fusion_lon": 0.0, "fusion_lat": 0.0, "type": "electric_scooter", "name": "809ce9b8c0fbc488ab286bbd140c511d", "is_disabled": 0, "rental_uris": {"ios": "https://dc.lft.to/lastmile_qr_scan", "android": "https://dc.lft.to/lastmile_qr_scan"}, "is_reserved": 0}, {"lon": -77.10840433333334, "bike_id": "90f4a53bb58984c3472c248c73ca0f1d", "lat": 38.81207083333334, "fusion_lon": 0.0, "fusion_lat": 0.0, "type": "electric_bike", "name": "90f4a53bb58984c3472c248c73ca0f1d", "is_disabled": 0, "rental_uris": {"ios": "https://dc.lft.to/lastmile_qr_scan", "android": "https://dc.lft.to/lastmile_qr_scan"}, "is_reserved": 0}, {"lon": -77.00524166666666, "bike_id": "447fae6c8aa5a1954a8405740de9fb16", "lat": 38.87548266666667, "fusion_lon": 0.0, "fusion_lat": 0.0, "type": "electric_scooter", "name": "447fae6c8aa5a1954a8405740de9fb16", "is_disabled": 0, "rental_uris": {"ios": "https://dc.lft.to/lastmile_qr_scan", "android": "https://dc.lft.to/lastmile_qr_scan"}, "is_reserved": 0}, {"lon": -76.99000766666667, "bike_id": "07feb97e144189893c4f3f8251cd9b8f", "lat": 38.86510633333333, "fusion_lon": 0.0, "fusion_lat": 0.0, "type": "electric_scooter", "name": "07feb97e144189893c4f3f8251cd9b8f", "is_disabled": 0, "rental_uris": {"ios": "https://dc.lft.to/lastmile_qr_scan", "android": "https://dc.lft.to/lastmile_qr_scan"}, "is_reserved": 0}, {"lon": -77.0277075, "bike_id": "bd79a2233e7ef411b82a845f31362df5", "lat": 38.930123333333334, "fusion_lon": 0.0, "fusion_lat": 0.0, "type": "electric_scooter", "name": "bd79a2233e7ef411b82a845f31362df5", "is_disabled": 0, "rental_uris": {"ios": "https://dc.lft.to/lastmile_qr_scan", "android": "https://dc.lft.to/lastmile_qr_scan"}, "is_reserved": 0}, {"lon": -77.02766, "bike_id": "3df67f483727ebaa0a4c463dfd691372", "lat": 38.954295333333334, "fusion_lon": 0.0, "fusion_lat": 0.0, "type": "electric_scooter", "name": "3df67f483727ebaa0a4c463dfd691372", "is_disabled": 0, "rental_uris": {"ios": "https://dc.lft.to/lastmile_qr_scan", "android": "https://dc.lft.to/lastmile_qr_scan"}, "is_reserved": 0}, {"lon": -76.9808935, "bike_id": "597343da2d1809c36226f7ae34f595f8", "lat": 38.90706433333333, "fusion_lon": 0.0, "fusion_lat": 0.0, "type": "electric_scooter", "name": "597343da2d1809c36226f7ae34f595f8", "is_disabled": 0, "rental_uris": {"ios": "https://dc.lft.to/lastmile_qr_scan", "android": "https://dc.lft.to/lastmile_qr_scan"}, "is_reserved": 0}, {"lon": -77.03892366666666, "bike_id": "4e4d3af94091da88adb61ae7bb731ed4", "lat": 38.91848816666667, "fusion_lon": 0.0, "fusion_lat": 0.0, "type": "electric_scooter", "name": "4e4d3af94091da88adb61ae7bb731ed4", "is_disabled": 0, "rental_uris": {"ios": "https://dc.lft.to/lastmile_qr_scan", "android": "https://dc.lft.to/lastmile_qr_scan"}, "is_reserved": 0}, {"lon": -77.03176316666666, "bike_id": "c1a278143e20b12c0f85a0fea8b066cc", "lat": 38.892274, "fusion_lon": 0.0, "fusion_lat": 0.0, "type": "electric_scooter", "name": "c1a278143e20b12c0f85a0fea8b066cc", "is_disabled": 0, "rental_uris": {"ios": "https://dc.lft.to/lastmile_qr_scan", "android": "https://dc.lft.to/lastmile_qr_scan"}, "is_reserved": 0}, {"lon": -76.99184916666667, "bike_id": "d32f810110278d7cf9a8582f4fa7f8b5", "lat": 38.88974133333333, "fusion_lon": 0.0, "fusion_lat": 0.0, "type": "electric_scooter", "name": "d32f810110278d7cf9a8582f4fa7f8b5", "is_disabled": 0, "rental_uris": {"ios": "https://dc.lft.to/lastmile_qr_scan", "android": "https://dc.lft.to/lastmile_qr_scan"}, "is_reserved": 0}, {"lon": -77.01627783333333, "bike_id": "64525f65e08f78a6a2a9d612883912e8", "lat": 38.905703833333334, "fusion_lon": 0.0, "fusion_lat": 0.0, "type": "electric_scooter", "name": "64525f65e08f78a6a2a9d612883912e8", "is_disabled": 0, "rental_uris": {"ios": "https://dc.lft.to/lastmile_qr_scan", "android": "https://dc.lft.to/lastmile_qr_scan"}, "is_reserved": 0}, {"lon": -77.012398, "bike_id": "1196f0e10357bd38420576a823abd3e8", "lat": 38.89298016666667, "fusion_lon": 0.0, "fusion_lat": 0.0, "type": "electric_scooter", "name": "1196f0e10357bd38420576a823abd3e8", "is_disabled": 0, "rental_uris": {"ios": "https://dc.lft.to/lastmile_qr_scan", "android": "https://dc.lft.to/lastmile_qr_scan"}, "is_reserved": 0}, {"lon": -77.0355015, "bike_id": "978421498fc9dc0b867962a7c7571df8", "lat": 38.908469833333335, "fusion_lon": 0.0, "fusion_lat": 0.0, "type": "electric_scooter", "name": "978421498fc9dc0b867962a7c7571df8", "is_disabled": 0, "rental_uris": {"ios": "https://dc.lft.to/lastmile_qr_scan", "android": "https://dc.lft.to/lastmile_qr_scan"}, "is_reserved": 0}, {"lon": -77.026932, "bike_id": "f3788a519be925514fd4379284b45ce5", "lat": 38.91778016666667, "fusion_lon": 0.0, "fusion_lat": 0.0, "type": "electric_scooter", "name": "f3788a519be925514fd4379284b45ce5", "is_disabled": 0, "rental_uris": {"ios": "https://dc.lft.to/lastmile_qr_scan", "android": "https://dc.lft.to/lastmile_qr_scan"}, "is_reserved": 0}, {"lon": -77.03212783333333, "bike_id": "d895d03e1619b66729a7a8b726a007a7", "lat": 38.892221166666666, "fusion_lon": 0.0, "fusion_lat": 0.0, "type": "electric_scooter", "name": "d895d03e1619b66729a7a8b726a007a7", "is_disabled": 0, "rental_uris": {"ios": "https://dc.lft.to/lastmile_qr_scan", "android": "https://dc.lft.to/lastmile_qr_scan"}, "is_reserved": 0}, {"lon": -77.03657, "bike_id": "e4d73dbf2e1f5ece217680b5678cbd45", "lat": 38.91226283333334, "fusion_lon": 0.0, "fusion_lat": 0.0, "type": "electric_scooter", "name": "e4d73dbf2e1f5ece217680b5678cbd45", "is_disabled": 0, "rental_uris": {"ios": "https://dc.lft.to/lastmile_qr_scan", "android": "https://dc.lft.to/lastmile_qr_scan"}, "is_reserved": 0}, {"lon": -77.05852166666666, "bike_id": "ddf214b90cfc65a9ee0abdbdef71619f", "lat": 38.936043166666664, "fusion_lon": 0.0, "fusion_lat": 0.0, "type": "electric_scooter", "name": "ddf214b90cfc65a9ee0abdbdef71619f", "is_disabled": 0, "rental_uris": {"ios": "https://dc.lft.to/lastmile_qr_scan", "android": "https://dc.lft.to/lastmile_qr_scan"}, "is_reserved": 0}, {"lon": -77.0231845, "bike_id": "8203a59471e7b724059cea2ffbd3ff3c", "lat": 38.9279295, "fusion_lon": 0.0, "fusion_lat": 0.0, "type": "electric_scooter", "name": "8203a59471e7b724059cea2ffbd3ff3c", "is_disabled": 0, "rental_uris": {"ios": "https://dc.lft.to/lastmile_qr_scan", "android": "https://dc.lft.to/lastmile_qr_scan"}, "is_reserved": 0}, {"lon": -76.97330816666667, "bike_id": "d99756e2950cc75893b327d27a43216d", "lat": 38.865209666666665, "fusion_lon": 0.0, "fusion_lat": 0.0, "type": "electric_bike", "name": "d99756e2950cc75893b327d27a43216d", "is_disabled": 0, "rental_uris": {"ios": "https://dc.lft.to/lastmile_qr_scan", "android": "https://dc.lft.to/lastmile_qr_scan"}, "is_reserved": 0}, {"lon": -77.0217855, "bike_id": "59a4552544211a0b5588da3da61c0cab", "lat": 38.8936285, "fusion_lon": 0.0, "fusion_lat": 0.0, "type": "electric_scooter", "name": "59a4552544211a0b5588da3da61c0cab", "is_disabled": 0, "rental_uris": {"ios": "https://dc.lft.to/lastmile_qr_scan", "android": "https://dc.lft.to/lastmile_qr_scan"}, "is_reserved": 0}, {"lon": -76.98082533333333, "bike_id": "157edb0043a13388e6d016c17489810d", "lat": 38.88427733333333, "fusion_lon": 0.0, "fusion_lat": 0.0, "type": "electric_scooter", "name": "157edb0043a13388e6d016c17489810d", "is_disabled": 0, "rental_uris": {"ios": "https://dc.lft.to/lastmile_qr_scan", "android": "https://dc.lft.to/lastmile_qr_scan"}, "is_reserved": 0}, {"lon": -76.983482, "bike_id": "5444dc74eed4601423c3f7d478983f65", "lat": 38.902942333333336, "fusion_lon": 0.0, "fusion_lat": 0.0, "type": "electric_scooter", "name": "5444dc74eed4601423c3f7d478983f65", "is_disabled": 0, "rental_uris": {"ios": "https://dc.lft.to/lastmile_qr_scan", "android": "https://dc.lft.to/lastmile_qr_scan"}, "is_reserved": 0}, {"lon": -76.99181266666666, "bike_id": "2f979447e324c78de53edc9d4025bc3d", "lat": 38.88977116666667, "fusion_lon": 0.0, "fusion_lat": 0.0, "type": "electric_scooter", "name": "2f979447e324c78de53edc9d4025bc3d", "is_disabled": 0, "rental_uris": {"ios": "https://dc.lft.to/lastmile_qr_scan", "android": "https://dc.lft.to/lastmile_qr_scan"}, "is_reserved": 0}, {"lon": -76.98881733333333, "bike_id": "e7230a9dad1dbeb225d873af13205262", "lat": 38.8665405, "fusion_lon": 0.0, "fusion_lat": 0.0, "type": "electric_scooter", "name": "e7230a9dad1dbeb225d873af13205262", "is_disabled": 0, "rental_uris": {"ios": "https://dc.lft.to/lastmile_qr_scan", "android": "https://dc.lft.to/lastmile_qr_scan"}, "is_reserved": 0}, {"lon": -77.100871, "bike_id": "a02c4ecc1f223df8fc20823fc3e951a5", "lat": 38.95956366666667, "fusion_lon": 0.0, "fusion_lat": 0.0, "type": "electric_bike", "name": "a02c4ecc1f223df8fc20823fc3e951a5", "is_disabled": 0, "rental_uris": {"ios": "https://dc.lft.to/lastmile_qr_scan", "android": "https://dc.lft.to/lastmile_qr_scan"}, "is_reserved": 0}, {"lon": -77.06253716666667, "bike_id": "67a03bffd6908280623b3397d4952ffe", "lat": 38.944257666666665, "fusion_lon": 0.0, "fusion_lat": 0.0, "type": "electric_scooter", "name": "67a03bffd6908280623b3397d4952ffe", "is_disabled": 0, "rental_uris": {"ios": "https://dc.lft.to/lastmile_qr_scan", "android": "https://dc.lft.to/lastmile_qr_scan"}, "is_reserved": 0}, {"lon": -76.98894733333333, "bike_id": "c5746235fc8cd1a7dea14631124b8605", "lat": 38.913496, "fusion_lon": 0.0, "fusion_lat": 0.0, "type": "electric_scooter", "name": "c5746235fc8cd1a7dea14631124b8605", "is_disabled": 0, "rental_uris": {"ios": "https://dc.lft.to/lastmile_qr_scan", "android": "https://dc.lft.to/lastmile_qr_scan"}, "is_reserved": 0}, {"lon": -77.03653466666667, "bike_id": "6193bc22741a54465642b61bd3dd2267", "lat": 38.94182283333333, "fusion_lon": 0.0, "fusion_lat": 0.0, "type": "electric_scooter", "name": "6193bc22741a54465642b61bd3dd2267", "is_disabled": 0, "rental_uris": {"ios": "https://dc.lft.to/lastmile_qr_scan", "android": "https://dc.lft.to/lastmile_qr_scan"}, "is_reserved": 0}, {"lon": -76.98592233333333, "bike_id": "48403b68662e6bf734d042f48f609b35", "lat": 38.908137833333335, "fusion_lon": 0.0, "fusion_lat": 0.0, "type": "electric_scooter", "name": "48403b68662e6bf734d042f48f609b35", "is_disabled": 0, "rental_uris": {"ios": "https://dc.lft.to/lastmile_qr_scan", "android": "https://dc.lft.to/lastmile_qr_scan"}, "is_reserved": 0}, {"lon": -76.98260316666666, "bike_id": "790dedf8cd9a2061f8f1456e9ca8f471", "lat": 38.90852616666667, "fusion_lon": 0.0, "fusion_lat": 0.0, "type": "electric_scooter", "name": "790dedf8cd9a2061f8f1456e9ca8f471", "is_disabled": 0, "rental_uris": {"ios": "https://dc.lft.to/lastmile_qr_scan", "android": "https://dc.lft.to/lastmile_qr_scan"}, "is_reserved": 0}, {"lon": -77.02629516666667, "bike_id": "058226ed06a466fca6c08b0f05dec3fa", "lat": 38.9621555, "fusion_lon": 0.0, "fusion_lat": 0.0, "type": "electric_bike", "name": "058226ed06a466fca6c08b0f05dec3fa", "is_disabled": 0, "rental_uris": {"ios": "https://dc.lft.to/lastmile_qr_scan", "android": "https://dc.lft.to/lastmile_qr_scan"}, "is_reserved": 0}, {"lon": -76.94290166666667, "bike_id": "30e7abb812190f54916e6b90c7e1e989", "lat": 38.9387225, "fusion_lon": 0.0, "fusion_lat": 0.0, "type": "electric_bike", "name": "30e7abb812190f54916e6b90c7e1e989", "is_disabled": 0, "rental_uris": {"ios": "https://dc.lft.to/lastmile_qr_scan", "android": "https://dc.lft.to/lastmile_qr_scan"}, "is_reserved": 0}, {"lon": -76.99484183333334, "bike_id": "f1a415dc720366b18bd36d230acd8ea6", "lat": 38.915695166666666, "fusion_lon": 0.0, "fusion_lat": 0.0, "type": "electric_scooter", "name": "f1a415dc720366b18bd36d230acd8ea6", "is_disabled": 0, "rental_uris": {"ios": "https://dc.lft.to/lastmile_qr_scan", "android": "https://dc.lft.to/lastmile_qr_scan"}, "is_reserved": 0}, {"lon": -76.93364866666667, "bike_id": "fbfe0b30227a64033a96cb1d8e9b920a", "lat": 38.899149333333334, "fusion_lon": 0.0, "fusion_lat": 0.0, "type": "electric_scooter", "name": "fbfe0b30227a64033a96cb1d8e9b920a", "is_disabled": 0, "rental_uris": {"ios": "https://dc.lft.to/lastmile_qr_scan", "android": "https://dc.lft.to/lastmile_qr_scan"}, "is_reserved": 0}, {"lon": -76.9818725, "bike_id": "5e1931afe9b190f670c5fba842e3680d", "lat": 38.926069, "fusion_lon": 0.0, "fusion_lat": 0.0, "type": "electric_scooter", "name": "5e1931afe9b190f670c5fba842e3680d", "is_disabled": 0, "rental_uris": {"ios": "https://dc.lft.to/lastmile_qr_scan", "android": "https://dc.lft.to/lastmile_qr_scan"}, "is_reserved": 0}, {"lon": -77.0317385, "bike_id": "beb8000ffe179d03a8acbf8f846dd4f5", "lat": 38.918499833333335, "fusion_lon": 0.0, "fusion_lat": 0.0, "type": "electric_scooter", "name": "beb8000ffe179d03a8acbf8f846dd4f5", "is_disabled": 0, "rental_uris": {"ios": "https://dc.lft.to/lastmile_qr_scan", "android": "https://dc.lft.to/lastmile_qr_scan"}, "is_reserved": 0}, {"lon": -77.01159183333333, "bike_id": "3d3abfb15e9e2d426ae65c75e578349a", "lat": 38.872406166666664, "fusion_lon": 0.0, "fusion_lat": 0.0, "type": "electric_bike", "name": "3d3abfb15e9e2d426ae65c75e578349a", "is_disabled": 0, "rental_uris": {"ios": "https://dc.lft.to/lastmile_qr_scan", "android": "https://dc.lft.to/lastmile_qr_scan"}, "is_reserved": 0}, {"lon": -77.03527466666667, "bike_id": "6e05600da285619ba00f360505ce7aef", "lat": 38.926332333333335, "fusion_lon": 0.0, "fusion_lat": 0.0, "type": "electric_scooter", "name": "6e05600da285619ba00f360505ce7aef", "is_disabled": 0, "rental_uris": {"ios": "https://dc.lft.to/lastmile_qr_scan", "android": "https://dc.lft.to/lastmile_qr_scan"}, "is_reserved": 0}, {"lon": -77.00192616666666, "bike_id": "5b47bc80a45cb52b88d08484e5725311", "lat": 38.9004045, "fusion_lon": 0.0, "fusion_lat": 0.0, "type": "electric_scooter", "name": "5b47bc80a45cb52b88d08484e5725311", "is_disabled": 0, "rental_uris": {"ios": "https://dc.lft.to/lastmile_qr_scan", "android": "https://dc.lft.to/lastmile_qr_scan"}, "is_reserved": 0}, {"lon": -76.954798, "bike_id": "9aa8841eeb4290ef5094cfa431dd4304", "lat": 38.884676, "fusion_lon": 0.0, "fusion_lat": 0.0, "type": "electric_scooter", "name": "9aa8841eeb4290ef5094cfa431dd4304", "is_disabled": 0, "rental_uris": {"ios": "https://dc.lft.to/lastmile_qr_scan", "android": "https://dc.lft.to/lastmile_qr_scan"}, "is_reserved": 0}, {"lon": -77.0228645, "bike_id": "d53a872222f70a6df8290eda6770eb11", "lat": 38.89068066666667, "fusion_lon": 0.0, "fusion_lat": 0.0, "type": "electric_scooter", "name": "d53a872222f70a6df8290eda6770eb11", "is_disabled": 0, "rental_uris": {"ios": "https://dc.lft.to/lastmile_qr_scan", "android": "https://dc.lft.to/lastmile_qr_scan"}, "is_reserved": 0}, {"lon": -77.04404883333333, "bike_id": "48c672b0dd5866c453b87d120c8a563c", "lat": 38.921374166666666, "fusion_lon": 0.0, "fusion_lat": 0.0, "type": "electric_scooter", "name": "48c672b0dd5866c453b87d120c8a563c", "is_disabled": 0, "rental_uris": {"ios": "https://dc.lft.to/lastmile_qr_scan", "android": "https://dc.lft.to/lastmile_qr_scan"}, "is_reserved": 0}, {"lon": -77.042642, "bike_id": "f5385701ea3ab037e526fa06262063eb", "lat": 38.907386, "fusion_lon": 0.0, "fusion_lat": 0.0, "type": "electric_scooter", "name": "f5385701ea3ab037e526fa06262063eb", "is_disabled": 0, "rental_uris": {"ios": "https://dc.lft.to/lastmile_qr_scan", "android": "https://dc.lft.to/lastmile_qr_scan"}, "is_reserved": 0}, {"lon": -77.05160033333334, "bike_id": "507e910f0aaf08e6d7fe48c5678ada5a", "lat": 39.04315233333333, "fusion_lon": 0.0, "fusion_lat": 0.0, "type": "electric_bike", "name": "507e910f0aaf08e6d7fe48c5678ada5a", "is_disabled": 0, "rental_uris": {"ios": "https://dc.lft.to/lastmile_qr_scan", "android": "https://dc.lft.to/lastmile_qr_scan"}, "is_reserved": 0}, {"lon": -77.031785, "bike_id": "15467eb2fc9fe30595971050bb0cc63c", "lat": 38.936924166666664, "fusion_lon": 0.0, "fusion_lat": 0.0, "type": "electric_scooter", "name": "15467eb2fc9fe30595971050bb0cc63c", "is_disabled": 0, "rental_uris": {"ios": "https://dc.lft.to/lastmile_qr_scan", "android": "https://dc.lft.to/lastmile_qr_scan"}, "is_reserved": 0}, {"lon": -77.012043, "bike_id": "847a165b3fdbfd8c825a4db308cc7d06", "lat": 38.92125133333333, "fusion_lon": 0.0, "fusion_lat": 0.0, "type": "electric_scooter", "name": "847a165b3fdbfd8c825a4db308cc7d06", "is_disabled": 0, "rental_uris": {"ios": "https://dc.lft.to/lastmile_qr_scan", "android": "https://dc.lft.to/lastmile_qr_scan"}, "is_reserved": 0}, {"lon": -76.930118, "bike_id": "ed139c658f6f528454ce414461829f50", "lat": 38.8919925, "fusion_lon": 0.0, "fusion_lat": 0.0, "type": "electric_scooter", "name": "ed139c658f6f528454ce414461829f50", "is_disabled": 0, "rental_uris": {"ios": "https://dc.lft.to/lastmile_qr_scan", "android": "https://dc.lft.to/lastmile_qr_scan"}, "is_reserved": 0}, {"lon": -76.97534283333333, "bike_id": "d93d3fca389e9e6d0ffafc09dc99b079", "lat": 38.8643245, "fusion_lon": 0.0, "fusion_lat": 0.0, "type": "electric_scooter", "name": "d93d3fca389e9e6d0ffafc09dc99b079", "is_disabled": 0, "rental_uris": {"ios": "https://dc.lft.to/lastmile_qr_scan", "android": "https://dc.lft.to/lastmile_qr_scan"}, "is_reserved": 0}, {"lon": -77.006241, "bike_id": "dfa70f4139eb71a2a79f352a13ac5977", "lat": 38.91255916666667, "fusion_lon": 0.0, "fusion_lat": 0.0, "type": "electric_scooter", "name": "dfa70f4139eb71a2a79f352a13ac5977", "is_disabled": 0, "rental_uris": {"ios": "https://dc.lft.to/lastmile_qr_scan", "android": "https://dc.lft.to/lastmile_qr_scan"}, "is_reserved": 0}, {"lon": -77.05695916666667, "bike_id": "e3f27f1b58af03030ae975f84959cb1f", "lat": 38.937196666666665, "fusion_lon": 0.0, "fusion_lat": 0.0, "type": "electric_scooter", "name": "e3f27f1b58af03030ae975f84959cb1f", "is_disabled": 0, "rental_uris": {"ios": "https://dc.lft.to/lastmile_qr_scan", "android": "https://dc.lft.to/lastmile_qr_scan"}, "is_reserved": 0}, {"lon": -76.9952755, "bike_id": "7b168fa2286e4b40b31236f834b00be9", "lat": 38.88378983333333, "fusion_lon": 0.0, "fusion_lat": 0.0, "type": "electric_scooter", "name": "7b168fa2286e4b40b31236f834b00be9", "is_disabled": 0, "rental_uris": {"ios": "https://dc.lft.to/lastmile_qr_scan", "android": "https://dc.lft.to/lastmile_qr_scan"}, "is_reserved": 0}, {"lon": -77.0572325, "bike_id": "039ffedb238b9408af8c5c8fefa1fe0d", "lat": 38.93364433333333, "fusion_lon": 0.0, "fusion_lat": 0.0, "type": "electric_scooter", "name": "039ffedb238b9408af8c5c8fefa1fe0d", "is_disabled": 0, "rental_uris": {"ios": "https://dc.lft.to/lastmile_qr_scan", "android": "https://dc.lft.to/lastmile_qr_scan"}, "is_reserved": 0}, {"lon": -77.018742, "bike_id": "deab0f9d7af3da847ca96253a054872b", "lat": 38.91829633333333, "fusion_lon": 0.0, "fusion_lat": 0.0, "type": "electric_scooter", "name": "deab0f9d7af3da847ca96253a054872b", "is_disabled": 0, "rental_uris": {"ios": "https://dc.lft.to/lastmile_qr_scan", "android": "https://dc.lft.to/lastmile_qr_scan"}, "is_reserved": 0}, {"lon": -77.00061183333334, "bike_id": "fa41333b1cf55a1b0a711b51684e3453", "lat": 38.89501033333333, "fusion_lon": 0.0, "fusion_lat": 0.0, "type": "electric_scooter", "name": "fa41333b1cf55a1b0a711b51684e3453", "is_disabled": 0, "rental_uris": {"ios": "https://dc.lft.to/lastmile_qr_scan", "android": "https://dc.lft.to/lastmile_qr_scan"}, "is_reserved": 0}, {"lon": -76.98228416666667, "bike_id": "fc1ea2398fbff9f2b466e488898458d5", "lat": 38.88652716666667, "fusion_lon": 0.0, "fusion_lat": 0.0, "type": "electric_scooter", "name": "fc1ea2398fbff9f2b466e488898458d5", "is_disabled": 0, "rental_uris": {"ios": "https://dc.lft.to/lastmile_qr_scan", "android": "https://dc.lft.to/lastmile_qr_scan"}, "is_reserved": 0}, {"lon": -77.0433335, "bike_id": "863c97718e532f94efb68a254ab0ae20", "lat": 38.922281, "fusion_lon": 0.0, "fusion_lat": 0.0, "type": "electric_scooter", "name": "863c97718e532f94efb68a254ab0ae20", "is_disabled": 0, "rental_uris": {"ios": "https://dc.lft.to/lastmile_qr_scan", "android": "https://dc.lft.to/lastmile_qr_scan"}, "is_reserved": 0}, {"lon": -77.10488633333334, "bike_id": "37f7a0bfa1477f5a93fd6da1f6058eb5", "lat": 38.8560735, "fusion_lon": 0.0, "fusion_lat": 0.0, "type": "electric_bike", "name": "37f7a0bfa1477f5a93fd6da1f6058eb5", "is_disabled": 0, "rental_uris": {"ios": "https://dc.lft.to/lastmile_qr_scan", "android": "https://dc.lft.to/lastmile_qr_scan"}, "is_reserved": 0}, {"lon": -77.03758866666666, "bike_id": "4d407c2c7d5edc1080962593aaa305fb", "lat": 38.907827, "fusion_lon": 0.0, "fusion_lat": 0.0, "type": "electric_scooter", "name": "4d407c2c7d5edc1080962593aaa305fb", "is_disabled": 0, "rental_uris": {"ios": "https://dc.lft.to/lastmile_qr_scan", "android": "https://dc.lft.to/lastmile_qr_scan"}, "is_reserved": 0}, {"lon": -77.00339883333334, "bike_id": "021d6c8c5dbfada5617593e3e2d54cfa", "lat": 38.916335, "fusion_lon": 0.0, "fusion_lat": 0.0, "type": "electric_scooter", "name": "021d6c8c5dbfada5617593e3e2d54cfa", "is_disabled": 0, "rental_uris": {"ios": "https://dc.lft.to/lastmile_qr_scan", "android": "https://dc.lft.to/lastmile_qr_scan"}, "is_reserved": 0}, {"lon": -76.991718, "bike_id": "db9b07d130d96946a19abda940d0288d", "lat": 38.88988883333333, "fusion_lon": 0.0, "fusion_lat": 0.0, "type": "electric_scooter", "name": "db9b07d130d96946a19abda940d0288d", "is_disabled": 0, "rental_uris": {"ios": "https://dc.lft.to/lastmile_qr_scan", "android": "https://dc.lft.to/lastmile_qr_scan"}, "is_reserved": 0}, {"lon": -77.024432, "bike_id": "9f6b759f3903646d71ea1235e20ea032", "lat": 38.92346466666667, "fusion_lon": 0.0, "fusion_lat": 0.0, "type": "electric_scooter", "name": "9f6b759f3903646d71ea1235e20ea032", "is_disabled": 0, "rental_uris": {"ios": "https://dc.lft.to/lastmile_qr_scan", "android": "https://dc.lft.to/lastmile_qr_scan"}, "is_reserved": 0}, {"lon": -77.05059166666666, "bike_id": "f0d9501ba0fe76a778e46bda5e8b084f", "lat": 38.925914666666664, "fusion_lon": 0.0, "fusion_lat": 0.0, "type": "electric_scooter", "name": "f0d9501ba0fe76a778e46bda5e8b084f", "is_disabled": 0, "rental_uris": {"ios": "https://dc.lft.to/lastmile_qr_scan", "android": "https://dc.lft.to/lastmile_qr_scan"}, "is_reserved": 0}, {"lon": -77.04126666666667, "bike_id": "0d27eb2bd76c0987f8a37948c7fc760a", "lat": 38.906374166666666, "fusion_lon": 0.0, "fusion_lat": 0.0, "type": "electric_scooter", "name": "0d27eb2bd76c0987f8a37948c7fc760a", "is_disabled": 0, "rental_uris": {"ios": "https://dc.lft.to/lastmile_qr_scan", "android": "https://dc.lft.to/lastmile_qr_scan"}, "is_reserved": 0}, {"lon": -77.03754366666666, "bike_id": "39de0407f0fb7ce2be144e974bc7b102", "lat": 38.928868, "fusion_lon": 0.0, "fusion_lat": 0.0, "type": "electric_scooter", "name": "39de0407f0fb7ce2be144e974bc7b102", "is_disabled": 0, "rental_uris": {"ios": "https://dc.lft.to/lastmile_qr_scan", "android": "https://dc.lft.to/lastmile_qr_scan"}, "is_reserved": 0}, {"lon": -76.9846185, "bike_id": "09e41a9ded2acc04f439245c53157ab8", "lat": 38.905532666666666, "fusion_lon": 0.0, "fusion_lat": 0.0, "type": "electric_scooter", "name": "09e41a9ded2acc04f439245c53157ab8", "is_disabled": 0, "rental_uris": {"ios": "https://dc.lft.to/lastmile_qr_scan", "android": "https://dc.lft.to/lastmile_qr_scan"}, "is_reserved": 0}, {"lon": -77.03208116666667, "bike_id": "c0433b0b08cff81c5bb8774b44e82a08", "lat": 38.91966566666667, "fusion_lon": 0.0, "fusion_lat": 0.0, "type": "electric_scooter", "name": "c0433b0b08cff81c5bb8774b44e82a08", "is_disabled": 0, "rental_uris": {"ios": "https://dc.lft.to/lastmile_qr_scan", "android": "https://dc.lft.to/lastmile_qr_scan"}, "is_reserved": 0}, {"lon": -76.998834, "bike_id": "3669f85aba561fed7ec7ff5fea401343", "lat": 38.920555666666665, "fusion_lon": 0.0, "fusion_lat": 0.0, "type": "electric_scooter", "name": "3669f85aba561fed7ec7ff5fea401343", "is_disabled": 0, "rental_uris": {"ios": "https://dc.lft.to/lastmile_qr_scan", "android": "https://dc.lft.to/lastmile_qr_scan"}, "is_reserved": 0}, {"lon": -76.99355266666667, "bike_id": "22f46617805817cda8f27512ff05de08", "lat": 38.8450665, "fusion_lon": 0.0, "fusion_lat": 0.0, "type": "electric_bike", "name": "22f46617805817cda8f27512ff05de08", "is_disabled": 0, "rental_uris": {"ios": "https://dc.lft.to/lastmile_qr_scan", "android": "https://dc.lft.to/lastmile_qr_scan"}, "is_reserved": 0}, {"lon": -77.03654516666667, "bike_id": "44e0ccfdf425a3d195e720d0679e8f4f", "lat": 38.936367, "fusion_lon": 0.0, "fusion_lat": 0.0, "type": "electric_scooter", "name": "44e0ccfdf425a3d195e720d0679e8f4f", "is_disabled": 0, "rental_uris": {"ios": "https://dc.lft.to/lastmile_qr_scan", "android": "https://dc.lft.to/lastmile_qr_scan"}, "is_reserved": 0}, {"lon": -77.01377566666666, "bike_id": "a5937d4e248ed3bd8d34e44d9101eaec", "lat": 38.887114833333335, "fusion_lon": 0.0, "fusion_lat": 0.0, "type": "electric_scooter", "name": "a5937d4e248ed3bd8d34e44d9101eaec", "is_disabled": 0, "rental_uris": {"ios": "https://dc.lft.to/lastmile_qr_scan", "android": "https://dc.lft.to/lastmile_qr_scan"}, "is_reserved": 0}, {"lon": -77.01058666666667, "bike_id": "56111357f119b8f3b097fa7c5c7db2c0", "lat": 38.87870133333333, "fusion_lon": 0.0, "fusion_lat": 0.0, "type": "electric_scooter", "name": "56111357f119b8f3b097fa7c5c7db2c0", "is_disabled": 0, "rental_uris": {"ios": "https://dc.lft.to/lastmile_qr_scan", "android": "https://dc.lft.to/lastmile_qr_scan"}, "is_reserved": 0}, {"lon": -77.05233133333333, "bike_id": "15fb4cf5d9bc4ede29399edf1df25eca", "lat": 38.924574166666666, "fusion_lon": 0.0, "fusion_lat": 0.0, "type": "electric_scooter", "name": "15fb4cf5d9bc4ede29399edf1df25eca", "is_disabled": 0, "rental_uris": {"ios": "https://dc.lft.to/lastmile_qr_scan", "android": "https://dc.lft.to/lastmile_qr_scan"}, "is_reserved": 0}, {"lon": -77.03103883333333, "bike_id": "efa49cf33255fdc9ef7335861620ee97", "lat": 38.9156225, "fusion_lon": 0.0, "fusion_lat": 0.0, "type": "electric_scooter", "name": "efa49cf33255fdc9ef7335861620ee97", "is_disabled": 0, "rental_uris": {"ios": "https://dc.lft.to/lastmile_qr_scan", "android": "https://dc.lft.to/lastmile_qr_scan"}, "is_reserved": 0}, {"lon": -77.02281566666667, "bike_id": "0a115832bffdb8c390b13835326eaa06", "lat": 38.9122145, "fusion_lon": 0.0, "fusion_lat": 0.0, "type": "electric_scooter", "name": "0a115832bffdb8c390b13835326eaa06", "is_disabled": 0, "rental_uris": {"ios": "https://dc.lft.to/lastmile_qr_scan", "android": "https://dc.lft.to/lastmile_qr_scan"}, "is_reserved": 0}, {"lon": -76.97298216666667, "bike_id": "45e6cc245dff223e6d111a65749fe201", "lat": 38.916488666666666, "fusion_lon": 0.0, "fusion_lat": 0.0, "type": "electric_scooter", "name": "45e6cc245dff223e6d111a65749fe201", "is_disabled": 0, "rental_uris": {"ios": "https://dc.lft.to/lastmile_qr_scan", "android": "https://dc.lft.to/lastmile_qr_scan"}, "is_reserved": 0}, {"lon": -77.00572683333333, "bike_id": "2e6d5d248cad491508c6d61a8b47db90", "lat": 38.90567766666667, "fusion_lon": 0.0, "fusion_lat": 0.0, "type": "electric_scooter", "name": "2e6d5d248cad491508c6d61a8b47db90", "is_disabled": 0, "rental_uris": {"ios": "https://dc.lft.to/lastmile_qr_scan", "android": "https://dc.lft.to/lastmile_qr_scan"}, "is_reserved": 0}, {"lon": -77.01952466666667, "bike_id": "bfe4387ea01fb9d9a7aaa57886c02408", "lat": 38.922572, "fusion_lon": 0.0, "fusion_lat": 0.0, "type": "electric_scooter", "name": "bfe4387ea01fb9d9a7aaa57886c02408", "is_disabled": 0, "rental_uris": {"ios": "https://dc.lft.to/lastmile_qr_scan", "android": "https://dc.lft.to/lastmile_qr_scan"}, "is_reserved": 0}, {"lon": -77.027972, "bike_id": "0432c971d38441d6e31ecab6c26aeab3", "lat": 38.929635833333336, "fusion_lon": 0.0, "fusion_lat": 0.0, "type": "electric_scooter", "name": "0432c971d38441d6e31ecab6c26aeab3", "is_disabled": 0, "rental_uris": {"ios": "https://dc.lft.to/lastmile_qr_scan", "android": "https://dc.lft.to/lastmile_qr_scan"}, "is_reserved": 0}, {"lon": -77.0635985, "bike_id": "b0f7006e2929c402b699fcbac7ab5bdb", "lat": 38.908525833333336, "fusion_lon": 0.0, "fusion_lat": 0.0, "type": "electric_bike", "name": "b0f7006e2929c402b699fcbac7ab5bdb", "is_disabled": 0, "rental_uris": {"ios": "https://dc.lft.to/lastmile_qr_scan", "android": "https://dc.lft.to/lastmile_qr_scan"}, "is_reserved": 0}, {"lon": -76.982636, "bike_id": "420e7614fe39326d32bcb4deecb7bf1e", "lat": 38.9086245, "fusion_lon": 0.0, "fusion_lat": 0.0, "type": "electric_scooter", "name": "420e7614fe39326d32bcb4deecb7bf1e", "is_disabled": 0, "rental_uris": {"ios": "https://dc.lft.to/lastmile_qr_scan", "android": "https://dc.lft.to/lastmile_qr_scan"}, "is_reserved": 0}, {"lon": -77.004573, "bike_id": "af9fd7704bdd78f6a7cd32d48250c1fd", "lat": 38.914427833333335, "fusion_lon": 0.0, "fusion_lat": 0.0, "type": "electric_scooter", "name": "af9fd7704bdd78f6a7cd32d48250c1fd", "is_disabled": 0, "rental_uris": {"ios": "https://dc.lft.to/lastmile_qr_scan", "android": "https://dc.lft.to/lastmile_qr_scan"}, "is_reserved": 0}, {"lon": -76.987138, "bike_id": "1b3ab207f4484db36487a80dcdf97b47", "lat": 38.86625, "fusion_lon": 0.0, "fusion_lat": 0.0, "type": "electric_scooter", "name": "1b3ab207f4484db36487a80dcdf97b47", "is_disabled": 0, "rental_uris": {"ios": "https://dc.lft.to/lastmile_qr_scan", "android": "https://dc.lft.to/lastmile_qr_scan"}, "is_reserved": 0}, {"lon": -77.026947, "bike_id": "2eb074ec2f847bf50c88a1ffe99e24db", "lat": 38.911734833333334, "fusion_lon": 0.0, "fusion_lat": 0.0, "type": "electric_scooter", "name": "2eb074ec2f847bf50c88a1ffe99e24db", "is_disabled": 0, "rental_uris": {"ios": "https://dc.lft.to/lastmile_qr_scan", "android": "https://dc.lft.to/lastmile_qr_scan"}, "is_reserved": 0}, {"lon": -77.01961, "bike_id": "8ef18dc8549ed852cbda807b40d286f6", "lat": 38.9221905, "fusion_lon": 0.0, "fusion_lat": 0.0, "type": "electric_scooter", "name": "8ef18dc8549ed852cbda807b40d286f6", "is_disabled": 0, "rental_uris": {"ios": "https://dc.lft.to/lastmile_qr_scan", "android": "https://dc.lft.to/lastmile_qr_scan"}, "is_reserved": 0}, {"lon": -77.03659783333333, "bike_id": "960884aaf3371e86c4190c78ce2f4bdd", "lat": 38.93919666666667, "fusion_lon": 0.0, "fusion_lat": 0.0, "type": "electric_bike", "name": "960884aaf3371e86c4190c78ce2f4bdd", "is_disabled": 0, "rental_uris": {"ios": "https://dc.lft.to/lastmile_qr_scan", "android": "https://dc.lft.to/lastmile_qr_scan"}, "is_reserved": 0}, {"lon": -76.951825, "bike_id": "3b685b370a500b3f18352e097abc459d", "lat": 38.90741766666667, "fusion_lon": 0.0, "fusion_lat": 0.0, "type": "electric_scooter", "name": "3b685b370a500b3f18352e097abc459d", "is_disabled": 0, "rental_uris": {"ios": "https://dc.lft.to/lastmile_qr_scan", "android": "https://dc.lft.to/lastmile_qr_scan"}, "is_reserved": 0}, {"lon": -76.98184783333333, "bike_id": "ef9e310246aa97d31ecfb91e808f625e", "lat": 38.899497833333335, "fusion_lon": 0.0, "fusion_lat": 0.0, "type": "electric_scooter", "name": "ef9e310246aa97d31ecfb91e808f625e", "is_disabled": 0, "rental_uris": {"ios": "https://dc.lft.to/lastmile_qr_scan", "android": "https://dc.lft.to/lastmile_qr_scan"}, "is_reserved": 0}, {"lon": -77.01892933333333, "bike_id": "ab399a39dda587423010e90d70563c7e", "lat": 38.8746725, "fusion_lon": 0.0, "fusion_lat": 0.0, "type": "electric_scooter", "name": "ab399a39dda587423010e90d70563c7e", "is_disabled": 0, "rental_uris": {"ios": "https://dc.lft.to/lastmile_qr_scan", "android": "https://dc.lft.to/lastmile_qr_scan"}, "is_reserved": 0}, {"lon": -77.03262183333334, "bike_id": "d13894e64e4520af4b913616625e19bb", "lat": 38.932703333333336, "fusion_lon": 0.0, "fusion_lat": 0.0, "type": "electric_scooter", "name": "d13894e64e4520af4b913616625e19bb", "is_disabled": 0, "rental_uris": {"ios": "https://dc.lft.to/lastmile_qr_scan", "android": "https://dc.lft.to/lastmile_qr_scan"}, "is_reserved": 0}, {"lon": -77.03431616666667, "bike_id": "a174775006cfc2af1f55e5360466a8ac", "lat": 38.90981016666667, "fusion_lon": 0.0, "fusion_lat": 0.0, "type": "electric_scooter", "name": "a174775006cfc2af1f55e5360466a8ac", "is_disabled": 0, "rental_uris": {"ios": "https://dc.lft.to/lastmile_qr_scan", "android": "https://dc.lft.to/lastmile_qr_scan"}, "is_reserved": 0}, {"lon": -77.0025695, "bike_id": "075e7cc582c5df465c6c8c03a3a290c3", "lat": 38.918209166666664, "fusion_lon": 0.0, "fusion_lat": 0.0, "type": "electric_scooter", "name": "075e7cc582c5df465c6c8c03a3a290c3", "is_disabled": 0, "rental_uris": {"ios": "https://dc.lft.to/lastmile_qr_scan", "android": "https://dc.lft.to/lastmile_qr_scan"}, "is_reserved": 0}, {"lon": -77.027171, "bike_id": "71e580103b206154a91ce87863268833", "lat": 38.906756, "fusion_lon": 0.0, "fusion_lat": 0.0, "type": "electric_scooter", "name": "71e580103b206154a91ce87863268833", "is_disabled": 0, "rental_uris": {"ios": "https://dc.lft.to/lastmile_qr_scan", "android": "https://dc.lft.to/lastmile_qr_scan"}, "is_reserved": 0}, {"lon": -77.04031033333334, "bike_id": "d391b038050fd16c7f562649073a2d8f", "lat": 38.900249, "fusion_lon": 0.0, "fusion_lat": 0.0, "type": "electric_scooter", "name": "d391b038050fd16c7f562649073a2d8f", "is_disabled": 0, "rental_uris": {"ios": "https://dc.lft.to/lastmile_qr_scan", "android": "https://dc.lft.to/lastmile_qr_scan"}, "is_reserved": 0}, {"lon": -77.03718733333334, "bike_id": "01e1097d4b0ce7196a07ab8aefe871a7", "lat": 38.91488233333333, "fusion_lon": 0.0, "fusion_lat": 0.0, "type": "electric_scooter", "name": "01e1097d4b0ce7196a07ab8aefe871a7", "is_disabled": 0, "rental_uris": {"ios": "https://dc.lft.to/lastmile_qr_scan", "android": "https://dc.lft.to/lastmile_qr_scan"}, "is_reserved": 0}, {"lon": -77.00102183333334, "bike_id": "345a520df79ca9e1c78479cd3887918e", "lat": 38.91711766666667, "fusion_lon": 0.0, "fusion_lat": 0.0, "type": "electric_scooter", "name": "345a520df79ca9e1c78479cd3887918e", "is_disabled": 0, "rental_uris": {"ios": "https://dc.lft.to/lastmile_qr_scan", "android": "https://dc.lft.to/lastmile_qr_scan"}, "is_reserved": 0}, {"lon": -77.05256383333334, "bike_id": "d40fa1237d9688ae38df6f34040ceff2", "lat": 38.923783, "fusion_lon": 0.0, "fusion_lat": 0.0, "type": "electric_scooter", "name": "d40fa1237d9688ae38df6f34040ceff2", "is_disabled": 0, "rental_uris": {"ios": "https://dc.lft.to/lastmile_qr_scan", "android": "https://dc.lft.to/lastmile_qr_scan"}, "is_reserved": 0}, {"lon": -76.9373175, "bike_id": "d0d8005940b443cdecb4d1855d0982e0", "lat": 38.89020933333333, "fusion_lon": 0.0, "fusion_lat": 0.0, "type": "electric_scooter", "name": "d0d8005940b443cdecb4d1855d0982e0", "is_disabled": 0, "rental_uris": {"ios": "https://dc.lft.to/lastmile_qr_scan", "android": "https://dc.lft.to/lastmile_qr_scan"}, "is_reserved": 0}, {"lon": -77.008739, "bike_id": "324df6aff6e8559cdd939b5ac5cef092", "lat": 38.90574316666667, "fusion_lon": 0.0, "fusion_lat": 0.0, "type": "electric_bike", "name": "324df6aff6e8559cdd939b5ac5cef092", "is_disabled": 0, "rental_uris": {"ios": "https://dc.lft.to/lastmile_qr_scan", "android": "https://dc.lft.to/lastmile_qr_scan"}, "is_reserved": 0}, {"lon": -77.0414465, "bike_id": "fb2307a68f4e85b64418fde0c67cf51a", "lat": 38.915535166666665, "fusion_lon": 0.0, "fusion_lat": 0.0, "type": "electric_scooter", "name": "fb2307a68f4e85b64418fde0c67cf51a", "is_disabled": 0, "rental_uris": {"ios": "https://dc.lft.to/lastmile_qr_scan", "android": "https://dc.lft.to/lastmile_qr_scan"}, "is_reserved": 0}, {"lon": -76.98710366666667, "bike_id": "0d9073ef91d6976cc2ce2138142e5bdd", "lat": 38.867014166666664, "fusion_lon": 0.0, "fusion_lat": 0.0, "type": "electric_scooter", "name": "0d9073ef91d6976cc2ce2138142e5bdd", "is_disabled": 0, "rental_uris": {"ios": "https://dc.lft.to/lastmile_qr_scan", "android": "https://dc.lft.to/lastmile_qr_scan"}, "is_reserved": 0}, {"lon": -77.03778933333334, "bike_id": "c92372d903bf74d953710a3923459993", "lat": 38.916953666666664, "fusion_lon": 0.0, "fusion_lat": 0.0, "type": "electric_scooter", "name": "c92372d903bf74d953710a3923459993", "is_disabled": 0, "rental_uris": {"ios": "https://dc.lft.to/lastmile_qr_scan", "android": "https://dc.lft.to/lastmile_qr_scan"}, "is_reserved": 0}, {"lon": -77.03844883333333, "bike_id": "c4b768af39ee4f144a0eee1fc021de76", "lat": 38.903662, "fusion_lon": 0.0, "fusion_lat": 0.0, "type": "electric_scooter", "name": "c4b768af39ee4f144a0eee1fc021de76", "is_disabled": 0, "rental_uris": {"ios": "https://dc.lft.to/lastmile_qr_scan", "android": "https://dc.lft.to/lastmile_qr_scan"}, "is_reserved": 0}, {"lon": -77.03866466666666, "bike_id": "af3ea78b7a87585453f1a2f7a8354567", "lat": 38.915596, "fusion_lon": 0.0, "fusion_lat": 0.0, "type": "electric_scooter", "name": "af3ea78b7a87585453f1a2f7a8354567", "is_disabled": 0, "rental_uris": {"ios": "https://dc.lft.to/lastmile_qr_scan", "android": "https://dc.lft.to/lastmile_qr_scan"}, "is_reserved": 0}, {"lon": -77.0429575, "bike_id": "2dc814ab72975ae05fdf8a1385a89b73", "lat": 38.922599, "fusion_lon": 0.0, "fusion_lat": 0.0, "type": "electric_scooter", "name": "2dc814ab72975ae05fdf8a1385a89b73", "is_disabled": 0, "rental_uris": {"ios": "https://dc.lft.to/lastmile_qr_scan", "android": "https://dc.lft.to/lastmile_qr_scan"}, "is_reserved": 0}, {"lon": -76.98884, "bike_id": "33848bcd676efe5e8d3a3fd2816cb244", "lat": 38.86652683333333, "fusion_lon": 0.0, "fusion_lat": 0.0, "type": "electric_scooter", "name": "33848bcd676efe5e8d3a3fd2816cb244", "is_disabled": 0, "rental_uris": {"ios": "https://dc.lft.to/lastmile_qr_scan", "android": "https://dc.lft.to/lastmile_qr_scan"}, "is_reserved": 0}, {"lon": -77.03195766666667, "bike_id": "c3b1093d5f1ad6d027a3cc0eeec0f188", "lat": 38.897693333333336, "fusion_lon": 0.0, "fusion_lat": 0.0, "type": "electric_scooter", "name": "c3b1093d5f1ad6d027a3cc0eeec0f188", "is_disabled": 0, "rental_uris": {"ios": "https://dc.lft.to/lastmile_qr_scan", "android": "https://dc.lft.to/lastmile_qr_scan"}, "is_reserved": 0}, {"lon": -77.02383016666667, "bike_id": "6e14e5e77552f49b30c52db8beb592b9", "lat": 38.919966, "fusion_lon": 0.0, "fusion_lat": 0.0, "type": "electric_scooter", "name": "6e14e5e77552f49b30c52db8beb592b9", "is_disabled": 0, "rental_uris": {"ios": "https://dc.lft.to/lastmile_qr_scan", "android": "https://dc.lft.to/lastmile_qr_scan"}, "is_reserved": 0}, {"lon": -76.98911483333333, "bike_id": "78cf935a068bcb1bc0571627f9499d9a", "lat": 38.86495633333333, "fusion_lon": 0.0, "fusion_lat": 0.0, "type": "electric_scooter", "name": "78cf935a068bcb1bc0571627f9499d9a", "is_disabled": 0, "rental_uris": {"ios": "https://dc.lft.to/lastmile_qr_scan", "android": "https://dc.lft.to/lastmile_qr_scan"}, "is_reserved": 0}, {"lon": -77.0303335, "bike_id": "fdf107ddfab9c336bc2b392dc1dc1b90", "lat": 38.9372145, "fusion_lon": 0.0, "fusion_lat": 0.0, "type": "electric_scooter", "name": "fdf107ddfab9c336bc2b392dc1dc1b90", "is_disabled": 0, "rental_uris": {"ios": "https://dc.lft.to/lastmile_qr_scan", "android": "https://dc.lft.to/lastmile_qr_scan"}, "is_reserved": 0}, {"lon": -77.03204083333334, "bike_id": "e3b2ddc0bea7254ef17e8cb79bf20daa", "lat": 38.9111725, "fusion_lon": 0.0, "fusion_lat": 0.0, "type": "electric_scooter", "name": "e3b2ddc0bea7254ef17e8cb79bf20daa", "is_disabled": 0, "rental_uris": {"ios": "https://dc.lft.to/lastmile_qr_scan", "android": "https://dc.lft.to/lastmile_qr_scan"}, "is_reserved": 0}, {"lon": -77.0433215, "bike_id": "5dc785b8df57e8a17da720c59db20a4d", "lat": 38.92226816666667, "fusion_lon": 0.0, "fusion_lat": 0.0, "type": "electric_scooter", "name": "5dc785b8df57e8a17da720c59db20a4d", "is_disabled": 0, "rental_uris": {"ios": "https://dc.lft.to/lastmile_qr_scan", "android": "https://dc.lft.to/lastmile_qr_scan"}, "is_reserved": 0}, {"lon": -77.04713983333333, "bike_id": "0639d868529ea84ca1feb2f2b2eaa1a5", "lat": 38.90303683333333, "fusion_lon": 0.0, "fusion_lat": 0.0, "type": "electric_scooter", "name": "0639d868529ea84ca1feb2f2b2eaa1a5", "is_disabled": 0, "rental_uris": {"ios": "https://dc.lft.to/lastmile_qr_scan", "android": "https://dc.lft.to/lastmile_qr_scan"}, "is_reserved": 0}, {"lon": -77.04471333333333, "bike_id": "87cb82bd51d6167ff4b8d37f86fff6ca", "lat": 38.92436566666667, "fusion_lon": 0.0, "fusion_lat": 0.0, "type": "electric_scooter", "name": "87cb82bd51d6167ff4b8d37f86fff6ca", "is_disabled": 0, "rental_uris": {"ios": "https://dc.lft.to/lastmile_qr_scan", "android": "https://dc.lft.to/lastmile_qr_scan"}, "is_reserved": 0}, {"lon": -77.02713033333333, "bike_id": "2dec1ea890a94babc0515230b9dfa1cf", "lat": 38.924698666666664, "fusion_lon": 0.0, "fusion_lat": 0.0, "type": "electric_scooter", "name": "2dec1ea890a94babc0515230b9dfa1cf", "is_disabled": 0, "rental_uris": {"ios": "https://dc.lft.to/lastmile_qr_scan", "android": "https://dc.lft.to/lastmile_qr_scan"}, "is_reserved": 0}, {"lon": -76.94592983333334, "bike_id": "c5cfbcafd43301817a0f793b76eca049", "lat": 38.901525666666664, "fusion_lon": 0.0, "fusion_lat": 0.0, "type": "electric_scooter", "name": "c5cfbcafd43301817a0f793b76eca049", "is_disabled": 0, "rental_uris": {"ios": "https://dc.lft.to/lastmile_qr_scan", "android": "https://dc.lft.to/lastmile_qr_scan"}, "is_reserved": 0}, {"lon": -76.931896, "bike_id": "517272518a956fa139c564d24c757ae5", "lat": 38.89878216666666, "fusion_lon": 0.0, "fusion_lat": 0.0, "type": "electric_scooter", "name": "517272518a956fa139c564d24c757ae5", "is_disabled": 0, "rental_uris": {"ios": "https://dc.lft.to/lastmile_qr_scan", "android": "https://dc.lft.to/lastmile_qr_scan"}, "is_reserved": 0}, {"lon": -77.08488366666667, "bike_id": "5bd6d7d36dc261fb458b2ee667bf8c5a", "lat": 38.8485575, "fusion_lon": 0.0, "fusion_lat": 0.0, "type": "electric_bike", "name": "5bd6d7d36dc261fb458b2ee667bf8c5a", "is_disabled": 0, "rental_uris": {"ios": "https://dc.lft.to/lastmile_qr_scan", "android": "https://dc.lft.to/lastmile_qr_scan"}, "is_reserved": 0}, {"lon": -77.0269395, "bike_id": "a865ce5f783b8b87dbfff0986163122c", "lat": 38.90432533333333, "fusion_lon": 0.0, "fusion_lat": 0.0, "type": "electric_scooter", "name": "a865ce5f783b8b87dbfff0986163122c", "is_disabled": 0, "rental_uris": {"ios": "https://dc.lft.to/lastmile_qr_scan", "android": "https://dc.lft.to/lastmile_qr_scan"}, "is_reserved": 0}, {"lon": -77.02159366666666, "bike_id": "5421393a496e2da7b9181537d5e3d2ea", "lat": 38.897453666666664, "fusion_lon": 0.0, "fusion_lat": 0.0, "type": "electric_scooter", "name": "5421393a496e2da7b9181537d5e3d2ea", "is_disabled": 0, "rental_uris": {"ios": "https://dc.lft.to/lastmile_qr_scan", "android": "https://dc.lft.to/lastmile_qr_scan"}, "is_reserved": 0}, {"lon": -77.04001583333333, "bike_id": "d2ed8995569414dfbe93ea0960947a4a", "lat": 38.934357166666665, "fusion_lon": 0.0, "fusion_lat": 0.0, "type": "electric_scooter", "name": "d2ed8995569414dfbe93ea0960947a4a", "is_disabled": 0, "rental_uris": {"ios": "https://dc.lft.to/lastmile_qr_scan", "android": "https://dc.lft.to/lastmile_qr_scan"}, "is_reserved": 0}, {"lon": -76.97400816666666, "bike_id": "32e45675d404fc3422493c228c53e8b7", "lat": 38.902992833333336, "fusion_lon": 0.0, "fusion_lat": 0.0, "type": "electric_scooter", "name": "32e45675d404fc3422493c228c53e8b7", "is_disabled": 0, "rental_uris": {"ios": "https://dc.lft.to/lastmile_qr_scan", "android": "https://dc.lft.to/lastmile_qr_scan"}, "is_reserved": 0}, {"lon": -77.03169933333334, "bike_id": "68adf27a8eab8d4045b66e70e2b0aec1", "lat": 38.887400166666666, "fusion_lon": 0.0, "fusion_lat": 0.0, "type": "electric_scooter", "name": "68adf27a8eab8d4045b66e70e2b0aec1", "is_disabled": 0, "rental_uris": {"ios": "https://dc.lft.to/lastmile_qr_scan", "android": "https://dc.lft.to/lastmile_qr_scan"}, "is_reserved": 0}, {"lon": -77.083366, "bike_id": "1ed70aec53bbf9f6e548b76587797ce4", "lat": 38.85442066666667, "fusion_lon": 0.0, "fusion_lat": 0.0, "type": "electric_bike", "name": "1ed70aec53bbf9f6e548b76587797ce4", "is_disabled": 0, "rental_uris": {"ios": "https://dc.lft.to/lastmile_qr_scan", "android": "https://dc.lft.to/lastmile_qr_scan"}, "is_reserved": 0}, {"lon": -77.00908316666667, "bike_id": "6b24e4865da881f0579f9aac2b3c83ae", "lat": 38.89996266666667, "fusion_lon": 0.0, "fusion_lat": 0.0, "type": "electric_scooter", "name": "6b24e4865da881f0579f9aac2b3c83ae", "is_disabled": 0, "rental_uris": {"ios": "https://dc.lft.to/lastmile_qr_scan", "android": "https://dc.lft.to/lastmile_qr_scan"}, "is_reserved": 0}, {"lon": -77.024922, "bike_id": "db0e886d76cf1b24ad1fbeb526b47384", "lat": 38.9041025, "fusion_lon": 0.0, "fusion_lat": 0.0, "type": "electric_scooter", "name": "db0e886d76cf1b24ad1fbeb526b47384", "is_disabled": 0, "rental_uris": {"ios": "https://dc.lft.to/lastmile_qr_scan", "android": "https://dc.lft.to/lastmile_qr_scan"}, "is_reserved": 0}, {"lon": -77.026085, "bike_id": "bd10b28f2401c7cd5d50f052ecc8d381", "lat": 38.925841, "fusion_lon": 0.0, "fusion_lat": 0.0, "type": "electric_scooter", "name": "bd10b28f2401c7cd5d50f052ecc8d381", "is_disabled": 0, "rental_uris": {"ios": "https://dc.lft.to/lastmile_qr_scan", "android": "https://dc.lft.to/lastmile_qr_scan"}, "is_reserved": 0}, {"lon": -76.9782775, "bike_id": "3ec665a62027e47d9ae90c4956e1d73c", "lat": 38.84372166666667, "fusion_lon": 0.0, "fusion_lat": 0.0, "type": "electric_bike", "name": "3ec665a62027e47d9ae90c4956e1d73c", "is_disabled": 0, "rental_uris": {"ios": "https://dc.lft.to/lastmile_qr_scan", "android": "https://dc.lft.to/lastmile_qr_scan"}, "is_reserved": 0}, {"lon": -77.03656783333334, "bike_id": "2ff83dea080fa07cf267bc6616aaa6dc", "lat": 38.92287816666666, "fusion_lon": 0.0, "fusion_lat": 0.0, "type": "electric_scooter", "name": "2ff83dea080fa07cf267bc6616aaa6dc", "is_disabled": 0, "rental_uris": {"ios": "https://dc.lft.to/lastmile_qr_scan", "android": "https://dc.lft.to/lastmile_qr_scan"}, "is_reserved": 0}, {"lon": -77.01722316666667, "bike_id": "3310085d449edc26a0241ccf08a84b27", "lat": 38.9056885, "fusion_lon": 0.0, "fusion_lat": 0.0, "type": "electric_scooter", "name": "3310085d449edc26a0241ccf08a84b27", "is_disabled": 0, "rental_uris": {"ios": "https://dc.lft.to/lastmile_qr_scan", "android": "https://dc.lft.to/lastmile_qr_scan"}, "is_reserved": 0}, {"lon": -77.0358505, "bike_id": "805351172d6983a92f7b085d733c302a", "lat": 38.9922935, "fusion_lon": 0.0, "fusion_lat": 0.0, "type": "electric_scooter", "name": "805351172d6983a92f7b085d733c302a", "is_disabled": 0, "rental_uris": {"ios": "https://dc.lft.to/lastmile_qr_scan", "android": "https://dc.lft.to/lastmile_qr_scan"}, "is_reserved": 0}, {"lon": -77.0352405, "bike_id": "526a0db553b0c5d107c02d1eb080f976", "lat": 38.927316833333336, "fusion_lon": 0.0, "fusion_lat": 0.0, "type": "electric_scooter", "name": "526a0db553b0c5d107c02d1eb080f976", "is_disabled": 0, "rental_uris": {"ios": "https://dc.lft.to/lastmile_qr_scan", "android": "https://dc.lft.to/lastmile_qr_scan"}, "is_reserved": 0}, {"lon": -77.02304883333333, "bike_id": "4a50b63539f4b029180a1aa686d35b41", "lat": 38.90888433333333, "fusion_lon": 0.0, "fusion_lat": 0.0, "type": "electric_scooter", "name": "4a50b63539f4b029180a1aa686d35b41", "is_disabled": 0, "rental_uris": {"ios": "https://dc.lft.to/lastmile_qr_scan", "android": "https://dc.lft.to/lastmile_qr_scan"}, "is_reserved": 0}, {"lon": -77.01782566666667, "bike_id": "c7003134fb1f2a62110494fabfe40502", "lat": 38.887437, "fusion_lon": 0.0, "fusion_lat": 0.0, "type": "electric_scooter", "name": "c7003134fb1f2a62110494fabfe40502", "is_disabled": 0, "rental_uris": {"ios": "https://dc.lft.to/lastmile_qr_scan", "android": "https://dc.lft.to/lastmile_qr_scan"}, "is_reserved": 0}, {"lon": -77.021704, "bike_id": "6bac99ac0148a7fe8c9043aaac0ef411", "lat": 38.89741866666667, "fusion_lon": 0.0, "fusion_lat": 0.0, "type": "electric_scooter", "name": "6bac99ac0148a7fe8c9043aaac0ef411", "is_disabled": 0, "rental_uris": {"ios": "https://dc.lft.to/lastmile_qr_scan", "android": "https://dc.lft.to/lastmile_qr_scan"}, "is_reserved": 0}, {"lon": -76.99485433333334, "bike_id": "0e3cabd8a707f308154e9edcedf626be", "lat": 38.8974375, "fusion_lon": 0.0, "fusion_lat": 0.0, "type": "electric_scooter", "name": "0e3cabd8a707f308154e9edcedf626be", "is_disabled": 0, "rental_uris": {"ios": "https://dc.lft.to/lastmile_qr_scan", "android": "https://dc.lft.to/lastmile_qr_scan"}, "is_reserved": 0},