{"data": {"bikes": [{"bike_id": "15bfb84f100f00503229e0e87393e0b4", "fusion_lon": 0.0, "lon": -77.0419145, "name": "15bfb84f100f00503229e0e87393e0b4", "is_disabled": 0, "rental_uris": {"android": "https://dc.lft.to/lastmile_qr_scan", "ios": "https://dc.lft.to/lastmile_qr_scan"}, "type": "electric_scooter", "lat": 38.92054516666666, "is_reserved": 0, "fusion_lat": 0.0}, {"bike_id": "08b13b3c22d80945e9773f2aba2a9177", "fusion_lon": 0.0, "lon": -77.04330516666667, "name": "08b13b3c22d80945e9773f2aba2a9177", "is_disabled": 0, "rental_uris": {"android": "https://dc.lft.to/lastmile_qr_scan", "ios": "https://dc.lft.to/lastmile_qr_scan"}, "type": "electric_scooter", "lat": 38.892229666666665, "is_reserved": 0, "fusion_lat": 0.0}, {"bike_id": "7b6b90ea711967434e659a529f1b2cbc", "fusion_lon": 0.0, "lon": -76.97789533333334, "name": "7b6b90ea711967434e659a529f1b2cbc", "is_disabled": 0, "rental_uris": {"android": "https://dc.lft.to/lastmile_qr_scan", "ios": "https://dc.lft.to/lastmile_qr_scan"}, "type": "electric_scooter", "lat": 38.92911516666667, "is_reserved": 0, "fusion_lat": 0.0}, {"bike_id": "4d33dcb06fe323ecf54399336b67e687", "fusion_lon": 0.0, "lon": -77.06610366666666, "name": "4d33dcb06fe323ecf54399336b67e687", "is_disabled": 0, "rental_uris": {"android": "https://dc.lft.to/lastmile_qr_scan", "ios": "https://dc.lft.to/lastmile_qr_scan"}, "type": "electric_scooter", "lat": 38.9052235, "is_reserved": 0, "fusion_lat": 0.0}, {"bike_id": "41ad6ad8f991c5d6d55e7e44b4f2ff3e", "fusion_lon": 0.0, "lon": -77.047105, "name": "41ad6ad8f991c5d6d55e7e44b4f2ff3e", "is_disabled": 0, "rental_uris": {"android": "https://dc.lft.to/lastmile_qr_scan", "ios": "https://dc.lft.to/lastmile_qr_scan"}, "type": "electric_scooter", "lat": 38.912676833333336, "is_reserved": 0, "fusion_lat": 0.0}, {"bike_id": "3d3694ac33474e89b28983f916b1bca0", "fusion_lon": 0.0, "lon": -77.02675883333333, "name": "3d3694ac33474e89b28983f916b1bca0", "is_disabled": 0, "rental_uris": {"android": "https://dc.lft.to/lastmile_qr_scan", "ios": "https://dc.lft.to/lastmile_qr_scan"}, "type": "electric_scooter", "lat": 38.881336166666664, "is_reserved": 0, "fusion_lat": 0.0}, {"bike_id": "77e16d7042be2c49ab3f0a0acbc86344", "fusion_lon": 0.0, "lon": -76.96526133333333, "name": "77e16d7042be2c49ab3f0a0acbc86344", "is_disabled": 0, "rental_uris": {"android": "https://dc.lft.to/lastmile_qr_scan", "ios": "https://dc.lft.to/lastmile_qr_scan"}, "type": "electric_scooter", "lat": 38.87627483333333, "is_reserved": 0, "fusion_lat": 0.0}, {"bike_id": "e8caa36fec0dcd7c6b7eb29b99070edf", "fusion_lon": 0.0, "lon": -76.90974833333334, "name": "e8caa36fec0dcd7c6b7eb29b99070edf", "is_disabled": 0, "rental_uris": {"android": "https://dc.lft.to/lastmile_qr_scan", "ios": "https://dc.lft.to/lastmile_qr_scan"}, "type": "electric_bike", "lat": 38.85435483333333, "is_reserved": 0, "fusion_lat": 0.0}, {"bike_id": "502e06d96f059f85b26792f72685903c", "fusion_lon": 0.0, "lon": -77.02819266666667, "name": "502e06d96f059f85b26792f72685903c", "is_disabled": 0, "rental_uris": {"android": "https://dc.lft.to/lastmile_qr_scan", "ios": "https://dc.lft.to/lastmile_qr_scan"}, "type": "electric_scooter", "lat": 38.91687683333333, "is_reserved": 0, "fusion_lat": 0.0}, {"bike_id": "b12df35d89f30128875cb40e3ce9dba0", "fusion_lon": 0.0, "lon": -77.05128316666666, "name": "b12df35d89f30128875cb40e3ce9dba0", "is_disabled": 0, "rental_uris": {"android": "https://dc.lft.to/lastmile_qr_scan", "ios": "https://dc.lft.to/lastmile_qr_scan"}, "type": "electric_scooter", "lat": 38.92364516666667, "is_reserved": 0, "fusion_lat": 0.0}, {"bike_id": "057e37b3abb7ca9f25f86cb0379736ef", "fusion_lon": 0.0, "lon": -77.0276015, "name": "057e37b3abb7ca9f25f86cb0379736ef", "is_disabled": 0, "rental_uris": {"android": "https://dc.lft.to/lastmile_qr_scan", "ios": "https://dc.lft.to/lastmile_qr_scan"}, "type": "electric_scooter", "lat": 38.95426666666667, "is_reserved": 0, "fusion_lat": 0.0}, {"bike_id": "788a55a576a304d99045f7070640153c", "fusion_lon": 0.0, "lon": -77.052312, "name": "788a55a576a304d99045f7070640153c", "is_disabled": 0, "rental_uris": {"android": "https://dc.lft.to/lastmile_qr_scan", "ios": "https://dc.lft.to/lastmile_qr_scan"}, "type": "electric_scooter", "lat": 38.924663, "is_reserved": 0, "fusion_lat": 0.0}, {"bike_id": "bd3e7c5d0c58126bcd150fa03647677b", "fusion_lon": 0.0, "lon": -76.96534116666666, "name": "bd3e7c5d0c58126bcd150fa03647677b", "is_disabled": 0, "rental_uris": {"android": "https://dc.lft.to/lastmile_qr_scan", "ios": "https://dc.lft.to/lastmile_qr_scan"}, "type": "electric_bike", "lat": 38.87480216666667, "is_reserved": 0, "fusion_lat": 0.0}, {"bike_id": "f329f83ca54f650277c86529ea465531", "fusion_lon": 0.0, "lon": -76.9789495, "name": "f329f83ca54f650277c86529ea465531", "is_disabled": 0, "rental_uris": {"android": "https://dc.lft.to/lastmile_qr_scan", "ios": "https://dc.lft.to/lastmile_qr_scan"}, "type": "electric_bike", "lat": 38.915865, "is_reserved": 0, "fusion_lat": 0.0}, {"bike_id": "4034f7a1cefe82700850410f8a000b02", "fusion_lon": 0.0, "lon": -77.03145033333334, "name": "4034f7a1cefe82700850410f8a000b02", "is_disabled": 0, "rental_uris": {"android": "https://dc.lft.to/lastmile_qr_scan", "ios": "https://dc.lft.to/lastmile_qr_scan"}, "type": "electric_scooter", "lat": 38.92788083333333, "is_reserved": 0, "fusion_lat": 0.0}, {"bike_id": "0a0d3c4169eb73124df1df21a308e5d5", "fusion_lon": 0.0, "lon": -77.22224166666666, "name": "0a0d3c4169eb73124df1df21a308e5d5", "is_disabled": 0, "rental_uris": {"android": "https://dc.lft.to/lastmile_qr_scan", "ios": "https://dc.lft.to/lastmile_qr_scan"}, "type": "electric_bike", "lat": 38.928592333333334, "is_reserved": 0, "fusion_lat": 0.0}, {"bike_id": "852311930d76e5eceac4f49b65f9f315", "fusion_lon": 0.0, "lon": -77.0231765, "name": "852311930d76e5eceac4f49b65f9f315", "is_disabled": 0, "rental_uris": {"android": "https://dc.lft.to/lastmile_qr_scan", "ios": "https://dc.lft.to/lastmile_qr_scan"}, "type": "electric_scooter", "lat": 38.896675, "is_reserved": 0, "fusion_lat": 0.0}, {"bike_id": "1815866777823beba326c21269b33a42", "fusion_lon": 0.0, "lon": -77.026938, "name": "1815866777823beba326c21269b33a42", "is_disabled": 0, "rental_uris": {"android": "https://dc.lft.to/lastmile_qr_scan", "ios": "https://dc.lft.to/lastmile_qr_scan"}, "type": "electric_scooter", "lat": 38.906776666666666, "is_reserved": 0, "fusion_lat": 0.0}, {"bike_id": "fad5768bcf7460704fb9475542b1fef1", "fusion_lon": 0.0, "lon": -76.939902, "name": "fad5768bcf7460704fb9475542b1fef1", "is_disabled": 0, "rental_uris": {"android": "https://dc.lft.to/lastmile_qr_scan", "ios": "https://dc.lft.to/lastmile_qr_scan"}, "type": "electric_scooter", "lat": 38.899812, "is_reserved": 0, "fusion_lat": 0.0}, {"bike_id": "6abfc3abf826edae0bfc82fa49c1f316", "fusion_lon": 0.0, "lon": -77.178403, "name": "6abfc3abf826edae0bfc82fa49c1f316", "is_disabled": 0, "rental_uris": {"android": "https://dc.lft.to/lastmile_qr_scan", "ios": "https://dc.lft.to/lastmile_qr_scan"}, "type": "electric_bike", "lat": 39.08857533333333, "is_reserved": 0, "fusion_lat": 0.0}, {"bike_id": "d06ac8d2f4b3460b1f6626651a83ab14", "fusion_lon": 0.0, "lon": -77.02421416666667, "name": "d06ac8d2f4b3460b1f6626651a83ab14", "is_disabled": 0, "rental_uris": {"android": "https://dc.lft.to/lastmile_qr_scan", "ios": "https://dc.lft.to/lastmile_qr_scan"}, "type": "electric_scooter", "lat": 38.914047, "is_reserved": 0, "fusion_lat": 0.0}, {"bike_id": "3ecd013447e0c321e3a3a0182e0aeff0", "fusion_lon": 0.0, "lon": -77.031895, "name": "3ecd013447e0c321e3a3a0182e0aeff0", "is_disabled": 0, "rental_uris": {"android": "https://dc.lft.to/lastmile_qr_scan", "ios": "https://dc.lft.to/lastmile_qr_scan"}, "type": "electric_scooter", "lat": 38.91821766666666, "is_reserved": 0, "fusion_lat": 0.0}, {"bike_id": "8d732a1a071051174c4007261b3420da", "fusion_lon": 0.0, "lon": -77.0035035, "name": "8d732a1a071051174c4007261b3420da", "is_disabled": 0, "rental_uris": {"android": "https://dc.lft.to/lastmile_qr_scan", "ios": "https://dc.lft.to/lastmile_qr_scan"}, "type": "electric_scooter", "lat": 38.90123, "is_reserved": 0, "fusion_lat": 0.0}, {"bike_id": "eaeb2af7f1ba6d0f7e470b1fa372443b", "fusion_lon": 0.0, "lon": -77.0174165, "name": "eaeb2af7f1ba6d0f7e470b1fa372443b", "is_disabled": 0, "rental_uris": {"android": "https://dc.lft.to/lastmile_qr_scan", "ios": "https://dc.lft.to/lastmile_qr_scan"}, "type": "electric_scooter", "lat": 38.911192166666666, "is_reserved": 0, "fusion_lat": 0.0}, {"bike_id": "3a08ce1d2109385abcafff426a75f4df", "fusion_lon": 0.0, "lon": -77.03292183333333, "name": "3a08ce1d2109385abcafff426a75f4df", "is_disabled": 0, "rental_uris": {"android": "https://dc.lft.to/lastmile_qr_scan", "ios": "https://dc.lft.to/lastmile_qr_scan"}, "type": "electric_scooter", "lat": 38.919899666666666, "is_reserved": 0, "fusion_lat": 0.0}, {"bike_id": "d916bb17813ebf2fbd89c5734e630947", "fusion_lon": 0.0, "lon": -77.04156133333333, "name": "d916bb17813ebf2fbd89c5734e630947", "is_disabled": 0, "rental_uris": {"android": "https://dc.lft.to/lastmile_qr_scan", "ios": "https://dc.lft.to/lastmile_qr_scan"}, "type": "electric_scooter", "lat": 38.934132166666664, "is_reserved": 0, "fusion_lat": 0.0}, {"bike_id": "675fd6d7388510025d2a755fc2e206b0", "fusion_lon": 0.0, "lon": -77.11244133333334, "name": "675fd6d7388510025d2a755fc2e206b0", "is_disabled": 0, "rental_uris": {"android": "https://dc.lft.to/lastmile_qr_scan", "ios": "https://dc.lft.to/lastmile_qr_scan"}, "type": "electric_bike", "lat": 38.85602566666667, "is_reserved": 0, "fusion_lat": 0.0}, {"bike_id": "21b8b4b298a34e595884a2fead980246", "fusion_lon": 0.0, "lon": -76.95415183333333, "name": "21b8b4b298a34e595884a2fead980246", "is_disabled": 0, "rental_uris": {"android": "https://dc.lft.to/lastmile_qr_scan", "ios": "https://dc.lft.to/lastmile_qr_scan"}, "type": "electric_bike", "lat": 38.88953466666667, "is_reserved": 0, "fusion_lat": 0.0}, {"bike_id": "bf10aa18104750fb38a7af1fd6ada7ab", "fusion_lon": 0.0, "lon": -77.1207725, "name": "bf10aa18104750fb38a7af1fd6ada7ab", "is_disabled": 0, "rental_uris": {"android": "https://dc.lft.to/lastmile_qr_scan", "ios": "https://dc.lft.to/lastmile_qr_scan"}, "type": "electric_bike", "lat": 38.854146666666665, "is_reserved": 0, "fusion_lat": 0.0}, {"bike_id": "ccec36b01f7d7d7c587198dd5c84072d", "fusion_lon": 0.0, "lon": -77.03342266666667, "name": "ccec36b01f7d7d7c587198dd5c84072d", "is_disabled": 0, "rental_uris": {"android": "https://dc.lft.to/lastmile_qr_scan", "ios": "https://dc.lft.to/lastmile_qr_scan"}, "type": "electric_scooter", "lat": 38.91183016666667, "is_reserved": 0, "fusion_lat": 0.0}, {"bike_id": "ac2aacd166e71052f249e3e18e4e246d", "fusion_lon": 0.0, "lon": -77.0328005, "name": "ac2aacd166e71052f249e3e18e4e246d", "is_disabled": 0, "rental_uris": {"android": "https://dc.lft.to/lastmile_qr_scan", "ios": "https://dc.lft.to/lastmile_qr_scan"}, "type": "electric_scooter", "lat": 38.9320535, "is_reserved": 0, "fusion_lat": 0.0}, {"bike_id": "7570cd1ba20ad56c125e4c53ba069e8e", "fusion_lon": 0.0, "lon": -77.0540395, "name": "7570cd1ba20ad56c125e4c53ba069e8e", "is_disabled": 0, "rental_uris": {"android": "https://dc.lft.to/lastmile_qr_scan", "ios": "https://dc.lft.to/lastmile_qr_scan"}, "type": "electric_scooter", "lat": 38.928106, "is_reserved": 0, "fusion_lat": 0.0}, {"bike_id": "c80dacada17956107999fc39f0ba59d2", "fusion_lon": 0.0, "lon": -77.03068183333333, "name": "c80dacada17956107999fc39f0ba59d2", "is_disabled": 0, "rental_uris": {"android": "https://dc.lft.to/lastmile_qr_scan", "ios": "https://dc.lft.to/lastmile_qr_scan"}, "type": "electric_scooter", "lat": 38.922475, "is_reserved": 0, "fusion_lat": 0.0}, {"bike_id": "206b47501b18e2c8ca29061343778b12", "fusion_lon": 0.0, "lon": -77.04096983333334, "name": "206b47501b18e2c8ca29061343778b12", "is_disabled": 0, "rental_uris": {"android": "https://dc.lft.to/lastmile_qr_scan", "ios": "https://dc.lft.to/lastmile_qr_scan"}, "type": "electric_scooter", "lat": 38.905826166666664, "is_reserved": 0, "fusion_lat": 0.0}, {"bike_id": "93747595c407fc25043b83e925a15fce", "fusion_lon": 0.0, "lon": -77.12524683333334, "name": "93747595c407fc25043b83e925a15fce", "is_disabled": 0, "rental_uris": {"android": "https://dc.lft.to/lastmile_qr_scan", "ios": "https://dc.lft.to/lastmile_qr_scan"}, "type": "electric_bike", "lat": 39.05629533333333, "is_reserved": 0, "fusion_lat": 0.0}, {"bike_id": "e0d58715eae8c56202d645349ddadd5b", "fusion_lon": 0.0, "lon": -77.0437735, "name": "e0d58715eae8c56202d645349ddadd5b", "is_disabled": 0, "rental_uris": {"android": "https://dc.lft.to/lastmile_qr_scan", "ios": "https://dc.lft.to/lastmile_qr_scan"}, "type": "electric_scooter", "lat": 38.9027905, "is_reserved": 0, "fusion_lat": 0.0}, {"bike_id": "10562305cf5df41c584820d846e63c3d", "fusion_lon": 0.0, "lon": -77.0279455, "name": "10562305cf5df41c584820d846e63c3d", "is_disabled": 0, "rental_uris": {"android": "https://dc.lft.to/lastmile_qr_scan", "ios": "https://dc.lft.to/lastmile_qr_scan"}, "type": "electric_scooter", "lat": 38.96339066666667, "is_reserved": 0, "fusion_lat": 0.0}, {"bike_id": "a090c2dbf56cf593507182adee1368fb", "fusion_lon": 0.0, "lon": -76.9950485, "name": "a090c2dbf56cf593507182adee1368fb", "is_disabled": 0, "rental_uris": {"android": "https://dc.lft.to/lastmile_qr_scan", "ios": "https://dc.lft.to/lastmile_qr_scan"}, "type": "electric_scooter", "lat": 38.899079666666665, "is_reserved": 0, "fusion_lat": 0.0}, {"bike_id": "abe2aeb703c40db0e4aa4b34ade336df", "fusion_lon": 0.0, "lon": -77.02314433333333, "name": "abe2aeb703c40db0e4aa4b34ade336df", "is_disabled": 0, "rental_uris": {"android": "https://dc.lft.to/lastmile_qr_scan", "ios": "https://dc.lft.to/lastmile_qr_scan"}, "type": "electric_scooter", "lat": 38.896033, "is_reserved": 0, "fusion_lat": 0.0}, {"bike_id": "f74d761ad8cceaf67c299b65a82b5cd3", "fusion_lon": 0.0, "lon": -76.94638083333334, "name": "f74d761ad8cceaf67c299b65a82b5cd3", "is_disabled": 0, "rental_uris": {"android": "https://dc.lft.to/lastmile_qr_scan", "ios": "https://dc.lft.to/lastmile_qr_scan"}, "type": "electric_scooter", "lat": 38.8984345, "is_reserved": 0, "fusion_lat": 0.0}, {"bike_id": "38799c7c7c33f0a3a6b379b4661f6299", "fusion_lon": 0.0, "lon": -77.02087816666666, "name": "38799c7c7c33f0a3a6b379b4661f6299", "is_disabled": 0, "rental_uris": {"android": "https://dc.lft.to/lastmile_qr_scan", "ios": "https://dc.lft.to/lastmile_qr_scan"}, "type": "electric_scooter", "lat": 38.92707566666667, "is_reserved": 0, "fusion_lat": 0.0}, {"bike_id": "a638e1c147a1139fc8852abf07314d5b", "fusion_lon": 0.0, "lon": -76.997279, "name": "a638e1c147a1139fc8852abf07314d5b", "is_disabled": 0, "rental_uris": {"android": "https://dc.lft.to/lastmile_qr_scan", "ios": "https://dc.lft.to/lastmile_qr_scan"}, "type": "electric_scooter", "lat": 38.9079285, "is_reserved": 0, "fusion_lat": 0.0}, {"bike_id": "a599c871d81c9cea91e859326f19c949", "fusion_lon": 0.0, "lon": -77.0456065, "name": "a599c871d81c9cea91e859326f19c949", "is_disabled": 0, "rental_uris": {"android": "https://dc.lft.to/lastmile_qr_scan", "ios": "https://dc.lft.to/lastmile_qr_scan"}, "type": "electric_scooter", "lat": 38.919312, "is_reserved": 0, "fusion_lat": 0.0}, {"bike_id": "bd3bf966466549adb485b6a6bbb693c1", "fusion_lon": 0.0, "lon": -76.94653333333333, "name": "bd3bf966466549adb485b6a6bbb693c1", "is_disabled": 0, "rental_uris": {"android": "https://dc.lft.to/lastmile_qr_scan", "ios": "https://dc.lft.to/lastmile_qr_scan"}, "type": "electric_scooter", "lat": 38.89824133333333, "is_reserved": 0, "fusion_lat": 0.0}, {"bike_id": "47ed41e5031da32abd710e467fb92c0a", "fusion_lon": 0.0, "lon": -76.98487333333334, "name": "47ed41e5031da32abd710e467fb92c0a", "is_disabled": 0, "rental_uris": {"android": "https://dc.lft.to/lastmile_qr_scan", "ios": "https://dc.lft.to/lastmile_qr_scan"}, "type": "electric_scooter", "lat": 38.86681216666667, "is_reserved": 0, "fusion_lat": 0.0}, {"bike_id": "82de03206f5ecf93f8ad6814cac7e5ef", "fusion_lon": 0.0, "lon": -77.02995366666667, "name": "82de03206f5ecf93f8ad6814cac7e5ef", "is_disabled": 0, "rental_uris": {"android": "https://dc.lft.to/lastmile_qr_scan", "ios": "https://dc.lft.to/lastmile_qr_scan"}, "type": "electric_scooter", "lat": 38.9386745, "is_reserved": 0, "fusion_lat": 0.0}, {"bike_id": "c081693faac9071a39c839bc1cf65397", "fusion_lon": 0.0, "lon": -77.01533533333334, "name": "c081693faac9071a39c839bc1cf65397", "is_disabled": 0, "rental_uris": {"android": "https://dc.lft.to/lastmile_qr_scan", "ios": "https://dc.lft.to/lastmile_qr_scan"}, "type": "electric_scooter", "lat": 38.88739983333333, "is_reserved": 0, "fusion_lat": 0.0}, {"bike_id": "f018b56c45f1a9fb5ff795c75250f318", "fusion_lon": 0.0, "lon": -77.031948, "name": "f018b56c45f1a9fb5ff795c75250f318", "is_disabled": 0, "rental_uris": {"android": "https://dc.lft.to/lastmile_qr_scan", "ios": "https://dc.lft.to/lastmile_qr_scan"}, "type": "electric_scooter", "lat": 38.91698733333333, "is_reserved": 0, "fusion_lat": 0.0}, {"bike_id": "12d01390aa4174298bf92b2c7b4df0f9", "fusion_lon": 0.0, "lon": -77.03871083333334, "name": "12d01390aa4174298bf92b2c7b4df0f9", "is_disabled": 0, "rental_uris": {"android": "https://dc.lft.to/lastmile_qr_scan", "ios": "https://dc.lft.to/lastmile_qr_scan"}, "type": "electric_scooter", "lat": 38.92155866666667, "is_reserved": 0, "fusion_lat": 0.0}, {"bike_id": "3906b7ba4878b8e82d9c49950a93d283", "fusion_lon": 0.0, "lon": -77.0130835, "name": "3906b7ba4878b8e82d9c49950a93d283", "is_disabled": 0, "rental_uris": {"android": "https://dc.lft.to/lastmile_qr_scan", "ios": "https://dc.lft.to/lastmile_qr_scan"}, "type": "electric_scooter", "lat": 38.914069166666664, "is_reserved": 0, "fusion_lat": 0.0}, {"bike_id": "481953231b22c6e51455d38de26af38a", "fusion_lon": 0.0, "lon": -77.05062566666666, "name": "481953231b22c6e51455d38de26af38a", "is_disabled": 0, "rental_uris": {"android": "https://dc.lft.to/lastmile_qr_scan", "ios": "https://dc.lft.to/lastmile_qr_scan"}, "type": "electric_scooter", "lat": 38.92341916666667, "is_reserved": 0, "fusion_lat": 0.0}, {"bike_id": "24cfe75f200de30a264cd83f8063975e", "fusion_lon": 0.0, "lon": -77.07822966666667, "name": "24cfe75f200de30a264cd83f8063975e", "is_disabled": 0, "rental_uris": {"android": "https://dc.lft.to/lastmile_qr_scan", "ios": "https://dc.lft.to/lastmile_qr_scan"}, "type": "electric_scooter", "lat": 38.9127415, "is_reserved": 0, "fusion_lat": 0.0}, {"bike_id": "e48a1bd4b00b18d6c4feacdcf1fe1475", "fusion_lon": 0.0, "lon": -77.003467, "name": "e48a1bd4b00b18d6c4feacdcf1fe1475", "is_disabled": 0, "rental_uris": {"android": "https://dc.lft.to/lastmile_qr_scan", "ios": "https://dc.lft.to/lastmile_qr_scan"}, "type": "electric_scooter", "lat": 38.8899585, "is_reserved": 0, "fusion_lat": 0.0}, {"bike_id": "f1a8f2f1562f3ce3293076fb8597fc7d", "fusion_lon": 0.0, "lon": -77.0335745, "name": "f1a8f2f1562f3ce3293076fb8597fc7d", "is_disabled": 0, "rental_uris": {"android": "https://dc.lft.to/lastmile_qr_scan", "ios": "https://dc.lft.to/lastmile_qr_scan"}, "type": "electric_scooter", "lat": 38.931489666666664, "is_reserved": 0, "fusion_lat": 0.0}, {"bike_id": "fb8e031d0a052c57d36823ffe7e3fe8f", "fusion_lon": 0.0, "lon": -77.0466455, "name": "fb8e031d0a052c57d36823ffe7e3fe8f", "is_disabled": 0, "rental_uris": {"android": "https://dc.lft.to/lastmile_qr_scan", "ios": "https://dc.lft.to/lastmile_qr_scan"}, "type": "electric_scooter", "lat": 38.90843916666667, "is_reserved": 0, "fusion_lat": 0.0}, {"bike_id": "36a4edb73315df2de84912a141ad2e01", "fusion_lon": 0.0, "lon": -77.0257655, "name": "36a4edb73315df2de84912a141ad2e01", "is_disabled": 0, "rental_uris": {"android": "https://dc.lft.to/lastmile_qr_scan", "ios": "https://dc.lft.to/lastmile_qr_scan"}, "type": "electric_scooter", "lat": 38.92054383333333, "is_reserved": 0, "fusion_lat": 0.0}, {"bike_id": "930984e56d42589bee91ea14eb9bd722", "fusion_lon": 0.0, "lon": -77.03210716666666, "name": "930984e56d42589bee91ea14eb9bd722", "is_disabled": 0, "rental_uris": {"android": "https://dc.lft.to/lastmile_qr_scan", "ios": "https://dc.lft.to/lastmile_qr_scan"}, "type": "electric_scooter", "lat": 38.91733883333333, "is_reserved": 0, "fusion_lat": 0.0}, {"bike_id": "94cf738d78d74a9bb134b08c5856089e", "fusion_lon": 0.0, "lon": -77.04499733333333, "name": "94cf738d78d74a9bb134b08c5856089e", "is_disabled": 0, "rental_uris": {"android": "https://dc.lft.to/lastmile_qr_scan", "ios": "https://dc.lft.to/lastmile_qr_scan"}, "type": "electric_scooter", "lat": 38.91419066666667, "is_reserved": 0, "fusion_lat": 0.0}, {"bike_id": "010d57cc3f5c4ed372a9b039fae16464", "fusion_lon": 0.0, "lon": -77.035908, "name": "010d57cc3f5c4ed372a9b039fae16464", "is_disabled": 0, "rental_uris": {"android": "https://dc.lft.to/lastmile_qr_scan", "ios": "https://dc.lft.to/lastmile_qr_scan"}, "type": "electric_scooter", "lat": 38.93675616666667, "is_reserved": 0, "fusion_lat": 0.0}, {"bike_id": "5424a1f44d40ce9080fbbb91a6ce624a", "fusion_lon": 0.0, "lon": -77.06857033333333, "name": "5424a1f44d40ce9080fbbb91a6ce624a", "is_disabled": 0, "rental_uris": {"android": "https://dc.lft.to/lastmile_qr_scan", "ios": "https://dc.lft.to/lastmile_qr_scan"}, "type": "electric_bike", "lat": 38.9370355, "is_reserved": 0, "fusion_lat": 0.0}, {"bike_id": "85294239f48e7ace74eaf4cfac337214", "fusion_lon": 0.0, "lon": -77.0320075, "name": "85294239f48e7ace74eaf4cfac337214", "is_disabled": 0, "rental_uris": {"android": "https://dc.lft.to/lastmile_qr_scan", "ios": "https://dc.lft.to/lastmile_qr_scan"}, "type": "electric_scooter", "lat": 38.9122735, "is_reserved": 0, "fusion_lat": 0.0}, {"bike_id": "dac8b0ef965ea2b6bf72cba937ec8b1d", "fusion_lon": 0.0, "lon": -77.045908, "name": "dac8b0ef965ea2b6bf72cba937ec8b1d", "is_disabled": 0, "rental_uris": {"android": "https://dc.lft.to/lastmile_qr_scan", "ios": "https://dc.lft.to/lastmile_qr_scan"}, "type": "electric_scooter", "lat": 38.90864, "is_reserved": 0, "fusion_lat": 0.0}, {"bike_id": "3e5d93f565caf5d9daa5e2f2a5a47385", "fusion_lon": 0.0, "lon": -76.975934, "name": "3e5d93f565caf5d9daa5e2f2a5a47385", "is_disabled": 0, "rental_uris": {"android": "https://dc.lft.to/lastmile_qr_scan", "ios": "https://dc.lft.to/lastmile_qr_scan"}, "type": "electric_scooter", "lat": 38.90331483333333, "is_reserved": 0, "fusion_lat": 0.0}, {"bike_id": "2e0f9e8a828abf666f638ac9a4bba956", "fusion_lon": 0.0, "lon": -77.0416695, "name": "2e0f9e8a828abf666f638ac9a4bba956", "is_disabled": 0, "rental_uris": {"android": "https://dc.lft.to/lastmile_qr_scan", "ios": "https://dc.lft.to/lastmile_qr_scan"}, "type": "electric_scooter", "lat": 38.91820233333333, "is_reserved": 0, "fusion_lat": 0.0}, {"bike_id": "abab63f1f0af9553543f37cc8dc20c93", "fusion_lon": 0.0, "lon": -77.03554866666667, "name": "abab63f1f0af9553543f37cc8dc20c93", "is_disabled": 0, "rental_uris": {"android": "https://dc.lft.to/lastmile_qr_scan", "ios": "https://dc.lft.to/lastmile_qr_scan"}, "type": "electric_scooter", "lat": 38.92411333333333, "is_reserved": 0, "fusion_lat": 0.0}, {"bike_id": "95e641dfe13fb87b505244aef54aa040", "fusion_lon": 0.0, "lon": -77.05153966666667, "name": "95e641dfe13fb87b505244aef54aa040", "is_disabled": 0, "rental_uris": {"android": "https://dc.lft.to/lastmile_qr_scan", "ios": "https://dc.lft.to/lastmile_qr_scan"}, "type": "electric_scooter", "lat": 38.9053955, "is_reserved": 0, "fusion_lat": 0.0}, {"bike_id": "d30069f2b884ed51f344f579fe68df0d", "fusion_lon": 0.0, "lon": -77.0227955, "name": "d30069f2b884ed51f344f579fe68df0d", "is_disabled": 0, "rental_uris": {"android": "https://dc.lft.to/lastmile_qr_scan", "ios": "https://dc.lft.to/lastmile_qr_scan"}, "type": "electric_bike", "lat": 38.94475683333334, "is_reserved": 0, "fusion_lat": 0.0}, {"bike_id": "394cdd51fd51074afd32a6dab40b0a26", "fusion_lon": 0.0, "lon": -76.985148, "name": "394cdd51fd51074afd32a6dab40b0a26", "is_disabled": 0, "rental_uris": {"android": "https://dc.lft.to/lastmile_qr_scan", "ios": "https://dc.lft.to/lastmile_qr_scan"}, "type": "electric_scooter", "lat": 38.866685333333336, "is_reserved": 0, "fusion_lat": 0.0}, {"bike_id": "c804aea749bb1e777055479635058442", "fusion_lon": 0.0, "lon": -76.93543133333333, "name": "c804aea749bb1e777055479635058442", "is_disabled": 0, "rental_uris": {"android": "https://dc.lft.to/lastmile_qr_scan", "ios": "https://dc.lft.to/lastmile_qr_scan"}, "type": "electric_bike", "lat": 38.9555855, "is_reserved": 0, "fusion_lat": 0.0}, {"bike_id": "8f5ef10a26a7d677e974e26075dbd69f", "fusion_lon": 0.0, "lon": -77.04478666666667, "name": "8f5ef10a26a7d677e974e26075dbd69f", "is_disabled": 0, "rental_uris": {"android": "https://dc.lft.to/lastmile_qr_scan", "ios": "https://dc.lft.to/lastmile_qr_scan"}, "type": "electric_scooter", "lat": 38.9223835, "is_reserved": 0, "fusion_lat": 0.0}, {"bike_id": "12d00d2cba784fd0aa5adef17d6aa678", "fusion_lon": 0.0, "lon": -77.03397466666667, "name": "12d00d2cba784fd0aa5adef17d6aa678", "is_disabled": 0, "rental_uris": {"android": "https://dc.lft.to/lastmile_qr_scan", "ios": "https://dc.lft.to/lastmile_qr_scan"}, "type": "electric_bike", "lat": 38.960308, "is_reserved": 0, "fusion_lat": 0.0}, {"bike_id": "8074229911317877385fffea1a39b6b7", "fusion_lon": 0.0, "lon": -77.01579616666666, "name": "8074229911317877385fffea1a39b6b7", "is_disabled": 0, "rental_uris": {"android": "https://dc.lft.to/lastmile_qr_scan", "ios": "https://dc.lft.to/lastmile_qr_scan"}, "type": "electric_scooter", "lat": 38.8918235, "is_reserved": 0, "fusion_lat": 0.0}, {"bike_id": "f52a1c78c232e2127b2c21c98b89584d", "fusion_lon": 0.0, "lon": -77.021737, "name": "f52a1c78c232e2127b2c21c98b89584d", "is_disabled": 0, "rental_uris": {"android": "https://dc.lft.to/lastmile_qr_scan", "ios": "https://dc.lft.to/lastmile_qr_scan"}, "type": "electric_scooter", "lat": 38.897436166666665, "is_reserved": 0, "fusion_lat": 0.0}, {"bike_id": "84ffd1126d712470f871aa87a2e574e7", "fusion_lon": 0.0, "lon": -77.04030366666667, "name": "84ffd1126d712470f871aa87a2e574e7", "is_disabled": 0, "rental_uris": {"android": "https://dc.lft.to/lastmile_qr_scan", "ios": "https://dc.lft.to/lastmile_qr_scan"}, "type": "electric_scooter", "lat": 38.930615, "is_reserved": 0, "fusion_lat": 0.0}, {"bike_id": "77c8eb478a9f8338622a71e8ee33e5af", "fusion_lon": 0.0, "lon": -77.0463665, "name": "77c8eb478a9f8338622a71e8ee33e5af", "is_disabled": 0, "rental_uris": {"android": "https://dc.lft.to/lastmile_qr_scan", "ios": "https://dc.lft.to/lastmile_qr_scan"}, "type": "electric_scooter", "lat": 38.895338, "is_reserved": 0, "fusion_lat": 0.0}, {"bike_id": "77d86af824a2d50fb46dae627b78816f", "fusion_lon": 0.0, "lon": -77.02212766666666, "name": "77d86af824a2d50fb46dae627b78816f", "is_disabled": 0, "rental_uris": {"android": "https://dc.lft.to/lastmile_qr_scan", "ios": "https://dc.lft.to/lastmile_qr_scan"}, "type": "electric_scooter", "lat": 38.914042333333335, "is_reserved": 0, "fusion_lat": 0.0}, {"bike_id": "b07e88f12f93ba148f1cb20b74eebff8", "fusion_lon": 0.0, "lon": -77.023, "name": "b07e88f12f93ba148f1cb20b74eebff8", "is_disabled": 0, "rental_uris": {"android": "https://dc.lft.to/lastmile_qr_scan", "ios": "https://dc.lft.to/lastmile_qr_scan"}, "type": "electric_scooter", "lat": 38.91609583333333, "is_reserved": 0, "fusion_lat": 0.0}, {"bike_id": "014df31c759d88d1d2356bb99c865236", "fusion_lon": 0.0, "lon": -76.98692033333333, "name": "014df31c759d88d1d2356bb99c865236", "is_disabled": 0, "rental_uris": {"android": "https://dc.lft.to/lastmile_qr_scan", "ios": "https://dc.lft.to/lastmile_qr_scan"}, "type": "electric_scooter", "lat": 38.867257, "is_reserved": 0, "fusion_lat": 0.0}, {"bike_id": "ded87fd1a1390e83e50b417bd292c18b", "fusion_lon": 0.0, "lon": -77.03983383333333, "name": "ded87fd1a1390e83e50b417bd292c18b", "is_disabled": 0, "rental_uris": {"android": "https://dc.lft.to/lastmile_qr_scan", "ios": "https://dc.lft.to/lastmile_qr_scan"}, "type": "electric_scooter", "lat": 38.913392333333334, "is_reserved": 0, "fusion_lat": 0.0}, {"bike_id": "b6e4aa357768f6ae37d38afca1062730", "fusion_lon": 0.0, "lon": -77.0247345, "name": "b6e4aa357768f6ae37d38afca1062730", "is_disabled": 0, "rental_uris": {"android": "https://dc.lft.to/lastmile_qr_scan", "ios": "https://dc.lft.to/lastmile_qr_scan"}, "type": "electric_scooter", "lat": 38.91899033333333, "is_reserved": 0, "fusion_lat": 0.0}, {"bike_id": "f14be95197a340831170cf713dee4812", "fusion_lon": 0.0, "lon": -77.01750583333333, "name": "f14be95197a340831170cf713dee4812", "is_disabled": 0, "rental_uris": {"android": "https://dc.lft.to/lastmile_qr_scan", "ios": "https://dc.lft.to/lastmile_qr_scan"}, "type": "electric_scooter", "lat": 38.91105133333333, "is_reserved": 0, "fusion_lat": 0.0}, {"bike_id": "34a51e4a45e30e778162e2692d527760", "fusion_lon": 0.0, "lon": -77.02948633333334, "name": "34a51e4a45e30e778162e2692d527760", "is_disabled": 0, "rental_uris": {"android": "https://dc.lft.to/lastmile_qr_scan", "ios": "https://dc.lft.to/lastmile_qr_scan"}, "type": "electric_scooter", "lat": 38.9324755, "is_reserved": 0, "fusion_lat": 0.0}, {"bike_id": "e86f12d947b4a534fde90df576a14be0", "fusion_lon": 0.0, "lon": -77.03518383333333, "name": "e86f12d947b4a534fde90df576a14be0", "is_disabled": 0, "rental_uris": {"android": "https://dc.lft.to/lastmile_qr_scan", "ios": "https://dc.lft.to/lastmile_qr_scan"}, "type": "electric_scooter", "lat": 38.935948, "is_reserved": 0, "fusion_lat": 0.0}, {"bike_id": "651374856dd0b3ca1f42504e7cca1b04", "fusion_lon": 0.0, "lon": -77.02689933333333, "name": "651374856dd0b3ca1f42504e7cca1b04", "is_disabled": 0, "rental_uris": {"android": "https://dc.lft.to/lastmile_qr_scan", "ios": "https://dc.lft.to/lastmile_qr_scan"}, "type": "electric_scooter", "lat": 38.8983175, "is_reserved": 0, "fusion_lat": 0.0}, {"bike_id": "7483f86874b093a3f52aa66ad1c1ac5e", "fusion_lon": 0.0, "lon": -77.092934, "name": "7483f86874b093a3f52aa66ad1c1ac5e", "is_disabled": 0, "rental_uris": {"android": "https://dc.lft.to/lastmile_qr_scan", "ios": "https://dc.lft.to/lastmile_qr_scan"}, "type": "electric_bike", "lat": 38.9770015, "is_reserved": 0, "fusion_lat": 0.0}, {"bike_id": "567f1c6006e6112f50135e969690cee6", "fusion_lon": 0.0, "lon": -76.98536916666667, "name": "567f1c6006e6112f50135e969690cee6", "is_disabled": 0, "rental_uris": {"android": "https://dc.lft.to/lastmile_qr_scan", "ios": "https://dc.lft.to/lastmile_qr_scan"}, "type": "electric_scooter", "lat": 38.866432833333334, "is_reserved": 0, "fusion_lat": 0.0}, {"bike_id": "e910a0f4d6a7fbd75df721d45e4728e2", "fusion_lon": 0.0, "lon": -77.02575833333333, "name": "e910a0f4d6a7fbd75df721d45e4728e2", "is_disabled": 0, "rental_uris": {"android": "https://dc.lft.to/lastmile_qr_scan", "ios": "https://dc.lft.to/lastmile_qr_scan"}, "type": "electric_scooter", "lat": 38.892287833333334, "is_reserved": 0, "fusion_lat": 0.0}, {"bike_id": "79052d35a36ed4e710806029d91947d0", "fusion_lon": 0.0, "lon": -77.027261, "name": "79052d35a36ed4e710806029d91947d0", "is_disabled": 0, "rental_uris": {"android": "https://dc.lft.to/lastmile_qr_scan", "ios": "https://dc.lft.to/lastmile_qr_scan"}, "type": "electric_scooter", "lat": 38.94960016666667, "is_reserved": 0, "fusion_lat": 0.0}, {"bike_id": "6c7b9fbb83c035a2ab41c918f86682dc", "fusion_lon": 0.0, "lon": -77.03380516666667, "name": "6c7b9fbb83c035a2ab41c918f86682dc", "is_disabled": 0, "rental_uris": {"android": "https://dc.lft.to/lastmile_qr_scan", "ios": "https://dc.lft.to/lastmile_qr_scan"}, "type": "electric_scooter", "lat": 38.901173, "is_reserved": 0, "fusion_lat": 0.0}, {"bike_id": "e9e27505a5f5435a728f096579ba8229", "fusion_lon": 0.0, "lon": -77.02141716666667, "name": "e9e27505a5f5435a728f096579ba8229", "is_disabled": 0, "rental_uris": {"android": "https://dc.lft.to/lastmile_qr_scan", "ios": "https://dc.lft.to/lastmile_qr_scan"}, "type": "electric_scooter", "lat": 38.89941116666667, "is_reserved": 0, "fusion_lat": 0.0}, {"bike_id": "881d68800ee69eb73a369f557d9d13bb", "fusion_lon": 0.0, "lon": -77.02212983333334, "name": "881d68800ee69eb73a369f557d9d13bb", "is_disabled": 0, "rental_uris": {"android": "https://dc.lft.to/lastmile_qr_scan", "ios": "https://dc.lft.to/lastmile_qr_scan"}, "type": "electric_scooter", "lat": 38.912669333333334, "is_reserved": 0, "fusion_lat": 0.0}, {"bike_id": "9543a16e996ffc674aa06fe0e39897e6", "fusion_lon": 0.0, "lon": -77.027173, "name": "9543a16e996ffc674aa06fe0e39897e6", "is_disabled": 0, "rental_uris": {"android": "https://dc.lft.to/lastmile_qr_scan", "ios": "https://dc.lft.to/lastmile_qr_scan"}, "type": "electric_scooter", "lat": 38.90738133333333, "is_reserved": 0, "fusion_lat": 0.0}, {"bike_id": "cb84fa30664562b14abbdfc72c5e2649", "fusion_lon": 0.0, "lon": -77.02587666666666, "name": "cb84fa30664562b14abbdfc72c5e2649", "is_disabled": 0, "rental_uris": {"android": "https://dc.lft.to/lastmile_qr_scan", "ios": "https://dc.lft.to/lastmile_qr_scan"}, "type": "electric_scooter", "lat": 38.9270025, "is_reserved": 0, "fusion_lat": 0.0}, {"bike_id": "66d701afe3ec00b21961351928af0954", "fusion_lon": 0.0, "lon": -77.03006033333334, "name": "66d701afe3ec00b21961351928af0954", "is_disabled": 0, "rental_uris": {"android": "https://dc.lft.to/lastmile_qr_scan", "ios": "https://dc.lft.to/lastmile_qr_scan"}, "type": "electric_scooter", "lat": 38.895902666666665, "is_reserved": 0, "fusion_lat": 0.0}, {"bike_id": "fb31e24309b28211c188749fc9a39f81", "fusion_lon": 0.0, "lon": -77.043282, "name": "fb31e24309b28211c188749fc9a39f81", "is_disabled": 0, "rental_uris": {"android": "https://dc.lft.to/lastmile_qr_scan", "ios": "https://dc.lft.to/lastmile_qr_scan"}, "type": "electric_scooter", "lat": 38.89222733333333, "is_reserved": 0, "fusion_lat": 0.0}, {"bike_id": "6566a2545491ca64595007121cac878a", "fusion_lon": 0.0, "lon": -77.04458933333333, "name": "6566a2545491ca64595007121cac878a", "is_disabled": 0, "rental_uris": {"android": "https://dc.lft.to/lastmile_qr_scan", "ios": "https://dc.lft.to/lastmile_qr_scan"}, "type": "electric_scooter", "lat": 38.91849083333334, "is_reserved": 0, "fusion_lat": 0.0}, {"bike_id": "f0c5eb30ed8b428925ae5a6c9a86c3e6", "fusion_lon": 0.0, "lon": -77.02712766666667, "name": "f0c5eb30ed8b428925ae5a6c9a86c3e6", "is_disabled": 0, "rental_uris": {"android": "https://dc.lft.to/lastmile_qr_scan", "ios": "https://dc.lft.to/lastmile_qr_scan"}, "type": "electric_scooter", "lat": 38.89991833333333, "is_reserved": 0, "fusion_lat": 0.0}, {"bike_id": "45cd03990f343cd66f5888a267aa1943", "fusion_lon": 0.0, "lon": -77.04310683333334, "name": "45cd03990f343cd66f5888a267aa1943", "is_disabled": 0, "rental_uris": {"android": "https://dc.lft.to/lastmile_qr_scan", "ios": "https://dc.lft.to/lastmile_qr_scan"}, "type": "electric_scooter", "lat": 38.918764, "is_reserved": 0, "fusion_lat": 0.0}, {"bike_id": "dea941f1072286673a189413ea48e7ba", "fusion_lon": 0.0, "lon": -77.00968066666667, "name": "dea941f1072286673a189413ea48e7ba", "is_disabled": 0, "rental_uris": {"android": "https://dc.lft.to/lastmile_qr_scan", "ios": "https://dc.lft.to/lastmile_qr_scan"}, "type": "electric_bike", "lat": 38.9613735, "is_reserved": 0, "fusion_lat": 0.0}, {"bike_id": "9e7467ae6be2392d872d045806a11b3b", "fusion_lon": 0.0, "lon": -77.05136166666666, "name": "9e7467ae6be2392d872d045806a11b3b", "is_disabled": 0, "rental_uris": {"android": "https://dc.lft.to/lastmile_qr_scan", "ios": "https://dc.lft.to/lastmile_qr_scan"}, "type": "electric_scooter", "lat": 38.90762333333333, "is_reserved": 0, "fusion_lat": 0.0}, {"bike_id": "c271e9a94b51e574b1a6d5b868aff1c7", "fusion_lon": 0.0, "lon": -77.00153533333334, "name": "c271e9a94b51e574b1a6d5b868aff1c7", "is_disabled": 0, "rental_uris": {"android": "https://dc.lft.to/lastmile_qr_scan", "ios": "https://dc.lft.to/lastmile_qr_scan"}, "type": "electric_scooter", "lat": 38.91111683333333, "is_reserved": 0, "fusion_lat": 0.0}, {"bike_id": "6f8a48a21eaa6a8c9802f8c5a83f6eee", "fusion_lon": 0.0, "lon": -77.02583666666666, "name": "6f8a48a21eaa6a8c9802f8c5a83f6eee", "is_disabled": 0, "rental_uris": {"android": "https://dc.lft.to/lastmile_qr_scan", "ios": "https://dc.lft.to/lastmile_qr_scan"}, "type": "electric_scooter", "lat": 38.925400333333336, "is_reserved": 0, "fusion_lat": 0.0}, {"bike_id": "af317f5ed784f0945fac2d8bcfbcfe88", "fusion_lon": 0.0, "lon": -77.03917966666667, "name": "af317f5ed784f0945fac2d8bcfbcfe88", "is_disabled": 0, "rental_uris": {"android": "https://dc.lft.to/lastmile_qr_scan", "ios": "https://dc.lft.to/lastmile_qr_scan"}, "type": "electric_scooter", "lat": 38.91815116666667, "is_reserved": 0, "fusion_lat": 0.0}, {"bike_id": "4df5e69f8a50bb61c6731eec2a0fc5b0", "fusion_lon": 0.0, "lon": -77.0449055, "name": "4df5e69f8a50bb61c6731eec2a0fc5b0", "is_disabled": 0, "rental_uris": {"android": "https://dc.lft.to/lastmile_qr_scan", "ios": "https://dc.lft.to/lastmile_qr_scan"}, "type": "electric_scooter", "lat": 38.91365316666667, "is_reserved": 0, "fusion_lat": 0.0}, {"bike_id": "5b4fecadf298220b203e3d147303e1eb", "fusion_lon": 0.0, "lon": -76.99093433333333, "name": "5b4fecadf298220b203e3d147303e1eb", "is_disabled": 0, "rental_uris": {"android": "https://dc.lft.to/lastmile_qr_scan", "ios": "https://dc.lft.to/lastmile_qr_scan"}, "type": "electric_scooter", "lat": 38.88234116666667, "is_reserved": 0, "fusion_lat": 0.0}, {"bike_id": "48641af4ac467145fd2bfe2d3f6c75f7", "fusion_lon": 0.0, "lon": -77.02442083333334, "name": "48641af4ac467145fd2bfe2d3f6c75f7", "is_disabled": 0, "rental_uris": {"android": "https://dc.lft.to/lastmile_qr_scan", "ios": "https://dc.lft.to/lastmile_qr_scan"}, "type": "electric_scooter", "lat": 38.902086, "is_reserved": 0, "fusion_lat": 0.0}, {"bike_id": "3f19fe0abb46b82890becca234a5d724", "fusion_lon": 0.0, "lon": -77.022273, "name": "3f19fe0abb46b82890becca234a5d724", "is_disabled": 0, "rental_uris": {"android": "https://dc.lft.to/lastmile_qr_scan", "ios": "https://dc.lft.to/lastmile_qr_scan"}, "type": "electric_scooter", "lat": 38.892186, "is_reserved": 0, "fusion_lat": 0.0}, {"bike_id": "fe3461c7a29907bb2a037a0a23e6d935", "fusion_lon": 0.0, "lon": -77.02811416666667, "name": "fe3461c7a29907bb2a037a0a23e6d935", "is_disabled": 0, "rental_uris": {"android": "https://dc.lft.to/lastmile_qr_scan", "ios": "https://dc.lft.to/lastmile_qr_scan"}, "type": "electric_scooter", "lat": 38.9308475, "is_reserved": 0, "fusion_lat": 0.0}, {"bike_id": "f51adc7bffcb4eb703527a7b3fd26154", "fusion_lon": 0.0, "lon": -77.03172866666667, "name": "f51adc7bffcb4eb703527a7b3fd26154", "is_disabled": 0, "rental_uris": {"android": "https://dc.lft.to/lastmile_qr_scan", "ios": "https://dc.lft.to/lastmile_qr_scan"}, "type": "electric_scooter", "lat": 38.8922365, "is_reserved": 0, "fusion_lat": 0.0}, {"bike_id": "3e2a0e940b21191926d1befe7d1ebe9f", "fusion_lon": 0.0, "lon": -77.036341, "name": "3e2a0e940b21191926d1befe7d1ebe9f", "is_disabled": 0, "rental_uris": {"android": "https://dc.lft.to/lastmile_qr_scan", "ios": "https://dc.lft.to/lastmile_qr_scan"}, "type": "electric_scooter", "lat": 38.92379116666667, "is_reserved": 0, "fusion_lat": 0.0}, {"bike_id": "a669790d790f66dba188473d1c0e7f79", "fusion_lon": 0.0, "lon": -77.0433875, "name": "a669790d790f66dba188473d1c0e7f79", "is_disabled": 0, "rental_uris": {"android": "https://dc.lft.to/lastmile_qr_scan", "ios": "https://dc.lft.to/lastmile_qr_scan"}, "type": "electric_scooter", "lat": 38.909376333333334, "is_reserved": 0, "fusion_lat": 0.0}, {"bike_id": "9a61a8e7965724958ffdc3ab2636c573", "fusion_lon": 0.0, "lon": -76.9978415, "name": "9a61a8e7965724958ffdc3ab2636c573", "is_disabled": 0, "rental_uris": {"android": "https://dc.lft.to/lastmile_qr_scan", "ios": "https://dc.lft.to/lastmile_qr_scan"}, "type": "electric_scooter", "lat": 38.909091, "is_reserved": 0, "fusion_lat": 0.0}, {"bike_id": "3402feba0ca7fe2a1d4596eba055dcc0", "fusion_lon": 0.0, "lon": -77.02708433333333, "name": "3402feba0ca7fe2a1d4596eba055dcc0", "is_disabled": 0, "rental_uris": {"android": "https://dc.lft.to/lastmile_qr_scan", "ios": "https://dc.lft.to/lastmile_qr_scan"}, "type": "electric_scooter", "lat": 38.881372166666665, "is_reserved": 0, "fusion_lat": 0.0}, {"bike_id": "4e702f8aec0b0a9f322e0b0ee6c2b4b5", "fusion_lon": 0.0, "lon": -77.05081766666666, "name": "4e702f8aec0b0a9f322e0b0ee6c2b4b5", "is_disabled": 0, "rental_uris": {"android": "https://dc.lft.to/lastmile_qr_scan", "ios": "https://dc.lft.to/lastmile_qr_scan"}, "type": "electric_bike", "lat": 38.813280666666664, "is_reserved": 0, "fusion_lat": 0.0}, {"bike_id": "fc9cdc978311ace59dd9382a6da05cb8", "fusion_lon": 0.0, "lon": -77.04193316666667, "name": "fc9cdc978311ace59dd9382a6da05cb8", "is_disabled": 0, "rental_uris": {"android": "https://dc.lft.to/lastmile_qr_scan", "ios": "https://dc.lft.to/lastmile_qr_scan"}, "type": "electric_scooter", "lat": 38.92053083333333, "is_reserved": 0, "fusion_lat": 0.0}, {"bike_id": "40d31bcad942ed53b658b2bfeace3c6a", "fusion_lon": 0.0, "lon": -77.11025133333334, "name": "40d31bcad942ed53b658b2bfeace3c6a", "is_disabled": 0, "rental_uris": {"android": "https://dc.lft.to/lastmile_qr_scan", "ios": "https://dc.lft.to/lastmile_qr_scan"}, "type": "electric_bike", "lat": 38.847427, "is_reserved": 0, "fusion_lat": 0.0}, {"bike_id": "015646fd57adfd674a8ffcc08341398a", "fusion_lon": 0.0, "lon": -77.0041505, "name": "015646fd57adfd674a8ffcc08341398a", "is_disabled": 0, "rental_uris": {"android": "https://dc.lft.to/lastmile_qr_scan", "ios": "https://dc.lft.to/lastmile_qr_scan"}, "type": "electric_scooter", "lat": 38.877069666666664, "is_reserved": 0, "fusion_lat": 0.0}, {"bike_id": "fb324421c46d3b4e86762bf8de26f453", "fusion_lon": 0.0, "lon": -76.98460183333333, "name": "fb324421c46d3b4e86762bf8de26f453", "is_disabled": 0, "rental_uris": {"android": "https://dc.lft.to/lastmile_qr_scan", "ios": "https://dc.lft.to/lastmile_qr_scan"}, "type": "electric_scooter", "lat": 38.880164666666666, "is_reserved": 0, "fusion_lat": 0.0}, {"bike_id": "513efb85110546f294181a4e4dfc39d8", "fusion_lon": 0.0, "lon": -77.01779033333334, "name": "513efb85110546f294181a4e4dfc39d8", "is_disabled": 0, "rental_uris": {"android": "https://dc.lft.to/lastmile_qr_scan", "ios": "https://dc.lft.to/lastmile_qr_scan"}, "type": "electric_scooter", "lat": 38.887154, "is_reserved": 0, "fusion_lat": 0.0}, {"bike_id": "7d9801bb06a1821b5dc9502d73c64a48", "fusion_lon": 0.0, "lon": -77.02158633333333, "name": "7d9801bb06a1821b5dc9502d73c64a48", "is_disabled": 0, "rental_uris": {"android": "https://dc.lft.to/lastmile_qr_scan", "ios": "https://dc.lft.to/lastmile_qr_scan"}, "type": "electric_scooter", "lat": 38.90962433333333, "is_reserved": 0, "fusion_lat": 0.0}, {"bike_id": "1a1086ba191ef4aacb88748c8bc2ed2c", "fusion_lon": 0.0, "lon": -77.02346983333334, "name": "1a1086ba191ef4aacb88748c8bc2ed2c", "is_disabled": 0, "rental_uris": {"android": "https://dc.lft.to/lastmile_qr_scan", "ios": "https://dc.lft.to/lastmile_qr_scan"}, "type": "electric_scooter", "lat": 38.9072555, "is_reserved": 0, "fusion_lat": 0.0}, {"bike_id": "d18d2d9b0efedb356c34a53d63c7b067", "fusion_lon": 0.0, "lon": -77.11599733333334, "name": "d18d2d9b0efedb356c34a53d63c7b067", "is_disabled": 0, "rental_uris": {"android": "https://dc.lft.to/lastmile_qr_scan", "ios": "https://dc.lft.to/lastmile_qr_scan"}, "type": "electric_bike", "lat": 39.07494066666667, "is_reserved": 0, "fusion_lat": 0.0}, {"bike_id": "a563e1cf7441b6747e596a43ca7f3521", "fusion_lon": 0.0, "lon": -77.18742183333333, "name": "a563e1cf7441b6747e596a43ca7f3521", "is_disabled": 0, "rental_uris": {"android": "https://dc.lft.to/lastmile_qr_scan", "ios": "https://dc.lft.to/lastmile_qr_scan"}, "type": "electric_bike", "lat": 38.8935, "is_reserved": 0, "fusion_lat": 0.0}, {"bike_id": "de8fa24a5e0c7551832a1d0b2423b14e", "fusion_lon": 0.0, "lon": -77.00296433333334, "name": "de8fa24a5e0c7551832a1d0b2423b14e", "is_disabled": 0, "rental_uris": {"android": "https://dc.lft.to/lastmile_qr_scan", "ios": "https://dc.lft.to/lastmile_qr_scan"}, "type": "electric_scooter", "lat": 38.9012545, "is_reserved": 0, "fusion_lat": 0.0}, {"bike_id": "97821a4b52b3b90467541b21c151e6d5", "fusion_lon": 0.0, "lon": -77.04578783333334, "name": "97821a4b52b3b90467541b21c151e6d5", "is_disabled": 0, "rental_uris": {"android": "https://dc.lft.to/lastmile_qr_scan", "ios": "https://dc.lft.to/lastmile_qr_scan"}, "type": "electric_scooter", "lat": 38.92419016666667, "is_reserved": 0, "fusion_lat": 0.0}, {"bike_id": "cd4f7622f7427c4997fa74c56f82e2fe", "fusion_lon": 0.0, "lon": -77.00798266666666, "name": "cd4f7622f7427c4997fa74c56f82e2fe", "is_disabled": 0, "rental_uris": {"android": "https://dc.lft.to/lastmile_qr_scan", "ios": "https://dc.lft.to/lastmile_qr_scan"}, "type": "electric_scooter", "lat": 38.897136333333336, "is_reserved": 0, "fusion_lat": 0.0}, {"bike_id": "c58bf0bf7f374d3e4c1c9dfa52d7f067", "fusion_lon": 0.0, "lon": -77.04353983333333, "name": "c58bf0bf7f374d3e4c1c9dfa52d7f067", "is_disabled": 0, "rental_uris": {"android": "https://dc.lft.to/lastmile_qr_scan", "ios": "https://dc.lft.to/lastmile_qr_scan"}, "type": "electric_scooter", "lat": 38.912576333333334, "is_reserved": 0, "fusion_lat": 0.0}, {"bike_id": "4f8d395a0cd2a7e67ad932dec62227bc", "fusion_lon": 0.0, "lon": -77.02378916666666, "name": "4f8d395a0cd2a7e67ad932dec62227bc", "is_disabled": 0, "rental_uris": {"android": "https://dc.lft.to/lastmile_qr_scan", "ios": "https://dc.lft.to/lastmile_qr_scan"}, "type": "electric_scooter", "lat": 38.9169045, "is_reserved": 0, "fusion_lat": 0.0}, {"bike_id": "3227661e26e333887367f84020bd7538", "fusion_lon": 0.0, "lon": -77.02700933333334, "name": "3227661e26e333887367f84020bd7538", "is_disabled": 0, "rental_uris": {"android": "https://dc.lft.to/lastmile_qr_scan", "ios": "https://dc.lft.to/lastmile_qr_scan"}, "type": "electric_scooter", "lat": 38.924003, "is_reserved": 0, "fusion_lat": 0.0}, {"bike_id": "3d07bdd6b32ad15e6ebeff6749361fac", "fusion_lon": 0.0, "lon": -77.011555, "name": "3d07bdd6b32ad15e6ebeff6749361fac", "is_disabled": 0, "rental_uris": {"android": "https://dc.lft.to/lastmile_qr_scan", "ios": "https://dc.lft.to/lastmile_qr_scan"}, "type": "electric_scooter", "lat": 38.90319266666667, "is_reserved": 0, "fusion_lat": 0.0}, {"bike_id": "21cccac913b104cb5d7ef0971a7cf090", "fusion_lon": 0.0, "lon": -76.949434, "name": "21cccac913b104cb5d7ef0971a7cf090", "is_disabled": 0, "rental_uris": {"android": "https://dc.lft.to/lastmile_qr_scan", "ios": "https://dc.lft.to/lastmile_qr_scan"}, "type": "electric_scooter", "lat": 38.89350366666667, "is_reserved": 0, "fusion_lat": 0.0}, {"bike_id": "af34a52d656f2b8cf599f32f520d2d4e", "fusion_lon": 0.0, "lon": -77.031752, "name": "af34a52d656f2b8cf599f32f520d2d4e", "is_disabled": 0, "rental_uris": {"android": "https://dc.lft.to/lastmile_qr_scan", "ios": "https://dc.lft.to/lastmile_qr_scan"}, "type": "electric_scooter", "lat": 38.912606, "is_reserved": 0, "fusion_lat": 0.0}, {"bike_id": "dc0b9b079e088bae79a5c8aac80a2df8", "fusion_lon": 0.0, "lon": -76.99515533333333, "name": "dc0b9b079e088bae79a5c8aac80a2df8", "is_disabled": 0, "rental_uris": {"android": "https://dc.lft.to/lastmile_qr_scan", "ios": "https://dc.lft.to/lastmile_qr_scan"}, "type": "electric_scooter", "lat": 38.8625405, "is_reserved": 0, "fusion_lat": 0.0}, {"bike_id": "605ccddff5c55723dc91f552b8012689", "fusion_lon": 0.0, "lon": -76.9865505, "name": "605ccddff5c55723dc91f552b8012689", "is_disabled": 0, "rental_uris": {"android": "https://dc.lft.to/lastmile_qr_scan", "ios": "https://dc.lft.to/lastmile_qr_scan"}, "type": "electric_scooter", "lat": 38.86732166666667, "is_reserved": 0, "fusion_lat": 0.0}, {"bike_id": "73cadc8c6598e2e645421b79fa4a3aa9", "fusion_lon": 0.0, "lon": -77.033215, "name": "73cadc8c6598e2e645421b79fa4a3aa9", "is_disabled": 0, "rental_uris": {"android": "https://dc.lft.to/lastmile_qr_scan", "ios": "https://dc.lft.to/lastmile_qr_scan"}, "type": "electric_scooter", "lat": 38.91564066666667, "is_reserved": 0, "fusion_lat": 0.0}, {"bike_id": "332b0d5fcfff90f524d99557cf5934a5", "fusion_lon": 0.0, "lon": -76.95740816666667, "name": "332b0d5fcfff90f524d99557cf5934a5", "is_disabled": 0, "rental_uris": {"android": "https://dc.lft.to/lastmile_qr_scan", "ios": "https://dc.lft.to/lastmile_qr_scan"}, "type": "electric_scooter", "lat": 38.89631466666667, "is_reserved": 0, "fusion_lat": 0.0}, {"bike_id": "b53e3d4693e3b792b36c11c20eeeb361", "fusion_lon": 0.0, "lon": -76.9900805, "name": "b53e3d4693e3b792b36c11c20eeeb361", "is_disabled": 0, "rental_uris": {"android": "https://dc.lft.to/lastmile_qr_scan", "ios": "https://dc.lft.to/lastmile_qr_scan"}, "type": "electric_scooter", "lat": 38.85884733333333, "is_reserved": 0, "fusion_lat": 0.0}, {"bike_id": "2caf838cfc716ea5d2487e211eba8413", "fusion_lon": 0.0, "lon": -77.058555, "name": "2caf838cfc716ea5d2487e211eba8413", "is_disabled": 0, "rental_uris": {"android": "https://dc.lft.to/lastmile_qr_scan", "ios": "https://dc.lft.to/lastmile_qr_scan"}, "type": "electric_scooter", "lat": 38.9361075, "is_reserved": 0, "fusion_lat": 0.0}, {"bike_id": "cd38518bd5281331c72bf1e10929b877", "fusion_lon": 0.0, "lon": -77.0322295, "name": "cd38518bd5281331c72bf1e10929b877", "is_disabled": 0, "rental_uris": {"android": "https://dc.lft.to/lastmile_qr_scan", "ios": "https://dc.lft.to/lastmile_qr_scan"}, "type": "electric_scooter", "lat": 38.91996616666667, "is_reserved": 0, "fusion_lat": 0.0}, {"bike_id": "1057ce9f1a04240313128f96952f11b8", "fusion_lon": 0.0, "lon": -77.02715183333333, "name": "1057ce9f1a04240313128f96952f11b8", "is_disabled": 0, "rental_uris": {"android": "https://dc.lft.to/lastmile_qr_scan", "ios": "https://dc.lft.to/lastmile_qr_scan"}, "type": "electric_scooter", "lat": 38.915648833333336, "is_reserved": 0, "fusion_lat": 0.0}, {"bike_id": "2f6ca768cbbada3b0f852bd421103ae7", "fusion_lon": 0.0, "lon": -77.04136766666667, "name": "2f6ca768cbbada3b0f852bd421103ae7", "is_disabled": 0, "rental_uris": {"android": "https://dc.lft.to/lastmile_qr_scan", "ios": "https://dc.lft.to/lastmile_qr_scan"}, "type": "electric_scooter", "lat": 38.922808, "is_reserved": 0, "fusion_lat": 0.0}, {"bike_id": "0d71f50096164a18a8663bd576fed1e7", "fusion_lon": 0.0, "lon": -77.05528016666666, "name": "0d71f50096164a18a8663bd576fed1e7", "is_disabled": 0, "rental_uris": {"android": "https://dc.lft.to/lastmile_qr_scan", "ios": "https://dc.lft.to/lastmile_qr_scan"}, "type": "electric_scooter", "lat": 38.9301325, "is_reserved": 0, "fusion_lat": 0.0}, {"bike_id": "dcf490a0137a9f1c86ff29d873e1fec3", "fusion_lon": 0.0, "lon": -77.02962966666666, "name": "dcf490a0137a9f1c86ff29d873e1fec3", "is_disabled": 0, "rental_uris": {"android": "https://dc.lft.to/lastmile_qr_scan", "ios": "https://dc.lft.to/lastmile_qr_scan"}, "type": "electric_scooter", "lat": 38.92366116666667, "is_reserved": 0, "fusion_lat": 0.0}, {"bike_id": "49823b57a1de026334a861c17011fe5d", "fusion_lon": 0.0, "lon": -77.02723566666667, "name": "49823b57a1de026334a861c17011fe5d", "is_disabled": 0, "rental_uris": {"android": "https://dc.lft.to/lastmile_qr_scan", "ios": "https://dc.lft.to/lastmile_qr_scan"}, "type": "electric_scooter", "lat": 38.9495745, "is_reserved": 0, "fusion_lat": 0.0}, {"bike_id": "9d169e49ce4d99f7963fc0b51c7e6a63", "fusion_lon": 0.0, "lon": -76.99348116666667, "name": "9d169e49ce4d99f7963fc0b51c7e6a63", "is_disabled": 0, "rental_uris": {"android": "https://dc.lft.to/lastmile_qr_scan", "ios": "https://dc.lft.to/lastmile_qr_scan"}, "type": "electric_scooter", "lat": 38.91482216666667, "is_reserved": 0, "fusion_lat": 0.0}, {"bike_id": "fe922e8eaafeeb291a1b483bff328ee6", "fusion_lon": 0.0, "lon": -77.0274315, "name": "fe922e8eaafeeb291a1b483bff328ee6", "is_disabled": 0, "rental_uris": {"android": "https://dc.lft.to/lastmile_qr_scan", "ios": "https://dc.lft.to/lastmile_qr_scan"}, "type": "electric_scooter", "lat": 38.933613666666666, "is_reserved": 0, "fusion_lat": 0.0}, {"bike_id": "3f6f9a42730ef274145507ebe13d16ae", "fusion_lon": 0.0, "lon": -77.04600333333333, "name": "3f6f9a42730ef274145507ebe13d16ae", "is_disabled": 0, "rental_uris": {"android": "https://dc.lft.to/lastmile_qr_scan", "ios": "https://dc.lft.to/lastmile_qr_scan"}, "type": "electric_scooter", "lat": 38.91911833333333, "is_reserved": 0, "fusion_lat": 0.0}, {"bike_id": "95e8ee2f09e16381bd513aa1fa638a9d", "fusion_lon": 0.0, "lon": -77.0390185, "name": "95e8ee2f09e16381bd513aa1fa638a9d", "is_disabled": 0, "rental_uris": {"android": "https://dc.lft.to/lastmile_qr_scan", "ios": "https://dc.lft.to/lastmile_qr_scan"}, "type": "electric_scooter", "lat": 38.92239983333333, "is_reserved": 0, "fusion_lat": 0.0}, {"bike_id": "9d3e31a25d549d1bbdfad166a629d143", "fusion_lon": 0.0, "lon": -76.98106683333333, "name": "9d3e31a25d549d1bbdfad166a629d143", "is_disabled": 0, "rental_uris": {"android": "https://dc.lft.to/lastmile_qr_scan", "ios": "https://dc.lft.to/lastmile_qr_scan"}, "type": "electric_bike", "lat": 38.877308666666664, "is_reserved": 0, "fusion_lat": 0.0}, {"bike_id": "6b420e9d7d0dd2a187b423e0226850ab", "fusion_lon": 0.0, "lon": -77.03467983333333, "name": "6b420e9d7d0dd2a187b423e0226850ab", "is_disabled": 0, "rental_uris": {"android": "https://dc.lft.to/lastmile_qr_scan", "ios": "https://dc.lft.to/lastmile_qr_scan"}, "type": "electric_scooter", "lat": 38.9294665, "is_reserved": 0, "fusion_lat": 0.0}, {"bike_id": "a4e6d4d9830785e403bd00c387e847f9", "fusion_lon": 0.0, "lon": -77.03592533333334, "name": "a4e6d4d9830785e403bd00c387e847f9", "is_disabled": 0, "rental_uris": {"android": "https://dc.lft.to/lastmile_qr_scan", "ios": "https://dc.lft.to/lastmile_qr_scan"}, "type": "electric_scooter", "lat": 38.936764, "is_reserved": 0, "fusion_lat": 0.0}, {"bike_id": "2d294273e868fee50afbabba0d6194ee", "fusion_lon": 0.0, "lon": -77.02416483333333, "name": "2d294273e868fee50afbabba0d6194ee", "is_disabled": 0, "rental_uris": {"android": "https://dc.lft.to/lastmile_qr_scan", "ios": "https://dc.lft.to/lastmile_qr_scan"}, "type": "electric_scooter", "lat": 38.93710983333333, "is_reserved": 0, "fusion_lat": 0.0}, {"bike_id": "ccd553255004f39aaad5414a5cb7203d", "fusion_lon": 0.0, "lon": -77.0234695, "name": "ccd553255004f39aaad5414a5cb7203d", "is_disabled": 0, "rental_uris": {"android": "https://dc.lft.to/lastmile_qr_scan", "ios": "https://dc.lft.to/lastmile_qr_scan"}, "type": "electric_scooter", "lat": 38.93118316666666, "is_reserved": 0, "fusion_lat": 0.0}, {"bike_id": "7882370b7b9aad8465dc7be2f7b6886e", "fusion_lon": 0.0, "lon": -77.04659516666666, "name": "7882370b7b9aad8465dc7be2f7b6886e", "is_disabled": 0, "rental_uris": {"android": "https://dc.lft.to/lastmile_qr_scan", "ios": "https://dc.lft.to/lastmile_qr_scan"}, "type": "electric_scooter", "lat": 38.89242766666667, "is_reserved": 0, "fusion_lat": 0.0}, {"bike_id": "ce76b61596ad69215128dcb5bdf33274", "fusion_lon": 0.0, "lon": -77.03450783333334, "name": "ce76b61596ad69215128dcb5bdf33274", "is_disabled": 0, "rental_uris": {"android": "https://dc.lft.to/lastmile_qr_scan", "ios": "https://dc.lft.to/lastmile_qr_scan"}, "type": "electric_scooter", "lat": 38.93427783333333, "is_reserved": 0, "fusion_lat": 0.0}, {"bike_id": "d592462be2edd1443962d2707cb679a2", "fusion_lon": 0.0, "lon": -77.02790566666667, "name": "d592462be2edd1443962d2707cb679a2", "is_disabled": 0, "rental_uris": {"android": "https://dc.lft.to/lastmile_qr_scan", "ios": "https://dc.lft.to/lastmile_qr_scan"}, "type": "electric_scooter", "lat": 38.954113666666665, "is_reserved": 0, "fusion_lat": 0.0}, {"bike_id": "514497623ed26637618e3636ad0b5b08", "fusion_lon": 0.0, "lon": -77.0274925, "name": "514497623ed26637618e3636ad0b5b08", "is_disabled": 0, "rental_uris": {"android": "https://dc.lft.to/lastmile_qr_scan", "ios": "https://dc.lft.to/lastmile_qr_scan"}, "type": "electric_scooter", "lat": 38.957858, "is_reserved": 0, "fusion_lat": 0.0}, {"bike_id": "02435217f7097b837131fd0856dc8fc1", "fusion_lon": 0.0, "lon": -77.0512425, "name": "02435217f7097b837131fd0856dc8fc1", "is_disabled": 0, "rental_uris": {"android": "https://dc.lft.to/lastmile_qr_scan", "ios": "https://dc.lft.to/lastmile_qr_scan"}, "type": "electric_scooter", "lat": 38.923454166666666, "is_reserved": 0, "fusion_lat": 0.0}, {"bike_id": "0e26ab80c687405dd5af95ab9e8d968d", "fusion_lon": 0.0, "lon": -77.04536833333333, "name": "0e26ab80c687405dd5af95ab9e8d968d", "is_disabled": 0, "rental_uris": {"android": "https://dc.lft.to/lastmile_qr_scan", "ios": "https://dc.lft.to/lastmile_qr_scan"}, "type": "electric_scooter", "lat": 38.932972166666666, "is_reserved": 0, "fusion_lat": 0.0}, {"bike_id": "fa57f62bef7b6cf8dcaa93f80d6dc22f", "fusion_lon": 0.0, "lon": -77.02684683333334, "name": "fa57f62bef7b6cf8dcaa93f80d6dc22f", "is_disabled": 0, "rental_uris": {"android": "https://dc.lft.to/lastmile_qr_scan", "ios": "https://dc.lft.to/lastmile_qr_scan"}, "type": "electric_scooter", "lat": 38.90856566666667, "is_reserved": 0, "fusion_lat": 0.0}, {"bike_id": "e375c0740dba8f606640894d4a5c7bcb", "fusion_lon": 0.0, "lon": -77.02219383333333, "name": "e375c0740dba8f606640894d4a5c7bcb", "is_disabled": 0, "rental_uris": {"android": "https://dc.lft.to/lastmile_qr_scan", "ios": "https://dc.lft.to/lastmile_qr_scan"}, "type": "electric_scooter", "lat": 38.915553333333335, "is_reserved": 0, "fusion_lat": 0.0}, {"bike_id": "d895384131b893dc60a2b65d93571558", "fusion_lon": 0.0, "lon": -77.16233716666666, "name": "d895384131b893dc60a2b65d93571558", "is_disabled": 0, "rental_uris": {"android": "https://dc.lft.to/lastmile_qr_scan", "ios": "https://dc.lft.to/lastmile_qr_scan"}, "type": "electric_bike", "lat": 38.886595666666665, "is_reserved": 0, "fusion_lat": 0.0}, {"bike_id": "6a65f99390b52a0c377406b322a67128", "fusion_lon": 0.0, "lon": -77.02527216666667, "name": "6a65f99390b52a0c377406b322a67128", "is_disabled": 0, "rental_uris": {"android": "https://dc.lft.to/lastmile_qr_scan", "ios": "https://dc.lft.to/lastmile_qr_scan"}, "type": "electric_scooter", "lat": 38.92081533333333, "is_reserved": 0, "fusion_lat": 0.0}, {"bike_id": "a578c4999e622ff9f99277e2fa679435", "fusion_lon": 0.0, "lon": -77.04182466666667, "name": "a578c4999e622ff9f99277e2fa679435", "is_disabled": 0, "rental_uris": {"android": "https://dc.lft.to/lastmile_qr_scan", "ios": "https://dc.lft.to/lastmile_qr_scan"}, "type": "electric_scooter", "lat": 38.89300733333334, "is_reserved": 0, "fusion_lat": 0.0}, {"bike_id": "d9fc1625090da3509c6fff717e88e598", "fusion_lon": 0.0, "lon": -77.052669, "name": "d9fc1625090da3509c6fff717e88e598", "is_disabled": 0, "rental_uris": {"android": "https://dc.lft.to/lastmile_qr_scan", "ios": "https://dc.lft.to/lastmile_qr_scan"}, "type": "electric_scooter", "lat": 38.9254485, "is_reserved": 0, "fusion_lat": 0.0}, {"bike_id": "d10ca2133dc43243769806cc0c5dd135", "fusion_lon": 0.0, "lon": -77.01133566666667, "name": "d10ca2133dc43243769806cc0c5dd135", "is_disabled": 0, "rental_uris": {"android": "https://dc.lft.to/lastmile_qr_scan", "ios": "https://dc.lft.to/lastmile_qr_scan"}, "type": "electric_scooter", "lat": 38.9072855, "is_reserved": 0, "fusion_lat": 0.0}, {"bike_id": "7fdbb5a9112a02e31cceae92faf15ec8", "fusion_lon": 0.0, "lon": -76.9888785, "name": "7fdbb5a9112a02e31cceae92faf15ec8", "is_disabled": 0, "rental_uris": {"android": "https://dc.lft.to/lastmile_qr_scan", "ios": "https://dc.lft.to/lastmile_qr_scan"}, "type": "electric_scooter", "lat": 38.866552166666665, "is_reserved": 0, "fusion_lat": 0.0}, {"bike_id": "c143a7d47407edebbde850ace55c0cfe", "fusion_lon": 0.0, "lon": -77.0238555, "name": "c143a7d47407edebbde850ace55c0cfe", "is_disabled": 0, "rental_uris": {"android": "https://dc.lft.to/lastmile_qr_scan", "ios": "https://dc.lft.to/lastmile_qr_scan"}, "type": "electric_scooter", "lat": 38.91982466666666, "is_reserved": 0, "fusion_lat": 0.0}, {"bike_id": "1dda767facef5f532ca29853190ecdf5", "fusion_lon": 0.0, "lon": -77.0220605, "name": "1dda767facef5f532ca29853190ecdf5", "is_disabled": 0, "rental_uris": {"android": "https://dc.lft.to/lastmile_qr_scan", "ios": "https://dc.lft.to/lastmile_qr_scan"}, "type": "electric_scooter", "lat": 38.8789365, "is_reserved": 0, "fusion_lat": 0.0}, {"bike_id": "15ca1a260d539d84df9a67f12e6c820d", "fusion_lon": 0.0, "lon": -77.02196733333334, "name": "15ca1a260d539d84df9a67f12e6c820d", "is_disabled": 0, "rental_uris": {"android": "https://dc.lft.to/lastmile_qr_scan", "ios": "https://dc.lft.to/lastmile_qr_scan"}, "type": "electric_scooter", "lat": 38.91487883333333, "is_reserved": 0, "fusion_lat": 0.0}, {"bike_id": "60206dc1c844e550e0dc862c1cdadb0b", "fusion_lon": 0.0, "lon": -77.039325, "name": "60206dc1c844e550e0dc862c1cdadb0b", "is_disabled": 0, "rental_uris": {"android": "https://dc.lft.to/lastmile_qr_scan", "ios": "https://dc.lft.to/lastmile_qr_scan"}, "type": "electric_scooter", "lat": 38.915609333333336, "is_reserved": 0, "fusion_lat": 0.0}, {"bike_id": "d44123f9f030955e7f313289f5deae63", "fusion_lon": 0.0, "lon": -77.02597783333333, "name": "d44123f9f030955e7f313289f5deae63", "is_disabled": 0, "rental_uris": {"android": "https://dc.lft.to/lastmile_qr_scan", "ios": "https://dc.lft.to/lastmile_qr_scan"}, "type": "electric_scooter", "lat": 38.90506666666667, "is_reserved": 0, "fusion_lat": 0.0}, {"bike_id": "c25be7cb3a78717868d2816101d4afed", "fusion_lon": 0.0, "lon": -77.02695466666667, "name": "c25be7cb3a78717868d2816101d4afed", "is_disabled": 0, "rental_uris": {"android": "https://dc.lft.to/lastmile_qr_scan", "ios": "https://dc.lft.to/lastmile_qr_scan"}, "type": "electric_scooter", "lat": 38.9112415, "is_reserved": 0, "fusion_lat": 0.0}, {"bike_id": "e1f5f26cf754d2e6483e9c807d55788a", "fusion_lon": 0.0, "lon": -77.03299883333334, "name": "e1f5f26cf754d2e6483e9c807d55788a", "is_disabled": 0, "rental_uris": {"android": "https://dc.lft.to/lastmile_qr_scan", "ios": "https://dc.lft.to/lastmile_qr_scan"}, "type": "electric_scooter", "lat": 38.956440666666666, "is_reserved": 0, "fusion_lat": 0.0}, {"bike_id": "2e1da3b09062075e64e3d7c74baa66ac", "fusion_lon": 0.0, "lon": -77.023835, "name": "2e1da3b09062075e64e3d7c74baa66ac", "is_disabled": 0, "rental_uris": {"android": "https://dc.lft.to/lastmile_qr_scan", "ios": "https://dc.lft.to/lastmile_qr_scan"}, "type": "electric_scooter", "lat": 38.91742433333334, "is_reserved": 0, "fusion_lat": 0.0}, {"bike_id": "16d1b67e6f3313368b5835997a5245e5", "fusion_lon": 0.0, "lon": -76.98942566666666, "name": "16d1b67e6f3313368b5835997a5245e5", "is_disabled": 0, "rental_uris": {"android": "https://dc.lft.to/lastmile_qr_scan", "ios": "https://dc.lft.to/lastmile_qr_scan"}, "type": "electric_scooter", "lat": 38.903943166666664, "is_reserved": 0, "fusion_lat": 0.0}, {"bike_id": "2a0944f3da793ab749f1c73e5d42d466", "fusion_lon": 0.0, "lon": -77.048845, "name": "2a0944f3da793ab749f1c73e5d42d466", "is_disabled": 0, "rental_uris": {"android": "https://dc.lft.to/lastmile_qr_scan", "ios": "https://dc.lft.to/lastmile_qr_scan"}, "type": "electric_scooter", "lat": 38.913429666666666, "is_reserved": 0, "fusion_lat": 0.0}, {"bike_id": "a3c0b3cc7334b53ff5389c2983a4e44e", "fusion_lon": 0.0, "lon": -77.02723166666667, "name": "a3c0b3cc7334b53ff5389c2983a4e44e", "is_disabled": 0, "rental_uris": {"android": "https://dc.lft.to/lastmile_qr_scan", "ios": "https://dc.lft.to/lastmile_qr_scan"}, "type": "electric_scooter", "lat": 38.9181505, "is_reserved": 0, "fusion_lat": 0.0}, {"bike_id": "c323c40f62dbadcb5451c62d674a976a", "fusion_lon": 0.0, "lon": -77.058138, "name": "c323c40f62dbadcb5451c62d674a976a", "is_disabled": 0, "rental_uris": {"android": "https://dc.lft.to/lastmile_qr_scan", "ios": "https://dc.lft.to/lastmile_qr_scan"}, "type": "electric_scooter", "lat": 38.904717, "is_reserved": 0, "fusion_lat": 0.0}, {"bike_id": "f1cc24a8610c73013d0b9b951fa1bd95", "fusion_lon": 0.0, "lon": -76.995388, "name": "f1cc24a8610c73013d0b9b951fa1bd95", "is_disabled": 0, "rental_uris": {"android": "https://dc.lft.to/lastmile_qr_scan", "ios": "https://dc.lft.to/lastmile_qr_scan"}, "type": "electric_scooter", "lat": 38.9206435, "is_reserved": 0, "fusion_lat": 0.0}, {"bike_id": "50e173cc08f9c136a69b347c9d4b3fe5", "fusion_lon": 0.0, "lon": -77.03054083333333, "name": "50e173cc08f9c136a69b347c9d4b3fe5", "is_disabled": 0, "rental_uris": {"android": "https://dc.lft.to/lastmile_qr_scan", "ios": "https://dc.lft.to/lastmile_qr_scan"}, "type": "electric_scooter", "lat": 38.88426166666667, "is_reserved": 0, "fusion_lat": 0.0}, {"bike_id": "67edc91499cd39a548df66268a62faa3", "fusion_lon": 0.0, "lon": -77.09482216666666, "name": "67edc91499cd39a548df66268a62faa3", "is_disabled": 0, "rental_uris": {"android": "https://dc.lft.to/lastmile_qr_scan", "ios": "https://dc.lft.to/lastmile_qr_scan"}, "type": "electric_bike", "lat": 39.03046466666667, "is_reserved": 0, "fusion_lat": 0.0}, {"bike_id": "8a9530d1f7356b7e3be1569ffbebd738", "fusion_lon": 0.0, "lon": -76.9733185, "name": "8a9530d1f7356b7e3be1569ffbebd738", "is_disabled": 0, "rental_uris": {"android": "https://dc.lft.to/lastmile_qr_scan", "ios": "https://dc.lft.to/lastmile_qr_scan"}, "type": "electric_scooter", "lat": 38.9040685, "is_reserved": 0, "fusion_lat": 0.0}, {"bike_id": "78e33d746a9cf0d33932c8e03dcae6a2", "fusion_lon": 0.0, "lon": -77.063421, "name": "78e33d746a9cf0d33932c8e03dcae6a2", "is_disabled": 0, "rental_uris": {"android": "https://dc.lft.to/lastmile_qr_scan", "ios": "https://dc.lft.to/lastmile_qr_scan"}, "type": "electric_scooter", "lat": 38.90682733333333, "is_reserved": 0, "fusion_lat": 0.0}, {"bike_id": "2f9812e5d581b2de0b48d4ae592ba03b", "fusion_lon": 0.0, "lon": -77.00684, "name": "2f9812e5d581b2de0b48d4ae592ba03b", "is_disabled": 0, "rental_uris": {"android": "https://dc.lft.to/lastmile_qr_scan", "ios": "https://dc.lft.to/lastmile_qr_scan"}, "type": "electric_scooter", "lat": 38.87713216666667, "is_reserved": 0, "fusion_lat": 0.0}, {"bike_id": "c1b4bd318f61a47ac315df66bef82734", "fusion_lon": 0.0, "lon": -77.03365216666667, "name": "c1b4bd318f61a47ac315df66bef82734", "is_disabled": 0, "rental_uris": {"android": "https://dc.lft.to/lastmile_qr_scan", "ios": "https://dc.lft.to/lastmile_qr_scan"}, "type": "electric_scooter", "lat": 38.91358316666667, "is_reserved": 0, "fusion_lat": 0.0}, {"bike_id": "a2688a3a0abdc3f7dadabaedc28453a0", "fusion_lon": 0.0, "lon": -76.98868033333333, "name": "a2688a3a0abdc3f7dadabaedc28453a0", "is_disabled": 0, "rental_uris": {"android": "https://dc.lft.to/lastmile_qr_scan", "ios": "https://dc.lft.to/lastmile_qr_scan"}, "type": "electric_bike", "lat": 38.954816, "is_reserved": 0, "fusion_lat": 0.0}, {"bike_id": "e7dbf8be0172ee8e778cd79daef7cee9", "fusion_lon": 0.0, "lon": -76.9373985, "name": "e7dbf8be0172ee8e778cd79daef7cee9", "is_disabled": 0, "rental_uris": {"android": "https://dc.lft.to/lastmile_qr_scan", "ios": "https://dc.lft.to/lastmile_qr_scan"}, "type": "electric_scooter", "lat": 38.89015833333333, "is_reserved": 0, "fusion_lat": 0.0}, {"bike_id": "de0e0ce220652998ef3dc6bfbf35a48b", "fusion_lon": 0.0, "lon": -76.97834083333333, "name": "de0e0ce220652998ef3dc6bfbf35a48b", "is_disabled": 0, "rental_uris": {"android": "https://dc.lft.to/lastmile_qr_scan", "ios": "https://dc.lft.to/lastmile_qr_scan"}, "type": "electric_bike", "lat": 38.870720166666665, "is_reserved": 0, "fusion_lat": 0.0}, {"bike_id": "7163c5bb4396b018c3a43679186c73f2", "fusion_lon": 0.0, "lon": -77.06171633333334, "name": "7163c5bb4396b018c3a43679186c73f2", "is_disabled": 0, "rental_uris": {"android": "https://dc.lft.to/lastmile_qr_scan", "ios": "https://dc.lft.to/lastmile_qr_scan"}, "type": "electric_scooter", "lat": 38.902593833333334, "is_reserved": 0, "fusion_lat": 0.0}, {"bike_id": "f4a877b9cad8183b9af8de0736853f13", "fusion_lon": 0.0, "lon": -77.0061005, "name": "f4a877b9cad8183b9af8de0736853f13", "is_disabled": 0, "rental_uris": {"android": "https://dc.lft.to/lastmile_qr_scan", "ios": "https://dc.lft.to/lastmile_qr_scan"}, "type": "electric_scooter", "lat": 38.871826166666665, "is_reserved": 0, "fusion_lat": 0.0}, {"bike_id": "c7ad25fdc90e8311f5957879a1f4dcad", "fusion_lon": 0.0, "lon": -77.021989, "name": "c7ad25fdc90e8311f5957879a1f4dcad", "is_disabled": 0, "rental_uris": {"android": "https://dc.lft.to/lastmile_qr_scan", "ios": "https://dc.lft.to/lastmile_qr_scan"}, "type": "electric_scooter", "lat": 38.91481783333333, "is_reserved": 0, "fusion_lat": 0.0}, {"bike_id": "cc4639b54b51067c29e0a22c586b98b8", "fusion_lon": 0.0, "lon": -77.03505916666667, "name": "cc4639b54b51067c29e0a22c586b98b8", "is_disabled": 0, "rental_uris": {"android": "https://dc.lft.to/lastmile_qr_scan", "ios": "https://dc.lft.to/lastmile_qr_scan"}, "type": "electric_scooter", "lat": 38.92153533333333, "is_reserved": 0, "fusion_lat": 0.0}, {"bike_id": "51128a3c4019d961d4bb1bfc6ee15ab1", "fusion_lon": 0.0, "lon": -76.94793183333333, "name": "51128a3c4019d961d4bb1bfc6ee15ab1", "is_disabled": 0, "rental_uris": {"android": "https://dc.lft.to/lastmile_qr_scan", "ios": "https://dc.lft.to/lastmile_qr_scan"}, "type": "electric_bike", "lat": 38.89408366666667, "is_reserved": 0, "fusion_lat": 0.0}, {"bike_id": "161a26dda27597a9f7f9552f18a8d395", "fusion_lon": 0.0, "lon": -77.069122, "name": "161a26dda27597a9f7f9552f18a8d395", "is_disabled": 0, "rental_uris": {"android": "https://dc.lft.to/lastmile_qr_scan", "ios": "https://dc.lft.to/lastmile_qr_scan"}, "type": "electric_scooter", "lat": 38.910096833333334, "is_reserved": 0, "fusion_lat": 0.0}, {"bike_id": "06195a56f818ac67bdee4176e642d30f", "fusion_lon": 0.0, "lon": -77.04386483333333, "name": "06195a56f818ac67bdee4176e642d30f", "is_disabled": 0, "rental_uris": {"android": "https://dc.lft.to/lastmile_qr_scan", "ios": "https://dc.lft.to/lastmile_qr_scan"}, "type": "electric_scooter", "lat": 38.91070716666667, "is_reserved": 0, "fusion_lat": 0.0}, {"bike_id": "0be571ffdab232faeec73749ef68de62", "fusion_lon": 0.0, "lon": -77.0320915, "name": "0be571ffdab232faeec73749ef68de62", "is_disabled": 0, "rental_uris": {"android": "https://dc.lft.to/lastmile_qr_scan", "ios": "https://dc.lft.to/lastmile_qr_scan"}, "type": "electric_scooter", "lat": 38.91688833333333, "is_reserved": 0, "fusion_lat": 0.0}, {"bike_id": "4d1914f8b6bd1afe7a2f237aae4a9922", "fusion_lon": 0.0, "lon": -77.023883, "name": "4d1914f8b6bd1afe7a2f237aae4a9922", "is_disabled": 0, "rental_uris": {"android": "https://dc.lft.to/lastmile_qr_scan", "ios": "https://dc.lft.to/lastmile_qr_scan"}, "type": "electric_scooter", "lat": 38.919630833333336, "is_reserved": 0, "fusion_lat": 0.0}, {"bike_id": "564994d2f40ff1f4ae4a5c5d33c91df9", "fusion_lon": 0.0, "lon": -77.03854516666667, "name": "564994d2f40ff1f4ae4a5c5d33c91df9", "is_disabled": 0, "rental_uris": {"android": "https://dc.lft.to/lastmile_qr_scan", "ios": "https://dc.lft.to/lastmile_qr_scan"}, "type": "electric_scooter", "lat": 38.8675055, "is_reserved": 0, "fusion_lat": 0.0}, {"bike_id": "364ba4f6dcda3f3bb984984746dc6bec", "fusion_lon": 0.0, "lon": -77.03237516666667, "name": "364ba4f6dcda3f3bb984984746dc6bec", "is_disabled": 0, "rental_uris": {"android": "https://dc.lft.to/lastmile_qr_scan", "ios": "https://dc.lft.to/lastmile_qr_scan"}, "type": "electric_scooter", "lat": 38.91702733333333, "is_reserved": 0, "fusion_lat": 0.0}, {"bike_id": "631d20990c192a968484e365d294660f", "fusion_lon": 0.0, "lon": -77.002087, "name": "631d20990c192a968484e365d294660f", "is_disabled": 0, "rental_uris": {"android": "https://dc.lft.to/lastmile_qr_scan", "ios": "https://dc.lft.to/lastmile_qr_scan"}, "type": "electric_scooter", "lat": 38.90069116666667, "is_reserved": 0, "fusion_lat": 0.0}, {"bike_id": "dd6efaa68226d8dff72913b8f6e4e080", "fusion_lon": 0.0, "lon": -77.018004, "name": "dd6efaa68226d8dff72913b8f6e4e080", "is_disabled": 0, "rental_uris": {"android": "https://dc.lft.to/lastmile_qr_scan", "ios": "https://dc.lft.to/lastmile_qr_scan"}, "type": "electric_scooter", "lat": 38.8767395, "is_reserved": 0, "fusion_lat": 0.0}, {"bike_id": "34125f0076048bae1fadc52b2ccfbcfc", "fusion_lon": 0.0, "lon": -77.04034833333333, "name": "34125f0076048bae1fadc52b2ccfbcfc", "is_disabled": 0, "rental_uris": {"android": "https://dc.lft.to/lastmile_qr_scan", "ios": "https://dc.lft.to/lastmile_qr_scan"}, "type": "electric_scooter", "lat": 38.918573333333335, "is_reserved": 0, "fusion_lat": 0.0}, {"bike_id": "95fbc1f541498ba6f5dd4ec18eb4785a", "fusion_lon": 0.0, "lon": -76.98375733333333, "name": "95fbc1f541498ba6f5dd4ec18eb4785a", "is_disabled": 0, "rental_uris": {"android": "https://dc.lft.to/lastmile_qr_scan", "ios": "https://dc.lft.to/lastmile_qr_scan"}, "type": "electric_scooter", "lat": 38.86105116666667, "is_reserved": 0, "fusion_lat": 0.0}, {"bike_id": "94aabecee03939130ecf5240a445b36b", "fusion_lon": 0.0, "lon": -77.03177033333333, "name": "94aabecee03939130ecf5240a445b36b", "is_disabled": 0, "rental_uris": {"android": "https://dc.lft.to/lastmile_qr_scan", "ios": "https://dc.lft.to/lastmile_qr_scan"}, "type": "electric_scooter", "lat": 38.909858666666665, "is_reserved": 0, "fusion_lat": 0.0}, {"bike_id": "f6ed8017a4d4336ac72586eae781f6b2", "fusion_lon": 0.0, "lon": -77.0220125, "name": "f6ed8017a4d4336ac72586eae781f6b2", "is_disabled": 0, "rental_uris": {"android": "https://dc.lft.to/lastmile_qr_scan", "ios": "https://dc.lft.to/lastmile_qr_scan"}, "type": "electric_scooter", "lat": 38.916628833333334, "is_reserved": 0, "fusion_lat": 0.0}, {"bike_id": "dc6eb584074efd6810c3cb4d6979256e", "fusion_lon": 0.0, "lon": -77.0121895, "name": "dc6eb584074efd6810c3cb4d6979256e", "is_disabled": 0, "rental_uris": {"android": "https://dc.lft.to/lastmile_qr_scan", "ios": "https://dc.lft.to/lastmile_qr_scan"}, "type": "electric_scooter", "lat": 38.91344933333333, "is_reserved": 0, "fusion_lat": 0.0}, {"bike_id": "7d14437ba4e142d67266ed3e2efac0b3", "fusion_lon": 0.0, "lon": -77.031846, "name": "7d14437ba4e142d67266ed3e2efac0b3", "is_disabled": 0, "rental_uris": {"android": "https://dc.lft.to/lastmile_qr_scan", "ios": "https://dc.lft.to/lastmile_qr_scan"}, "type": "electric_scooter", "lat": 38.92385566666667, "is_reserved": 0, "fusion_lat": 0.0}, {"bike_id": "b08e0ce743aeefc4c387f617e0406e39", "fusion_lon": 0.0, "lon": -77.06160683333333, "name": "b08e0ce743aeefc4c387f617e0406e39", "is_disabled": 0, "rental_uris": {"android": "https://dc.lft.to/lastmile_qr_scan", "ios": "https://dc.lft.to/lastmile_qr_scan"}, "type": "electric_bike", "lat": 38.902665, "is_reserved": 0, "fusion_lat": 0.0}, {"bike_id": "3be6ac055ab71ecce1950d26a55d46ec", "fusion_lon": 0.0, "lon": -77.03254733333333, "name": "3be6ac055ab71ecce1950d26a55d46ec", "is_disabled": 0, "rental_uris": {"android": "https://dc.lft.to/lastmile_qr_scan", "ios": "https://dc.lft.to/lastmile_qr_scan"}, "type": "electric_scooter", "lat": 38.939720333333334, "is_reserved": 0, "fusion_lat": 0.0}, {"bike_id": "8c0cbdc6bde989d6c376b91908689ce9", "fusion_lon": 0.0, "lon": -77.03291716666666, "name": "8c0cbdc6bde989d6c376b91908689ce9", "is_disabled": 0, "rental_uris": {"android": "https://dc.lft.to/lastmile_qr_scan", "ios": "https://dc.lft.to/lastmile_qr_scan"}, "type": "electric_scooter", "lat": 38.934447166666665, "is_reserved": 0, "fusion_lat": 0.0}, {"bike_id": "6cf9ee802ae4684ccdd3733c268bfb7f", "fusion_lon": 0.0, "lon": -76.92736416666666, "name": "6cf9ee802ae4684ccdd3733c268bfb7f", "is_disabled": 0, "rental_uris": {"android": "https://dc.lft.to/lastmile_qr_scan", "ios": "https://dc.lft.to/lastmile_qr_scan"}, "type": "electric_scooter", "lat": 38.88966116666667, "is_reserved": 0, "fusion_lat": 0.0}, {"bike_id": "9eb92748f989998fa8dd532425780100", "fusion_lon": 0.0, "lon": -77.02316366666666, "name": "9eb92748f989998fa8dd532425780100", "is_disabled": 0, "rental_uris": {"android": "https://dc.lft.to/lastmile_qr_scan", "ios": "https://dc.lft.to/lastmile_qr_scan"}, "type": "electric_scooter", "lat": 38.907267, "is_reserved": 0, "fusion_lat": 0.0}, {"bike_id": "e883b811b55d72efa9ecac444a3b280e", "fusion_lon": 0.0, "lon": -77.03999516666667, "name": "e883b811b55d72efa9ecac444a3b280e", "is_disabled": 0, "rental_uris": {"android": "https://dc.lft.to/lastmile_qr_scan", "ios": "https://dc.lft.to/lastmile_qr_scan"}, "type": "electric_scooter", "lat": 38.924346666666665, "is_reserved": 0, "fusion_lat": 0.0}, {"bike_id": "4fc11afa71c448d43bce82f78087f3fd", "fusion_lon": 0.0, "lon": -76.9851765, "name": "4fc11afa71c448d43bce82f78087f3fd", "is_disabled": 0, "rental_uris": {"android": "https://dc.lft.to/lastmile_qr_scan", "ios": "https://dc.lft.to/lastmile_qr_scan"}, "type": "electric_scooter", "lat": 38.866671333333336, "is_reserved": 0, "fusion_lat": 0.0}, {"bike_id": "ce76b4d9013bc0e786d911f4a65676ac", "fusion_lon": 0.0, "lon": -77.02151716666667, "name": "ce76b4d9013bc0e786d911f4a65676ac", "is_disabled": 0, "rental_uris": {"android": "https://dc.lft.to/lastmile_qr_scan", "ios": "https://dc.lft.to/lastmile_qr_scan"}, "type": "electric_scooter", "lat": 38.88440833333333, "is_reserved": 0, "fusion_lat": 0.0}, {"bike_id": "159fe9e22065f98a97e5857b1d40a414", "fusion_lon": 0.0, "lon": -76.98801666666667, "name": "159fe9e22065f98a97e5857b1d40a414", "is_disabled": 0, "rental_uris": {"android": "https://dc.lft.to/lastmile_qr_scan", "ios": "https://dc.lft.to/lastmile_qr_scan"}, "type": "electric_bike", "lat": 38.922086166666666, "is_reserved": 0, "fusion_lat": 0.0}, {"bike_id": "375416ea46d2b8a619d96cf7c5e811cd", "fusion_lon": 0.0, "lon": -77.02693766666667, "name": "375416ea46d2b8a619d96cf7c5e811cd", "is_disabled": 0, "rental_uris": {"android": "https://dc.lft.to/lastmile_qr_scan", "ios": "https://dc.lft.to/lastmile_qr_scan"}, "type": "electric_scooter", "lat": 38.88134516666667, "is_reserved": 0, "fusion_lat": 0.0}, {"bike_id": "d70a3c5b35a33c83cb65f7bb45381c2f", "fusion_lon": 0.0, "lon": -77.033478, "name": "d70a3c5b35a33c83cb65f7bb45381c2f", "is_disabled": 0, "rental_uris": {"android": "https://dc.lft.to/lastmile_qr_scan", "ios": "https://dc.lft.to/lastmile_qr_scan"}, "type": "electric_scooter", "lat": 38.9418275, "is_reserved": 0, "fusion_lat": 0.0}, {"bike_id": "05b475dadadbe80b95d3248e6d675ca1", "fusion_lon": 0.0, "lon": -77.008282, "name": "05b475dadadbe80b95d3248e6d675ca1", "is_disabled": 0, "rental_uris": {"android": "https://dc.lft.to/lastmile_qr_scan", "ios": "https://dc.lft.to/lastmile_qr_scan"}, "type": "electric_scooter", "lat": 38.876644166666665, "is_reserved": 0, "fusion_lat": 0.0}, {"bike_id": "7abe833be11d6e220d462d6b487628c2", "fusion_lon": 0.0, "lon": -77.0230905, "name": "7abe833be11d6e220d462d6b487628c2", "is_disabled": 0, "rental_uris": {"android": "https://dc.lft.to/lastmile_qr_scan", "ios": "https://dc.lft.to/lastmile_qr_scan"}, "type": "electric_scooter", "lat": 38.944745166666664, "is_reserved": 0, "fusion_lat": 0.0}, {"bike_id": "238453a81c9a641a2bf59423dfb6573a", "fusion_lon": 0.0, "lon": -77.050263, "name": "238453a81c9a641a2bf59423dfb6573a", "is_disabled": 0, "rental_uris": {"android": "https://dc.lft.to/lastmile_qr_scan", "ios": "https://dc.lft.to/lastmile_qr_scan"}, "type": "electric_bike", "lat": 39.03918066666667, "is_reserved": 0, "fusion_lat": 0.0}, {"bike_id": "78e9760416fd1cd61adfd0276e1b67c4", "fusion_lon": 0.0, "lon": -77.01508666666666, "name": "78e9760416fd1cd61adfd0276e1b67c4", "is_disabled": 0, "rental_uris": {"android": "https://dc.lft.to/lastmile_qr_scan", "ios": "https://dc.lft.to/lastmile_qr_scan"}, "type": "electric_scooter", "lat": 38.91297633333333, "is_reserved": 0, "fusion_lat": 0.0}, {"bike_id": "f66047571f7a77c0017b61e3b340cfc6", "fusion_lon": 0.0, "lon": -77.025778, "name": "f66047571f7a77c0017b61e3b340cfc6", "is_disabled": 0, "rental_uris": {"android": "https://dc.lft.to/lastmile_qr_scan", "ios": "https://dc.lft.to/lastmile_qr_scan"}, "type": "electric_scooter", "lat": 38.892291166666666, "is_reserved": 0, "fusion_lat": 0.0}, {"bike_id": "af4e927acb3cce5ab9c733ef283fc844", "fusion_lon": 0.0, "lon": -77.03193433333334, "name": "af4e927acb3cce5ab9c733ef283fc844", "is_disabled": 0, "rental_uris": {"android": "https://dc.lft.to/lastmile_qr_scan", "ios": "https://dc.lft.to/lastmile_qr_scan"}, "type": "electric_scooter", "lat": 38.914713666666664, "is_reserved": 0, "fusion_lat": 0.0}, {"bike_id": "381239f4d71c34b69fc5bb23ffac976e", "fusion_lon": 0.0, "lon": -77.03887266666666, "name": "381239f4d71c34b69fc5bb23ffac976e", "is_disabled": 0, "rental_uris": {"android": "https://dc.lft.to/lastmile_qr_scan", "ios": "https://dc.lft.to/lastmile_qr_scan"}, "type": "electric_scooter", "lat": 38.917107, "is_reserved": 0, "fusion_lat": 0.0}, {"bike_id": "f3fd05e516fd8d25ddb01e8d950c1a36", "fusion_lon": 0.0, "lon": -77.05927916666667, "name": "f3fd05e516fd8d25ddb01e8d950c1a36", "is_disabled": 0, "rental_uris": {"android": "https://dc.lft.to/lastmile_qr_scan", "ios": "https://dc.lft.to/lastmile_qr_scan"}, "type": "electric_scooter", "lat": 38.909386, "is_reserved": 0, "fusion_lat": 0.0}, {"bike_id": "993bc7c5845d128389ca129a79731d17", "fusion_lon": 0.0, "lon": -77.02401633333334, "name": "993bc7c5845d128389ca129a79731d17", "is_disabled": 0, "rental_uris": {"android": "https://dc.lft.to/lastmile_qr_scan", "ios": "https://dc.lft.to/lastmile_qr_scan"}, "type": "electric_scooter", "lat": 38.907451, "is_reserved": 0, "fusion_lat": 0.0}, {"bike_id": "77eb1342bc6b2c0e6f667f258b13c9d5", "fusion_lon": 0.0, "lon": -77.04265566666666, "name": "77eb1342bc6b2c0e6f667f258b13c9d5", "is_disabled": 0, "rental_uris": {"android": "https://dc.lft.to/lastmile_qr_scan", "ios": "https://dc.lft.to/lastmile_qr_scan"}, "type": "electric_scooter", "lat": 38.92234916666666, "is_reserved": 0, "fusion_lat": 0.0}, {"bike_id": "be5bb16ba5a0e16db25f3be15d0ff125", "fusion_lon": 0.0, "lon": -77.03699216666666, "name": "be5bb16ba5a0e16db25f3be15d0ff125", "is_disabled": 0, "rental_uris": {"android": "https://dc.lft.to/lastmile_qr_scan", "ios": "https://dc.lft.to/lastmile_qr_scan"}, "type": "electric_scooter", "lat": 38.92643283333334, "is_reserved": 0, "fusion_lat": 0.0}, {"bike_id": "a4b5d06b62e256e0b568f4c1fca24a56", "fusion_lon": 0.0, "lon": -77.03342133333334, "name": "a4b5d06b62e256e0b568f4c1fca24a56", "is_disabled": 0, "rental_uris": {"android": "https://dc.lft.to/lastmile_qr_scan", "ios": "https://dc.lft.to/lastmile_qr_scan"}, "type": "electric_scooter", "lat": 38.90316833333333, "is_reserved": 0, "fusion_lat": 0.0}, {"bike_id": "9daec23dee77f096f83bca4b613564c7", "fusion_lon": 0.0, "lon": -77.0734845, "name": "9daec23dee77f096f83bca4b613564c7", "is_disabled": 0, "rental_uris": {"android": "https://dc.lft.to/lastmile_qr_scan", "ios": "https://dc.lft.to/lastmile_qr_scan"}, "type": "electric_bike", "lat": 38.930536833333335, "is_reserved": 0, "fusion_lat": 0.0}, {"bike_id": "84d3adc41b4733ab3c385b6b4276cf66", "fusion_lon": 0.0, "lon": -77.04614483333333, "name": "84d3adc41b4733ab3c385b6b4276cf66", "is_disabled": 0, "rental_uris": {"android": "https://dc.lft.to/lastmile_qr_scan", "ios": "https://dc.lft.to/lastmile_qr_scan"}, "type": "electric_scooter", "lat": 38.914984833333335, "is_reserved": 0, "fusion_lat": 0.0}, {"bike_id": "56fdfe63777403bf7c2e1df1f26314e2", "fusion_lon": 0.0, "lon": -77.0272505, "name": "56fdfe63777403bf7c2e1df1f26314e2", "is_disabled": 0, "rental_uris": {"android": "https://dc.lft.to/lastmile_qr_scan", "ios": "https://dc.lft.to/lastmile_qr_scan"}, "type": "electric_bike", "lat": 38.94552566666667, "is_reserved": 0, "fusion_lat": 0.0}, {"bike_id": "7c8d7adb70a2994611878cdb55f22596", "fusion_lon": 0.0, "lon": -77.02766033333333, "name": "7c8d7adb70a2994611878cdb55f22596", "is_disabled": 0, "rental_uris": {"android": "https://dc.lft.to/lastmile_qr_scan", "ios": "https://dc.lft.to/lastmile_qr_scan"}, "type": "electric_scooter", "lat": 38.90427, "is_reserved": 0, "fusion_lat": 0.0}, {"bike_id": "cfe1ccb0a7337cf80c3ade582c938ad6", "fusion_lon": 0.0, "lon": -77.04249516666667, "name": "cfe1ccb0a7337cf80c3ade582c938ad6", "is_disabled": 0, "rental_uris": {"android": "https://dc.lft.to/lastmile_qr_scan", "ios": "https://dc.lft.to/lastmile_qr_scan"}, "type": "electric_scooter", "lat": 38.92197066666667, "is_reserved": 0, "fusion_lat": 0.0}, {"bike_id": "e979d3bf7a2d28d404e3fd50bf7f3445", "fusion_lon": 0.0, "lon": -77.015789, "name": "e979d3bf7a2d28d404e3fd50bf7f3445", "is_disabled": 0, "rental_uris": {"android": "https://dc.lft.to/lastmile_qr_scan", "ios": "https://dc.lft.to/lastmile_qr_scan"}, "type": "electric_scooter", "lat": 38.891774, "is_reserved": 0, "fusion_lat": 0.0}, {"bike_id": "71b351aedf426982ebaf183e52a411b2", "fusion_lon": 0.0, "lon": -76.92332433333333, "name": "71b351aedf426982ebaf183e52a411b2", "is_disabled": 0, "rental_uris": {"android": "https://dc.lft.to/lastmile_qr_scan", "ios": "https://dc.lft.to/lastmile_qr_scan"}, "type": "electric_bike", "lat": 38.871159166666665, "is_reserved": 0, "fusion_lat": 0.0}, {"bike_id": "8728420c92b28b256bd258a110515937", "fusion_lon": 0.0, "lon": -77.05423966666666, "name": "8728420c92b28b256bd258a110515937", "is_disabled": 0, "rental_uris": {"android": "https://dc.lft.to/lastmile_qr_scan", "ios": "https://dc.lft.to/lastmile_qr_scan"}, "type": "electric_bike", "lat": 38.93514916666667, "is_reserved": 0, "fusion_lat": 0.0}, {"bike_id": "6fc587e69b59ffb5fa34c0730dce4f3a", "fusion_lon": 0.0, "lon": -77.03663033333333, "name": "6fc587e69b59ffb5fa34c0730dce4f3a", "is_disabled": 0, "rental_uris": {"android": "https://dc.lft.to/lastmile_qr_scan", "ios": "https://dc.lft.to/lastmile_qr_scan"}, "type": "electric_scooter", "lat": 38.92289233333333, "is_reserved": 0, "fusion_lat": 0.0}, {"bike_id": "6fbe46be0fb4c6cda27a7e16bb5ecf14", "fusion_lon": 0.0, "lon": -77.05131466666667, "name": "6fbe46be0fb4c6cda27a7e16bb5ecf14", "is_disabled": 0, "rental_uris": {"android": "https://dc.lft.to/lastmile_qr_scan", "ios": "https://dc.lft.to/lastmile_qr_scan"}, "type": "electric_scooter", "lat": 38.923638, "is_reserved": 0, "fusion_lat": 0.0}, {"bike_id": "732b944facd3489ad1cf2107c8284eb4", "fusion_lon": 0.0, "lon": -77.0040845, "name": "732b944facd3489ad1cf2107c8284eb4", "is_disabled": 0, "rental_uris": {"android": "https://dc.lft.to/lastmile_qr_scan", "ios": "https://dc.lft.to/lastmile_qr_scan"}, "type": "electric_scooter", "lat": 38.87710466666667, "is_reserved": 0, "fusion_lat": 0.0}, {"bike_id": "391a49ba6b862b194ba615e8f66f5839", "fusion_lon": 0.0, "lon": -77.02402166666667, "name": "391a49ba6b862b194ba615e8f66f5839", "is_disabled": 0, "rental_uris": {"android": "https://dc.lft.to/lastmile_qr_scan", "ios": "https://dc.lft.to/lastmile_qr_scan"}, "type": "electric_scooter", "lat": 38.91751216666667, "is_reserved": 0, "fusion_lat": 0.0}, {"bike_id": "73678c9803da74150631048957288ba2", "fusion_lon": 0.0, "lon": -77.03166933333334, "name": "73678c9803da74150631048957288ba2", "is_disabled": 0, "rental_uris": {"android": "https://dc.lft.to/lastmile_qr_scan", "ios": "https://dc.lft.to/lastmile_qr_scan"}, "type": "electric_scooter", "lat": 38.892171, "is_reserved": 0, "fusion_lat": 0.0}, {"bike_id": "8040bafd6d1f3b64b1a0a670a2b5e7f1", "fusion_lon": 0.0, "lon": -77.0255035, "name": "8040bafd6d1f3b64b1a0a670a2b5e7f1", "is_disabled": 0, "rental_uris": {"android": "https://dc.lft.to/lastmile_qr_scan", "ios": "https://dc.lft.to/lastmile_qr_scan"}, "type": "electric_scooter", "lat": 38.92088066666667, "is_reserved": 0, "fusion_lat": 0.0}, {"bike_id": "b196e8575f28c3767f775f4413eabbb8", "fusion_lon": 0.0, "lon": -77.04144566666666, "name": "b196e8575f28c3767f775f4413eabbb8", "is_disabled": 0, "rental_uris": {"android": "https://dc.lft.to/lastmile_qr_scan", "ios": "https://dc.lft.to/lastmile_qr_scan"}, "type": "electric_scooter", "lat": 38.926461333333336, "is_reserved": 0, "fusion_lat": 0.0}, {"bike_id": "26ea79c70b45eab8381a8a32664be14a", "fusion_lon": 0.0, "lon": -77.0578695, "name": "26ea79c70b45eab8381a8a32664be14a", "is_disabled": 0, "rental_uris": {"android": "https://dc.lft.to/lastmile_qr_scan", "ios": "https://dc.lft.to/lastmile_qr_scan"}, "type": "electric_scooter", "lat": 38.901028333333336, "is_reserved": 0, "fusion_lat": 0.0}, {"bike_id": "9daad74c8daa95aeec8f04bfd3c45df0", "fusion_lon": 0.0, "lon": -76.97731466666667, "name": "9daad74c8daa95aeec8f04bfd3c45df0", "is_disabled": 0, "rental_uris": {"android": "https://dc.lft.to/lastmile_qr_scan", "ios": "https://dc.lft.to/lastmile_qr_scan"}, "type": "electric_scooter", "lat": 38.89513633333333, "is_reserved": 0, "fusion_lat": 0.0}, {"bike_id": "08b5cf036347b4238d608483df876838", "fusion_lon": 0.0, "lon": -77.03228416666667, "name": "08b5cf036347b4238d608483df876838", "is_disabled": 0, "rental_uris": {"android": "https://dc.lft.to/lastmile_qr_scan", "ios": "https://dc.lft.to/lastmile_qr_scan"}, "type": "electric_scooter", "lat": 38.90284316666666, "is_reserved": 0, "fusion_lat": 0.0}, {"bike_id": "bffaa66f960e7f3fbc67c2e4e30f9159", "fusion_lon": 0.0, "lon": -77.02179166666667, "name": "bffaa66f960e7f3fbc67c2e4e30f9159", "is_disabled": 0, "rental_uris": {"android": "https://dc.lft.to/lastmile_qr_scan", "ios": "https://dc.lft.to/lastmile_qr_scan"}, "type": "electric_scooter", "lat": 38.906188666666665, "is_reserved": 0, "fusion_lat": 0.0}, {"bike_id": "e4e968392c17c37ab040fd3fe1aeefe3", "fusion_lon": 0.0, "lon": -77.03505966666667, "name": "e4e968392c17c37ab040fd3fe1aeefe3", "is_disabled": 0, "rental_uris": {"android": "https://dc.lft.to/lastmile_qr_scan", "ios": "https://dc.lft.to/lastmile_qr_scan"}, "type": "electric_scooter", "lat": 38.923387166666664, "is_reserved": 0, "fusion_lat": 0.0}, {"bike_id": "0f684f1aa4586526352ff704a225283c", "fusion_lon": 0.0, "lon": -77.029662, "name": "0f684f1aa4586526352ff704a225283c", "is_disabled": 0, "rental_uris": {"android": "https://dc.lft.to/lastmile_qr_scan", "ios": "https://dc.lft.to/lastmile_qr_scan"}, "type": "electric_scooter", "lat": 38.91683366666667, "is_reserved": 0, "fusion_lat": 0.0}, {"bike_id": "2da1ff9bd93d2948fef2e5fb79d67120", "fusion_lon": 0.0, "lon": -76.99946016666667, "name": "2da1ff9bd93d2948fef2e5fb79d67120", "is_disabled": 0, "rental_uris": {"android": "https://dc.lft.to/lastmile_qr_scan", "ios": "https://dc.lft.to/lastmile_qr_scan"}, "type": "electric_scooter", "lat": 38.842972, "is_reserved": 0, "fusion_lat": 0.0}, {"bike_id": "9b960983c1bb77b811132c50fbbce321", "fusion_lon": 0.0, "lon": -77.02972366666667, "name": "9b960983c1bb77b811132c50fbbce321", "is_disabled": 0, "rental_uris": {"android": "https://dc.lft.to/lastmile_qr_scan", "ios": "https://dc.lft.to/lastmile_qr_scan"}, "type": "electric_scooter", "lat": 38.91596533333333, "is_reserved": 0, "fusion_lat": 0.0}, {"bike_id": "e62abe6ba660c8aca6a4bda141d5a1fe", "fusion_lon": 0.0, "lon": -77.0297935, "name": "e62abe6ba660c8aca6a4bda141d5a1fe", "is_disabled": 0, "rental_uris": {"android": "https://dc.lft.to/lastmile_qr_scan", "ios": "https://dc.lft.to/lastmile_qr_scan"}, "type": "electric_scooter", "lat": 38.9169215, "is_reserved": 0, "fusion_lat": 0.0}, {"bike_id": "25050703b40eaa6bf01606b021cd1e93", "fusion_lon": 0.0, "lon": -77.03322583333333, "name": "25050703b40eaa6bf01606b021cd1e93", "is_disabled": 0, "rental_uris": {"android": "https://dc.lft.to/lastmile_qr_scan", "ios": "https://dc.lft.to/lastmile_qr_scan"}, "type": "electric_scooter", "lat": 38.9033675, "is_reserved": 0, "fusion_lat": 0.0}, {"bike_id": "eb6f495cdd9ea33722cef1df715c0f30", "fusion_lon": 0.0, "lon": -77.03187983333333, "name": "eb6f495cdd9ea33722cef1df715c0f30", "is_disabled": 0, "rental_uris": {"android": "https://dc.lft.to/lastmile_qr_scan", "ios": "https://dc.lft.to/lastmile_qr_scan"}, "type": "electric_scooter", "lat": 38.908684666666666, "is_reserved": 0, "fusion_lat": 0.0}, {"bike_id": "7df8472c5c8c8b4e5b8b00cdc1461d84", "fusion_lon": 0.0, "lon": -77.03343033333333, "name": "7df8472c5c8c8b4e5b8b00cdc1461d84", "is_disabled": 0, "rental_uris": {"android": "https://dc.lft.to/lastmile_qr_scan", "ios": "https://dc.lft.to/lastmile_qr_scan"}, "type": "electric_scooter", "lat": 38.902894, "is_reserved": 0, "fusion_lat": 0.0}, {"bike_id": "8fe1a34f1bcc24133107a345d7ceb7c2", "fusion_lon": 0.0, "lon": -77.044726, "name": "8fe1a34f1bcc24133107a345d7ceb7c2", "is_disabled": 0, "rental_uris": {"android": "https://dc.lft.to/lastmile_qr_scan", "ios": "https://dc.lft.to/lastmile_qr_scan"}, "type": "electric_scooter", "lat": 38.91110966666667, "is_reserved": 0, "fusion_lat": 0.0}, {"bike_id": "09b68e40381686c5bea1c5ddd1bf02e5", "fusion_lon": 0.0, "lon": -77.06349833333333, "name": "09b68e40381686c5bea1c5ddd1bf02e5", "is_disabled": 0, "rental_uris": {"android": "https://dc.lft.to/lastmile_qr_scan", "ios": "https://dc.lft.to/lastmile_qr_scan"}, "type": "electric_scooter", "lat": 38.944431, "is_reserved": 0, "fusion_lat": 0.0}, {"bike_id": "fc10d12e5e6672b09ca194b7eba614f9", "fusion_lon": 0.0, "lon": -77.02303083333334, "name": "fc10d12e5e6672b09ca194b7eba614f9", "is_disabled": 0, "rental_uris": {"android": "https://dc.lft.to/lastmile_qr_scan", "ios": "https://dc.lft.to/lastmile_qr_scan"}, "type": "electric_scooter", "lat": 38.916051333333336, "is_reserved": 0, "fusion_lat": 0.0}, {"bike_id": "c7cd0351716cc5a0f6dd8bd34dda9eee", "fusion_lon": 0.0, "lon": -77.0582525, "name": "c7cd0351716cc5a0f6dd8bd34dda9eee", "is_disabled": 0, "rental_uris": {"android": "https://dc.lft.to/lastmile_qr_scan", "ios": "https://dc.lft.to/lastmile_qr_scan"}, "type": "electric_scooter", "lat": 38.90530716666667, "is_reserved": 0, "fusion_lat": 0.0}, {"bike_id": "3c8c508be1dc44fc8fb2e05ead715626", "fusion_lon": 0.0, "lon": -77.00390566666667, "name": "3c8c508be1dc44fc8fb2e05ead715626", "is_disabled": 0, "rental_uris": {"android": "https://dc.lft.to/lastmile_qr_scan", "ios": "https://dc.lft.to/lastmile_qr_scan"}, "type": "electric_scooter", "lat": 38.9220565, "is_reserved": 0, "fusion_lat": 0.0}, {"bike_id": "03685065cd2d472bbfd4ac47261582ab", "fusion_lon": 0.0, "lon": -77.03659166666667, "name": "03685065cd2d472bbfd4ac47261582ab", "is_disabled": 0, "rental_uris": {"android": "https://dc.lft.to/lastmile_qr_scan", "ios": "https://dc.lft.to/lastmile_qr_scan"}, "type": "electric_scooter", "lat": 38.91795716666667, "is_reserved": 0, "fusion_lat": 0.0}, {"bike_id": "59628761bd0e8a69e04ab3c57c507956", "fusion_lon": 0.0, "lon": -77.0442045, "name": "59628761bd0e8a69e04ab3c57c507956", "is_disabled": 0, "rental_uris": {"android": "https://dc.lft.to/lastmile_qr_scan", "ios": "https://dc.lft.to/lastmile_qr_scan"}, "type": "electric_scooter", "lat": 38.91007533333333, "is_reserved": 0, "fusion_lat": 0.0}, {"bike_id": "9ec96765790572170281c7c1b5a3e9a3", "fusion_lon": 0.0, "lon": -77.01531533333333, "name": "9ec96765790572170281c7c1b5a3e9a3", "is_disabled": 0, "rental_uris": {"android": "https://dc.lft.to/lastmile_qr_scan", "ios": "https://dc.lft.to/lastmile_qr_scan"}, "type": "electric_scooter", "lat": 38.88741016666667, "is_reserved": 0, "fusion_lat": 0.0}, {"bike_id": "9d5a3bca9e773a389ea583ff9bb7797f", "fusion_lon": 0.0, "lon": -77.03168433333333, "name": "9d5a3bca9e773a389ea583ff9bb7797f", "is_disabled": 0, "rental_uris": {"android": "https://dc.lft.to/lastmile_qr_scan", "ios": "https://dc.lft.to/lastmile_qr_scan"}, "type": "electric_scooter", "lat": 38.892224166666665, "is_reserved": 0, "fusion_lat": 0.0}, {"bike_id": "444873d77af2073165b16e480eaf46c5", "fusion_lon": 0.0, "lon": -76.99365616666667, "name": "444873d77af2073165b16e480eaf46c5", "is_disabled": 0, "rental_uris": {"android": "https://dc.lft.to/lastmile_qr_scan", "ios": "https://dc.lft.to/lastmile_qr_scan"}, "type": "electric_scooter", "lat": 38.928337, "is_reserved": 0, "fusion_lat": 0.0}, {"bike_id": "b678cbf062193529172c856bd04cfab4", "fusion_lon": 0.0, "lon": -77.05860683333333, "name": "b678cbf062193529172c856bd04cfab4", "is_disabled": 0, "rental_uris": {"android": "https://dc.lft.to/lastmile_qr_scan", "ios": "https://dc.lft.to/lastmile_qr_scan"}, "type": "electric_scooter", "lat": 38.936107666666665, "is_reserved": 0, "fusion_lat": 0.0}, {"bike_id": "b769a61e06ed93ccd03a5ff06b24ed3f", "fusion_lon": 0.0, "lon": -77.03220633333333, "name": "b769a61e06ed93ccd03a5ff06b24ed3f", "is_disabled": 0, "rental_uris": {"android": "https://dc.lft.to/lastmile_qr_scan", "ios": "https://dc.lft.to/lastmile_qr_scan"}, "type": "electric_scooter", "lat": 38.89218016666667, "is_reserved": 0, "fusion_lat": 0.0}, {"bike_id": "5a955a0d28d416c486563c61cbcac23a", "fusion_lon": 0.0, "lon": -77.03459483333333, "name": "5a955a0d28d416c486563c61cbcac23a", "is_disabled": 0, "rental_uris": {"android": "https://dc.lft.to/lastmile_qr_scan", "ios": "https://dc.lft.to/lastmile_qr_scan"}, "type": "electric_scooter", "lat": 38.93541616666667, "is_reserved": 0, "fusion_lat": 0.0}, {"bike_id": "0273e408bea9454ebcfd8c858f55e77a", "fusion_lon": 0.0, "lon": -77.02804116666667, "name": "0273e408bea9454ebcfd8c858f55e77a", "is_disabled": 0, "rental_uris": {"android": "https://dc.lft.to/lastmile_qr_scan", "ios": "https://dc.lft.to/lastmile_qr_scan"}, "type": "electric_scooter", "lat": 38.8951765, "is_reserved": 0, "fusion_lat": 0.0}, {"bike_id": "a1f5ab680a5c7f6808348b0801e6b404", "fusion_lon": 0.0, "lon": -77.03362033333333, "name": "a1f5ab680a5c7f6808348b0801e6b404", "is_disabled": 0, "rental_uris": {"android": "https://dc.lft.to/lastmile_qr_scan", "ios": "https://dc.lft.to/lastmile_qr_scan"}, "type": "electric_scooter", "lat": 38.92893216666667, "is_reserved": 0, "fusion_lat": 0.0}, {"bike_id": "65f5e646cfc32ef595f1e48c73e0ceab", "fusion_lon": 0.0, "lon": -77.065194, "name": "65f5e646cfc32ef595f1e48c73e0ceab", "is_disabled": 0, "rental_uris": {"android": "https://dc.lft.to/lastmile_qr_scan", "ios": "https://dc.lft.to/lastmile_qr_scan"}, "type": "electric_scooter", "lat": 38.905838333333335, "is_reserved": 0, "fusion_lat": 0.0}, {"bike_id": "ae9358342727821fe8645b16ab91d5d9", "fusion_lon": 0.0, "lon": -77.04134916666666, "name": "ae9358342727821fe8645b16ab91d5d9", "is_disabled": 0, "rental_uris": {"android": "https://dc.lft.to/lastmile_qr_scan", "ios": "https://dc.lft.to/lastmile_qr_scan"}, "type": "electric_scooter", "lat": 38.933691833333334, "is_reserved": 0, "fusion_lat": 0.0}, {"bike_id": "a5dd6c05a834f77405e6f75e75e6c488", "fusion_lon": 0.0, "lon": -76.99340533333333, "name": "a5dd6c05a834f77405e6f75e75e6c488", "is_disabled": 0, "rental_uris": {"android": "https://dc.lft.to/lastmile_qr_scan", "ios": "https://dc.lft.to/lastmile_qr_scan"}, "type": "electric_bike", "lat": 38.97230533333333, "is_reserved": 0, "fusion_lat": 0.0}, {"bike_id": "2b059491b489eaeae06c8fd5465ef0d5", "fusion_lon": 0.0, "lon": -77.02195533333334, "name": "2b059491b489eaeae06c8fd5465ef0d5", "is_disabled": 0, "rental_uris": {"android": "https://dc.lft.to/lastmile_qr_scan", "ios": "https://dc.lft.to/lastmile_qr_scan"}, "type": "electric_scooter", "lat": 38.918427666666666, "is_reserved": 0, "fusion_lat": 0.0}, {"bike_id": "e24ba2f6822af37ab70fed1b798f8b25", "fusion_lon": 0.0, "lon": -76.9969615, "name": "e24ba2f6822af37ab70fed1b798f8b25", "is_disabled": 0, "rental_uris": {"android": "https://dc.lft.to/lastmile_qr_scan", "ios": "https://dc.lft.to/lastmile_qr_scan"}, "type": "electric_scooter", "lat": 38.9083925, "is_reserved": 0, "fusion_lat": 0.0}, {"bike_id": "eae4914965babd125c91a19f2ee1844c", "fusion_lon": 0.0, "lon": -76.99610633333333, "name": "eae4914965babd125c91a19f2ee1844c", "is_disabled": 0, "rental_uris": {"android": "https://dc.lft.to/lastmile_qr_scan", "ios": "https://dc.lft.to/lastmile_qr_scan"}, "type": "electric_scooter", "lat": 38.899158166666666, "is_reserved": 0, "fusion_lat": 0.0}, {"bike_id": "ee5593ae8602f723d7b23995282d5d35", "fusion_lon": 0.0, "lon": -76.97173833333333, "name": "ee5593ae8602f723d7b23995282d5d35", "is_disabled": 0, "rental_uris": {"android": "https://dc.lft.to/lastmile_qr_scan", "ios": "https://dc.lft.to/lastmile_qr_scan"}, "type": "electric_scooter", "lat": 38.85435916666667, "is_reserved": 0, "fusion_lat": 0.0}, {"bike_id": "2757e52d11c05fcc371ca3bc3158df9b", "fusion_lon": 0.0, "lon": -77.04800316666666, "name": "2757e52d11c05fcc371ca3bc3158df9b", "is_disabled": 0, "rental_uris": {"android": "https://dc.lft.to/lastmile_qr_scan", "ios": "https://dc.lft.to/lastmile_qr_scan"}, "type": "electric_scooter", "lat": 38.892218666666665, "is_reserved": 0, "fusion_lat": 0.0}, {"bike_id": "6eabef109c4e95fb061909449f55fc1c", "fusion_lon": 0.0, "lon": -77.018001, "name": "6eabef109c4e95fb061909449f55fc1c", "is_disabled": 0, "rental_uris": {"android": "https://dc.lft.to/lastmile_qr_scan", "ios": "https://dc.lft.to/lastmile_qr_scan"}, "type": "electric_scooter", "lat": 38.904244, "is_reserved": 0, "fusion_lat": 0.0},