{"data": {"bikes": [{"is_disabled": 0, "is_reserved": 0, "fusion_lat": 0.0, "lat": 38.909474833333334, "fusion_lon": 0.0, "rental_uris": {"ios": "https://dc.lft.to/lastmile_qr_scan", "android": "https://dc.lft.to/lastmile_qr_scan"}, "lon": -77.04721616666667, "bike_id": "14e06f463cb7a9775ff4ed1ee73c0e30", "type": "electric_scooter", "name": "14e06f463cb7a9775ff4ed1ee73c0e30"}, {"is_disabled": 0, "is_reserved": 0, "fusion_lat": 0.0, "lat": 38.94177966666667, "fusion_lon": 0.0, "rental_uris": {"ios": "https://dc.lft.to/lastmile_qr_scan", "android": "https://dc.lft.to/lastmile_qr_scan"}, "lon": -77.01527866666666, "bike_id": "64e926896ebe2c4bb07dab6e4d9c0cdf", "type": "electric_scooter", "name": "64e926896ebe2c4bb07dab6e4d9c0cdf"}, {"is_disabled": 0, "is_reserved": 0, "fusion_lat": 0.0, "lat": 38.90977216666667, "fusion_lon": 0.0, "rental_uris": {"ios": "https://dc.lft.to/lastmile_qr_scan", "android": "https://dc.lft.to/lastmile_qr_scan"}, "lon": -77.02414016666667, "bike_id": "c56b21996a21183d0b839f066f6020d4", "type": "electric_scooter", "name": "c56b21996a21183d0b839f066f6020d4"}, {"is_disabled": 0, "is_reserved": 0, "fusion_lat": 0.0, "lat": 38.91551883333333, "fusion_lon": 0.0, "rental_uris": {"ios": "https://dc.lft.to/lastmile_qr_scan", "android": "https://dc.lft.to/lastmile_qr_scan"}, "lon": -77.04450933333334, "bike_id": "feaea1449e841ab61444597ded34642a", "type": "electric_scooter", "name": "feaea1449e841ab61444597ded34642a"}, {"is_disabled": 0, "is_reserved": 0, "fusion_lat": 0.0, "lat": 38.9148485, "fusion_lon": 0.0, "rental_uris": {"ios": "https://dc.lft.to/lastmile_qr_scan", "android": "https://dc.lft.to/lastmile_qr_scan"}, "lon": -77.01885383333334, "bike_id": "0142d4d4b21eb328e3e79263e9fe94fa", "type": "electric_scooter", "name": "0142d4d4b21eb328e3e79263e9fe94fa"}, {"is_disabled": 0, "is_reserved": 0, "fusion_lat": 0.0, "lat": 38.9216795, "fusion_lon": 0.0, "rental_uris": {"ios": "https://dc.lft.to/lastmile_qr_scan", "android": "https://dc.lft.to/lastmile_qr_scan"}, "lon": -77.0422845, "bike_id": "696e7fa23d79abfe6e22bbab9b972dac", "type": "electric_scooter", "name": "696e7fa23d79abfe6e22bbab9b972dac"}, {"is_disabled": 0, "is_reserved": 0, "fusion_lat": 0.0, "lat": 38.942887, "fusion_lon": 0.0, "rental_uris": {"ios": "https://dc.lft.to/lastmile_qr_scan", "android": "https://dc.lft.to/lastmile_qr_scan"}, "lon": -77.02167883333334, "bike_id": "428a8234420e56da9d5aeb8b313c19aa", "type": "electric_scooter", "name": "428a8234420e56da9d5aeb8b313c19aa"}, {"is_disabled": 0, "is_reserved": 0, "fusion_lat": 0.0, "lat": 38.9141715, "fusion_lon": 0.0, "rental_uris": {"ios": "https://dc.lft.to/lastmile_qr_scan", "android": "https://dc.lft.to/lastmile_qr_scan"}, "lon": -77.031768, "bike_id": "235031b882a49e6c9d9a535b172be6fb", "type": "electric_scooter", "name": "235031b882a49e6c9d9a535b172be6fb"}, {"is_disabled": 0, "is_reserved": 0, "fusion_lat": 0.0, "lat": 38.896697333333336, "fusion_lon": 0.0, "rental_uris": {"ios": "https://dc.lft.to/lastmile_qr_scan", "android": "https://dc.lft.to/lastmile_qr_scan"}, "lon": -76.94909516666667, "bike_id": "fdf7eebcdab111d974ab5eb71fe0deec", "type": "electric_scooter", "name": "fdf7eebcdab111d974ab5eb71fe0deec"}, {"is_disabled": 0, "is_reserved": 0, "fusion_lat": 0.0, "lat": 38.97597016666667, "fusion_lon": 0.0, "rental_uris": {"ios": "https://dc.lft.to/lastmile_qr_scan", "android": "https://dc.lft.to/lastmile_qr_scan"}, "lon": -77.01871466666667, "bike_id": "025d1d52fbbb34d5800a0dc57ec7690a", "type": "electric_scooter", "name": "025d1d52fbbb34d5800a0dc57ec7690a"}, {"is_disabled": 0, "is_reserved": 0, "fusion_lat": 0.0, "lat": 38.8953915, "fusion_lon": 0.0, "rental_uris": {"ios": "https://dc.lft.to/lastmile_qr_scan", "android": "https://dc.lft.to/lastmile_qr_scan"}, "lon": -76.98372333333333, "bike_id": "4ab22fc7acc67e61ab9386702c052e9d", "type": "electric_scooter", "name": "4ab22fc7acc67e61ab9386702c052e9d"}, {"is_disabled": 0, "is_reserved": 0, "fusion_lat": 0.0, "lat": 38.90931283333333, "fusion_lon": 0.0, "rental_uris": {"ios": "https://dc.lft.to/lastmile_qr_scan", "android": "https://dc.lft.to/lastmile_qr_scan"}, "lon": -77.02499616666667, "bike_id": "2a45db516aed5943af83db135eeef5b4", "type": "electric_scooter", "name": "2a45db516aed5943af83db135eeef5b4"}, {"is_disabled": 0, "is_reserved": 0, "fusion_lat": 0.0, "lat": 38.813366333333335, "fusion_lon": 0.0, "rental_uris": {"ios": "https://dc.lft.to/lastmile_qr_scan", "android": "https://dc.lft.to/lastmile_qr_scan"}, "lon": -77.050916, "bike_id": "a02823bf61455c374685942841fc29e0", "type": "electric_bike", "name": "a02823bf61455c374685942841fc29e0"}, {"is_disabled": 0, "is_reserved": 0, "fusion_lat": 0.0, "lat": 38.98722516666667, "fusion_lon": 0.0, "rental_uris": {"ios": "https://dc.lft.to/lastmile_qr_scan", "android": "https://dc.lft.to/lastmile_qr_scan"}, "lon": -77.03754216666667, "bike_id": "9fd9d0e3f16a42ab62dbe512c824acf8", "type": "electric_bike", "name": "9fd9d0e3f16a42ab62dbe512c824acf8"}, {"is_disabled": 0, "is_reserved": 0, "fusion_lat": 0.0, "lat": 38.84287616666667, "fusion_lon": 0.0, "rental_uris": {"ios": "https://dc.lft.to/lastmile_qr_scan", "android": "https://dc.lft.to/lastmile_qr_scan"}, "lon": -77.06374733333334, "bike_id": "ecf0b158828341a5bfa6af4a73ede2e1", "type": "electric_bike", "name": "ecf0b158828341a5bfa6af4a73ede2e1"}, {"is_disabled": 0, "is_reserved": 0, "fusion_lat": 0.0, "lat": 38.903490166666664, "fusion_lon": 0.0, "rental_uris": {"ios": "https://dc.lft.to/lastmile_qr_scan", "android": "https://dc.lft.to/lastmile_qr_scan"}, "lon": -76.98272266666666, "bike_id": "5d7c4d202a75210aa47c857bea37189b", "type": "electric_scooter", "name": "5d7c4d202a75210aa47c857bea37189b"}, {"is_disabled": 0, "is_reserved": 0, "fusion_lat": 0.0, "lat": 38.898422, "fusion_lon": 0.0, "rental_uris": {"ios": "https://dc.lft.to/lastmile_qr_scan", "android": "https://dc.lft.to/lastmile_qr_scan"}, "lon": -77.02190333333333, "bike_id": "e0a951ad30cd6dffa8cdc3c490090854", "type": "electric_scooter", "name": "e0a951ad30cd6dffa8cdc3c490090854"}, {"is_disabled": 0, "is_reserved": 0, "fusion_lat": 0.0, "lat": 38.93413833333334, "fusion_lon": 0.0, "rental_uris": {"ios": "https://dc.lft.to/lastmile_qr_scan", "android": "https://dc.lft.to/lastmile_qr_scan"}, "lon": -77.02517216666666, "bike_id": "aa241762949e24e1b13b0e458f1b6ec3", "type": "electric_bike", "name": "aa241762949e24e1b13b0e458f1b6ec3"}, {"is_disabled": 0, "is_reserved": 0, "fusion_lat": 0.0, "lat": 38.888876833333335, "fusion_lon": 0.0, "rental_uris": {"ios": "https://dc.lft.to/lastmile_qr_scan", "android": "https://dc.lft.to/lastmile_qr_scan"}, "lon": -77.03319583333334, "bike_id": "0f27e8321780e5b4269bddd85b45b461", "type": "electric_scooter", "name": "0f27e8321780e5b4269bddd85b45b461"}, {"is_disabled": 0, "is_reserved": 0, "fusion_lat": 0.0, "lat": 38.8813945, "fusion_lon": 0.0, "rental_uris": {"ios": "https://dc.lft.to/lastmile_qr_scan", "android": "https://dc.lft.to/lastmile_qr_scan"}, "lon": -77.0270275, "bike_id": "74871b73fc634e6ac19a20d1ab2934f6", "type": "electric_scooter", "name": "74871b73fc634e6ac19a20d1ab2934f6"}, {"is_disabled": 0, "is_reserved": 0, "fusion_lat": 0.0, "lat": 38.920735666666666, "fusion_lon": 0.0, "rental_uris": {"ios": "https://dc.lft.to/lastmile_qr_scan", "android": "https://dc.lft.to/lastmile_qr_scan"}, "lon": -77.0436055, "bike_id": "d55b9612ed6b9487fd450b61f9e07cfa", "type": "electric_scooter", "name": "d55b9612ed6b9487fd450b61f9e07cfa"}, {"is_disabled": 0, "is_reserved": 0, "fusion_lat": 0.0, "lat": 38.91568916666667, "fusion_lon": 0.0, "rental_uris": {"ios": "https://dc.lft.to/lastmile_qr_scan", "android": "https://dc.lft.to/lastmile_qr_scan"}, "lon": -77.03955766666667, "bike_id": "219227d473c9239cac13e600c1458e06", "type": "electric_scooter", "name": "219227d473c9239cac13e600c1458e06"}, {"is_disabled": 0, "is_reserved": 0, "fusion_lat": 0.0, "lat": 38.91711316666667, "fusion_lon": 0.0, "rental_uris": {"ios": "https://dc.lft.to/lastmile_qr_scan", "android": "https://dc.lft.to/lastmile_qr_scan"}, "lon": -77.04123416666667, "bike_id": "2baa65c2127c79a71bb26061b5a41f88", "type": "electric_scooter", "name": "2baa65c2127c79a71bb26061b5a41f88"}, {"is_disabled": 0, "is_reserved": 0, "fusion_lat": 0.0, "lat": 38.931537666666664, "fusion_lon": 0.0, "rental_uris": {"ios": "https://dc.lft.to/lastmile_qr_scan", "android": "https://dc.lft.to/lastmile_qr_scan"}, "lon": -77.02365, "bike_id": "41312c152b200f13c80bf87bdd5a5292", "type": "electric_scooter", "name": "41312c152b200f13c80bf87bdd5a5292"}, {"is_disabled": 0, "is_reserved": 0, "fusion_lat": 0.0, "lat": 38.87719166666667, "fusion_lon": 0.0, "rental_uris": {"ios": "https://dc.lft.to/lastmile_qr_scan", "android": "https://dc.lft.to/lastmile_qr_scan"}, "lon": -77.0067675, "bike_id": "e24cfed13fc9d2f92c0601c9ee120216", "type": "electric_scooter", "name": "e24cfed13fc9d2f92c0601c9ee120216"}, {"is_disabled": 0, "is_reserved": 0, "fusion_lat": 0.0, "lat": 38.93453083333333, "fusion_lon": 0.0, "rental_uris": {"ios": "https://dc.lft.to/lastmile_qr_scan", "android": "https://dc.lft.to/lastmile_qr_scan"}, "lon": -77.02977566666667, "bike_id": "48e106715c066125f444b110c5e7b478", "type": "electric_scooter", "name": "48e106715c066125f444b110c5e7b478"}, {"is_disabled": 0, "is_reserved": 0, "fusion_lat": 0.0, "lat": 38.91705316666667, "fusion_lon": 0.0, "rental_uris": {"ios": "https://dc.lft.to/lastmile_qr_scan", "android": "https://dc.lft.to/lastmile_qr_scan"}, "lon": -77.03464683333333, "bike_id": "c9c43bf98030c1bcafb79537ba7ae004", "type": "electric_scooter", "name": "c9c43bf98030c1bcafb79537ba7ae004"}, {"is_disabled": 0, "is_reserved": 0, "fusion_lat": 0.0, "lat": 38.898179, "fusion_lon": 0.0, "rental_uris": {"ios": "https://dc.lft.to/lastmile_qr_scan", "android": "https://dc.lft.to/lastmile_qr_scan"}, "lon": -77.02937783333333, "bike_id": "8485289decb3be81b94d097a4a5166dd", "type": "electric_scooter", "name": "8485289decb3be81b94d097a4a5166dd"}, {"is_disabled": 0, "is_reserved": 0, "fusion_lat": 0.0, "lat": 38.9279295, "fusion_lon": 0.0, "rental_uris": {"ios": "https://dc.lft.to/lastmile_qr_scan", "android": "https://dc.lft.to/lastmile_qr_scan"}, "lon": -77.0558635, "bike_id": "73708ddf505d0e53da8eb56dd5e893d7", "type": "electric_scooter", "name": "73708ddf505d0e53da8eb56dd5e893d7"}, {"is_disabled": 0, "is_reserved": 0, "fusion_lat": 0.0, "lat": 38.93659016666667, "fusion_lon": 0.0, "rental_uris": {"ios": "https://dc.lft.to/lastmile_qr_scan", "android": "https://dc.lft.to/lastmile_qr_scan"}, "lon": -77.066023, "bike_id": "d56434f67b1a518a66ce15429eb1a4a7", "type": "electric_scooter", "name": "d56434f67b1a518a66ce15429eb1a4a7"}, {"is_disabled": 0, "is_reserved": 0, "fusion_lat": 0.0, "lat": 38.882623333333335, "fusion_lon": 0.0, "rental_uris": {"ios": "https://dc.lft.to/lastmile_qr_scan", "android": "https://dc.lft.to/lastmile_qr_scan"}, "lon": -77.0006605, "bike_id": "98eb6089e948a26d50637a87a1f0914f", "type": "electric_scooter", "name": "98eb6089e948a26d50637a87a1f0914f"}, {"is_disabled": 0, "is_reserved": 0, "fusion_lat": 0.0, "lat": 38.9312005, "fusion_lon": 0.0, "rental_uris": {"ios": "https://dc.lft.to/lastmile_qr_scan", "android": "https://dc.lft.to/lastmile_qr_scan"}, "lon": -77.02069633333333, "bike_id": "03338f45b7f9f1c481ac116bc25574f3", "type": "electric_scooter", "name": "03338f45b7f9f1c481ac116bc25574f3"}, {"is_disabled": 0, "is_reserved": 0, "fusion_lat": 0.0, "lat": 38.92152333333333, "fusion_lon": 0.0, "rental_uris": {"ios": "https://dc.lft.to/lastmile_qr_scan", "android": "https://dc.lft.to/lastmile_qr_scan"}, "lon": -77.03436633333334, "bike_id": "d9a1bcd1fa56a0583fd8b6c87336aba6", "type": "electric_scooter", "name": "d9a1bcd1fa56a0583fd8b6c87336aba6"}, {"is_disabled": 0, "is_reserved": 0, "fusion_lat": 0.0, "lat": 38.9215145, "fusion_lon": 0.0, "rental_uris": {"ios": "https://dc.lft.to/lastmile_qr_scan", "android": "https://dc.lft.to/lastmile_qr_scan"}, "lon": -77.03876733333334, "bike_id": "fdba30fc66a7df42b6449eb098541b11", "type": "electric_scooter", "name": "fdba30fc66a7df42b6449eb098541b11"}, {"is_disabled": 0, "is_reserved": 0, "fusion_lat": 0.0, "lat": 38.930572166666664, "fusion_lon": 0.0, "rental_uris": {"ios": "https://dc.lft.to/lastmile_qr_scan", "android": "https://dc.lft.to/lastmile_qr_scan"}, "lon": -77.0403815, "bike_id": "d65a18f58941e12f9e85da62ebac97ba", "type": "electric_scooter", "name": "d65a18f58941e12f9e85da62ebac97ba"}, {"is_disabled": 0, "is_reserved": 0, "fusion_lat": 0.0, "lat": 38.88374483333333, "fusion_lon": 0.0, "rental_uris": {"ios": "https://dc.lft.to/lastmile_qr_scan", "android": "https://dc.lft.to/lastmile_qr_scan"}, "lon": -77.01971683333333, "bike_id": "394203d710040c3bac5b6bde05c28807", "type": "electric_scooter", "name": "394203d710040c3bac5b6bde05c28807"}, {"is_disabled": 0, "is_reserved": 0, "fusion_lat": 0.0, "lat": 38.9255085, "fusion_lon": 0.0, "rental_uris": {"ios": "https://dc.lft.to/lastmile_qr_scan", "android": "https://dc.lft.to/lastmile_qr_scan"}, "lon": -77.00322783333333, "bike_id": "3a415ee5b2dd47327e9fe81f4b2a271f", "type": "electric_scooter", "name": "3a415ee5b2dd47327e9fe81f4b2a271f"}, {"is_disabled": 0, "is_reserved": 0, "fusion_lat": 0.0, "lat": 38.87476783333334, "fusion_lon": 0.0, "rental_uris": {"ios": "https://dc.lft.to/lastmile_qr_scan", "android": "https://dc.lft.to/lastmile_qr_scan"}, "lon": -77.01067016666667, "bike_id": "a2cd4a29021630286405f15b103aceb8", "type": "electric_scooter", "name": "a2cd4a29021630286405f15b103aceb8"}, {"is_disabled": 0, "is_reserved": 0, "fusion_lat": 0.0, "lat": 38.92251133333333, "fusion_lon": 0.0, "rental_uris": {"ios": "https://dc.lft.to/lastmile_qr_scan", "android": "https://dc.lft.to/lastmile_qr_scan"}, "lon": -77.0347085, "bike_id": "784e2f39c1a2c3d2ba2d8f78e22d1875", "type": "electric_scooter", "name": "784e2f39c1a2c3d2ba2d8f78e22d1875"}, {"is_disabled": 0, "is_reserved": 0, "fusion_lat": 0.0, "lat": 38.9117075, "fusion_lon": 0.0, "rental_uris": {"ios": "https://dc.lft.to/lastmile_qr_scan", "android": "https://dc.lft.to/lastmile_qr_scan"}, "lon": -77.00273116666666, "bike_id": "fc79dbfc62c3beda2fd0b84223463469", "type": "electric_bike", "name": "fc79dbfc62c3beda2fd0b84223463469"}, {"is_disabled": 0, "is_reserved": 0, "fusion_lat": 0.0, "lat": 38.94101833333333, "fusion_lon": 0.0, "rental_uris": {"ios": "https://dc.lft.to/lastmile_qr_scan", "android": "https://dc.lft.to/lastmile_qr_scan"}, "lon": -77.03281483333333, "bike_id": "70065c0bbb7a4802113faa851c5d698b", "type": "electric_scooter", "name": "70065c0bbb7a4802113faa851c5d698b"}, {"is_disabled": 0, "is_reserved": 0, "fusion_lat": 0.0, "lat": 38.879962, "fusion_lon": 0.0, "rental_uris": {"ios": "https://dc.lft.to/lastmile_qr_scan", "android": "https://dc.lft.to/lastmile_qr_scan"}, "lon": -77.03737433333333, "bike_id": "b673acffce7452fbd54465f0c2f2b319", "type": "electric_scooter", "name": "b673acffce7452fbd54465f0c2f2b319"}, {"is_disabled": 0, "is_reserved": 0, "fusion_lat": 0.0, "lat": 38.91823316666667, "fusion_lon": 0.0, "rental_uris": {"ios": "https://dc.lft.to/lastmile_qr_scan", "android": "https://dc.lft.to/lastmile_qr_scan"}, "lon": -77.03996466666666, "bike_id": "52b32986b20180f660f5a6c96c19a128", "type": "electric_scooter", "name": "52b32986b20180f660f5a6c96c19a128"}, {"is_disabled": 0, "is_reserved": 0, "fusion_lat": 0.0, "lat": 38.918168333333334, "fusion_lon": 0.0, "rental_uris": {"ios": "https://dc.lft.to/lastmile_qr_scan", "android": "https://dc.lft.to/lastmile_qr_scan"}, "lon": -77.03196733333333, "bike_id": "aac749f7d667e5ea9b5f6bb96918f701", "type": "electric_scooter", "name": "aac749f7d667e5ea9b5f6bb96918f701"}, {"is_disabled": 0, "is_reserved": 0, "fusion_lat": 0.0, "lat": 38.83865466666666, "fusion_lon": 0.0, "rental_uris": {"ios": "https://dc.lft.to/lastmile_qr_scan", "android": "https://dc.lft.to/lastmile_qr_scan"}, "lon": -76.996951, "bike_id": "63814ce63a4b61b13eca93404c944831", "type": "electric_bike", "name": "63814ce63a4b61b13eca93404c944831"}, {"is_disabled": 0, "is_reserved": 0, "fusion_lat": 0.0, "lat": 38.92316366666667, "fusion_lon": 0.0, "rental_uris": {"ios": "https://dc.lft.to/lastmile_qr_scan", "android": "https://dc.lft.to/lastmile_qr_scan"}, "lon": -77.03919216666667, "bike_id": "f33152e4974583e22d83a98b62d29036", "type": "electric_scooter", "name": "f33152e4974583e22d83a98b62d29036"}, {"is_disabled": 0, "is_reserved": 0, "fusion_lat": 0.0, "lat": 38.906813666666665, "fusion_lon": 0.0, "rental_uris": {"ios": "https://dc.lft.to/lastmile_qr_scan", "android": "https://dc.lft.to/lastmile_qr_scan"}, "lon": -76.97931733333333, "bike_id": "9f22de5b2c9da1f8cc9651153028dff8", "type": "electric_scooter", "name": "9f22de5b2c9da1f8cc9651153028dff8"}, {"is_disabled": 0, "is_reserved": 0, "fusion_lat": 0.0, "lat": 38.902242, "fusion_lon": 0.0, "rental_uris": {"ios": "https://dc.lft.to/lastmile_qr_scan", "android": "https://dc.lft.to/lastmile_qr_scan"}, "lon": -76.93170333333333, "bike_id": "dccf542681f976a187fe48f0a5e5de75", "type": "electric_bike", "name": "dccf542681f976a187fe48f0a5e5de75"}, {"is_disabled": 0, "is_reserved": 0, "fusion_lat": 0.0, "lat": 38.90794666666667, "fusion_lon": 0.0, "rental_uris": {"ios": "https://dc.lft.to/lastmile_qr_scan", "android": "https://dc.lft.to/lastmile_qr_scan"}, "lon": -77.00234833333333, "bike_id": "2e407f4947f196125086a9667fff35ef", "type": "electric_scooter", "name": "2e407f4947f196125086a9667fff35ef"}, {"is_disabled": 0, "is_reserved": 0, "fusion_lat": 0.0, "lat": 38.9182095, "fusion_lon": 0.0, "rental_uris": {"ios": "https://dc.lft.to/lastmile_qr_scan", "android": "https://dc.lft.to/lastmile_qr_scan"}, "lon": -77.04004566666667, "bike_id": "e48bca63e81b325083625efc1d1d60ce", "type": "electric_scooter", "name": "e48bca63e81b325083625efc1d1d60ce"}, {"is_disabled": 0, "is_reserved": 0, "fusion_lat": 0.0, "lat": 38.878027333333335, "fusion_lon": 0.0, "rental_uris": {"ios": "https://dc.lft.to/lastmile_qr_scan", "android": "https://dc.lft.to/lastmile_qr_scan"}, "lon": -77.0012445, "bike_id": "7bd4097ba0c4b228701cdb119d15b9c5", "type": "electric_scooter", "name": "7bd4097ba0c4b228701cdb119d15b9c5"}, {"is_disabled": 0, "is_reserved": 0, "fusion_lat": 0.0, "lat": 38.88357633333333, "fusion_lon": 0.0, "rental_uris": {"ios": "https://dc.lft.to/lastmile_qr_scan", "android": "https://dc.lft.to/lastmile_qr_scan"}, "lon": -76.927908, "bike_id": "983d018b0ef9934f23aaeddd90269535", "type": "electric_scooter", "name": "983d018b0ef9934f23aaeddd90269535"}, {"is_disabled": 0, "is_reserved": 0, "fusion_lat": 0.0, "lat": 38.91836816666667, "fusion_lon": 0.0, "rental_uris": {"ios": "https://dc.lft.to/lastmile_qr_scan", "android": "https://dc.lft.to/lastmile_qr_scan"}, "lon": -77.04165516666667, "bike_id": "c44ae85115d0c81f6b01dcf1d3af13bd", "type": "electric_scooter", "name": "c44ae85115d0c81f6b01dcf1d3af13bd"}, {"is_disabled": 0, "is_reserved": 0, "fusion_lat": 0.0, "lat": 38.923363, "fusion_lon": 0.0, "rental_uris": {"ios": "https://dc.lft.to/lastmile_qr_scan", "android": "https://dc.lft.to/lastmile_qr_scan"}, "lon": -77.05681516666667, "bike_id": "9570764807fffe2c309ee8338e003489", "type": "electric_scooter", "name": "9570764807fffe2c309ee8338e003489"}, {"is_disabled": 0, "is_reserved": 0, "fusion_lat": 0.0, "lat": 38.922385166666665, "fusion_lon": 0.0, "rental_uris": {"ios": "https://dc.lft.to/lastmile_qr_scan", "android": "https://dc.lft.to/lastmile_qr_scan"}, "lon": -77.02714666666667, "bike_id": "1af71273e157b34f973d8d14480db5e5", "type": "electric_scooter", "name": "1af71273e157b34f973d8d14480db5e5"}, {"is_disabled": 0, "is_reserved": 0, "fusion_lat": 0.0, "lat": 38.918389166666664, "fusion_lon": 0.0, "rental_uris": {"ios": "https://dc.lft.to/lastmile_qr_scan", "android": "https://dc.lft.to/lastmile_qr_scan"}, "lon": -77.0390945, "bike_id": "dd4b1c845ee3a06ff968fd5e2b8c138b", "type": "electric_scooter", "name": "dd4b1c845ee3a06ff968fd5e2b8c138b"}, {"is_disabled": 0, "is_reserved": 0, "fusion_lat": 0.0, "lat": 38.92386, "fusion_lon": 0.0, "rental_uris": {"ios": "https://dc.lft.to/lastmile_qr_scan", "android": "https://dc.lft.to/lastmile_qr_scan"}, "lon": -77.0258775, "bike_id": "22e3779b237b220c54472415b9d2caa4", "type": "electric_scooter", "name": "22e3779b237b220c54472415b9d2caa4"}, {"is_disabled": 0, "is_reserved": 0, "fusion_lat": 0.0, "lat": 38.90454966666667, "fusion_lon": 0.0, "rental_uris": {"ios": "https://dc.lft.to/lastmile_qr_scan", "android": "https://dc.lft.to/lastmile_qr_scan"}, "lon": -77.04866266666667, "bike_id": "0de85f2304abd86f24cd7d0f096f8a4c", "type": "electric_scooter", "name": "0de85f2304abd86f24cd7d0f096f8a4c"}, {"is_disabled": 0, "is_reserved": 0, "fusion_lat": 0.0, "lat": 38.928712166666664, "fusion_lon": 0.0, "rental_uris": {"ios": "https://dc.lft.to/lastmile_qr_scan", "android": "https://dc.lft.to/lastmile_qr_scan"}, "lon": -77.078915, "bike_id": "8ad54951716b26b2ea48b164a5adbcda", "type": "electric_scooter", "name": "8ad54951716b26b2ea48b164a5adbcda"}, {"is_disabled": 0, "is_reserved": 0, "fusion_lat": 0.0, "lat": 38.91711183333334, "fusion_lon": 0.0, "rental_uris": {"ios": "https://dc.lft.to/lastmile_qr_scan", "android": "https://dc.lft.to/lastmile_qr_scan"}, "lon": -77.03867733333334, "bike_id": "41d43ade803b3cdff854525eb6ee786d", "type": "electric_scooter", "name": "41d43ade803b3cdff854525eb6ee786d"}, {"is_disabled": 0, "is_reserved": 0, "fusion_lat": 0.0, "lat": 38.875598833333335, "fusion_lon": 0.0, "rental_uris": {"ios": "https://dc.lft.to/lastmile_qr_scan", "android": "https://dc.lft.to/lastmile_qr_scan"}, "lon": -77.00598333333333, "bike_id": "6804fc6a1b1852d96bd1e0e3cf17b251", "type": "electric_scooter", "name": "6804fc6a1b1852d96bd1e0e3cf17b251"}, {"is_disabled": 0, "is_reserved": 0, "fusion_lat": 0.0, "lat": 38.93715916666667, "fusion_lon": 0.0, "rental_uris": {"ios": "https://dc.lft.to/lastmile_qr_scan", "android": "https://dc.lft.to/lastmile_qr_scan"}, "lon": -77.02378116666667, "bike_id": "dc687a993f68f52e6af614247d4bfccc", "type": "electric_scooter", "name": "dc687a993f68f52e6af614247d4bfccc"}, {"is_disabled": 0, "is_reserved": 0, "fusion_lat": 0.0, "lat": 38.93638333333333, "fusion_lon": 0.0, "rental_uris": {"ios": "https://dc.lft.to/lastmile_qr_scan", "android": "https://dc.lft.to/lastmile_qr_scan"}, "lon": -77.03662783333333, "bike_id": "8b51fa12fa8cffc65284c1ebdd24e1fc", "type": "electric_bike", "name": "8b51fa12fa8cffc65284c1ebdd24e1fc"}, {"is_disabled": 0, "is_reserved": 0, "fusion_lat": 0.0, "lat": 38.9183905, "fusion_lon": 0.0, "rental_uris": {"ios": "https://dc.lft.to/lastmile_qr_scan", "android": "https://dc.lft.to/lastmile_qr_scan"}, "lon": -77.0451695, "bike_id": "5ef9059179a7fc8878728900f8af8da6", "type": "electric_scooter", "name": "5ef9059179a7fc8878728900f8af8da6"}, {"is_disabled": 0, "is_reserved": 0, "fusion_lat": 0.0, "lat": 38.892526833333335, "fusion_lon": 0.0, "rental_uris": {"ios": "https://dc.lft.to/lastmile_qr_scan", "android": "https://dc.lft.to/lastmile_qr_scan"}, "lon": -77.04659066666666, "bike_id": "e1cc2ee79166c606bd2de97c364748e5", "type": "electric_scooter", "name": "e1cc2ee79166c606bd2de97c364748e5"}, {"is_disabled": 0, "is_reserved": 0, "fusion_lat": 0.0, "lat": 38.916701, "fusion_lon": 0.0, "rental_uris": {"ios": "https://dc.lft.to/lastmile_qr_scan", "android": "https://dc.lft.to/lastmile_qr_scan"}, "lon": -77.02710216666667, "bike_id": "18ddf309eff40244bdba6d13dd031b49", "type": "electric_scooter", "name": "18ddf309eff40244bdba6d13dd031b49"}, {"is_disabled": 0, "is_reserved": 0, "fusion_lat": 0.0, "lat": 38.93605933333333, "fusion_lon": 0.0, "rental_uris": {"ios": "https://dc.lft.to/lastmile_qr_scan", "android": "https://dc.lft.to/lastmile_qr_scan"}, "lon": -77.03775916666666, "bike_id": "655a41825a42922d23b156797cebf7c5", "type": "electric_scooter", "name": "655a41825a42922d23b156797cebf7c5"}, {"is_disabled": 0, "is_reserved": 0, "fusion_lat": 0.0, "lat": 38.93357116666667, "fusion_lon": 0.0, "rental_uris": {"ios": "https://dc.lft.to/lastmile_qr_scan", "android": "https://dc.lft.to/lastmile_qr_scan"}, "lon": -77.02407883333333, "bike_id": "f9129ee5531e69bc769db259f7999def", "type": "electric_scooter", "name": "f9129ee5531e69bc769db259f7999def"}, {"is_disabled": 0, "is_reserved": 0, "fusion_lat": 0.0, "lat": 38.905233333333335, "fusion_lon": 0.0, "rental_uris": {"ios": "https://dc.lft.to/lastmile_qr_scan", "android": "https://dc.lft.to/lastmile_qr_scan"}, "lon": -77.02954933333334, "bike_id": "878669ca75dc50b47d5d28b07af158d6", "type": "electric_scooter", "name": "878669ca75dc50b47d5d28b07af158d6"}, {"is_disabled": 0, "is_reserved": 0, "fusion_lat": 0.0, "lat": 38.93661266666667, "fusion_lon": 0.0, "rental_uris": {"ios": "https://dc.lft.to/lastmile_qr_scan", "android": "https://dc.lft.to/lastmile_qr_scan"}, "lon": -77.0660565, "bike_id": "764479ca2f07ec4483a3125aef594bd3", "type": "electric_scooter", "name": "764479ca2f07ec4483a3125aef594bd3"}, {"is_disabled": 0, "is_reserved": 0, "fusion_lat": 0.0, "lat": 38.89511866666667, "fusion_lon": 0.0, "rental_uris": {"ios": "https://dc.lft.to/lastmile_qr_scan", "android": "https://dc.lft.to/lastmile_qr_scan"}, "lon": -77.02288633333333, "bike_id": "d0f8a8f05a03b580171e86560a803657", "type": "electric_scooter", "name": "d0f8a8f05a03b580171e86560a803657"}, {"is_disabled": 0, "is_reserved": 0, "fusion_lat": 0.0, "lat": 38.90779283333333, "fusion_lon": 0.0, "rental_uris": {"ios": "https://dc.lft.to/lastmile_qr_scan", "android": "https://dc.lft.to/lastmile_qr_scan"}, "lon": -76.997041, "bike_id": "dc44aebf1df187dad98fabfc35d2bacd", "type": "electric_scooter", "name": "dc44aebf1df187dad98fabfc35d2bacd"}, {"is_disabled": 0, "is_reserved": 0, "fusion_lat": 0.0, "lat": 38.92975533333333, "fusion_lon": 0.0, "rental_uris": {"ios": "https://dc.lft.to/lastmile_qr_scan", "android": "https://dc.lft.to/lastmile_qr_scan"}, "lon": -77.0233945, "bike_id": "a223383e4ba381cdbae42781b1aa2522", "type": "electric_scooter", "name": "a223383e4ba381cdbae42781b1aa2522"}, {"is_disabled": 0, "is_reserved": 0, "fusion_lat": 0.0, "lat": 38.90127316666667, "fusion_lon": 0.0, "rental_uris": {"ios": "https://dc.lft.to/lastmile_qr_scan", "android": "https://dc.lft.to/lastmile_qr_scan"}, "lon": -76.997208, "bike_id": "a5bfb3b405df3f8a272e44fd201c9ce0", "type": "electric_scooter", "name": "a5bfb3b405df3f8a272e44fd201c9ce0"}, {"is_disabled": 0, "is_reserved": 0, "fusion_lat": 0.0, "lat": 38.936896, "fusion_lon": 0.0, "rental_uris": {"ios": "https://dc.lft.to/lastmile_qr_scan", "android": "https://dc.lft.to/lastmile_qr_scan"}, "lon": -77.03624516666666, "bike_id": "587e1f1bae31672f30ca1e07dfbea25e", "type": "electric_scooter", "name": "587e1f1bae31672f30ca1e07dfbea25e"}, {"is_disabled": 0, "is_reserved": 0, "fusion_lat": 0.0, "lat": 38.91017166666666, "fusion_lon": 0.0, "rental_uris": {"ios": "https://dc.lft.to/lastmile_qr_scan", "android": "https://dc.lft.to/lastmile_qr_scan"}, "lon": -77.03642633333334, "bike_id": "bc07f8dcc5f3aae006144f93f6a5848e", "type": "electric_scooter", "name": "bc07f8dcc5f3aae006144f93f6a5848e"}, {"is_disabled": 0, "is_reserved": 0, "fusion_lat": 0.0, "lat": 38.8917295, "fusion_lon": 0.0, "rental_uris": {"ios": "https://dc.lft.to/lastmile_qr_scan", "android": "https://dc.lft.to/lastmile_qr_scan"}, "lon": -77.01558916666667, "bike_id": "3740a7bfc14e922f23b72ab3bbd1d4d5", "type": "electric_scooter", "name": "3740a7bfc14e922f23b72ab3bbd1d4d5"}, {"is_disabled": 0, "is_reserved": 0, "fusion_lat": 0.0, "lat": 38.95363666666667, "fusion_lon": 0.0, "rental_uris": {"ios": "https://dc.lft.to/lastmile_qr_scan", "android": "https://dc.lft.to/lastmile_qr_scan"}, "lon": -76.94295416666667, "bike_id": "0b57511e6b0647dd1396e2c53f4e29ba", "type": "electric_bike", "name": "0b57511e6b0647dd1396e2c53f4e29ba"}, {"is_disabled": 0, "is_reserved": 0, "fusion_lat": 0.0, "lat": 38.89446133333333, "fusion_lon": 0.0, "rental_uris": {"ios": "https://dc.lft.to/lastmile_qr_scan", "android": "https://dc.lft.to/lastmile_qr_scan"}, "lon": -76.9799495, "bike_id": "cf1cc4f38f0680716f6a5e62365add1e", "type": "electric_scooter", "name": "cf1cc4f38f0680716f6a5e62365add1e"}, {"is_disabled": 0, "is_reserved": 0, "fusion_lat": 0.0, "lat": 38.939746666666665, "fusion_lon": 0.0, "rental_uris": {"ios": "https://dc.lft.to/lastmile_qr_scan", "android": "https://dc.lft.to/lastmile_qr_scan"}, "lon": -77.03429633333333, "bike_id": "e5b61c54f46075dbfaa96875f9fcae1c", "type": "electric_scooter", "name": "e5b61c54f46075dbfaa96875f9fcae1c"}, {"is_disabled": 0, "is_reserved": 0, "fusion_lat": 0.0, "lat": 38.83768366666666, "fusion_lon": 0.0, "rental_uris": {"ios": "https://dc.lft.to/lastmile_qr_scan", "android": "https://dc.lft.to/lastmile_qr_scan"}, "lon": -76.998583, "bike_id": "133712ff5d408d3ea81e48372e737aaa", "type": "electric_scooter", "name": "133712ff5d408d3ea81e48372e737aaa"}, {"is_disabled": 0, "is_reserved": 0, "fusion_lat": 0.0, "lat": 38.9034235, "fusion_lon": 0.0, "rental_uris": {"ios": "https://dc.lft.to/lastmile_qr_scan", "android": "https://dc.lft.to/lastmile_qr_scan"}, "lon": -76.97576316666667, "bike_id": "d2a9b76ec491fd0b403162c20fb16f88", "type": "electric_scooter", "name": "d2a9b76ec491fd0b403162c20fb16f88"}, {"is_disabled": 0, "is_reserved": 0, "fusion_lat": 0.0, "lat": 38.90615733333333, "fusion_lon": 0.0, "rental_uris": {"ios": "https://dc.lft.to/lastmile_qr_scan", "android": "https://dc.lft.to/lastmile_qr_scan"}, "lon": -77.04122133333334, "bike_id": "c2289d203fd4586f6ef6e56ea64c4ad3", "type": "electric_scooter", "name": "c2289d203fd4586f6ef6e56ea64c4ad3"}, {"is_disabled": 0, "is_reserved": 0, "fusion_lat": 0.0, "lat": 38.900744833333334, "fusion_lon": 0.0, "rental_uris": {"ios": "https://dc.lft.to/lastmile_qr_scan", "android": "https://dc.lft.to/lastmile_qr_scan"}, "lon": -77.0507945, "bike_id": "63edfb4c8a958ecb62c0dcd2ddd70e9d", "type": "electric_scooter", "name": "63edfb4c8a958ecb62c0dcd2ddd70e9d"}, {"is_disabled": 0, "is_reserved": 0, "fusion_lat": 0.0, "lat": 39.0038115, "fusion_lon": 0.0, "rental_uris": {"ios": "https://dc.lft.to/lastmile_qr_scan", "android": "https://dc.lft.to/lastmile_qr_scan"}, "lon": -77.012831, "bike_id": "794ebd8434beb192bc67f8cbf38ad9c0", "type": "electric_bike", "name": "794ebd8434beb192bc67f8cbf38ad9c0"}, {"is_disabled": 0, "is_reserved": 0, "fusion_lat": 0.0, "lat": 38.93145716666667, "fusion_lon": 0.0, "rental_uris": {"ios": "https://dc.lft.to/lastmile_qr_scan", "android": "https://dc.lft.to/lastmile_qr_scan"}, "lon": -77.07848816666667, "bike_id": "63d0e7b0478935b9563775ec484e8881", "type": "electric_scooter", "name": "63d0e7b0478935b9563775ec484e8881"}, {"is_disabled": 0, "is_reserved": 0, "fusion_lat": 0.0, "lat": 38.90967, "fusion_lon": 0.0, "rental_uris": {"ios": "https://dc.lft.to/lastmile_qr_scan", "android": "https://dc.lft.to/lastmile_qr_scan"}, "lon": -77.0481525, "bike_id": "ff9dd6810c0f48ece94c0934eaab866a", "type": "electric_scooter", "name": "ff9dd6810c0f48ece94c0934eaab866a"}, {"is_disabled": 0, "is_reserved": 0, "fusion_lat": 0.0, "lat": 38.90723116666667, "fusion_lon": 0.0, "rental_uris": {"ios": "https://dc.lft.to/lastmile_qr_scan", "android": "https://dc.lft.to/lastmile_qr_scan"}, "lon": -77.03542966666667, "bike_id": "7a569d48d1d1d888610d92f04b3415da", "type": "electric_scooter", "name": "7a569d48d1d1d888610d92f04b3415da"}, {"is_disabled": 0, "is_reserved": 0, "fusion_lat": 0.0, "lat": 38.899024, "fusion_lon": 0.0, "rental_uris": {"ios": "https://dc.lft.to/lastmile_qr_scan", "android": "https://dc.lft.to/lastmile_qr_scan"}, "lon": -76.989609, "bike_id": "7215b92b916101bfd1ebdaea3e338505", "type": "electric_bike", "name": "7215b92b916101bfd1ebdaea3e338505"}, {"is_disabled": 0, "is_reserved": 0, "fusion_lat": 0.0, "lat": 38.89265616666667, "fusion_lon": 0.0, "rental_uris": {"ios": "https://dc.lft.to/lastmile_qr_scan", "android": "https://dc.lft.to/lastmile_qr_scan"}, "lon": -77.04199616666666, "bike_id": "e782a39cd9f88465fcfbafcf06ce6d57", "type": "electric_scooter", "name": "e782a39cd9f88465fcfbafcf06ce6d57"}, {"is_disabled": 0, "is_reserved": 0, "fusion_lat": 0.0, "lat": 38.996715333333334, "fusion_lon": 0.0, "rental_uris": {"ios": "https://dc.lft.to/lastmile_qr_scan", "android": "https://dc.lft.to/lastmile_qr_scan"}, "lon": -77.03799233333334, "bike_id": "ba9fbbd2b71a6a6ed5ee63d89993c55d", "type": "electric_bike", "name": "ba9fbbd2b71a6a6ed5ee63d89993c55d"}, {"is_disabled": 0, "is_reserved": 0, "fusion_lat": 0.0, "lat": 38.90884766666667, "fusion_lon": 0.0, "rental_uris": {"ios": "https://dc.lft.to/lastmile_qr_scan", "android": "https://dc.lft.to/lastmile_qr_scan"}, "lon": -77.043371, "bike_id": "f74dc0aa6e81f81e1c8dead60ff5a83e", "type": "electric_scooter", "name": "f74dc0aa6e81f81e1c8dead60ff5a83e"}, {"is_disabled": 0, "is_reserved": 0, "fusion_lat": 0.0, "lat": 38.91271533333333, "fusion_lon": 0.0, "rental_uris": {"ios": "https://dc.lft.to/lastmile_qr_scan", "android": "https://dc.lft.to/lastmile_qr_scan"}, "lon": -77.0223, "bike_id": "6995c924734a5e28d34648a45a6f94a7", "type": "electric_scooter", "name": "6995c924734a5e28d34648a45a6f94a7"}, {"is_disabled": 0, "is_reserved": 0, "fusion_lat": 0.0, "lat": 38.923830333333335, "fusion_lon": 0.0, "rental_uris": {"ios": "https://dc.lft.to/lastmile_qr_scan", "android": "https://dc.lft.to/lastmile_qr_scan"}, "lon": -77.04017383333333, "bike_id": "a230701fc89d90c5ec91138cb4ab47db", "type": "electric_scooter", "name": "a230701fc89d90c5ec91138cb4ab47db"}, {"is_disabled": 0, "is_reserved": 0, "fusion_lat": 0.0, "lat": 38.90723883333333, "fusion_lon": 0.0, "rental_uris": {"ios": "https://dc.lft.to/lastmile_qr_scan", "android": "https://dc.lft.to/lastmile_qr_scan"}, "lon": -77.03068216666667, "bike_id": "08265fa2adc287fb82b704e0282e37b0", "type": "electric_scooter", "name": "08265fa2adc287fb82b704e0282e37b0"}, {"is_disabled": 0, "is_reserved": 0, "fusion_lat": 0.0, "lat": 38.9286715, "fusion_lon": 0.0, "rental_uris": {"ios": "https://dc.lft.to/lastmile_qr_scan", "android": "https://dc.lft.to/lastmile_qr_scan"}, "lon": -77.07337816666667, "bike_id": "913a347f8fed6812fde23602cb8b6223", "type": "electric_scooter", "name": "913a347f8fed6812fde23602cb8b6223"}, {"is_disabled": 0, "is_reserved": 0, "fusion_lat": 0.0, "lat": 38.946358000000004, "fusion_lon": 0.0, "rental_uris": {"ios": "https://dc.lft.to/lastmile_qr_scan", "android": "https://dc.lft.to/lastmile_qr_scan"}, "lon": -77.0183935, "bike_id": "a03a624c05d19f8b846f456856ed0097", "type": "electric_scooter", "name": "a03a624c05d19f8b846f456856ed0097"}, {"is_disabled": 0, "is_reserved": 0, "fusion_lat": 0.0, "lat": 38.951065166666666, "fusion_lon": 0.0, "rental_uris": {"ios": "https://dc.lft.to/lastmile_qr_scan", "android": "https://dc.lft.to/lastmile_qr_scan"}, "lon": -77.01578216666667, "bike_id": "dbccb768c671129cd6349ad0a2e86692", "type": "electric_scooter", "name": "dbccb768c671129cd6349ad0a2e86692"}, {"is_disabled": 0, "is_reserved": 0, "fusion_lat": 0.0, "lat": 38.917868666666664, "fusion_lon": 0.0, "rental_uris": {"ios": "https://dc.lft.to/lastmile_qr_scan", "android": "https://dc.lft.to/lastmile_qr_scan"}, "lon": -77.02311683333333, "bike_id": "1101f14ec2dcc2c55e5d2ef00482eb22", "type": "electric_scooter", "name": "1101f14ec2dcc2c55e5d2ef00482eb22"}, {"is_disabled": 0, "is_reserved": 0, "fusion_lat": 0.0, "lat": 38.9459065, "fusion_lon": 0.0, "rental_uris": {"ios": "https://dc.lft.to/lastmile_qr_scan", "android": "https://dc.lft.to/lastmile_qr_scan"}, "lon": -77.02032983333334, "bike_id": "90ff76b7fc06eb40523dc6071623cd1f", "type": "electric_scooter", "name": "90ff76b7fc06eb40523dc6071623cd1f"}, {"is_disabled": 0, "is_reserved": 0, "fusion_lat": 0.0, "lat": 38.92091383333333, "fusion_lon": 0.0, "rental_uris": {"ios": "https://dc.lft.to/lastmile_qr_scan", "android": "https://dc.lft.to/lastmile_qr_scan"}, "lon": -77.017958, "bike_id": "2c3c9615edc4e8a0362137c5c13f5548", "type": "electric_scooter", "name": "2c3c9615edc4e8a0362137c5c13f5548"}, {"is_disabled": 0, "is_reserved": 0, "fusion_lat": 0.0, "lat": 38.92840183333333, "fusion_lon": 0.0, "rental_uris": {"ios": "https://dc.lft.to/lastmile_qr_scan", "android": "https://dc.lft.to/lastmile_qr_scan"}, "lon": -77.03730483333334, "bike_id": "f7ae1381ef139d1a815c77f797e5a5e7", "type": "electric_scooter", "name": "f7ae1381ef139d1a815c77f797e5a5e7"}, {"is_disabled": 0, "is_reserved": 0, "fusion_lat": 0.0, "lat": 38.95078133333333, "fusion_lon": 0.0, "rental_uris": {"ios": "https://dc.lft.to/lastmile_qr_scan", "android": "https://dc.lft.to/lastmile_qr_scan"}, "lon": -77.01200816666666, "bike_id": "4b4e47bbbb682d4824289a0a4b14b06e", "type": "electric_bike", "name": "4b4e47bbbb682d4824289a0a4b14b06e"}, {"is_disabled": 0, "is_reserved": 0, "fusion_lat": 0.0, "lat": 38.84864666666667, "fusion_lon": 0.0, "rental_uris": {"ios": "https://dc.lft.to/lastmile_qr_scan", "android": "https://dc.lft.to/lastmile_qr_scan"}, "lon": -77.0682855, "bike_id": "5c312f88f844edbf62f3e30f437da837", "type": "electric_bike", "name": "5c312f88f844edbf62f3e30f437da837"}, {"is_disabled": 0, "is_reserved": 0, "fusion_lat": 0.0, "lat": 38.92763266666667, "fusion_lon": 0.0, "rental_uris": {"ios": "https://dc.lft.to/lastmile_qr_scan", "android": "https://dc.lft.to/lastmile_qr_scan"}, "lon": -77.02881416666666, "bike_id": "a91abc01d74af071a97ee59ecd6ac42b", "type": "electric_scooter", "name": "a91abc01d74af071a97ee59ecd6ac42b"}, {"is_disabled": 0, "is_reserved": 0, "fusion_lat": 0.0, "lat": 38.87683233333333, "fusion_lon": 0.0, "rental_uris": {"ios": "https://dc.lft.to/lastmile_qr_scan", "android": "https://dc.lft.to/lastmile_qr_scan"}, "lon": -77.01444333333333, "bike_id": "45513eff6e88995e7e69940fe6988fd5", "type": "electric_bike", "name": "45513eff6e88995e7e69940fe6988fd5"}, {"is_disabled": 0, "is_reserved": 0, "fusion_lat": 0.0, "lat": 38.89739683333333, "fusion_lon": 0.0, "rental_uris": {"ios": "https://dc.lft.to/lastmile_qr_scan", "android": "https://dc.lft.to/lastmile_qr_scan"}, "lon": -76.99219683333334, "bike_id": "6f1017024061576e63f5e9c5b3a65099", "type": "electric_bike", "name": "6f1017024061576e63f5e9c5b3a65099"}, {"is_disabled": 0, "is_reserved": 0, "fusion_lat": 0.0, "lat": 38.935884, "fusion_lon": 0.0, "rental_uris": {"ios": "https://dc.lft.to/lastmile_qr_scan", "android": "https://dc.lft.to/lastmile_qr_scan"}, "lon": -77.02857733333333, "bike_id": "b8965fd2a49f686245f29cbb03d0a66c", "type": "electric_scooter", "name": "b8965fd2a49f686245f29cbb03d0a66c"}, {"is_disabled": 0, "is_reserved": 0, "fusion_lat": 0.0, "lat": 38.915573, "fusion_lon": 0.0, "rental_uris": {"ios": "https://dc.lft.to/lastmile_qr_scan", "android": "https://dc.lft.to/lastmile_qr_scan"}, "lon": -77.03175533333334, "bike_id": "23e84d9a36c44367d554d89c5107e4e0", "type": "electric_scooter", "name": "23e84d9a36c44367d554d89c5107e4e0"}, {"is_disabled": 0, "is_reserved": 0, "fusion_lat": 0.0, "lat": 38.919588, "fusion_lon": 0.0, "rental_uris": {"ios": "https://dc.lft.to/lastmile_qr_scan", "android": "https://dc.lft.to/lastmile_qr_scan"}, "lon": -77.07871116666666, "bike_id": "9db8bfc6337bd48a9790ad1b9912b9a3", "type": "electric_scooter", "name": "9db8bfc6337bd48a9790ad1b9912b9a3"}, {"is_disabled": 0, "is_reserved": 0, "fusion_lat": 0.0, "lat": 38.897213, "fusion_lon": 0.0, "rental_uris": {"ios": "https://dc.lft.to/lastmile_qr_scan", "android": "https://dc.lft.to/lastmile_qr_scan"}, "lon": -77.027843, "bike_id": "1183e14ce8de2d91caaf0bda7fe5ba73", "type": "electric_scooter", "name": "1183e14ce8de2d91caaf0bda7fe5ba73"}, {"is_disabled": 0, "is_reserved": 0, "fusion_lat": 0.0, "lat": 38.907990833333336, "fusion_lon": 0.0, "rental_uris": {"ios": "https://dc.lft.to/lastmile_qr_scan", "android": "https://dc.lft.to/lastmile_qr_scan"}, "lon": -77.00084466666667, "bike_id": "e27695182e6e1880c7ac958105300f3b", "type": "electric_scooter", "name": "e27695182e6e1880c7ac958105300f3b"}, {"is_disabled": 0, "is_reserved": 0, "fusion_lat": 0.0, "lat": 38.917127666666666, "fusion_lon": 0.0, "rental_uris": {"ios": "https://dc.lft.to/lastmile_qr_scan", "android": "https://dc.lft.to/lastmile_qr_scan"}, "lon": -77.03856533333334, "bike_id": "669955ac871a28c46cf10fedd234caa1", "type": "electric_scooter", "name": "669955ac871a28c46cf10fedd234caa1"}, {"is_disabled": 0, "is_reserved": 0, "fusion_lat": 0.0, "lat": 38.929081333333336, "fusion_lon": 0.0, "rental_uris": {"ios": "https://dc.lft.to/lastmile_qr_scan", "android": "https://dc.lft.to/lastmile_qr_scan"}, "lon": -77.03240233333334, "bike_id": "46375f188ed8c3d025787eea86513571", "type": "electric_scooter", "name": "46375f188ed8c3d025787eea86513571"}, {"is_disabled": 0, "is_reserved": 0, "fusion_lat": 0.0, "lat": 38.879321166666664, "fusion_lon": 0.0, "rental_uris": {"ios": "https://dc.lft.to/lastmile_qr_scan", "android": "https://dc.lft.to/lastmile_qr_scan"}, "lon": -77.0074375, "bike_id": "8b956214b37149c5b63d0d8305385d2c", "type": "electric_scooter", "name": "8b956214b37149c5b63d0d8305385d2c"}, {"is_disabled": 0, "is_reserved": 0, "fusion_lat": 0.0, "lat": 38.880387999999996, "fusion_lon": 0.0, "rental_uris": {"ios": "https://dc.lft.to/lastmile_qr_scan", "android": "https://dc.lft.to/lastmile_qr_scan"}, "lon": -76.927252, "bike_id": "e682485f5df8e659272a03c117d523bd", "type": "electric_scooter", "name": "e682485f5df8e659272a03c117d523bd"}, {"is_disabled": 0, "is_reserved": 0, "fusion_lat": 0.0, "lat": 38.93032616666667, "fusion_lon": 0.0, "rental_uris": {"ios": "https://dc.lft.to/lastmile_qr_scan", "android": "https://dc.lft.to/lastmile_qr_scan"}, "lon": -77.06079516666667, "bike_id": "efc56fc12d64f9cfcd48f04f25d55582", "type": "electric_scooter", "name": "efc56fc12d64f9cfcd48f04f25d55582"}, {"is_disabled": 0, "is_reserved": 0, "fusion_lat": 0.0, "lat": 38.914434666666665, "fusion_lon": 0.0, "rental_uris": {"ios": "https://dc.lft.to/lastmile_qr_scan", "android": "https://dc.lft.to/lastmile_qr_scan"}, "lon": -77.02285466666666, "bike_id": "63efc651e2727c54c37338db477f2840", "type": "electric_scooter", "name": "63efc651e2727c54c37338db477f2840"}, {"is_disabled": 0, "is_reserved": 0, "fusion_lat": 0.0, "lat": 38.931703166666665, "fusion_lon": 0.0, "rental_uris": {"ios": "https://dc.lft.to/lastmile_qr_scan", "android": "https://dc.lft.to/lastmile_qr_scan"}, "lon": -77.0281385, "bike_id": "6015db3e24aeeedc224d8d274dce1298", "type": "electric_scooter", "name": "6015db3e24aeeedc224d8d274dce1298"}, {"is_disabled": 0, "is_reserved": 0, "fusion_lat": 0.0, "lat": 38.90021016666667, "fusion_lon": 0.0, "rental_uris": {"ios": "https://dc.lft.to/lastmile_qr_scan", "android": "https://dc.lft.to/lastmile_qr_scan"}, "lon": -77.00203083333334, "bike_id": "2ba5537a56a403fe90683fb66804d137", "type": "electric_scooter", "name": "2ba5537a56a403fe90683fb66804d137"}, {"is_disabled": 0, "is_reserved": 0, "fusion_lat": 0.0, "lat": 38.87580616666666, "fusion_lon": 0.0, "rental_uris": {"ios": "https://dc.lft.to/lastmile_qr_scan", "android": "https://dc.lft.to/lastmile_qr_scan"}, "lon": -77.23409183333334, "bike_id": "4fbe249d397e4bcb448e08df16f979e9", "type": "electric_bike", "name": "4fbe249d397e4bcb448e08df16f979e9"}, {"is_disabled": 0, "is_reserved": 0, "fusion_lat": 0.0, "lat": 38.920464833333334, "fusion_lon": 0.0, "rental_uris": {"ios": "https://dc.lft.to/lastmile_qr_scan", "android": "https://dc.lft.to/lastmile_qr_scan"}, "lon": -77.047223, "bike_id": "bc2c636dbb8658f94b470b0ad970cb3a", "type": "electric_scooter", "name": "bc2c636dbb8658f94b470b0ad970cb3a"}, {"is_disabled": 0, "is_reserved": 0, "fusion_lat": 0.0, "lat": 38.870711, "fusion_lon": 0.0, "rental_uris": {"ios": "https://dc.lft.to/lastmile_qr_scan", "android": "https://dc.lft.to/lastmile_qr_scan"}, "lon": -76.97971966666667, "bike_id": "db60834ef6be3e277870a84d98b09d5b", "type": "electric_scooter", "name": "db60834ef6be3e277870a84d98b09d5b"}, {"is_disabled": 0, "is_reserved": 0, "fusion_lat": 0.0, "lat": 38.9492315, "fusion_lon": 0.0, "rental_uris": {"ios": "https://dc.lft.to/lastmile_qr_scan", "android": "https://dc.lft.to/lastmile_qr_scan"}, "lon": -77.0231855, "bike_id": "251c2d8ea995f093cd751ab87adf2712", "type": "electric_scooter", "name": "251c2d8ea995f093cd751ab87adf2712"}, {"is_disabled": 0, "is_reserved": 0, "fusion_lat": 0.0, "lat": 38.90491983333333, "fusion_lon": 0.0, "rental_uris": {"ios": "https://dc.lft.to/lastmile_qr_scan", "android": "https://dc.lft.to/lastmile_qr_scan"}, "lon": -76.94953666666666, "bike_id": "dde5b374d95499684de0bfbf2881d4e0", "type": "electric_scooter", "name": "dde5b374d95499684de0bfbf2881d4e0"}, {"is_disabled": 0, "is_reserved": 0, "fusion_lat": 0.0, "lat": 38.9390735, "fusion_lon": 0.0, "rental_uris": {"ios": "https://dc.lft.to/lastmile_qr_scan", "android": "https://dc.lft.to/lastmile_qr_scan"}, "lon": -77.07758583333333, "bike_id": "660a73ac165e137162c2d0e792694e18", "type": "electric_scooter", "name": "660a73ac165e137162c2d0e792694e18"}, {"is_disabled": 0, "is_reserved": 0, "fusion_lat": 0.0, "lat": 38.80771633333333, "fusion_lon": 0.0, "rental_uris": {"ios": "https://dc.lft.to/lastmile_qr_scan", "android": "https://dc.lft.to/lastmile_qr_scan"}, "lon": -77.057382, "bike_id": "ebfd195d5e4554cdfcf6981643f11e84", "type": "electric_bike", "name": "ebfd195d5e4554cdfcf6981643f11e84"}, {"is_disabled": 0, "is_reserved": 0, "fusion_lat": 0.0, "lat": 38.8961115, "fusion_lon": 0.0, "rental_uris": {"ios": "https://dc.lft.to/lastmile_qr_scan", "android": "https://dc.lft.to/lastmile_qr_scan"}, "lon": -77.045401, "bike_id": "0313fcc7acaf8855b8c56f82cfefda00", "type": "electric_scooter", "name": "0313fcc7acaf8855b8c56f82cfefda00"}, {"is_disabled": 0, "is_reserved": 0, "fusion_lat": 0.0, "lat": 38.866807333333334, "fusion_lon": 0.0, "rental_uris": {"ios": "https://dc.lft.to/lastmile_qr_scan", "android": "https://dc.lft.to/lastmile_qr_scan"}, "lon": -76.94855466666667, "bike_id": "bc9069fe234e68f011fb66be8b72ae6a", "type": "electric_scooter", "name": "bc9069fe234e68f011fb66be8b72ae6a"}, {"is_disabled": 0, "is_reserved": 0, "fusion_lat": 0.0, "lat": 38.9243835, "fusion_lon": 0.0, "rental_uris": {"ios": "https://dc.lft.to/lastmile_qr_scan", "android": "https://dc.lft.to/lastmile_qr_scan"}, "lon": -77.03402633333333, "bike_id": "aaca83dfd0ae4f1901da95e123e84cd7", "type": "electric_scooter", "name": "aaca83dfd0ae4f1901da95e123e84cd7"}, {"is_disabled": 0, "is_reserved": 0, "fusion_lat": 0.0, "lat": 38.857162333333335, "fusion_lon": 0.0, "rental_uris": {"ios": "https://dc.lft.to/lastmile_qr_scan", "android": "https://dc.lft.to/lastmile_qr_scan"}, "lon": -76.98094866666666, "bike_id": "ed9d7c21ace4bfe65ed67eb2f155a73e", "type": "electric_scooter", "name": "ed9d7c21ace4bfe65ed67eb2f155a73e"}, {"is_disabled": 0, "is_reserved": 0, "fusion_lat": 0.0, "lat": 38.90775416666666, "fusion_lon": 0.0, "rental_uris": {"ios": "https://dc.lft.to/lastmile_qr_scan", "android": "https://dc.lft.to/lastmile_qr_scan"}, "lon": -77.04235883333334, "bike_id": "24dbd81afd2503c7ec16f2faabd0b12e", "type": "electric_scooter", "name": "24dbd81afd2503c7ec16f2faabd0b12e"}, {"is_disabled": 0, "is_reserved": 0, "fusion_lat": 0.0, "lat": 38.87175466666667, "fusion_lon": 0.0, "rental_uris": {"ios": "https://dc.lft.to/lastmile_qr_scan", "android": "https://dc.lft.to/lastmile_qr_scan"}, "lon": -77.00621616666666, "bike_id": "b93b57e71642e31f7f9abd876c41a65f", "type": "electric_scooter", "name": "b93b57e71642e31f7f9abd876c41a65f"}, {"is_disabled": 0, "is_reserved": 0, "fusion_lat": 0.0, "lat": 38.8967715, "fusion_lon": 0.0, "rental_uris": {"ios": "https://dc.lft.to/lastmile_qr_scan", "android": "https://dc.lft.to/lastmile_qr_scan"}, "lon": -77.0546475, "bike_id": "bb652ce1e3328a537ed29fa9192579aa", "type": "electric_scooter", "name": "bb652ce1e3328a537ed29fa9192579aa"}, {"is_disabled": 0, "is_reserved": 0, "fusion_lat": 0.0, "lat": 38.93400066666667, "fusion_lon": 0.0, "rental_uris": {"ios": "https://dc.lft.to/lastmile_qr_scan", "android": "https://dc.lft.to/lastmile_qr_scan"}, "lon": -77.03539533333333, "bike_id": "28b35cf8ba34c0b5c7d2671fe267f865", "type": "electric_bike", "name": "28b35cf8ba34c0b5c7d2671fe267f865"}, {"is_disabled": 0, "is_reserved": 0, "fusion_lat": 0.0, "lat": 38.88482183333333, "fusion_lon": 0.0, "rental_uris": {"ios": "https://dc.lft.to/lastmile_qr_scan", "android": "https://dc.lft.to/lastmile_qr_scan"}, "lon": -77.02640666666667, "bike_id": "cc5d4241697491ae82a716ab732c083c", "type": "electric_scooter", "name": "cc5d4241697491ae82a716ab732c083c"}, {"is_disabled": 0, "is_reserved": 0, "fusion_lat": 0.0, "lat": 38.90580116666667, "fusion_lon": 0.0, "rental_uris": {"ios": "https://dc.lft.to/lastmile_qr_scan", "android": "https://dc.lft.to/lastmile_qr_scan"}, "lon": -77.0071135, "bike_id": "7bd8454f8e026778378614512a8d473c", "type": "electric_scooter", "name": "7bd8454f8e026778378614512a8d473c"}, {"is_disabled": 0, "is_reserved": 0, "fusion_lat": 0.0, "lat": 38.902629, "fusion_lon": 0.0, "rental_uris": {"ios": "https://dc.lft.to/lastmile_qr_scan", "android": "https://dc.lft.to/lastmile_qr_scan"}, "lon": -77.017578, "bike_id": "a94bfec05aa00a9a21cc79b530668557", "type": "electric_scooter", "name": "a94bfec05aa00a9a21cc79b530668557"}, {"is_disabled": 0, "is_reserved": 0, "fusion_lat": 0.0, "lat": 38.89751183333333, "fusion_lon": 0.0, "rental_uris": {"ios": "https://dc.lft.to/lastmile_qr_scan", "android": "https://dc.lft.to/lastmile_qr_scan"}, "lon": -77.02134783333334, "bike_id": "ec3092573d2e63147f9e36c6cd82baff", "type": "electric_scooter", "name": "ec3092573d2e63147f9e36c6cd82baff"}, {"is_disabled": 0, "is_reserved": 0, "fusion_lat": 0.0, "lat": 38.90062183333333, "fusion_lon": 0.0, "rental_uris": {"ios": "https://dc.lft.to/lastmile_qr_scan", "android": "https://dc.lft.to/lastmile_qr_scan"}, "lon": -76.98688766666666, "bike_id": "6fa19fd80d51a39982bd890e1cce43db", "type": "electric_scooter", "name": "6fa19fd80d51a39982bd890e1cce43db"}, {"is_disabled": 0, "is_reserved": 0, "fusion_lat": 0.0, "lat": 38.92329683333333, "fusion_lon": 0.0, "rental_uris": {"ios": "https://dc.lft.to/lastmile_qr_scan", "android": "https://dc.lft.to/lastmile_qr_scan"}, "lon": -77.07310066666666, "bike_id": "b9ff7d78222dba68dca4f14b6314e54f", "type": "electric_scooter", "name": "b9ff7d78222dba68dca4f14b6314e54f"}, {"is_disabled": 0, "is_reserved": 0, "fusion_lat": 0.0, "lat": 38.90891233333333, "fusion_lon": 0.0, "rental_uris": {"ios": "https://dc.lft.to/lastmile_qr_scan", "android": "https://dc.lft.to/lastmile_qr_scan"}, "lon": -77.043381, "bike_id": "97d7dac7fc7fad506f70523568490367", "type": "electric_scooter", "name": "97d7dac7fc7fad506f70523568490367"}, {"is_disabled": 0, "is_reserved": 0, "fusion_lat": 0.0, "lat": 38.918204333333335, "fusion_lon": 0.0, "rental_uris": {"ios": "https://dc.lft.to/lastmile_qr_scan", "android": "https://dc.lft.to/lastmile_qr_scan"}, "lon": -77.03440866666666, "bike_id": "3ebd3427cda40285d64ffb3fa145fee5", "type": "electric_scooter", "name": "3ebd3427cda40285d64ffb3fa145fee5"}, {"is_disabled": 0, "is_reserved": 0, "fusion_lat": 0.0, "lat": 38.913169333333336, "fusion_lon": 0.0, "rental_uris": {"ios": "https://dc.lft.to/lastmile_qr_scan", "android": "https://dc.lft.to/lastmile_qr_scan"}, "lon": -77.01431033333333, "bike_id": "cc2474af0303dc8edf59879fe570227d", "type": "electric_scooter", "name": "cc2474af0303dc8edf59879fe570227d"}, {"is_disabled": 0, "is_reserved": 0, "fusion_lat": 0.0, "lat": 38.80018783333333, "fusion_lon": 0.0, "rental_uris": {"ios": "https://dc.lft.to/lastmile_qr_scan", "android": "https://dc.lft.to/lastmile_qr_scan"}, "lon": -77.12998383333333, "bike_id": "b254c68b344b94d3f3936ea74b49f9c9", "type": "electric_bike", "name": "b254c68b344b94d3f3936ea74b49f9c9"}, {"is_disabled": 0, "is_reserved": 0, "fusion_lat": 0.0, "lat": 38.90568316666667, "fusion_lon": 0.0, "rental_uris": {"ios": "https://dc.lft.to/lastmile_qr_scan", "android": "https://dc.lft.to/lastmile_qr_scan"}, "lon": -77.00546333333334, "bike_id": "3ded2eeac2f8e2ce73da1c10f4008794", "type": "electric_scooter", "name": "3ded2eeac2f8e2ce73da1c10f4008794"}, {"is_disabled": 0, "is_reserved": 0, "fusion_lat": 0.0, "lat": 38.89931333333333, "fusion_lon": 0.0, "rental_uris": {"ios": "https://dc.lft.to/lastmile_qr_scan", "android": "https://dc.lft.to/lastmile_qr_scan"}, "lon": -77.03237216666666, "bike_id": "7ae0de912d1be7ff303e7f342a9fba19", "type": "electric_scooter", "name": "7ae0de912d1be7ff303e7f342a9fba19"}, {"is_disabled": 0, "is_reserved": 0, "fusion_lat": 0.0, "lat": 38.86268283333333, "fusion_lon": 0.0, "rental_uris": {"ios": "https://dc.lft.to/lastmile_qr_scan", "android": "https://dc.lft.to/lastmile_qr_scan"}, "lon": -77.08932133333333, "bike_id": "0b456e6911820ce8520f0c35f254ac4a", "type": "electric_bike", "name": "0b456e6911820ce8520f0c35f254ac4a"}, {"is_disabled": 0, "is_reserved": 0, "fusion_lat": 0.0, "lat": 38.9068055, "fusion_lon": 0.0, "rental_uris": {"ios": "https://dc.lft.to/lastmile_qr_scan", "android": "https://dc.lft.to/lastmile_qr_scan"}, "lon": -77.02704466666667, "bike_id": "e52645a621a3cbf3c7a30ee7ce97185c", "type": "electric_scooter", "name": "e52645a621a3cbf3c7a30ee7ce97185c"}, {"is_disabled": 0, "is_reserved": 0, "fusion_lat": 0.0, "lat": 38.925473, "fusion_lon": 0.0, "rental_uris": {"ios": "https://dc.lft.to/lastmile_qr_scan", "android": "https://dc.lft.to/lastmile_qr_scan"}, "lon": -77.0255875, "bike_id": "68c09d13a96f01880fc1598458c7ff07", "type": "electric_scooter", "name": "68c09d13a96f01880fc1598458c7ff07"}, {"is_disabled": 0, "is_reserved": 0, "fusion_lat": 0.0, "lat": 38.95591783333333, "fusion_lon": 0.0, "rental_uris": {"ios": "https://dc.lft.to/lastmile_qr_scan", "android": "https://dc.lft.to/lastmile_qr_scan"}, "lon": -77.02807566666667, "bike_id": "aa028a0d0f4b79cc0487200511756e15", "type": "electric_scooter", "name": "aa028a0d0f4b79cc0487200511756e15"}, {"is_disabled": 0, "is_reserved": 0, "fusion_lat": 0.0, "lat": 38.90731316666667, "fusion_lon": 0.0, "rental_uris": {"ios": "https://dc.lft.to/lastmile_qr_scan", "android": "https://dc.lft.to/lastmile_qr_scan"}, "lon": -77.0272415, "bike_id": "9ea997b07d6a1bb60b19e9f615ab42a3", "type": "electric_scooter", "name": "9ea997b07d6a1bb60b19e9f615ab42a3"}, {"is_disabled": 0, "is_reserved": 0, "fusion_lat": 0.0, "lat": 38.85794883333333, "fusion_lon": 0.0, "rental_uris": {"ios": "https://dc.lft.to/lastmile_qr_scan", "android": "https://dc.lft.to/lastmile_qr_scan"}, "lon": -77.09963116666667, "bike_id": "990516c0f71b3a85e054b616eb98aaa8", "type": "electric_bike", "name": "990516c0f71b3a85e054b616eb98aaa8"}, {"is_disabled": 0, "is_reserved": 0, "fusion_lat": 0.0, "lat": 38.951426166666664, "fusion_lon": 0.0, "rental_uris": {"ios": "https://dc.lft.to/lastmile_qr_scan", "android": "https://dc.lft.to/lastmile_qr_scan"}, "lon": -76.96617983333333, "bike_id": "bcd432a3fed47472b504c8b66ef27e36", "type": "electric_bike", "name": "bcd432a3fed47472b504c8b66ef27e36"}, {"is_disabled": 0, "is_reserved": 0, "fusion_lat": 0.0, "lat": 38.93447833333333, "fusion_lon": 0.0, "rental_uris": {"ios": "https://dc.lft.to/lastmile_qr_scan", "android": "https://dc.lft.to/lastmile_qr_scan"}, "lon": -77.029784, "bike_id": "578f0585e81adf02872fcd2ca411dce4", "type": "electric_scooter", "name": "578f0585e81adf02872fcd2ca411dce4"}, {"is_disabled": 0, "is_reserved": 0, "fusion_lat": 0.0, "lat": 38.906053666666665, "fusion_lon": 0.0, "rental_uris": {"ios": "https://dc.lft.to/lastmile_qr_scan", "android": "https://dc.lft.to/lastmile_qr_scan"}, "lon": -76.98420916666667, "bike_id": "e6e18bf423f0f7f71a9e9897e585d754", "type": "electric_scooter", "name": "e6e18bf423f0f7f71a9e9897e585d754"}, {"is_disabled": 0, "is_reserved": 0, "fusion_lat": 0.0, "lat": 38.9043595, "fusion_lon": 0.0, "rental_uris": {"ios": "https://dc.lft.to/lastmile_qr_scan", "android": "https://dc.lft.to/lastmile_qr_scan"}, "lon": -77.02592266666667, "bike_id": "ae08ac42367ec01364b12ece509f6a92", "type": "electric_scooter", "name": "ae08ac42367ec01364b12ece509f6a92"}, {"is_disabled": 0, "is_reserved": 0, "fusion_lat": 0.0, "lat": 38.9035405, "fusion_lon": 0.0, "rental_uris": {"ios": "https://dc.lft.to/lastmile_qr_scan", "android": "https://dc.lft.to/lastmile_qr_scan"}, "lon": -77.007415, "bike_id": "a6b79fb7108ee214dc5d7eb4f795c0a1", "type": "electric_scooter", "name": "a6b79fb7108ee214dc5d7eb4f795c0a1"}, {"is_disabled": 0, "is_reserved": 0, "fusion_lat": 0.0, "lat": 38.91891116666667, "fusion_lon": 0.0, "rental_uris": {"ios": "https://dc.lft.to/lastmile_qr_scan", "android": "https://dc.lft.to/lastmile_qr_scan"}, "lon": -77.0349375, "bike_id": "7e119d9565706544df3679fc14376a22", "type": "electric_scooter", "name": "7e119d9565706544df3679fc14376a22"}, {"is_disabled": 0, "is_reserved": 0, "fusion_lat": 0.0, "lat": 38.91799266666666, "fusion_lon": 0.0, "rental_uris": {"ios": "https://dc.lft.to/lastmile_qr_scan", "android": "https://dc.lft.to/lastmile_qr_scan"}, "lon": -77.03175783333333, "bike_id": "689ca5355b6892b34135a7f89dc5643b", "type": "electric_scooter", "name": "689ca5355b6892b34135a7f89dc5643b"}, {"is_disabled": 0, "is_reserved": 0, "fusion_lat": 0.0, "lat": 38.90601016666667, "fusion_lon": 0.0, "rental_uris": {"ios": "https://dc.lft.to/lastmile_qr_scan", "android": "https://dc.lft.to/lastmile_qr_scan"}, "lon": -77.12873766666667, "bike_id": "74f4bbd43aa26dd4f0494823479fe1e8", "type": "electric_bike", "name": "74f4bbd43aa26dd4f0494823479fe1e8"}, {"is_disabled": 0, "is_reserved": 0, "fusion_lat": 0.0, "lat": 38.949246, "fusion_lon": 0.0, "rental_uris": {"ios": "https://dc.lft.to/lastmile_qr_scan", "android": "https://dc.lft.to/lastmile_qr_scan"}, "lon": -77.01926083333333, "bike_id": "8d2d9e94155eade72fb734b3e3557536", "type": "electric_scooter", "name": "8d2d9e94155eade72fb734b3e3557536"}, {"is_disabled": 0, "is_reserved": 0, "fusion_lat": 0.0, "lat": 38.89219816666667, "fusion_lon": 0.0, "rental_uris": {"ios": "https://dc.lft.to/lastmile_qr_scan", "android": "https://dc.lft.to/lastmile_qr_scan"}, "lon": -77.0241885, "bike_id": "933d36d779a489b8d0f19dabe3dfda7e", "type": "electric_scooter", "name": "933d36d779a489b8d0f19dabe3dfda7e"}, {"is_disabled": 0, "is_reserved": 0, "fusion_lat": 0.0, "lat": 38.956387166666666, "fusion_lon": 0.0, "rental_uris": {"ios": "https://dc.lft.to/lastmile_qr_scan", "android": "https://dc.lft.to/lastmile_qr_scan"}, "lon": -77.03631566666667, "bike_id": "92490cfb1563e25f542648d4f427ba15", "type": "electric_scooter", "name": "92490cfb1563e25f542648d4f427ba15"}, {"is_disabled": 0, "is_reserved": 0, "fusion_lat": 0.0, "lat": 38.890879, "fusion_lon": 0.0, "rental_uris": {"ios": "https://dc.lft.to/lastmile_qr_scan", "android": "https://dc.lft.to/lastmile_qr_scan"}, "lon": -76.95468533333333, "bike_id": "bcbc2b3d14878c2ab78d55fe7d65f412", "type": "electric_bike", "name": "bcbc2b3d14878c2ab78d55fe7d65f412"}, {"is_disabled": 0, "is_reserved": 0, "fusion_lat": 0.0, "lat": 38.925957333333336, "fusion_lon": 0.0, "rental_uris": {"ios": "https://dc.lft.to/lastmile_qr_scan", "android": "https://dc.lft.to/lastmile_qr_scan"}, "lon": -76.98242883333333, "bike_id": "fa066a49b550bd38d79c6f203bbb2d31", "type": "electric_bike", "name": "fa066a49b550bd38d79c6f203bbb2d31"}, {"is_disabled": 0, "is_reserved": 0, "fusion_lat": 0.0, "lat": 38.931922166666666, "fusion_lon": 0.0, "rental_uris": {"ios": "https://dc.lft.to/lastmile_qr_scan", "android": "https://dc.lft.to/lastmile_qr_scan"}, "lon": -77.01860116666667, "bike_id": "31a53dc6bcbc0b7cd3af75c3bbb206b3", "type": "electric_scooter", "name": "31a53dc6bcbc0b7cd3af75c3bbb206b3"}, {"is_disabled": 0, "is_reserved": 0, "fusion_lat": 0.0, "lat": 38.92033966666666, "fusion_lon": 0.0, "rental_uris": {"ios": "https://dc.lft.to/lastmile_qr_scan", "android": "https://dc.lft.to/lastmile_qr_scan"}, "lon": -76.99573133333334, "bike_id": "99a1d98e5571eabc90fb2b904dfecfbc", "type": "electric_scooter", "name": "99a1d98e5571eabc90fb2b904dfecfbc"}, {"is_disabled": 0, "is_reserved": 0, "fusion_lat": 0.0, "lat": 38.918232333333336, "fusion_lon": 0.0, "rental_uris": {"ios": "https://dc.lft.to/lastmile_qr_scan", "android": "https://dc.lft.to/lastmile_qr_scan"}, "lon": -77.045137, "bike_id": "30efa5afb78d6fcd3915fd78e4f67706", "type": "electric_scooter", "name": "30efa5afb78d6fcd3915fd78e4f67706"}, {"is_disabled": 0, "is_reserved": 0, "fusion_lat": 0.0, "lat": 38.916840666666666, "fusion_lon": 0.0, "rental_uris": {"ios": "https://dc.lft.to/lastmile_qr_scan", "android": "https://dc.lft.to/lastmile_qr_scan"}, "lon": -77.03182366666667, "bike_id": "0bf88524f5619f25fb2b5310f83c81d8", "type": "electric_scooter", "name": "0bf88524f5619f25fb2b5310f83c81d8"}, {"is_disabled": 0, "is_reserved": 0, "fusion_lat": 0.0, "lat": 38.9227935, "fusion_lon": 0.0, "rental_uris": {"ios": "https://dc.lft.to/lastmile_qr_scan", "android": "https://dc.lft.to/lastmile_qr_scan"}, "lon": -77.034049, "bike_id": "5610b1d5bc08ce11e20163ba9d20649e", "type": "electric_scooter", "name": "5610b1d5bc08ce11e20163ba9d20649e"}, {"is_disabled": 0, "is_reserved": 0, "fusion_lat": 0.0, "lat": 38.928655166666665, "fusion_lon": 0.0, "rental_uris": {"ios": "https://dc.lft.to/lastmile_qr_scan", "android": "https://dc.lft.to/lastmile_qr_scan"}, "lon": -77.034424, "bike_id": "5c78193448b696accc6b286124f102cf", "type": "electric_scooter", "name": "5c78193448b696accc6b286124f102cf"}, {"is_disabled": 0, "is_reserved": 0, "fusion_lat": 0.0, "lat": 38.91222233333333, "fusion_lon": 0.0, "rental_uris": {"ios": "https://dc.lft.to/lastmile_qr_scan", "android": "https://dc.lft.to/lastmile_qr_scan"}, "lon": -77.03192783333333, "bike_id": "d917caaf9a12f25f3f317e183c2e0282", "type": "electric_scooter", "name": "d917caaf9a12f25f3f317e183c2e0282"}, {"is_disabled": 0, "is_reserved": 0, "fusion_lat": 0.0, "lat": 38.91314416666667, "fusion_lon": 0.0, "rental_uris": {"ios": "https://dc.lft.to/lastmile_qr_scan", "android": "https://dc.lft.to/lastmile_qr_scan"}, "lon": -77.008453, "bike_id": "aedad74b6b125a23c1604d73c9b2dd9c", "type": "electric_scooter", "name": "aedad74b6b125a23c1604d73c9b2dd9c"}, {"is_disabled": 0, "is_reserved": 0, "fusion_lat": 0.0, "lat": 38.896390833333335, "fusion_lon": 0.0, "rental_uris": {"ios": "https://dc.lft.to/lastmile_qr_scan", "android": "https://dc.lft.to/lastmile_qr_scan"}, "lon": -76.92797583333333, "bike_id": "15edfb024fd16a11d87a5e2c5f3d367b", "type": "electric_scooter", "name": "15edfb024fd16a11d87a5e2c5f3d367b"}, {"is_disabled": 0, "is_reserved": 0, "fusion_lat": 0.0, "lat": 38.9207375, "fusion_lon": 0.0, "rental_uris": {"ios": "https://dc.lft.to/lastmile_qr_scan", "android": "https://dc.lft.to/lastmile_qr_scan"}, "lon": -77.02428966666666, "bike_id": "45de9b85dd60df09efa018954d3b016a", "type": "electric_bike", "name": "45de9b85dd60df09efa018954d3b016a"}, {"is_disabled": 0, "is_reserved": 0, "fusion_lat": 0.0, "lat": 38.91179433333333, "fusion_lon": 0.0, "rental_uris": {"ios": "https://dc.lft.to/lastmile_qr_scan", "android": "https://dc.lft.to/lastmile_qr_scan"}, "lon": -77.01207583333333, "bike_id": "f0a584af60c3994ffe45feaa3ab2cffc", "type": "electric_scooter", "name": "f0a584af60c3994ffe45feaa3ab2cffc"}, {"is_disabled": 0, "is_reserved": 0, "fusion_lat": 0.0, "lat": 38.898886833333336, "fusion_lon": 0.0, "rental_uris": {"ios": "https://dc.lft.to/lastmile_qr_scan", "android": "https://dc.lft.to/lastmile_qr_scan"}, "lon": -76.98681, "bike_id": "4fb6a4f1270bb919557c57bb7f733569", "type": "electric_scooter", "name": "4fb6a4f1270bb919557c57bb7f733569"}, {"is_disabled": 0, "is_reserved": 0, "fusion_lat": 0.0, "lat": 38.902538166666666, "fusion_lon": 0.0, "rental_uris": {"ios": "https://dc.lft.to/lastmile_qr_scan", "android": "https://dc.lft.to/lastmile_qr_scan"}, "lon": -77.01759666666666, "bike_id": "8c4513e3a2541597f508887dbb9de667", "type": "electric_scooter", "name": "8c4513e3a2541597f508887dbb9de667"}, {"is_disabled": 0, "is_reserved": 0, "fusion_lat": 0.0, "lat": 38.92824266666667, "fusion_lon": 0.0, "rental_uris": {"ios": "https://dc.lft.to/lastmile_qr_scan", "android": "https://dc.lft.to/lastmile_qr_scan"}, "lon": -77.05965116666667, "bike_id": "57dd266402bbddec0eec599a54e43cba", "type": "electric_bike", "name": "57dd266402bbddec0eec599a54e43cba"}, {"is_disabled": 0, "is_reserved": 0, "fusion_lat": 0.0, "lat": 38.934680166666666, "fusion_lon": 0.0, "rental_uris": {"ios": "https://dc.lft.to/lastmile_qr_scan", "android": "https://dc.lft.to/lastmile_qr_scan"}, "lon": -77.02915683333333, "bike_id": "5546821b3e919d87bc0f47c19eeee389", "type": "electric_scooter", "name": "5546821b3e919d87bc0f47c19eeee389"}, {"is_disabled": 0, "is_reserved": 0, "fusion_lat": 0.0, "lat": 38.87609066666667, "fusion_lon": 0.0, "rental_uris": {"ios": "https://dc.lft.to/lastmile_qr_scan", "android": "https://dc.lft.to/lastmile_qr_scan"}, "lon": -77.0204645, "bike_id": "6d642b4b92832dc2bf4234f6610bb924", "type": "electric_scooter", "name": "6d642b4b92832dc2bf4234f6610bb924"}, {"is_disabled": 0, "is_reserved": 0, "fusion_lat": 0.0, "lat": 38.917100166666664, "fusion_lon": 0.0, "rental_uris": {"ios": "https://dc.lft.to/lastmile_qr_scan", "android": "https://dc.lft.to/lastmile_qr_scan"}, "lon": -77.03469216666667, "bike_id": "ff1b9fe0fd11ed6360a9282af105057f", "type": "electric_scooter", "name": "ff1b9fe0fd11ed6360a9282af105057f"}, {"is_disabled": 0, "is_reserved": 0, "fusion_lat": 0.0, "lat": 38.918125833333335, "fusion_lon": 0.0, "rental_uris": {"ios": "https://dc.lft.to/lastmile_qr_scan", "android": "https://dc.lft.to/lastmile_qr_scan"}, "lon": -76.99999083333333, "bike_id": "53fca7d45d7eb3bb8a11e83442ac142a", "type": "electric_scooter", "name": "53fca7d45d7eb3bb8a11e83442ac142a"}, {"is_disabled": 0, "is_reserved": 0, "fusion_lat": 0.0, "lat": 38.916504, "fusion_lon": 0.0, "rental_uris": {"ios": "https://dc.lft.to/lastmile_qr_scan", "android": "https://dc.lft.to/lastmile_qr_scan"}, "lon": -77.04668683333334, "bike_id": "942d4ebbe342997028cba6e5fa84d776", "type": "electric_scooter", "name": "942d4ebbe342997028cba6e5fa84d776"}, {"is_disabled": 0, "is_reserved": 0, "fusion_lat": 0.0, "lat": 38.889744666666665, "fusion_lon": 0.0, "rental_uris": {"ios": "https://dc.lft.to/lastmile_qr_scan", "android": "https://dc.lft.to/lastmile_qr_scan"}, "lon": -76.98173483333333, "bike_id": "d714db183e562551ae8c22d46d7bbc2a", "type": "electric_scooter", "name": "d714db183e562551ae8c22d46d7bbc2a"}, {"is_disabled": 0, "is_reserved": 0, "fusion_lat": 0.0, "lat": 38.9252885, "fusion_lon": 0.0, "rental_uris": {"ios": "https://dc.lft.to/lastmile_qr_scan", "android": "https://dc.lft.to/lastmile_qr_scan"}, "lon": -77.038841, "bike_id": "30e39470a6f25e75fdb16e9ed9568f0b", "type": "electric_scooter", "name": "30e39470a6f25e75fdb16e9ed9568f0b"}, {"is_disabled": 0, "is_reserved": 0, "fusion_lat": 0.0, "lat": 38.9233705, "fusion_lon": 0.0, "rental_uris": {"ios": "https://dc.lft.to/lastmile_qr_scan", "android": "https://dc.lft.to/lastmile_qr_scan"}, "lon": -77.03524233333333, "bike_id": "50559a58e10e5efd7b5f8eed9f2bb819", "type": "electric_scooter", "name": "50559a58e10e5efd7b5f8eed9f2bb819"}, {"is_disabled": 0, "is_reserved": 0, "fusion_lat": 0.0, "lat": 38.915574666666664, "fusion_lon": 0.0, "rental_uris": {"ios": "https://dc.lft.to/lastmile_qr_scan", "android": "https://dc.lft.to/lastmile_qr_scan"}, "lon": -77.00075233333334, "bike_id": "4c6bda0171d776182ed632fa3187c066", "type": "electric_scooter", "name": "4c6bda0171d776182ed632fa3187c066"}, {"is_disabled": 0, "is_reserved": 0, "fusion_lat": 0.0, "lat": 38.82202733333333, "fusion_lon": 0.0, "rental_uris": {"ios": "https://dc.lft.to/lastmile_qr_scan", "android": "https://dc.lft.to/lastmile_qr_scan"}, "lon": -76.97701133333334, "bike_id": "40290217ea0119926e4cc4985cf2389c", "type": "electric_bike", "name": "40290217ea0119926e4cc4985cf2389c"}, {"is_disabled": 0, "is_reserved": 0, "fusion_lat": 0.0, "lat": 38.891959166666666, "fusion_lon": 0.0, "rental_uris": {"ios": "https://dc.lft.to/lastmile_qr_scan", "android": "https://dc.lft.to/lastmile_qr_scan"}, "lon": -77.04379783333333, "bike_id": "cf863d3f96caf99a094c10bcac01641e", "type": "electric_scooter", "name": "cf863d3f96caf99a094c10bcac01641e"}, {"is_disabled": 0, "is_reserved": 0, "fusion_lat": 0.0, "lat": 38.906969333333336, "fusion_lon": 0.0, "rental_uris": {"ios": "https://dc.lft.to/lastmile_qr_scan", "android": "https://dc.lft.to/lastmile_qr_scan"}, "lon": -76.95253533333333, "bike_id": "d0b8fcdb71dd25eee8891a446d014634", "type": "electric_bike", "name": "d0b8fcdb71dd25eee8891a446d014634"}, {"is_disabled": 0, "is_reserved": 0, "fusion_lat": 0.0, "lat": 38.911203666666665, "fusion_lon": 0.0, "rental_uris": {"ios": "https://dc.lft.to/lastmile_qr_scan", "android": "https://dc.lft.to/lastmile_qr_scan"}, "lon": -77.03863666666666, "bike_id": "985e6443b03385da13e4dd3910f86554", "type": "electric_scooter", "name": "985e6443b03385da13e4dd3910f86554"}, {"is_disabled": 0, "is_reserved": 0, "fusion_lat": 0.0, "lat": 38.88356383333333, "fusion_lon": 0.0, "rental_uris": {"ios": "https://dc.lft.to/lastmile_qr_scan", "android": "https://dc.lft.to/lastmile_qr_scan"}, "lon": -76.95765283333333, "bike_id": "d487043f816ee95fe3d46dab638efdc9", "type": "electric_scooter", "name": "d487043f816ee95fe3d46dab638efdc9"}, {"is_disabled": 0, "is_reserved": 0, "fusion_lat": 0.0, "lat": 38.9446, "fusion_lon": 0.0, "rental_uris": {"ios": "https://dc.lft.to/lastmile_qr_scan", "android": "https://dc.lft.to/lastmile_qr_scan"}, "lon": -77.00648483333333, "bike_id": "63a4676ac395775ac9aff0bcc582ac27", "type": "electric_scooter", "name": "63a4676ac395775ac9aff0bcc582ac27"}, {"is_disabled": 0, "is_reserved": 0, "fusion_lat": 0.0, "lat": 38.8984475, "fusion_lon": 0.0, "rental_uris": {"ios": "https://dc.lft.to/lastmile_qr_scan", "android": "https://dc.lft.to/lastmile_qr_scan"}, "lon": -76.9425145, "bike_id": "3e34703a1cc5821a9777e340b80abb04", "type": "electric_bike", "name": "3e34703a1cc5821a9777e340b80abb04"}, {"is_disabled": 0, "is_reserved": 0, "fusion_lat": 0.0, "lat": 38.948445, "fusion_lon": 0.0, "rental_uris": {"ios": "https://dc.lft.to/lastmile_qr_scan", "android": "https://dc.lft.to/lastmile_qr_scan"}, "lon": -77.0798275, "bike_id": "bc60fa709795308dc59d64a46afd7b78", "type": "electric_scooter", "name": "bc60fa709795308dc59d64a46afd7b78"}, {"is_disabled": 0, "is_reserved": 0, "fusion_lat": 0.0, "lat": 38.892306, "fusion_lon": 0.0, "rental_uris": {"ios": "https://dc.lft.to/lastmile_qr_scan", "android": "https://dc.lft.to/lastmile_qr_scan"}, "lon": -77.0499365, "bike_id": "761331b70fb9cc13e58bd7585eef34d3", "type": "electric_scooter", "name": "761331b70fb9cc13e58bd7585eef34d3"}, {"is_disabled": 0, "is_reserved": 0, "fusion_lat": 0.0, "lat": 38.917663833333336, "fusion_lon": 0.0, "rental_uris": {"ios": "https://dc.lft.to/lastmile_qr_scan", "android": "https://dc.lft.to/lastmile_qr_scan"}, "lon": -77.03915, "bike_id": "5bd18140308d42776970a99c3a64c88d", "type": "electric_scooter", "name": "5bd18140308d42776970a99c3a64c88d"}, {"is_disabled": 0, "is_reserved": 0, "fusion_lat": 0.0, "lat": 38.92007383333333, "fusion_lon": 0.0, "rental_uris": {"ios": "https://dc.lft.to/lastmile_qr_scan", "android": "https://dc.lft.to/lastmile_qr_scan"}, "lon": -77.04755466666667, "bike_id": "f40122bdffd39767d2b2b2e867f1f377", "type": "electric_scooter", "name": "f40122bdffd39767d2b2b2e867f1f377"}, {"is_disabled": 0, "is_reserved": 0, "fusion_lat": 0.0, "lat": 38.937045, "fusion_lon": 0.0, "rental_uris": {"ios": "https://dc.lft.to/lastmile_qr_scan", "android": "https://dc.lft.to/lastmile_qr_scan"}, "lon": -77.05595083333333, "bike_id": "837287e7afff1a535d596da33ce77063", "type": "electric_scooter", "name": "837287e7afff1a535d596da33ce77063"}, {"is_disabled": 0, "is_reserved": 0, "fusion_lat": 0.0, "lat": 38.8717415, "fusion_lon": 0.0, "rental_uris": {"ios": "https://dc.lft.to/lastmile_qr_scan", "android": "https://dc.lft.to/lastmile_qr_scan"}, "lon": -77.233877, "bike_id": "d4bd09f2a858e0545be212c94a98b2d8", "type": "electric_bike", "name": "d4bd09f2a858e0545be212c94a98b2d8"}, {"is_disabled": 0, "is_reserved": 0, "fusion_lat": 0.0, "lat": 38.94183533333333, "fusion_lon": 0.0, "rental_uris": {"ios": "https://dc.lft.to/lastmile_qr_scan", "android": "https://dc.lft.to/lastmile_qr_scan"}, "lon": -77.033914, "bike_id": "5d636cffe8460edeb3777bf3a2e34321", "type": "electric_scooter", "name": "5d636cffe8460edeb3777bf3a2e34321"}, {"is_disabled": 0, "is_reserved": 0, "fusion_lat": 0.0, "lat": 38.91913983333333, "fusion_lon": 0.0, "rental_uris": {"ios": "https://dc.lft.to/lastmile_qr_scan", "android": "https://dc.lft.to/lastmile_qr_scan"}, "lon": -77.009887, "bike_id": "33c4ae1eebd57deccded5d265730e19d", "type": "electric_scooter", "name": "33c4ae1eebd57deccded5d265730e19d"}, {"is_disabled": 0, "is_reserved": 0, "fusion_lat": 0.0, "lat": 38.91803916666667, "fusion_lon": 0.0, "rental_uris": {"ios": "https://dc.lft.to/lastmile_qr_scan", "android": "https://dc.lft.to/lastmile_qr_scan"}, "lon": -77.0343655, "bike_id": "128e1bf40df67bd71e7d7a37ee64fc67", "type": "electric_scooter", "name": "128e1bf40df67bd71e7d7a37ee64fc67"}, {"is_disabled": 0, "is_reserved": 0, "fusion_lat": 0.0, "lat": 38.90440266666667, "fusion_lon": 0.0, "rental_uris": {"ios": "https://dc.lft.to/lastmile_qr_scan", "android": "https://dc.lft.to/lastmile_qr_scan"}, "lon": -77.02589666666667, "bike_id": "5504651a66557ecd1608cd2c8b9472bb", "type": "electric_scooter", "name": "5504651a66557ecd1608cd2c8b9472bb"}, {"is_disabled": 0, "is_reserved": 0, "fusion_lat": 0.0, "lat": 38.93251133333333, "fusion_lon": 0.0, "rental_uris": {"ios": "https://dc.lft.to/lastmile_qr_scan", "android": "https://dc.lft.to/lastmile_qr_scan"}, "lon": -77.02970783333333, "bike_id": "380b8d83bb60f81a81e75b710021bd01", "type": "electric_scooter", "name": "380b8d83bb60f81a81e75b710021bd01"}, {"is_disabled": 0, "is_reserved": 0, "fusion_lat": 0.0, "lat": 38.999890666666666, "fusion_lon": 0.0, "rental_uris": {"ios": "https://dc.lft.to/lastmile_qr_scan", "android": "https://dc.lft.to/lastmile_qr_scan"}, "lon": -76.92492283333333, "bike_id": "1d6f09c025b88e5b3cb430bde0d598bd", "type": "electric_bike", "name": "1d6f09c025b88e5b3cb430bde0d598bd"}, {"is_disabled": 0, "is_reserved": 0, "fusion_lat": 0.0, "lat": 38.90369, "fusion_lon": 0.0, "rental_uris": {"ios": "https://dc.lft.to/lastmile_qr_scan", "android": "https://dc.lft.to/lastmile_qr_scan"}, "lon": -77.04833566666667, "bike_id": "df7f6fcc865bf64ed1f082541b8bf00c", "type": "electric_scooter", "name": "df7f6fcc865bf64ed1f082541b8bf00c"}, {"is_disabled": 0, "is_reserved": 0, "fusion_lat": 0.0, "lat": 38.92484233333333, "fusion_lon": 0.0, "rental_uris": {"ios": "https://dc.lft.to/lastmile_qr_scan", "android": "https://dc.lft.to/lastmile_qr_scan"}, "lon": -77.02791483333333, "bike_id": "daa6056125de5198afc95d48b534040b", "type": "electric_scooter", "name": "daa6056125de5198afc95d48b534040b"}, {"is_disabled": 0, "is_reserved": 0, "fusion_lat": 0.0, "lat": 38.953137166666664, "fusion_lon": 0.0, "rental_uris": {"ios": "https://dc.lft.to/lastmile_qr_scan", "android": "https://dc.lft.to/lastmile_qr_scan"}, "lon": -76.99456983333333, "bike_id": "63026cdf29c44f735325ac5aeeb8fc0e", "type": "electric_scooter", "name": "63026cdf29c44f735325ac5aeeb8fc0e"}, {"is_disabled": 0, "is_reserved": 0, "fusion_lat": 0.0, "lat": 38.9242935, "fusion_lon": 0.0, "rental_uris": {"ios": "https://dc.lft.to/lastmile_qr_scan", "android": "https://dc.lft.to/lastmile_qr_scan"}, "lon": -77.02712383333333, "bike_id": "87ee08ea2e9178de34b6013f8164fc3e", "type": "electric_scooter", "name": "87ee08ea2e9178de34b6013f8164fc3e"}, {"is_disabled": 0, "is_reserved": 0, "fusion_lat": 0.0, "lat": 38.921329666666665, "fusion_lon": 0.0, "rental_uris": {"ios": "https://dc.lft.to/lastmile_qr_scan", "android": "https://dc.lft.to/lastmile_qr_scan"}, "lon": -77.00184766666666, "bike_id": "33382cfe565d2de0f582fd4dec0a2779", "type": "electric_bike", "name": "33382cfe565d2de0f582fd4dec0a2779"}, {"is_disabled": 0, "is_reserved": 0, "fusion_lat": 0.0, "lat": 38.88523333333333, "fusion_lon": 0.0, "rental_uris": {"ios": "https://dc.lft.to/lastmile_qr_scan", "android": "https://dc.lft.to/lastmile_qr_scan"}, "lon": -76.97709616666667, "bike_id": "d5db66dadf0e2ffc66083066d8f8794d", "type": "electric_scooter", "name": "d5db66dadf0e2ffc66083066d8f8794d"}, {"is_disabled": 0, "is_reserved": 0, "fusion_lat": 0.0, "lat": 38.9181765, "fusion_lon": 0.0, "rental_uris": {"ios": "https://dc.lft.to/lastmile_qr_scan", "android": "https://dc.lft.to/lastmile_qr_scan"}, "lon": -77.011466, "bike_id": "49c5b38d4d3bb35c1f101fb03d24b484", "type": "electric_scooter", "name": "49c5b38d4d3bb35c1f101fb03d24b484"}, {"is_disabled": 0, "is_reserved": 0, "fusion_lat": 0.0, "lat": 38.9085355, "fusion_lon": 0.0, "rental_uris": {"ios": "https://dc.lft.to/lastmile_qr_scan", "android": "https://dc.lft.to/lastmile_qr_scan"}, "lon": -76.99968183333333, "bike_id": "4b27a7e3375ca15d29b250a00761a3fa", "type": "electric_scooter", "name": "4b27a7e3375ca15d29b250a00761a3fa"}, {"is_disabled": 0, "is_reserved": 0, "fusion_lat": 0.0, "lat": 38.918201833333335, "fusion_lon": 0.0, "rental_uris": {"ios": "https://dc.lft.to/lastmile_qr_scan", "android": "https://dc.lft.to/lastmile_qr_scan"}, "lon": -77.02707283333334, "bike_id": "e3cc13935a99954fbbf0336aea876421", "type": "electric_scooter", "name": "e3cc13935a99954fbbf0336aea876421"}, {"is_disabled": 0, "is_reserved": 0, "fusion_lat": 0.0, "lat": 38.88498933333333, "fusion_lon": 0.0, "rental_uris": {"ios": "https://dc.lft.to/lastmile_qr_scan", "android": "https://dc.lft.to/lastmile_qr_scan"}, "lon": -76.94549933333333, "bike_id": "d77cc4b344ccd5415877674ce455c880", "type": "electric_scooter", "name": "d77cc4b344ccd5415877674ce455c880"}, {"is_disabled": 0, "is_reserved": 0, "fusion_lat": 0.0, "lat": 38.92741483333333, "fusion_lon": 0.0, "rental_uris": {"ios": "https://dc.lft.to/lastmile_qr_scan", "android": "https://dc.lft.to/lastmile_qr_scan"}, "lon": -77.03281716666666, "bike_id": "0036d1d89b38b1c77c18a0bb2d95b931", "type": "electric_scooter", "name": "0036d1d89b38b1c77c18a0bb2d95b931"}, {"is_disabled": 0, "is_reserved": 0, "fusion_lat": 0.0, "lat": 38.91133633333333, "fusion_lon": 0.0, "rental_uris": {"ios": "https://dc.lft.to/lastmile_qr_scan", "android": "https://dc.lft.to/lastmile_qr_scan"}, "lon": -76.99748316666667, "bike_id": "5b91180d93ee234a6fc33c27161ab4f6", "type": "electric_scooter", "name": "5b91180d93ee234a6fc33c27161ab4f6"}, {"is_disabled": 0, "is_reserved": 0, "fusion_lat": 0.0, "lat": 38.938698, "fusion_lon": 0.0, "rental_uris": {"ios": "https://dc.lft.to/lastmile_qr_scan", "android": "https://dc.lft.to/lastmile_qr_scan"}, "lon": -77.02592866666667, "bike_id": "fe4577db7dc0df9b92d3242172997dff", "type": "electric_scooter", "name": "fe4577db7dc0df9b92d3242172997dff"}, {"is_disabled": 0, "is_reserved": 0, "fusion_lat": 0.0, "lat": 38.89220733333333, "fusion_lon": 0.0, "rental_uris": {"ios": "https://dc.lft.to/lastmile_qr_scan", "android": "https://dc.lft.to/lastmile_qr_scan"}, "lon": -77.04684316666666, "bike_id": "9b344befa9d675067c5cda215adde908", "type": "electric_scooter", "name": "9b344befa9d675067c5cda215adde908"}, {"is_disabled": 0, "is_reserved": 0, "fusion_lat": 0.0, "lat": 38.902711833333335, "fusion_lon": 0.0, "rental_uris": {"ios": "https://dc.lft.to/lastmile_qr_scan", "android": "https://dc.lft.to/lastmile_qr_scan"}, "lon": -77.02765816666667, "bike_id": "3b5cc807e8173d0251fd2cf5e64117fd", "type": "electric_scooter", "name": "3b5cc807e8173d0251fd2cf5e64117fd"}, {"is_disabled": 0, "is_reserved": 0, "fusion_lat": 0.0, "lat": 38.9677695, "fusion_lon": 0.0, "rental_uris": {"ios": "https://dc.lft.to/lastmile_qr_scan", "android": "https://dc.lft.to/lastmile_qr_scan"}, "lon": -76.99646866666667, "bike_id": "cdec7a0802e6aae31ab1cbb8bb8f76db", "type": "electric_bike", "name": "cdec7a0802e6aae31ab1cbb8bb8f76db"}, {"is_disabled": 0, "is_reserved": 0, "fusion_lat": 0.0, "lat": 38.920529, "fusion_lon": 0.0, "rental_uris": {"ios": "https://dc.lft.to/lastmile_qr_scan", "android": "https://dc.lft.to/lastmile_qr_scan"}, "lon": -77.033945, "bike_id": "6577e0dfb54bfa8e791aff3fd1e38bbc", "type": "electric_scooter", "name": "6577e0dfb54bfa8e791aff3fd1e38bbc"}, {"is_disabled": 0, "is_reserved": 0, "fusion_lat": 0.0, "lat": 38.93907316666667, "fusion_lon": 0.0, "rental_uris": {"ios": "https://dc.lft.to/lastmile_qr_scan", "android": "https://dc.lft.to/lastmile_qr_scan"}, "lon": -77.03281016666666, "bike_id": "345ce3dd8acfc281ad280ae242fc858b", "type": "electric_scooter", "name": "345ce3dd8acfc281ad280ae242fc858b"}, {"is_disabled": 0, "is_reserved": 0, "fusion_lat": 0.0, "lat": 38.93362966666667, "fusion_lon": 0.0, "rental_uris": {"ios": "https://dc.lft.to/lastmile_qr_scan", "android": "https://dc.lft.to/lastmile_qr_scan"}, "lon": -77.02371516666666, "bike_id": "d7030ba68c642857702be3eea323e86d", "type": "electric_scooter", "name": "d7030ba68c642857702be3eea323e86d"}, {"is_disabled": 0, "is_reserved": 0, "fusion_lat": 0.0, "lat": 38.89614316666667, "fusion_lon": 0.0, "rental_uris": {"ios": "https://dc.lft.to/lastmile_qr_scan", "android": "https://dc.lft.to/lastmile_qr_scan"}, "lon": -77.02392633333334, "bike_id": "01d3bedeb3933c7aa69b306980f548c7", "type": "electric_scooter", "name": "01d3bedeb3933c7aa69b306980f548c7"}, {"is_disabled": 0, "is_reserved": 0, "fusion_lat": 0.0, "lat": 38.90265433333333, "fusion_lon": 0.0, "rental_uris": {"ios": "https://dc.lft.to/lastmile_qr_scan", "android": "https://dc.lft.to/lastmile_qr_scan"}, "lon": -77.019234, "bike_id": "a2fa27d58a8c5d5836105070af86f8e2", "type": "electric_scooter", "name": "a2fa27d58a8c5d5836105070af86f8e2"}, {"is_disabled": 0, "is_reserved": 0, "fusion_lat": 0.0, "lat": 39.03475066666667, "fusion_lon": 0.0, "rental_uris": {"ios": "https://dc.lft.to/lastmile_qr_scan", "android": "https://dc.lft.to/lastmile_qr_scan"}, "lon": -77.0165735, "bike_id": "742516bb07e36dbafcbd87e54cf8b479", "type": "electric_bike", "name": "742516bb07e36dbafcbd87e54cf8b479"}, {"is_disabled": 0, "is_reserved": 0, "fusion_lat": 0.0, "lat": 39.0847435, "fusion_lon": 0.0, "rental_uris": {"ios": "https://dc.lft.to/lastmile_qr_scan", "android": "https://dc.lft.to/lastmile_qr_scan"}, "lon": -76.95066283333334, "bike_id": "a9e46722854d4c98d3f6104fa75fe7e0", "type": "electric_bike", "name": "a9e46722854d4c98d3f6104fa75fe7e0"}, {"is_disabled": 0, "is_reserved": 0, "fusion_lat": 0.0, "lat": 38.92170983333333, "fusion_lon": 0.0, "rental_uris": {"ios": "https://dc.lft.to/lastmile_qr_scan", "android": "https://dc.lft.to/lastmile_qr_scan"}, "lon": -77.04000866666667, "bike_id": "41eb01bd234db22e54530b385ef2ed1d", "type": "electric_scooter", "name": "41eb01bd234db22e54530b385ef2ed1d"}, {"is_disabled": 0, "is_reserved": 0, "fusion_lat": 0.0, "lat": 38.897954666666664, "fusion_lon": 0.0, "rental_uris": {"ios": "https://dc.lft.to/lastmile_qr_scan", "android": "https://dc.lft.to/lastmile_qr_scan"}, "lon": -76.97181016666667, "bike_id": "777fa15ea0cd9a9ed7c37026c05b0ca9", "type": "electric_scooter", "name": "777fa15ea0cd9a9ed7c37026c05b0ca9"}, {"is_disabled": 0, "is_reserved": 0, "fusion_lat": 0.0, "lat": 38.89198416666667, "fusion_lon": 0.0, "rental_uris": {"ios": "https://dc.lft.to/lastmile_qr_scan", "android": "https://dc.lft.to/lastmile_qr_scan"}, "lon": -77.02474066666667, "bike_id": "4d135afa94c8970cda75185ec5027afe", "type": "electric_scooter", "name": "4d135afa94c8970cda75185ec5027afe"}, {"is_disabled": 0, "is_reserved": 0, "fusion_lat": 0.0, "lat": 38.953442833333334, "fusion_lon": 0.0, "rental_uris": {"ios": "https://dc.lft.to/lastmile_qr_scan", "android": "https://dc.lft.to/lastmile_qr_scan"}, "lon": -77.08153583333333, "bike_id": "bf17c612c6e615e2848ccbd0da901c54", "type": "electric_scooter", "name": "bf17c612c6e615e2848ccbd0da901c54"}, {"is_disabled": 0, "is_reserved": 0, "fusion_lat": 0.0, "lat": 38.9141575, "fusion_lon": 0.0, "rental_uris": {"ios": "https://dc.lft.to/lastmile_qr_scan", "android": "https://dc.lft.to/lastmile_qr_scan"}, "lon": -77.0223145, "bike_id": "305af10da8ddd22ea08f1fce9e320bb4", "type": "electric_scooter", "name": "305af10da8ddd22ea08f1fce9e320bb4"}, {"is_disabled": 0, "is_reserved": 0, "fusion_lat": 0.0, "lat": 38.917751, "fusion_lon": 0.0, "rental_uris": {"ios": "https://dc.lft.to/lastmile_qr_scan", "android": "https://dc.lft.to/lastmile_qr_scan"}, "lon": -77.03194083333334, "bike_id": "0cb27b49eeb0aeeaeb1b13dd285046d7", "type": "electric_scooter", "name": "0cb27b49eeb0aeeaeb1b13dd285046d7"}, {"is_disabled": 0, "is_reserved": 0, "fusion_lat": 0.0, "lat": 38.857887833333336, "fusion_lon": 0.0, "rental_uris": {"ios": "https://dc.lft.to/lastmile_qr_scan", "android": "https://dc.lft.to/lastmile_qr_scan"}, "lon": -76.98762166666667, "bike_id": "5a47540a09841668b6d43d0607f2ce0b", "type": "electric_bike", "name": "5a47540a09841668b6d43d0607f2ce0b"}, {"is_disabled": 0, "is_reserved": 0, "fusion_lat": 0.0, "lat": 38.887398166666664, "fusion_lon": 0.0, "rental_uris": {"ios": "https://dc.lft.to/lastmile_qr_scan", "android": "https://dc.lft.to/lastmile_qr_scan"}, "lon": -77.02208233333333, "bike_id": "fe92c6c3759ff16c6fc1970f37690e1d", "type": "electric_scooter", "name": "fe92c6c3759ff16c6fc1970f37690e1d"}, {"is_disabled": 0, "is_reserved": 0, "fusion_lat": 0.0, "lat": 38.9231585, "fusion_lon": 0.0, "rental_uris": {"ios": "https://dc.lft.to/lastmile_qr_scan", "android": "https://dc.lft.to/lastmile_qr_scan"}, "lon": -77.02802366666667, "bike_id": "a1ea91ba98a1cc79c9b3cb1c764701cf", "type": "electric_scooter", "name": "a1ea91ba98a1cc79c9b3cb1c764701cf"}, {"is_disabled": 0, "is_reserved": 0, "fusion_lat": 0.0, "lat": 38.9220405, "fusion_lon": 0.0, "rental_uris": {"ios": "https://dc.lft.to/lastmile_qr_scan", "android": "https://dc.lft.to/lastmile_qr_scan"}, "lon": -77.03790433333333, "bike_id": "6cd0b2f20fe9227f8d39ce74dcf03129", "type": "electric_scooter", "name": "6cd0b2f20fe9227f8d39ce74dcf03129"}, {"is_disabled": 0, "is_reserved": 0, "fusion_lat": 0.0, "lat": 38.92316533333333, "fusion_lon": 0.0, "rental_uris": {"ios": "https://dc.lft.to/lastmile_qr_scan", "android": "https://dc.lft.to/lastmile_qr_scan"}, "lon": -77.03803116666667, "bike_id": "90f79ecd456d377f3f6580f1e0976e71", "type": "electric_bike", "name": "90f79ecd456d377f3f6580f1e0976e71"}, {"is_disabled": 0, "is_reserved": 0, "fusion_lat": 0.0, "lat": 38.900073, "fusion_lon": 0.0, "rental_uris": {"ios": "https://dc.lft.to/lastmile_qr_scan", "android": "https://dc.lft.to/lastmile_qr_scan"}, "lon": -77.05259683333334, "bike_id": "5e1a0003dc97d60c8aa317f146da8abf", "type": "electric_scooter", "name": "5e1a0003dc97d60c8aa317f146da8abf"}, {"is_disabled": 0, "is_reserved": 0, "fusion_lat": 0.0, "lat": 38.91929416666667, "fusion_lon": 0.0, "rental_uris": {"ios": "https://dc.lft.to/lastmile_qr_scan", "android": "https://dc.lft.to/lastmile_qr_scan"}, "lon": -77.03097916666667, "bike_id": "913680205b4bd64a69721a44b46376e8", "type": "electric_scooter", "name": "913680205b4bd64a69721a44b46376e8"}, {"is_disabled": 0, "is_reserved": 0, "fusion_lat": 0.0, "lat": 38.92328883333333, "fusion_lon": 0.0, "rental_uris": {"ios": "https://dc.lft.to/lastmile_qr_scan", "android": "https://dc.lft.to/lastmile_qr_scan"}, "lon": -77.02963916666667, "bike_id": "ca1d957291e28d5b572aa238d4492bdb", "type": "electric_scooter", "name": "ca1d957291e28d5b572aa238d4492bdb"}, {"is_disabled": 0, "is_reserved": 0, "fusion_lat": 0.0, "lat": 38.92415283333333, "fusion_lon": 0.0, "rental_uris": {"ios": "https://dc.lft.to/lastmile_qr_scan", "android": "https://dc.lft.to/lastmile_qr_scan"}, "lon": -77.02711433333333, "bike_id": "e0b86778e7fd7a4f691b2c60f39b1e60", "type": "electric_scooter", "name": "e0b86778e7fd7a4f691b2c60f39b1e60"}, {"is_disabled": 0, "is_reserved": 0, "fusion_lat": 0.0, "lat": 38.91778333333333, "fusion_lon": 0.0, "rental_uris": {"ios": "https://dc.lft.to/lastmile_qr_scan", "android": "https://dc.lft.to/lastmile_qr_scan"}, "lon": -77.02305683333333, "bike_id": "402e01b4b97555be60b3f3818d2908b1", "type": "electric_scooter", "name": "402e01b4b97555be60b3f3818d2908b1"}, {"is_disabled": 0, "is_reserved": 0, "fusion_lat": 0.0, "lat": 38.917119, "fusion_lon": 0.0, "rental_uris": {"ios": "https://dc.lft.to/lastmile_qr_scan", "android": "https://dc.lft.to/lastmile_qr_scan"}, "lon": -77.03865433333333, "bike_id": "1b7d0d598cb4b4be655127f6abf7a66c", "type": "electric_scooter", "name": "1b7d0d598cb4b4be655127f6abf7a66c"}, {"is_disabled": 0, "is_reserved": 0, "fusion_lat": 0.0, "lat": 38.881096, "fusion_lon": 0.0, "rental_uris": {"ios": "https://dc.lft.to/lastmile_qr_scan", "android": "https://dc.lft.to/lastmile_qr_scan"}, "lon": -77.01229233333333, "bike_id": "7e914caf05785c4aff88924690bcaec5", "type": "electric_scooter", "name": "7e914caf05785c4aff88924690bcaec5"}, {"is_disabled": 0, "is_reserved": 0, "fusion_lat": 0.0, "lat": 38.88525033333333, "fusion_lon": 0.0, "rental_uris": {"ios": "https://dc.lft.to/lastmile_qr_scan", "android": "https://dc.lft.to/lastmile_qr_scan"}, "lon": -76.9961835, "bike_id": "0f7b916566b6b3ac8bbd3c30dcc7407f", "type": "electric_scooter", "name": "0f7b916566b6b3ac8bbd3c30dcc7407f"}, {"is_disabled": 0, "is_reserved": 0, "fusion_lat": 0.0, "lat": 39.005356166666665, "fusion_lon": 0.0, "rental_uris": {"ios": "https://dc.lft.to/lastmile_qr_scan", "android": "https://dc.lft.to/lastmile_qr_scan"}, "lon": -77.1039985, "bike_id": "6e00bf10396f128e810da7b2370417b4", "type": "electric_bike", "name": "6e00bf10396f128e810da7b2370417b4"}, {"is_disabled": 0, "is_reserved": 0, "fusion_lat": 0.0, "lat": 38.92251133333333, "fusion_lon": 0.0, "rental_uris": {"ios": "https://dc.lft.to/lastmile_qr_scan", "android": "https://dc.lft.to/lastmile_qr_scan"}, "lon": -77.0306835, "bike_id": "926b3afa25f46eeffd563a951bc684af", "type": "electric_scooter", "name": "926b3afa25f46eeffd563a951bc684af"}, {"is_disabled": 0, "is_reserved": 0, "fusion_lat": 0.0, "lat": 38.90707533333333, "fusion_lon": 0.0, "rental_uris": {"ios": "https://dc.lft.to/lastmile_qr_scan", "android": "https://dc.lft.to/lastmile_qr_scan"}, "lon": -77.04671916666666, "bike_id": "198e9aa35c8f33b86cd514ceda50f4c9", "type": "electric_scooter", "name": "198e9aa35c8f33b86cd514ceda50f4c9"}, {"is_disabled": 0, "is_reserved": 0, "fusion_lat": 0.0, "lat": 38.91576966666667, "fusion_lon": 0.0, "rental_uris": {"ios": "https://dc.lft.to/lastmile_qr_scan", "android": "https://dc.lft.to/lastmile_qr_scan"}, "lon": -77.036618, "bike_id": "bba9c29ae5add6ab0de15cc0de0fbf3b", "type": "electric_scooter", "name": "bba9c29ae5add6ab0de15cc0de0fbf3b"}, {"is_disabled": 0, "is_reserved": 0, "fusion_lat": 0.0, "lat": 38.96558733333333, "fusion_lon": 0.0, "rental_uris": {"ios": "https://dc.lft.to/lastmile_qr_scan", "android": "https://dc.lft.to/lastmile_qr_scan"}, "lon": -77.02815366666667, "bike_id": "96082739930ee7bfbe76c248396c7fcb", "type": "electric_bike", "name": "96082739930ee7bfbe76c248396c7fcb"}, {"is_disabled": 0, "is_reserved": 0, "fusion_lat": 0.0, "lat": 38.973704, "fusion_lon": 0.0, "rental_uris": {"ios": "https://dc.lft.to/lastmile_qr_scan", "android": "https://dc.lft.to/lastmile_qr_scan"}, "lon": -77.01864283333333, "bike_id": "6b97014c5e35d0f25edf39c83b40a856", "type": "electric_scooter", "name": "6b97014c5e35d0f25edf39c83b40a856"}, {"is_disabled": 0, "is_reserved": 0, "fusion_lat": 0.0, "lat": 38.9058625, "fusion_lon": 0.0, "rental_uris": {"ios": "https://dc.lft.to/lastmile_qr_scan", "android": "https://dc.lft.to/lastmile_qr_scan"}, "lon": -77.05146416666666, "bike_id": "e3ecb771365a610fcd986aa31ff50f67", "type": "electric_scooter", "name": "e3ecb771365a610fcd986aa31ff50f67"}, {"is_disabled": 0, "is_reserved": 0, "fusion_lat": 0.0, "lat": 38.90257066666667, "fusion_lon": 0.0, "rental_uris": {"ios": "https://dc.lft.to/lastmile_qr_scan", "android": "https://dc.lft.to/lastmile_qr_scan"}, "lon": -77.001658, "bike_id": "e37b3a28dc422445638d1d5f29374ace", "type": "electric_scooter", "name": "e37b3a28dc422445638d1d5f29374ace"}, {"is_disabled": 0, "is_reserved": 0, "fusion_lat": 0.0, "lat": 38.90840266666667, "fusion_lon": 0.0, "rental_uris": {"ios": "https://dc.lft.to/lastmile_qr_scan", "android": "https://dc.lft.to/lastmile_qr_scan"}, "lon": -77.07292333333334, "bike_id": "2489134e9fe0bc57600b9bde1820c72a", "type": "electric_scooter", "name": "2489134e9fe0bc57600b9bde1820c72a"}, {"is_disabled": 0, "is_reserved": 0, "fusion_lat": 0.0, "lat": 38.920596, "fusion_lon": 0.0, "rental_uris": {"ios": "https://dc.lft.to/lastmile_qr_scan", "android": "https://dc.lft.to/lastmile_qr_scan"}, "lon": -77.025132, "bike_id": "cf4b59ef1cb05292332b8954547b6c81", "type": "electric_scooter", "name": "cf4b59ef1cb05292332b8954547b6c81"}, {"is_disabled": 0, "is_reserved": 0, "fusion_lat": 0.0, "lat": 38.924786166666664, "fusion_lon": 0.0, "rental_uris": {"ios": "https://dc.lft.to/lastmile_qr_scan", "android": "https://dc.lft.to/lastmile_qr_scan"}, "lon": -77.02789683333333, "bike_id": "01e24ebd92816340fb318a8f6fb13daa", "type": "electric_scooter", "name": "01e24ebd92816340fb318a8f6fb13daa"}, {"is_disabled": 0, "is_reserved": 0, "fusion_lat": 0.0, "lat": 38.927834, "fusion_lon": 0.0, "rental_uris": {"ios": "https://dc.lft.to/lastmile_qr_scan", "android": "https://dc.lft.to/lastmile_qr_scan"}, "lon": -77.03141583333333, "bike_id": "40541b4a5c3cebd7e98fe82c6a31ccae", "type": "electric_scooter", "name": "40541b4a5c3cebd7e98fe82c6a31ccae"}, {"is_disabled": 0, "is_reserved": 0, "fusion_lat": 0.0, "lat": 38.93448183333334, "fusion_lon": 0.0, "rental_uris": {"ios": "https://dc.lft.to/lastmile_qr_scan", "android": "https://dc.lft.to/lastmile_qr_scan"}, "lon": -77.02830633333333, "bike_id": "751508a1963fe6f0c0f0e0bd52cca0a7", "type": "electric_scooter", "name": "751508a1963fe6f0c0f0e0bd52cca0a7"}, {"is_disabled": 0, "is_reserved": 0, "fusion_lat": 0.0, "lat": 38.896905333333336, "fusion_lon": 0.0, "rental_uris": {"ios": "https://dc.lft.to/lastmile_qr_scan", "android": "https://dc.lft.to/lastmile_qr_scan"}, "lon": -77.024106, "bike_id": "424ea445c10401d8587b629a19321519", "type": "electric_scooter", "name": "424ea445c10401d8587b629a19321519"}, {"is_disabled": 0, "is_reserved": 0, "fusion_lat": 0.0, "lat": 38.917277, "fusion_lon": 0.0, "rental_uris": {"ios": "https://dc.lft.to/lastmile_qr_scan", "android": "https://dc.lft.to/lastmile_qr_scan"}, "lon": -77.03321783333334, "bike_id": "e3054bc3f082c42195a5070e3ae64dec", "type": "electric_scooter", "name": "e3054bc3f082c42195a5070e3ae64dec"}, {"is_disabled": 0, "is_reserved": 0, "fusion_lat": 0.0, "lat": 38.90164566666667, "fusion_lon": 0.0, "rental_uris": {"ios": "https://dc.lft.to/lastmile_qr_scan", "android": "https://dc.lft.to/lastmile_qr_scan"}, "lon": -77.05333233333333, "bike_id": "16bbe2ab84f22b53e88da135a29f0bdb", "type": "electric_scooter", "name": "16bbe2ab84f22b53e88da135a29f0bdb"}, {"is_disabled": 0, "is_reserved": 0, "fusion_lat": 0.0, "lat": 38.91919633333333, "fusion_lon": 0.0, "rental_uris": {"ios": "https://dc.lft.to/lastmile_qr_scan", "android": "https://dc.lft.to/lastmile_qr_scan"}, "lon": -77.01184916666666, "bike_id": "f3e20304edd1fe9f4515fe9acae1c4e2", "type": "electric_scooter", "name": "f3e20304edd1fe9f4515fe9acae1c4e2"}, {"is_disabled": 0, "is_reserved": 0, "fusion_lat": 0.0, "lat": 38.89621416666667, "fusion_lon": 0.0, "rental_uris": {"ios": "https://dc.lft.to/lastmile_qr_scan", "android": "https://dc.lft.to/lastmile_qr_scan"}, "lon": -76.9075025, "bike_id": "b8be0ab8c327d2f1d50e841dabfcd3c6", "type": "electric_bike", "name": "b8be0ab8c327d2f1d50e841dabfcd3c6"}, {"is_disabled": 0, "is_reserved": 0, "fusion_lat": 0.0, "lat": 38.922562166666665, "fusion_lon": 0.0, "rental_uris": {"ios": "https://dc.lft.to/lastmile_qr_scan", "android": "https://dc.lft.to/lastmile_qr_scan"}, "lon": -77.034124, "bike_id": "8e1fa1e0de0394c7bbcf03227823891a", "type": "electric_scooter", "name": "8e1fa1e0de0394c7bbcf03227823891a"}, {"is_disabled": 0, "is_reserved": 0, "fusion_lat": 0.0, "lat": 38.95876966666667, "fusion_lon": 0.0, "rental_uris": {"ios": "https://dc.lft.to/lastmile_qr_scan", "android": "https://dc.lft.to/lastmile_qr_scan"}, "lon": -77.014034, "bike_id": "bd515805e5f2bd16fc4713f0de25df7e", "type": "electric_bike", "name": "bd515805e5f2bd16fc4713f0de25df7e"}, {"is_disabled": 0, "is_reserved": 0, "fusion_lat": 0.0, "lat": 38.92334183333333, "fusion_lon": 0.0, "rental_uris": {"ios": "https://dc.lft.to/lastmile_qr_scan", "android": "https://dc.lft.to/lastmile_qr_scan"}, "lon": -77.03662983333334, "bike_id": "b06c363467329f97ab5564a4696bf0ea", "type": "electric_scooter", "name": "b06c363467329f97ab5564a4696bf0ea"}, {"is_disabled": 0, "is_reserved": 0, "fusion_lat": 0.0, "lat": 38.87885266666667, "fusion_lon": 0.0, "rental_uris": {"ios": "https://dc.lft.to/lastmile_qr_scan", "android": "https://dc.lft.to/lastmile_qr_scan"}, "lon": -76.965435, "bike_id": "c260cc1f8fd38a79919d099ad23151fb", "type": "electric_scooter", "name": "c260cc1f8fd38a79919d099ad23151fb"}, {"is_disabled": 0, "is_reserved": 0, "fusion_lat": 0.0, "lat": 38.9568685, "fusion_lon": 0.0, "rental_uris": {"ios": "https://dc.lft.to/lastmile_qr_scan", "android": "https://dc.lft.to/lastmile_qr_scan"}, "lon": -77.02227516666666, "bike_id": "0304cbff3d846f0e9521ce3925ea4e61", "type": "electric_scooter", "name": "0304cbff3d846f0e9521ce3925ea4e61"}, {"is_disabled": 0, "is_reserved": 0, "fusion_lat": 0.0, "lat": 38.919894, "fusion_lon": 0.0, "rental_uris": {"ios": "https://dc.lft.to/lastmile_qr_scan", "android": "https://dc.lft.to/lastmile_qr_scan"}, "lon": -77.0179065, "bike_id": "d433a0e5be8b11205888a5f810f58ca9", "type": "electric_scooter", "name": "d433a0e5be8b11205888a5f810f58ca9"}, {"is_disabled": 0, "is_reserved": 0, "fusion_lat": 0.0, "lat": 38.917116, "fusion_lon": 0.0, "rental_uris": {"ios": "https://dc.lft.to/lastmile_qr_scan", "android": "https://dc.lft.to/lastmile_qr_scan"}, "lon": -77.03468683333334, "bike_id": "bc74550454d38db60e6ccb73e7f35c19", "type": "electric_scooter", "name": "bc74550454d38db60e6ccb73e7f35c19"}, {"is_disabled": 0, "is_reserved": 0, "fusion_lat": 0.0, "lat": 38.93195, "fusion_lon": 0.0, "rental_uris": {"ios": "https://dc.lft.to/lastmile_qr_scan", "android": "https://dc.lft.to/lastmile_qr_scan"}, "lon": -77.02354933333334, "bike_id": "c4bfd9a5d3ce6486eb000354d20f2b82", "type": "electric_scooter", "name": "c4bfd9a5d3ce6486eb000354d20f2b82"}, {"is_disabled": 0, "is_reserved": 0, "fusion_lat": 0.0, "lat": 38.91790616666667, "fusion_lon": 0.0, "rental_uris": {"ios": "https://dc.lft.to/lastmile_qr_scan", "android": "https://dc.lft.to/lastmile_qr_scan"}, "lon": -77.02314016666666, "bike_id": "d97d583ac70f87a75ec68a7126b45497", "type": "electric_scooter", "name": "d97d583ac70f87a75ec68a7126b45497"}, {"is_disabled": 0, "is_reserved": 0, "fusion_lat": 0.0, "lat": 38.904064166666664, "fusion_lon": 0.0, "rental_uris": {"ios": "https://dc.lft.to/lastmile_qr_scan", "android": "https://dc.lft.to/lastmile_qr_scan"}, "lon": -77.05329183333333, "bike_id": "d2a8fa052ceabbdb769e03feada60f0a", "type": "electric_scooter", "name": "d2a8fa052ceabbdb769e03feada60f0a"}, {"is_disabled": 0, "is_reserved": 0, "fusion_lat": 0.0, "lat": 38.92075416666667, "fusion_lon": 0.0, "rental_uris": {"ios": "https://dc.lft.to/lastmile_qr_scan", "android": "https://dc.lft.to/lastmile_qr_scan"}, "lon": -77.02312966666666, "bike_id": "c5eb9d365bc7ce8bbe9c59e4760ce416", "type": "electric_scooter", "name": "c5eb9d365bc7ce8bbe9c59e4760ce416"}, {"is_disabled": 0, "is_reserved": 0, "fusion_lat": 0.0, "lat": 38.904400833333334, "fusion_lon": 0.0, "rental_uris": {"ios": "https://dc.lft.to/lastmile_qr_scan", "android": "https://dc.lft.to/lastmile_qr_scan"}, "lon": -77.02593383333334, "bike_id": "bf13e24e4d1285bde7ed381ef65c84ab", "type": "electric_scooter", "name": "bf13e24e4d1285bde7ed381ef65c84ab"}, {"is_disabled": 0, "is_reserved": 0, "fusion_lat": 0.0, "lat": 38.887621333333335, "fusion_lon": 0.0, "rental_uris": {"ios": "https://dc.lft.to/lastmile_qr_scan", "android": "https://dc.lft.to/lastmile_qr_scan"}, "lon": -77.033431, "bike_id": "45163a49215df82ecba0113d3a3f2ca0", "type": "electric_scooter", "name": "45163a49215df82ecba0113d3a3f2ca0"}, {"is_disabled": 0, "is_reserved": 0, "fusion_lat": 0.0, "lat": 38.935314, "fusion_lon": 0.0, "rental_uris": {"ios": "https://dc.lft.to/lastmile_qr_scan", "android": "https://dc.lft.to/lastmile_qr_scan"}, "lon": -77.03262383333333, "bike_id": "4f313a6b9922da8bf53d880847229a4f", "type": "electric_scooter", "name": "4f313a6b9922da8bf53d880847229a4f"},