{"data": {"bikes": [{"name": "3053df8e08368423f6e9aeaaa7d78633", "lon": -77.00203633333334, "lat": 38.8193755, "type": "electric_bike", "fusion_lon": 0.0, "is_reserved": 0, "bike_id": "3053df8e08368423f6e9aeaaa7d78633", "fusion_lat": 0.0, "is_disabled": 0, "rental_uris": {"ios": "https://dc.lft.to/lastmile_qr_scan", "android": "https://dc.lft.to/lastmile_qr_scan"}}, {"name": "d9463d50f3c3a3aca032fbd6e0145d2f", "lon": -77.046777, "lat": 38.905495333333334, "type": "electric_scooter", "fusion_lon": 0.0, "is_reserved": 0, "bike_id": "d9463d50f3c3a3aca032fbd6e0145d2f", "fusion_lat": 0.0, "is_disabled": 0, "rental_uris": {"ios": "https://dc.lft.to/lastmile_qr_scan", "android": "https://dc.lft.to/lastmile_qr_scan"}}, {"name": "f0003a8d58b561195f6c2781e26b2c2a", "lon": -77.03179616666667, "lat": 38.91173933333334, "type": "electric_scooter", "fusion_lon": 0.0, "is_reserved": 0, "bike_id": "f0003a8d58b561195f6c2781e26b2c2a", "fusion_lat": 0.0, "is_disabled": 0, "rental_uris": {"ios": "https://dc.lft.to/lastmile_qr_scan", "android": "https://dc.lft.to/lastmile_qr_scan"}}, {"name": "4c28ea74f6daedb98c6d7a85131f4367", "lon": -76.95095416666666, "lat": 38.88449383333333, "type": "electric_scooter", "fusion_lon": 0.0, "is_reserved": 0, "bike_id": "4c28ea74f6daedb98c6d7a85131f4367", "fusion_lat": 0.0, "is_disabled": 0, "rental_uris": {"ios": "https://dc.lft.to/lastmile_qr_scan", "android": "https://dc.lft.to/lastmile_qr_scan"}}, {"name": "10c0ab5942cf49e785ae0f5cc099bc88", "lon": -77.0453595, "lat": 38.913259833333335, "type": "electric_scooter", "fusion_lon": 0.0, "is_reserved": 0, "bike_id": "10c0ab5942cf49e785ae0f5cc099bc88", "fusion_lat": 0.0, "is_disabled": 0, "rental_uris": {"ios": "https://dc.lft.to/lastmile_qr_scan", "android": "https://dc.lft.to/lastmile_qr_scan"}}, {"name": "f033fff20813d560cc85916e48084463", "lon": -76.9904015, "lat": 38.938134, "type": "electric_bike", "fusion_lon": 0.0, "is_reserved": 0, "bike_id": "f033fff20813d560cc85916e48084463", "fusion_lat": 0.0, "is_disabled": 0, "rental_uris": {"ios": "https://dc.lft.to/lastmile_qr_scan", "android": "https://dc.lft.to/lastmile_qr_scan"}}, {"name": "284f4b10e6f2f357b79b5929b5c54dc5", "lon": -77.0414265, "lat": 38.921712666666664, "type": "electric_scooter", "fusion_lon": 0.0, "is_reserved": 0, "bike_id": "284f4b10e6f2f357b79b5929b5c54dc5", "fusion_lat": 0.0, "is_disabled": 0, "rental_uris": {"ios": "https://dc.lft.to/lastmile_qr_scan", "android": "https://dc.lft.to/lastmile_qr_scan"}}, {"name": "d0f06bf212685ab388e1233c0513fbdb", "lon": -77.02370066666667, "lat": 38.920664, "type": "electric_scooter", "fusion_lon": 0.0, "is_reserved": 0, "bike_id": "d0f06bf212685ab388e1233c0513fbdb", "fusion_lat": 0.0, "is_disabled": 0, "rental_uris": {"ios": "https://dc.lft.to/lastmile_qr_scan", "android": "https://dc.lft.to/lastmile_qr_scan"}}, {"name": "bfe4f715fedc058a81a7db5821d37f04", "lon": -77.02606166666666, "lat": 38.9275725, "type": "electric_scooter", "fusion_lon": 0.0, "is_reserved": 0, "bike_id": "bfe4f715fedc058a81a7db5821d37f04", "fusion_lat": 0.0, "is_disabled": 0, "rental_uris": {"ios": "https://dc.lft.to/lastmile_qr_scan", "android": "https://dc.lft.to/lastmile_qr_scan"}}, {"name": "6e3fbe1a6af972f3e867a5b0c91c1add", "lon": -77.02711383333333, "lat": 38.9271045, "type": "electric_scooter", "fusion_lon": 0.0, "is_reserved": 0, "bike_id": "6e3fbe1a6af972f3e867a5b0c91c1add", "fusion_lat": 0.0, "is_disabled": 0, "rental_uris": {"ios": "https://dc.lft.to/lastmile_qr_scan", "android": "https://dc.lft.to/lastmile_qr_scan"}}, {"name": "a284887aaaac8393506c553d41c5b28d", "lon": -77.04133383333334, "lat": 38.80503516666667, "type": "electric_bike", "fusion_lon": 0.0, "is_reserved": 0, "bike_id": "a284887aaaac8393506c553d41c5b28d", "fusion_lat": 0.0, "is_disabled": 0, "rental_uris": {"ios": "https://dc.lft.to/lastmile_qr_scan", "android": "https://dc.lft.to/lastmile_qr_scan"}}, {"name": "d7a57d2bf4c4cd1d6198b7663b3d7839", "lon": -77.02400433333334, "lat": 38.916011, "type": "electric_scooter", "fusion_lon": 0.0, "is_reserved": 0, "bike_id": "d7a57d2bf4c4cd1d6198b7663b3d7839", "fusion_lat": 0.0, "is_disabled": 0, "rental_uris": {"ios": "https://dc.lft.to/lastmile_qr_scan", "android": "https://dc.lft.to/lastmile_qr_scan"}}, {"name": "863b37e018d035a9df4b215b5d9f6bdb", "lon": -77.04024733333334, "lat": 38.922672, "type": "electric_scooter", "fusion_lon": 0.0, "is_reserved": 0, "bike_id": "863b37e018d035a9df4b215b5d9f6bdb", "fusion_lat": 0.0, "is_disabled": 0, "rental_uris": {"ios": "https://dc.lft.to/lastmile_qr_scan", "android": "https://dc.lft.to/lastmile_qr_scan"}}, {"name": "bc7de8dbd8cd9a1f481e964261f91841", "lon": -77.04130816666667, "lat": 38.9231415, "type": "electric_scooter", "fusion_lon": 0.0, "is_reserved": 0, "bike_id": "bc7de8dbd8cd9a1f481e964261f91841", "fusion_lat": 0.0, "is_disabled": 0, "rental_uris": {"ios": "https://dc.lft.to/lastmile_qr_scan", "android": "https://dc.lft.to/lastmile_qr_scan"}}, {"name": "2708e27d864dfc22c8c2bb31381c9de7", "lon": -77.02302583333334, "lat": 38.915486, "type": "electric_scooter", "fusion_lon": 0.0, "is_reserved": 0, "bike_id": "2708e27d864dfc22c8c2bb31381c9de7", "fusion_lat": 0.0, "is_disabled": 0, "rental_uris": {"ios": "https://dc.lft.to/lastmile_qr_scan", "android": "https://dc.lft.to/lastmile_qr_scan"}}, {"name": "8fcc7710853e1cb886f63f31f1bd10e2", "lon": -77.02410766666667, "lat": 38.917022833333334, "type": "electric_scooter", "fusion_lon": 0.0, "is_reserved": 0, "bike_id": "8fcc7710853e1cb886f63f31f1bd10e2", "fusion_lat": 0.0, "is_disabled": 0, "rental_uris": {"ios": "https://dc.lft.to/lastmile_qr_scan", "android": "https://dc.lft.to/lastmile_qr_scan"}}, {"name": "acf52cd5eff6234a25b21c9401a09e59", "lon": -76.99561333333334, "lat": 38.86258316666667, "type": "electric_scooter", "fusion_lon": 0.0, "is_reserved": 0, "bike_id": "acf52cd5eff6234a25b21c9401a09e59", "fusion_lat": 0.0, "is_disabled": 0, "rental_uris": {"ios": "https://dc.lft.to/lastmile_qr_scan", "android": "https://dc.lft.to/lastmile_qr_scan"}}, {"name": "e076716079644d2e8d171250c974ad60", "lon": -77.04699816666667, "lat": 38.921550333333336, "type": "electric_scooter", "fusion_lon": 0.0, "is_reserved": 0, "bike_id": "e076716079644d2e8d171250c974ad60", "fusion_lat": 0.0, "is_disabled": 0, "rental_uris": {"ios": "https://dc.lft.to/lastmile_qr_scan", "android": "https://dc.lft.to/lastmile_qr_scan"}}, {"name": "ad6a9ac88e7698999a1132b8341177f4", "lon": -77.038496, "lat": 38.9117975, "type": "electric_scooter", "fusion_lon": 0.0, "is_reserved": 0, "bike_id": "ad6a9ac88e7698999a1132b8341177f4", "fusion_lat": 0.0, "is_disabled": 0, "rental_uris": {"ios": "https://dc.lft.to/lastmile_qr_scan", "android": "https://dc.lft.to/lastmile_qr_scan"}}, {"name": "2242ed6dfa3c93ef1a873541e24ce4ce", "lon": -77.03906883333333, "lat": 38.918298, "type": "electric_scooter", "fusion_lon": 0.0, "is_reserved": 0, "bike_id": "2242ed6dfa3c93ef1a873541e24ce4ce", "fusion_lat": 0.0, "is_disabled": 0, "rental_uris": {"ios": "https://dc.lft.to/lastmile_qr_scan", "android": "https://dc.lft.to/lastmile_qr_scan"}}, {"name": "aa4f29dd1bac243343f2e20d0a5689c4", "lon": -77.022518, "lat": 38.92309, "type": "electric_scooter", "fusion_lon": 0.0, "is_reserved": 0, "bike_id": "aa4f29dd1bac243343f2e20d0a5689c4", "fusion_lat": 0.0, "is_disabled": 0, "rental_uris": {"ios": "https://dc.lft.to/lastmile_qr_scan", "android": "https://dc.lft.to/lastmile_qr_scan"}}, {"name": "1227e1b5cc2bd8bd0583510207f48f33", "lon": -76.9977895, "lat": 38.84428533333333, "type": "electric_scooter", "fusion_lon": 0.0, "is_reserved": 0, "bike_id": "1227e1b5cc2bd8bd0583510207f48f33", "fusion_lat": 0.0, "is_disabled": 0, "rental_uris": {"ios": "https://dc.lft.to/lastmile_qr_scan", "android": "https://dc.lft.to/lastmile_qr_scan"}}, {"name": "1f6a99edfa725bee285e81228e2cb234", "lon": -76.98316416666667, "lat": 38.86886716666667, "type": "electric_scooter", "fusion_lon": 0.0, "is_reserved": 0, "bike_id": "1f6a99edfa725bee285e81228e2cb234", "fusion_lat": 0.0, "is_disabled": 0, "rental_uris": {"ios": "https://dc.lft.to/lastmile_qr_scan", "android": "https://dc.lft.to/lastmile_qr_scan"}}, {"name": "88aa24128604907bf9ecb9064973768c", "lon": -77.053279, "lat": 38.900047, "type": "electric_scooter", "fusion_lon": 0.0, "is_reserved": 0, "bike_id": "88aa24128604907bf9ecb9064973768c", "fusion_lat": 0.0, "is_disabled": 0, "rental_uris": {"ios": "https://dc.lft.to/lastmile_qr_scan", "android": "https://dc.lft.to/lastmile_qr_scan"}}, {"name": "dfd7b4f292da8bf6b0c2e87e6cad407a", "lon": -77.01172783333334, "lat": 38.916961, "type": "electric_scooter", "fusion_lon": 0.0, "is_reserved": 0, "bike_id": "dfd7b4f292da8bf6b0c2e87e6cad407a", "fusion_lat": 0.0, "is_disabled": 0, "rental_uris": {"ios": "https://dc.lft.to/lastmile_qr_scan", "android": "https://dc.lft.to/lastmile_qr_scan"}}, {"name": "554fd1780ba0621a6646e7d875c568e4", "lon": -77.02812816666666, "lat": 38.960841333333335, "type": "electric_scooter", "fusion_lon": 0.0, "is_reserved": 0, "bike_id": "554fd1780ba0621a6646e7d875c568e4", "fusion_lat": 0.0, "is_disabled": 0, "rental_uris": {"ios": "https://dc.lft.to/lastmile_qr_scan", "android": "https://dc.lft.to/lastmile_qr_scan"}}, {"name": "a4f998634be056324e1a87d5a1afa8d5", "lon": -77.0288855, "lat": 38.9172815, "type": "electric_scooter", "fusion_lon": 0.0, "is_reserved": 0, "bike_id": "a4f998634be056324e1a87d5a1afa8d5", "fusion_lat": 0.0, "is_disabled": 0, "rental_uris": {"ios": "https://dc.lft.to/lastmile_qr_scan", "android": "https://dc.lft.to/lastmile_qr_scan"}}, {"name": "f37c53050eb24f6bb37e10bd3bb050c3", "lon": -77.0304945, "lat": 38.88407466666666, "type": "electric_scooter", "fusion_lon": 0.0, "is_reserved": 0, "bike_id": "f37c53050eb24f6bb37e10bd3bb050c3", "fusion_lat": 0.0, "is_disabled": 0, "rental_uris": {"ios": "https://dc.lft.to/lastmile_qr_scan", "android": "https://dc.lft.to/lastmile_qr_scan"}}, {"name": "300730a30d4749295fbf834d42d90a0c", "lon": -77.07235416666667, "lat": 38.94007933333334, "type": "electric_scooter", "fusion_lon": 0.0, "is_reserved": 0, "bike_id": "300730a30d4749295fbf834d42d90a0c", "fusion_lat": 0.0, "is_disabled": 0, "rental_uris": {"ios": "https://dc.lft.to/lastmile_qr_scan", "android": "https://dc.lft.to/lastmile_qr_scan"}}, {"name": "78ad9fb4ffb78f1993692f3a1be1e0bb", "lon": -77.06401366666667, "lat": 38.8405845, "type": "electric_bike", "fusion_lon": 0.0, "is_reserved": 0, "bike_id": "78ad9fb4ffb78f1993692f3a1be1e0bb", "fusion_lat": 0.0, "is_disabled": 0, "rental_uris": {"ios": "https://dc.lft.to/lastmile_qr_scan", "android": "https://dc.lft.to/lastmile_qr_scan"}}, {"name": "ff19648c44eac8a0a36681673bff846e", "lon": -77.02416016666666, "lat": 38.908591, "type": "electric_scooter", "fusion_lon": 0.0, "is_reserved": 0, "bike_id": "ff19648c44eac8a0a36681673bff846e", "fusion_lat": 0.0, "is_disabled": 0, "rental_uris": {"ios": "https://dc.lft.to/lastmile_qr_scan", "android": "https://dc.lft.to/lastmile_qr_scan"}}, {"name": "4b7b3ef2eab5329cfc117a3cef0e4602", "lon": -76.96051183333333, "lat": 38.88403616666667, "type": "electric_bike", "fusion_lon": 0.0, "is_reserved": 0, "bike_id": "4b7b3ef2eab5329cfc117a3cef0e4602", "fusion_lat": 0.0, "is_disabled": 0, "rental_uris": {"ios": "https://dc.lft.to/lastmile_qr_scan", "android": "https://dc.lft.to/lastmile_qr_scan"}}, {"name": "3bbd5d502823cfe7f217289780674a14", "lon": -77.0178695, "lat": 38.9013045, "type": "electric_scooter", "fusion_lon": 0.0, "is_reserved": 0, "bike_id": "3bbd5d502823cfe7f217289780674a14", "fusion_lat": 0.0, "is_disabled": 0, "rental_uris": {"ios": "https://dc.lft.to/lastmile_qr_scan", "android": "https://dc.lft.to/lastmile_qr_scan"}}, {"name": "ba0a4e362d284d77d19b3bf67fd6a1ee", "lon": -77.044128, "lat": 38.93333616666666, "type": "electric_scooter", "fusion_lon": 0.0, "is_reserved": 0, "bike_id": "ba0a4e362d284d77d19b3bf67fd6a1ee", "fusion_lat": 0.0, "is_disabled": 0, "rental_uris": {"ios": "https://dc.lft.to/lastmile_qr_scan", "android": "https://dc.lft.to/lastmile_qr_scan"}}, {"name": "7f7459045c2bc1a06fc89897daf7206d", "lon": -76.98380833333333, "lat": 38.861247, "type": "electric_scooter", "fusion_lon": 0.0, "is_reserved": 0, "bike_id": "7f7459045c2bc1a06fc89897daf7206d", "fusion_lat": 0.0, "is_disabled": 0, "rental_uris": {"ios": "https://dc.lft.to/lastmile_qr_scan", "android": "https://dc.lft.to/lastmile_qr_scan"}}, {"name": "f26f2a48c16a1b82bf087cacf2098bed", "lon": -76.99528116666667, "lat": 38.862482166666666, "type": "electric_scooter", "fusion_lon": 0.0, "is_reserved": 0, "bike_id": "f26f2a48c16a1b82bf087cacf2098bed", "fusion_lat": 0.0, "is_disabled": 0, "rental_uris": {"ios": "https://dc.lft.to/lastmile_qr_scan", "android": "https://dc.lft.to/lastmile_qr_scan"}}, {"name": "8114f03ebf576c4486f30db912400756", "lon": -77.01203183333334, "lat": 38.90009466666667, "type": "electric_scooter", "fusion_lon": 0.0, "is_reserved": 0, "bike_id": "8114f03ebf576c4486f30db912400756", "fusion_lat": 0.0, "is_disabled": 0, "rental_uris": {"ios": "https://dc.lft.to/lastmile_qr_scan", "android": "https://dc.lft.to/lastmile_qr_scan"}}, {"name": "56d5a005357868af7842a4bcd8d457c4", "lon": -76.98117466666666, "lat": 38.9146655, "type": "electric_scooter", "fusion_lon": 0.0, "is_reserved": 0, "bike_id": "56d5a005357868af7842a4bcd8d457c4", "fusion_lat": 0.0, "is_disabled": 0, "rental_uris": {"ios": "https://dc.lft.to/lastmile_qr_scan", "android": "https://dc.lft.to/lastmile_qr_scan"}}, {"name": "f75ec41e70c255ab65a7db245d5dc5a5", "lon": -77.018009, "lat": 38.8767325, "type": "electric_scooter", "fusion_lon": 0.0, "is_reserved": 0, "bike_id": "f75ec41e70c255ab65a7db245d5dc5a5", "fusion_lat": 0.0, "is_disabled": 0, "rental_uris": {"ios": "https://dc.lft.to/lastmile_qr_scan", "android": "https://dc.lft.to/lastmile_qr_scan"}}, {"name": "131adc2c3f4532fef9accc10e83299a7", "lon": -76.97716583333333, "lat": 38.88820883333333, "type": "electric_scooter", "fusion_lon": 0.0, "is_reserved": 0, "bike_id": "131adc2c3f4532fef9accc10e83299a7", "fusion_lat": 0.0, "is_disabled": 0, "rental_uris": {"ios": "https://dc.lft.to/lastmile_qr_scan", "android": "https://dc.lft.to/lastmile_qr_scan"}}, {"name": "86655991d994317252ecdbedb07649db", "lon": -77.03177633333334, "lat": 38.909681, "type": "electric_scooter", "fusion_lon": 0.0, "is_reserved": 0, "bike_id": "86655991d994317252ecdbedb07649db", "fusion_lat": 0.0, "is_disabled": 0, "rental_uris": {"ios": "https://dc.lft.to/lastmile_qr_scan", "android": "https://dc.lft.to/lastmile_qr_scan"}}, {"name": "e711e7c3dc0da7c5b54063c506dae94d", "lon": -77.03181233333333, "lat": 38.912543166666666, "type": "electric_scooter", "fusion_lon": 0.0, "is_reserved": 0, "bike_id": "e711e7c3dc0da7c5b54063c506dae94d", "fusion_lat": 0.0, "is_disabled": 0, "rental_uris": {"ios": "https://dc.lft.to/lastmile_qr_scan", "android": "https://dc.lft.to/lastmile_qr_scan"}}, {"name": "d661e7e297e2f67760274bda2f52bcd3", "lon": -77.02805566666666, "lat": 38.9608555, "type": "electric_scooter", "fusion_lon": 0.0, "is_reserved": 0, "bike_id": "d661e7e297e2f67760274bda2f52bcd3", "fusion_lat": 0.0, "is_disabled": 0, "rental_uris": {"ios": "https://dc.lft.to/lastmile_qr_scan", "android": "https://dc.lft.to/lastmile_qr_scan"}}, {"name": "41d02e8f1b08e8d943ee183634890fd0", "lon": -77.00798983333334, "lat": 38.89718283333333, "type": "electric_scooter", "fusion_lon": 0.0, "is_reserved": 0, "bike_id": "41d02e8f1b08e8d943ee183634890fd0", "fusion_lat": 0.0, "is_disabled": 0, "rental_uris": {"ios": "https://dc.lft.to/lastmile_qr_scan", "android": "https://dc.lft.to/lastmile_qr_scan"}}, {"name": "3d6ed0a51ed2a5254b3192cf1587122a", "lon": -77.0241225, "lat": 38.892560833333334, "type": "electric_scooter", "fusion_lon": 0.0, "is_reserved": 0, "bike_id": "3d6ed0a51ed2a5254b3192cf1587122a", "fusion_lat": 0.0, "is_disabled": 0, "rental_uris": {"ios": "https://dc.lft.to/lastmile_qr_scan", "android": "https://dc.lft.to/lastmile_qr_scan"}}, {"name": "a4492ec0df766b1d0932dc3f20356891", "lon": -77.04556116666667, "lat": 38.91770133333333, "type": "electric_scooter", "fusion_lon": 0.0, "is_reserved": 0, "bike_id": "a4492ec0df766b1d0932dc3f20356891", "fusion_lat": 0.0, "is_disabled": 0, "rental_uris": {"ios": "https://dc.lft.to/lastmile_qr_scan", "android": "https://dc.lft.to/lastmile_qr_scan"}}, {"name": "583a3bbb39deefab21604199baa868da", "lon": -77.022784, "lat": 38.916365, "type": "electric_scooter", "fusion_lon": 0.0, "is_reserved": 0, "bike_id": "583a3bbb39deefab21604199baa868da", "fusion_lat": 0.0, "is_disabled": 0, "rental_uris": {"ios": "https://dc.lft.to/lastmile_qr_scan", "android": "https://dc.lft.to/lastmile_qr_scan"}}, {"name": "8d8293e0b4ef1b5341005ae87d4f3a30", "lon": -77.08167966666667, "lat": 38.93550883333333, "type": "electric_scooter", "fusion_lon": 0.0, "is_reserved": 0, "bike_id": "8d8293e0b4ef1b5341005ae87d4f3a30", "fusion_lat": 0.0, "is_disabled": 0, "rental_uris": {"ios": "https://dc.lft.to/lastmile_qr_scan", "android": "https://dc.lft.to/lastmile_qr_scan"}}, {"name": "0031221bccfda26c2e2f4491ca5ac025", "lon": -77.024699, "lat": 38.9329795, "type": "electric_scooter", "fusion_lon": 0.0, "is_reserved": 0, "bike_id": "0031221bccfda26c2e2f4491ca5ac025", "fusion_lat": 0.0, "is_disabled": 0, "rental_uris": {"ios": "https://dc.lft.to/lastmile_qr_scan", "android": "https://dc.lft.to/lastmile_qr_scan"}}, {"name": "1d582f873f4f9923a845b03530d2d4d8", "lon": -77.024026, "lat": 38.907099, "type": "electric_scooter", "fusion_lon": 0.0, "is_reserved": 0, "bike_id": "1d582f873f4f9923a845b03530d2d4d8", "fusion_lat": 0.0, "is_disabled": 0, "rental_uris": {"ios": "https://dc.lft.to/lastmile_qr_scan", "android": "https://dc.lft.to/lastmile_qr_scan"}}, {"name": "d136142fd3dd219c06b0a9ea2871081d", "lon": -77.01531316666667, "lat": 38.8875015, "type": "electric_scooter", "fusion_lon": 0.0, "is_reserved": 0, "bike_id": "d136142fd3dd219c06b0a9ea2871081d", "fusion_lat": 0.0, "is_disabled": 0, "rental_uris": {"ios": "https://dc.lft.to/lastmile_qr_scan", "android": "https://dc.lft.to/lastmile_qr_scan"}}, {"name": "a7977266db8d4eeccb7beb27e160caf4", "lon": -77.0238145, "lat": 38.919927333333334, "type": "electric_scooter", "fusion_lon": 0.0, "is_reserved": 0, "bike_id": "a7977266db8d4eeccb7beb27e160caf4", "fusion_lat": 0.0, "is_disabled": 0, "rental_uris": {"ios": "https://dc.lft.to/lastmile_qr_scan", "android": "https://dc.lft.to/lastmile_qr_scan"}}, {"name": "e82dd957b8de76bf07f0e5555a2b89d5", "lon": -77.02384316666667, "lat": 38.91962433333333, "type": "electric_scooter", "fusion_lon": 0.0, "is_reserved": 0, "bike_id": "e82dd957b8de76bf07f0e5555a2b89d5", "fusion_lat": 0.0, "is_disabled": 0, "rental_uris": {"ios": "https://dc.lft.to/lastmile_qr_scan", "android": "https://dc.lft.to/lastmile_qr_scan"}}, {"name": "8218473273912b358a8bc2ebfae51826", "lon": -77.02694483333333, "lat": 38.91344466666666, "type": "electric_scooter", "fusion_lon": 0.0, "is_reserved": 0, "bike_id": "8218473273912b358a8bc2ebfae51826", "fusion_lat": 0.0, "is_disabled": 0, "rental_uris": {"ios": "https://dc.lft.to/lastmile_qr_scan", "android": "https://dc.lft.to/lastmile_qr_scan"}}, {"name": "88b65da6064da67f21d8695811e31498", "lon": -77.04105, "lat": 38.9280485, "type": "electric_scooter", "fusion_lon": 0.0, "is_reserved": 0, "bike_id": "88b65da6064da67f21d8695811e31498", "fusion_lat": 0.0, "is_disabled": 0, "rental_uris": {"ios": "https://dc.lft.to/lastmile_qr_scan", "android": "https://dc.lft.to/lastmile_qr_scan"}}, {"name": "e2bc867a2e5e8626f9992a984594af91", "lon": -77.03172316666667, "lat": 38.900007333333335, "type": "electric_scooter", "fusion_lon": 0.0, "is_reserved": 0, "bike_id": "e2bc867a2e5e8626f9992a984594af91", "fusion_lat": 0.0, "is_disabled": 0, "rental_uris": {"ios": "https://dc.lft.to/lastmile_qr_scan", "android": "https://dc.lft.to/lastmile_qr_scan"}}, {"name": "867a6d48740f055220a07e1d5b1b01b3", "lon": -77.029074, "lat": 38.898430166666664, "type": "electric_scooter", "fusion_lon": 0.0, "is_reserved": 0, "bike_id": "867a6d48740f055220a07e1d5b1b01b3", "fusion_lat": 0.0, "is_disabled": 0, "rental_uris": {"ios": "https://dc.lft.to/lastmile_qr_scan", "android": "https://dc.lft.to/lastmile_qr_scan"}}, {"name": "bd8bc5d91a79a129834aabf473faae25", "lon": -77.013493, "lat": 38.89910183333333, "type": "electric_scooter", "fusion_lon": 0.0, "is_reserved": 0, "bike_id": "bd8bc5d91a79a129834aabf473faae25", "fusion_lat": 0.0, "is_disabled": 0, "rental_uris": {"ios": "https://dc.lft.to/lastmile_qr_scan", "android": "https://dc.lft.to/lastmile_qr_scan"}}, {"name": "e652211b6688b11b5264ce87917abedf", "lon": -77.02093116666667, "lat": 38.904298, "type": "electric_scooter", "fusion_lon": 0.0, "is_reserved": 0, "bike_id": "e652211b6688b11b5264ce87917abedf", "fusion_lat": 0.0, "is_disabled": 0, "rental_uris": {"ios": "https://dc.lft.to/lastmile_qr_scan", "android": "https://dc.lft.to/lastmile_qr_scan"}}, {"name": "a0d72bfe12f010a154459924be38817f", "lon": -77.05326116666667, "lat": 38.92795733333333, "type": "electric_scooter", "fusion_lon": 0.0, "is_reserved": 0, "bike_id": "a0d72bfe12f010a154459924be38817f", "fusion_lat": 0.0, "is_disabled": 0, "rental_uris": {"ios": "https://dc.lft.to/lastmile_qr_scan", "android": "https://dc.lft.to/lastmile_qr_scan"}}, {"name": "cf274bbde27c787dc1dfbe5cdf69033b", "lon": -77.0385885, "lat": 38.903625166666664, "type": "electric_scooter", "fusion_lon": 0.0, "is_reserved": 0, "bike_id": "cf274bbde27c787dc1dfbe5cdf69033b", "fusion_lat": 0.0, "is_disabled": 0, "rental_uris": {"ios": "https://dc.lft.to/lastmile_qr_scan", "android": "https://dc.lft.to/lastmile_qr_scan"}}, {"name": "c2182bfabf983bbddc12d0bf084f9745", "lon": -76.97245266666667, "lat": 38.85457683333333, "type": "electric_bike", "fusion_lon": 0.0, "is_reserved": 0, "bike_id": "c2182bfabf983bbddc12d0bf084f9745", "fusion_lat": 0.0, "is_disabled": 0, "rental_uris": {"ios": "https://dc.lft.to/lastmile_qr_scan", "android": "https://dc.lft.to/lastmile_qr_scan"}}, {"name": "98b15505c39d5322228855f4867e4356", "lon": -77.03853716666667, "lat": 38.931285, "type": "electric_scooter", "fusion_lon": 0.0, "is_reserved": 0, "bike_id": "98b15505c39d5322228855f4867e4356", "fusion_lat": 0.0, "is_disabled": 0, "rental_uris": {"ios": "https://dc.lft.to/lastmile_qr_scan", "android": "https://dc.lft.to/lastmile_qr_scan"}}, {"name": "5abddf6407b13b688f546037e5374bc1", "lon": -77.030265, "lat": 38.89619616666667, "type": "electric_scooter", "fusion_lon": 0.0, "is_reserved": 0, "bike_id": "5abddf6407b13b688f546037e5374bc1", "fusion_lat": 0.0, "is_disabled": 0, "rental_uris": {"ios": "https://dc.lft.to/lastmile_qr_scan", "android": "https://dc.lft.to/lastmile_qr_scan"}}, {"name": "46eb5e92081b987b72f11c47066c1981", "lon": -77.03434133333333, "lat": 38.96618816666667, "type": "electric_bike", "fusion_lon": 0.0, "is_reserved": 0, "bike_id": "46eb5e92081b987b72f11c47066c1981", "fusion_lat": 0.0, "is_disabled": 0, "rental_uris": {"ios": "https://dc.lft.to/lastmile_qr_scan", "android": "https://dc.lft.to/lastmile_qr_scan"}}, {"name": "b9ed4085f5cc76dc3fe57dbb99c2a635", "lon": -77.02481083333333, "lat": 38.920467333333335, "type": "electric_scooter", "fusion_lon": 0.0, "is_reserved": 0, "bike_id": "b9ed4085f5cc76dc3fe57dbb99c2a635", "fusion_lat": 0.0, "is_disabled": 0, "rental_uris": {"ios": "https://dc.lft.to/lastmile_qr_scan", "android": "https://dc.lft.to/lastmile_qr_scan"}}, {"name": "7bd2c2927bd69b3eb0efbf8b8e9b5bc3", "lon": -76.98522616666666, "lat": 38.86662583333333, "type": "electric_scooter", "fusion_lon": 0.0, "is_reserved": 0, "bike_id": "7bd2c2927bd69b3eb0efbf8b8e9b5bc3", "fusion_lat": 0.0, "is_disabled": 0, "rental_uris": {"ios": "https://dc.lft.to/lastmile_qr_scan", "android": "https://dc.lft.to/lastmile_qr_scan"}}, {"name": "66523f5ea5cf42d689b50d5b88d5ef23", "lon": -77.0436115, "lat": 38.91696016666667, "type": "electric_scooter", "fusion_lon": 0.0, "is_reserved": 0, "bike_id": "66523f5ea5cf42d689b50d5b88d5ef23", "fusion_lat": 0.0, "is_disabled": 0, "rental_uris": {"ios": "https://dc.lft.to/lastmile_qr_scan", "android": "https://dc.lft.to/lastmile_qr_scan"}}, {"name": "aca322e495c8fc9c0dfce38d0afc6593", "lon": -77.04139916666666, "lat": 38.89347683333333, "type": "electric_scooter", "fusion_lon": 0.0, "is_reserved": 0, "bike_id": "aca322e495c8fc9c0dfce38d0afc6593", "fusion_lat": 0.0, "is_disabled": 0, "rental_uris": {"ios": "https://dc.lft.to/lastmile_qr_scan", "android": "https://dc.lft.to/lastmile_qr_scan"}}, {"name": "46448777f4af42d020ea4be8f5716ddd", "lon": -77.06332033333334, "lat": 38.944230166666664, "type": "electric_scooter", "fusion_lon": 0.0, "is_reserved": 0, "bike_id": "46448777f4af42d020ea4be8f5716ddd", "fusion_lat": 0.0, "is_disabled": 0, "rental_uris": {"ios": "https://dc.lft.to/lastmile_qr_scan", "android": "https://dc.lft.to/lastmile_qr_scan"}}, {"name": "3794b7583a7b7aef9ae69e845197fa53", "lon": -77.03174883333334, "lat": 38.91415666666666, "type": "electric_scooter", "fusion_lon": 0.0, "is_reserved": 0, "bike_id": "3794b7583a7b7aef9ae69e845197fa53", "fusion_lat": 0.0, "is_disabled": 0, "rental_uris": {"ios": "https://dc.lft.to/lastmile_qr_scan", "android": "https://dc.lft.to/lastmile_qr_scan"}}, {"name": "b00d3f721d51e5524af15f41ac27368f", "lon": -77.01561633333333, "lat": 38.891722, "type": "electric_scooter", "fusion_lon": 0.0, "is_reserved": 0, "bike_id": "b00d3f721d51e5524af15f41ac27368f", "fusion_lat": 0.0, "is_disabled": 0, "rental_uris": {"ios": "https://dc.lft.to/lastmile_qr_scan", "android": "https://dc.lft.to/lastmile_qr_scan"}}, {"name": "89efa7958267ddb65df46f3efc516ccf", "lon": -77.0451395, "lat": 38.902595, "type": "electric_scooter", "fusion_lon": 0.0, "is_reserved": 0, "bike_id": "89efa7958267ddb65df46f3efc516ccf", "fusion_lat": 0.0, "is_disabled": 0, "rental_uris": {"ios": "https://dc.lft.to/lastmile_qr_scan", "android": "https://dc.lft.to/lastmile_qr_scan"}}, {"name": "83bbb56420cfab1a2571930c60788128", "lon": -77.02731533333333, "lat": 38.94086183333334, "type": "electric_scooter", "fusion_lon": 0.0, "is_reserved": 0, "bike_id": "83bbb56420cfab1a2571930c60788128", "fusion_lat": 0.0, "is_disabled": 0, "rental_uris": {"ios": "https://dc.lft.to/lastmile_qr_scan", "android": "https://dc.lft.to/lastmile_qr_scan"}}, {"name": "ea05cef248024f4235f0f7d82e812f3f", "lon": -77.01667066666667, "lat": 38.8810435, "type": "electric_scooter", "fusion_lon": 0.0, "is_reserved": 0, "bike_id": "ea05cef248024f4235f0f7d82e812f3f", "fusion_lat": 0.0, "is_disabled": 0, "rental_uris": {"ios": "https://dc.lft.to/lastmile_qr_scan", "android": "https://dc.lft.to/lastmile_qr_scan"}}, {"name": "b5218ed11e9f05f0bdb4bad8588e8bc7", "lon": -77.06343, "lat": 38.94452033333334, "type": "electric_scooter", "fusion_lon": 0.0, "is_reserved": 0, "bike_id": "b5218ed11e9f05f0bdb4bad8588e8bc7", "fusion_lat": 0.0, "is_disabled": 0, "rental_uris": {"ios": "https://dc.lft.to/lastmile_qr_scan", "android": "https://dc.lft.to/lastmile_qr_scan"}}, {"name": "8fb6f3d6bfe8a2ed11e00c8bacab5e2a", "lon": -77.002138, "lat": 38.881276166666666, "type": "electric_scooter", "fusion_lon": 0.0, "is_reserved": 0, "bike_id": "8fb6f3d6bfe8a2ed11e00c8bacab5e2a", "fusion_lat": 0.0, "is_disabled": 0, "rental_uris": {"ios": "https://dc.lft.to/lastmile_qr_scan", "android": "https://dc.lft.to/lastmile_qr_scan"}}, {"name": "bed5513518ab3f39bccd5cd3353c3c74", "lon": -77.032578, "lat": 38.939735666666664, "type": "electric_scooter", "fusion_lon": 0.0, "is_reserved": 0, "bike_id": "bed5513518ab3f39bccd5cd3353c3c74", "fusion_lat": 0.0, "is_disabled": 0, "rental_uris": {"ios": "https://dc.lft.to/lastmile_qr_scan", "android": "https://dc.lft.to/lastmile_qr_scan"}}, {"name": "59b83817c75e07761541359e744c4b4f", "lon": -77.04308966666666, "lat": 38.92883616666667, "type": "electric_bike", "fusion_lon": 0.0, "is_reserved": 0, "bike_id": "59b83817c75e07761541359e744c4b4f", "fusion_lat": 0.0, "is_disabled": 0, "rental_uris": {"ios": "https://dc.lft.to/lastmile_qr_scan", "android": "https://dc.lft.to/lastmile_qr_scan"}}, {"name": "6f1e4a447e506c1c037be62b808f9d15", "lon": -76.98247233333333, "lat": 38.86456116666667, "type": "electric_scooter", "fusion_lon": 0.0, "is_reserved": 0, "bike_id": "6f1e4a447e506c1c037be62b808f9d15", "fusion_lat": 0.0, "is_disabled": 0, "rental_uris": {"ios": "https://dc.lft.to/lastmile_qr_scan", "android": "https://dc.lft.to/lastmile_qr_scan"}}, {"name": "7e688f579e91b38d42bb086f92cef1e3", "lon": -77.03382616666667, "lat": 38.90010683333333, "type": "electric_scooter", "fusion_lon": 0.0, "is_reserved": 0, "bike_id": "7e688f579e91b38d42bb086f92cef1e3", "fusion_lat": 0.0, "is_disabled": 0, "rental_uris": {"ios": "https://dc.lft.to/lastmile_qr_scan", "android": "https://dc.lft.to/lastmile_qr_scan"}}, {"name": "a0e0fede5157d6895ebcc6943b2deda7", "lon": -76.89543183333333, "lat": 38.945546, "type": "electric_bike", "fusion_lon": 0.0, "is_reserved": 0, "bike_id": "a0e0fede5157d6895ebcc6943b2deda7", "fusion_lat": 0.0, "is_disabled": 0, "rental_uris": {"ios": "https://dc.lft.to/lastmile_qr_scan", "android": "https://dc.lft.to/lastmile_qr_scan"}}, {"name": "736591d99e27ba054ed40e612f4afde3", "lon": -77.028042, "lat": 38.923664, "type": "electric_scooter", "fusion_lon": 0.0, "is_reserved": 0, "bike_id": "736591d99e27ba054ed40e612f4afde3", "fusion_lat": 0.0, "is_disabled": 0, "rental_uris": {"ios": "https://dc.lft.to/lastmile_qr_scan", "android": "https://dc.lft.to/lastmile_qr_scan"}}, {"name": "bb1e4e937e2a89de73632e798632b0a5", "lon": -77.0464125, "lat": 38.9194235, "type": "electric_scooter", "fusion_lon": 0.0, "is_reserved": 0, "bike_id": "bb1e4e937e2a89de73632e798632b0a5", "fusion_lat": 0.0, "is_disabled": 0, "rental_uris": {"ios": "https://dc.lft.to/lastmile_qr_scan", "android": "https://dc.lft.to/lastmile_qr_scan"}}, {"name": "53fe2fb7bdacfeafaef94549b923ff5e", "lon": -76.99542416666667, "lat": 38.8793335, "type": "electric_scooter", "fusion_lon": 0.0, "is_reserved": 0, "bike_id": "53fe2fb7bdacfeafaef94549b923ff5e", "fusion_lat": 0.0, "is_disabled": 0, "rental_uris": {"ios": "https://dc.lft.to/lastmile_qr_scan", "android": "https://dc.lft.to/lastmile_qr_scan"}}, {"name": "e6dd4af165b987c22f086d969689cfe1", "lon": -76.992562, "lat": 38.8624255, "type": "electric_scooter", "fusion_lon": 0.0, "is_reserved": 0, "bike_id": "e6dd4af165b987c22f086d969689cfe1", "fusion_lat": 0.0, "is_disabled": 0, "rental_uris": {"ios": "https://dc.lft.to/lastmile_qr_scan", "android": "https://dc.lft.to/lastmile_qr_scan"}}, {"name": "64268ab26585659742d84544bee7d0aa", "lon": -77.02400033333333, "lat": 38.91628816666667, "type": "electric_scooter", "fusion_lon": 0.0, "is_reserved": 0, "bike_id": "64268ab26585659742d84544bee7d0aa", "fusion_lat": 0.0, "is_disabled": 0, "rental_uris": {"ios": "https://dc.lft.to/lastmile_qr_scan", "android": "https://dc.lft.to/lastmile_qr_scan"}}, {"name": "158c07154966b985ee94e7b9c41d3f22", "lon": -77.04482233333333, "lat": 38.92422666666667, "type": "electric_scooter", "fusion_lon": 0.0, "is_reserved": 0, "bike_id": "158c07154966b985ee94e7b9c41d3f22", "fusion_lat": 0.0, "is_disabled": 0, "rental_uris": {"ios": "https://dc.lft.to/lastmile_qr_scan", "android": "https://dc.lft.to/lastmile_qr_scan"}}, {"name": "38a21a261549cd7e5e4418b7376404d6", "lon": -77.04667983333333, "lat": 38.91362633333333, "type": "electric_scooter", "fusion_lon": 0.0, "is_reserved": 0, "bike_id": "38a21a261549cd7e5e4418b7376404d6", "fusion_lat": 0.0, "is_disabled": 0, "rental_uris": {"ios": "https://dc.lft.to/lastmile_qr_scan", "android": "https://dc.lft.to/lastmile_qr_scan"}}, {"name": "7202b9f092f484ecd99e8967a11dc9ce", "lon": -77.01967666666667, "lat": 38.95648633333333, "type": "electric_scooter", "fusion_lon": 0.0, "is_reserved": 0, "bike_id": "7202b9f092f484ecd99e8967a11dc9ce", "fusion_lat": 0.0, "is_disabled": 0, "rental_uris": {"ios": "https://dc.lft.to/lastmile_qr_scan", "android": "https://dc.lft.to/lastmile_qr_scan"}}, {"name": "5716ee9bd99429a4d3da2e9e1ab7773f", "lon": -77.1145975, "lat": 38.88138933333333, "type": "electric_bike", "fusion_lon": 0.0, "is_reserved": 0, "bike_id": "5716ee9bd99429a4d3da2e9e1ab7773f", "fusion_lat": 0.0, "is_disabled": 0, "rental_uris": {"ios": "https://dc.lft.to/lastmile_qr_scan", "android": "https://dc.lft.to/lastmile_qr_scan"}}, {"name": "0f966d007c76ddb546ef4bcd3795aa34", "lon": -77.16254516666666, "lat": 38.88657283333333, "type": "electric_bike", "fusion_lon": 0.0, "is_reserved": 0, "bike_id": "0f966d007c76ddb546ef4bcd3795aa34", "fusion_lat": 0.0, "is_disabled": 0, "rental_uris": {"ios": "https://dc.lft.to/lastmile_qr_scan", "android": "https://dc.lft.to/lastmile_qr_scan"}}, {"name": "eecc18e128325bf1caa0bbba481d2c8c", "lon": -77.02693383333333, "lat": 38.9112195, "type": "electric_scooter", "fusion_lon": 0.0, "is_reserved": 0, "bike_id": "eecc18e128325bf1caa0bbba481d2c8c", "fusion_lat": 0.0, "is_disabled": 0, "rental_uris": {"ios": "https://dc.lft.to/lastmile_qr_scan", "android": "https://dc.lft.to/lastmile_qr_scan"}}, {"name": "daacefbceb1687ff0912bb1698f1e4fb", "lon": -77.048725, "lat": 38.892704, "type": "electric_scooter", "fusion_lon": 0.0, "is_reserved": 0, "bike_id": "daacefbceb1687ff0912bb1698f1e4fb", "fusion_lat": 0.0, "is_disabled": 0, "rental_uris": {"ios": "https://dc.lft.to/lastmile_qr_scan", "android": "https://dc.lft.to/lastmile_qr_scan"}}, {"name": "2dddf9569cffc272913364bdd84ee350", "lon": -77.1156425, "lat": 38.993341, "type": "electric_bike", "fusion_lon": 0.0, "is_reserved": 0, "bike_id": "2dddf9569cffc272913364bdd84ee350", "fusion_lat": 0.0, "is_disabled": 0, "rental_uris": {"ios": "https://dc.lft.to/lastmile_qr_scan", "android": "https://dc.lft.to/lastmile_qr_scan"}}, {"name": "74c77634036e3357a2f5d0a571ad9cab", "lon": -77.04179466666666, "lat": 38.91502216666667, "type": "electric_scooter", "fusion_lon": 0.0, "is_reserved": 0, "bike_id": "74c77634036e3357a2f5d0a571ad9cab", "fusion_lat": 0.0, "is_disabled": 0, "rental_uris": {"ios": "https://dc.lft.to/lastmile_qr_scan", "android": "https://dc.lft.to/lastmile_qr_scan"}}, {"name": "605699fa21d1dc4cbd7ec50e96de39e3", "lon": -77.05228766666667, "lat": 38.924563166666665, "type": "electric_scooter", "fusion_lon": 0.0, "is_reserved": 0, "bike_id": "605699fa21d1dc4cbd7ec50e96de39e3", "fusion_lat": 0.0, "is_disabled": 0, "rental_uris": {"ios": "https://dc.lft.to/lastmile_qr_scan", "android": "https://dc.lft.to/lastmile_qr_scan"}}, {"name": "c3c2a211d4f0c44968abe0d1bb1d8171", "lon": -77.03003583333333, "lat": 38.897345333333334, "type": "electric_scooter", "fusion_lon": 0.0, "is_reserved": 0, "bike_id": "c3c2a211d4f0c44968abe0d1bb1d8171", "fusion_lat": 0.0, "is_disabled": 0, "rental_uris": {"ios": "https://dc.lft.to/lastmile_qr_scan", "android": "https://dc.lft.to/lastmile_qr_scan"}}, {"name": "d1c3fa11f25722b8d8bedf1b3c1bc7b0", "lon": -77.040772, "lat": 38.92539433333334, "type": "electric_scooter", "fusion_lon": 0.0, "is_reserved": 0, "bike_id": "d1c3fa11f25722b8d8bedf1b3c1bc7b0", "fusion_lat": 0.0, "is_disabled": 0, "rental_uris": {"ios": "https://dc.lft.to/lastmile_qr_scan", "android": "https://dc.lft.to/lastmile_qr_scan"}}, {"name": "37b4fa6d5e4b420c5521688e75dd1ca8", "lon": -76.9888545, "lat": 38.86653966666667, "type": "electric_scooter", "fusion_lon": 0.0, "is_reserved": 0, "bike_id": "37b4fa6d5e4b420c5521688e75dd1ca8", "fusion_lat": 0.0, "is_disabled": 0, "rental_uris": {"ios": "https://dc.lft.to/lastmile_qr_scan", "android": "https://dc.lft.to/lastmile_qr_scan"}}, {"name": "b270e8da70f1ed5a8a19e1b4b0e5e982", "lon": -77.04933, "lat": 38.909979666666665, "type": "electric_scooter", "fusion_lon": 0.0, "is_reserved": 0, "bike_id": "b270e8da70f1ed5a8a19e1b4b0e5e982", "fusion_lat": 0.0, "is_disabled": 0, "rental_uris": {"ios": "https://dc.lft.to/lastmile_qr_scan", "android": "https://dc.lft.to/lastmile_qr_scan"}}, {"name": "11b25afe52c3c9f600feb706ea2c4c60", "lon": -77.03322616666667, "lat": 38.947190166666665, "type": "electric_scooter", "fusion_lon": 0.0, "is_reserved": 0, "bike_id": "11b25afe52c3c9f600feb706ea2c4c60", "fusion_lat": 0.0, "is_disabled": 0, "rental_uris": {"ios": "https://dc.lft.to/lastmile_qr_scan", "android": "https://dc.lft.to/lastmile_qr_scan"}}, {"name": "fbdfbd2ca25a43f103aca810b892a5d8", "lon": -77.01760616666667, "lat": 38.8771875, "type": "electric_scooter", "fusion_lon": 0.0, "is_reserved": 0, "bike_id": "fbdfbd2ca25a43f103aca810b892a5d8", "fusion_lat": 0.0, "is_disabled": 0, "rental_uris": {"ios": "https://dc.lft.to/lastmile_qr_scan", "android": "https://dc.lft.to/lastmile_qr_scan"}}, {"name": "b99e4a55b40e073dbda06d93c4f09a7b", "lon": -77.055492, "lat": 38.907696666666666, "type": "electric_scooter", "fusion_lon": 0.0, "is_reserved": 0, "bike_id": "b99e4a55b40e073dbda06d93c4f09a7b", "fusion_lat": 0.0, "is_disabled": 0, "rental_uris": {"ios": "https://dc.lft.to/lastmile_qr_scan", "android": "https://dc.lft.to/lastmile_qr_scan"}}, {"name": "cdf885674afac5dca77484cfac27591e", "lon": -76.9318465, "lat": 38.89874616666667, "type": "electric_scooter", "fusion_lon": 0.0, "is_reserved": 0, "bike_id": "cdf885674afac5dca77484cfac27591e", "fusion_lat": 0.0, "is_disabled": 0, "rental_uris": {"ios": "https://dc.lft.to/lastmile_qr_scan", "android": "https://dc.lft.to/lastmile_qr_scan"}}, {"name": "75a8e21d0ebacefcfc6507f12310f5c4", "lon": -77.003848, "lat": 38.9236375, "type": "electric_scooter", "fusion_lon": 0.0, "is_reserved": 0, "bike_id": "75a8e21d0ebacefcfc6507f12310f5c4", "fusion_lat": 0.0, "is_disabled": 0, "rental_uris": {"ios": "https://dc.lft.to/lastmile_qr_scan", "android": "https://dc.lft.to/lastmile_qr_scan"}}, {"name": "bcdac92698604e769b90055d00c42ea4", "lon": -77.1013395, "lat": 38.8520375, "type": "electric_bike", "fusion_lon": 0.0, "is_reserved": 0, "bike_id": "bcdac92698604e769b90055d00c42ea4", "fusion_lat": 0.0, "is_disabled": 0, "rental_uris": {"ios": "https://dc.lft.to/lastmile_qr_scan", "android": "https://dc.lft.to/lastmile_qr_scan"}}, {"name": "a4b90de4c898da4b67e288258e99bc09", "lon": -77.02366216666667, "lat": 38.892198, "type": "electric_scooter", "fusion_lon": 0.0, "is_reserved": 0, "bike_id": "a4b90de4c898da4b67e288258e99bc09", "fusion_lat": 0.0, "is_disabled": 0, "rental_uris": {"ios": "https://dc.lft.to/lastmile_qr_scan", "android": "https://dc.lft.to/lastmile_qr_scan"}}, {"name": "8b7f88364d65b3ed338fe13dbd0cf486", "lon": -77.05023316666667, "lat": 38.90060016666666, "type": "electric_scooter", "fusion_lon": 0.0, "is_reserved": 0, "bike_id": "8b7f88364d65b3ed338fe13dbd0cf486", "fusion_lat": 0.0, "is_disabled": 0, "rental_uris": {"ios": "https://dc.lft.to/lastmile_qr_scan", "android": "https://dc.lft.to/lastmile_qr_scan"}}, {"name": "8aef92b8a16dc286742e8c71dfa1792e", "lon": -76.96532566666667, "lat": 38.918496166666664, "type": "electric_scooter", "fusion_lon": 0.0, "is_reserved": 0, "bike_id": "8aef92b8a16dc286742e8c71dfa1792e", "fusion_lat": 0.0, "is_disabled": 0, "rental_uris": {"ios": "https://dc.lft.to/lastmile_qr_scan", "android": "https://dc.lft.to/lastmile_qr_scan"}}, {"name": "98e2174e2e5b0bf771c265b0d8b35fc2", "lon": -76.97328233333333, "lat": 38.90410683333333, "type": "electric_scooter", "fusion_lon": 0.0, "is_reserved": 0, "bike_id": "98e2174e2e5b0bf771c265b0d8b35fc2", "fusion_lat": 0.0, "is_disabled": 0, "rental_uris": {"ios": "https://dc.lft.to/lastmile_qr_scan", "android": "https://dc.lft.to/lastmile_qr_scan"}}, {"name": "992f069e340d4a1fe8391e9fb19fedfc", "lon": -77.0021, "lat": 38.9110595, "type": "electric_scooter", "fusion_lon": 0.0, "is_reserved": 0, "bike_id": "992f069e340d4a1fe8391e9fb19fedfc", "fusion_lat": 0.0, "is_disabled": 0, "rental_uris": {"ios": "https://dc.lft.to/lastmile_qr_scan", "android": "https://dc.lft.to/lastmile_qr_scan"}}, {"name": "130c39e2b10157ed6242d4d5c5c6fa82", "lon": -77.02696516666667, "lat": 38.908686333333335, "type": "electric_scooter", "fusion_lon": 0.0, "is_reserved": 0, "bike_id": "130c39e2b10157ed6242d4d5c5c6fa82", "fusion_lat": 0.0, "is_disabled": 0, "rental_uris": {"ios": "https://dc.lft.to/lastmile_qr_scan", "android": "https://dc.lft.to/lastmile_qr_scan"}}, {"name": "c340f0035e05bb181896b642f89a026e", "lon": -77.0290485, "lat": 38.92572233333333, "type": "electric_scooter", "fusion_lon": 0.0, "is_reserved": 0, "bike_id": "c340f0035e05bb181896b642f89a026e", "fusion_lat": 0.0, "is_disabled": 0, "rental_uris": {"ios": "https://dc.lft.to/lastmile_qr_scan", "android": "https://dc.lft.to/lastmile_qr_scan"}}, {"name": "307d145dc940189105c2652457f4c417", "lon": -77.041221, "lat": 38.904843166666666, "type": "electric_scooter", "fusion_lon": 0.0, "is_reserved": 0, "bike_id": "307d145dc940189105c2652457f4c417", "fusion_lat": 0.0, "is_disabled": 0, "rental_uris": {"ios": "https://dc.lft.to/lastmile_qr_scan", "android": "https://dc.lft.to/lastmile_qr_scan"}}, {"name": "457fb91e0abca2ed9520af9ad3d66f03", "lon": -77.09702033333333, "lat": 38.88387133333333, "type": "electric_bike", "fusion_lon": 0.0, "is_reserved": 0, "bike_id": "457fb91e0abca2ed9520af9ad3d66f03", "fusion_lat": 0.0, "is_disabled": 0, "rental_uris": {"ios": "https://dc.lft.to/lastmile_qr_scan", "android": "https://dc.lft.to/lastmile_qr_scan"}}, {"name": "58214a53cb9da31a32285fe84d6df12a", "lon": -77.04194233333334, "lat": 38.905512333333334, "type": "electric_scooter", "fusion_lon": 0.0, "is_reserved": 0, "bike_id": "58214a53cb9da31a32285fe84d6df12a", "fusion_lat": 0.0, "is_disabled": 0, "rental_uris": {"ios": "https://dc.lft.to/lastmile_qr_scan", "android": "https://dc.lft.to/lastmile_qr_scan"}}, {"name": "850ebaeed61577cc8e648f6e71754da5", "lon": -77.03400583333334, "lat": 38.91403966666667, "type": "electric_scooter", "fusion_lon": 0.0, "is_reserved": 0, "bike_id": "850ebaeed61577cc8e648f6e71754da5", "fusion_lat": 0.0, "is_disabled": 0, "rental_uris": {"ios": "https://dc.lft.to/lastmile_qr_scan", "android": "https://dc.lft.to/lastmile_qr_scan"}}, {"name": "25abf070c59c50d43c22630b6945c334", "lon": -76.99068216666667, "lat": 38.904176, "type": "electric_scooter", "fusion_lon": 0.0, "is_reserved": 0, "bike_id": "25abf070c59c50d43c22630b6945c334", "fusion_lat": 0.0, "is_disabled": 0, "rental_uris": {"ios": "https://dc.lft.to/lastmile_qr_scan", "android": "https://dc.lft.to/lastmile_qr_scan"}}, {"name": "4136ae3934b686d68f18df8f969e9cc1", "lon": -76.97332333333334, "lat": 38.917857166666664, "type": "electric_scooter", "fusion_lon": 0.0, "is_reserved": 0, "bike_id": "4136ae3934b686d68f18df8f969e9cc1", "fusion_lat": 0.0, "is_disabled": 0, "rental_uris": {"ios": "https://dc.lft.to/lastmile_qr_scan", "android": "https://dc.lft.to/lastmile_qr_scan"}}, {"name": "9dbf7fbfb7391860caec3b0722ecb72a", "lon": -77.02525433333334, "lat": 38.9096145, "type": "electric_scooter", "fusion_lon": 0.0, "is_reserved": 0, "bike_id": "9dbf7fbfb7391860caec3b0722ecb72a", "fusion_lat": 0.0, "is_disabled": 0, "rental_uris": {"ios": "https://dc.lft.to/lastmile_qr_scan", "android": "https://dc.lft.to/lastmile_qr_scan"}}, {"name": "cd7d5de60f98ca05431e517e93659625", "lon": -77.0393215, "lat": 38.90265333333333, "type": "electric_scooter", "fusion_lon": 0.0, "is_reserved": 0, "bike_id": "cd7d5de60f98ca05431e517e93659625", "fusion_lat": 0.0, "is_disabled": 0, "rental_uris": {"ios": "https://dc.lft.to/lastmile_qr_scan", "android": "https://dc.lft.to/lastmile_qr_scan"}}, {"name": "a0b9e195e3558759d32d32ce6f9b348b", "lon": -77.05882883333334, "lat": 38.9182655, "type": "electric_scooter", "fusion_lon": 0.0, "is_reserved": 0, "bike_id": "a0b9e195e3558759d32d32ce6f9b348b", "fusion_lat": 0.0, "is_disabled": 0, "rental_uris": {"ios": "https://dc.lft.to/lastmile_qr_scan", "android": "https://dc.lft.to/lastmile_qr_scan"}}, {"name": "e498e2d388d589e418903cf2ee56230b", "lon": -76.98397133333333, "lat": 38.86697183333333, "type": "electric_scooter", "fusion_lon": 0.0, "is_reserved": 0, "bike_id": "e498e2d388d589e418903cf2ee56230b", "fusion_lat": 0.0, "is_disabled": 0, "rental_uris": {"ios": "https://dc.lft.to/lastmile_qr_scan", "android": "https://dc.lft.to/lastmile_qr_scan"}}, {"name": "d176c76fff5e1bafec249e32ae7bb8ee", "lon": -77.04998716666667, "lat": 38.8923175, "type": "electric_scooter", "fusion_lon": 0.0, "is_reserved": 0, "bike_id": "d176c76fff5e1bafec249e32ae7bb8ee", "fusion_lat": 0.0, "is_disabled": 0, "rental_uris": {"ios": "https://dc.lft.to/lastmile_qr_scan", "android": "https://dc.lft.to/lastmile_qr_scan"}}, {"name": "cfb5458f253ceb1d4416c4b718dda639", "lon": -77.04021283333333, "lat": 38.922020333333336, "type": "electric_scooter", "fusion_lon": 0.0, "is_reserved": 0, "bike_id": "cfb5458f253ceb1d4416c4b718dda639", "fusion_lat": 0.0, "is_disabled": 0, "rental_uris": {"ios": "https://dc.lft.to/lastmile_qr_scan", "android": "https://dc.lft.to/lastmile_qr_scan"}}, {"name": "8371556a3cf516915ce18c46de68b369", "lon": -77.04338166666666, "lat": 38.904969, "type": "electric_scooter", "fusion_lon": 0.0, "is_reserved": 0, "bike_id": "8371556a3cf516915ce18c46de68b369", "fusion_lat": 0.0, "is_disabled": 0, "rental_uris": {"ios": "https://dc.lft.to/lastmile_qr_scan", "android": "https://dc.lft.to/lastmile_qr_scan"}}, {"name": "9336cfcc9c133d034c6e15ac9d775045", "lon": -77.02680466666666, "lat": 38.896205, "type": "electric_scooter", "fusion_lon": 0.0, "is_reserved": 0, "bike_id": "9336cfcc9c133d034c6e15ac9d775045", "fusion_lat": 0.0, "is_disabled": 0, "rental_uris": {"ios": "https://dc.lft.to/lastmile_qr_scan", "android": "https://dc.lft.to/lastmile_qr_scan"}}, {"name": "4e3919741ed5adb34f69028a36f4382a", "lon": -76.93341716666667, "lat": 38.888148666666666, "type": "electric_scooter", "fusion_lon": 0.0, "is_reserved": 0, "bike_id": "4e3919741ed5adb34f69028a36f4382a", "fusion_lat": 0.0, "is_disabled": 0, "rental_uris": {"ios": "https://dc.lft.to/lastmile_qr_scan", "android": "https://dc.lft.to/lastmile_qr_scan"}}, {"name": "44dc383568701f42e1b4036a66a24719", "lon": -77.0400145, "lat": 38.8886925, "type": "electric_scooter", "fusion_lon": 0.0, "is_reserved": 0, "bike_id": "44dc383568701f42e1b4036a66a24719", "fusion_lat": 0.0, "is_disabled": 0, "rental_uris": {"ios": "https://dc.lft.to/lastmile_qr_scan", "android": "https://dc.lft.to/lastmile_qr_scan"}}, {"name": "dff5c79f22f9d9f1e87edde81d265934", "lon": -77.03008, "lat": 38.991457, "type": "electric_bike", "fusion_lon": 0.0, "is_reserved": 0, "bike_id": "dff5c79f22f9d9f1e87edde81d265934", "fusion_lat": 0.0, "is_disabled": 0, "rental_uris": {"ios": "https://dc.lft.to/lastmile_qr_scan", "android": "https://dc.lft.to/lastmile_qr_scan"}}, {"name": "21b19c2ab52bf171fa58ffc214448a96", "lon": -77.0219635, "lat": 38.9207115, "type": "electric_scooter", "fusion_lon": 0.0, "is_reserved": 0, "bike_id": "21b19c2ab52bf171fa58ffc214448a96", "fusion_lat": 0.0, "is_disabled": 0, "rental_uris": {"ios": "https://dc.lft.to/lastmile_qr_scan", "android": "https://dc.lft.to/lastmile_qr_scan"}}, {"name": "fd55c1ae0a5df82f77019bf9434650f1", "lon": -77.00581483333333, "lat": 38.87905583333333, "type": "electric_scooter", "fusion_lon": 0.0, "is_reserved": 0, "bike_id": "fd55c1ae0a5df82f77019bf9434650f1", "fusion_lat": 0.0, "is_disabled": 0, "rental_uris": {"ios": "https://dc.lft.to/lastmile_qr_scan", "android": "https://dc.lft.to/lastmile_qr_scan"}}, {"name": "784fc6991330cc158c051f8eda7e68c1", "lon": -77.03372733333333, "lat": 38.92042883333333, "type": "electric_scooter", "fusion_lon": 0.0, "is_reserved": 0, "bike_id": "784fc6991330cc158c051f8eda7e68c1", "fusion_lat": 0.0, "is_disabled": 0, "rental_uris": {"ios": "https://dc.lft.to/lastmile_qr_scan", "android": "https://dc.lft.to/lastmile_qr_scan"}}, {"name": "32198688d0f1e8183a88b45744a94d57", "lon": -77.02706366666666, "lat": 38.906709666666664, "type": "electric_scooter", "fusion_lon": 0.0, "is_reserved": 0, "bike_id": "32198688d0f1e8183a88b45744a94d57", "fusion_lat": 0.0, "is_disabled": 0, "rental_uris": {"ios": "https://dc.lft.to/lastmile_qr_scan", "android": "https://dc.lft.to/lastmile_qr_scan"}}, {"name": "62252fd73db94852b5095e5afdabddce", "lon": -77.05535166666667, "lat": 38.92982466666667, "type": "electric_scooter", "fusion_lon": 0.0, "is_reserved": 0, "bike_id": "62252fd73db94852b5095e5afdabddce", "fusion_lat": 0.0, "is_disabled": 0, "rental_uris": {"ios": "https://dc.lft.to/lastmile_qr_scan", "android": "https://dc.lft.to/lastmile_qr_scan"}}, {"name": "a68afd3c51ceb40e06410272d809687d", "lon": -77.00132083333334, "lat": 38.877936, "type": "electric_scooter", "fusion_lon": 0.0, "is_reserved": 0, "bike_id": "a68afd3c51ceb40e06410272d809687d", "fusion_lat": 0.0, "is_disabled": 0, "rental_uris": {"ios": "https://dc.lft.to/lastmile_qr_scan", "android": "https://dc.lft.to/lastmile_qr_scan"}}, {"name": "6c713a2a09d1820d4c6bfad4fd5a9947", "lon": -76.99351983333334, "lat": 38.8450895, "type": "electric_bike", "fusion_lon": 0.0, "is_reserved": 0, "bike_id": "6c713a2a09d1820d4c6bfad4fd5a9947", "fusion_lat": 0.0, "is_disabled": 0, "rental_uris": {"ios": "https://dc.lft.to/lastmile_qr_scan", "android": "https://dc.lft.to/lastmile_qr_scan"}}, {"name": "f71d147803bc02bc42a83cb92c491e98", "lon": -77.018832, "lat": 38.90080733333333, "type": "electric_scooter", "fusion_lon": 0.0, "is_reserved": 0, "bike_id": "f71d147803bc02bc42a83cb92c491e98", "fusion_lat": 0.0, "is_disabled": 0, "rental_uris": {"ios": "https://dc.lft.to/lastmile_qr_scan", "android": "https://dc.lft.to/lastmile_qr_scan"}}, {"name": "403847601f10edf36092a45b5693a988", "lon": -77.04094016666667, "lat": 38.90012133333333, "type": "electric_scooter", "fusion_lon": 0.0, "is_reserved": 0, "bike_id": "403847601f10edf36092a45b5693a988", "fusion_lat": 0.0, "is_disabled": 0, "rental_uris": {"ios": "https://dc.lft.to/lastmile_qr_scan", "android": "https://dc.lft.to/lastmile_qr_scan"}}, {"name": "09b60349f43807f81c1919683f53fa2c", "lon": -77.02332766666666, "lat": 38.87893366666667, "type": "electric_scooter", "fusion_lon": 0.0, "is_reserved": 0, "bike_id": "09b60349f43807f81c1919683f53fa2c", "fusion_lat": 0.0, "is_disabled": 0, "rental_uris": {"ios": "https://dc.lft.to/lastmile_qr_scan", "android": "https://dc.lft.to/lastmile_qr_scan"}}, {"name": "3e4751f1fb69c25d4cd8b64e130dc70b", "lon": -77.02176016666667, "lat": 38.91295683333333, "type": "electric_scooter", "fusion_lon": 0.0, "is_reserved": 0, "bike_id": "3e4751f1fb69c25d4cd8b64e130dc70b", "fusion_lat": 0.0, "is_disabled": 0, "rental_uris": {"ios": "https://dc.lft.to/lastmile_qr_scan", "android": "https://dc.lft.to/lastmile_qr_scan"}}, {"name": "2d87b348c426e17aaf232ba7c5f4f958", "lon": -77.06112766666666, "lat": 38.9399065, "type": "electric_scooter", "fusion_lon": 0.0, "is_reserved": 0, "bike_id": "2d87b348c426e17aaf232ba7c5f4f958", "fusion_lat": 0.0, "is_disabled": 0, "rental_uris": {"ios": "https://dc.lft.to/lastmile_qr_scan", "android": "https://dc.lft.to/lastmile_qr_scan"}}, {"name": "0fc5eda163bcba7440541bb48f5420fc", "lon": -77.025341, "lat": 38.942570333333336, "type": "electric_scooter", "fusion_lon": 0.0, "is_reserved": 0, "bike_id": "0fc5eda163bcba7440541bb48f5420fc", "fusion_lat": 0.0, "is_disabled": 0, "rental_uris": {"ios": "https://dc.lft.to/lastmile_qr_scan", "android": "https://dc.lft.to/lastmile_qr_scan"}}, {"name": "c6eb61c0f087b2dd6d407dde4e37a3da", "lon": -77.023033, "lat": 38.920852, "type": "electric_scooter", "fusion_lon": 0.0, "is_reserved": 0, "bike_id": "c6eb61c0f087b2dd6d407dde4e37a3da", "fusion_lat": 0.0, "is_disabled": 0, "rental_uris": {"ios": "https://dc.lft.to/lastmile_qr_scan", "android": "https://dc.lft.to/lastmile_qr_scan"}}, {"name": "f2cd3e626b61d5764fab1bc77e4a257e", "lon": -76.991034, "lat": 38.91020366666667, "type": "electric_scooter", "fusion_lon": 0.0, "is_reserved": 0, "bike_id": "f2cd3e626b61d5764fab1bc77e4a257e", "fusion_lat": 0.0, "is_disabled": 0, "rental_uris": {"ios": "https://dc.lft.to/lastmile_qr_scan", "android": "https://dc.lft.to/lastmile_qr_scan"}}, {"name": "2bd8b021fd4fe44acd8a82e806e8fc4f", "lon": -77.04945883333333, "lat": 38.905242666666666, "type": "electric_scooter", "fusion_lon": 0.0, "is_reserved": 0, "bike_id": "2bd8b021fd4fe44acd8a82e806e8fc4f", "fusion_lat": 0.0, "is_disabled": 0, "rental_uris": {"ios": "https://dc.lft.to/lastmile_qr_scan", "android": "https://dc.lft.to/lastmile_qr_scan"}}, {"name": "07413b01aedd211b2486cb5b1c2f4afd", "lon": -76.9865305, "lat": 38.90023016666667, "type": "electric_scooter", "fusion_lon": 0.0, "is_reserved": 0, "bike_id": "07413b01aedd211b2486cb5b1c2f4afd", "fusion_lat": 0.0, "is_disabled": 0, "rental_uris": {"ios": "https://dc.lft.to/lastmile_qr_scan", "android": "https://dc.lft.to/lastmile_qr_scan"}}, {"name": "27ac6c5c3bd61d893e948449c97a35d4", "lon": -77.015202, "lat": 38.886545166666664, "type": "electric_scooter", "fusion_lon": 0.0, "is_reserved": 0, "bike_id": "27ac6c5c3bd61d893e948449c97a35d4", "fusion_lat": 0.0, "is_disabled": 0, "rental_uris": {"ios": "https://dc.lft.to/lastmile_qr_scan", "android": "https://dc.lft.to/lastmile_qr_scan"}}, {"name": "ea014d56d0f0bf927fef2ab184c41b34", "lon": -76.9824275, "lat": 38.86468166666667, "type": "electric_scooter", "fusion_lon": 0.0, "is_reserved": 0, "bike_id": "ea014d56d0f0bf927fef2ab184c41b34", "fusion_lat": 0.0, "is_disabled": 0, "rental_uris": {"ios": "https://dc.lft.to/lastmile_qr_scan", "android": "https://dc.lft.to/lastmile_qr_scan"}}, {"name": "503ee0928b62ac247fc0bcddc3dc8f99", "lon": -77.04399883333333, "lat": 38.91408216666667, "type": "electric_scooter", "fusion_lon": 0.0, "is_reserved": 0, "bike_id": "503ee0928b62ac247fc0bcddc3dc8f99", "fusion_lat": 0.0, "is_disabled": 0, "rental_uris": {"ios": "https://dc.lft.to/lastmile_qr_scan", "android": "https://dc.lft.to/lastmile_qr_scan"}}, {"name": "2bdc9ef073515c2d89db8a78410a18ab", "lon": -77.04073666666666, "lat": 38.917081333333336, "type": "electric_scooter", "fusion_lon": 0.0, "is_reserved": 0, "bike_id": "2bdc9ef073515c2d89db8a78410a18ab", "fusion_lat": 0.0, "is_disabled": 0, "rental_uris": {"ios": "https://dc.lft.to/lastmile_qr_scan", "android": "https://dc.lft.to/lastmile_qr_scan"}}, {"name": "d36c4848ffd90ee8f1e0f84774216e50", "lon": -77.02180583333333, "lat": 38.89733866666667, "type": "electric_scooter", "fusion_lon": 0.0, "is_reserved": 0, "bike_id": "d36c4848ffd90ee8f1e0f84774216e50", "fusion_lat": 0.0, "is_disabled": 0, "rental_uris": {"ios": "https://dc.lft.to/lastmile_qr_scan", "android": "https://dc.lft.to/lastmile_qr_scan"}}, {"name": "26e4f3d33159967346e2989edefd6899", "lon": -77.03215416666667, "lat": 38.907722166666666, "type": "electric_scooter", "fusion_lon": 0.0, "is_reserved": 0, "bike_id": "26e4f3d33159967346e2989edefd6899", "fusion_lat": 0.0, "is_disabled": 0, "rental_uris": {"ios": "https://dc.lft.to/lastmile_qr_scan", "android": "https://dc.lft.to/lastmile_qr_scan"}}, {"name": "14f161d8608d686c4c8cb4528350536e", "lon": -77.02622583333333, "lat": 38.896676666666664, "type": "electric_scooter", "fusion_lon": 0.0, "is_reserved": 0, "bike_id": "14f161d8608d686c4c8cb4528350536e", "fusion_lat": 0.0, "is_disabled": 0, "rental_uris": {"ios": "https://dc.lft.to/lastmile_qr_scan", "android": "https://dc.lft.to/lastmile_qr_scan"}}, {"name": "2dfdd7536a9cacede430cbc688cc924a", "lon": -77.03706866666667, "lat": 38.9277345, "type": "electric_scooter", "fusion_lon": 0.0, "is_reserved": 0, "bike_id": "2dfdd7536a9cacede430cbc688cc924a", "fusion_lat": 0.0, "is_disabled": 0, "rental_uris": {"ios": "https://dc.lft.to/lastmile_qr_scan", "android": "https://dc.lft.to/lastmile_qr_scan"}}, {"name": "1df3d967d5aa77b124150b71b43a721b", "lon": -77.017833, "lat": 38.9119175, "type": "electric_scooter", "fusion_lon": 0.0, "is_reserved": 0, "bike_id": "1df3d967d5aa77b124150b71b43a721b", "fusion_lat": 0.0, "is_disabled": 0, "rental_uris": {"ios": "https://dc.lft.to/lastmile_qr_scan", "android": "https://dc.lft.to/lastmile_qr_scan"}}, {"name": "abda6420826dabdefb1c06af9cbaee34", "lon": -77.03047433333333, "lat": 38.8977035, "type": "electric_scooter", "fusion_lon": 0.0, "is_reserved": 0, "bike_id": "abda6420826dabdefb1c06af9cbaee34", "fusion_lat": 0.0, "is_disabled": 0, "rental_uris": {"ios": "https://dc.lft.to/lastmile_qr_scan", "android": "https://dc.lft.to/lastmile_qr_scan"}}, {"name": "111e23d10dbbc2d28fdc26010377f327", "lon": -77.03641033333334, "lat": 38.9173455, "type": "electric_scooter", "fusion_lon": 0.0, "is_reserved": 0, "bike_id": "111e23d10dbbc2d28fdc26010377f327", "fusion_lat": 0.0, "is_disabled": 0, "rental_uris": {"ios": "https://dc.lft.to/lastmile_qr_scan", "android": "https://dc.lft.to/lastmile_qr_scan"}}, {"name": "406b1445317b37e4f2d5a2e9a5d6e8f4", "lon": -77.03208883333333, "lat": 38.89588066666666, "type": "electric_scooter", "fusion_lon": 0.0, "is_reserved": 0, "bike_id": "406b1445317b37e4f2d5a2e9a5d6e8f4", "fusion_lat": 0.0, "is_disabled": 0, "rental_uris": {"ios": "https://dc.lft.to/lastmile_qr_scan", "android": "https://dc.lft.to/lastmile_qr_scan"}}, {"name": "6e65c5bc22898a7b6ea585f1078303ad", "lon": -77.04123883333334, "lat": 38.91626733333333, "type": "electric_scooter", "fusion_lon": 0.0, "is_reserved": 0, "bike_id": "6e65c5bc22898a7b6ea585f1078303ad", "fusion_lat": 0.0, "is_disabled": 0, "rental_uris": {"ios": "https://dc.lft.to/lastmile_qr_scan", "android": "https://dc.lft.to/lastmile_qr_scan"}}, {"name": "7662fb25221c182a7d2a98d2d235c9c0", "lon": -76.98107933333333, "lat": 38.877317166666664, "type": "electric_bike", "fusion_lon": 0.0, "is_reserved": 0, "bike_id": "7662fb25221c182a7d2a98d2d235c9c0", "fusion_lat": 0.0, "is_disabled": 0, "rental_uris": {"ios": "https://dc.lft.to/lastmile_qr_scan", "android": "https://dc.lft.to/lastmile_qr_scan"}}, {"name": "874a24dca68226c95056271ea2d83c6b", "lon": -77.05854166666667, "lat": 38.9361045, "type": "electric_scooter", "fusion_lon": 0.0, "is_reserved": 0, "bike_id": "874a24dca68226c95056271ea2d83c6b", "fusion_lat": 0.0, "is_disabled": 0, "rental_uris": {"ios": "https://dc.lft.to/lastmile_qr_scan", "android": "https://dc.lft.to/lastmile_qr_scan"}}, {"name": "93b8b7368dafbe84467d07b3d9d5160d", "lon": -76.9934915, "lat": 38.914829, "type": "electric_scooter", "fusion_lon": 0.0, "is_reserved": 0, "bike_id": "93b8b7368dafbe84467d07b3d9d5160d", "fusion_lat": 0.0, "is_disabled": 0, "rental_uris": {"ios": "https://dc.lft.to/lastmile_qr_scan", "android": "https://dc.lft.to/lastmile_qr_scan"}}, {"name": "c45f9f3217673e1baf791275da953859", "lon": -77.01596333333333, "lat": 38.949351666666665, "type": "electric_scooter", "fusion_lon": 0.0, "is_reserved": 0, "bike_id": "c45f9f3217673e1baf791275da953859", "fusion_lat": 0.0, "is_disabled": 0, "rental_uris": {"ios": "https://dc.lft.to/lastmile_qr_scan", "android": "https://dc.lft.to/lastmile_qr_scan"}}, {"name": "982166933874256a722453b42b0cb26d", "lon": -77.0056905, "lat": 38.904044166666665, "type": "electric_scooter", "fusion_lon": 0.0, "is_reserved": 0, "bike_id": "982166933874256a722453b42b0cb26d", "fusion_lat": 0.0, "is_disabled": 0, "rental_uris": {"ios": "https://dc.lft.to/lastmile_qr_scan", "android": "https://dc.lft.to/lastmile_qr_scan"}}, {"name": "75abceb2764e469c087340c8b199fc41", "lon": -77.02385966666667, "lat": 38.90848283333333, "type": "electric_scooter", "fusion_lon": 0.0, "is_reserved": 0, "bike_id": "75abceb2764e469c087340c8b199fc41", "fusion_lat": 0.0, "is_disabled": 0, "rental_uris": {"ios": "https://dc.lft.to/lastmile_qr_scan", "android": "https://dc.lft.to/lastmile_qr_scan"}}, {"name": "673ea44972adcb690c2a5e8f7a943567", "lon": -77.0272255, "lat": 38.94957816666667, "type": "electric_scooter", "fusion_lon": 0.0, "is_reserved": 0, "bike_id": "673ea44972adcb690c2a5e8f7a943567", "fusion_lat": 0.0, "is_disabled": 0, "rental_uris": {"ios": "https://dc.lft.to/lastmile_qr_scan", "android": "https://dc.lft.to/lastmile_qr_scan"}}, {"name": "8e52ad4a2eb0a5d072340b7cfc998a72", "lon": -77.04598866666667, "lat": 38.919115833333336, "type": "electric_scooter", "fusion_lon": 0.0, "is_reserved": 0, "bike_id": "8e52ad4a2eb0a5d072340b7cfc998a72", "fusion_lat": 0.0, "is_disabled": 0, "rental_uris": {"ios": "https://dc.lft.to/lastmile_qr_scan", "android": "https://dc.lft.to/lastmile_qr_scan"}}, {"name": "d16927a53fc0b464550f9538af8e8bf2", "lon": -77.07580116666666, "lat": 38.9386325, "type": "electric_scooter", "fusion_lon": 0.0, "is_reserved": 0, "bike_id": "d16927a53fc0b464550f9538af8e8bf2", "fusion_lat": 0.0, "is_disabled": 0, "rental_uris": {"ios": "https://dc.lft.to/lastmile_qr_scan", "android": "https://dc.lft.to/lastmile_qr_scan"}}, {"name": "0ad6d99a2b0bb8f5a7315420e3f1bdaf", "lon": -77.02439833333334, "lat": 38.9027225, "type": "electric_scooter", "fusion_lon": 0.0, "is_reserved": 0, "bike_id": "0ad6d99a2b0bb8f5a7315420e3f1bdaf", "fusion_lat": 0.0, "is_disabled": 0, "rental_uris": {"ios": "https://dc.lft.to/lastmile_qr_scan", "android": "https://dc.lft.to/lastmile_qr_scan"}}, {"name": "bdb24efb76e765b375ee86fc9f50ef7a", "lon": -77.0487125, "lat": 38.9097565, "type": "electric_scooter", "fusion_lon": 0.0, "is_reserved": 0, "bike_id": "bdb24efb76e765b375ee86fc9f50ef7a", "fusion_lat": 0.0, "is_disabled": 0, "rental_uris": {"ios": "https://dc.lft.to/lastmile_qr_scan", "android": "https://dc.lft.to/lastmile_qr_scan"}}, {"name": "a28806b1b0f9c1822761f84797cc0ef2", "lon": -77.039125, "lat": 38.91758016666667, "type": "electric_scooter", "fusion_lon": 0.0, "is_reserved": 0, "bike_id": "a28806b1b0f9c1822761f84797cc0ef2", "fusion_lat": 0.0, "is_disabled": 0, "rental_uris": {"ios": "https://dc.lft.to/lastmile_qr_scan", "android": "https://dc.lft.to/lastmile_qr_scan"}}, {"name": "732d6a53fd02e38916078ffb2bfa3669", "lon": -77.00506616666667, "lat": 38.89684116666667, "type": "electric_scooter", "fusion_lon": 0.0, "is_reserved": 0, "bike_id": "732d6a53fd02e38916078ffb2bfa3669", "fusion_lat": 0.0, "is_disabled": 0, "rental_uris": {"ios": "https://dc.lft.to/lastmile_qr_scan", "android": "https://dc.lft.to/lastmile_qr_scan"}}, {"name": "5beb762fd17c155d0d21e733db66aeeb", "lon": -77.045167, "lat": 38.8922145, "type": "electric_scooter", "fusion_lon": 0.0, "is_reserved": 0, "bike_id": "5beb762fd17c155d0d21e733db66aeeb", "fusion_lat": 0.0, "is_disabled": 0, "rental_uris": {"ios": "https://dc.lft.to/lastmile_qr_scan", "android": "https://dc.lft.to/lastmile_qr_scan"}}, {"name": "7d9fc74072b9d85d35ae4e3e8373466b", "lon": -77.001974, "lat": 38.89351816666667, "type": "electric_scooter", "fusion_lon": 0.0, "is_reserved": 0, "bike_id": "7d9fc74072b9d85d35ae4e3e8373466b", "fusion_lat": 0.0, "is_disabled": 0, "rental_uris": {"ios": "https://dc.lft.to/lastmile_qr_scan", "android": "https://dc.lft.to/lastmile_qr_scan"}}, {"name": "ad07116d933f9b50b516cb7129ffc1e5", "lon": -77.044479, "lat": 38.905634, "type": "electric_scooter", "fusion_lon": 0.0, "is_reserved": 0, "bike_id": "ad07116d933f9b50b516cb7129ffc1e5", "fusion_lat": 0.0, "is_disabled": 0, "rental_uris": {"ios": "https://dc.lft.to/lastmile_qr_scan", "android": "https://dc.lft.to/lastmile_qr_scan"}}, {"name": "fc06485c226befd49e52af6b06f4944d", "lon": -77.04415933333334, "lat": 38.911334, "type": "electric_scooter", "fusion_lon": 0.0, "is_reserved": 0, "bike_id": "fc06485c226befd49e52af6b06f4944d", "fusion_lat": 0.0, "is_disabled": 0, "rental_uris": {"ios": "https://dc.lft.to/lastmile_qr_scan", "android": "https://dc.lft.to/lastmile_qr_scan"}}, {"name": "6ca0c1d5b0c794ddafaf9a39e92d73ba", "lon": -77.04185883333334, "lat": 38.89360166666667, "type": "electric_scooter", "fusion_lon": 0.0, "is_reserved": 0, "bike_id": "6ca0c1d5b0c794ddafaf9a39e92d73ba", "fusion_lat": 0.0, "is_disabled": 0, "rental_uris": {"ios": "https://dc.lft.to/lastmile_qr_scan", "android": "https://dc.lft.to/lastmile_qr_scan"}}, {"name": "402d27aa5398e9de9dc22e34225f5946", "lon": -77.12011616666666, "lat": 38.85512216666667, "type": "electric_bike", "fusion_lon": 0.0, "is_reserved": 0, "bike_id": "402d27aa5398e9de9dc22e34225f5946", "fusion_lat": 0.0, "is_disabled": 0, "rental_uris": {"ios": "https://dc.lft.to/lastmile_qr_scan", "android": "https://dc.lft.to/lastmile_qr_scan"}}, {"name": "20c1f229b780e5b856eac60734f7a6f4", "lon": -77.04478783333333, "lat": 38.9186675, "type": "electric_scooter", "fusion_lon": 0.0, "is_reserved": 0, "bike_id": "20c1f229b780e5b856eac60734f7a6f4", "fusion_lat": 0.0, "is_disabled": 0, "rental_uris": {"ios": "https://dc.lft.to/lastmile_qr_scan", "android": "https://dc.lft.to/lastmile_qr_scan"}}, {"name": "4e30cb1eafd59b974541c1d36c9d9527", "lon": -76.94183183333334, "lat": 38.8975335, "type": "electric_scooter", "fusion_lon": 0.0, "is_reserved": 0, "bike_id": "4e30cb1eafd59b974541c1d36c9d9527", "fusion_lat": 0.0, "is_disabled": 0, "rental_uris": {"ios": "https://dc.lft.to/lastmile_qr_scan", "android": "https://dc.lft.to/lastmile_qr_scan"}}, {"name": "8e9ed552b2ecf2ca26d64ddc5f87f09f", "lon": -77.03854033333333, "lat": 38.91016416666667, "type": "electric_scooter", "fusion_lon": 0.0, "is_reserved": 0, "bike_id": "8e9ed552b2ecf2ca26d64ddc5f87f09f", "fusion_lat": 0.0, "is_disabled": 0, "rental_uris": {"ios": "https://dc.lft.to/lastmile_qr_scan", "android": "https://dc.lft.to/lastmile_qr_scan"}}, {"name": "d3c9ec5eb8fde344c88a05205609e8c3", "lon": -77.0219995, "lat": 38.910075666666664, "type": "electric_scooter", "fusion_lon": 0.0, "is_reserved": 0, "bike_id": "d3c9ec5eb8fde344c88a05205609e8c3", "fusion_lat": 0.0, "is_disabled": 0, "rental_uris": {"ios": "https://dc.lft.to/lastmile_qr_scan", "android": "https://dc.lft.to/lastmile_qr_scan"}}, {"name": "5517fe21664bc27b767988a61ca1426e", "lon": -77.03184416666667, "lat": 38.92120516666667, "type": "electric_scooter", "fusion_lon": 0.0, "is_reserved": 0, "bike_id": "5517fe21664bc27b767988a61ca1426e", "fusion_lat": 0.0, "is_disabled": 0, "rental_uris": {"ios": "https://dc.lft.to/lastmile_qr_scan", "android": "https://dc.lft.to/lastmile_qr_scan"}}, {"name": "456a15399715b0cdb1337b5b1a3f810c", "lon": -77.03438633333333, "lat": 38.90976633333333, "type": "electric_scooter", "fusion_lon": 0.0, "is_reserved": 0, "bike_id": "456a15399715b0cdb1337b5b1a3f810c", "fusion_lat": 0.0, "is_disabled": 0, "rental_uris": {"ios": "https://dc.lft.to/lastmile_qr_scan", "android": "https://dc.lft.to/lastmile_qr_scan"}}, {"name": "becffef263b9449ab15e94183b32d108", "lon": -77.02915233333333, "lat": 38.898551166666664, "type": "electric_scooter", "fusion_lon": 0.0, "is_reserved": 0, "bike_id": "becffef263b9449ab15e94183b32d108", "fusion_lat": 0.0, "is_disabled": 0, "rental_uris": {"ios": "https://dc.lft.to/lastmile_qr_scan", "android": "https://dc.lft.to/lastmile_qr_scan"}}, {"name": "764ccb6c38e0b1cddba8dc716859ea1b", "lon": -76.99127266666666, "lat": 38.86202883333333, "type": "electric_scooter", "fusion_lon": 0.0, "is_reserved": 0, "bike_id": "764ccb6c38e0b1cddba8dc716859ea1b", "fusion_lat": 0.0, "is_disabled": 0, "rental_uris": {"ios": "https://dc.lft.to/lastmile_qr_scan", "android": "https://dc.lft.to/lastmile_qr_scan"}}, {"name": "d8da36165f376e457d5d7e1aff674c37", "lon": -77.0566175, "lat": 38.928742666666665, "type": "electric_bike", "fusion_lon": 0.0, "is_reserved": 0, "bike_id": "d8da36165f376e457d5d7e1aff674c37", "fusion_lat": 0.0, "is_disabled": 0, "rental_uris": {"ios": "https://dc.lft.to/lastmile_qr_scan", "android": "https://dc.lft.to/lastmile_qr_scan"}}, {"name": "846d842bb24fad30343241f06bb4a8c1", "lon": -77.04188533333334, "lat": 38.892867, "type": "electric_scooter", "fusion_lon": 0.0, "is_reserved": 0, "bike_id": "846d842bb24fad30343241f06bb4a8c1", "fusion_lat": 0.0, "is_disabled": 0, "rental_uris": {"ios": "https://dc.lft.to/lastmile_qr_scan", "android": "https://dc.lft.to/lastmile_qr_scan"}}, {"name": "73b0a11802c6fe497ee6634809a5fc5c", "lon": -77.02883733333333, "lat": 38.91733883333333, "type": "electric_scooter", "fusion_lon": 0.0, "is_reserved": 0, "bike_id": "73b0a11802c6fe497ee6634809a5fc5c", "fusion_lat": 0.0, "is_disabled": 0, "rental_uris": {"ios": "https://dc.lft.to/lastmile_qr_scan", "android": "https://dc.lft.to/lastmile_qr_scan"}}, {"name": "854fd9e3dd6a0c916b6770e43e158d7b", "lon": -77.03484783333333, "lat": 38.902321, "type": "electric_scooter", "fusion_lon": 0.0, "is_reserved": 0, "bike_id": "854fd9e3dd6a0c916b6770e43e158d7b", "fusion_lat": 0.0, "is_disabled": 0, "rental_uris": {"ios": "https://dc.lft.to/lastmile_qr_scan", "android": "https://dc.lft.to/lastmile_qr_scan"}}, {"name": "96a3d6d285d7afb6815783700d213a97", "lon": -77.04274066666666, "lat": 38.9085855, "type": "electric_scooter", "fusion_lon": 0.0, "is_reserved": 0, "bike_id": "96a3d6d285d7afb6815783700d213a97", "fusion_lat": 0.0, "is_disabled": 0, "rental_uris": {"ios": "https://dc.lft.to/lastmile_qr_scan", "android": "https://dc.lft.to/lastmile_qr_scan"}}, {"name": "38a55a351aaea8fac5f9b2935920967d", "lon": -77.01025666666666, "lat": 38.917098333333335, "type": "electric_scooter", "fusion_lon": 0.0, "is_reserved": 0, "bike_id": "38a55a351aaea8fac5f9b2935920967d", "fusion_lat": 0.0, "is_disabled": 0, "rental_uris": {"ios": "https://dc.lft.to/lastmile_qr_scan", "android": "https://dc.lft.to/lastmile_qr_scan"}}, {"name": "b8fe2cb0c5740f047f54e3f9483d7612", "lon": -77.04478083333333, "lat": 38.92239516666667, "type": "electric_scooter", "fusion_lon": 0.0, "is_reserved": 0, "bike_id": "b8fe2cb0c5740f047f54e3f9483d7612", "fusion_lat": 0.0, "is_disabled": 0, "rental_uris": {"ios": "https://dc.lft.to/lastmile_qr_scan", "android": "https://dc.lft.to/lastmile_qr_scan"}}, {"name": "5d05bdf2655273879d257b5ead421b58", "lon": -76.99309650000001, "lat": 38.90014983333333, "type": "electric_scooter", "fusion_lon": 0.0, "is_reserved": 0, "bike_id": "5d05bdf2655273879d257b5ead421b58", "fusion_lat": 0.0, "is_disabled": 0, "rental_uris": {"ios": "https://dc.lft.to/lastmile_qr_scan", "android": "https://dc.lft.to/lastmile_qr_scan"}}, {"name": "0c566e85f6abe9fa2254502db3ec5f71", "lon": -77.03248416666666, "lat": 38.929667333333335, "type": "electric_scooter", "fusion_lon": 0.0, "is_reserved": 0, "bike_id": "0c566e85f6abe9fa2254502db3ec5f71", "fusion_lat": 0.0, "is_disabled": 0, "rental_uris": {"ios": "https://dc.lft.to/lastmile_qr_scan", "android": "https://dc.lft.to/lastmile_qr_scan"}}, {"name": "4aaae4e3f521fa822450befe18b8d700", "lon": -76.9373825, "lat": 38.890146, "type": "electric_scooter", "fusion_lon": 0.0, "is_reserved": 0, "bike_id": "4aaae4e3f521fa822450befe18b8d700", "fusion_lat": 0.0, "is_disabled": 0, "rental_uris": {"ios": "https://dc.lft.to/lastmile_qr_scan", "android": "https://dc.lft.to/lastmile_qr_scan"}}, {"name": "911860dbc469525f79170a0302a55f0f", "lon": -77.0330715, "lat": 38.956346, "type": "electric_scooter", "fusion_lon": 0.0, "is_reserved": 0, "bike_id": "911860dbc469525f79170a0302a55f0f", "fusion_lat": 0.0, "is_disabled": 0, "rental_uris": {"ios": "https://dc.lft.to/lastmile_qr_scan", "android": "https://dc.lft.to/lastmile_qr_scan"}}, {"name": "7c405686f6209a0ccaacd9f1cbdd5bae", "lon": -77.01405, "lat": 38.887452833333334, "type": "electric_scooter", "fusion_lon": 0.0, "is_reserved": 0, "bike_id": "7c405686f6209a0ccaacd9f1cbdd5bae", "fusion_lat": 0.0, "is_disabled": 0, "rental_uris": {"ios": "https://dc.lft.to/lastmile_qr_scan", "android": "https://dc.lft.to/lastmile_qr_scan"}}, {"name": "0abc92ac2a03d82cff57f6ff5c42ac86", "lon": -76.94807066666667, "lat": 38.861928, "type": "electric_bike", "fusion_lon": 0.0, "is_reserved": 0, "bike_id": "0abc92ac2a03d82cff57f6ff5c42ac86", "fusion_lat": 0.0, "is_disabled": 0, "rental_uris": {"ios": "https://dc.lft.to/lastmile_qr_scan", "android": "https://dc.lft.to/lastmile_qr_scan"}}, {"name": "779378d82e1ee3cb719b13959b475d14", "lon": -77.028983, "lat": 38.8875555, "type": "electric_scooter", "fusion_lon": 0.0, "is_reserved": 0, "bike_id": "779378d82e1ee3cb719b13959b475d14", "fusion_lat": 0.0, "is_disabled": 0, "rental_uris": {"ios": "https://dc.lft.to/lastmile_qr_scan", "android": "https://dc.lft.to/lastmile_qr_scan"}}, {"name": "d7927358f7b23fb9c13fc00114b5de68", "lon": -77.00335183333334, "lat": 38.8898895, "type": "electric_scooter", "fusion_lon": 0.0, "is_reserved": 0, "bike_id": "d7927358f7b23fb9c13fc00114b5de68", "fusion_lat": 0.0, "is_disabled": 0, "rental_uris": {"ios": "https://dc.lft.to/lastmile_qr_scan", "android": "https://dc.lft.to/lastmile_qr_scan"}}, {"name": "75218574ffec46d6ed28d7715cdf3330", "lon": -77.04144216666667, "lat": 38.921717666666666, "type": "electric_scooter", "fusion_lon": 0.0, "is_reserved": 0, "bike_id": "75218574ffec46d6ed28d7715cdf3330", "fusion_lat": 0.0, "is_disabled": 0, "rental_uris": {"ios": "https://dc.lft.to/lastmile_qr_scan", "android": "https://dc.lft.to/lastmile_qr_scan"}}, {"name": "370898a1a76210e51e618b3ecbfe6c08", "lon": -77.04997, "lat": 38.89229916666667, "type": "electric_scooter", "fusion_lon": 0.0, "is_reserved": 0, "bike_id": "370898a1a76210e51e618b3ecbfe6c08", "fusion_lat": 0.0, "is_disabled": 0, "rental_uris": {"ios": "https://dc.lft.to/lastmile_qr_scan", "android": "https://dc.lft.to/lastmile_qr_scan"}}, {"name": "45167d0982bdfbb229b02eb90702e3b9", "lon": -77.0699945, "lat": 38.955025666666664, "type": "electric_bike", "fusion_lon": 0.0, "is_reserved": 0, "bike_id": "45167d0982bdfbb229b02eb90702e3b9", "fusion_lat": 0.0, "is_disabled": 0, "rental_uris": {"ios": "https://dc.lft.to/lastmile_qr_scan", "android": "https://dc.lft.to/lastmile_qr_scan"}}, {"name": "e644ac12c5e3b6bfedeebe5e3eb28fa7", "lon": -77.04204216666666, "lat": 38.9231655, "type": "electric_scooter", "fusion_lon": 0.0, "is_reserved": 0, "bike_id": "e644ac12c5e3b6bfedeebe5e3eb28fa7", "fusion_lat": 0.0, "is_disabled": 0, "rental_uris": {"ios": "https://dc.lft.to/lastmile_qr_scan", "android": "https://dc.lft.to/lastmile_qr_scan"}}, {"name": "6709ab87a75608027b5fa3325a0a22d0", "lon": -77.0418515, "lat": 38.89222066666667, "type": "electric_scooter", "fusion_lon": 0.0, "is_reserved": 0, "bike_id": "6709ab87a75608027b5fa3325a0a22d0", "fusion_lat": 0.0, "is_disabled": 0, "rental_uris": {"ios": "https://dc.lft.to/lastmile_qr_scan", "android": "https://dc.lft.to/lastmile_qr_scan"}}, {"name": "5b0033f1e1a96d200b25d24991b2a51d", "lon": -77.0312305, "lat": 38.915612, "type": "electric_scooter", "fusion_lon": 0.0, "is_reserved": 0, "bike_id": "5b0033f1e1a96d200b25d24991b2a51d", "fusion_lat": 0.0, "is_disabled": 0, "rental_uris": {"ios": "https://dc.lft.to/lastmile_qr_scan", "android": "https://dc.lft.to/lastmile_qr_scan"}}, {"name": "95266e204430c0228302e9b0a181beba", "lon": -76.98839783333334, "lat": 38.900312666666665, "type": "electric_scooter", "fusion_lon": 0.0, "is_reserved": 0, "bike_id": "95266e204430c0228302e9b0a181beba", "fusion_lat": 0.0, "is_disabled": 0, "rental_uris": {"ios": "https://dc.lft.to/lastmile_qr_scan", "android": "https://dc.lft.to/lastmile_qr_scan"}}, {"name": "6285c3597ba7c1566103fb8c29372673", "lon": -77.02474133333334, "lat": 38.918166666666664, "type": "electric_scooter", "fusion_lon": 0.0, "is_reserved": 0, "bike_id": "6285c3597ba7c1566103fb8c29372673", "fusion_lat": 0.0, "is_disabled": 0, "rental_uris": {"ios": "https://dc.lft.to/lastmile_qr_scan", "android": "https://dc.lft.to/lastmile_qr_scan"}}, {"name": "f5a82a12f31312e59da7bc482e36e30e", "lon": -77.01109366666667, "lat": 38.90365, "type": "electric_scooter", "fusion_lon": 0.0, "is_reserved": 0, "bike_id": "f5a82a12f31312e59da7bc482e36e30e", "fusion_lat": 0.0, "is_disabled": 0, "rental_uris": {"ios": "https://dc.lft.to/lastmile_qr_scan", "android": "https://dc.lft.to/lastmile_qr_scan"}}, {"name": "03c256a13891c3fe4c4bc06d64afdadc", "lon": -77.046, "lat": 38.916979166666664, "type": "electric_scooter", "fusion_lon": 0.0, "is_reserved": 0, "bike_id": "03c256a13891c3fe4c4bc06d64afdadc", "fusion_lat": 0.0, "is_disabled": 0, "rental_uris": {"ios": "https://dc.lft.to/lastmile_qr_scan", "android": "https://dc.lft.to/lastmile_qr_scan"}}, {"name": "a2a697fe7c5b6bfcad58a51cf67c0ae8", "lon": -77.0925385, "lat": 38.94157466666667, "type": "electric_scooter", "fusion_lon": 0.0, "is_reserved": 0, "bike_id": "a2a697fe7c5b6bfcad58a51cf67c0ae8", "fusion_lat": 0.0, "is_disabled": 0, "rental_uris": {"ios": "https://dc.lft.to/lastmile_qr_scan", "android": "https://dc.lft.to/lastmile_qr_scan"}}, {"name": "df65b6fd8f328bdd66f2bae6cc5f6f3d", "lon": -77.04897266666667, "lat": 38.900906, "type": "electric_scooter", "fusion_lon": 0.0, "is_reserved": 0, "bike_id": "df65b6fd8f328bdd66f2bae6cc5f6f3d", "fusion_lat": 0.0, "is_disabled": 0, "rental_uris": {"ios": "https://dc.lft.to/lastmile_qr_scan", "android": "https://dc.lft.to/lastmile_qr_scan"}}, {"name": "5c7797617bc692dc1725c819774d6f50", "lon": -77.03733383333334, "lat": 38.935721666666666, "type": "electric_scooter", "fusion_lon": 0.0, "is_reserved": 0, "bike_id": "5c7797617bc692dc1725c819774d6f50", "fusion_lat": 0.0, "is_disabled": 0, "rental_uris": {"ios": "https://dc.lft.to/lastmile_qr_scan", "android": "https://dc.lft.to/lastmile_qr_scan"}}, {"name": "4a24fd8276fa1361bda9dbd970feada2", "lon": -77.031198, "lat": 38.91564366666667, "type": "electric_scooter", "fusion_lon": 0.0, "is_reserved": 0, "bike_id": "4a24fd8276fa1361bda9dbd970feada2", "fusion_lat": 0.0, "is_disabled": 0, "rental_uris": {"ios": "https://dc.lft.to/lastmile_qr_scan", "android": "https://dc.lft.to/lastmile_qr_scan"}}, {"name": "0643bb0511d3cecf97237548f7c88377", "lon": -77.02278633333333, "lat": 38.944743, "type": "electric_bike", "fusion_lon": 0.0, "is_reserved": 0, "bike_id": "0643bb0511d3cecf97237548f7c88377", "fusion_lat": 0.0, "is_disabled": 0, "rental_uris": {"ios": "https://dc.lft.to/lastmile_qr_scan", "android": "https://dc.lft.to/lastmile_qr_scan"}}, {"name": "67bd01637a953dc22604fe6160419702", "lon": -77.0029755, "lat": 38.891963, "type": "electric_scooter", "fusion_lon": 0.0, "is_reserved": 0, "bike_id": "67bd01637a953dc22604fe6160419702", "fusion_lat": 0.0, "is_disabled": 0, "rental_uris": {"ios": "https://dc.lft.to/lastmile_qr_scan", "android": "https://dc.lft.to/lastmile_qr_scan"}}, {"name": "7cb4165b445f6a93f1ed714483e44b29", "lon": -77.04757883333333, "lat": 38.905546666666666, "type": "electric_scooter", "fusion_lon": 0.0, "is_reserved": 0, "bike_id": "7cb4165b445f6a93f1ed714483e44b29", "fusion_lat": 0.0, "is_disabled": 0, "rental_uris": {"ios": "https://dc.lft.to/lastmile_qr_scan", "android": "https://dc.lft.to/lastmile_qr_scan"}}, {"name": "b38659b4c102b82a8f8437564b49445e", "lon": -77.03291483333334, "lat": 38.916223333333335, "type": "electric_scooter", "fusion_lon": 0.0, "is_reserved": 0, "bike_id": "b38659b4c102b82a8f8437564b49445e", "fusion_lat": 0.0, "is_disabled": 0, "rental_uris": {"ios": "https://dc.lft.to/lastmile_qr_scan", "android": "https://dc.lft.to/lastmile_qr_scan"}}, {"name": "34b5822b474003971fc9604e116aae28", "lon": -77.04031733333333, "lat": 38.92414216666667, "type": "electric_scooter", "fusion_lon": 0.0, "is_reserved": 0, "bike_id": "34b5822b474003971fc9604e116aae28", "fusion_lat": 0.0, "is_disabled": 0, "rental_uris": {"ios": "https://dc.lft.to/lastmile_qr_scan", "android": "https://dc.lft.to/lastmile_qr_scan"}}, {"name": "7346f9e37c11b860f2e4b16a1d010742", "lon": -77.03842133333333, "lat": 38.93181416666667, "type": "electric_scooter", "fusion_lon": 0.0, "is_reserved": 0, "bike_id": "7346f9e37c11b860f2e4b16a1d010742", "fusion_lat": 0.0, "is_disabled": 0, "rental_uris": {"ios": "https://dc.lft.to/lastmile_qr_scan", "android": "https://dc.lft.to/lastmile_qr_scan"}}, {"name": "fab3e0ce11dc810cb980ac7882095445", "lon": -76.975887, "lat": 38.84025466666667, "type": "electric_bike", "fusion_lon": 0.0, "is_reserved": 0, "bike_id": "fab3e0ce11dc810cb980ac7882095445", "fusion_lat": 0.0, "is_disabled": 0, "rental_uris": {"ios": "https://dc.lft.to/lastmile_qr_scan", "android": "https://dc.lft.to/lastmile_qr_scan"}}, {"name": "4ca70bfb544e76e75e4aaec71b2c70c3", "lon": -77.03030016666666, "lat": 38.8840715, "type": "electric_scooter", "fusion_lon": 0.0, "is_reserved": 0, "bike_id": "4ca70bfb544e76e75e4aaec71b2c70c3", "fusion_lat": 0.0, "is_disabled": 0, "rental_uris": {"ios": "https://dc.lft.to/lastmile_qr_scan", "android": "https://dc.lft.to/lastmile_qr_scan"}}, {"name": "282482bb197dd0039a4cde7fe2908104", "lon": -77.0344605, "lat": 38.908865, "type": "electric_scooter", "fusion_lon": 0.0, "is_reserved": 0, "bike_id": "282482bb197dd0039a4cde7fe2908104", "fusion_lat": 0.0, "is_disabled": 0, "rental_uris": {"ios": "https://dc.lft.to/lastmile_qr_scan", "android": "https://dc.lft.to/lastmile_qr_scan"}}, {"name": "9f31cef64ef30b08bee77a7c0a4f58a4", "lon": -77.05757266666667, "lat": 38.92432133333333, "type": "electric_scooter", "fusion_lon": 0.0, "is_reserved": 0, "bike_id": "9f31cef64ef30b08bee77a7c0a4f58a4", "fusion_lat": 0.0, "is_disabled": 0, "rental_uris": {"ios": "https://dc.lft.to/lastmile_qr_scan", "android": "https://dc.lft.to/lastmile_qr_scan"}}, {"name": "c34f3b1afdd87f43de033592294b55c7", "lon": -77.01361833333333, "lat": 38.8636985, "type": "electric_bike", "fusion_lon": 0.0, "is_reserved": 0, "bike_id": "c34f3b1afdd87f43de033592294b55c7", "fusion_lat": 0.0, "is_disabled": 0, "rental_uris": {"ios": "https://dc.lft.to/lastmile_qr_scan", "android": "https://dc.lft.to/lastmile_qr_scan"}}, {"name": "4663b8f2ffceb444bf408ecf8d2e9910", "lon": -77.07309916666667, "lat": 38.93355483333333, "type": "electric_scooter", "fusion_lon": 0.0, "is_reserved": 0, "bike_id": "4663b8f2ffceb444bf408ecf8d2e9910", "fusion_lat": 0.0, "is_disabled": 0, "rental_uris": {"ios": "https://dc.lft.to/lastmile_qr_scan", "android": "https://dc.lft.to/lastmile_qr_scan"}}, {"name": "5c6b3d849b72fb04dd0e3fe4603d3faa", "lon": -76.9322745, "lat": 38.898874166666666, "type": "electric_scooter", "fusion_lon": 0.0, "is_reserved": 0, "bike_id": "5c6b3d849b72fb04dd0e3fe4603d3faa", "fusion_lat": 0.0, "is_disabled": 0, "rental_uris": {"ios": "https://dc.lft.to/lastmile_qr_scan", "android": "https://dc.lft.to/lastmile_qr_scan"}}, {"name": "5febb53f0bb06d8e57df7c93806b2851", "lon": -77.03893816666667, "lat": 38.911096666666666, "type": "electric_scooter", "fusion_lon": 0.0, "is_reserved": 0, "bike_id": "5febb53f0bb06d8e57df7c93806b2851", "fusion_lat": 0.0, "is_disabled": 0, "rental_uris": {"ios": "https://dc.lft.to/lastmile_qr_scan", "android": "https://dc.lft.to/lastmile_qr_scan"}}, {"name": "981829a446d133bb2c60b8f3ae66c6bc", "lon": -77.04793, "lat": 38.9187255, "type": "electric_scooter", "fusion_lon": 0.0, "is_reserved": 0, "bike_id": "981829a446d133bb2c60b8f3ae66c6bc", "fusion_lat": 0.0, "is_disabled": 0, "rental_uris": {"ios": "https://dc.lft.to/lastmile_qr_scan", "android": "https://dc.lft.to/lastmile_qr_scan"}}, {"name": "43b5a46f2ddb7044508fd980fe8dbecf", "lon": -77.03208133333334, "lat": 38.8959135, "type": "electric_scooter", "fusion_lon": 0.0, "is_reserved": 0, "bike_id": "43b5a46f2ddb7044508fd980fe8dbecf", "fusion_lat": 0.0, "is_disabled": 0, "rental_uris": {"ios": "https://dc.lft.to/lastmile_qr_scan", "android": "https://dc.lft.to/lastmile_qr_scan"}}, {"name": "5fffa58070dda3e998dbe68ded54c39c", "lon": -77.04001083333333, "lat": 38.9242415, "type": "electric_scooter", "fusion_lon": 0.0, "is_reserved": 0, "bike_id": "5fffa58070dda3e998dbe68ded54c39c", "fusion_lat": 0.0, "is_disabled": 0, "rental_uris": {"ios": "https://dc.lft.to/lastmile_qr_scan", "android": "https://dc.lft.to/lastmile_qr_scan"}}, {"name": "cef439f7d3af2a75adc46f029d21da48", "lon": -77.05994666666666, "lat": 38.901777833333334, "type": "electric_scooter", "fusion_lon": 0.0, "is_reserved": 0, "bike_id": "cef439f7d3af2a75adc46f029d21da48", "fusion_lat": 0.0, "is_disabled": 0, "rental_uris": {"ios": "https://dc.lft.to/lastmile_qr_scan", "android": "https://dc.lft.to/lastmile_qr_scan"}}, {"name": "7cecc0885a2d649974511ae782e9f328", "lon": -77.0758255, "lat": 38.938644, "type": "electric_scooter", "fusion_lon": 0.0, "is_reserved": 0, "bike_id": "7cecc0885a2d649974511ae782e9f328", "fusion_lat": 0.0, "is_disabled": 0, "rental_uris": {"ios": "https://dc.lft.to/lastmile_qr_scan", "android": "https://dc.lft.to/lastmile_qr_scan"}}, {"name": "53d7d653a05be6bc2ceead7586b4abc9", "lon": -77.02979816666667, "lat": 38.897501, "type": "electric_scooter", "fusion_lon": 0.0, "is_reserved": 0, "bike_id": "53d7d653a05be6bc2ceead7586b4abc9", "fusion_lat": 0.0, "is_disabled": 0, "rental_uris": {"ios": "https://dc.lft.to/lastmile_qr_scan", "android": "https://dc.lft.to/lastmile_qr_scan"}}, {"name": "8dd8a0faa4ad7f9ef0c0cf69573ce5ed", "lon": -77.02497733333334, "lat": 38.94308683333333, "type": "electric_scooter", "fusion_lon": 0.0, "is_reserved": 0, "bike_id": "8dd8a0faa4ad7f9ef0c0cf69573ce5ed", "fusion_lat": 0.0, "is_disabled": 0, "rental_uris": {"ios": "https://dc.lft.to/lastmile_qr_scan", "android": "https://dc.lft.to/lastmile_qr_scan"}}, {"name": "b20819a4c72e6d17d2922315d2a845d7", "lon": -76.9968355, "lat": 38.9248725, "type": "electric_bike", "fusion_lon": 0.0, "is_reserved": 0, "bike_id": "b20819a4c72e6d17d2922315d2a845d7", "fusion_lat": 0.0, "is_disabled": 0, "rental_uris": {"ios": "https://dc.lft.to/lastmile_qr_scan", "android": "https://dc.lft.to/lastmile_qr_scan"}}, {"name": "8540beac552cc41c87ee0414429074a2", "lon": -76.9868695, "lat": 38.94477233333333, "type": "electric_bike", "fusion_lon": 0.0, "is_reserved": 0, "bike_id": "8540beac552cc41c87ee0414429074a2", "fusion_lat": 0.0, "is_disabled": 0, "rental_uris": {"ios": "https://dc.lft.to/lastmile_qr_scan", "android": "https://dc.lft.to/lastmile_qr_scan"}}, {"name": "54eaf0c4a9da9389443cc885cb073474", "lon": -77.0366785, "lat": 38.92724583333333, "type": "electric_scooter", "fusion_lon": 0.0, "is_reserved": 0, "bike_id": "54eaf0c4a9da9389443cc885cb073474", "fusion_lat": 0.0, "is_disabled": 0, "rental_uris": {"ios": "https://dc.lft.to/lastmile_qr_scan", "android": "https://dc.lft.to/lastmile_qr_scan"}}, {"name": "297f9e284d53b5666df8b9013d479b71", "lon": -77.024242, "lat": 38.90595733333333, "type": "electric_scooter", "fusion_lon": 0.0, "is_reserved": 0, "bike_id": "297f9e284d53b5666df8b9013d479b71", "fusion_lat": 0.0, "is_disabled": 0, "rental_uris": {"ios": "https://dc.lft.to/lastmile_qr_scan", "android": "https://dc.lft.to/lastmile_qr_scan"}}, {"name": "e04cdb19aad01759e6d0de3865bb5f30", "lon": -77.04345733333334, "lat": 38.906540166666666, "type": "electric_scooter", "fusion_lon": 0.0, "is_reserved": 0, "bike_id": "e04cdb19aad01759e6d0de3865bb5f30", "fusion_lat": 0.0, "is_disabled": 0, "rental_uris": {"ios": "https://dc.lft.to/lastmile_qr_scan", "android": "https://dc.lft.to/lastmile_qr_scan"}}, {"name": "b23ee6f224a338a5b9a33379ed9d22e8", "lon": -77.01415733333333, "lat": 38.92816, "type": "electric_scooter", "fusion_lon": 0.0, "is_reserved": 0, "bike_id": "b23ee6f224a338a5b9a33379ed9d22e8", "fusion_lat": 0.0, "is_disabled": 0, "rental_uris": {"ios": "https://dc.lft.to/lastmile_qr_scan", "android": "https://dc.lft.to/lastmile_qr_scan"}}, {"name": "186e8ed934ee0f9515cbe2793f4a1736", "lon": -76.99904466666666, "lat": 38.948212, "type": "electric_scooter", "fusion_lon": 0.0, "is_reserved": 0, "bike_id": "186e8ed934ee0f9515cbe2793f4a1736", "fusion_lat": 0.0, "is_disabled": 0, "rental_uris": {"ios": "https://dc.lft.to/lastmile_qr_scan", "android": "https://dc.lft.to/lastmile_qr_scan"}}, {"name": "39f183f56643f85ae151ac658d978cd9", "lon": -77.00244116666667, "lat": 38.95721, "type": "electric_scooter", "fusion_lon": 0.0, "is_reserved": 0, "bike_id": "39f183f56643f85ae151ac658d978cd9", "fusion_lat": 0.0, "is_disabled": 0, "rental_uris": {"ios": "https://dc.lft.to/lastmile_qr_scan", "android": "https://dc.lft.to/lastmile_qr_scan"}}, {"name": "60f34d3a715be4e8a132fd94eb2847d7", "lon": -77.04022866666666, "lat": 38.91837916666667, "type": "electric_scooter", "fusion_lon": 0.0, "is_reserved": 0, "bike_id": "60f34d3a715be4e8a132fd94eb2847d7", "fusion_lat": 0.0, "is_disabled": 0, "rental_uris": {"ios": "https://dc.lft.to/lastmile_qr_scan", "android": "https://dc.lft.to/lastmile_qr_scan"}}, {"name": "a40e1d6c54e2942d8a2cb72c05250840", "lon": -77.03207766666667, "lat": 38.89222816666667, "type": "electric_scooter", "fusion_lon": 0.0, "is_reserved": 0, "bike_id": "a40e1d6c54e2942d8a2cb72c05250840", "fusion_lat": 0.0, "is_disabled": 0, "rental_uris": {"ios": "https://dc.lft.to/lastmile_qr_scan", "android": "https://dc.lft.to/lastmile_qr_scan"}}, {"name": "0575ec73528e6095ee448cde787b450f", "lon": -77.02196133333334, "lat": 38.897418, "type": "electric_scooter", "fusion_lon": 0.0, "is_reserved": 0, "bike_id": "0575ec73528e6095ee448cde787b450f", "fusion_lat": 0.0, "is_disabled": 0, "rental_uris": {"ios": "https://dc.lft.to/lastmile_qr_scan", "android": "https://dc.lft.to/lastmile_qr_scan"}}, {"name": "57db5e31a426e3f4e38a862586b0797b", "lon": -76.96527533333334, "lat": 38.8762725, "type": "electric_scooter", "fusion_lon": 0.0, "is_reserved": 0, "bike_id": "57db5e31a426e3f4e38a862586b0797b", "fusion_lat": 0.0, "is_disabled": 0, "rental_uris": {"ios": "https://dc.lft.to/lastmile_qr_scan", "android": "https://dc.lft.to/lastmile_qr_scan"}}, {"name": "6871acba4e087740a1d7f90d767dc1de", "lon": -77.00693033333333, "lat": 38.870546, "type": "electric_scooter", "fusion_lon": 0.0, "is_reserved": 0, "bike_id": "6871acba4e087740a1d7f90d767dc1de", "fusion_lat": 0.0, "is_disabled": 0, "rental_uris": {"ios": "https://dc.lft.to/lastmile_qr_scan", "android": "https://dc.lft.to/lastmile_qr_scan"}}, {"name": "705a8f97c416797e47946dcbc7db15f9", "lon": -76.96529316666667, "lat": 38.876305333333335, "type": "electric_scooter", "fusion_lon": 0.0, "is_reserved": 0, "bike_id": "705a8f97c416797e47946dcbc7db15f9", "fusion_lat": 0.0, "is_disabled": 0, "rental_uris": {"ios": "https://dc.lft.to/lastmile_qr_scan", "android": "https://dc.lft.to/lastmile_qr_scan"}}, {"name": "64d92f1a9c0d945fb4bcd02734fa8188", "lon": -77.00213833333333, "lat": 38.91104416666667, "type": "electric_scooter", "fusion_lon": 0.0, "is_reserved": 0, "bike_id": "64d92f1a9c0d945fb4bcd02734fa8188", "fusion_lat": 0.0, "is_disabled": 0, "rental_uris": {"ios": "https://dc.lft.to/lastmile_qr_scan", "android": "https://dc.lft.to/lastmile_qr_scan"}}, {"name": "1d521dbc72ccc2b40c6294266b064479", "lon": -77.04064033333333, "lat": 38.9111165, "type": "electric_scooter", "fusion_lon": 0.0, "is_reserved": 0, "bike_id": "1d521dbc72ccc2b40c6294266b064479", "fusion_lat": 0.0, "is_disabled": 0, "rental_uris": {"ios": "https://dc.lft.to/lastmile_qr_scan", "android": "https://dc.lft.to/lastmile_qr_scan"}}, {"name": "2226842e240f2d3a81913f87d07cc9c9", "lon": -76.99407466666666, "lat": 38.93926116666667, "type": "electric_bike", "fusion_lon": 0.0, "is_reserved": 0, "bike_id": "2226842e240f2d3a81913f87d07cc9c9", "fusion_lat": 0.0, "is_disabled": 0, "rental_uris": {"ios": "https://dc.lft.to/lastmile_qr_scan", "android": "https://dc.lft.to/lastmile_qr_scan"}}, {"name": "706013ba5916dcd609b295c0cba72a75", "lon": -77.02899333333333, "lat": 38.928188166666665, "type": "electric_scooter", "fusion_lon": 0.0, "is_reserved": 0, "bike_id": "706013ba5916dcd609b295c0cba72a75", "fusion_lat": 0.0, "is_disabled": 0, "rental_uris": {"ios": "https://dc.lft.to/lastmile_qr_scan", "android": "https://dc.lft.to/lastmile_qr_scan"}}, {"name": "ed24afd429d79986f4977928ada924e0", "lon": -77.0352705, "lat": 38.917045333333334, "type": "electric_scooter", "fusion_lon": 0.0, "is_reserved": 0, "bike_id": "ed24afd429d79986f4977928ada924e0", "fusion_lat": 0.0, "is_disabled": 0, "rental_uris": {"ios": "https://dc.lft.to/lastmile_qr_scan", "android": "https://dc.lft.to/lastmile_qr_scan"}}, {"name": "58ed7209b56607772480fe6a343acabf", "lon": -77.11802783333333, "lat": 38.873727333333335, "type": "electric_bike", "fusion_lon": 0.0, "is_reserved": 0, "bike_id": "58ed7209b56607772480fe6a343acabf", "fusion_lat": 0.0, "is_disabled": 0, "rental_uris": {"ios": "https://dc.lft.to/lastmile_qr_scan", "android": "https://dc.lft.to/lastmile_qr_scan"}}, {"name": "94d0d95ed745a34c18888736935ea166", "lon": -76.99251516666666, "lat": 38.903023166666664, "type": "electric_scooter", "fusion_lon": 0.0, "is_reserved": 0, "bike_id": "94d0d95ed745a34c18888736935ea166", "fusion_lat": 0.0, "is_disabled": 0, "rental_uris": {"ios": "https://dc.lft.to/lastmile_qr_scan", "android": "https://dc.lft.to/lastmile_qr_scan"}}, {"name": "434e1a08b34c8454239971751b888f7a", "lon": -76.93732483333334, "lat": 38.890167, "type": "electric_scooter", "fusion_lon": 0.0, "is_reserved": 0, "bike_id": "434e1a08b34c8454239971751b888f7a", "fusion_lat": 0.0, "is_disabled": 0, "rental_uris": {"ios": "https://dc.lft.to/lastmile_qr_scan", "android": "https://dc.lft.to/lastmile_qr_scan"}}, {"name": "d857f85e5ffaf5c02c27958890503611", "lon": -76.98275383333333, "lat": 38.915606, "type": "electric_scooter", "fusion_lon": 0.0, "is_reserved": 0, "bike_id": "d857f85e5ffaf5c02c27958890503611", "fusion_lat": 0.0, "is_disabled": 0, "rental_uris": {"ios": "https://dc.lft.to/lastmile_qr_scan", "android": "https://dc.lft.to/lastmile_qr_scan"}}, {"name": "2e03bb1a3f9e6937447300330fc4320b", "lon": -76.97006766666667, "lat": 38.863701666666664, "type": "electric_bike", "fusion_lon": 0.0, "is_reserved": 0, "bike_id": "2e03bb1a3f9e6937447300330fc4320b", "fusion_lat": 0.0, "is_disabled": 0, "rental_uris": {"ios": "https://dc.lft.to/lastmile_qr_scan", "android": "https://dc.lft.to/lastmile_qr_scan"}}, {"name": "1f657d4ea50ab5344ac3d7fe0914e6ff", "lon": -77.01136183333334, "lat": 38.91587466666667, "type": "electric_scooter", "fusion_lon": 0.0, "is_reserved": 0, "bike_id": "1f657d4ea50ab5344ac3d7fe0914e6ff", "fusion_lat": 0.0, "is_disabled": 0, "rental_uris": {"ios": "https://dc.lft.to/lastmile_qr_scan", "android": "https://dc.lft.to/lastmile_qr_scan"}}, {"name": "b77ef835527c0553619fc794d3f8d373", "lon": -77.04176366666667, "lat": 38.91979766666667, "type": "electric_scooter", "fusion_lon": 0.0, "is_reserved": 0, "bike_id": "b77ef835527c0553619fc794d3f8d373", "fusion_lat": 0.0, "is_disabled": 0, "rental_uris": {"ios": "https://dc.lft.to/lastmile_qr_scan", "android": "https://dc.lft.to/lastmile_qr_scan"}}, {"name": "afba0f391684360932aecfcf9cc80a46", "lon": -77.01992516666667, "lat": 38.92278366666667, "type": "electric_bike", "fusion_lon": 0.0, "is_reserved": 0, "bike_id": "afba0f391684360932aecfcf9cc80a46", "fusion_lat": 0.0, "is_disabled": 0, "rental_uris": {"ios": "https://dc.lft.to/lastmile_qr_scan", "android": "https://dc.lft.to/lastmile_qr_scan"}}, {"name": "dfda2c746e6b968707d0bec99d09f011", "lon": -77.0020095, "lat": 38.90237483333333, "type": "electric_scooter", "fusion_lon": 0.0, "is_reserved": 0, "bike_id": "dfda2c746e6b968707d0bec99d09f011", "fusion_lat": 0.0, "is_disabled": 0, "rental_uris": {"ios": "https://dc.lft.to/lastmile_qr_scan", "android": "https://dc.lft.to/lastmile_qr_scan"}}, {"name": "a9a3e0bac60465e39ee9a7dff1014e35", "lon": -76.9865215, "lat": 38.858093833333335, "type": "electric_scooter", "fusion_lon": 0.0, "is_reserved": 0, "bike_id": "a9a3e0bac60465e39ee9a7dff1014e35", "fusion_lat": 0.0, "is_disabled": 0, "rental_uris": {"ios": "https://dc.lft.to/lastmile_qr_scan", "android": "https://dc.lft.to/lastmile_qr_scan"}}, {"name": "3483162ed4180b3aabae3f838499faf9", "lon": -76.98926, "lat": 38.85811133333333, "type": "electric_scooter", "fusion_lon": 0.0, "is_reserved": 0, "bike_id": "3483162ed4180b3aabae3f838499faf9", "fusion_lat": 0.0, "is_disabled": 0, "rental_uris": {"ios": "https://dc.lft.to/lastmile_qr_scan", "android": "https://dc.lft.to/lastmile_qr_scan"}}, {"name": "72f4fcf4af38a084540f7260c71b4827", "lon": -76.9845895, "lat": 38.90021516666667, "type": "electric_scooter", "fusion_lon": 0.0, "is_reserved": 0, "bike_id": "72f4fcf4af38a084540f7260c71b4827", "fusion_lat": 0.0, "is_disabled": 0, "rental_uris": {"ios": "https://dc.lft.to/lastmile_qr_scan", "android": "https://dc.lft.to/lastmile_qr_scan"}}, {"name": "6a25ca4c93687fa3c9a60952423174fa", "lon": -77.029029, "lat": 38.91405816666666, "type": "electric_scooter", "fusion_lon": 0.0, "is_reserved": 0, "bike_id": "6a25ca4c93687fa3c9a60952423174fa", "fusion_lat": 0.0, "is_disabled": 0, "rental_uris": {"ios": "https://dc.lft.to/lastmile_qr_scan", "android": "https://dc.lft.to/lastmile_qr_scan"}}, {"name": "a504e04b592c288efe9e5cee44a5dafb", "lon": -77.00271266666667, "lat": 38.903699833333334, "type": "electric_scooter", "fusion_lon": 0.0, "is_reserved": 0, "bike_id": "a504e04b592c288efe9e5cee44a5dafb", "fusion_lat": 0.0, "is_disabled": 0, "rental_uris": {"ios": "https://dc.lft.to/lastmile_qr_scan", "android": "https://dc.lft.to/lastmile_qr_scan"}}, {"name": "026d93b3f5bf4f459e667c21e29e0eba", "lon": -76.90711233333333, "lat": 38.895985, "type": "electric_bike", "fusion_lon": 0.0, "is_reserved": 0, "bike_id": "026d93b3f5bf4f459e667c21e29e0eba", "fusion_lat": 0.0, "is_disabled": 0, "rental_uris": {"ios": "https://dc.lft.to/lastmile_qr_scan", "android": "https://dc.lft.to/lastmile_qr_scan"}}, {"name": "e2242637f08385da37f9e0706b9f6405", "lon": -77.04341883333333, "lat": 38.90776316666667, "type": "electric_scooter", "fusion_lon": 0.0, "is_reserved": 0, "bike_id": "e2242637f08385da37f9e0706b9f6405", "fusion_lat": 0.0, "is_disabled": 0, "rental_uris": {"ios": "https://dc.lft.to/lastmile_qr_scan", "android": "https://dc.lft.to/lastmile_qr_scan"}}, {"name": "7991d60c5e677b7a23a053d9a9b42b48", "lon": -77.04026, "lat": 38.899233833333334, "type": "electric_scooter", "fusion_lon": 0.0, "is_reserved": 0, "bike_id": "7991d60c5e677b7a23a053d9a9b42b48", "fusion_lat": 0.0, "is_disabled": 0, "rental_uris": {"ios": "https://dc.lft.to/lastmile_qr_scan", "android": "https://dc.lft.to/lastmile_qr_scan"}}, {"name": "65641b4a8ba1c8b4fd2d2b4d784b7121", "lon": -77.0523165, "lat": 38.92692783333333, "type": "electric_scooter", "fusion_lon": 0.0, "is_reserved": 0, "bike_id": "65641b4a8ba1c8b4fd2d2b4d784b7121", "fusion_lat": 0.0, "is_disabled": 0, "rental_uris": {"ios": "https://dc.lft.to/lastmile_qr_scan", "android": "https://dc.lft.to/lastmile_qr_scan"}}, {"name": "57c45e20b865cb8c3c5714a3fa73efc9", "lon": -77.0395065, "lat": 38.89864766666667, "type": "electric_scooter", "fusion_lon": 0.0, "is_reserved": 0, "bike_id": "57c45e20b865cb8c3c5714a3fa73efc9", "fusion_lat": 0.0, "is_disabled": 0, "rental_uris": {"ios": "https://dc.lft.to/lastmile_qr_scan", "android": "https://dc.lft.to/lastmile_qr_scan"}}, {"name": "cd37ee2d42bd5a840cf0df417537dc1f", "lon": -76.998141, "lat": 38.84431516666667, "type": "electric_scooter", "fusion_lon": 0.0, "is_reserved": 0, "bike_id": "cd37ee2d42bd5a840cf0df417537dc1f", "fusion_lat": 0.0, "is_disabled": 0, "rental_uris": {"ios": "https://dc.lft.to/lastmile_qr_scan", "android": "https://dc.lft.to/lastmile_qr_scan"}}, {"name": "5a98aeaf637a2a4f934cf27199f4a1a1", "lon": -76.98698966666667, "lat": 38.862537333333336, "type": "electric_scooter", "fusion_lon": 0.0, "is_reserved": 0, "bike_id": "5a98aeaf637a2a4f934cf27199f4a1a1", "fusion_lat": 0.0, "is_disabled": 0, "rental_uris": {"ios": "https://dc.lft.to/lastmile_qr_scan", "android": "https://dc.lft.to/lastmile_qr_scan"}}, {"name": "349daf953c9473d80e1b0dcca80152c7", "lon": -77.01614383333333, "lat": 38.91811766666667, "type": "electric_scooter", "fusion_lon": 0.0, "is_reserved": 0, "bike_id": "349daf953c9473d80e1b0dcca80152c7", "fusion_lat": 0.0, "is_disabled": 0, "rental_uris": {"ios": "https://dc.lft.to/lastmile_qr_scan", "android": "https://dc.lft.to/lastmile_qr_scan"}}, {"name": "a81058fc1f532ee018918cca4d9b6e55", "lon": -77.04142783333333, "lat": 38.919662333333335, "type": "electric_scooter", "fusion_lon": 0.0, "is_reserved": 0, "bike_id": "a81058fc1f532ee018918cca4d9b6e55", "fusion_lat": 0.0, "is_disabled": 0, "rental_uris": {"ios": "https://dc.lft.to/lastmile_qr_scan", "android": "https://dc.lft.to/lastmile_qr_scan"}}, {"name": "47faa2a010dd30f2a2d2738f02fb4bbe", "lon": -77.0264175, "lat": 38.89193266666667, "type": "electric_scooter", "fusion_lon": 0.0, "is_reserved": 0, "bike_id": "47faa2a010dd30f2a2d2738f02fb4bbe", "fusion_lat": 0.0, "is_disabled": 0, "rental_uris": {"ios": "https://dc.lft.to/lastmile_qr_scan", "android": "https://dc.lft.to/lastmile_qr_scan"}}, {"name": "6c0f60bab84e7c6fd265983dde82a320", "lon": -77.018886, "lat": 38.900513833333335, "type": "electric_scooter", "fusion_lon": 0.0, "is_reserved": 0, "bike_id": "6c0f60bab84e7c6fd265983dde82a320", "fusion_lat": 0.0, "is_disabled": 0, "rental_uris": {"ios": "https://dc.lft.to/lastmile_qr_scan", "android": "https://dc.lft.to/lastmile_qr_scan"}},