{"data": {"bikes": [{"fusion_lat": 0.0, "name": "aa88f72b88e4249b84bbd76fb9fa210b", "is_disabled": 0, "rental_uris": {"android": "https://dc.lft.to/lastmile_qr_scan", "ios": "https://dc.lft.to/lastmile_qr_scan"}, "fusion_lon": 0.0, "lat": 38.90935916666667, "bike_id": "aa88f72b88e4249b84bbd76fb9fa210b", "type": "electric_scooter", "is_reserved": 0, "lon": -77.03857433333333}, {"fusion_lat": 0.0, "name": "f73428410512cee920168e2e332930d9", "is_disabled": 0, "rental_uris": {"android": "https://dc.lft.to/lastmile_qr_scan", "ios": "https://dc.lft.to/lastmile_qr_scan"}, "fusion_lon": 0.0, "lat": 38.908577, "bike_id": "f73428410512cee920168e2e332930d9", "type": "electric_scooter", "is_reserved": 0, "lon": -77.00240516666666}, {"fusion_lat": 0.0, "name": "88f9b1a1ba2a1550f1cf84118f4a1adc", "is_disabled": 0, "rental_uris": {"android": "https://dc.lft.to/lastmile_qr_scan", "ios": "https://dc.lft.to/lastmile_qr_scan"}, "fusion_lon": 0.0, "lat": 38.876681166666664, "bike_id": "88f9b1a1ba2a1550f1cf84118f4a1adc", "type": "electric_bike", "is_reserved": 0, "lon": -77.014359}, {"fusion_lat": 0.0, "name": "2dd867b2c8286ccd4ea3cea562e4723d", "is_disabled": 0, "rental_uris": {"android": "https://dc.lft.to/lastmile_qr_scan", "ios": "https://dc.lft.to/lastmile_qr_scan"}, "fusion_lon": 0.0, "lat": 38.90976833333333, "bike_id": "2dd867b2c8286ccd4ea3cea562e4723d", "type": "electric_scooter", "is_reserved": 0, "lon": -77.02688783333333}, {"fusion_lat": 0.0, "name": "e49c302607accad1efed662cf91b8480", "is_disabled": 0, "rental_uris": {"android": "https://dc.lft.to/lastmile_qr_scan", "ios": "https://dc.lft.to/lastmile_qr_scan"}, "fusion_lon": 0.0, "lat": 38.949606833333334, "bike_id": "e49c302607accad1efed662cf91b8480", "type": "electric_scooter", "is_reserved": 0, "lon": -77.06643516666666}, {"fusion_lat": 0.0, "name": "f9ed56fa93b868e50bd52b665bc82ef1", "is_disabled": 0, "rental_uris": {"android": "https://dc.lft.to/lastmile_qr_scan", "ios": "https://dc.lft.to/lastmile_qr_scan"}, "fusion_lon": 0.0, "lat": 38.91107083333333, "bike_id": "f9ed56fa93b868e50bd52b665bc82ef1", "type": "electric_scooter", "is_reserved": 0, "lon": -77.038237}, {"fusion_lat": 0.0, "name": "2d47e27a933ec7496fd542f379942642", "is_disabled": 0, "rental_uris": {"android": "https://dc.lft.to/lastmile_qr_scan", "ios": "https://dc.lft.to/lastmile_qr_scan"}, "fusion_lon": 0.0, "lat": 38.915536333333336, "bike_id": "2d47e27a933ec7496fd542f379942642", "type": "electric_scooter", "is_reserved": 0, "lon": -77.0347505}, {"fusion_lat": 0.0, "name": "2b3d3896b8c53565e5a0fea2e3d95367", "is_disabled": 0, "rental_uris": {"android": "https://dc.lft.to/lastmile_qr_scan", "ios": "https://dc.lft.to/lastmile_qr_scan"}, "fusion_lon": 0.0, "lat": 38.93283366666667, "bike_id": "2b3d3896b8c53565e5a0fea2e3d95367", "type": "electric_scooter", "is_reserved": 0, "lon": -77.0408055}, {"fusion_lat": 0.0, "name": "fd7c47b6cb4af74b28d0d331461792e4", "is_disabled": 0, "rental_uris": {"android": "https://dc.lft.to/lastmile_qr_scan", "ios": "https://dc.lft.to/lastmile_qr_scan"}, "fusion_lon": 0.0, "lat": 38.950536, "bike_id": "fd7c47b6cb4af74b28d0d331461792e4", "type": "electric_scooter", "is_reserved": 0, "lon": -77.08024166666667}, {"fusion_lat": 0.0, "name": "c3d54f4ba7f3546710118996c28fc646", "is_disabled": 0, "rental_uris": {"android": "https://dc.lft.to/lastmile_qr_scan", "ios": "https://dc.lft.to/lastmile_qr_scan"}, "fusion_lon": 0.0, "lat": 38.8662485, "bike_id": "c3d54f4ba7f3546710118996c28fc646", "type": "electric_scooter", "is_reserved": 0, "lon": -76.98709583333333}, {"fusion_lat": 0.0, "name": "9f9e8dbac06d09149a179bdd781d9468", "is_disabled": 0, "rental_uris": {"android": "https://dc.lft.to/lastmile_qr_scan", "ios": "https://dc.lft.to/lastmile_qr_scan"}, "fusion_lon": 0.0, "lat": 38.9030375, "bike_id": "9f9e8dbac06d09149a179bdd781d9468", "type": "electric_scooter", "is_reserved": 0, "lon": -77.06016133333334}, {"fusion_lat": 0.0, "name": "381082217a5a9ace07c5537842129950", "is_disabled": 0, "rental_uris": {"android": "https://dc.lft.to/lastmile_qr_scan", "ios": "https://dc.lft.to/lastmile_qr_scan"}, "fusion_lon": 0.0, "lat": 38.8764035, "bike_id": "381082217a5a9ace07c5537842129950", "type": "electric_scooter", "is_reserved": 0, "lon": -77.00664916666666}, {"fusion_lat": 0.0, "name": "c31a83bc2722f2a34fdf335d39cc71e9", "is_disabled": 0, "rental_uris": {"android": "https://dc.lft.to/lastmile_qr_scan", "ios": "https://dc.lft.to/lastmile_qr_scan"}, "fusion_lon": 0.0, "lat": 38.89794583333333, "bike_id": "c31a83bc2722f2a34fdf335d39cc71e9", "type": "electric_bike", "is_reserved": 0, "lon": -76.99956166666666}, {"fusion_lat": 0.0, "name": "19a04fc15ef6354767afc55793d95fad", "is_disabled": 0, "rental_uris": {"android": "https://dc.lft.to/lastmile_qr_scan", "ios": "https://dc.lft.to/lastmile_qr_scan"}, "fusion_lon": 0.0, "lat": 38.916663666666665, "bike_id": "19a04fc15ef6354767afc55793d95fad", "type": "electric_scooter", "is_reserved": 0, "lon": -77.02971616666666}, {"fusion_lat": 0.0, "name": "3d70a5acb73f0034b4515b7dc0ca3093", "is_disabled": 0, "rental_uris": {"android": "https://dc.lft.to/lastmile_qr_scan", "ios": "https://dc.lft.to/lastmile_qr_scan"}, "fusion_lon": 0.0, "lat": 38.81975116666667, "bike_id": "3d70a5acb73f0034b4515b7dc0ca3093", "type": "electric_bike", "is_reserved": 0, "lon": -76.99802216666667}, {"fusion_lat": 0.0, "name": "b635e5408d794cfca886aa2dde50b706", "is_disabled": 0, "rental_uris": {"android": "https://dc.lft.to/lastmile_qr_scan", "ios": "https://dc.lft.to/lastmile_qr_scan"}, "fusion_lon": 0.0, "lat": 38.951831166666665, "bike_id": "b635e5408d794cfca886aa2dde50b706", "type": "electric_scooter", "is_reserved": 0, "lon": -77.02613466666666}, {"fusion_lat": 0.0, "name": "c5953ce54fa527706e8b678a23fc41ea", "is_disabled": 0, "rental_uris": {"android": "https://dc.lft.to/lastmile_qr_scan", "ios": "https://dc.lft.to/lastmile_qr_scan"}, "fusion_lon": 0.0, "lat": 38.898574833333335, "bike_id": "c5953ce54fa527706e8b678a23fc41ea", "type": "electric_scooter", "is_reserved": 0, "lon": -76.97662083333333}, {"fusion_lat": 0.0, "name": "192849cd3c8045b71cc15c1006fe7ed8", "is_disabled": 0, "rental_uris": {"android": "https://dc.lft.to/lastmile_qr_scan", "ios": "https://dc.lft.to/lastmile_qr_scan"}, "fusion_lon": 0.0, "lat": 38.8820875, "bike_id": "192849cd3c8045b71cc15c1006fe7ed8", "type": "electric_scooter", "is_reserved": 0, "lon": -77.02866516666667}, {"fusion_lat": 0.0, "name": "e4af34025fc7873f8cd47727bb06595a", "is_disabled": 0, "rental_uris": {"android": "https://dc.lft.to/lastmile_qr_scan", "ios": "https://dc.lft.to/lastmile_qr_scan"}, "fusion_lon": 0.0, "lat": 38.9475205, "bike_id": "e4af34025fc7873f8cd47727bb06595a", "type": "electric_scooter", "is_reserved": 0, "lon": -77.00717566666667}, {"fusion_lat": 0.0, "name": "156e91c5e10d39d8524954b256ea6681", "is_disabled": 0, "rental_uris": {"android": "https://dc.lft.to/lastmile_qr_scan", "ios": "https://dc.lft.to/lastmile_qr_scan"}, "fusion_lon": 0.0, "lat": 38.8973775, "bike_id": "156e91c5e10d39d8524954b256ea6681", "type": "electric_scooter", "is_reserved": 0, "lon": -77.0495145}, {"fusion_lat": 0.0, "name": "b99b15f3046a5450950771f553cf21ec", "is_disabled": 0, "rental_uris": {"android": "https://dc.lft.to/lastmile_qr_scan", "ios": "https://dc.lft.to/lastmile_qr_scan"}, "fusion_lon": 0.0, "lat": 38.79853683333333, "bike_id": "b99b15f3046a5450950771f553cf21ec", "type": "electric_bike", "is_reserved": 0, "lon": -77.063088}, {"fusion_lat": 0.0, "name": "0a01c9a5747ea05b84e0d814b2bc1951", "is_disabled": 0, "rental_uris": {"android": "https://dc.lft.to/lastmile_qr_scan", "ios": "https://dc.lft.to/lastmile_qr_scan"}, "fusion_lon": 0.0, "lat": 38.92064216666667, "bike_id": "0a01c9a5747ea05b84e0d814b2bc1951", "type": "electric_scooter", "is_reserved": 0, "lon": -77.02419083333334}, {"fusion_lat": 0.0, "name": "5528582debce6ae0139af6a0181a81de", "is_disabled": 0, "rental_uris": {"android": "https://dc.lft.to/lastmile_qr_scan", "ios": "https://dc.lft.to/lastmile_qr_scan"}, "fusion_lon": 0.0, "lat": 38.8798405, "bike_id": "5528582debce6ae0139af6a0181a81de", "type": "electric_scooter", "is_reserved": 0, "lon": -77.02411066666667}, {"fusion_lat": 0.0, "name": "d915a5d1a0c905cd18943481845c42f6", "is_disabled": 0, "rental_uris": {"android": "https://dc.lft.to/lastmile_qr_scan", "ios": "https://dc.lft.to/lastmile_qr_scan"}, "fusion_lon": 0.0, "lat": 38.8908545, "bike_id": "d915a5d1a0c905cd18943481845c42f6", "type": "electric_scooter", "is_reserved": 0, "lon": -76.91922133333334}, {"fusion_lat": 0.0, "name": "988d492d49fd3d30876b62a50c54eb92", "is_disabled": 0, "rental_uris": {"android": "https://dc.lft.to/lastmile_qr_scan", "ios": "https://dc.lft.to/lastmile_qr_scan"}, "fusion_lon": 0.0, "lat": 38.90356416666667, "bike_id": "988d492d49fd3d30876b62a50c54eb92", "type": "electric_scooter", "is_reserved": 0, "lon": -77.04485816666667}, {"fusion_lat": 0.0, "name": "9d72bb404f43d5662aa943e2810272d3", "is_disabled": 0, "rental_uris": {"android": "https://dc.lft.to/lastmile_qr_scan", "ios": "https://dc.lft.to/lastmile_qr_scan"}, "fusion_lon": 0.0, "lat": 38.92473966666667, "bike_id": "9d72bb404f43d5662aa943e2810272d3", "type": "electric_scooter", "is_reserved": 0, "lon": -77.038538}, {"fusion_lat": 0.0, "name": "ceed5aca271bd174d82721f227afafa2", "is_disabled": 0, "rental_uris": {"android": "https://dc.lft.to/lastmile_qr_scan", "ios": "https://dc.lft.to/lastmile_qr_scan"}, "fusion_lon": 0.0, "lat": 38.94433566666667, "bike_id": "ceed5aca271bd174d82721f227afafa2", "type": "electric_bike", "is_reserved": 0, "lon": -77.026071}, {"fusion_lat": 0.0, "name": "abffd8d73d5f3d7617b9f669f8e03a7a", "is_disabled": 0, "rental_uris": {"android": "https://dc.lft.to/lastmile_qr_scan", "ios": "https://dc.lft.to/lastmile_qr_scan"}, "fusion_lon": 0.0, "lat": 38.91706966666667, "bike_id": "abffd8d73d5f3d7617b9f669f8e03a7a", "type": "electric_scooter", "is_reserved": 0, "lon": -77.0414455}, {"fusion_lat": 0.0, "name": "446240182293adc8cdd98c3530d5b112", "is_disabled": 0, "rental_uris": {"android": "https://dc.lft.to/lastmile_qr_scan", "ios": "https://dc.lft.to/lastmile_qr_scan"}, "fusion_lon": 0.0, "lat": 38.932441833333336, "bike_id": "446240182293adc8cdd98c3530d5b112", "type": "electric_scooter", "is_reserved": 0, "lon": -77.0342565}, {"fusion_lat": 0.0, "name": "017dfe5e25951667942c8bc3b4e3b90a", "is_disabled": 0, "rental_uris": {"android": "https://dc.lft.to/lastmile_qr_scan", "ios": "https://dc.lft.to/lastmile_qr_scan"}, "fusion_lon": 0.0, "lat": 38.9154925, "bike_id": "017dfe5e25951667942c8bc3b4e3b90a", "type": "electric_scooter", "is_reserved": 0, "lon": -77.032223}, {"fusion_lat": 0.0, "name": "d8918f8d3fe11af962de14f65cb913a2", "is_disabled": 0, "rental_uris": {"android": "https://dc.lft.to/lastmile_qr_scan", "ios": "https://dc.lft.to/lastmile_qr_scan"}, "fusion_lon": 0.0, "lat": 38.940848833333334, "bike_id": "d8918f8d3fe11af962de14f65cb913a2", "type": "electric_scooter", "is_reserved": 0, "lon": -77.0618095}, {"fusion_lat": 0.0, "name": "56fe7d4b8a6d3c5069c5de063c1268b9", "is_disabled": 0, "rental_uris": {"android": "https://dc.lft.to/lastmile_qr_scan", "ios": "https://dc.lft.to/lastmile_qr_scan"}, "fusion_lon": 0.0, "lat": 38.92913183333334, "bike_id": "56fe7d4b8a6d3c5069c5de063c1268b9", "type": "electric_scooter", "is_reserved": 0, "lon": -77.03741716666667}, {"fusion_lat": 0.0, "name": "de62a3eb34370922db8f6985b0bc54fa", "is_disabled": 0, "rental_uris": {"android": "https://dc.lft.to/lastmile_qr_scan", "ios": "https://dc.lft.to/lastmile_qr_scan"}, "fusion_lon": 0.0, "lat": 38.933944333333336, "bike_id": "de62a3eb34370922db8f6985b0bc54fa", "type": "electric_scooter", "is_reserved": 0, "lon": -77.02832416666666}, {"fusion_lat": 0.0, "name": "0306979a4426f3cf9849bbf234b96495", "is_disabled": 0, "rental_uris": {"android": "https://dc.lft.to/lastmile_qr_scan", "ios": "https://dc.lft.to/lastmile_qr_scan"}, "fusion_lon": 0.0, "lat": 38.937683666666665, "bike_id": "0306979a4426f3cf9849bbf234b96495", "type": "electric_bike", "is_reserved": 0, "lon": -77.01908383333334}, {"fusion_lat": 0.0, "name": "655a9a22145edcd1a45868eef6d19945", "is_disabled": 0, "rental_uris": {"android": "https://dc.lft.to/lastmile_qr_scan", "ios": "https://dc.lft.to/lastmile_qr_scan"}, "fusion_lon": 0.0, "lat": 38.883871, "bike_id": "655a9a22145edcd1a45868eef6d19945", "type": "electric_scooter", "is_reserved": 0, "lon": -76.93039266666666}, {"fusion_lat": 0.0, "name": "fa3291466a9eb24a862062e005d5f3f8", "is_disabled": 0, "rental_uris": {"android": "https://dc.lft.to/lastmile_qr_scan", "ios": "https://dc.lft.to/lastmile_qr_scan"}, "fusion_lon": 0.0, "lat": 38.90386733333333, "bike_id": "fa3291466a9eb24a862062e005d5f3f8", "type": "electric_scooter", "is_reserved": 0, "lon": -77.03815066666667}, {"fusion_lat": 0.0, "name": "882c4d78790192d6200a71fe63957f3f", "is_disabled": 0, "rental_uris": {"android": "https://dc.lft.to/lastmile_qr_scan", "ios": "https://dc.lft.to/lastmile_qr_scan"}, "fusion_lon": 0.0, "lat": 38.9023225, "bike_id": "882c4d78790192d6200a71fe63957f3f", "type": "electric_scooter", "is_reserved": 0, "lon": -77.02663466666667}, {"fusion_lat": 0.0, "name": "500fe579313fcc8fdd6e611f3ae18065", "is_disabled": 0, "rental_uris": {"android": "https://dc.lft.to/lastmile_qr_scan", "ios": "https://dc.lft.to/lastmile_qr_scan"}, "fusion_lon": 0.0, "lat": 38.857729166666665, "bike_id": "500fe579313fcc8fdd6e611f3ae18065", "type": "electric_bike", "is_reserved": 0, "lon": -76.987733}, {"fusion_lat": 0.0, "name": "79102e4c32a282d2e38a29c13383bc14", "is_disabled": 0, "rental_uris": {"android": "https://dc.lft.to/lastmile_qr_scan", "ios": "https://dc.lft.to/lastmile_qr_scan"}, "fusion_lon": 0.0, "lat": 38.914028, "bike_id": "79102e4c32a282d2e38a29c13383bc14", "type": "electric_scooter", "is_reserved": 0, "lon": -77.0331625}, {"fusion_lat": 0.0, "name": "ea8b6bd88fb37d579f77ad0b25b38017", "is_disabled": 0, "rental_uris": {"android": "https://dc.lft.to/lastmile_qr_scan", "ios": "https://dc.lft.to/lastmile_qr_scan"}, "fusion_lon": 0.0, "lat": 38.9165635, "bike_id": "ea8b6bd88fb37d579f77ad0b25b38017", "type": "electric_scooter", "is_reserved": 0, "lon": -77.028178}, {"fusion_lat": 0.0, "name": "d851ab67fc902451dc85e66c58b80996", "is_disabled": 0, "rental_uris": {"android": "https://dc.lft.to/lastmile_qr_scan", "ios": "https://dc.lft.to/lastmile_qr_scan"}, "fusion_lon": 0.0, "lat": 38.9303045, "bike_id": "d851ab67fc902451dc85e66c58b80996", "type": "electric_bike", "is_reserved": 0, "lon": -77.02019633333333}, {"fusion_lat": 0.0, "name": "e9645184bfc5940c38ea66ca76c236bf", "is_disabled": 0, "rental_uris": {"android": "https://dc.lft.to/lastmile_qr_scan", "ios": "https://dc.lft.to/lastmile_qr_scan"}, "fusion_lon": 0.0, "lat": 38.891668833333334, "bike_id": "e9645184bfc5940c38ea66ca76c236bf", "type": "electric_scooter", "is_reserved": 0, "lon": -76.99463066666667}, {"fusion_lat": 0.0, "name": "d772146558c3dd558f50431a13cce389", "is_disabled": 0, "rental_uris": {"android": "https://dc.lft.to/lastmile_qr_scan", "ios": "https://dc.lft.to/lastmile_qr_scan"}, "fusion_lon": 0.0, "lat": 38.899244833333334, "bike_id": "d772146558c3dd558f50431a13cce389", "type": "electric_scooter", "is_reserved": 0, "lon": -77.00354766666666}, {"fusion_lat": 0.0, "name": "3c7efab8735c15074b04d29b9b88e64b", "is_disabled": 0, "rental_uris": {"android": "https://dc.lft.to/lastmile_qr_scan", "ios": "https://dc.lft.to/lastmile_qr_scan"}, "fusion_lon": 0.0, "lat": 38.9319595, "bike_id": "3c7efab8735c15074b04d29b9b88e64b", "type": "electric_scooter", "is_reserved": 0, "lon": -77.02796966666666}, {"fusion_lat": 0.0, "name": "b1d742d593a1fbb8499ca6c286a77dc7", "is_disabled": 0, "rental_uris": {"android": "https://dc.lft.to/lastmile_qr_scan", "ios": "https://dc.lft.to/lastmile_qr_scan"}, "fusion_lon": 0.0, "lat": 38.890641, "bike_id": "b1d742d593a1fbb8499ca6c286a77dc7", "type": "electric_scooter", "is_reserved": 0, "lon": -76.94444783333333}, {"fusion_lat": 0.0, "name": "34cf1490ce6027f7edadc3b009d01ad6", "is_disabled": 0, "rental_uris": {"android": "https://dc.lft.to/lastmile_qr_scan", "ios": "https://dc.lft.to/lastmile_qr_scan"}, "fusion_lon": 0.0, "lat": 38.8952605, "bike_id": "34cf1490ce6027f7edadc3b009d01ad6", "type": "electric_scooter", "is_reserved": 0, "lon": -77.01190416666667}, {"fusion_lat": 0.0, "name": "6d49e86f33f6c389d9861d1b8061e73a", "is_disabled": 0, "rental_uris": {"android": "https://dc.lft.to/lastmile_qr_scan", "ios": "https://dc.lft.to/lastmile_qr_scan"}, "fusion_lon": 0.0, "lat": 38.92512266666667, "bike_id": "6d49e86f33f6c389d9861d1b8061e73a", "type": "electric_scooter", "is_reserved": 0, "lon": -76.995569}, {"fusion_lat": 0.0, "name": "3da103cc492193078680be2672d81809", "is_disabled": 0, "rental_uris": {"android": "https://dc.lft.to/lastmile_qr_scan", "ios": "https://dc.lft.to/lastmile_qr_scan"}, "fusion_lon": 0.0, "lat": 38.87551883333333, "bike_id": "3da103cc492193078680be2672d81809", "type": "electric_scooter", "is_reserved": 0, "lon": -77.005618}, {"fusion_lat": 0.0, "name": "3d81f34599ea4910a41021cf447f7dc4", "is_disabled": 0, "rental_uris": {"android": "https://dc.lft.to/lastmile_qr_scan", "ios": "https://dc.lft.to/lastmile_qr_scan"}, "fusion_lon": 0.0, "lat": 38.9563705, "bike_id": "3d81f34599ea4910a41021cf447f7dc4", "type": "electric_scooter", "is_reserved": 0, "lon": -77.0240825}, {"fusion_lat": 0.0, "name": "63479ca532aa44ab82decb6501264a0d", "is_disabled": 0, "rental_uris": {"android": "https://dc.lft.to/lastmile_qr_scan", "ios": "https://dc.lft.to/lastmile_qr_scan"}, "fusion_lon": 0.0, "lat": 38.91391733333333, "bike_id": "63479ca532aa44ab82decb6501264a0d", "type": "electric_scooter", "is_reserved": 0, "lon": -77.033186}, {"fusion_lat": 0.0, "name": "3cc42e2555650fe837cb8a19794b7b3e", "is_disabled": 0, "rental_uris": {"android": "https://dc.lft.to/lastmile_qr_scan", "ios": "https://dc.lft.to/lastmile_qr_scan"}, "fusion_lon": 0.0, "lat": 38.911183333333334, "bike_id": "3cc42e2555650fe837cb8a19794b7b3e", "type": "electric_scooter", "is_reserved": 0, "lon": -77.03836216666667}, {"fusion_lat": 0.0, "name": "e09b13e3e829f48fc858b8177fea68dc", "is_disabled": 0, "rental_uris": {"android": "https://dc.lft.to/lastmile_qr_scan", "ios": "https://dc.lft.to/lastmile_qr_scan"}, "fusion_lon": 0.0, "lat": 38.90132066666666, "bike_id": "e09b13e3e829f48fc858b8177fea68dc", "type": "electric_scooter", "is_reserved": 0, "lon": -77.00255516666667}, {"fusion_lat": 0.0, "name": "738a882374c3f51b8d0e4e985684dcba", "is_disabled": 0, "rental_uris": {"android": "https://dc.lft.to/lastmile_qr_scan", "ios": "https://dc.lft.to/lastmile_qr_scan"}, "fusion_lon": 0.0, "lat": 38.92472466666667, "bike_id": "738a882374c3f51b8d0e4e985684dcba", "type": "electric_scooter", "is_reserved": 0, "lon": -77.02642466666667}, {"fusion_lat": 0.0, "name": "36d08a32c0218611f50af2dd42c10510", "is_disabled": 0, "rental_uris": {"android": "https://dc.lft.to/lastmile_qr_scan", "ios": "https://dc.lft.to/lastmile_qr_scan"}, "fusion_lon": 0.0, "lat": 38.93967033333333, "bike_id": "36d08a32c0218611f50af2dd42c10510", "type": "electric_scooter", "is_reserved": 0, "lon": -77.032522}, {"fusion_lat": 0.0, "name": "2fc4c7db8c8e24eb1e13e9b885b3b8d7", "is_disabled": 0, "rental_uris": {"android": "https://dc.lft.to/lastmile_qr_scan", "ios": "https://dc.lft.to/lastmile_qr_scan"}, "fusion_lon": 0.0, "lat": 38.9064735, "bike_id": "2fc4c7db8c8e24eb1e13e9b885b3b8d7", "type": "electric_scooter", "is_reserved": 0, "lon": -77.01416666666667}, {"fusion_lat": 0.0, "name": "7d80d8b3e4308f74528aca24ed964ed0", "is_disabled": 0, "rental_uris": {"android": "https://dc.lft.to/lastmile_qr_scan", "ios": "https://dc.lft.to/lastmile_qr_scan"}, "fusion_lon": 0.0, "lat": 38.919547, "bike_id": "7d80d8b3e4308f74528aca24ed964ed0", "type": "electric_bike", "is_reserved": 0, "lon": -76.99194683333333}, {"fusion_lat": 0.0, "name": "1c615ed21de8bd0cc88d71501304b6c4", "is_disabled": 0, "rental_uris": {"android": "https://dc.lft.to/lastmile_qr_scan", "ios": "https://dc.lft.to/lastmile_qr_scan"}, "fusion_lon": 0.0, "lat": 38.876241, "bike_id": "1c615ed21de8bd0cc88d71501304b6c4", "type": "electric_scooter", "is_reserved": 0, "lon": -77.00121083333333}, {"fusion_lat": 0.0, "name": "edeff111e1b2649222640b1c0a41c98e", "is_disabled": 0, "rental_uris": {"android": "https://dc.lft.to/lastmile_qr_scan", "ios": "https://dc.lft.to/lastmile_qr_scan"}, "fusion_lon": 0.0, "lat": 38.9061635, "bike_id": "edeff111e1b2649222640b1c0a41c98e", "type": "electric_scooter", "is_reserved": 0, "lon": -77.05015516666667}, {"fusion_lat": 0.0, "name": "1ce41ebfbf2288acf40a6165161d37e3", "is_disabled": 0, "rental_uris": {"android": "https://dc.lft.to/lastmile_qr_scan", "ios": "https://dc.lft.to/lastmile_qr_scan"}, "fusion_lon": 0.0, "lat": 38.909391166666666, "bike_id": "1ce41ebfbf2288acf40a6165161d37e3", "type": "electric_scooter", "is_reserved": 0, "lon": -77.02815016666666}, {"fusion_lat": 0.0, "name": "5fe8a757608201f6396e5155c700eb18", "is_disabled": 0, "rental_uris": {"android": "https://dc.lft.to/lastmile_qr_scan", "ios": "https://dc.lft.to/lastmile_qr_scan"}, "fusion_lon": 0.0, "lat": 38.922190666666665, "bike_id": "5fe8a757608201f6396e5155c700eb18", "type": "electric_scooter", "is_reserved": 0, "lon": -76.98373216666667}, {"fusion_lat": 0.0, "name": "f0c38d0f065eeae78ced93ed3bc500cd", "is_disabled": 0, "rental_uris": {"android": "https://dc.lft.to/lastmile_qr_scan", "ios": "https://dc.lft.to/lastmile_qr_scan"}, "fusion_lon": 0.0, "lat": 38.91984466666667, "bike_id": "f0c38d0f065eeae78ced93ed3bc500cd", "type": "electric_scooter", "is_reserved": 0, "lon": -77.02328566666667}, {"fusion_lat": 0.0, "name": "245476230a81dfeeafafaed01f2c1f18", "is_disabled": 0, "rental_uris": {"android": "https://dc.lft.to/lastmile_qr_scan", "ios": "https://dc.lft.to/lastmile_qr_scan"}, "fusion_lon": 0.0, "lat": 38.90987633333334, "bike_id": "245476230a81dfeeafafaed01f2c1f18", "type": "electric_scooter", "is_reserved": 0, "lon": -77.03177116666667}, {"fusion_lat": 0.0, "name": "455fe4a482812fb9ef39fc2d3b1387ff", "is_disabled": 0, "rental_uris": {"android": "https://dc.lft.to/lastmile_qr_scan", "ios": "https://dc.lft.to/lastmile_qr_scan"}, "fusion_lon": 0.0, "lat": 38.883965, "bike_id": "455fe4a482812fb9ef39fc2d3b1387ff", "type": "electric_bike", "is_reserved": 0, "lon": -76.96057016666667}, {"fusion_lat": 0.0, "name": "275a181808ee65b1096d55a7fb6eab5c", "is_disabled": 0, "rental_uris": {"android": "https://dc.lft.to/lastmile_qr_scan", "ios": "https://dc.lft.to/lastmile_qr_scan"}, "fusion_lon": 0.0, "lat": 38.9176395, "bike_id": "275a181808ee65b1096d55a7fb6eab5c", "type": "electric_scooter", "is_reserved": 0, "lon": -77.0227625}, {"fusion_lat": 0.0, "name": "71b353d7992b0af84bb676f543f4b188", "is_disabled": 0, "rental_uris": {"android": "https://dc.lft.to/lastmile_qr_scan", "ios": "https://dc.lft.to/lastmile_qr_scan"}, "fusion_lon": 0.0, "lat": 38.86368016666667, "bike_id": "71b353d7992b0af84bb676f543f4b188", "type": "electric_bike", "is_reserved": 0, "lon": -76.97004466666667}, {"fusion_lat": 0.0, "name": "35f365094b23019ea0b6af425f83cd03", "is_disabled": 0, "rental_uris": {"android": "https://dc.lft.to/lastmile_qr_scan", "ios": "https://dc.lft.to/lastmile_qr_scan"}, "fusion_lon": 0.0, "lat": 38.932966, "bike_id": "35f365094b23019ea0b6af425f83cd03", "type": "electric_scooter", "is_reserved": 0, "lon": -77.0399755}, {"fusion_lat": 0.0, "name": "d103f90d5e3875d8ce3475f77ce766eb", "is_disabled": 0, "rental_uris": {"android": "https://dc.lft.to/lastmile_qr_scan", "ios": "https://dc.lft.to/lastmile_qr_scan"}, "fusion_lon": 0.0, "lat": 38.92348666666667, "bike_id": "d103f90d5e3875d8ce3475f77ce766eb", "type": "electric_scooter", "is_reserved": 0, "lon": -77.03462266666666}, {"fusion_lat": 0.0, "name": "072f070d2f4892b90402febc38dff9b1", "is_disabled": 0, "rental_uris": {"android": "https://dc.lft.to/lastmile_qr_scan", "ios": "https://dc.lft.to/lastmile_qr_scan"}, "fusion_lon": 0.0, "lat": 38.8894525, "bike_id": "072f070d2f4892b90402febc38dff9b1", "type": "electric_scooter", "is_reserved": 0, "lon": -76.991606}, {"fusion_lat": 0.0, "name": "068097aa4b34e05cde7fa88956c81216", "is_disabled": 0, "rental_uris": {"android": "https://dc.lft.to/lastmile_qr_scan", "ios": "https://dc.lft.to/lastmile_qr_scan"}, "fusion_lon": 0.0, "lat": 38.92787516666667, "bike_id": "068097aa4b34e05cde7fa88956c81216", "type": "electric_scooter", "is_reserved": 0, "lon": -77.031494}, {"fusion_lat": 0.0, "name": "d39a4b4999dcdde2c8f1679be1b8e614", "is_disabled": 0, "rental_uris": {"android": "https://dc.lft.to/lastmile_qr_scan", "ios": "https://dc.lft.to/lastmile_qr_scan"}, "fusion_lon": 0.0, "lat": 38.927904166666664, "bike_id": "d39a4b4999dcdde2c8f1679be1b8e614", "type": "electric_scooter", "is_reserved": 0, "lon": -77.02579}, {"fusion_lat": 0.0, "name": "6384aeea130dd5d534bc2323e26728a9", "is_disabled": 0, "rental_uris": {"android": "https://dc.lft.to/lastmile_qr_scan", "ios": "https://dc.lft.to/lastmile_qr_scan"}, "fusion_lon": 0.0, "lat": 38.9286795, "bike_id": "6384aeea130dd5d534bc2323e26728a9", "type": "electric_scooter", "is_reserved": 0, "lon": -77.05448916666667}, {"fusion_lat": 0.0, "name": "f6f3496cb070a50297ceec59eca8368b", "is_disabled": 0, "rental_uris": {"android": "https://dc.lft.to/lastmile_qr_scan", "ios": "https://dc.lft.to/lastmile_qr_scan"}, "fusion_lon": 0.0, "lat": 38.90575916666667, "bike_id": "f6f3496cb070a50297ceec59eca8368b", "type": "electric_scooter", "is_reserved": 0, "lon": -77.0265525}, {"fusion_lat": 0.0, "name": "dd6f9b97e2a68ef94be6970bed98d376", "is_disabled": 0, "rental_uris": {"android": "https://dc.lft.to/lastmile_qr_scan", "ios": "https://dc.lft.to/lastmile_qr_scan"}, "fusion_lon": 0.0, "lat": 38.905002333333336, "bike_id": "dd6f9b97e2a68ef94be6970bed98d376", "type": "electric_scooter", "is_reserved": 0, "lon": -77.061016}, {"fusion_lat": 0.0, "name": "b0b185310c292d87c245a8689a416078", "is_disabled": 0, "rental_uris": {"android": "https://dc.lft.to/lastmile_qr_scan", "ios": "https://dc.lft.to/lastmile_qr_scan"}, "fusion_lon": 0.0, "lat": 38.929036333333336, "bike_id": "b0b185310c292d87c245a8689a416078", "type": "electric_scooter", "is_reserved": 0, "lon": -77.032549}, {"fusion_lat": 0.0, "name": "20e9c43fecf73e1ef67dae8af3fc538e", "is_disabled": 0, "rental_uris": {"android": "https://dc.lft.to/lastmile_qr_scan", "ios": "https://dc.lft.to/lastmile_qr_scan"}, "fusion_lon": 0.0, "lat": 38.927800500000004, "bike_id": "20e9c43fecf73e1ef67dae8af3fc538e", "type": "electric_scooter", "is_reserved": 0, "lon": -77.027036}, {"fusion_lat": 0.0, "name": "a1c93f9b927e99b090306a6c80022037", "is_disabled": 0, "rental_uris": {"android": "https://dc.lft.to/lastmile_qr_scan", "ios": "https://dc.lft.to/lastmile_qr_scan"}, "fusion_lon": 0.0, "lat": 38.9416395, "bike_id": "a1c93f9b927e99b090306a6c80022037", "type": "electric_scooter", "is_reserved": 0, "lon": -77.02496633333334}, {"fusion_lat": 0.0, "name": "d8caac8eaa2603e92f9e11422ae120ce", "is_disabled": 0, "rental_uris": {"android": "https://dc.lft.to/lastmile_qr_scan", "ios": "https://dc.lft.to/lastmile_qr_scan"}, "fusion_lon": 0.0, "lat": 38.9387155, "bike_id": "d8caac8eaa2603e92f9e11422ae120ce", "type": "electric_scooter", "is_reserved": 0, "lon": -77.02922516666666}, {"fusion_lat": 0.0, "name": "cad1ea3a472177efa2efa31e60b1d0fa", "is_disabled": 0, "rental_uris": {"android": "https://dc.lft.to/lastmile_qr_scan", "ios": "https://dc.lft.to/lastmile_qr_scan"}, "fusion_lon": 0.0, "lat": 38.93111, "bike_id": "cad1ea3a472177efa2efa31e60b1d0fa", "type": "electric_scooter", "is_reserved": 0, "lon": -77.02135933333334}, {"fusion_lat": 0.0, "name": "a1aa12a9a25dfca243ad6ce261c0c1f2", "is_disabled": 0, "rental_uris": {"android": "https://dc.lft.to/lastmile_qr_scan", "ios": "https://dc.lft.to/lastmile_qr_scan"}, "fusion_lon": 0.0, "lat": 38.945218, "bike_id": "a1aa12a9a25dfca243ad6ce261c0c1f2", "type": "electric_scooter", "is_reserved": 0, "lon": -77.022694}, {"fusion_lat": 0.0, "name": "e5d930493ef950328ab49b1043268f83", "is_disabled": 0, "rental_uris": {"android": "https://dc.lft.to/lastmile_qr_scan", "ios": "https://dc.lft.to/lastmile_qr_scan"}, "fusion_lon": 0.0, "lat": 38.911058833333335, "bike_id": "e5d930493ef950328ab49b1043268f83", "type": "electric_scooter", "is_reserved": 0, "lon": -77.0381965}, {"fusion_lat": 0.0, "name": "7908f039db48cb2b490231b3f8bb4f65", "is_disabled": 0, "rental_uris": {"android": "https://dc.lft.to/lastmile_qr_scan", "ios": "https://dc.lft.to/lastmile_qr_scan"}, "fusion_lon": 0.0, "lat": 38.91329866666667, "bike_id": "7908f039db48cb2b490231b3f8bb4f65", "type": "electric_scooter", "is_reserved": 0, "lon": -77.04860966666666}, {"fusion_lat": 0.0, "name": "a91f74eba7a44175844c3853bf233491", "is_disabled": 0, "rental_uris": {"android": "https://dc.lft.to/lastmile_qr_scan", "ios": "https://dc.lft.to/lastmile_qr_scan"}, "fusion_lon": 0.0, "lat": 38.905346, "bike_id": "a91f74eba7a44175844c3853bf233491", "type": "electric_scooter", "is_reserved": 0, "lon": -77.02192666666667}, {"fusion_lat": 0.0, "name": "7a5dcf7022a99e938a99278f591e504d", "is_disabled": 0, "rental_uris": {"android": "https://dc.lft.to/lastmile_qr_scan", "ios": "https://dc.lft.to/lastmile_qr_scan"}, "fusion_lon": 0.0, "lat": 38.90241816666666, "bike_id": "7a5dcf7022a99e938a99278f591e504d", "type": "electric_scooter", "is_reserved": 0, "lon": -77.06037966666666}, {"fusion_lat": 0.0, "name": "e45f98918599ee94dd18b062d0d85811", "is_disabled": 0, "rental_uris": {"android": "https://dc.lft.to/lastmile_qr_scan", "ios": "https://dc.lft.to/lastmile_qr_scan"}, "fusion_lon": 0.0, "lat": 38.9281875, "bike_id": "e45f98918599ee94dd18b062d0d85811", "type": "electric_scooter", "is_reserved": 0, "lon": -77.02252333333334}, {"fusion_lat": 0.0, "name": "1bf72a3175280bcefc8ee85b84a8b117", "is_disabled": 0, "rental_uris": {"android": "https://dc.lft.to/lastmile_qr_scan", "ios": "https://dc.lft.to/lastmile_qr_scan"}, "fusion_lon": 0.0, "lat": 38.90729283333334, "bike_id": "1bf72a3175280bcefc8ee85b84a8b117", "type": "electric_scooter", "is_reserved": 0, "lon": -77.00700783333333}, {"fusion_lat": 0.0, "name": "b19176af7e48bef8f7b2567c93135faf", "is_disabled": 0, "rental_uris": {"android": "https://dc.lft.to/lastmile_qr_scan", "ios": "https://dc.lft.to/lastmile_qr_scan"}, "fusion_lon": 0.0, "lat": 38.92622866666667, "bike_id": "b19176af7e48bef8f7b2567c93135faf", "type": "electric_scooter", "is_reserved": 0, "lon": -77.03923116666667}, {"fusion_lat": 0.0, "name": "5c50efbc8f4c1762185e5bee5b403a4d", "is_disabled": 0, "rental_uris": {"android": "https://dc.lft.to/lastmile_qr_scan", "ios": "https://dc.lft.to/lastmile_qr_scan"}, "fusion_lon": 0.0, "lat": 38.92269916666667, "bike_id": "5c50efbc8f4c1762185e5bee5b403a4d", "type": "electric_scooter", "is_reserved": 0, "lon": -76.9977825}, {"fusion_lat": 0.0, "name": "b46108c3e5e392b2c89ecb5f55c8988f", "is_disabled": 0, "rental_uris": {"android": "https://dc.lft.to/lastmile_qr_scan", "ios": "https://dc.lft.to/lastmile_qr_scan"}, "fusion_lon": 0.0, "lat": 38.925657666666666, "bike_id": "b46108c3e5e392b2c89ecb5f55c8988f", "type": "electric_scooter", "is_reserved": 0, "lon": -77.03768033333333}, {"fusion_lat": 0.0, "name": "1d0727be08b961b10bd585b81d0670cd", "is_disabled": 0, "rental_uris": {"android": "https://dc.lft.to/lastmile_qr_scan", "ios": "https://dc.lft.to/lastmile_qr_scan"}, "fusion_lon": 0.0, "lat": 38.90151516666667, "bike_id": "1d0727be08b961b10bd585b81d0670cd", "type": "electric_scooter", "is_reserved": 0, "lon": -76.9740635}, {"fusion_lat": 0.0, "name": "e0ebcb20bcebde9300b306de9e4d3458", "is_disabled": 0, "rental_uris": {"android": "https://dc.lft.to/lastmile_qr_scan", "ios": "https://dc.lft.to/lastmile_qr_scan"}, "fusion_lon": 0.0, "lat": 38.9155575, "bike_id": "e0ebcb20bcebde9300b306de9e4d3458", "type": "electric_scooter", "is_reserved": 0, "lon": -77.03223066666666}, {"fusion_lat": 0.0, "name": "f5b6f65320e03ae578cea311e9850e37", "is_disabled": 0, "rental_uris": {"android": "https://dc.lft.to/lastmile_qr_scan", "ios": "https://dc.lft.to/lastmile_qr_scan"}, "fusion_lon": 0.0, "lat": 38.907853333333335, "bike_id": "f5b6f65320e03ae578cea311e9850e37", "type": "electric_scooter", "is_reserved": 0, "lon": -77.009605}, {"fusion_lat": 0.0, "name": "a745aee7e2da82c1ced4302871fd4ec3", "is_disabled": 0, "rental_uris": {"android": "https://dc.lft.to/lastmile_qr_scan", "ios": "https://dc.lft.to/lastmile_qr_scan"}, "fusion_lon": 0.0, "lat": 38.90035016666667, "bike_id": "a745aee7e2da82c1ced4302871fd4ec3", "type": "electric_scooter", "is_reserved": 0, "lon": -77.002027}, {"fusion_lat": 0.0, "name": "c6120809b6f95f965ed68e2c4b886f19", "is_disabled": 0, "rental_uris": {"android": "https://dc.lft.to/lastmile_qr_scan", "ios": "https://dc.lft.to/lastmile_qr_scan"}, "fusion_lon": 0.0, "lat": 38.920519, "bike_id": "c6120809b6f95f965ed68e2c4b886f19", "type": "electric_scooter", "is_reserved": 0, "lon": -76.9988235}, {"fusion_lat": 0.0, "name": "08a78f61095532b7e739d83390c633ab", "is_disabled": 0, "rental_uris": {"android": "https://dc.lft.to/lastmile_qr_scan", "ios": "https://dc.lft.to/lastmile_qr_scan"}, "fusion_lon": 0.0, "lat": 38.806793, "bike_id": "08a78f61095532b7e739d83390c633ab", "type": "electric_bike", "is_reserved": 0, "lon": -77.06914983333333}, {"fusion_lat": 0.0, "name": "9cdb75f69d414cf7c9b98fcfe974faa4", "is_disabled": 0, "rental_uris": {"android": "https://dc.lft.to/lastmile_qr_scan", "ios": "https://dc.lft.to/lastmile_qr_scan"}, "fusion_lon": 0.0, "lat": 38.917142166666665, "bike_id": "9cdb75f69d414cf7c9b98fcfe974faa4", "type": "electric_scooter", "is_reserved": 0, "lon": -77.03855016666667}, {"fusion_lat": 0.0, "name": "b965a1b50f1eb73d1e9271ee2e1dcf00", "is_disabled": 0, "rental_uris": {"android": "https://dc.lft.to/lastmile_qr_scan", "ios": "https://dc.lft.to/lastmile_qr_scan"}, "fusion_lon": 0.0, "lat": 38.884521666666664, "bike_id": "b965a1b50f1eb73d1e9271ee2e1dcf00", "type": "electric_scooter", "is_reserved": 0, "lon": -76.993907}, {"fusion_lat": 0.0, "name": "ba13aed443dc38c409a650963acb94d1", "is_disabled": 0, "rental_uris": {"android": "https://dc.lft.to/lastmile_qr_scan", "ios": "https://dc.lft.to/lastmile_qr_scan"}, "fusion_lon": 0.0, "lat": 38.88748616666667, "bike_id": "ba13aed443dc38c409a650963acb94d1", "type": "electric_scooter", "is_reserved": 0, "lon": -76.99837433333333}, {"fusion_lat": 0.0, "name": "6e951589d72667449463344c9e70fefe", "is_disabled": 0, "rental_uris": {"android": "https://dc.lft.to/lastmile_qr_scan", "ios": "https://dc.lft.to/lastmile_qr_scan"}, "fusion_lon": 0.0, "lat": 38.90565133333333, "bike_id": "6e951589d72667449463344c9e70fefe", "type": "electric_scooter", "is_reserved": 0, "lon": -77.02402816666667}, {"fusion_lat": 0.0, "name": "e1759b932245c86a6fe495f2932fdb93", "is_disabled": 0, "rental_uris": {"android": "https://dc.lft.to/lastmile_qr_scan", "ios": "https://dc.lft.to/lastmile_qr_scan"}, "fusion_lon": 0.0, "lat": 38.92502983333333, "bike_id": "e1759b932245c86a6fe495f2932fdb93", "type": "electric_bike", "is_reserved": 0, "lon": -77.057538}, {"fusion_lat": 0.0, "name": "319c6ce254e3ec3891fa2d863ee2cf93", "is_disabled": 0, "rental_uris": {"android": "https://dc.lft.to/lastmile_qr_scan", "ios": "https://dc.lft.to/lastmile_qr_scan"}, "fusion_lon": 0.0, "lat": 38.90552383333333, "bike_id": "319c6ce254e3ec3891fa2d863ee2cf93", "type": "electric_scooter", "is_reserved": 0, "lon": -77.04622233333333}, {"fusion_lat": 0.0, "name": "2c26491a9ccf1a11fc7dcf6ad87cbaab", "is_disabled": 0, "rental_uris": {"android": "https://dc.lft.to/lastmile_qr_scan", "ios": "https://dc.lft.to/lastmile_qr_scan"}, "fusion_lon": 0.0, "lat": 38.918504666666664, "bike_id": "2c26491a9ccf1a11fc7dcf6ad87cbaab", "type": "electric_scooter", "is_reserved": 0, "lon": -77.0449135}, {"fusion_lat": 0.0, "name": "e714b6ba318ba08a5734ee95823d05fc", "is_disabled": 0, "rental_uris": {"android": "https://dc.lft.to/lastmile_qr_scan", "ios": "https://dc.lft.to/lastmile_qr_scan"}, "fusion_lon": 0.0, "lat": 38.9295785, "bike_id": "e714b6ba318ba08a5734ee95823d05fc", "type": "electric_scooter", "is_reserved": 0, "lon": -77.0297735}, {"fusion_lat": 0.0, "name": "27acbf11e264e948b433b93252f483d9", "is_disabled": 0, "rental_uris": {"android": "https://dc.lft.to/lastmile_qr_scan", "ios": "https://dc.lft.to/lastmile_qr_scan"}, "fusion_lon": 0.0, "lat": 38.9110925, "bike_id": "27acbf11e264e948b433b93252f483d9", "type": "electric_scooter", "is_reserved": 0, "lon": -76.99761983333333}, {"fusion_lat": 0.0, "name": "8c6aad59028f7e5b27fd73f9387c0059", "is_disabled": 0, "rental_uris": {"android": "https://dc.lft.to/lastmile_qr_scan", "ios": "https://dc.lft.to/lastmile_qr_scan"}, "fusion_lon": 0.0, "lat": 38.923173166666665, "bike_id": "8c6aad59028f7e5b27fd73f9387c0059", "type": "electric_scooter", "is_reserved": 0, "lon": -77.02902533333334}, {"fusion_lat": 0.0, "name": "42c2f3f4f85420ee471eb91fc0a24b9c", "is_disabled": 0, "rental_uris": {"android": "https://dc.lft.to/lastmile_qr_scan", "ios": "https://dc.lft.to/lastmile_qr_scan"}, "fusion_lon": 0.0, "lat": 38.932108, "bike_id": "42c2f3f4f85420ee471eb91fc0a24b9c", "type": "electric_scooter", "is_reserved": 0, "lon": -77.03507383333333}, {"fusion_lat": 0.0, "name": "7dcc43bfb37d583c397499fd99f39d33", "is_disabled": 0, "rental_uris": {"android": "https://dc.lft.to/lastmile_qr_scan", "ios": "https://dc.lft.to/lastmile_qr_scan"}, "fusion_lon": 0.0, "lat": 38.88558533333333, "bike_id": "7dcc43bfb37d583c397499fd99f39d33", "type": "electric_scooter", "is_reserved": 0, "lon": -76.97718716666667}, {"fusion_lat": 0.0, "name": "5cd78a6b676cb0ae011dbb7c307f1d20", "is_disabled": 0, "rental_uris": {"android": "https://dc.lft.to/lastmile_qr_scan", "ios": "https://dc.lft.to/lastmile_qr_scan"}, "fusion_lon": 0.0, "lat": 38.916622833333335, "bike_id": "5cd78a6b676cb0ae011dbb7c307f1d20", "type": "electric_scooter", "is_reserved": 0, "lon": -77.02818816666667}, {"fusion_lat": 0.0, "name": "27d83f815b95227f5d86d2ec420c27bb", "is_disabled": 0, "rental_uris": {"android": "https://dc.lft.to/lastmile_qr_scan", "ios": "https://dc.lft.to/lastmile_qr_scan"}, "fusion_lon": 0.0, "lat": 38.91919683333333, "bike_id": "27d83f815b95227f5d86d2ec420c27bb", "type": "electric_scooter", "is_reserved": 0, "lon": -77.00966283333334}, {"fusion_lat": 0.0, "name": "d849e605a230ff1ad0965972962ff794", "is_disabled": 0, "rental_uris": {"android": "https://dc.lft.to/lastmile_qr_scan", "ios": "https://dc.lft.to/lastmile_qr_scan"}, "fusion_lon": 0.0, "lat": 38.900614166666664, "bike_id": "d849e605a230ff1ad0965972962ff794", "type": "electric_scooter", "is_reserved": 0, "lon": -77.05419766666667}, {"fusion_lat": 0.0, "name": "e3cf467b712b6710145b5869dacaa5a7", "is_disabled": 0, "rental_uris": {"android": "https://dc.lft.to/lastmile_qr_scan", "ios": "https://dc.lft.to/lastmile_qr_scan"}, "fusion_lon": 0.0, "lat": 38.91657683333333, "bike_id": "e3cf467b712b6710145b5869dacaa5a7", "type": "electric_scooter", "is_reserved": 0, "lon": -77.02278066666666}, {"fusion_lat": 0.0, "name": "3ae549ce1ddb89ab66b004455f66b5bc", "is_disabled": 0, "rental_uris": {"android": "https://dc.lft.to/lastmile_qr_scan", "ios": "https://dc.lft.to/lastmile_qr_scan"}, "fusion_lon": 0.0, "lat": 38.905131833333336, "bike_id": "3ae549ce1ddb89ab66b004455f66b5bc", "type": "electric_scooter", "is_reserved": 0, "lon": -77.06879616666667}, {"fusion_lat": 0.0, "name": "ee52cb60613ee5ee951c08803c9dcf1b", "is_disabled": 0, "rental_uris": {"android": "https://dc.lft.to/lastmile_qr_scan", "ios": "https://dc.lft.to/lastmile_qr_scan"}, "fusion_lon": 0.0, "lat": 38.920994, "bike_id": "ee52cb60613ee5ee951c08803c9dcf1b", "type": "electric_scooter", "is_reserved": 0, "lon": -77.0417245}, {"fusion_lat": 0.0, "name": "c514df40fa12ef9b1dab543b71a0c47b", "is_disabled": 0, "rental_uris": {"android": "https://dc.lft.to/lastmile_qr_scan", "ios": "https://dc.lft.to/lastmile_qr_scan"}, "fusion_lon": 0.0, "lat": 38.88589733333333, "bike_id": "c514df40fa12ef9b1dab543b71a0c47b", "type": "electric_scooter", "is_reserved": 0, "lon": -77.019289}, {"fusion_lat": 0.0, "name": "e2cdd06223ce2fd56acbb629fa610866", "is_disabled": 0, "rental_uris": {"android": "https://dc.lft.to/lastmile_qr_scan", "ios": "https://dc.lft.to/lastmile_qr_scan"}, "fusion_lon": 0.0, "lat": 38.88609983333333, "bike_id": "e2cdd06223ce2fd56acbb629fa610866", "type": "electric_scooter", "is_reserved": 0, "lon": -77.0124585}, {"fusion_lat": 0.0, "name": "f71686dc9871c766d527c68de918c1b8", "is_disabled": 0, "rental_uris": {"android": "https://dc.lft.to/lastmile_qr_scan", "ios": "https://dc.lft.to/lastmile_qr_scan"}, "fusion_lon": 0.0, "lat": 38.899538166666666, "bike_id": "f71686dc9871c766d527c68de918c1b8", "type": "electric_scooter", "is_reserved": 0, "lon": -77.00663066666667}, {"fusion_lat": 0.0, "name": "066fb0a3ade6875c66b106b46f8572b2", "is_disabled": 0, "rental_uris": {"android": "https://dc.lft.to/lastmile_qr_scan", "ios": "https://dc.lft.to/lastmile_qr_scan"}, "fusion_lon": 0.0, "lat": 38.9089245, "bike_id": "066fb0a3ade6875c66b106b46f8572b2", "type": "electric_scooter", "is_reserved": 0, "lon": -76.99857316666666}, {"fusion_lat": 0.0, "name": "e44e5c55ffb3c9b71176926c9a4bb840", "is_disabled": 0, "rental_uris": {"android": "https://dc.lft.to/lastmile_qr_scan", "ios": "https://dc.lft.to/lastmile_qr_scan"}, "fusion_lon": 0.0, "lat": 38.906068, "bike_id": "e44e5c55ffb3c9b71176926c9a4bb840", "type": "electric_scooter", "is_reserved": 0, "lon": -77.00761433333334}, {"fusion_lat": 0.0, "name": "b29fbc91a8507a3d7c8618c4095eafbc", "is_disabled": 0, "rental_uris": {"android": "https://dc.lft.to/lastmile_qr_scan", "ios": "https://dc.lft.to/lastmile_qr_scan"}, "fusion_lon": 0.0, "lat": 38.9027015, "bike_id": "b29fbc91a8507a3d7c8618c4095eafbc", "type": "electric_scooter", "is_reserved": 0, "lon": -77.03975633333333}, {"fusion_lat": 0.0, "name": "104bc2e279dc3c25217036d9e32c7657", "is_disabled": 0, "rental_uris": {"android": "https://dc.lft.to/lastmile_qr_scan", "ios": "https://dc.lft.to/lastmile_qr_scan"}, "fusion_lon": 0.0, "lat": 38.9102805, "bike_id": "104bc2e279dc3c25217036d9e32c7657", "type": "electric_scooter", "is_reserved": 0, "lon": -77.007574}, {"fusion_lat": 0.0, "name": "d2ee60fa46e11f5e8b52aad413a13c31", "is_disabled": 0, "rental_uris": {"android": "https://dc.lft.to/lastmile_qr_scan", "ios": "https://dc.lft.to/lastmile_qr_scan"}, "fusion_lon": 0.0, "lat": 38.9217325, "bike_id": "d2ee60fa46e11f5e8b52aad413a13c31", "type": "electric_scooter", "is_reserved": 0, "lon": -76.99755683333333}, {"fusion_lat": 0.0, "name": "8c17b69cc495e260f2e99e4a3ee027c7", "is_disabled": 0, "rental_uris": {"android": "https://dc.lft.to/lastmile_qr_scan", "ios": "https://dc.lft.to/lastmile_qr_scan"}, "fusion_lon": 0.0, "lat": 38.945340333333334, "bike_id": "8c17b69cc495e260f2e99e4a3ee027c7", "type": "electric_scooter", "is_reserved": 0, "lon": -77.0252495}, {"fusion_lat": 0.0, "name": "28ccae25090d004174b7b4eff4bcd1ee", "is_disabled": 0, "rental_uris": {"android": "https://dc.lft.to/lastmile_qr_scan", "ios": "https://dc.lft.to/lastmile_qr_scan"}, "fusion_lon": 0.0, "lat": 38.8987225, "bike_id": "28ccae25090d004174b7b4eff4bcd1ee", "type": "electric_scooter", "is_reserved": 0, "lon": -76.9274075}, {"fusion_lat": 0.0, "name": "da21d2e7ebb8b83f4040c13dcdba6d81", "is_disabled": 0, "rental_uris": {"android": "https://dc.lft.to/lastmile_qr_scan", "ios": "https://dc.lft.to/lastmile_qr_scan"}, "fusion_lon": 0.0, "lat": 38.898482666666666, "bike_id": "da21d2e7ebb8b83f4040c13dcdba6d81", "type": "electric_scooter", "is_reserved": 0, "lon": -76.99025}, {"fusion_lat": 0.0, "name": "476794c33e579e8ed3b96541ec06b627", "is_disabled": 0, "rental_uris": {"android": "https://dc.lft.to/lastmile_qr_scan", "ios": "https://dc.lft.to/lastmile_qr_scan"}, "fusion_lon": 0.0, "lat": 39.0705235, "bike_id": "476794c33e579e8ed3b96541ec06b627", "type": "electric_bike", "is_reserved": 0, "lon": -77.114753}, {"fusion_lat": 0.0, "name": "1e333e5b8f2f2b6aa965ad8c7ae3d237", "is_disabled": 0, "rental_uris": {"android": "https://dc.lft.to/lastmile_qr_scan", "ios": "https://dc.lft.to/lastmile_qr_scan"}, "fusion_lon": 0.0, "lat": 38.88299633333333, "bike_id": "1e333e5b8f2f2b6aa965ad8c7ae3d237", "type": "electric_scooter", "is_reserved": 0, "lon": -76.9485195}, {"fusion_lat": 0.0, "name": "1cb68400600cc93c51d4f345defb5005", "is_disabled": 0, "rental_uris": {"android": "https://dc.lft.to/lastmile_qr_scan", "ios": "https://dc.lft.to/lastmile_qr_scan"}, "fusion_lon": 0.0, "lat": 38.93187, "bike_id": "1cb68400600cc93c51d4f345defb5005", "type": "electric_scooter", "is_reserved": 0, "lon": -77.07318833333333}, {"fusion_lat": 0.0, "name": "1158d6a923d47d5865bb3062059960a9", "is_disabled": 0, "rental_uris": {"android": "https://dc.lft.to/lastmile_qr_scan", "ios": "https://dc.lft.to/lastmile_qr_scan"}, "fusion_lon": 0.0, "lat": 39.003841666666666, "bike_id": "1158d6a923d47d5865bb3062059960a9", "type": "electric_bike", "is_reserved": 0, "lon": -77.012793}, {"fusion_lat": 0.0, "name": "6ae18b29da56af9c59e41219faa39d3b", "is_disabled": 0, "rental_uris": {"android": "https://dc.lft.to/lastmile_qr_scan", "ios": "https://dc.lft.to/lastmile_qr_scan"}, "fusion_lon": 0.0, "lat": 38.884908, "bike_id": "6ae18b29da56af9c59e41219faa39d3b", "type": "electric_scooter", "is_reserved": 0, "lon": -77.01085366666666}, {"fusion_lat": 0.0, "name": "699cb4866819bd548f089a079686c845", "is_disabled": 0, "rental_uris": {"android": "https://dc.lft.to/lastmile_qr_scan", "ios": "https://dc.lft.to/lastmile_qr_scan"}, "fusion_lon": 0.0, "lat": 38.883139, "bike_id": "699cb4866819bd548f089a079686c845", "type": "electric_scooter", "is_reserved": 0, "lon": -77.01679183333333}, {"fusion_lat": 0.0, "name": "2e4e76552fcbfa6271985d6dd41d29d7", "is_disabled": 0, "rental_uris": {"android": "https://dc.lft.to/lastmile_qr_scan", "ios": "https://dc.lft.to/lastmile_qr_scan"}, "fusion_lon": 0.0, "lat": 38.90004416666667, "bike_id": "2e4e76552fcbfa6271985d6dd41d29d7", "type": "electric_scooter", "is_reserved": 0, "lon": -77.0316205}, {"fusion_lat": 0.0, "name": "f6016c1fce80d257db318564e7847deb", "is_disabled": 0, "rental_uris": {"android": "https://dc.lft.to/lastmile_qr_scan", "ios": "https://dc.lft.to/lastmile_qr_scan"}, "fusion_lon": 0.0, "lat": 38.90789066666667, "bike_id": "f6016c1fce80d257db318564e7847deb", "type": "electric_scooter", "is_reserved": 0, "lon": -77.03431383333333}, {"fusion_lat": 0.0, "name": "6778f0944d58706e5b24db230caf61b7", "is_disabled": 0, "rental_uris": {"android": "https://dc.lft.to/lastmile_qr_scan", "ios": "https://dc.lft.to/lastmile_qr_scan"}, "fusion_lon": 0.0, "lat": 38.905683833333335, "bike_id": "6778f0944d58706e5b24db230caf61b7", "type": "electric_scooter", "is_reserved": 0, "lon": -77.02186316666666}, {"fusion_lat": 0.0, "name": "058f6c206444f4c0f00187b0fd35aa12", "is_disabled": 0, "rental_uris": {"android": "https://dc.lft.to/lastmile_qr_scan", "ios": "https://dc.lft.to/lastmile_qr_scan"}, "fusion_lon": 0.0, "lat": 38.90574083333333, "bike_id": "058f6c206444f4c0f00187b0fd35aa12", "type": "electric_scooter", "is_reserved": 0, "lon": -77.04633816666667}, {"fusion_lat": 0.0, "name": "41c7f9dc81156a38f4ba8f56857caa84", "is_disabled": 0, "rental_uris": {"android": "https://dc.lft.to/lastmile_qr_scan", "ios": "https://dc.lft.to/lastmile_qr_scan"}, "fusion_lon": 0.0, "lat": 38.907770166666666, "bike_id": "41c7f9dc81156a38f4ba8f56857caa84", "type": "electric_scooter", "is_reserved": 0, "lon": -77.03854716666666}, {"fusion_lat": 0.0, "name": "183ae3dd306fbc9ff22af6c98b75a3a3", "is_disabled": 0, "rental_uris": {"android": "https://dc.lft.to/lastmile_qr_scan", "ios": "https://dc.lft.to/lastmile_qr_scan"}, "fusion_lon": 0.0, "lat": 38.935405333333335, "bike_id": "183ae3dd306fbc9ff22af6c98b75a3a3", "type": "electric_scooter", "is_reserved": 0, "lon": -77.0326325}, {"fusion_lat": 0.0, "name": "7b8d50ebf0f6adebf3a0e64b67742707", "is_disabled": 0, "rental_uris": {"android": "https://dc.lft.to/lastmile_qr_scan", "ios": "https://dc.lft.to/lastmile_qr_scan"}, "fusion_lon": 0.0, "lat": 38.923720833333334, "bike_id": "7b8d50ebf0f6adebf3a0e64b67742707", "type": "electric_scooter", "is_reserved": 0, "lon": -77.02132933333333}, {"fusion_lat": 0.0, "name": "6f09f01b6ccec55297dc7979948ca934", "is_disabled": 0, "rental_uris": {"android": "https://dc.lft.to/lastmile_qr_scan", "ios": "https://dc.lft.to/lastmile_qr_scan"}, "fusion_lon": 0.0, "lat": 38.913242833333335, "bike_id": "6f09f01b6ccec55297dc7979948ca934", "type": "electric_scooter", "is_reserved": 0, "lon": -77.0213905}, {"fusion_lat": 0.0, "name": "169e8a53773c706c09ac76de2ca31edb", "is_disabled": 0, "rental_uris": {"android": "https://dc.lft.to/lastmile_qr_scan", "ios": "https://dc.lft.to/lastmile_qr_scan"}, "fusion_lon": 0.0, "lat": 38.88468566666667, "bike_id": "169e8a53773c706c09ac76de2ca31edb", "type": "electric_scooter", "is_reserved": 0, "lon": -77.01527133333333}, {"fusion_lat": 0.0, "name": "193075ae468ebfa97498d08da9b7ec3c", "is_disabled": 0, "rental_uris": {"android": "https://dc.lft.to/lastmile_qr_scan", "ios": "https://dc.lft.to/lastmile_qr_scan"}, "fusion_lon": 0.0, "lat": 38.896176833333335, "bike_id": "193075ae468ebfa97498d08da9b7ec3c", "type": "electric_bike", "is_reserved": 0, "lon": -76.907418}, {"fusion_lat": 0.0, "name": "ce1532b7735733534bac1cbc3bd84126", "is_disabled": 0, "rental_uris": {"android": "https://dc.lft.to/lastmile_qr_scan", "ios": "https://dc.lft.to/lastmile_qr_scan"}, "fusion_lon": 0.0, "lat": 38.923353166666665, "bike_id": "ce1532b7735733534bac1cbc3bd84126", "type": "electric_scooter", "is_reserved": 0, "lon": -77.05296666666666}, {"fusion_lat": 0.0, "name": "05207af0bd435ec67effa48631e32231", "is_disabled": 0, "rental_uris": {"android": "https://dc.lft.to/lastmile_qr_scan", "ios": "https://dc.lft.to/lastmile_qr_scan"}, "fusion_lon": 0.0, "lat": 38.94116916666667, "bike_id": "05207af0bd435ec67effa48631e32231", "type": "electric_scooter", "is_reserved": 0, "lon": -77.02537066666666}, {"fusion_lat": 0.0, "name": "192d5ab15b71e4ad58bfc17bd5b80d1e", "is_disabled": 0, "rental_uris": {"android": "https://dc.lft.to/lastmile_qr_scan", "ios": "https://dc.lft.to/lastmile_qr_scan"}, "fusion_lon": 0.0, "lat": 38.926655, "bike_id": "192d5ab15b71e4ad58bfc17bd5b80d1e", "type": "electric_scooter", "is_reserved": 0, "lon": -77.01497483333333}, {"fusion_lat": 0.0, "name": "0dcd3ab1f852e0c2c32e0d47017eb604", "is_disabled": 0, "rental_uris": {"android": "https://dc.lft.to/lastmile_qr_scan", "ios": "https://dc.lft.to/lastmile_qr_scan"}, "fusion_lon": 0.0, "lat": 38.931413666666664, "bike_id": "0dcd3ab1f852e0c2c32e0d47017eb604", "type": "electric_scooter", "is_reserved": 0, "lon": -77.02986016666667}, {"fusion_lat": 0.0, "name": "bc608076f719b0893dfb7a0c37480038", "is_disabled": 0, "rental_uris": {"android": "https://dc.lft.to/lastmile_qr_scan", "ios": "https://dc.lft.to/lastmile_qr_scan"}, "fusion_lon": 0.0, "lat": 38.9274315, "bike_id": "bc608076f719b0893dfb7a0c37480038", "type": "electric_scooter", "is_reserved": 0, "lon": -77.02536116666667}, {"fusion_lat": 0.0, "name": "32ab6a4f3617ab991b6b88ca7e903575", "is_disabled": 0, "rental_uris": {"android": "https://dc.lft.to/lastmile_qr_scan", "ios": "https://dc.lft.to/lastmile_qr_scan"}, "fusion_lon": 0.0, "lat": 38.89846516666667, "bike_id": "32ab6a4f3617ab991b6b88ca7e903575", "type": "electric_scooter", "is_reserved": 0, "lon": -77.041587}, {"fusion_lat": 0.0, "name": "22afc0f3387b2d969deec08f56420afe", "is_disabled": 0, "rental_uris": {"android": "https://dc.lft.to/lastmile_qr_scan", "ios": "https://dc.lft.to/lastmile_qr_scan"}, "fusion_lon": 0.0, "lat": 38.931166833333336, "bike_id": "22afc0f3387b2d969deec08f56420afe", "type": "electric_scooter", "is_reserved": 0, "lon": -77.03033266666667}, {"fusion_lat": 0.0, "name": "91fd20b7af52f8bb22f7281ae38c4ef9", "is_disabled": 0, "rental_uris": {"android": "https://dc.lft.to/lastmile_qr_scan", "ios": "https://dc.lft.to/lastmile_qr_scan"}, "fusion_lon": 0.0, "lat": 38.91658433333333, "bike_id": "91fd20b7af52f8bb22f7281ae38c4ef9", "type": "electric_scooter", "is_reserved": 0, "lon": -77.02820033333333}, {"fusion_lat": 0.0, "name": "81f402f1ebc7ac65bd66cc873656dd04", "is_disabled": 0, "rental_uris": {"android": "https://dc.lft.to/lastmile_qr_scan", "ios": "https://dc.lft.to/lastmile_qr_scan"}, "fusion_lon": 0.0, "lat": 38.90177033333333, "bike_id": "81f402f1ebc7ac65bd66cc873656dd04", "type": "electric_scooter", "is_reserved": 0, "lon": -77.0160805}, {"fusion_lat": 0.0, "name": "e0d4d0e396637b8f35a53e7692955be9", "is_disabled": 0, "rental_uris": {"android": "https://dc.lft.to/lastmile_qr_scan", "ios": "https://dc.lft.to/lastmile_qr_scan"}, "fusion_lon": 0.0, "lat": 38.924076, "bike_id": "e0d4d0e396637b8f35a53e7692955be9", "type": "electric_scooter", "is_reserved": 0, "lon": -77.04455333333334}, {"fusion_lat": 0.0, "name": "48c2d938715219f88ce8123fe0c83646", "is_disabled": 0, "rental_uris": {"android": "https://dc.lft.to/lastmile_qr_scan", "ios": "https://dc.lft.to/lastmile_qr_scan"}, "fusion_lon": 0.0, "lat": 38.87873483333333, "bike_id": "48c2d938715219f88ce8123fe0c83646", "type": "electric_scooter", "is_reserved": 0, "lon": -77.0222525}, {"fusion_lat": 0.0, "name": "40b7190d6a6f584e99acd8eda18071c8", "is_disabled": 0, "rental_uris": {"android": "https://dc.lft.to/lastmile_qr_scan", "ios": "https://dc.lft.to/lastmile_qr_scan"}, "fusion_lon": 0.0, "lat": 38.97498683333333, "bike_id": "40b7190d6a6f584e99acd8eda18071c8", "type": "electric_scooter", "is_reserved": 0, "lon": -77.01689916666666}, {"fusion_lat": 0.0, "name": "12489d043e8e1f206e723fbbe211165f", "is_disabled": 0, "rental_uris": {"android": "https://dc.lft.to/lastmile_qr_scan", "ios": "https://dc.lft.to/lastmile_qr_scan"}, "fusion_lon": 0.0, "lat": 38.91767816666667, "bike_id": "12489d043e8e1f206e723fbbe211165f", "type": "electric_scooter", "is_reserved": 0, "lon": -77.0191065}, {"fusion_lat": 0.0, "name": "e592cac939bb2b3c92878587e7eb7f5f", "is_disabled": 0, "rental_uris": {"android": "https://dc.lft.to/lastmile_qr_scan", "ios": "https://dc.lft.to/lastmile_qr_scan"}, "fusion_lon": 0.0, "lat": 38.885126166666666, "bike_id": "e592cac939bb2b3c92878587e7eb7f5f", "type": "electric_scooter", "is_reserved": 0, "lon": -76.92949783333333}, {"fusion_lat": 0.0, "name": "7c1932aeecf935002cc29fc8141c1463", "is_disabled": 0, "rental_uris": {"android": "https://dc.lft.to/lastmile_qr_scan", "ios": "https://dc.lft.to/lastmile_qr_scan"}, "fusion_lon": 0.0, "lat": 38.946412333333335, "bike_id": "7c1932aeecf935002cc29fc8141c1463", "type": "electric_bike", "is_reserved": 0, "lon": -77.03049833333333}, {"fusion_lat": 0.0, "name": "920934425e39727e00122658e998a57b", "is_disabled": 0, "rental_uris": {"android": "https://dc.lft.to/lastmile_qr_scan", "ios": "https://dc.lft.to/lastmile_qr_scan"}, "fusion_lon": 0.0, "lat": 38.936079, "bike_id": "920934425e39727e00122658e998a57b", "type": "electric_scooter", "is_reserved": 0, "lon": -77.0372845}, {"fusion_lat": 0.0, "name": "63c0afb45afcac4fbd79cbad6cecf85b", "is_disabled": 0, "rental_uris": {"android": "https://dc.lft.to/lastmile_qr_scan", "ios": "https://dc.lft.to/lastmile_qr_scan"}, "fusion_lon": 0.0, "lat": 38.88455716666667, "bike_id": "63c0afb45afcac4fbd79cbad6cecf85b", "type": "electric_scooter", "is_reserved": 0, "lon": -76.9983545}, {"fusion_lat": 0.0, "name": "8e4ce2932831532d17f453cbdca31adb", "is_disabled": 0, "rental_uris": {"android": "https://dc.lft.to/lastmile_qr_scan", "ios": "https://dc.lft.to/lastmile_qr_scan"}, "fusion_lon": 0.0, "lat": 38.937816166666664, "bike_id": "8e4ce2932831532d17f453cbdca31adb", "type": "electric_scooter", "is_reserved": 0, "lon": -77.02450533333334}, {"fusion_lat": 0.0, "name": "390933f2e25149685ad5f3c8ddae20c8", "is_disabled": 0, "rental_uris": {"android": "https://dc.lft.to/lastmile_qr_scan", "ios": "https://dc.lft.to/lastmile_qr_scan"}, "fusion_lon": 0.0, "lat": 38.91117933333334, "bike_id": "390933f2e25149685ad5f3c8ddae20c8", "type": "electric_scooter", "is_reserved": 0, "lon": -77.020838}, {"fusion_lat": 0.0, "name": "8a53137b3adbcda2df6877b2881eb872", "is_disabled": 0, "rental_uris": {"android": "https://dc.lft.to/lastmile_qr_scan", "ios": "https://dc.lft.to/lastmile_qr_scan"}, "fusion_lon": 0.0, "lat": 38.91909016666666, "bike_id": "8a53137b3adbcda2df6877b2881eb872", "type": "electric_scooter", "is_reserved": 0, "lon": -77.03309766666666}, {"fusion_lat": 0.0, "name": "6a9e3cb6370252f9a0fe3f8468b8dbbe", "is_disabled": 0, "rental_uris": {"android": "https://dc.lft.to/lastmile_qr_scan", "ios": "https://dc.lft.to/lastmile_qr_scan"}, "fusion_lon": 0.0, "lat": 38.93301366666667, "bike_id": "6a9e3cb6370252f9a0fe3f8468b8dbbe", "type": "electric_scooter", "is_reserved": 0, "lon": -77.02460416666666}, {"fusion_lat": 0.0, "name": "66844d6e3ea2ffd7cfde222115739aaf", "is_disabled": 0, "rental_uris": {"android": "https://dc.lft.to/lastmile_qr_scan", "ios": "https://dc.lft.to/lastmile_qr_scan"}, "fusion_lon": 0.0, "lat": 38.920781833333336, "bike_id": "66844d6e3ea2ffd7cfde222115739aaf", "type": "electric_scooter", "is_reserved": 0, "lon": -77.00457116666666}, {"fusion_lat": 0.0, "name": "2ffafdd9b7ba06c892b0a63dd97f00f4", "is_disabled": 0, "rental_uris": {"android": "https://dc.lft.to/lastmile_qr_scan", "ios": "https://dc.lft.to/lastmile_qr_scan"}, "fusion_lon": 0.0, "lat": 38.93193933333333, "bike_id": "2ffafdd9b7ba06c892b0a63dd97f00f4", "type": "electric_scooter", "is_reserved": 0, "lon": -77.04295616666667}, {"fusion_lat": 0.0, "name": "a06961105fec3f734322e094fdabfdd4", "is_disabled": 0, "rental_uris": {"android": "https://dc.lft.to/lastmile_qr_scan", "ios": "https://dc.lft.to/lastmile_qr_scan"}, "fusion_lon": 0.0, "lat": 38.9171805, "bike_id": "a06961105fec3f734322e094fdabfdd4", "type": "electric_scooter", "is_reserved": 0, "lon": -77.0120645}, {"fusion_lat": 0.0, "name": "9cc08820d744646424d56cd5c9b1a052", "is_disabled": 0, "rental_uris": {"android": "https://dc.lft.to/lastmile_qr_scan", "ios": "https://dc.lft.to/lastmile_qr_scan"}, "fusion_lon": 0.0, "lat": 38.90822933333333, "bike_id": "9cc08820d744646424d56cd5c9b1a052", "type": "electric_scooter", "is_reserved": 0, "lon": -77.05489416666667}, {"fusion_lat": 0.0, "name": "5c1f7c6e0e8cab2938883202ddb7a43e", "is_disabled": 0, "rental_uris": {"android": "https://dc.lft.to/lastmile_qr_scan", "ios": "https://dc.lft.to/lastmile_qr_scan"}, "fusion_lon": 0.0, "lat": 38.951169, "bike_id": "5c1f7c6e0e8cab2938883202ddb7a43e", "type": "electric_scooter", "is_reserved": 0, "lon": -77.01363733333334}, {"fusion_lat": 0.0, "name": "d34368751920cadf4ad0111b86b10a65", "is_disabled": 0, "rental_uris": {"android": "https://dc.lft.to/lastmile_qr_scan", "ios": "https://dc.lft.to/lastmile_qr_scan"}, "fusion_lon": 0.0, "lat": 38.918036, "bike_id": "d34368751920cadf4ad0111b86b10a65", "type": "electric_scooter", "is_reserved": 0, "lon": -76.99972683333333}, {"fusion_lat": 0.0, "name": "6ab3dbffbece1cb184bca14255c2b8aa", "is_disabled": 0, "rental_uris": {"android": "https://dc.lft.to/lastmile_qr_scan", "ios": "https://dc.lft.to/lastmile_qr_scan"}, "fusion_lon": 0.0, "lat": 38.961159333333335, "bike_id": "6ab3dbffbece1cb184bca14255c2b8aa", "type": "electric_scooter", "is_reserved": 0, "lon": -77.0286275}, {"fusion_lat": 0.0, "name": "59d9f39948c2aed7150512f4c75cb284", "is_disabled": 0, "rental_uris": {"android": "https://dc.lft.to/lastmile_qr_scan", "ios": "https://dc.lft.to/lastmile_qr_scan"}, "fusion_lon": 0.0, "lat": 38.9294765, "bike_id": "59d9f39948c2aed7150512f4c75cb284", "type": "electric_scooter", "is_reserved": 0, "lon": -77.04403366666666}, {"fusion_lat": 0.0, "name": "3418592f6efc502fc3835fe9ca07513d", "is_disabled": 0, "rental_uris": {"android": "https://dc.lft.to/lastmile_qr_scan", "ios": "https://dc.lft.to/lastmile_qr_scan"}, "fusion_lon": 0.0, "lat": 38.94700516666666, "bike_id": "3418592f6efc502fc3835fe9ca07513d", "type": "electric_scooter", "is_reserved": 0, "lon": -77.01944083333333}, {"fusion_lat": 0.0, "name": "600dfb0502f298f307c6fee2c88e7f64", "is_disabled": 0, "rental_uris": {"android": "https://dc.lft.to/lastmile_qr_scan", "ios": "https://dc.lft.to/lastmile_qr_scan"}, "fusion_lon": 0.0, "lat": 38.91412583333333, "bike_id": "600dfb0502f298f307c6fee2c88e7f64", "type": "electric_scooter", "is_reserved": 0, "lon": -77.0132145}, {"fusion_lat": 0.0, "name": "fc2ab4b27cc40250c5735acd9574781b", "is_disabled": 0, "rental_uris": {"android": "https://dc.lft.to/lastmile_qr_scan", "ios": "https://dc.lft.to/lastmile_qr_scan"}, "fusion_lon": 0.0, "lat": 38.864584666666666, "bike_id": "fc2ab4b27cc40250c5735acd9574781b", "type": "electric_bike", "is_reserved": 0, "lon": -76.945264}, {"fusion_lat": 0.0, "name": "8869280c21adf74c0b0a3acb8aac1f05", "is_disabled": 0, "rental_uris": {"android": "https://dc.lft.to/lastmile_qr_scan", "ios": "https://dc.lft.to/lastmile_qr_scan"}, "fusion_lon": 0.0, "lat": 38.91949116666667, "bike_id": "8869280c21adf74c0b0a3acb8aac1f05", "type": "electric_scooter", "is_reserved": 0, "lon": -77.044847}, {"fusion_lat": 0.0, "name": "44ff063e343d870604fcfbe93a845f02", "is_disabled": 0, "rental_uris": {"android": "https://dc.lft.to/lastmile_qr_scan", "ios": "https://dc.lft.to/lastmile_qr_scan"}, "fusion_lon": 0.0, "lat": 38.92246816666667, "bike_id": "44ff063e343d870604fcfbe93a845f02", "type": "electric_scooter", "is_reserved": 0, "lon": -77.04246766666667}, {"fusion_lat": 0.0, "name": "077554d87ce0e87acf6873177275e477", "is_disabled": 0, "rental_uris": {"android": "https://dc.lft.to/lastmile_qr_scan", "ios": "https://dc.lft.to/lastmile_qr_scan"}, "fusion_lon": 0.0, "lat": 38.904013666666664, "bike_id": "077554d87ce0e87acf6873177275e477", "type": "electric_scooter", "is_reserved": 0, "lon": -77.053535}, {"fusion_lat": 0.0, "name": "b30563cd45f0905cd8030b38b49ac0f5", "is_disabled": 0, "rental_uris": {"android": "https://dc.lft.to/lastmile_qr_scan", "ios": "https://dc.lft.to/lastmile_qr_scan"}, "fusion_lon": 0.0, "lat": 38.949361333333336, "bike_id": "b30563cd45f0905cd8030b38b49ac0f5", "type": "electric_bike", "is_reserved": 0, "lon": -77.0653275}, {"fusion_lat": 0.0, "name": "40a9c0d098888657f89d734ae93f365a", "is_disabled": 0, "rental_uris": {"android": "https://dc.lft.to/lastmile_qr_scan", "ios": "https://dc.lft.to/lastmile_qr_scan"}, "fusion_lon": 0.0, "lat": 38.9164095, "bike_id": "40a9c0d098888657f89d734ae93f365a", "type": "electric_scooter", "is_reserved": 0, "lon": -77.03983616666666}, {"fusion_lat": 0.0, "name": "5964d4b13590c0c7e00896d3ade35314", "is_disabled": 0, "rental_uris": {"android": "https://dc.lft.to/lastmile_qr_scan", "ios": "https://dc.lft.to/lastmile_qr_scan"}, "fusion_lon": 0.0, "lat": 38.928246333333334, "bike_id": "5964d4b13590c0c7e00896d3ade35314", "type": "electric_scooter", "is_reserved": 0, "lon": -77.01424816666666}, {"fusion_lat": 0.0, "name": "9f1f0d9bbbdc21816dd03af399779b1e", "is_disabled": 0, "rental_uris": {"android": "https://dc.lft.to/lastmile_qr_scan", "ios": "https://dc.lft.to/lastmile_qr_scan"}, "fusion_lon": 0.0, "lat": 38.9205725, "bike_id": "9f1f0d9bbbdc21816dd03af399779b1e", "type": "electric_scooter", "is_reserved": 0, "lon": -77.023779}, {"fusion_lat": 0.0, "name": "6d8252d9cbe8dd638964405696a5e974", "is_disabled": 0, "rental_uris": {"android": "https://dc.lft.to/lastmile_qr_scan", "ios": "https://dc.lft.to/lastmile_qr_scan"}, "fusion_lon": 0.0, "lat": 38.90988016666667, "bike_id": "6d8252d9cbe8dd638964405696a5e974", "type": "electric_scooter", "is_reserved": 0, "lon": -77.0318185}, {"fusion_lat": 0.0, "name": "055cd566a385d0726c3334c9a2f7dc75", "is_disabled": 0, "rental_uris": {"android": "https://dc.lft.to/lastmile_qr_scan", "ios": "https://dc.lft.to/lastmile_qr_scan"}, "fusion_lon": 0.0, "lat": 38.86622216666667, "bike_id": "055cd566a385d0726c3334c9a2f7dc75", "type": "electric_bike", "is_reserved": 0, "lon": -76.94569233333333}, {"fusion_lat": 0.0, "name": "3dca689b659774cc94b408ee81f924b7", "is_disabled": 0, "rental_uris": {"android": "https://dc.lft.to/lastmile_qr_scan", "ios": "https://dc.lft.to/lastmile_qr_scan"}, "fusion_lon": 0.0, "lat": 38.920808, "bike_id": "3dca689b659774cc94b408ee81f924b7", "type": "electric_bike", "is_reserved": 0, "lon": -76.98944133333333}, {"fusion_lat": 0.0, "name": "361981a48dbdc5bc5f70ecef87fe7e02", "is_disabled": 0, "rental_uris": {"android": "https://dc.lft.to/lastmile_qr_scan", "ios": "https://dc.lft.to/lastmile_qr_scan"}, "fusion_lon": 0.0, "lat": 38.895112, "bike_id": "361981a48dbdc5bc5f70ecef87fe7e02", "type": "electric_scooter", "is_reserved": 0, "lon": -77.02171816666667}, {"fusion_lat": 0.0, "name": "9b016b552f29e5b6387742a32867d376", "is_disabled": 0, "rental_uris": {"android": "https://dc.lft.to/lastmile_qr_scan", "ios": "https://dc.lft.to/lastmile_qr_scan"}, "fusion_lon": 0.0, "lat": 38.93722283333334, "bike_id": "9b016b552f29e5b6387742a32867d376", "type": "electric_scooter", "is_reserved": 0, "lon": -77.02436716666666}, {"fusion_lat": 0.0, "name": "38d9b214596ec158b2fece1169974926", "is_disabled": 0, "rental_uris": {"android": "https://dc.lft.to/lastmile_qr_scan", "ios": "https://dc.lft.to/lastmile_qr_scan"}, "fusion_lon": 0.0, "lat": 38.9012675, "bike_id": "38d9b214596ec158b2fece1169974926", "type": "electric_scooter", "is_reserved": 0, "lon": -77.04977116666667}, {"fusion_lat": 0.0, "name": "76f7170049930f81e48d1bfb8b97abb1", "is_disabled": 0, "rental_uris": {"android": "https://dc.lft.to/lastmile_qr_scan", "ios": "https://dc.lft.to/lastmile_qr_scan"}, "fusion_lon": 0.0, "lat": 38.89828283333333, "bike_id": "76f7170049930f81e48d1bfb8b97abb1", "type": "electric_scooter", "is_reserved": 0, "lon": -77.0467155}, {"fusion_lat": 0.0, "name": "2a67353bcd1042c719ecef8e507b99f2", "is_disabled": 0, "rental_uris": {"android": "https://dc.lft.to/lastmile_qr_scan", "ios": "https://dc.lft.to/lastmile_qr_scan"}, "fusion_lon": 0.0, "lat": 38.94228866666667, "bike_id": "2a67353bcd1042c719ecef8e507b99f2", "type": "electric_scooter", "is_reserved": 0, "lon": -77.0138295}, {"fusion_lat": 0.0, "name": "f9bbc2c38389603edc0200b82ecd6d28", "is_disabled": 0, "rental_uris": {"android": "https://dc.lft.to/lastmile_qr_scan", "ios": "https://dc.lft.to/lastmile_qr_scan"}, "fusion_lon": 0.0, "lat": 38.93649533333333, "bike_id": "f9bbc2c38389603edc0200b82ecd6d28", "type": "electric_scooter", "is_reserved": 0, "lon": -77.030488}, {"fusion_lat": 0.0, "name": "2d27ecd6a43267978b14b2749d1abdb9", "is_disabled": 0, "rental_uris": {"android": "https://dc.lft.to/lastmile_qr_scan", "ios": "https://dc.lft.to/lastmile_qr_scan"}, "fusion_lon": 0.0, "lat": 38.91324866666667, "bike_id": "2d27ecd6a43267978b14b2749d1abdb9", "type": "electric_scooter", "is_reserved": 0, "lon": -77.03177083333334}, {"fusion_lat": 0.0, "name": "2fbdc09b944e1f9e3975d0ae26ca20ed", "is_disabled": 0, "rental_uris": {"android": "https://dc.lft.to/lastmile_qr_scan", "ios": "https://dc.lft.to/lastmile_qr_scan"}, "fusion_lon": 0.0, "lat": 38.8852395, "bike_id": "2fbdc09b944e1f9e3975d0ae26ca20ed", "type": "electric_scooter", "is_reserved": 0, "lon": -77.01517333333334}, {"fusion_lat": 0.0, "name": "7170618c3d35310ca5a491a170e1dd3e", "is_disabled": 0, "rental_uris": {"android": "https://dc.lft.to/lastmile_qr_scan", "ios": "https://dc.lft.to/lastmile_qr_scan"}, "fusion_lon": 0.0, "lat": 38.92336916666667, "bike_id": "7170618c3d35310ca5a491a170e1dd3e", "type": "electric_scooter", "is_reserved": 0, "lon": -77.03511483333334}, {"fusion_lat": 0.0, "name": "0b22f78fd3ef39aef5968acb8bb6c79a", "is_disabled": 0, "rental_uris": {"android": "https://dc.lft.to/lastmile_qr_scan", "ios": "https://dc.lft.to/lastmile_qr_scan"}, "fusion_lon": 0.0, "lat": 38.902403666666665, "bike_id": "0b22f78fd3ef39aef5968acb8bb6c79a", "type": "electric_scooter", "is_reserved": 0, "lon": -77.059329}, {"fusion_lat": 0.0, "name": "22a86b3f122278096dd2d4638a7f0170", "is_disabled": 0, "rental_uris": {"android": "https://dc.lft.to/lastmile_qr_scan", "ios": "https://dc.lft.to/lastmile_qr_scan"}, "fusion_lon": 0.0, "lat": 38.918076166666665, "bike_id": "22a86b3f122278096dd2d4638a7f0170", "type": "electric_scooter", "is_reserved": 0, "lon": -77.04437983333334}, {"fusion_lat": 0.0, "name": "d85a0f2f31133f244b4abd525afcc1e4", "is_disabled": 0, "rental_uris": {"android": "https://dc.lft.to/lastmile_qr_scan", "ios": "https://dc.lft.to/lastmile_qr_scan"}, "fusion_lon": 0.0, "lat": 38.917291166666665, "bike_id": "d85a0f2f31133f244b4abd525afcc1e4", "type": "electric_scooter", "is_reserved": 0, "lon": -77.02500616666667}, {"fusion_lat": 0.0, "name": "115c097c0e5c9e9f607e447e93a7e5dd", "is_disabled": 0, "rental_uris": {"android": "https://dc.lft.to/lastmile_qr_scan", "ios": "https://dc.lft.to/lastmile_qr_scan"}, "fusion_lon": 0.0, "lat": 38.902689, "bike_id": "115c097c0e5c9e9f607e447e93a7e5dd", "type": "electric_scooter", "is_reserved": 0, "lon": -77.03966616666666}, {"fusion_lat": 0.0, "name": "f4447a04cd7a9542b5eca730d8b9fdf8", "is_disabled": 0, "rental_uris": {"android": "https://dc.lft.to/lastmile_qr_scan", "ios": "https://dc.lft.to/lastmile_qr_scan"}, "fusion_lon": 0.0, "lat": 38.873794833333335, "bike_id": "f4447a04cd7a9542b5eca730d8b9fdf8", "type": "electric_scooter", "is_reserved": 0, "lon": -77.00057116666666}, {"fusion_lat": 0.0, "name": "3dc3d64d5fdcbfea4894489a0d69a958", "is_disabled": 0, "rental_uris": {"android": "https://dc.lft.to/lastmile_qr_scan", "ios": "https://dc.lft.to/lastmile_qr_scan"}, "fusion_lon": 0.0, "lat": 38.91638016666667, "bike_id": "3dc3d64d5fdcbfea4894489a0d69a958", "type": "electric_scooter", "is_reserved": 0, "lon": -77.04522183333333}, {"fusion_lat": 0.0, "name": "1a02363ce686b14f66ae171b0a61ffd6", "is_disabled": 0, "rental_uris": {"android": "https://dc.lft.to/lastmile_qr_scan", "ios": "https://dc.lft.to/lastmile_qr_scan"}, "fusion_lon": 0.0, "lat": 38.905530666666664, "bike_id": "1a02363ce686b14f66ae171b0a61ffd6", "type": "electric_scooter", "is_reserved": 0, "lon": -77.03482483333333}, {"fusion_lat": 0.0, "name": "67396d014ee076986bd124ba33930e1f", "is_disabled": 0, "rental_uris": {"android": "https://dc.lft.to/lastmile_qr_scan", "ios": "https://dc.lft.to/lastmile_qr_scan"}, "fusion_lon": 0.0, "lat": 38.86760233333333, "bike_id": "67396d014ee076986bd124ba33930e1f", "type": "electric_scooter", "is_reserved": 0, "lon": -76.9827125}, {"fusion_lat": 0.0, "name": "4126e4729f720c8f1fa847a76519f43d", "is_disabled": 0, "rental_uris": {"android": "https://dc.lft.to/lastmile_qr_scan", "ios": "https://dc.lft.to/lastmile_qr_scan"}, "fusion_lon": 0.0, "lat": 38.905071166666666, "bike_id": "4126e4729f720c8f1fa847a76519f43d", "type": "electric_scooter", "is_reserved": 0, "lon": -77.02950916666667}, {"fusion_lat": 0.0, "name": "eadc13d7f1e08a7f1eab000115bf0114", "is_disabled": 0, "rental_uris": {"android": "https://dc.lft.to/lastmile_qr_scan", "ios": "https://dc.lft.to/lastmile_qr_scan"}, "fusion_lon": 0.0, "lat": 38.9126815, "bike_id": "eadc13d7f1e08a7f1eab000115bf0114", "type": "electric_scooter", "is_reserved": 0, "lon": -77.03868733333333}, {"fusion_lat": 0.0, "name": "3cb9f668f7736e2b9ffe29d78fcea397", "is_disabled": 0, "rental_uris": {"android": "https://dc.lft.to/lastmile_qr_scan", "ios": "https://dc.lft.to/lastmile_qr_scan"}, "fusion_lon": 0.0, "lat": 38.92798883333333, "bike_id": "3cb9f668f7736e2b9ffe29d78fcea397", "type": "electric_scooter", "is_reserved": 0, "lon": -77.02384766666667}, {"fusion_lat": 0.0, "name": "4069e140fa2a6d347596f7876b716a94", "is_disabled": 0, "rental_uris": {"android": "https://dc.lft.to/lastmile_qr_scan", "ios": "https://dc.lft.to/lastmile_qr_scan"}, "fusion_lon": 0.0, "lat": 38.8889455, "bike_id": "4069e140fa2a6d347596f7876b716a94", "type": "electric_scooter", "is_reserved": 0, "lon": -76.9773015}, {"fusion_lat": 0.0, "name": "0a2cb217a7bbdc1c1c4b0d9dab6508ce", "is_disabled": 0, "rental_uris": {"android": "https://dc.lft.to/lastmile_qr_scan", "ios": "https://dc.lft.to/lastmile_qr_scan"}, "fusion_lon": 0.0, "lat": 38.84085116666667, "bike_id": "0a2cb217a7bbdc1c1c4b0d9dab6508ce", "type": "electric_bike", "is_reserved": 0, "lon": -76.97025716666667}, {"fusion_lat": 0.0, "name": "61a6e2542d46e7718b52433282a28f0f", "is_disabled": 0, "rental_uris": {"android": "https://dc.lft.to/lastmile_qr_scan", "ios": "https://dc.lft.to/lastmile_qr_scan"}, "fusion_lon": 0.0, "lat": 38.9203385, "bike_id": "61a6e2542d46e7718b52433282a28f0f", "type": "electric_scooter", "is_reserved": 0, "lon": -77.017771}, {"fusion_lat": 0.0, "name": "620bcbf7913a7036a77ea21e8c085b60", "is_disabled": 0, "rental_uris": {"android": "https://dc.lft.to/lastmile_qr_scan", "ios": "https://dc.lft.to/lastmile_qr_scan"}, "fusion_lon": 0.0, "lat": 38.92317766666667, "bike_id": "620bcbf7913a7036a77ea21e8c085b60", "type": "electric_scooter", "is_reserved": 0, "lon": -77.02134483333333}, {"fusion_lat": 0.0, "name": "75a66f125dcece7482d52ea1cb7545f2", "is_disabled": 0, "rental_uris": {"android": "https://dc.lft.to/lastmile_qr_scan", "ios": "https://dc.lft.to/lastmile_qr_scan"}, "fusion_lon": 0.0, "lat": 38.9056345, "bike_id": "75a66f125dcece7482d52ea1cb7545f2", "type": "electric_scooter", "is_reserved": 0, "lon": -77.00581516666666}, {"fusion_lat": 0.0, "name": "cbb2ebd50805565d67e20db41588cdb2", "is_disabled": 0, "rental_uris": {"android": "https://dc.lft.to/lastmile_qr_scan", "ios": "https://dc.lft.to/lastmile_qr_scan"}, "fusion_lon": 0.0, "lat": 38.91964383333333, "bike_id": "cbb2ebd50805565d67e20db41588cdb2", "type": "electric_scooter", "is_reserved": 0, "lon": -77.04506383333333}, {"fusion_lat": 0.0, "name": "342603cba7d3f1aec05b3eb941570ba4", "is_disabled": 0, "rental_uris": {"android": "https://dc.lft.to/lastmile_qr_scan", "ios": "https://dc.lft.to/lastmile_qr_scan"}, "fusion_lon": 0.0, "lat": 38.953299, "bike_id": "342603cba7d3f1aec05b3eb941570ba4", "type": "electric_bike", "is_reserved": 0, "lon": -76.98252716666667}, {"fusion_lat": 0.0, "name": "05dd5b76a9b3bed97fd94a42b4200bfe", "is_disabled": 0, "rental_uris": {"android": "https://dc.lft.to/lastmile_qr_scan", "ios": "https://dc.lft.to/lastmile_qr_scan"}, "fusion_lon": 0.0, "lat": 38.855497666666665, "bike_id": "05dd5b76a9b3bed97fd94a42b4200bfe", "type": "electric_scooter", "is_reserved": 0, "lon": -76.98753933333333}, {"fusion_lat": 0.0, "name": "571c389df6bf243d11b25555d4bc15bc", "is_disabled": 0, "rental_uris": {"android": "https://dc.lft.to/lastmile_qr_scan", "ios": "https://dc.lft.to/lastmile_qr_scan"}, "fusion_lon": 0.0, "lat": 38.924163, "bike_id": "571c389df6bf243d11b25555d4bc15bc", "type": "electric_scooter", "is_reserved": 0, "lon": -77.03636233333333}, {"fusion_lat": 0.0, "name": "90c6cc394e67c75fa7424c2faadeb660", "is_disabled": 0, "rental_uris": {"android": "https://dc.lft.to/lastmile_qr_scan", "ios": "https://dc.lft.to/lastmile_qr_scan"}, "fusion_lon": 0.0, "lat": 38.900159, "bike_id": "90c6cc394e67c75fa7424c2faadeb660", "type": "electric_scooter", "is_reserved": 0, "lon": -77.00033783333333}, {"fusion_lat": 0.0, "name": "23678798f8092756d5bc20b9df5edd90", "is_disabled": 0, "rental_uris": {"android": "https://dc.lft.to/lastmile_qr_scan", "ios": "https://dc.lft.to/lastmile_qr_scan"}, "fusion_lon": 0.0, "lat": 38.916327833333334, "bike_id": "23678798f8092756d5bc20b9df5edd90", "type": "electric_scooter", "is_reserved": 0, "lon": -77.03980483333333}, {"fusion_lat": 0.0, "name": "452a8f5a62846d96f2dc03296209bb7d", "is_disabled": 0, "rental_uris": {"android": "https://dc.lft.to/lastmile_qr_scan", "ios": "https://dc.lft.to/lastmile_qr_scan"}, "fusion_lon": 0.0, "lat": 38.93084616666667, "bike_id": "452a8f5a62846d96f2dc03296209bb7d", "type": "electric_scooter", "is_reserved": 0, "lon": -77.025524}, {"fusion_lat": 0.0, "name": "b94ca6bffe8c09dc7e6b399653b88ba6", "is_disabled": 0, "rental_uris": {"android": "https://dc.lft.to/lastmile_qr_scan", "ios": "https://dc.lft.to/lastmile_qr_scan"}, "fusion_lon": 0.0, "lat": 38.91998816666667, "bike_id": "b94ca6bffe8c09dc7e6b399653b88ba6", "type": "electric_scooter", "is_reserved": 0, "lon": -77.0712205}, {"fusion_lat": 0.0, "name": "7d8c4aaa124b3babbf7a2c24de7b3d16", "is_disabled": 0, "rental_uris": {"android": "https://dc.lft.to/lastmile_qr_scan", "ios": "https://dc.lft.to/lastmile_qr_scan"}, "fusion_lon": 0.0, "lat": 38.913965166666664, "bike_id": "7d8c4aaa124b3babbf7a2c24de7b3d16", "type": "electric_scooter", "is_reserved": 0, "lon": -77.03318383333334}, {"fusion_lat": 0.0, "name": "1efe9934c7e8d578a4a860103e3c625a", "is_disabled": 0, "rental_uris": {"android": "https://dc.lft.to/lastmile_qr_scan", "ios": "https://dc.lft.to/lastmile_qr_scan"}, "fusion_lon": 0.0, "lat": 38.9064715, "bike_id": "1efe9934c7e8d578a4a860103e3c625a", "type": "electric_scooter", "is_reserved": 0, "lon": -77.0113725}, {"fusion_lat": 0.0, "name": "ef01d022abeb0aacfe2feed1a2281e77", "is_disabled": 0, "rental_uris": {"android": "https://dc.lft.to/lastmile_qr_scan", "ios": "https://dc.lft.to/lastmile_qr_scan"}, "fusion_lon": 0.0, "lat": 38.90603466666666, "bike_id": "ef01d022abeb0aacfe2feed1a2281e77", "type": "electric_scooter", "is_reserved": 0, "lon": -77.05684216666667}, {"fusion_lat": 0.0, "name": "887f696b7e85245677e95339fb7a7ff8", "is_disabled": 0, "rental_uris": {"android": "https://dc.lft.to/lastmile_qr_scan", "ios": "https://dc.lft.to/lastmile_qr_scan"}, "fusion_lon": 0.0, "lat": 38.92509183333333, "bike_id": "887f696b7e85245677e95339fb7a7ff8", "type": "electric_scooter", "is_reserved": 0, "lon": -77.00216466666667}, {"fusion_lat": 0.0, "name": "dfcd8ac5b90853e48877818b476c494b", "is_disabled": 0, "rental_uris": {"android": "https://dc.lft.to/lastmile_qr_scan", "ios": "https://dc.lft.to/lastmile_qr_scan"}, "fusion_lon": 0.0, "lat": 38.93058833333333, "bike_id": "dfcd8ac5b90853e48877818b476c494b", "type": "electric_scooter", "is_reserved": 0, "lon": -77.02318066666666}, {"fusion_lat": 0.0, "name": "8ab1f67cb6283c160cb48e59e4a4d848", "is_disabled": 0, "rental_uris": {"android": "https://dc.lft.to/lastmile_qr_scan", "ios": "https://dc.lft.to/lastmile_qr_scan"}, "fusion_lon": 0.0, "lat": 38.91426416666667, "bike_id": "8ab1f67cb6283c160cb48e59e4a4d848", "type": "electric_scooter", "is_reserved": 0, "lon": -77.03461233333333}, {"fusion_lat": 0.0, "name": "21a940674176b740f0f38f7d619ec21b", "is_disabled": 0, "rental_uris": {"android": "https://dc.lft.to/lastmile_qr_scan", "ios": "https://dc.lft.to/lastmile_qr_scan"}, "fusion_lon": 0.0, "lat": 38.92477066666667, "bike_id": "21a940674176b740f0f38f7d619ec21b", "type": "electric_scooter", "is_reserved": 0, "lon": -77.02624033333333}, {"fusion_lat": 0.0, "name": "4d90aa56be2963e697e2d0ab3cce21ab", "is_disabled": 0, "rental_uris": {"android": "https://dc.lft.to/lastmile_qr_scan", "ios": "https://dc.lft.to/lastmile_qr_scan"}, "fusion_lon": 0.0, "lat": 38.920198166666665, "bike_id": "4d90aa56be2963e697e2d0ab3cce21ab", "type": "electric_scooter", "is_reserved": 0, "lon": -77.0314525}, {"fusion_lat": 0.0, "name": "e0540e8fa496f358ff0c66d234fcc0f1", "is_disabled": 0, "rental_uris": {"android": "https://dc.lft.to/lastmile_qr_scan", "ios": "https://dc.lft.to/lastmile_qr_scan"}, "fusion_lon": 0.0, "lat": 38.92243533333333, "bike_id": "e0540e8fa496f358ff0c66d234fcc0f1", "type": "electric_scooter", "is_reserved": 0, "lon": -77.074686}, {"fusion_lat": 0.0, "name": "e38c021354c362173e914dae7be29146", "is_disabled": 0, "rental_uris": {"android": "https://dc.lft.to/lastmile_qr_scan", "ios": "https://dc.lft.to/lastmile_qr_scan"}, "fusion_lon": 0.0, "lat": 38.9351175, "bike_id": "e38c021354c362173e914dae7be29146", "type": "electric_scooter", "is_reserved": 0, "lon": -77.0326395}, {"fusion_lat": 0.0, "name": "e3e7bc3418f88fd7864bd8f4bb4c4207", "is_disabled": 0, "rental_uris": {"android": "https://dc.lft.to/lastmile_qr_scan", "ios": "https://dc.lft.to/lastmile_qr_scan"}, "fusion_lon": 0.0, "lat": 38.9206655, "bike_id": "e3e7bc3418f88fd7864bd8f4bb4c4207", "type": "electric_scooter", "is_reserved": 0, "lon": -77.04255916666666}, {"fusion_lat": 0.0, "name": "3e350862cf85ef8b6fd8562e18009b21", "is_disabled": 0, "rental_uris": {"android": "https://dc.lft.to/lastmile_qr_scan", "ios": "https://dc.lft.to/lastmile_qr_scan"}, "fusion_lon": 0.0, "lat": 38.900274333333336, "bike_id": "3e350862cf85ef8b6fd8562e18009b21", "type": "electric_scooter", "is_reserved": 0, "lon": -77.00210266666667}, {"fusion_lat": 0.0, "name": "272ee5c53ac58069381848584d8ab790", "is_disabled": 0, "rental_uris": {"android": "https://dc.lft.to/lastmile_qr_scan", "ios": "https://dc.lft.to/lastmile_qr_scan"}, "fusion_lon": 0.0, "lat": 38.88331, "bike_id": "272ee5c53ac58069381848584d8ab790", "type": "electric_scooter", "is_reserved": 0, "lon": -77.01768366666667}, {"fusion_lat": 0.0, "name": "74ee053e9ff57526955b4faa34718d0e", "is_disabled": 0, "rental_uris": {"android": "https://dc.lft.to/lastmile_qr_scan", "ios": "https://dc.lft.to/lastmile_qr_scan"}, "fusion_lon": 0.0, "lat": 38.813293333333334, "bike_id": "74ee053e9ff57526955b4faa34718d0e", "type": "electric_bike", "is_reserved": 0, "lon": -77.05090883333334}, {"fusion_lat": 0.0, "name": "863e193323f03e7ac64b042e1e38ce45", "is_disabled": 0, "rental_uris": {"android": "https://dc.lft.to/lastmile_qr_scan", "ios": "https://dc.lft.to/lastmile_qr_scan"}, "fusion_lon": 0.0, "lat": 38.93190233333333, "bike_id": "863e193323f03e7ac64b042e1e38ce45", "type": "electric_bike", "is_reserved": 0, "lon": -77.22922666666666}, {"fusion_lat": 0.0, "name": "65fa95196ff861b77496291d2493d89d", "is_disabled": 0, "rental_uris": {"android": "https://dc.lft.to/lastmile_qr_scan", "ios": "https://dc.lft.to/lastmile_qr_scan"}, "fusion_lon": 0.0, "lat": 38.87789583333333, "bike_id": "65fa95196ff861b77496291d2493d89d", "type": "electric_scooter", "is_reserved": 0, "lon": -77.00115966666667}, {"fusion_lat": 0.0, "name": "7782f8b772049e5b149cd0114dffb660", "is_disabled": 0, "rental_uris": {"android": "https://dc.lft.to/lastmile_qr_scan", "ios": "https://dc.lft.to/lastmile_qr_scan"}, "fusion_lon": 0.0, "lat": 38.920459666666666, "bike_id": "7782f8b772049e5b149cd0114dffb660", "type": "electric_scooter", "is_reserved": 0, "lon": -77.02200083333334}, {"fusion_lat": 0.0, "name": "64197d09c6fc3ca3ec6421f3cd23034b", "is_disabled": 0, "rental_uris": {"android": "https://dc.lft.to/lastmile_qr_scan", "ios": "https://dc.lft.to/lastmile_qr_scan"}, "fusion_lon": 0.0, "lat": 38.90785316666667, "bike_id": "64197d09c6fc3ca3ec6421f3cd23034b", "type": "electric_scooter", "is_reserved": 0, "lon": -77.03858566666666}, {"fusion_lat": 0.0, "name": "be7e054051a5dfd60639c6a8b7fc585d", "is_disabled": 0, "rental_uris": {"android": "https://dc.lft.to/lastmile_qr_scan", "ios": "https://dc.lft.to/lastmile_qr_scan"}, "fusion_lon": 0.0, "lat": 38.88414183333333, "bike_id": "be7e054051a5dfd60639c6a8b7fc585d", "type": "electric_bike", "is_reserved": 0, "lon": -76.954146}, {"fusion_lat": 0.0, "name": "cc9e1a562b49eaf7cb364633a148eabf", "is_disabled": 0, "rental_uris": {"android": "https://dc.lft.to/lastmile_qr_scan", "ios": "https://dc.lft.to/lastmile_qr_scan"}, "fusion_lon": 0.0, "lat": 38.879357666666664, "bike_id": "cc9e1a562b49eaf7cb364633a148eabf", "type": "electric_scooter", "is_reserved": 0, "lon": -77.00906283333333}, {"fusion_lat": 0.0, "name": "15528680d66718e399161f6987da5605", "is_disabled": 0, "rental_uris": {"android": "https://dc.lft.to/lastmile_qr_scan", "ios": "https://dc.lft.to/lastmile_qr_scan"}, "fusion_lon": 0.0, "lat": 38.951804833333334, "bike_id": "15528680d66718e399161f6987da5605", "type": "electric_scooter", "is_reserved": 0, "lon": -77.027179}, {"fusion_lat": 0.0, "name": "5d0a60e62c8a9a9116066ed70d74adcb", "is_disabled": 0, "rental_uris": {"android": "https://dc.lft.to/lastmile_qr_scan", "ios": "https://dc.lft.to/lastmile_qr_scan"}, "fusion_lon": 0.0, "lat": 38.8973025, "bike_id": "5d0a60e62c8a9a9116066ed70d74adcb", "type": "electric_scooter", "is_reserved": 0, "lon": -77.04415883333333}, {"fusion_lat": 0.0, "name": "5f2e5e1bfc35599b45d918313e383dd7", "is_disabled": 0, "rental_uris": {"android": "https://dc.lft.to/lastmile_qr_scan", "ios": "https://dc.lft.to/lastmile_qr_scan"}, "fusion_lon": 0.0, "lat": 38.929807833333335, "bike_id": "5f2e5e1bfc35599b45d918313e383dd7", "type": "electric_scooter", "is_reserved": 0, "lon": -77.01965816666667}, {"fusion_lat": 0.0, "name": "e727f84590a2c48f1b901e96fce21fdd", "is_disabled": 0, "rental_uris": {"android": "https://dc.lft.to/lastmile_qr_scan", "ios": "https://dc.lft.to/lastmile_qr_scan"}, "fusion_lon": 0.0, "lat": 38.892047, "bike_id": "e727f84590a2c48f1b901e96fce21fdd", "type": "electric_scooter", "is_reserved": 0, "lon": -76.997136}, {"fusion_lat": 0.0, "name": "ddbe096a38c8695130a3c2ef272321e3", "is_disabled": 0, "rental_uris": {"android": "https://dc.lft.to/lastmile_qr_scan", "ios": "https://dc.lft.to/lastmile_qr_scan"}, "fusion_lon": 0.0, "lat": 38.915964, "bike_id": "ddbe096a38c8695130a3c2ef272321e3", "type": "electric_scooter", "is_reserved": 0, "lon": -77.02198616666666}, {"fusion_lat": 0.0, "name": "588d8e47819c1d1244167b2c54a606c5", "is_disabled": 0, "rental_uris": {"android": "https://dc.lft.to/lastmile_qr_scan", "ios": "https://dc.lft.to/lastmile_qr_scan"}, "fusion_lon": 0.0, "lat": 38.92139233333333, "bike_id": "588d8e47819c1d1244167b2c54a606c5", "type": "electric_scooter", "is_reserved": 0, "lon": -77.0342785}, {"fusion_lat": 0.0, "name": "713e793fec2b60c2ac5a867873194935", "is_disabled": 0, "rental_uris": {"android": "https://dc.lft.to/lastmile_qr_scan", "ios": "https://dc.lft.to/lastmile_qr_scan"}, "fusion_lon": 0.0, "lat": 38.887404833333335, "bike_id": "713e793fec2b60c2ac5a867873194935", "type": "electric_scooter", "is_reserved": 0, "lon": -77.02570566666667}, {"fusion_lat": 0.0, "name": "4bab1f3a29f954bf1f9516200c07b876", "is_disabled": 0, "rental_uris": {"android": "https://dc.lft.to/lastmile_qr_scan", "ios": "https://dc.lft.to/lastmile_qr_scan"}, "fusion_lon": 0.0, "lat": 38.932605833333334, "bike_id": "4bab1f3a29f954bf1f9516200c07b876", "type": "electric_scooter", "is_reserved": 0, "lon": -77.03261133333334}, {"fusion_lat": 0.0, "name": "18b7e83d4e2e970fa6b7392b775c6603", "is_disabled": 0, "rental_uris": {"android": "https://dc.lft.to/lastmile_qr_scan", "ios": "https://dc.lft.to/lastmile_qr_scan"}, "fusion_lon": 0.0, "lat": 38.886103166666665, "bike_id": "18b7e83d4e2e970fa6b7392b775c6603", "type": "electric_scooter", "is_reserved": 0, "lon": -77.01965933333334}, {"fusion_lat": 0.0, "name": "b4953c42cfdf34466637e7fff2ee92a1", "is_disabled": 0, "rental_uris": {"android": "https://dc.lft.to/lastmile_qr_scan", "ios": "https://dc.lft.to/lastmile_qr_scan"}, "fusion_lon": 0.0, "lat": 38.873772833333334, "bike_id": "b4953c42cfdf34466637e7fff2ee92a1", "type": "electric_scooter", "is_reserved": 0, "lon": -77.000649}, {"fusion_lat": 0.0, "name": "55e846c0169b48343c120ab8ec642203", "is_disabled": 0, "rental_uris": {"android": "https://dc.lft.to/lastmile_qr_scan", "ios": "https://dc.lft.to/lastmile_qr_scan"}, "fusion_lon": 0.0, "lat": 38.918762666666666, "bike_id": "55e846c0169b48343c120ab8ec642203", "type": "electric_scooter", "is_reserved": 0, "lon": -77.04460116666667}, {"fusion_lat": 0.0, "name": "c8d8e1d1628b3baaff58527b223b0310", "is_disabled": 0, "rental_uris": {"android": "https://dc.lft.to/lastmile_qr_scan", "ios": "https://dc.lft.to/lastmile_qr_scan"}, "fusion_lon": 0.0, "lat": 38.93142266666667, "bike_id": "c8d8e1d1628b3baaff58527b223b0310", "type": "electric_scooter", "is_reserved": 0, "lon": -77.02982516666667}, {"fusion_lat": 0.0, "name": "bac2822eb8265881527a41046e5c4577", "is_disabled": 0, "rental_uris": {"android": "https://dc.lft.to/lastmile_qr_scan", "ios": "https://dc.lft.to/lastmile_qr_scan"}, "fusion_lon": 0.0, "lat": 38.8736825, "bike_id": "bac2822eb8265881527a41046e5c4577", "type": "electric_scooter", "is_reserved": 0, "lon": -77.00056266666667}, {"fusion_lat": 0.0, "name": "abbf24e70edd4f2617e4928fb0997bdb", "is_disabled": 0, "rental_uris": {"android": "https://dc.lft.to/lastmile_qr_scan", "ios": "https://dc.lft.to/lastmile_qr_scan"}, "fusion_lon": 0.0, "lat": 38.8392525, "bike_id": "abbf24e70edd4f2617e4928fb0997bdb", "type": "electric_bike", "is_reserved": 0, "lon": -77.07890483333334}, {"fusion_lat": 0.0, "name": "546d086521411d1de5665bfce30d48fe", "is_disabled": 0, "rental_uris": {"android": "https://dc.lft.to/lastmile_qr_scan", "ios": "https://dc.lft.to/lastmile_qr_scan"}, "fusion_lon": 0.0, "lat": 38.97880033333333, "bike_id": "546d086521411d1de5665bfce30d48fe", "type": "electric_bike", "is_reserved": 0, "lon": -77.060265}, {"fusion_lat": 0.0, "name": "4093146bf9ac4b27dfefad79423ed341", "is_disabled": 0, "rental_uris": {"android": "https://dc.lft.to/lastmile_qr_scan", "ios": "https://dc.lft.to/lastmile_qr_scan"}, "fusion_lon": 0.0, "lat": 38.87413566666667, "bike_id": "4093146bf9ac4b27dfefad79423ed341", "type": "electric_scooter", "is_reserved": 0, "lon": -77.01859416666667}, {"fusion_lat": 0.0, "name": "31ab2d3ee71c04134e877df62c0b9866", "is_disabled": 0, "rental_uris": {"android": "https://dc.lft.to/lastmile_qr_scan", "ios": "https://dc.lft.to/lastmile_qr_scan"}, "fusion_lon": 0.0, "lat": 38.91763383333333, "bike_id": "31ab2d3ee71c04134e877df62c0b9866", "type": "electric_scooter", "is_reserved": 0, "lon": -77.0476625}, {"fusion_lat": 0.0, "name": "c6a509a4d85be59fd6d214bec863441a", "is_disabled": 0, "rental_uris": {"android": "https://dc.lft.to/lastmile_qr_scan", "ios": "https://dc.lft.to/lastmile_qr_scan"}, "fusion_lon": 0.0, "lat": 38.8922095, "bike_id": "c6a509a4d85be59fd6d214bec863441a", "type": "electric_scooter", "is_reserved": 0, "lon": -77.03983}, {"fusion_lat": 0.0, "name": "0c94ad679add5d1f6968ed88bbf4ddf5", "is_disabled": 0, "rental_uris": {"android": "https://dc.lft.to/lastmile_qr_scan", "ios": "https://dc.lft.to/lastmile_qr_scan"}, "fusion_lon": 0.0, "lat": 38.9013785, "bike_id": "0c94ad679add5d1f6968ed88bbf4ddf5", "type": "electric_scooter", "is_reserved": 0, "lon": -76.9864545}, {"fusion_lat": 0.0, "name": "25d8beba6c709b79635b832931a0dd43", "is_disabled": 0, "rental_uris": {"android": "https://dc.lft.to/lastmile_qr_scan", "ios": "https://dc.lft.to/lastmile_qr_scan"}, "fusion_lon": 0.0, "lat": 38.89919783333333, "bike_id": "25d8beba6c709b79635b832931a0dd43", "type": "electric_scooter", "is_reserved": 0, "lon": -77.003423}, {"fusion_lat": 0.0, "name": "de2b5d5adec5cb9809ad0f4af91c556c", "is_disabled": 0, "rental_uris": {"android": "https://dc.lft.to/lastmile_qr_scan", "ios": "https://dc.lft.to/lastmile_qr_scan"}, "fusion_lon": 0.0, "lat": 38.88731766666667, "bike_id": "de2b5d5adec5cb9809ad0f4af91c556c", "type": "electric_scooter", "is_reserved": 0, "lon": -77.01528433333333}, {"fusion_lat": 0.0, "name": "1f91ec1c7489a616c1ee98fb389b4fd4", "is_disabled": 0, "rental_uris": {"android": "https://dc.lft.to/lastmile_qr_scan", "ios": "https://dc.lft.to/lastmile_qr_scan"}, "fusion_lon": 0.0, "lat": 38.83232483333333, "bike_id": "1f91ec1c7489a616c1ee98fb389b4fd4", "type": "electric_bike", "is_reserved": 0, "lon": -76.94613766666667}, {"fusion_lat": 0.0, "name": "93537bc7a32f8358310d12a995618247", "is_disabled": 0, "rental_uris": {"android": "https://dc.lft.to/lastmile_qr_scan", "ios": "https://dc.lft.to/lastmile_qr_scan"}, "fusion_lon": 0.0, "lat": 38.9139245, "bike_id": "93537bc7a32f8358310d12a995618247", "type": "electric_scooter", "is_reserved": 0, "lon": -77.04489366666667}, {"fusion_lat": 0.0, "name": "ddac879e94492fa7962439d07a09315a", "is_disabled": 0, "rental_uris": {"android": "https://dc.lft.to/lastmile_qr_scan", "ios": "https://dc.lft.to/lastmile_qr_scan"}, "fusion_lon": 0.0, "lat": 38.9044355, "bike_id": "ddac879e94492fa7962439d07a09315a", "type": "electric_scooter", "is_reserved": 0, "lon": -77.02886983333333}, {"fusion_lat": 0.0, "name": "51d95be0e52c4fe03f91f1a69dd93da2", "is_disabled": 0, "rental_uris": {"android": "https://dc.lft.to/lastmile_qr_scan", "ios": "https://dc.lft.to/lastmile_qr_scan"}, "fusion_lon": 0.0, "lat": 38.927469, "bike_id": "51d95be0e52c4fe03f91f1a69dd93da2", "type": "electric_scooter", "is_reserved": 0, "lon": -77.02426866666667}, {"fusion_lat": 0.0, "name": "ad54beb67afbf0bcdca782baa2d652c2", "is_disabled": 0, "rental_uris": {"android": "https://dc.lft.to/lastmile_qr_scan", "ios": "https://dc.lft.to/lastmile_qr_scan"}, "fusion_lon": 0.0, "lat": 38.88332533333333, "bike_id": "ad54beb67afbf0bcdca782baa2d652c2", "type": "electric_scooter", "is_reserved": 0, "lon": -77.0176705}, {"fusion_lat": 0.0, "name": "75338f658bb412a796ecbaad8178ccb2", "is_disabled": 0, "rental_uris": {"android": "https://dc.lft.to/lastmile_qr_scan", "ios": "https://dc.lft.to/lastmile_qr_scan"}, "fusion_lon": 0.0, "lat": 38.871777, "bike_id": "75338f658bb412a796ecbaad8178ccb2", "type": "electric_scooter", "is_reserved": 0, "lon": -77.0061505}, {"fusion_lat": 0.0, "name": "ac4d67cf08277320e91a15c6fe207b36", "is_disabled": 0, "rental_uris": {"android": "https://dc.lft.to/lastmile_qr_scan", "ios": "https://dc.lft.to/lastmile_qr_scan"}, "fusion_lon": 0.0, "lat": 38.89874833333333, "bike_id": "ac4d67cf08277320e91a15c6fe207b36", "type": "electric_scooter", "is_reserved": 0, "lon": -76.9318175}, {"fusion_lat": 0.0, "name": "dfeb9e9fc3f445d25c0f94715314d612", "is_disabled": 0, "rental_uris": {"android": "https://dc.lft.to/lastmile_qr_scan", "ios": "https://dc.lft.to/lastmile_qr_scan"}, "fusion_lon": 0.0, "lat": 38.90512866666667, "bike_id": "dfeb9e9fc3f445d25c0f94715314d612", "type": "electric_scooter", "is_reserved": 0, "lon": -77.0068955}, {"fusion_lat": 0.0, "name": "080a7bea5f77f32d64eb549abfc3f197", "is_disabled": 0, "rental_uris": {"android": "https://dc.lft.to/lastmile_qr_scan", "ios": "https://dc.lft.to/lastmile_qr_scan"}, "fusion_lon": 0.0, "lat": 38.88328083333333, "bike_id": "080a7bea5f77f32d64eb549abfc3f197", "type": "electric_scooter", "is_reserved": 0, "lon": -77.0172665}, {"fusion_lat": 0.0, "name": "cef3442c31a5fb078d083761f05bc556", "is_disabled": 0, "rental_uris": {"android": "https://dc.lft.to/lastmile_qr_scan", "ios": "https://dc.lft.to/lastmile_qr_scan"}, "fusion_lon": 0.0, "lat": 38.88738, "bike_id": "cef3442c31a5fb078d083761f05bc556", "type": "electric_scooter", "is_reserved": 0, "lon": -77.01523366666666}, {"fusion_lat": 0.0, "name": "ffc3bd2320e264e0e52df513f13d1d44", "is_disabled": 0, "rental_uris": {"android": "https://dc.lft.to/lastmile_qr_scan", "ios": "https://dc.lft.to/lastmile_qr_scan"}, "fusion_lon": 0.0, "lat": 38.86243366666667, "bike_id": "ffc3bd2320e264e0e52df513f13d1d44", "type": "electric_scooter", "is_reserved": 0, "lon": -76.99495183333333}, {"fusion_lat": 0.0, "name": "67e581c7e4dc85d2b5bfb67f213566d1", "is_disabled": 0, "rental_uris": {"android": "https://dc.lft.to/lastmile_qr_scan", "ios": "https://dc.lft.to/lastmile_qr_scan"}, "fusion_lon": 0.0, "lat": 38.93514016666666, "bike_id": "67e581c7e4dc85d2b5bfb67f213566d1", "type": "electric_scooter", "is_reserved": 0, "lon": -77.07251916666667}, {"fusion_lat": 0.0, "name": "20e98f57dde6cf0a937abeaee9342276", "is_disabled": 0, "rental_uris": {"android": "https://dc.lft.to/lastmile_qr_scan", "ios": "https://dc.lft.to/lastmile_qr_scan"}, "fusion_lon": 0.0, "lat": 39.052543166666666, "bike_id": "20e98f57dde6cf0a937abeaee9342276", "type": "electric_bike", "is_reserved": 0, "lon": -77.080648}, {"fusion_lat": 0.0, "name": "00dd55c1c546017aa53383527b0af990", "is_disabled": 0, "rental_uris": {"android": "https://dc.lft.to/lastmile_qr_scan", "ios": "https://dc.lft.to/lastmile_qr_scan"}, "fusion_lon": 0.0, "lat": 38.939888833333335, "bike_id": "00dd55c1c546017aa53383527b0af990", "type": "electric_bike", "is_reserved": 0, "lon": -77.03575283333333}, {"fusion_lat": 0.0, "name": "226f7c6904d5a1f679e4c8e4a108f466", "is_disabled": 0, "rental_uris": {"android": "https://dc.lft.to/lastmile_qr_scan", "ios": "https://dc.lft.to/lastmile_qr_scan"}, "fusion_lon": 0.0, "lat": 38.89758616666667, "bike_id": "226f7c6904d5a1f679e4c8e4a108f466", "type": "electric_scooter", "is_reserved": 0, "lon": -77.00894}, {"fusion_lat": 0.0, "name": "3454ca9ebeb343cebc39340d8faad624", "is_disabled": 0, "rental_uris": {"android": "https://dc.lft.to/lastmile_qr_scan", "ios": "https://dc.lft.to/lastmile_qr_scan"}, "fusion_lon": 0.0, "lat": 38.8961755, "bike_id": "3454ca9ebeb343cebc39340d8faad624", "type": "electric_scooter", "is_reserved": 0, "lon": -77.00920933333333}, {"fusion_lat": 0.0, "name": "b9c9459c7ca7f16a70a0e00a54f47ef7", "is_disabled": 0, "rental_uris": {"android": "https://dc.lft.to/lastmile_qr_scan", "ios": "https://dc.lft.to/lastmile_qr_scan"}, "fusion_lon": 0.0, "lat": 38.916924333333334, "bike_id": "b9c9459c7ca7f16a70a0e00a54f47ef7", "type": "electric_scooter", "is_reserved": 0, "lon": -77.04106233333333}, {"fusion_lat": 0.0, "name": "66f8b8ec0c4194098e25af5348c80ca3", "is_disabled": 0, "rental_uris": {"android": "https://dc.lft.to/lastmile_qr_scan", "ios": "https://dc.lft.to/lastmile_qr_scan"}, "fusion_lon": 0.0, "lat": 38.91265383333333, "bike_id": "66f8b8ec0c4194098e25af5348c80ca3", "type": "electric_scooter", "is_reserved": 0, "lon": -77.03870116666667}, {"fusion_lat": 0.0, "name": "7f96197a416fd683f9eee309abd2abb9", "is_disabled": 0, "rental_uris": {"android": "https://dc.lft.to/lastmile_qr_scan", "ios": "https://dc.lft.to/lastmile_qr_scan"}, "fusion_lon": 0.0, "lat": 38.906136833333335, "bike_id": "7f96197a416fd683f9eee309abd2abb9", "type": "electric_scooter", "is_reserved": 0, "lon": -77.05890416666666}, {"fusion_lat": 0.0, "name": "14988664fd9b665395587c5cb80b1155", "is_disabled": 0, "rental_uris": {"android": "https://dc.lft.to/lastmile_qr_scan", "ios": "https://dc.lft.to/lastmile_qr_scan"}, "fusion_lon": 0.0, "lat": 38.89955416666667, "bike_id": "14988664fd9b665395587c5cb80b1155", "type": "electric_scooter", "is_reserved": 0, "lon": -77.01618583333334}, {"fusion_lat": 0.0, "name": "178c02d7164e1da0e15f4a9565a38a31", "is_disabled": 0, "rental_uris": {"android": "https://dc.lft.to/lastmile_qr_scan", "ios": "https://dc.lft.to/lastmile_qr_scan"}, "fusion_lon": 0.0, "lat": 38.90833116666667, "bike_id": "178c02d7164e1da0e15f4a9565a38a31", "type": "electric_scooter", "is_reserved": 0, "lon": -77.04324016666666}, {"fusion_lat": 0.0, "name": "66680d08c9841e5e4b40d21f7fa97efb", "is_disabled": 0, "rental_uris": {"android": "https://dc.lft.to/lastmile_qr_scan", "ios": "https://dc.lft.to/lastmile_qr_scan"}, "fusion_lon": 0.0, "lat": 38.900936333333334, "bike_id": "66680d08c9841e5e4b40d21f7fa97efb", "type": "electric_bike", "is_reserved": 0, "lon": -76.976804}, {"fusion_lat": 0.0, "name": "63b78a982aeed3852b76b4026c8e4601", "is_disabled": 0, "rental_uris": {"android": "https://dc.lft.to/lastmile_qr_scan", "ios": "https://dc.lft.to/lastmile_qr_scan"}, "fusion_lon": 0.0, "lat": 38.916818666666664, "bike_id": "63b78a982aeed3852b76b4026c8e4601", "type": "electric_scooter", "is_reserved": 0, "lon": -77.041402}, {"fusion_lat": 0.0, "name": "ea51e5ae380dc239550c07a2cd13e280", "is_disabled": 0, "rental_uris": {"android": "https://dc.lft.to/lastmile_qr_scan", "ios": "https://dc.lft.to/lastmile_qr_scan"}, "fusion_lon": 0.0, "lat": 38.92820316666667, "bike_id": "ea51e5ae380dc239550c07a2cd13e280", "type": "electric_scooter", "is_reserved": 0, "lon": -77.05959566666667}, {"fusion_lat": 0.0, "name": "e6630ea5af1a972b89203e8b45a8c16a", "is_disabled": 0, "rental_uris": {"android": "https://dc.lft.to/lastmile_qr_scan", "ios": "https://dc.lft.to/lastmile_qr_scan"}, "fusion_lon": 0.0, "lat": 38.8998885, "bike_id": "e6630ea5af1a972b89203e8b45a8c16a", "type": "electric_scooter", "is_reserved": 0, "lon": -76.98436783333334}, {"fusion_lat": 0.0, "name": "776aee95956f95d9d6caefd96a09b052", "is_disabled": 0, "rental_uris": {"android": "https://dc.lft.to/lastmile_qr_scan", "ios": "https://dc.lft.to/lastmile_qr_scan"}, "fusion_lon": 0.0, "lat": 38.9241405, "bike_id": "776aee95956f95d9d6caefd96a09b052", "type": "electric_scooter", "is_reserved": 0, "lon": -77.03635216666666}, {"fusion_lat": 0.0, "name": "9fa4092949c2f692637a44bb1df3e8c9", "is_disabled": 0, "rental_uris": {"android": "https://dc.lft.to/lastmile_qr_scan", "ios": "https://dc.lft.to/lastmile_qr_scan"}, "fusion_lon": 0.0, "lat": 39.0360945, "bike_id": "9fa4092949c2f692637a44bb1df3e8c9", "type": "electric_bike", "is_reserved": 0, "lon": -77.05540233333333}, {"fusion_lat": 0.0, "name": "104cefa8567f7c7926c4c24a9374ff28", "is_disabled": 0, "rental_uris": {"android": "https://dc.lft.to/lastmile_qr_scan", "ios": "https://dc.lft.to/lastmile_qr_scan"},