{"data": {"bikes": [{"fusion_lat": 0.0, "name": "dbf7f48b7838f73eaac99da5e2ac237a", "is_disabled": 0, "rental_uris": {"android": "https://dc.lft.to/lastmile_qr_scan", "ios": "https://dc.lft.to/lastmile_qr_scan"}, "fusion_lon": 0.0, "lat": 38.89692083333333, "bike_id": "dbf7f48b7838f73eaac99da5e2ac237a", "type": "electric_scooter", "is_reserved": 0, "lon": -77.05072833333334}, {"fusion_lat": 0.0, "name": "5242fa9dc78651864b58682c268776b1", "is_disabled": 0, "rental_uris": {"android": "https://dc.lft.to/lastmile_qr_scan", "ios": "https://dc.lft.to/lastmile_qr_scan"}, "fusion_lon": 0.0, "lat": 38.9167255, "bike_id": "5242fa9dc78651864b58682c268776b1", "type": "electric_scooter", "is_reserved": 0, "lon": -77.02383216666666}, {"fusion_lat": 0.0, "name": "57d6718671f34a3210588a0815e4f5ec", "is_disabled": 0, "rental_uris": {"android": "https://dc.lft.to/lastmile_qr_scan", "ios": "https://dc.lft.to/lastmile_qr_scan"}, "fusion_lon": 0.0, "lat": 38.914844333333335, "bike_id": "57d6718671f34a3210588a0815e4f5ec", "type": "electric_scooter", "is_reserved": 0, "lon": -77.04606533333333}, {"fusion_lat": 0.0, "name": "0ce3dfddbf06e4fffe6925a9db6ce602", "is_disabled": 0, "rental_uris": {"android": "https://dc.lft.to/lastmile_qr_scan", "ios": "https://dc.lft.to/lastmile_qr_scan"}, "fusion_lon": 0.0, "lat": 38.969937, "bike_id": "0ce3dfddbf06e4fffe6925a9db6ce602", "type": "electric_scooter", "is_reserved": 0, "lon": -77.01165016666667}, {"fusion_lat": 0.0, "name": "0b57b36778e23aa170527464fa127ecd", "is_disabled": 0, "rental_uris": {"android": "https://dc.lft.to/lastmile_qr_scan", "ios": "https://dc.lft.to/lastmile_qr_scan"}, "fusion_lon": 0.0, "lat": 38.87452316666667, "bike_id": "0b57b36778e23aa170527464fa127ecd", "type": "electric_scooter", "is_reserved": 0, "lon": -77.00476466666667}, {"fusion_lat": 0.0, "name": "2ecdd649613986703220493b5ade0cce", "is_disabled": 0, "rental_uris": {"android": "https://dc.lft.to/lastmile_qr_scan", "ios": "https://dc.lft.to/lastmile_qr_scan"}, "fusion_lon": 0.0, "lat": 38.92483033333333, "bike_id": "2ecdd649613986703220493b5ade0cce", "type": "electric_scooter", "is_reserved": 0, "lon": -77.0356265}, {"fusion_lat": 0.0, "name": "41623d56895dee00c9b45b7563f1d437", "is_disabled": 0, "rental_uris": {"android": "https://dc.lft.to/lastmile_qr_scan", "ios": "https://dc.lft.to/lastmile_qr_scan"}, "fusion_lon": 0.0, "lat": 38.89735983333333, "bike_id": "41623d56895dee00c9b45b7563f1d437", "type": "electric_scooter", "is_reserved": 0, "lon": -76.94715933333333}, {"fusion_lat": 0.0, "name": "17f56429566da63248c489fa22161ec2", "is_disabled": 0, "rental_uris": {"android": "https://dc.lft.to/lastmile_qr_scan", "ios": "https://dc.lft.to/lastmile_qr_scan"}, "fusion_lon": 0.0, "lat": 38.90047216666667, "bike_id": "17f56429566da63248c489fa22161ec2", "type": "electric_scooter", "is_reserved": 0, "lon": -77.0218095}, {"fusion_lat": 0.0, "name": "f3be0895cbf692c942eb34f39aae7099", "is_disabled": 0, "rental_uris": {"android": "https://dc.lft.to/lastmile_qr_scan", "ios": "https://dc.lft.to/lastmile_qr_scan"}, "fusion_lon": 0.0, "lat": 38.877406, "bike_id": "f3be0895cbf692c942eb34f39aae7099", "type": "electric_scooter", "is_reserved": 0, "lon": -77.002579}, {"fusion_lat": 0.0, "name": "8a4b18322700094b67b4b1cdc8a37d9e", "is_disabled": 0, "rental_uris": {"android": "https://dc.lft.to/lastmile_qr_scan", "ios": "https://dc.lft.to/lastmile_qr_scan"}, "fusion_lon": 0.0, "lat": 38.90022166666667, "bike_id": "8a4b18322700094b67b4b1cdc8a37d9e", "type": "electric_scooter", "is_reserved": 0, "lon": -77.002024}, {"fusion_lat": 0.0, "name": "c6a31c7e3f202352429170bfe0032328", "is_disabled": 0, "rental_uris": {"android": "https://dc.lft.to/lastmile_qr_scan", "ios": "https://dc.lft.to/lastmile_qr_scan"}, "fusion_lon": 0.0, "lat": 38.91670583333333, "bike_id": "c6a31c7e3f202352429170bfe0032328", "type": "electric_bike", "is_reserved": 0, "lon": -77.03856583333334}, {"fusion_lat": 0.0, "name": "c131d8b6d8facd86a2b424cae29b495a", "is_disabled": 0, "rental_uris": {"android": "https://dc.lft.to/lastmile_qr_scan", "ios": "https://dc.lft.to/lastmile_qr_scan"}, "fusion_lon": 0.0, "lat": 38.90652516666667, "bike_id": "c131d8b6d8facd86a2b424cae29b495a", "type": "electric_scooter", "is_reserved": 0, "lon": -77.050162}, {"fusion_lat": 0.0, "name": "7475f2d9944032003fdd13c311af281b", "is_disabled": 0, "rental_uris": {"android": "https://dc.lft.to/lastmile_qr_scan", "ios": "https://dc.lft.to/lastmile_qr_scan"}, "fusion_lon": 0.0, "lat": 38.91678516666666, "bike_id": "7475f2d9944032003fdd13c311af281b", "type": "electric_scooter", "is_reserved": 0, "lon": -77.01572516666667}, {"fusion_lat": 0.0, "name": "1c41196ce837e7b232ce02783b8fd826", "is_disabled": 0, "rental_uris": {"android": "https://dc.lft.to/lastmile_qr_scan", "ios": "https://dc.lft.to/lastmile_qr_scan"}, "fusion_lon": 0.0, "lat": 38.8920875, "bike_id": "1c41196ce837e7b232ce02783b8fd826", "type": "electric_scooter", "is_reserved": 0, "lon": -77.02653883333333}, {"fusion_lat": 0.0, "name": "f3b1e2b0b143cb817fdc62f5f858c2bd", "is_disabled": 0, "rental_uris": {"android": "https://dc.lft.to/lastmile_qr_scan", "ios": "https://dc.lft.to/lastmile_qr_scan"}, "fusion_lon": 0.0, "lat": 38.88731466666667, "bike_id": "f3b1e2b0b143cb817fdc62f5f858c2bd", "type": "electric_scooter", "is_reserved": 0, "lon": -77.0133775}, {"fusion_lat": 0.0, "name": "2f68f5af6415bdead4a8a1f6ecfb9db6", "is_disabled": 0, "rental_uris": {"android": "https://dc.lft.to/lastmile_qr_scan", "ios": "https://dc.lft.to/lastmile_qr_scan"}, "fusion_lon": 0.0, "lat": 38.924831833333336, "bike_id": "2f68f5af6415bdead4a8a1f6ecfb9db6", "type": "electric_scooter", "is_reserved": 0, "lon": -77.03042666666667}, {"fusion_lat": 0.0, "name": "0954337ec3a86b0e8d25667842b1a655", "is_disabled": 0, "rental_uris": {"android": "https://dc.lft.to/lastmile_qr_scan", "ios": "https://dc.lft.to/lastmile_qr_scan"}, "fusion_lon": 0.0, "lat": 38.924853166666665, "bike_id": "0954337ec3a86b0e8d25667842b1a655", "type": "electric_scooter", "is_reserved": 0, "lon": -77.02716683333334}, {"fusion_lat": 0.0, "name": "f7057611b9c343cc7f61a0125362270e", "is_disabled": 0, "rental_uris": {"android": "https://dc.lft.to/lastmile_qr_scan", "ios": "https://dc.lft.to/lastmile_qr_scan"}, "fusion_lon": 0.0, "lat": 38.91775666666667, "bike_id": "f7057611b9c343cc7f61a0125362270e", "type": "electric_scooter", "is_reserved": 0, "lon": -77.032145}, {"fusion_lat": 0.0, "name": "66dc8ec9877371b2ef494cc1400258d7", "is_disabled": 0, "rental_uris": {"android": "https://dc.lft.to/lastmile_qr_scan", "ios": "https://dc.lft.to/lastmile_qr_scan"}, "fusion_lon": 0.0, "lat": 38.87309466666667, "bike_id": "66dc8ec9877371b2ef494cc1400258d7", "type": "electric_scooter", "is_reserved": 0, "lon": -77.00136066666667}, {"fusion_lat": 0.0, "name": "5dd0d59ff73d98e5f1187f2d38750a12", "is_disabled": 0, "rental_uris": {"android": "https://dc.lft.to/lastmile_qr_scan", "ios": "https://dc.lft.to/lastmile_qr_scan"}, "fusion_lon": 0.0, "lat": 38.933499166666664, "bike_id": "5dd0d59ff73d98e5f1187f2d38750a12", "type": "electric_scooter", "is_reserved": 0, "lon": -77.061957}, {"fusion_lat": 0.0, "name": "6cc84f24b91dfa0561a8bdd83cd5de02", "is_disabled": 0, "rental_uris": {"android": "https://dc.lft.to/lastmile_qr_scan", "ios": "https://dc.lft.to/lastmile_qr_scan"}, "fusion_lon": 0.0, "lat": 38.90329083333334, "bike_id": "6cc84f24b91dfa0561a8bdd83cd5de02", "type": "electric_scooter", "is_reserved": 0, "lon": -77.06266783333334}, {"fusion_lat": 0.0, "name": "6672420fd04db684982aa47cadded738", "is_disabled": 0, "rental_uris": {"android": "https://dc.lft.to/lastmile_qr_scan", "ios": "https://dc.lft.to/lastmile_qr_scan"}, "fusion_lon": 0.0, "lat": 38.89547816666666, "bike_id": "6672420fd04db684982aa47cadded738", "type": "electric_scooter", "is_reserved": 0, "lon": -76.98094566666667}, {"fusion_lat": 0.0, "name": "0ad825cb5cf5068f2e99ff26e1a32e2d", "is_disabled": 0, "rental_uris": {"android": "https://dc.lft.to/lastmile_qr_scan", "ios": "https://dc.lft.to/lastmile_qr_scan"}, "fusion_lon": 0.0, "lat": 38.8845145, "bike_id": "0ad825cb5cf5068f2e99ff26e1a32e2d", "type": "electric_scooter", "is_reserved": 0, "lon": -76.9962375}, {"fusion_lat": 0.0, "name": "61af8f70101358fd145b4257c51437d6", "is_disabled": 0, "rental_uris": {"android": "https://dc.lft.to/lastmile_qr_scan", "ios": "https://dc.lft.to/lastmile_qr_scan"}, "fusion_lon": 0.0, "lat": 38.9254405, "bike_id": "61af8f70101358fd145b4257c51437d6", "type": "electric_bike", "is_reserved": 0, "lon": -77.07896616666666}, {"fusion_lat": 0.0, "name": "a683226f423cfbe73b4d9f167dbbe1ef", "is_disabled": 0, "rental_uris": {"android": "https://dc.lft.to/lastmile_qr_scan", "ios": "https://dc.lft.to/lastmile_qr_scan"}, "fusion_lon": 0.0, "lat": 38.901413, "bike_id": "a683226f423cfbe73b4d9f167dbbe1ef", "type": "electric_scooter", "is_reserved": 0, "lon": -77.039229}, {"fusion_lat": 0.0, "name": "f8693592e44c976814f6dfbe6c37a8a3", "is_disabled": 0, "rental_uris": {"android": "https://dc.lft.to/lastmile_qr_scan", "ios": "https://dc.lft.to/lastmile_qr_scan"}, "fusion_lon": 0.0, "lat": 38.9100855, "bike_id": "f8693592e44c976814f6dfbe6c37a8a3", "type": "electric_scooter", "is_reserved": 0, "lon": -77.049109}, {"fusion_lat": 0.0, "name": "389d539ab20b9aa98afaffc748b63df6", "is_disabled": 0, "rental_uris": {"android": "https://dc.lft.to/lastmile_qr_scan", "ios": "https://dc.lft.to/lastmile_qr_scan"}, "fusion_lon": 0.0, "lat": 38.847575, "bike_id": "389d539ab20b9aa98afaffc748b63df6", "type": "electric_scooter", "is_reserved": 0, "lon": -76.99499816666666}, {"fusion_lat": 0.0, "name": "6dfff1b80106f5ec27fa8db3446fd843", "is_disabled": 0, "rental_uris": {"android": "https://dc.lft.to/lastmile_qr_scan", "ios": "https://dc.lft.to/lastmile_qr_scan"}, "fusion_lon": 0.0, "lat": 38.9249825, "bike_id": "6dfff1b80106f5ec27fa8db3446fd843", "type": "electric_scooter", "is_reserved": 0, "lon": -77.02164333333333}, {"fusion_lat": 0.0, "name": "f3336d83e82a2e5def5fc4b4aeac1e11", "is_disabled": 0, "rental_uris": {"android": "https://dc.lft.to/lastmile_qr_scan", "ios": "https://dc.lft.to/lastmile_qr_scan"}, "fusion_lon": 0.0, "lat": 38.900390333333334, "bike_id": "f3336d83e82a2e5def5fc4b4aeac1e11", "type": "electric_scooter", "is_reserved": 0, "lon": -77.03819383333334}, {"fusion_lat": 0.0, "name": "dfc3044cdd571429c703d1b230195d35", "is_disabled": 0, "rental_uris": {"android": "https://dc.lft.to/lastmile_qr_scan", "ios": "https://dc.lft.to/lastmile_qr_scan"}, "fusion_lon": 0.0, "lat": 38.927523666666666, "bike_id": "dfc3044cdd571429c703d1b230195d35", "type": "electric_scooter", "is_reserved": 0, "lon": -77.03277166666666}, {"fusion_lat": 0.0, "name": "6451d2088e9289b507a5153b64e4685b", "is_disabled": 0, "rental_uris": {"android": "https://dc.lft.to/lastmile_qr_scan", "ios": "https://dc.lft.to/lastmile_qr_scan"}, "fusion_lon": 0.0, "lat": 38.901391, "bike_id": "6451d2088e9289b507a5153b64e4685b", "type": "electric_scooter", "is_reserved": 0, "lon": -77.02612166666667}, {"fusion_lat": 0.0, "name": "543664841d92f1e5d70c9ad1884defca", "is_disabled": 0, "rental_uris": {"android": "https://dc.lft.to/lastmile_qr_scan", "ios": "https://dc.lft.to/lastmile_qr_scan"}, "fusion_lon": 0.0, "lat": 38.923448666666665, "bike_id": "543664841d92f1e5d70c9ad1884defca", "type": "electric_scooter", "is_reserved": 0, "lon": -77.05175183333333}, {"fusion_lat": 0.0, "name": "6c0080283c751954c69234f1a1f15cc1", "is_disabled": 0, "rental_uris": {"android": "https://dc.lft.to/lastmile_qr_scan", "ios": "https://dc.lft.to/lastmile_qr_scan"}, "fusion_lon": 0.0, "lat": 38.89918383333333, "bike_id": "6c0080283c751954c69234f1a1f15cc1", "type": "electric_scooter", "is_reserved": 0, "lon": -76.933459}, {"fusion_lat": 0.0, "name": "0dd4b395bcdc59b8256cd7bfd44c9036", "is_disabled": 0, "rental_uris": {"android": "https://dc.lft.to/lastmile_qr_scan", "ios": "https://dc.lft.to/lastmile_qr_scan"}, "fusion_lon": 0.0, "lat": 38.887481666666666, "bike_id": "0dd4b395bcdc59b8256cd7bfd44c9036", "type": "electric_scooter", "is_reserved": 0, "lon": -77.02780916666667}, {"fusion_lat": 0.0, "name": "1c3b3db28beb984f95882a67a7fb71fc", "is_disabled": 0, "rental_uris": {"android": "https://dc.lft.to/lastmile_qr_scan", "ios": "https://dc.lft.to/lastmile_qr_scan"}, "fusion_lon": 0.0, "lat": 39.0525875, "bike_id": "1c3b3db28beb984f95882a67a7fb71fc", "type": "electric_bike", "is_reserved": 0, "lon": -77.08064033333333}, {"fusion_lat": 0.0, "name": "e5d5eedcdbd42d746ca656e6b90d3af5", "is_disabled": 0, "rental_uris": {"android": "https://dc.lft.to/lastmile_qr_scan", "ios": "https://dc.lft.to/lastmile_qr_scan"}, "fusion_lon": 0.0, "lat": 38.93900566666667, "bike_id": "e5d5eedcdbd42d746ca656e6b90d3af5", "type": "electric_scooter", "is_reserved": 0, "lon": -77.08492266666667}, {"fusion_lat": 0.0, "name": "6e49925f663ffd4cfc87da2622862501", "is_disabled": 0, "rental_uris": {"android": "https://dc.lft.to/lastmile_qr_scan", "ios": "https://dc.lft.to/lastmile_qr_scan"}, "fusion_lon": 0.0, "lat": 38.90724016666667, "bike_id": "6e49925f663ffd4cfc87da2622862501", "type": "electric_scooter", "is_reserved": 0, "lon": -77.04159283333334}, {"fusion_lat": 0.0, "name": "7e7f95089b9fdcc4267c9b128f931063", "is_disabled": 0, "rental_uris": {"android": "https://dc.lft.to/lastmile_qr_scan", "ios": "https://dc.lft.to/lastmile_qr_scan"}, "fusion_lon": 0.0, "lat": 38.9074125, "bike_id": "7e7f95089b9fdcc4267c9b128f931063", "type": "electric_scooter", "is_reserved": 0, "lon": -77.02385166666667}, {"fusion_lat": 0.0, "name": "a85ce7ad0f0ead57c9409ec5bdafb4b1", "is_disabled": 0, "rental_uris": {"android": "https://dc.lft.to/lastmile_qr_scan", "ios": "https://dc.lft.to/lastmile_qr_scan"}, "fusion_lon": 0.0, "lat": 38.93052183333333, "bike_id": "a85ce7ad0f0ead57c9409ec5bdafb4b1", "type": "electric_scooter", "is_reserved": 0, "lon": -77.03213083333333}, {"fusion_lat": 0.0, "name": "5e0cbfbe41c7600570728ea19fd163db", "is_disabled": 0, "rental_uris": {"android": "https://dc.lft.to/lastmile_qr_scan", "ios": "https://dc.lft.to/lastmile_qr_scan"}, "fusion_lon": 0.0, "lat": 38.924164, "bike_id": "5e0cbfbe41c7600570728ea19fd163db", "type": "electric_scooter", "is_reserved": 0, "lon": -77.02194583333333}, {"fusion_lat": 0.0, "name": "b374c01eacb4ddd58847e76e33f83eef", "is_disabled": 0, "rental_uris": {"android": "https://dc.lft.to/lastmile_qr_scan", "ios": "https://dc.lft.to/lastmile_qr_scan"}, "fusion_lon": 0.0, "lat": 38.94090633333333, "bike_id": "b374c01eacb4ddd58847e76e33f83eef", "type": "electric_scooter", "is_reserved": 0, "lon": -77.02639183333334}, {"fusion_lat": 0.0, "name": "a75c043f9b77ead0c8fd9e88e736fc67", "is_disabled": 0, "rental_uris": {"android": "https://dc.lft.to/lastmile_qr_scan", "ios": "https://dc.lft.to/lastmile_qr_scan"}, "fusion_lon": 0.0, "lat": 38.878342, "bike_id": "a75c043f9b77ead0c8fd9e88e736fc67", "type": "electric_scooter", "is_reserved": 0, "lon": -76.96318783333334}, {"fusion_lat": 0.0, "name": "fda43fac5684a33478209e19c91f40cf", "is_disabled": 0, "rental_uris": {"android": "https://dc.lft.to/lastmile_qr_scan", "ios": "https://dc.lft.to/lastmile_qr_scan"}, "fusion_lon": 0.0, "lat": 38.90514783333333, "bike_id": "fda43fac5684a33478209e19c91f40cf", "type": "electric_scooter", "is_reserved": 0, "lon": -77.05125883333334}, {"fusion_lat": 0.0, "name": "467084f7e1de878a17f3936e8658622a", "is_disabled": 0, "rental_uris": {"android": "https://dc.lft.to/lastmile_qr_scan", "ios": "https://dc.lft.to/lastmile_qr_scan"}, "fusion_lon": 0.0, "lat": 38.920526333333335, "bike_id": "467084f7e1de878a17f3936e8658622a", "type": "electric_scooter", "is_reserved": 0, "lon": -77.0236715}, {"fusion_lat": 0.0, "name": "8a5d783f452328ec553e4687c373feec", "is_disabled": 0, "rental_uris": {"android": "https://dc.lft.to/lastmile_qr_scan", "ios": "https://dc.lft.to/lastmile_qr_scan"}, "fusion_lon": 0.0, "lat": 38.917163, "bike_id": "8a5d783f452328ec553e4687c373feec", "type": "electric_scooter", "is_reserved": 0, "lon": -77.02409933333334}, {"fusion_lat": 0.0, "name": "707e2036e372355334bce09ad7326a7b", "is_disabled": 0, "rental_uris": {"android": "https://dc.lft.to/lastmile_qr_scan", "ios": "https://dc.lft.to/lastmile_qr_scan"}, "fusion_lon": 0.0, "lat": 38.87376, "bike_id": "707e2036e372355334bce09ad7326a7b", "type": "electric_scooter", "is_reserved": 0, "lon": -77.00042083333334}, {"fusion_lat": 0.0, "name": "31fb81ee36a62912deccf4f9235dc31e", "is_disabled": 0, "rental_uris": {"android": "https://dc.lft.to/lastmile_qr_scan", "ios": "https://dc.lft.to/lastmile_qr_scan"}, "fusion_lon": 0.0, "lat": 38.87085616666667, "bike_id": "31fb81ee36a62912deccf4f9235dc31e", "type": "electric_scooter", "is_reserved": 0, "lon": -76.965687}, {"fusion_lat": 0.0, "name": "eb85ae5b0ff120e6f79a5c10fdb0b680", "is_disabled": 0, "rental_uris": {"android": "https://dc.lft.to/lastmile_qr_scan", "ios": "https://dc.lft.to/lastmile_qr_scan"}, "fusion_lon": 0.0, "lat": 38.903547, "bike_id": "eb85ae5b0ff120e6f79a5c10fdb0b680", "type": "electric_scooter", "is_reserved": 0, "lon": -77.04277766666667}, {"fusion_lat": 0.0, "name": "c85eed4fa988e9f6ffac88ae76f341d7", "is_disabled": 0, "rental_uris": {"android": "https://dc.lft.to/lastmile_qr_scan", "ios": "https://dc.lft.to/lastmile_qr_scan"}, "fusion_lon": 0.0, "lat": 38.9206095, "bike_id": "c85eed4fa988e9f6ffac88ae76f341d7", "type": "electric_scooter", "is_reserved": 0, "lon": -77.0339485}, {"fusion_lat": 0.0, "name": "911bbea85e61de1cc503fdfe8de23963", "is_disabled": 0, "rental_uris": {"android": "https://dc.lft.to/lastmile_qr_scan", "ios": "https://dc.lft.to/lastmile_qr_scan"}, "fusion_lon": 0.0, "lat": 38.900907333333336, "bike_id": "911bbea85e61de1cc503fdfe8de23963", "type": "electric_scooter", "is_reserved": 0, "lon": -77.05012733333334}, {"fusion_lat": 0.0, "name": "21a4ed980455eb7cb22146abd387f862", "is_disabled": 0, "rental_uris": {"android": "https://dc.lft.to/lastmile_qr_scan", "ios": "https://dc.lft.to/lastmile_qr_scan"}, "fusion_lon": 0.0, "lat": 38.9127835, "bike_id": "21a4ed980455eb7cb22146abd387f862", "type": "electric_scooter", "is_reserved": 0, "lon": -77.0359015}, {"fusion_lat": 0.0, "name": "4c39ee598659ee8e53c973c921c13e40", "is_disabled": 0, "rental_uris": {"android": "https://dc.lft.to/lastmile_qr_scan", "ios": "https://dc.lft.to/lastmile_qr_scan"}, "fusion_lon": 0.0, "lat": 38.8828445, "bike_id": "4c39ee598659ee8e53c973c921c13e40", "type": "electric_scooter", "is_reserved": 0, "lon": -76.9613175}, {"fusion_lat": 0.0, "name": "c3e670244543834a6c3e609289bfb2a5", "is_disabled": 0, "rental_uris": {"android": "https://dc.lft.to/lastmile_qr_scan", "ios": "https://dc.lft.to/lastmile_qr_scan"}, "fusion_lon": 0.0, "lat": 38.933540666666666, "bike_id": "c3e670244543834a6c3e609289bfb2a5", "type": "electric_scooter", "is_reserved": 0, "lon": -77.07356683333333}, {"fusion_lat": 0.0, "name": "aec163d2ad01c83c6bbeb6255930005e", "is_disabled": 0, "rental_uris": {"android": "https://dc.lft.to/lastmile_qr_scan", "ios": "https://dc.lft.to/lastmile_qr_scan"}, "fusion_lon": 0.0, "lat": 38.915493833333336, "bike_id": "aec163d2ad01c83c6bbeb6255930005e", "type": "electric_scooter", "is_reserved": 0, "lon": -77.04149}, {"fusion_lat": 0.0, "name": "a4f4beb7417aae34299ceb9ad490772e", "is_disabled": 0, "rental_uris": {"android": "https://dc.lft.to/lastmile_qr_scan", "ios": "https://dc.lft.to/lastmile_qr_scan"}, "fusion_lon": 0.0, "lat": 38.915523666666665, "bike_id": "a4f4beb7417aae34299ceb9ad490772e", "type": "electric_scooter", "is_reserved": 0, "lon": -77.04157183333334}, {"fusion_lat": 0.0, "name": "72cfc9c50a45a0199acf5168623bb5af", "is_disabled": 0, "rental_uris": {"android": "https://dc.lft.to/lastmile_qr_scan", "ios": "https://dc.lft.to/lastmile_qr_scan"}, "fusion_lon": 0.0, "lat": 38.91709483333333, "bike_id": "72cfc9c50a45a0199acf5168623bb5af", "type": "electric_scooter", "is_reserved": 0, "lon": -77.02617733333334}, {"fusion_lat": 0.0, "name": "83c00d174d30ae23b85014820e65a3cb", "is_disabled": 0, "rental_uris": {"android": "https://dc.lft.to/lastmile_qr_scan", "ios": "https://dc.lft.to/lastmile_qr_scan"}, "fusion_lon": 0.0, "lat": 38.91840033333333, "bike_id": "83c00d174d30ae23b85014820e65a3cb", "type": "electric_scooter", "is_reserved": 0, "lon": -77.016142}, {"fusion_lat": 0.0, "name": "2c2fb6b96fe199a069e5bb7f8347c876", "is_disabled": 0, "rental_uris": {"android": "https://dc.lft.to/lastmile_qr_scan", "ios": "https://dc.lft.to/lastmile_qr_scan"}, "fusion_lon": 0.0, "lat": 38.849265833333334, "bike_id": "2c2fb6b96fe199a069e5bb7f8347c876", "type": "electric_bike", "is_reserved": 0, "lon": -77.07754783333333}, {"fusion_lat": 0.0, "name": "8d19dbd77e6e502101d995a0b3c1d88a", "is_disabled": 0, "rental_uris": {"android": "https://dc.lft.to/lastmile_qr_scan", "ios": "https://dc.lft.to/lastmile_qr_scan"}, "fusion_lon": 0.0, "lat": 38.920221833333336, "bike_id": "8d19dbd77e6e502101d995a0b3c1d88a", "type": "electric_scooter", "is_reserved": 0, "lon": -77.08190633333334}, {"fusion_lat": 0.0, "name": "d016d962d8299b2d9715b3e9db3eab75", "is_disabled": 0, "rental_uris": {"android": "https://dc.lft.to/lastmile_qr_scan", "ios": "https://dc.lft.to/lastmile_qr_scan"}, "fusion_lon": 0.0, "lat": 38.92062933333333, "bike_id": "d016d962d8299b2d9715b3e9db3eab75", "type": "electric_scooter", "is_reserved": 0, "lon": -77.031954}, {"fusion_lat": 0.0, "name": "ae4e69e1306100ea614816fe1d0c20fb", "is_disabled": 0, "rental_uris": {"android": "https://dc.lft.to/lastmile_qr_scan", "ios": "https://dc.lft.to/lastmile_qr_scan"}, "fusion_lon": 0.0, "lat": 38.91705566666667, "bike_id": "ae4e69e1306100ea614816fe1d0c20fb", "type": "electric_scooter", "is_reserved": 0, "lon": -77.024441}, {"fusion_lat": 0.0, "name": "3d364359abb83cf7d36a6b7d851997d4", "is_disabled": 0, "rental_uris": {"android": "https://dc.lft.to/lastmile_qr_scan", "ios": "https://dc.lft.to/lastmile_qr_scan"}, "fusion_lon": 0.0, "lat": 38.96444866666667, "bike_id": "3d364359abb83cf7d36a6b7d851997d4", "type": "electric_bike", "is_reserved": 0, "lon": -77.02067533333333}, {"fusion_lat": 0.0, "name": "d1c47c200ca1dbeef34ee63947626f46", "is_disabled": 0, "rental_uris": {"android": "https://dc.lft.to/lastmile_qr_scan", "ios": "https://dc.lft.to/lastmile_qr_scan"}, "fusion_lon": 0.0, "lat": 38.918066333333336, "bike_id": "d1c47c200ca1dbeef34ee63947626f46", "type": "electric_scooter", "is_reserved": 0, "lon": -77.02682383333334}, {"fusion_lat": 0.0, "name": "a5767303bb8e4d3ac36c5d7265a63ada", "is_disabled": 0, "rental_uris": {"android": "https://dc.lft.to/lastmile_qr_scan", "ios": "https://dc.lft.to/lastmile_qr_scan"}, "fusion_lon": 0.0, "lat": 38.920050333333336, "bike_id": "a5767303bb8e4d3ac36c5d7265a63ada", "type": "electric_scooter", "is_reserved": 0, "lon": -77.0319255}, {"fusion_lat": 0.0, "name": "cabe2b2143d9c68bdd3361b9db67d5ad", "is_disabled": 0, "rental_uris": {"android": "https://dc.lft.to/lastmile_qr_scan", "ios": "https://dc.lft.to/lastmile_qr_scan"}, "fusion_lon": 0.0, "lat": 38.89912, "bike_id": "cabe2b2143d9c68bdd3361b9db67d5ad", "type": "electric_scooter", "is_reserved": 0, "lon": -76.94584866666666}, {"fusion_lat": 0.0, "name": "a714575b47d5e7b7207da18ffdc9cd1c", "is_disabled": 0, "rental_uris": {"android": "https://dc.lft.to/lastmile_qr_scan", "ios": "https://dc.lft.to/lastmile_qr_scan"}, "fusion_lon": 0.0, "lat": 38.91512783333334, "bike_id": "a714575b47d5e7b7207da18ffdc9cd1c", "type": "electric_scooter", "is_reserved": 0, "lon": -77.019047}, {"fusion_lat": 0.0, "name": "9f5b3c96b6176f8b6f33315b88a31f7b", "is_disabled": 0, "rental_uris": {"android": "https://dc.lft.to/lastmile_qr_scan", "ios": "https://dc.lft.to/lastmile_qr_scan"}, "fusion_lon": 0.0, "lat": 38.90581, "bike_id": "9f5b3c96b6176f8b6f33315b88a31f7b", "type": "electric_scooter", "is_reserved": 0, "lon": -77.0090105}, {"fusion_lat": 0.0, "name": "9d0cd1c59f77a23294e87022c9dd3884", "is_disabled": 0, "rental_uris": {"android": "https://dc.lft.to/lastmile_qr_scan", "ios": "https://dc.lft.to/lastmile_qr_scan"}, "fusion_lon": 0.0, "lat": 38.9354105, "bike_id": "9d0cd1c59f77a23294e87022c9dd3884", "type": "electric_scooter", "is_reserved": 0, "lon": -77.0574755}, {"fusion_lat": 0.0, "name": "b0c7d60b2351d4334a7826975c7f9dd5", "is_disabled": 0, "rental_uris": {"android": "https://dc.lft.to/lastmile_qr_scan", "ios": "https://dc.lft.to/lastmile_qr_scan"}, "fusion_lon": 0.0, "lat": 38.911043, "bike_id": "b0c7d60b2351d4334a7826975c7f9dd5", "type": "electric_scooter", "is_reserved": 0, "lon": -77.04202133333334}, {"fusion_lat": 0.0, "name": "71bc48cb0f8fae2c98b7ed7bd37c67a6", "is_disabled": 0, "rental_uris": {"android": "https://dc.lft.to/lastmile_qr_scan", "ios": "https://dc.lft.to/lastmile_qr_scan"}, "fusion_lon": 0.0, "lat": 38.91714866666667, "bike_id": "71bc48cb0f8fae2c98b7ed7bd37c67a6", "type": "electric_scooter", "is_reserved": 0, "lon": -77.025923}, {"fusion_lat": 0.0, "name": "0a4c7ee4737ef6d768ef6c68d0e73b27", "is_disabled": 0, "rental_uris": {"android": "https://dc.lft.to/lastmile_qr_scan", "ios": "https://dc.lft.to/lastmile_qr_scan"}, "fusion_lon": 0.0, "lat": 38.91619516666667, "bike_id": "0a4c7ee4737ef6d768ef6c68d0e73b27", "type": "electric_scooter", "is_reserved": 0, "lon": -77.03194983333333}, {"fusion_lat": 0.0, "name": "0e008058c0f5618dc82b2c563daf15b2", "is_disabled": 0, "rental_uris": {"android": "https://dc.lft.to/lastmile_qr_scan", "ios": "https://dc.lft.to/lastmile_qr_scan"}, "fusion_lon": 0.0, "lat": 38.903972, "bike_id": "0e008058c0f5618dc82b2c563daf15b2", "type": "electric_scooter", "is_reserved": 0, "lon": -76.9894335}, {"fusion_lat": 0.0, "name": "7fd130045371b4691b0e00c59e97b40d", "is_disabled": 0, "rental_uris": {"android": "https://dc.lft.to/lastmile_qr_scan", "ios": "https://dc.lft.to/lastmile_qr_scan"}, "fusion_lon": 0.0, "lat": 38.9086585, "bike_id": "7fd130045371b4691b0e00c59e97b40d", "type": "electric_scooter", "is_reserved": 0, "lon": -77.0331235}, {"fusion_lat": 0.0, "name": "3ca341b0e78aab58e266ce12365d0316", "is_disabled": 0, "rental_uris": {"android": "https://dc.lft.to/lastmile_qr_scan", "ios": "https://dc.lft.to/lastmile_qr_scan"}, "fusion_lon": 0.0, "lat": 38.89984966666667, "bike_id": "3ca341b0e78aab58e266ce12365d0316", "type": "electric_scooter", "is_reserved": 0, "lon": -77.027548}, {"fusion_lat": 0.0, "name": "63a4a53490f2e53ba580205bbc22a8bc", "is_disabled": 0, "rental_uris": {"android": "https://dc.lft.to/lastmile_qr_scan", "ios": "https://dc.lft.to/lastmile_qr_scan"}, "fusion_lon": 0.0, "lat": 38.89689833333333, "bike_id": "63a4a53490f2e53ba580205bbc22a8bc", "type": "electric_scooter", "is_reserved": 0, "lon": -76.9371505}, {"fusion_lat": 0.0, "name": "e6332c8a9c7912d09a7bd3a5208bc59e", "is_disabled": 0, "rental_uris": {"android": "https://dc.lft.to/lastmile_qr_scan", "ios": "https://dc.lft.to/lastmile_qr_scan"}, "fusion_lon": 0.0, "lat": 38.92411233333333, "bike_id": "e6332c8a9c7912d09a7bd3a5208bc59e", "type": "electric_scooter", "is_reserved": 0, "lon": -77.0525}, {"fusion_lat": 0.0, "name": "2737ba930ae3825222d455b83b2a4384", "is_disabled": 0, "rental_uris": {"android": "https://dc.lft.to/lastmile_qr_scan", "ios": "https://dc.lft.to/lastmile_qr_scan"}, "fusion_lon": 0.0, "lat": 38.95056733333333, "bike_id": "2737ba930ae3825222d455b83b2a4384", "type": "electric_scooter", "is_reserved": 0, "lon": -77.0802835}, {"fusion_lat": 0.0, "name": "54e056ff69190b445249452511be2e8a", "is_disabled": 0, "rental_uris": {"android": "https://dc.lft.to/lastmile_qr_scan", "ios": "https://dc.lft.to/lastmile_qr_scan"}, "fusion_lon": 0.0, "lat": 38.875798333333336, "bike_id": "54e056ff69190b445249452511be2e8a", "type": "electric_bike", "is_reserved": 0, "lon": -77.234094}, {"fusion_lat": 0.0, "name": "3ed1ddb875aef4d2529708c7ce301575", "is_disabled": 0, "rental_uris": {"android": "https://dc.lft.to/lastmile_qr_scan", "ios": "https://dc.lft.to/lastmile_qr_scan"}, "fusion_lon": 0.0, "lat": 38.896294833333336, "bike_id": "3ed1ddb875aef4d2529708c7ce301575", "type": "electric_scooter", "is_reserved": 0, "lon": -77.00941416666667}, {"fusion_lat": 0.0, "name": "a1b8ac1c93d2ff008b59cd0ee1b54519", "is_disabled": 0, "rental_uris": {"android": "https://dc.lft.to/lastmile_qr_scan", "ios": "https://dc.lft.to/lastmile_qr_scan"}, "fusion_lon": 0.0, "lat": 38.91768583333333, "bike_id": "a1b8ac1c93d2ff008b59cd0ee1b54519", "type": "electric_scooter", "is_reserved": 0, "lon": -77.01472216666667}, {"fusion_lat": 0.0, "name": "f5aec400f3389d66b531c681af3869df", "is_disabled": 0, "rental_uris": {"android": "https://dc.lft.to/lastmile_qr_scan", "ios": "https://dc.lft.to/lastmile_qr_scan"}, "fusion_lon": 0.0, "lat": 38.92152183333334, "bike_id": "f5aec400f3389d66b531c681af3869df", "type": "electric_scooter", "is_reserved": 0, "lon": -77.04009466666666}, {"fusion_lat": 0.0, "name": "6e838fdc311ff1f7b851adc72e6331ce", "is_disabled": 0, "rental_uris": {"android": "https://dc.lft.to/lastmile_qr_scan", "ios": "https://dc.lft.to/lastmile_qr_scan"}, "fusion_lon": 0.0, "lat": 38.8836565, "bike_id": "6e838fdc311ff1f7b851adc72e6331ce", "type": "electric_scooter", "is_reserved": 0, "lon": -77.019605}, {"fusion_lat": 0.0, "name": "70481d656c53e4fe627a1e641d345e45", "is_disabled": 0, "rental_uris": {"android": "https://dc.lft.to/lastmile_qr_scan", "ios": "https://dc.lft.to/lastmile_qr_scan"}, "fusion_lon": 0.0, "lat": 38.941767166666665, "bike_id": "70481d656c53e4fe627a1e641d345e45", "type": "electric_scooter", "is_reserved": 0, "lon": -77.03652716666667}, {"fusion_lat": 0.0, "name": "9ac228842650db9174969f6276697671", "is_disabled": 0, "rental_uris": {"android": "https://dc.lft.to/lastmile_qr_scan", "ios": "https://dc.lft.to/lastmile_qr_scan"}, "fusion_lon": 0.0, "lat": 38.90385916666666, "bike_id": "9ac228842650db9174969f6276697671", "type": "electric_scooter", "is_reserved": 0, "lon": -76.99005933333333}, {"fusion_lat": 0.0, "name": "aeef1a6a92477ef4f06f716a3c8ffa5f", "is_disabled": 0, "rental_uris": {"android": "https://dc.lft.to/lastmile_qr_scan", "ios": "https://dc.lft.to/lastmile_qr_scan"}, "fusion_lon": 0.0, "lat": 38.91817, "bike_id": "aeef1a6a92477ef4f06f716a3c8ffa5f", "type": "electric_scooter", "is_reserved": 0, "lon": -77.04004316666666}, {"fusion_lat": 0.0, "name": "728c2bc6ce0e5d8d7a46de88ba43133e", "is_disabled": 0, "rental_uris": {"android": "https://dc.lft.to/lastmile_qr_scan", "ios": "https://dc.lft.to/lastmile_qr_scan"}, "fusion_lon": 0.0, "lat": 38.90095816666667, "bike_id": "728c2bc6ce0e5d8d7a46de88ba43133e", "type": "electric_scooter", "is_reserved": 0, "lon": -77.01973366666667}, {"fusion_lat": 0.0, "name": "77c03f1cc2f6d57f83abf990ddab65cd", "is_disabled": 0, "rental_uris": {"android": "https://dc.lft.to/lastmile_qr_scan", "ios": "https://dc.lft.to/lastmile_qr_scan"}, "fusion_lon": 0.0, "lat": 38.857921833333336, "bike_id": "77c03f1cc2f6d57f83abf990ddab65cd", "type": "electric_bike", "is_reserved": 0, "lon": -76.987247}, {"fusion_lat": 0.0, "name": "884d216e16cd4106c233b6d7f3460c29", "is_disabled": 0, "rental_uris": {"android": "https://dc.lft.to/lastmile_qr_scan", "ios": "https://dc.lft.to/lastmile_qr_scan"}, "fusion_lon": 0.0, "lat": 38.923862, "bike_id": "884d216e16cd4106c233b6d7f3460c29", "type": "electric_scooter", "is_reserved": 0, "lon": -77.0366585}, {"fusion_lat": 0.0, "name": "ce54ced38b050f38d063a4b5dcc987ab", "is_disabled": 0, "rental_uris": {"android": "https://dc.lft.to/lastmile_qr_scan", "ios": "https://dc.lft.to/lastmile_qr_scan"}, "fusion_lon": 0.0, "lat": 38.920589, "bike_id": "ce54ced38b050f38d063a4b5dcc987ab", "type": "electric_scooter", "is_reserved": 0, "lon": -77.0324475}, {"fusion_lat": 0.0, "name": "718839610f34d702f115444743b3c839", "is_disabled": 0, "rental_uris": {"android": "https://dc.lft.to/lastmile_qr_scan", "ios": "https://dc.lft.to/lastmile_qr_scan"}, "fusion_lon": 0.0, "lat": 38.921993, "bike_id": "718839610f34d702f115444743b3c839", "type": "electric_scooter", "is_reserved": 0, "lon": -76.9968215}, {"fusion_lat": 0.0, "name": "2f46f20ffa12910920436191ab72a9a3", "is_disabled": 0, "rental_uris": {"android": "https://dc.lft.to/lastmile_qr_scan", "ios": "https://dc.lft.to/lastmile_qr_scan"}, "fusion_lon": 0.0, "lat": 38.895467833333335, "bike_id": "2f46f20ffa12910920436191ab72a9a3", "type": "electric_scooter", "is_reserved": 0, "lon": -76.98339333333334}, {"fusion_lat": 0.0, "name": "1cffafed75c8c8a0e37fb5c1b2bf3c9c", "is_disabled": 0, "rental_uris": {"android": "https://dc.lft.to/lastmile_qr_scan", "ios": "https://dc.lft.to/lastmile_qr_scan"}, "fusion_lon": 0.0, "lat": 38.862565333333336, "bike_id": "1cffafed75c8c8a0e37fb5c1b2bf3c9c", "type": "electric_bike", "is_reserved": 0, "lon": -76.9833495}, {"fusion_lat": 0.0, "name": "318e1b2d69b158c1969fb2bfea190047", "is_disabled": 0, "rental_uris": {"android": "https://dc.lft.to/lastmile_qr_scan", "ios": "https://dc.lft.to/lastmile_qr_scan"}, "fusion_lon": 0.0, "lat": 38.90068333333333, "bike_id": "318e1b2d69b158c1969fb2bfea190047", "type": "electric_scooter", "is_reserved": 0, "lon": -76.933897}, {"fusion_lat": 0.0, "name": "08daa151aa144529dbfe46cd8724fa72", "is_disabled": 0, "rental_uris": {"android": "https://dc.lft.to/lastmile_qr_scan", "ios": "https://dc.lft.to/lastmile_qr_scan"}, "fusion_lon": 0.0, "lat": 38.87701883333333, "bike_id": "08daa151aa144529dbfe46cd8724fa72", "type": "electric_scooter", "is_reserved": 0, "lon": -77.005584}, {"fusion_lat": 0.0, "name": "0cfada31f85b79455836cbb44ec60aff", "is_disabled": 0, "rental_uris": {"android": "https://dc.lft.to/lastmile_qr_scan", "ios": "https://dc.lft.to/lastmile_qr_scan"}, "fusion_lon": 0.0, "lat": 38.90522466666667, "bike_id": "0cfada31f85b79455836cbb44ec60aff", "type": "electric_scooter", "is_reserved": 0, "lon": -77.0478275}, {"fusion_lat": 0.0, "name": "66ce743d615f4520923f67cac5d2534f", "is_disabled": 0, "rental_uris": {"android": "https://dc.lft.to/lastmile_qr_scan", "ios": "https://dc.lft.to/lastmile_qr_scan"}, "fusion_lon": 0.0, "lat": 38.9238785, "bike_id": "66ce743d615f4520923f67cac5d2534f", "type": "electric_scooter", "is_reserved": 0, "lon": -77.03552383333333}, {"fusion_lat": 0.0, "name": "433ff48a05bf095b5ec149c779ed3313", "is_disabled": 0, "rental_uris": {"android": "https://dc.lft.to/lastmile_qr_scan", "ios": "https://dc.lft.to/lastmile_qr_scan"}, "fusion_lon": 0.0, "lat": 38.898314666666664, "bike_id": "433ff48a05bf095b5ec149c779ed3313", "type": "electric_scooter", "is_reserved": 0, "lon": -76.94633}, {"fusion_lat": 0.0, "name": "a1c95b18f70bebcfc576085783a1b85a", "is_disabled": 0, "rental_uris": {"android": "https://dc.lft.to/lastmile_qr_scan", "ios": "https://dc.lft.to/lastmile_qr_scan"}, "fusion_lon": 0.0, "lat": 38.90623816666667, "bike_id": "a1c95b18f70bebcfc576085783a1b85a", "type": "electric_scooter", "is_reserved": 0, "lon": -77.02601333333334}, {"fusion_lat": 0.0, "name": "f6400cd675f682a8bece9ddf469d2ea8", "is_disabled": 0, "rental_uris": {"android": "https://dc.lft.to/lastmile_qr_scan", "ios": "https://dc.lft.to/lastmile_qr_scan"}, "fusion_lon": 0.0, "lat": 38.876546166666664, "bike_id": "f6400cd675f682a8bece9ddf469d2ea8", "type": "electric_scooter", "is_reserved": 0, "lon": -77.00076883333334}, {"fusion_lat": 0.0, "name": "99fa2fc7ac0fe9055e045585af340328", "is_disabled": 0, "rental_uris": {"android": "https://dc.lft.to/lastmile_qr_scan", "ios": "https://dc.lft.to/lastmile_qr_scan"}, "fusion_lon": 0.0, "lat": 38.902717, "bike_id": "99fa2fc7ac0fe9055e045585af340328", "type": "electric_scooter", "is_reserved": 0, "lon": -77.0176675}, {"fusion_lat": 0.0, "name": "c80ed389daed2c4058f9f7106e1085b5", "is_disabled": 0, "rental_uris": {"android": "https://dc.lft.to/lastmile_qr_scan", "ios": "https://dc.lft.to/lastmile_qr_scan"}, "fusion_lon": 0.0, "lat": 38.90509983333333, "bike_id": "c80ed389daed2c4058f9f7106e1085b5", "type": "electric_scooter", "is_reserved": 0, "lon": -77.048179}, {"fusion_lat": 0.0, "name": "05c875c5733a9b850b369f757a4ddea6", "is_disabled": 0, "rental_uris": {"android": "https://dc.lft.to/lastmile_qr_scan", "ios": "https://dc.lft.to/lastmile_qr_scan"}, "fusion_lon": 0.0, "lat": 38.907545999999996, "bike_id": "05c875c5733a9b850b369f757a4ddea6", "type": "electric_scooter", "is_reserved": 0, "lon": -77.04334833333333}, {"fusion_lat": 0.0, "name": "9468ef559d18eff17062a653facff472", "is_disabled": 0, "rental_uris": {"android": "https://dc.lft.to/lastmile_qr_scan", "ios": "https://dc.lft.to/lastmile_qr_scan"}, "fusion_lon": 0.0, "lat": 38.88929, "bike_id": "9468ef559d18eff17062a653facff472", "type": "electric_bike", "is_reserved": 0, "lon": -76.99174766666667}, {"fusion_lat": 0.0, "name": "dee5ac434dfa23c5e2b5274bcb0f9a47", "is_disabled": 0, "rental_uris": {"android": "https://dc.lft.to/lastmile_qr_scan", "ios": "https://dc.lft.to/lastmile_qr_scan"}, "fusion_lon": 0.0, "lat": 38.91002433333333, "bike_id": "dee5ac434dfa23c5e2b5274bcb0f9a47", "type": "electric_scooter", "is_reserved": 0, "lon": -77.02197}, {"fusion_lat": 0.0, "name": "b9d7b4e6c6ef5925e969e03a5bd7dc6e", "is_disabled": 0, "rental_uris": {"android": "https://dc.lft.to/lastmile_qr_scan", "ios": "https://dc.lft.to/lastmile_qr_scan"}, "fusion_lon": 0.0, "lat": 38.9287695, "bike_id": "b9d7b4e6c6ef5925e969e03a5bd7dc6e", "type": "electric_scooter", "is_reserved": 0, "lon": -77.0330855}, {"fusion_lat": 0.0, "name": "415db06e583e84be78c9fd368162860b", "is_disabled": 0, "rental_uris": {"android": "https://dc.lft.to/lastmile_qr_scan", "ios": "https://dc.lft.to/lastmile_qr_scan"}, "fusion_lon": 0.0, "lat": 38.90501833333333, "bike_id": "415db06e583e84be78c9fd368162860b", "type": "electric_scooter", "is_reserved": 0, "lon": -77.03014716666667}, {"fusion_lat": 0.0, "name": "5af3133d39d29468694974b08ea30111", "is_disabled": 0, "rental_uris": {"android": "https://dc.lft.to/lastmile_qr_scan", "ios": "https://dc.lft.to/lastmile_qr_scan"}, "fusion_lon": 0.0, "lat": 38.91041633333333, "bike_id": "5af3133d39d29468694974b08ea30111", "type": "electric_scooter", "is_reserved": 0, "lon": -77.041604}, {"fusion_lat": 0.0, "name": "46b7f84ccff9cef67ad0583eb07c347d", "is_disabled": 0, "rental_uris": {"android": "https://dc.lft.to/lastmile_qr_scan", "ios": "https://dc.lft.to/lastmile_qr_scan"}, "fusion_lon": 0.0, "lat": 38.92875266666667, "bike_id": "46b7f84ccff9cef67ad0583eb07c347d", "type": "electric_scooter", "is_reserved": 0, "lon": -77.01342133333333}, {"fusion_lat": 0.0, "name": "f92cff6d6b6161735978e1763a4ffc88", "is_disabled": 0, "rental_uris": {"android": "https://dc.lft.to/lastmile_qr_scan", "ios": "https://dc.lft.to/lastmile_qr_scan"}, "fusion_lon": 0.0, "lat": 38.899143333333335, "bike_id": "f92cff6d6b6161735978e1763a4ffc88", "type": "electric_scooter", "is_reserved": 0, "lon": -77.03924016666667}, {"fusion_lat": 0.0, "name": "25cf22a88f8e4d2934967c6ae6fe0fb8", "is_disabled": 0, "rental_uris": {"android": "https://dc.lft.to/lastmile_qr_scan", "ios": "https://dc.lft.to/lastmile_qr_scan"}, "fusion_lon": 0.0, "lat": 38.889987, "bike_id": "25cf22a88f8e4d2934967c6ae6fe0fb8", "type": "electric_scooter", "is_reserved": 0, "lon": -76.98373016666666}, {"fusion_lat": 0.0, "name": "61d1223d4088d536653f0243b871be7a", "is_disabled": 0, "rental_uris": {"android": "https://dc.lft.to/lastmile_qr_scan", "ios": "https://dc.lft.to/lastmile_qr_scan"}, "fusion_lon": 0.0, "lat": 38.91559066666667, "bike_id": "61d1223d4088d536653f0243b871be7a", "type": "electric_scooter", "is_reserved": 0, "lon": -77.0386225}, {"fusion_lat": 0.0, "name": "379b51fcc9ea456f337ee91db3dee40b", "is_disabled": 0, "rental_uris": {"android": "https://dc.lft.to/lastmile_qr_scan", "ios": "https://dc.lft.to/lastmile_qr_scan"}, "fusion_lon": 0.0, "lat": 38.90370216666667, "bike_id": "379b51fcc9ea456f337ee91db3dee40b", "type": "electric_scooter", "is_reserved": 0, "lon": -77.03984183333333}, {"fusion_lat": 0.0, "name": "4a816b2649ee9b6a8d19c6c8130f631d", "is_disabled": 0, "rental_uris": {"android": "https://dc.lft.to/lastmile_qr_scan", "ios": "https://dc.lft.to/lastmile_qr_scan"}, "fusion_lon": 0.0, "lat": 38.913078, "bike_id": "4a816b2649ee9b6a8d19c6c8130f631d", "type": "electric_scooter", "is_reserved": 0, "lon": -77.04154533333333}, {"fusion_lat": 0.0, "name": "ace843d210f03fd8a0df496bb20f835d", "is_disabled": 0, "rental_uris": {"android": "https://dc.lft.to/lastmile_qr_scan", "ios": "https://dc.lft.to/lastmile_qr_scan"}, "fusion_lon": 0.0, "lat": 38.90274133333333, "bike_id": "ace843d210f03fd8a0df496bb20f835d", "type": "electric_scooter", "is_reserved": 0, "lon": -77.0053085}, {"fusion_lat": 0.0, "name": "68c330b01a658d1853248a6c40cbd2e5", "is_disabled": 0, "rental_uris": {"android": "https://dc.lft.to/lastmile_qr_scan", "ios": "https://dc.lft.to/lastmile_qr_scan"}, "fusion_lon": 0.0, "lat": 38.9117195, "bike_id": "68c330b01a658d1853248a6c40cbd2e5", "type": "electric_scooter", "is_reserved": 0, "lon": -77.0021225}, {"fusion_lat": 0.0, "name": "3d4befb872b47e76faa4d3621c2599f0", "is_disabled": 0, "rental_uris": {"android": "https://dc.lft.to/lastmile_qr_scan", "ios": "https://dc.lft.to/lastmile_qr_scan"}, "fusion_lon": 0.0, "lat": 38.92734083333333, "bike_id": "3d4befb872b47e76faa4d3621c2599f0", "type": "electric_scooter", "is_reserved": 0, "lon": -77.02311533333334}, {"fusion_lat": 0.0, "name": "7512f40b70073f34ddd7f4938b5b68fc", "is_disabled": 0, "rental_uris": {"android": "https://dc.lft.to/lastmile_qr_scan", "ios": "https://dc.lft.to/lastmile_qr_scan"}, "fusion_lon": 0.0, "lat": 38.8784655, "bike_id": "7512f40b70073f34ddd7f4938b5b68fc", "type": "electric_scooter", "is_reserved": 0, "lon": -77.00109833333333}, {"fusion_lat": 0.0, "name": "0cb3c28a66a57a18b2eff5360bd15d50", "is_disabled": 0, "rental_uris": {"android": "https://dc.lft.to/lastmile_qr_scan", "ios": "https://dc.lft.to/lastmile_qr_scan"}, "fusion_lon": 0.0, "lat": 38.9073845, "bike_id": "0cb3c28a66a57a18b2eff5360bd15d50", "type": "electric_scooter", "is_reserved": 0, "lon": -77.04147133333333}, {"fusion_lat": 0.0, "name": "d0878dcaa1b1919ce709135e34f2a70b", "is_disabled": 0, "rental_uris": {"android": "https://dc.lft.to/lastmile_qr_scan", "ios": "https://dc.lft.to/lastmile_qr_scan"}, "fusion_lon": 0.0, "lat": 38.8746175, "bike_id": "d0878dcaa1b1919ce709135e34f2a70b", "type": "electric_scooter", "is_reserved": 0, "lon": -77.00474816666667}, {"fusion_lat": 0.0, "name": "b420e8c2b860d17bd37293475e5e9c0b", "is_disabled": 0, "rental_uris": {"android": "https://dc.lft.to/lastmile_qr_scan", "ios": "https://dc.lft.to/lastmile_qr_scan"}, "fusion_lon": 0.0, "lat": 38.90376666666667, "bike_id": "b420e8c2b860d17bd37293475e5e9c0b", "type": "electric_scooter", "is_reserved": 0, "lon": -77.03429366666667}, {"fusion_lat": 0.0, "name": "0ccdca9ece7bc5b79ba5f5037ee98035", "is_disabled": 0, "rental_uris": {"android": "https://dc.lft.to/lastmile_qr_scan", "ios": "https://dc.lft.to/lastmile_qr_scan"}, "fusion_lon": 0.0, "lat": 38.90710266666667, "bike_id": "0ccdca9ece7bc5b79ba5f5037ee98035", "type": "electric_scooter", "is_reserved": 0, "lon": -77.032609}, {"fusion_lat": 0.0, "name": "9d40863c02e312dc13c791eb9595f743", "is_disabled": 0, "rental_uris": {"android": "https://dc.lft.to/lastmile_qr_scan", "ios": "https://dc.lft.to/lastmile_qr_scan"}, "fusion_lon": 0.0, "lat": 38.920904, "bike_id": "9d40863c02e312dc13c791eb9595f743", "type": "electric_scooter", "is_reserved": 0, "lon": -77.023893}, {"fusion_lat": 0.0, "name": "67f0d007c06fe31d76b216edae83dde1", "is_disabled": 0, "rental_uris": {"android": "https://dc.lft.to/lastmile_qr_scan", "ios": "https://dc.lft.to/lastmile_qr_scan"}, "fusion_lon": 0.0, "lat": 38.922979166666664, "bike_id": "67f0d007c06fe31d76b216edae83dde1", "type": "electric_bike", "is_reserved": 0, "lon": -76.99383}, {"fusion_lat": 0.0, "name": "6392d5ee6ed75732687b7df988a4d7fc", "is_disabled": 0, "rental_uris": {"android": "https://dc.lft.to/lastmile_qr_scan", "ios": "https://dc.lft.to/lastmile_qr_scan"}, "fusion_lon": 0.0, "lat": 38.908446166666664, "bike_id": "6392d5ee6ed75732687b7df988a4d7fc", "type": "electric_scooter", "is_reserved": 0, "lon": -77.03826283333333}, {"fusion_lat": 0.0, "name": "8f7a89c3896fba1cf005e58db8e32e7c", "is_disabled": 0, "rental_uris": {"android": "https://dc.lft.to/lastmile_qr_scan", "ios": "https://dc.lft.to/lastmile_qr_scan"}, "fusion_lon": 0.0, "lat": 38.912654, "bike_id": "8f7a89c3896fba1cf005e58db8e32e7c", "type": "electric_scooter", "is_reserved": 0, "lon": -77.034982}, {"fusion_lat": 0.0, "name": "5229048918e1caf2f0db9285290e20d0", "is_disabled": 0, "rental_uris": {"android": "https://dc.lft.to/lastmile_qr_scan", "ios": "https://dc.lft.to/lastmile_qr_scan"}, "fusion_lon": 0.0, "lat": 38.921153333333336, "bike_id": "5229048918e1caf2f0db9285290e20d0", "type": "electric_scooter", "is_reserved": 0, "lon": -77.02530333333333}, {"fusion_lat": 0.0, "name": "3e1356b213cfdcc92f1f0274f9f980cd", "is_disabled": 0, "rental_uris": {"android": "https://dc.lft.to/lastmile_qr_scan", "ios": "https://dc.lft.to/lastmile_qr_scan"}, "fusion_lon": 0.0, "lat": 38.9370495, "bike_id": "3e1356b213cfdcc92f1f0274f9f980cd", "type": "electric_scooter", "is_reserved": 0, "lon": -77.02427566666667}, {"fusion_lat": 0.0, "name": "810af112b6dc310b01f6fe3000d6a6e6", "is_disabled": 0, "rental_uris": {"android": "https://dc.lft.to/lastmile_qr_scan", "ios": "https://dc.lft.to/lastmile_qr_scan"}, "fusion_lon": 0.0, "lat": 38.907523, "bike_id": "810af112b6dc310b01f6fe3000d6a6e6", "type": "electric_scooter", "is_reserved": 0, "lon": -77.00227983333333}, {"fusion_lat": 0.0, "name": "bf276f5f9131d1d24b1ce945c5ff2f50", "is_disabled": 0, "rental_uris": {"android": "https://dc.lft.to/lastmile_qr_scan", "ios": "https://dc.lft.to/lastmile_qr_scan"}, "fusion_lon": 0.0, "lat": 38.9136895, "bike_id": "bf276f5f9131d1d24b1ce945c5ff2f50", "type": "electric_scooter", "is_reserved": 0, "lon": -77.045927}, {"fusion_lat": 0.0, "name": "0dedde9a6764d566115113188aa5adf7", "is_disabled": 0, "rental_uris": {"android": "https://dc.lft.to/lastmile_qr_scan", "ios": "https://dc.lft.to/lastmile_qr_scan"}, "fusion_lon": 0.0, "lat": 38.926694833333336, "bike_id": "0dedde9a6764d566115113188aa5adf7", "type": "electric_scooter", "is_reserved": 0, "lon": -77.05340466666667}, {"fusion_lat": 0.0, "name": "92fe5e1792718002a04a5842a4a4d317", "is_disabled": 0, "rental_uris": {"android": "https://dc.lft.to/lastmile_qr_scan", "ios": "https://dc.lft.to/lastmile_qr_scan"}, "fusion_lon": 0.0, "lat": 38.905705, "bike_id": "92fe5e1792718002a04a5842a4a4d317", "type": "electric_scooter", "is_reserved": 0, "lon": -77.0088975}, {"fusion_lat": 0.0, "name": "c2b2067dfadf6d19004aa6abbaea0f58", "is_disabled": 0, "rental_uris": {"android": "https://dc.lft.to/lastmile_qr_scan", "ios": "https://dc.lft.to/lastmile_qr_scan"}, "fusion_lon": 0.0, "lat": 38.91137033333333, "bike_id": "c2b2067dfadf6d19004aa6abbaea0f58", "type": "electric_scooter", "is_reserved": 0, "lon": -77.03841633333333}, {"fusion_lat": 0.0, "name": "07d57c8350e18def83c10fb03c47518c", "is_disabled": 0, "rental_uris": {"android": "https://dc.lft.to/lastmile_qr_scan", "ios": "https://dc.lft.to/lastmile_qr_scan"}, "fusion_lon": 0.0, "lat": 39.0705565, "bike_id": "07d57c8350e18def83c10fb03c47518c", "type": "electric_bike", "is_reserved": 0, "lon": -77.11477433333333}, {"fusion_lat": 0.0, "name": "eb0afc3e41fbf1c2823d617292eb9d6e", "is_disabled": 0, "rental_uris": {"android": "https://dc.lft.to/lastmile_qr_scan", "ios": "https://dc.lft.to/lastmile_qr_scan"}, "fusion_lon": 0.0, "lat": 38.91485316666667, "bike_id": "eb0afc3e41fbf1c2823d617292eb9d6e", "type": "electric_scooter", "is_reserved": 0, "lon": -77.04230216666667}, {"fusion_lat": 0.0, "name": "c24bf4394924a91b754bc1d9ea9d3f75", "is_disabled": 0, "rental_uris": {"android": "https://dc.lft.to/lastmile_qr_scan", "ios": "https://dc.lft.to/lastmile_qr_scan"}, "fusion_lon": 0.0, "lat": 38.89223633333334, "bike_id": "c24bf4394924a91b754bc1d9ea9d3f75", "type": "electric_scooter", "is_reserved": 0, "lon": -77.03985383333334}, {"fusion_lat": 0.0, "name": "5320f0874ba7303d376a8321ede7563e", "is_disabled": 0, "rental_uris": {"android": "https://dc.lft.to/lastmile_qr_scan", "ios": "https://dc.lft.to/lastmile_qr_scan"}, "fusion_lon": 0.0, "lat": 38.92054183333333, "bike_id": "5320f0874ba7303d376a8321ede7563e", "type": "electric_scooter", "is_reserved": 0, "lon": -77.02369433333334}, {"fusion_lat": 0.0, "name": "93277151cc3463ab6bad05c98724a6a7", "is_disabled": 0, "rental_uris": {"android": "https://dc.lft.to/lastmile_qr_scan", "ios": "https://dc.lft.to/lastmile_qr_scan"}, "fusion_lon": 0.0, "lat": 38.898930666666665, "bike_id": "93277151cc3463ab6bad05c98724a6a7", "type": "electric_scooter", "is_reserved": 0, "lon": -76.98061716666666}, {"fusion_lat": 0.0, "name": "e6227dd703567390edde498cf3351df8", "is_disabled": 0, "rental_uris": {"android": "https://dc.lft.to/lastmile_qr_scan", "ios": "https://dc.lft.to/lastmile_qr_scan"}, "fusion_lon": 0.0, "lat": 38.902792, "bike_id": "e6227dd703567390edde498cf3351df8", "type": "electric_scooter", "is_reserved": 0, "lon": -77.01763966666667}, {"fusion_lat": 0.0, "name": "509789d5beb512808a041fc1ba094832", "is_disabled": 0, "rental_uris": {"android": "https://dc.lft.to/lastmile_qr_scan", "ios": "https://dc.lft.to/lastmile_qr_scan"}, "fusion_lon": 0.0, "lat": 38.91581083333333, "bike_id": "509789d5beb512808a041fc1ba094832", "type": "electric_scooter", "is_reserved": 0, "lon": -77.01234466666666}, {"fusion_lat": 0.0, "name": "419fe04f14a55404d20a7f944429ec6a", "is_disabled": 0, "rental_uris": {"android": "https://dc.lft.to/lastmile_qr_scan", "ios": "https://dc.lft.to/lastmile_qr_scan"}, "fusion_lon": 0.0, "lat": 38.87924066666667, "bike_id": "419fe04f14a55404d20a7f944429ec6a", "type": "electric_scooter", "is_reserved": 0, "lon": -77.02151566666667}, {"fusion_lat": 0.0, "name": "dce443c9867d81e1b6ba639461570c1f", "is_disabled": 0, "rental_uris": {"android": "https://dc.lft.to/lastmile_qr_scan", "ios": "https://dc.lft.to/lastmile_qr_scan"}, "fusion_lon": 0.0, "lat": 38.9644995, "bike_id": "dce443c9867d81e1b6ba639461570c1f", "type": "electric_bike", "is_reserved": 0, "lon": -77.02235633333333}, {"fusion_lat": 0.0, "name": "8ed4961236bc1e7dd0923f2088ec2db1", "is_disabled": 0, "rental_uris": {"android": "https://dc.lft.to/lastmile_qr_scan", "ios": "https://dc.lft.to/lastmile_qr_scan"}, "fusion_lon": 0.0, "lat": 38.90691983333333, "bike_id": "8ed4961236bc1e7dd0923f2088ec2db1", "type": "electric_scooter", "is_reserved": 0, "lon": -76.99956816666666}, {"fusion_lat": 0.0, "name": "29fcb8069630ccf3a8a41e7e9742620a", "is_disabled": 0, "rental_uris": {"android": "https://dc.lft.to/lastmile_qr_scan", "ios": "https://dc.lft.to/lastmile_qr_scan"}, "fusion_lon": 0.0, "lat": 38.91324316666667, "bike_id": "29fcb8069630ccf3a8a41e7e9742620a", "type": "electric_scooter", "is_reserved": 0, "lon": -77.03182783333334}, {"fusion_lat": 0.0, "name": "abec51457a7eaeea3411bf21ba35799a", "is_disabled": 0, "rental_uris": {"android": "https://dc.lft.to/lastmile_qr_scan", "ios": "https://dc.lft.to/lastmile_qr_scan"}, "fusion_lon": 0.0, "lat": 38.892701333333335, "bike_id": "abec51457a7eaeea3411bf21ba35799a", "type": "electric_scooter", "is_reserved": 0, "lon": -77.04652416666667}, {"fusion_lat": 0.0, "name": "2138111a0ba8f705c8ed5ff01e827fad", "is_disabled": 0, "rental_uris": {"android": "https://dc.lft.to/lastmile_qr_scan", "ios": "https://dc.lft.to/lastmile_qr_scan"}, "fusion_lon": 0.0, "lat": 38.922303, "bike_id": "2138111a0ba8f705c8ed5ff01e827fad", "type": "electric_bike", "is_reserved": 0, "lon": -77.0233925}, {"fusion_lat": 0.0, "name": "aa201801ba3503b08ec013df60722d72", "is_disabled": 0, "rental_uris": {"android": "https://dc.lft.to/lastmile_qr_scan", "ios": "https://dc.lft.to/lastmile_qr_scan"}, "fusion_lon": 0.0, "lat": 38.900256166666665, "bike_id": "aa201801ba3503b08ec013df60722d72", "type": "electric_scooter", "is_reserved": 0, "lon": -76.9740065}, {"fusion_lat": 0.0, "name": "73574d32c742e75c70efe8d27d20afb0", "is_disabled": 0, "rental_uris": {"android": "https://dc.lft.to/lastmile_qr_scan", "ios": "https://dc.lft.to/lastmile_qr_scan"}, "fusion_lon": 0.0, "lat": 38.923272, "bike_id": "73574d32c742e75c70efe8d27d20afb0", "type": "electric_scooter", "is_reserved": 0, "lon": -77.04615683333333}, {"fusion_lat": 0.0, "name": "90c161c10b84356d21274f94e72670fd", "is_disabled": 0, "rental_uris": {"android": "https://dc.lft.to/lastmile_qr_scan", "ios": "https://dc.lft.to/lastmile_qr_scan"}, "fusion_lon": 0.0, "lat": 38.915932833333336, "bike_id": "90c161c10b84356d21274f94e72670fd", "type": "electric_scooter", "is_reserved": 0, "lon": -77.0229385}, {"fusion_lat": 0.0, "name": "23a925628391e29d1403c50f36b878ad", "is_disabled": 0, "rental_uris": {"android": "https://dc.lft.to/lastmile_qr_scan", "ios": "https://dc.lft.to/lastmile_qr_scan"}, "fusion_lon": 0.0, "lat": 38.9233205, "bike_id": "23a925628391e29d1403c50f36b878ad", "type": "electric_scooter", "is_reserved": 0, "lon": -77.05630883333333}, {"fusion_lat": 0.0, "name": "9bbf8048cb91d7df2ba7fb6d5db1591c", "is_disabled": 0, "rental_uris": {"android": "https://dc.lft.to/lastmile_qr_scan", "ios": "https://dc.lft.to/lastmile_qr_scan"}, "fusion_lon": 0.0, "lat": 38.90026683333333, "bike_id": "9bbf8048cb91d7df2ba7fb6d5db1591c", "type": "electric_scooter", "is_reserved": 0, "lon": -76.99873316666667}, {"fusion_lat": 0.0, "name": "e98ac555fc07ca54348586e2f0c30f99", "is_disabled": 0, "rental_uris": {"android": "https://dc.lft.to/lastmile_qr_scan", "ios": "https://dc.lft.to/lastmile_qr_scan"}, "fusion_lon": 0.0, "lat": 38.91411133333333, "bike_id": "e98ac555fc07ca54348586e2f0c30f99", "type": "electric_scooter", "is_reserved": 0, "lon": -77.0242725}, {"fusion_lat": 0.0, "name": "b87e98d0944753a04a3c80f0a520d5d1", "is_disabled": 0, "rental_uris": {"android": "https://dc.lft.to/lastmile_qr_scan", "ios": "https://dc.lft.to/lastmile_qr_scan"}, "fusion_lon": 0.0, "lat": 38.913499, "bike_id": "b87e98d0944753a04a3c80f0a520d5d1", "type": "electric_scooter", "is_reserved": 0, "lon": -77.02057316666667}, {"fusion_lat": 0.0, "name": "9c0134cfa448538c43d881de978bd261", "is_disabled": 0, "rental_uris": {"android": "https://dc.lft.to/lastmile_qr_scan", "ios": "https://dc.lft.to/lastmile_qr_scan"}, "fusion_lon": 0.0, "lat": 38.909483333333334, "bike_id": "9c0134cfa448538c43d881de978bd261", "type": "electric_scooter", "is_reserved": 0, "lon": -76.9877025}, {"fusion_lat": 0.0, "name": "9e718091a49f9821938489d27fbe19e6", "is_disabled": 0, "rental_uris": {"android": "https://dc.lft.to/lastmile_qr_scan", "ios": "https://dc.lft.to/lastmile_qr_scan"}, "fusion_lon": 0.0, "lat": 38.903027, "bike_id": "9e718091a49f9821938489d27fbe19e6", "type": "electric_scooter", "is_reserved": 0, "lon": -77.04890583333334}, {"fusion_lat": 0.0, "name": "e95820816a5ee2d8ac071e102880600e", "is_disabled": 0, "rental_uris": {"android": "https://dc.lft.to/lastmile_qr_scan", "ios": "https://dc.lft.to/lastmile_qr_scan"}, "fusion_lon": 0.0, "lat": 38.917161166666666, "bike_id": "e95820816a5ee2d8ac071e102880600e", "type": "electric_scooter", "is_reserved": 0, "lon": -77.03869166666667}, {"fusion_lat": 0.0, "name": "764c4476637706a30737296fe8e1cffc", "is_disabled": 0, "rental_uris": {"android": "https://dc.lft.to/lastmile_qr_scan", "ios": "https://dc.lft.to/lastmile_qr_scan"}, "fusion_lon": 0.0, "lat": 38.93360833333333, "bike_id": "764c4476637706a30737296fe8e1cffc", "type": "electric_scooter", "is_reserved": 0, "lon": -77.0342245}, {"fusion_lat": 0.0, "name": "bcb1d5e86604b1fce13e799091cbaa60", "is_disabled": 0, "rental_uris": {"android": "https://dc.lft.to/lastmile_qr_scan", "ios": "https://dc.lft.to/lastmile_qr_scan"}, "fusion_lon": 0.0, "lat": 39.03400166666667, "bike_id": "bcb1d5e86604b1fce13e799091cbaa60", "type": "electric_bike", "is_reserved": 0, "lon": -77.04330716666666}, {"fusion_lat": 0.0, "name": "68db8ce4c0837e081091d4de72885c1f", "is_disabled": 0, "rental_uris": {"android": "https://dc.lft.to/lastmile_qr_scan", "ios": "https://dc.lft.to/lastmile_qr_scan"}, "fusion_lon": 0.0, "lat": 38.87483316666667, "bike_id": "68db8ce4c0837e081091d4de72885c1f", "type": "electric_scooter", "is_reserved": 0, "lon": -77.0060785}, {"fusion_lat": 0.0, "name": "5c142d882673e4410bdc9472a845d228", "is_disabled": 0, "rental_uris": {"android": "https://dc.lft.to/lastmile_qr_scan", "ios": "https://dc.lft.to/lastmile_qr_scan"}, "fusion_lon": 0.0, "lat": 38.853654, "bike_id": "5c142d882673e4410bdc9472a845d228", "type": "electric_bike", "is_reserved": 0, "lon": -77.11504416666666}, {"fusion_lat": 0.0, "name": "7876d6649002f4ee066e47c1f012df14", "is_disabled": 0, "rental_uris": {"android": "https://dc.lft.to/lastmile_qr_scan", "ios": "https://dc.lft.to/lastmile_qr_scan"}, "fusion_lon": 0.0, "lat": 38.91952366666666, "bike_id": "7876d6649002f4ee066e47c1f012df14", "type": "electric_scooter", "is_reserved": 0, "lon": -77.025191}, {"fusion_lat": 0.0, "name": "62830a150b0eac71978882fcb6c1d9b7", "is_disabled": 0, "rental_uris": {"android": "https://dc.lft.to/lastmile_qr_scan", "ios": "https://dc.lft.to/lastmile_qr_scan"}, "fusion_lon": 0.0, "lat": 38.887257166666664, "bike_id": "62830a150b0eac71978882fcb6c1d9b7", "type": "electric_scooter", "is_reserved": 0, "lon": -77.02583833333334}, {"fusion_lat": 0.0, "name": "4124c642cce00a78116edd4cfee69ce3", "is_disabled": 0, "rental_uris": {"android": "https://dc.lft.to/lastmile_qr_scan", "ios": "https://dc.lft.to/lastmile_qr_scan"}, "fusion_lon": 0.0, "lat": 38.923470333333334, "bike_id": "4124c642cce00a78116edd4cfee69ce3", "type": "electric_scooter", "is_reserved": 0, "lon": -77.04350316666667}, {"fusion_lat": 0.0, "name": "43a47c27538491df85e01fa7a95c3a0b", "is_disabled": 0, "rental_uris": {"android": "https://dc.lft.to/lastmile_qr_scan", "ios": "https://dc.lft.to/lastmile_qr_scan"}, "fusion_lon": 0.0, "lat": 38.902223666666664, "bike_id": "43a47c27538491df85e01fa7a95c3a0b", "type": "electric_scooter", "is_reserved": 0, "lon": -77.03263683333333}, {"fusion_lat": 0.0, "name": "5ab291c81b4c6724b1d2d550df3668c9", "is_disabled": 0, "rental_uris": {"android": "https://dc.lft.to/lastmile_qr_scan", "ios": "https://dc.lft.to/lastmile_qr_scan"}, "fusion_lon": 0.0, "lat": 38.86244, "bike_id": "5ab291c81b4c6724b1d2d550df3668c9", "type": "electric_scooter", "is_reserved": 0, "lon": -76.99493683333333}, {"fusion_lat": 0.0, "name": "29bf085f6e59028c560678cf7bd89192", "is_disabled": 0, "rental_uris": {"android": "https://dc.lft.to/lastmile_qr_scan", "ios": "https://dc.lft.to/lastmile_qr_scan"}, "fusion_lon": 0.0, "lat": 38.873793, "bike_id": "29bf085f6e59028c560678cf7bd89192", "type": "electric_scooter", "is_reserved": 0, "lon": -77.000425}, {"fusion_lat": 0.0, "name": "f9277861504dd40ef9c049955e0d625d", "is_disabled": 0, "rental_uris": {"android": "https://dc.lft.to/lastmile_qr_scan", "ios": "https://dc.lft.to/lastmile_qr_scan"}, "fusion_lon": 0.0, "lat": 38.897762166666666, "bike_id": "f9277861504dd40ef9c049955e0d625d", "type": "electric_scooter", "is_reserved": 0, "lon": -76.98462383333333}, {"fusion_lat": 0.0, "name": "2c92517c358aa422ed73120b2b1843c8", "is_disabled": 0, "rental_uris": {"android": "https://dc.lft.to/lastmile_qr_scan", "ios": "https://dc.lft.to/lastmile_qr_scan"}, "fusion_lon": 0.0, "lat": 38.94329916666667, "bike_id": "2c92517c358aa422ed73120b2b1843c8", "type": "electric_scooter", "is_reserved": 0, "lon": -77.061409}, {"fusion_lat": 0.0, "name": "8c85c0997b0cc5109e525fe7f5d97652", "is_disabled": 0, "rental_uris": {"android": "https://dc.lft.to/lastmile_qr_scan", "ios": "https://dc.lft.to/lastmile_qr_scan"}, "fusion_lon": 0.0, "lat": 38.8773205, "bike_id": "8c85c0997b0cc5109e525fe7f5d97652", "type": "electric_scooter", "is_reserved": 0, "lon": -76.99673033333333}, {"fusion_lat": 0.0, "name": "50b172835a3d7154da82367152bd37ed", "is_disabled": 0, "rental_uris": {"android": "https://dc.lft.to/lastmile_qr_scan", "ios": "https://dc.lft.to/lastmile_qr_scan"}, "fusion_lon": 0.0, "lat": 38.92166366666667, "bike_id": "50b172835a3d7154da82367152bd37ed", "type": "electric_scooter", "is_reserved": 0, "lon": -77.03430716666666}, {"fusion_lat": 0.0, "name": "bfa82e040bf3a2ac87e5f9106a8fb077", "is_disabled": 0, "rental_uris": {"android": "https://dc.lft.to/lastmile_qr_scan", "ios": "https://dc.lft.to/lastmile_qr_scan"}, "fusion_lon": 0.0, "lat": 38.917042333333335, "bike_id": "bfa82e040bf3a2ac87e5f9106a8fb077", "type": "electric_scooter", "is_reserved": 0, "lon": -77.03046133333334}, {"fusion_lat": 0.0, "name": "8d7f6fa6e91cd6b997a635aec00eeaab", "is_disabled": 0, "rental_uris": {"android": "https://dc.lft.to/lastmile_qr_scan", "ios": "https://dc.lft.to/lastmile_qr_scan"}, "fusion_lon": 0.0, "lat": 38.91916283333333, "bike_id": "8d7f6fa6e91cd6b997a635aec00eeaab", "type": "electric_scooter", "is_reserved": 0, "lon": -77.027324}, {"fusion_lat": 0.0, "name": "b4a4211051022764532dc0a269c37495", "is_disabled": 0, "rental_uris": {"android": "https://dc.lft.to/lastmile_qr_scan", "ios": "https://dc.lft.to/lastmile_qr_scan"}, "fusion_lon": 0.0, "lat": 38.90012383333333, "bike_id": "b4a4211051022764532dc0a269c37495", "type": "electric_scooter", "is_reserved": 0, "lon": -77.01175316666667}, {"fusion_lat": 0.0, "name": "d41c511fe1cf5d88c4c95e6fc620c5f1", "is_disabled": 0, "rental_uris": {"android": "https://dc.lft.to/lastmile_qr_scan", "ios": "https://dc.lft.to/lastmile_qr_scan"}, "fusion_lon": 0.0, "lat": 38.918451833333336, "bike_id": "d41c511fe1cf5d88c4c95e6fc620c5f1", "type": "electric_scooter", "is_reserved": 0, "lon": -77.023209}, {"fusion_lat": 0.0, "name": "8df61cb456599c101f7e1c6a3fa4e31b", "is_disabled": 0, "rental_uris": {"android": "https://dc.lft.to/lastmile_qr_scan", "ios": "https://dc.lft.to/lastmile_qr_scan"}, "fusion_lon": 0.0, "lat": 38.88136033333333, "bike_id": "8df61cb456599c101f7e1c6a3fa4e31b", "type": "electric_bike", "is_reserved": 0, "lon": -76.9980335}, {"fusion_lat": 0.0, "name": "b1df9b54b8f0ad76d873bb4b28706f7c", "is_disabled": 0, "rental_uris": {"android": "https://dc.lft.to/lastmile_qr_scan", "ios": "https://dc.lft.to/lastmile_qr_scan"}, "fusion_lon": 0.0, "lat": 38.9140965, "bike_id": "b1df9b54b8f0ad76d873bb4b28706f7c", "type": "electric_scooter", "is_reserved": 0, "lon": -77.03027083333333}, {"fusion_lat": 0.0, "name": "e9308cb74a00ec83844afbb31f0332a9", "is_disabled": 0, "rental_uris": {"android": "https://dc.lft.to/lastmile_qr_scan", "ios": "https://dc.lft.to/lastmile_qr_scan"}, "fusion_lon": 0.0, "lat": 38.88735966666667, "bike_id": "e9308cb74a00ec83844afbb31f0332a9", "type": "electric_scooter", "is_reserved": 0, "lon": -77.01516316666667}, {"fusion_lat": 0.0, "name": "e36b46ff4005dba30815758a3d82f8a0", "is_disabled": 0, "rental_uris": {"android": "https://dc.lft.to/lastmile_qr_scan", "ios": "https://dc.lft.to/lastmile_qr_scan"}, "fusion_lon": 0.0, "lat": 38.88740516666667, "bike_id": "e36b46ff4005dba30815758a3d82f8a0", "type": "electric_scooter", "is_reserved": 0, "lon": -77.02123166666667}, {"fusion_lat": 0.0, "name": "8da65bcb52b929c41792635dffcba268", "is_disabled": 0, "rental_uris": {"android": "https://dc.lft.to/lastmile_qr_scan", "ios": "https://dc.lft.to/lastmile_qr_scan"}, "fusion_lon": 0.0, "lat": 38.904982, "bike_id": "8da65bcb52b929c41792635dffcba268", "type": "electric_scooter", "is_reserved": 0, "lon": -77.00934716666667}, {"fusion_lat": 0.0, "name": "b85b2121b9eefe3bd1842f58813586f5", "is_disabled": 0, "rental_uris": {"android": "https://dc.lft.to/lastmile_qr_scan", "ios": "https://dc.lft.to/lastmile_qr_scan"}, "fusion_lon": 0.0, "lat": 38.80689916666667, "bike_id": "b85b2121b9eefe3bd1842f58813586f5", "type": "electric_bike", "is_reserved": 0, "lon": -77.06924133333334}, {"fusion_lat": 0.0, "name": "b1830041900e99d273a0fb464fefb8fe", "is_disabled": 0, "rental_uris": {"android": "https://dc.lft.to/lastmile_qr_scan", "ios": "https://dc.lft.to/lastmile_qr_scan"}, "fusion_lon": 0.0, "lat": 38.90974, "bike_id": "b1830041900e99d273a0fb464fefb8fe", "type": "electric_scooter", "is_reserved": 0, "lon": -77.03222183333334}, {"fusion_lat": 0.0, "name": "221697b54f853edd9f099ff1f8fa09a3", "is_disabled": 0, "rental_uris": {"android": "https://dc.lft.to/lastmile_qr_scan", "ios": "https://dc.lft.to/lastmile_qr_scan"}, "fusion_lon": 0.0, "lat": 38.93073366666667, "bike_id": "221697b54f853edd9f099ff1f8fa09a3", "type": "electric_scooter", "is_reserved": 0, "lon": -77.03411316666667}, {"fusion_lat": 0.0, "name": "77d4208c88b04e32f75322c812c4ee01", "is_disabled": 0, "rental_uris": {"android": "https://dc.lft.to/lastmile_qr_scan", "ios": "https://dc.lft.to/lastmile_qr_scan"}, "fusion_lon": 0.0, "lat": 38.807694166666664, "bike_id": "77d4208c88b04e32f75322c812c4ee01", "type": "electric_bike", "is_reserved": 0, "lon": -77.09501283333333}, {"fusion_lat": 0.0, "name": "a1ff048851e797824d9775b239dd1754", "is_disabled": 0, "rental_uris": {"android": "https://dc.lft.to/lastmile_qr_scan", "ios": "https://dc.lft.to/lastmile_qr_scan"}, "fusion_lon": 0.0, "lat": 38.9126595, "bike_id": "a1ff048851e797824d9775b239dd1754", "type": "electric_scooter", "is_reserved": 0, "lon": -77.03123933333333}, {"fusion_lat": 0.0, "name": "18c708688fc9769d0e4df5b1c65527c1", "is_disabled": 0, "rental_uris": {"android": "https://dc.lft.to/lastmile_qr_scan", "ios": "https://dc.lft.to/lastmile_qr_scan"}, "fusion_lon": 0.0, "lat": 38.921732, "bike_id": "18c708688fc9769d0e4df5b1c65527c1", "type": "electric_scooter", "is_reserved": 0, "lon": -77.040229}, {"fusion_lat": 0.0, "name": "31898629f45821f184c5f42be12199aa", "is_disabled": 0, "rental_uris": {"android": "https://dc.lft.to/lastmile_qr_scan", "ios": "https://dc.lft.to/lastmile_qr_scan"}, "fusion_lon": 0.0, "lat": 38.892362, "bike_id": "31898629f45821f184c5f42be12199aa", "type": "electric_scooter", "is_reserved": 0, "lon": -76.98817433333333}, {"fusion_lat": 0.0, "name": "32f063415d84ae984fc2f31fa5d679bb", "is_disabled": 0, "rental_uris": {"android": "https://dc.lft.to/lastmile_qr_scan", "ios": "https://dc.lft.to/lastmile_qr_scan"}, "fusion_lon": 0.0, "lat": 38.9288305, "bike_id": "32f063415d84ae984fc2f31fa5d679bb", "type": "electric_scooter", "is_reserved": 0, "lon": -77.013736}, {"fusion_lat": 0.0, "name": "25955f05f49f057b1464cdd1e4f09cd0", "is_disabled": 0, "rental_uris": {"android": "https://dc.lft.to/lastmile_qr_scan", "ios": "https://dc.lft.to/lastmile_qr_scan"}, "fusion_lon": 0.0, "lat": 38.90704383333333, "bike_id": "25955f05f49f057b1464cdd1e4f09cd0", "type": "electric_scooter", "is_reserved": 0, "lon": -77.05040583333333}, {"fusion_lat": 0.0, "name": "6c590e04586bb001334f81502dfe1120", "is_disabled": 0, "rental_uris": {"android": "https://dc.lft.to/lastmile_qr_scan", "ios": "https://dc.lft.to/lastmile_qr_scan"}, "fusion_lon": 0.0, "lat": 38.920945, "bike_id": "6c590e04586bb001334f81502dfe1120", "type": "electric_scooter", "is_reserved": 0, "lon": -77.02377166666666}, {"fusion_lat": 0.0, "name": "8ff683f98fd745967e2431ae4225eb1f", "is_disabled": 0, "rental_uris": {"android": "https://dc.lft.to/lastmile_qr_scan", "ios": "https://dc.lft.to/lastmile_qr_scan"}, "fusion_lon": 0.0, "lat": 38.905436333333334, "bike_id": "8ff683f98fd745967e2431ae4225eb1f", "type": "electric_scooter", "is_reserved": 0, "lon": -77.045584}, {"fusion_lat": 0.0, "name": "6bf36cd1b6d02dfb94b517aa80680d3c", "is_disabled": 0, "rental_uris": {"android": "https://dc.lft.to/lastmile_qr_scan", "ios": "https://dc.lft.to/lastmile_qr_scan"}, "fusion_lon": 0.0, "lat": 38.928375833333334, "bike_id": "6bf36cd1b6d02dfb94b517aa80680d3c", "type": "electric_scooter", "is_reserved": 0, "lon": -77.00597533333334}, {"fusion_lat": 0.0, "name": "4008b137664d131ff68ef08432d2c2b9", "is_disabled": 0, "rental_uris": {"android": "https://dc.lft.to/lastmile_qr_scan", "ios": "https://dc.lft.to/lastmile_qr_scan"}, "fusion_lon": 0.0, "lat": 38.9016845, "bike_id": "4008b137664d131ff68ef08432d2c2b9", "type": "electric_scooter", "is_reserved": 0, "lon": -76.99250233333333}, {"fusion_lat": 0.0, "name": "310a70e65fea922cefd33f37d1947f7d", "is_disabled": 0, "rental_uris": {"android": "https://dc.lft.to/lastmile_qr_scan", "ios": "https://dc.lft.to/lastmile_qr_scan"}, "fusion_lon": 0.0, "lat": 38.940777833333335, "bike_id": "310a70e65fea922cefd33f37d1947f7d", "type": "electric_bike", "is_reserved": 0, "lon": -77.00022866666667}, {"fusion_lat": 0.0, "name": "12ddc6ab1af57cda39fadb19daf256da", "is_disabled": 0, "rental_uris": {"android": "https://dc.lft.to/lastmile_qr_scan", "ios": "https://dc.lft.to/lastmile_qr_scan"}, "fusion_lon": 0.0, "lat": 38.916088333333335, "bike_id": "12ddc6ab1af57cda39fadb19daf256da", "type": "electric_scooter", "is_reserved": 0, "lon": -77.02301816666666}, {"fusion_lat": 0.0, "name": "dec0fd29eb685cb619f3746d7caf857b", "is_disabled": 0, "rental_uris": {"android": "https://dc.lft.to/lastmile_qr_scan", "ios": "https://dc.lft.to/lastmile_qr_scan"}, "fusion_lon": 0.0, "lat": 38.8954775, "bike_id": "dec0fd29eb685cb619f3746d7caf857b", "type": "electric_scooter", "is_reserved": 0, "lon": -76.983389}, {"fusion_lat": 0.0, "name": "5b36c7b02f1746962c471e96eca27efd", "is_disabled": 0, "rental_uris": {"android": "https://dc.lft.to/lastmile_qr_scan", "ios": "https://dc.lft.to/lastmile_qr_scan"}, "fusion_lon": 0.0, "lat": 38.908598833333336, "bike_id": "5b36c7b02f1746962c471e96eca27efd", "type": "electric_scooter", "is_reserved": 0, "lon": -77.02398233333334}, {"fusion_lat": 0.0, "name": "7f16fde8982c38bad43ff7fd5a4c2ec0", "is_disabled": 0, "rental_uris": {"android": "https://dc.lft.to/lastmile_qr_scan", "ios": "https://dc.lft.to/lastmile_qr_scan"}, "fusion_lon": 0.0, "lat": 38.914733166666664, "bike_id": "7f16fde8982c38bad43ff7fd5a4c2ec0", "type": "electric_scooter", "is_reserved": 0, "lon": -77.0456855}, {"fusion_lat": 0.0, "name": "e0214341a5f8cbab8f9d58d1ce2c80c6", "is_disabled": 0, "rental_uris": {"android": "https://dc.lft.to/lastmile_qr_scan", "ios": "https://dc.lft.to/lastmile_qr_scan"}, "fusion_lon": 0.0, "lat": 38.87368516666667, "bike_id": "e0214341a5f8cbab8f9d58d1ce2c80c6", "type": "electric_scooter", "is_reserved": 0, "lon": -77.00124233333334}, {"fusion_lat": 0.0, "name": "88cdd93f25986580895dce9ea4133efe", "is_disabled": 0, "rental_uris": {"android": "https://dc.lft.to/lastmile_qr_scan", "ios": "https://dc.lft.to/lastmile_qr_scan"}, "fusion_lon": 0.0, "lat": 38.9003675, "bike_id": "88cdd93f25986580895dce9ea4133efe", "type": "electric_scooter", "is_reserved": 0, "lon": -76.996395}, {"fusion_lat": 0.0, "name": "e81b555efc1cbd4fdcfb2c1b9da72d92", "is_disabled": 0, "rental_uris": {"android": "https://dc.lft.to/lastmile_qr_scan", "ios": "https://dc.lft.to/lastmile_qr_scan"}, "fusion_lon": 0.0, "lat": 38.951943, "bike_id": "e81b555efc1cbd4fdcfb2c1b9da72d92", "type": "electric_scooter", "is_reserved": 0, "lon": -77.012467}, {"fusion_lat": 0.0, "name": "02ae708b5873ca9dcbfd2b4b1ac944c1", "is_disabled": 0, "rental_uris": {"android": "https://dc.lft.to/lastmile_qr_scan", "ios": "https://dc.lft.to/lastmile_qr_scan"}, "fusion_lon": 0.0, "lat": 38.9879255, "bike_id": "02ae708b5873ca9dcbfd2b4b1ac944c1", "type": "electric_bike", "is_reserved": 0, "lon": -77.14095783333333}, {"fusion_lat": 0.0, "name": "1a32579cc4b6772788beb8aa1169512b", "is_disabled": 0, "rental_uris": {"android": "https://dc.lft.to/lastmile_qr_scan", "ios": "https://dc.lft.to/lastmile_qr_scan"}, "fusion_lon": 0.0, "lat": 38.8874735, "bike_id": "1a32579cc4b6772788beb8aa1169512b", "type": "electric_scooter", "is_reserved": 0, "lon": -77.0277775}, {"fusion_lat": 0.0, "name": "40950d98a3c4eef894bb568c348ef75f", "is_disabled": 0, "rental_uris": {"android": "https://dc.lft.to/lastmile_qr_scan", "ios": "https://dc.lft.to/lastmile_qr_scan"}, "fusion_lon": 0.0, "lat": 38.9033305, "bike_id": "40950d98a3c4eef894bb568c348ef75f", "type": "electric_bike", "is_reserved": 0, "lon": -76.97528683333333}, {"fusion_lat": 0.0, "name": "e38bcc711cd7c9bf1050f396ee8fccbe", "is_disabled": 0, "rental_uris": {"android": "https://dc.lft.to/lastmile_qr_scan", "ios": "https://dc.lft.to/lastmile_qr_scan"}, "fusion_lon": 0.0, "lat": 38.927575, "bike_id": "e38bcc711cd7c9bf1050f396ee8fccbe", "type": "electric_scooter", "is_reserved": 0, "lon": -77.0245255}, {"fusion_lat": 0.0, "name": "afa89d5bf30f5c2f2c257daa02c49388", "is_disabled": 0, "rental_uris": {"android": "https://dc.lft.to/lastmile_qr_scan", "ios": "https://dc.lft.to/lastmile_qr_scan"}, "fusion_lon": 0.0, "lat": 38.95608083333333, "bike_id": "afa89d5bf30f5c2f2c257daa02c49388", "type": "electric_scooter", "is_reserved": 0, "lon": -77.0335535}, {"fusion_lat": 0.0, "name": "f0a3e0ae853b34ce48e21c6626fa35d7", "is_disabled": 0, "rental_uris": {"android": "https://dc.lft.to/lastmile_qr_scan", "ios": "https://dc.lft.to/lastmile_qr_scan"}, "fusion_lon": 0.0, "lat": 38.920037, "bike_id": "f0a3e0ae853b34ce48e21c6626fa35d7", "type": "electric_scooter", "is_reserved": 0, "lon": -77.032103}, {"fusion_lat": 0.0, "name": "10fb398d73bbf8450f2a9974a505a225", "is_disabled": 0, "rental_uris": {"android": "https://dc.lft.to/lastmile_qr_scan", "ios": "https://dc.lft.to/lastmile_qr_scan"}, "fusion_lon": 0.0, "lat": 38.857921, "bike_id": "10fb398d73bbf8450f2a9974a505a225", "type": "electric_bike", "is_reserved": 0, "lon": -77.0514995}, {"fusion_lat": 0.0, "name": "f752e79200bd59d88351751cda59e636", "is_disabled": 0, "rental_uris": {"android": "https://dc.lft.to/lastmile_qr_scan", "ios": "https://dc.lft.to/lastmile_qr_scan"}, "fusion_lon": 0.0, "lat": 38.91042083333333, "bike_id": "f752e79200bd59d88351751cda59e636", "type": "electric_scooter", "is_reserved": 0, "lon": -77.03323416666667}, {"fusion_lat": 0.0, "name": "ff55222fa087f8d6bc8eec6a3d5f5c5f", "is_disabled": 0, "rental_uris": {"android": "https://dc.lft.to/lastmile_qr_scan", "ios": "https://dc.lft.to/lastmile_qr_scan"}, "fusion_lon": 0.0, "lat": 38.91553583333334, "bike_id": "ff55222fa087f8d6bc8eec6a3d5f5c5f", "type": "electric_scooter", "is_reserved": 0, "lon": -77.02209816666667}, {"fusion_lat": 0.0, "name": "cdcbde0a120cca68780bc1bd361f0c08", "is_disabled": 0, "rental_uris": {"android": "https://dc.lft.to/lastmile_qr_scan", "ios": "https://dc.lft.to/lastmile_qr_scan"}, "fusion_lon": 0.0, "lat": 38.94327916666667, "bike_id": "cdcbde0a120cca68780bc1bd361f0c08", "type": "electric_scooter", "is_reserved": 0, "lon": -77.06140216666667}, {"fusion_lat": 0.0, "name": "409763eba5ec6a5bf4c57b14ff40c19e", "is_disabled": 0, "rental_uris": {"android": "https://dc.lft.to/lastmile_qr_scan", "ios": "https://dc.lft.to/lastmile_qr_scan"}, "fusion_lon": 0.0, "lat": 38.901385, "bike_id": "409763eba5ec6a5bf4c57b14ff40c19e", "type": "electric_scooter", "is_reserved": 0, "lon": -76.9841155}, {"fusion_lat": 0.0, "name": "a8bc8fbabe7c1cb0d115a9288bd0c88c", "is_disabled": 0, "rental_uris": {"android": "https://dc.lft.to/lastmile_qr_scan", "ios": "https://dc.lft.to/lastmile_qr_scan"}, "fusion_lon": 0.0, "lat": 38.9520605, "bike_id": "a8bc8fbabe7c1cb0d115a9288bd0c88c", "type": "electric_scooter", "is_reserved": 0, "lon": -77.0683645}, {"fusion_lat": 0.0, "name": "3e95624162317de2c6c7150e89c134dd", "is_disabled": 0, "rental_uris": {"android": "https://dc.lft.to/lastmile_qr_scan", "ios": "https://dc.lft.to/lastmile_qr_scan"}, "fusion_lon": 0.0, "lat": 38.90702866666667, "bike_id": "3e95624162317de2c6c7150e89c134dd", "type": "electric_scooter", "is_reserved": 0, "lon": -77.03589416666667}, {"fusion_lat": 0.0, "name": "3c2023fd3fe0178f97658cdbb1c62588", "is_disabled": 0, "rental_uris": {"android": "https://dc.lft.to/lastmile_qr_scan", "ios": "https://dc.lft.to/lastmile_qr_scan"}, "fusion_lon": 0.0, "lat": 38.89223, "bike_id": "3c2023fd3fe0178f97658cdbb1c62588", "type": "electric_scooter", "is_reserved": 0, "lon": -77.026356}, {"fusion_lat": 0.0, "name": "6d1b0f9912adb2c2603019a73a956a9f", "is_disabled": 0, "rental_uris": {"android": "https://dc.lft.to/lastmile_qr_scan", "ios": "https://dc.lft.to/lastmile_qr_scan"}, "fusion_lon": 0.0, "lat": 38.9070285, "bike_id": "6d1b0f9912adb2c2603019a73a956a9f", "type": "electric_scooter", "is_reserved": 0, "lon": -77.03439683333333}, {"fusion_lat": 0.0, "name": "9fc2d8cc9541377d20e37bd8333c640d", "is_disabled": 0, "rental_uris": {"android": "https://dc.lft.to/lastmile_qr_scan", "ios": "https://dc.lft.to/lastmile_qr_scan"}, "fusion_lon": 0.0, "lat": 38.911142166666664, "bike_id": "9fc2d8cc9541377d20e37bd8333c640d", "type": "electric_scooter", "is_reserved": 0, "lon": -77.04838866666667}, {"fusion_lat": 0.0, "name": "87e38cd67b62bbe243ab9bfcdb8945ab", "is_disabled": 0, "rental_uris": {"android": "https://dc.lft.to/lastmile_qr_scan", "ios": "https://dc.lft.to/lastmile_qr_scan"}, "fusion_lon": 0.0, "lat": 38.8428355, "bike_id": "87e38cd67b62bbe243ab9bfcdb8945ab", "type": "electric_bike", "is_reserved": 0, "lon": -77.04499383333334}, {"fusion_lat": 0.0, "name": "c367502e528045fe10a39289a8e2c5dd", "is_disabled": 0, "rental_uris": {"android": "https://dc.lft.to/lastmile_qr_scan", "ios": "https://dc.lft.to/lastmile_qr_scan"}, "fusion_lon": 0.0, "lat": 38.943414, "bike_id": "c367502e528045fe10a39289a8e2c5dd", "type": "electric_scooter", "is_reserved": 0, "lon": -77.03246583333333}, {"fusion_lat": 0.0, "name": "459b3a9f8b2263e822a48ca04c682eaf", "is_disabled": 0, "rental_uris": {"android": "https://dc.lft.to/lastmile_qr_scan", "ios": "https://dc.lft.to/lastmile_qr_scan"}, "fusion_lon": 0.0, "lat": 38.899981, "bike_id": "459b3a9f8b2263e822a48ca04c682eaf", "type": "electric_scooter", "is_reserved": 0, "lon": -76.99357933333333}, {"fusion_lat": 0.0, "name": "e2af0cc952c10b70915197eef6f6d8c6", "is_disabled": 0, "rental_uris": {"android": "https://dc.lft.to/lastmile_qr_scan", "ios": "https://dc.lft.to/lastmile_qr_scan"}, "fusion_lon": 0.0, "lat": 38.90812, "bike_id": "e2af0cc952c10b70915197eef6f6d8c6", "type": "electric_scooter", "is_reserved": 0, "lon": -77.042867}, {"fusion_lat": 0.0, "name": "bbca6f376f77af51e138331bc7cb07f2", "is_disabled": 0, "rental_uris": {"android": "https://dc.lft.to/lastmile_qr_scan", "ios": "https://dc.lft.to/lastmile_qr_scan"}, "fusion_lon": 0.0, "lat": 38.84774183333333, "bike_id": "bbca6f376f77af51e138331bc7cb07f2", "type": "electric_bike", "is_reserved": 0, "lon": -76.96625583333334}, {"fusion_lat": 0.0, "name": "6505b3b657a1ad121380723a80dacfe7", "is_disabled": 0, "rental_uris": {"android": "https://dc.lft.to/lastmile_qr_scan", "ios": "https://dc.lft.to/lastmile_qr_scan"}, "fusion_lon": 0.0, "lat": 38.92443866666667, "bike_id": "6505b3b657a1ad121380723a80dacfe7", "type": "electric_scooter", "is_reserved": 0, "lon": -77.01867016666667}, {"fusion_lat": 0.0, "name": "aff88c8ce046fabffc8ef9b0639aba90", "is_disabled": 0, "rental_uris": {"android": "https://dc.lft.to/lastmile_qr_scan", "ios": "https://dc.lft.to/lastmile_qr_scan"}, "fusion_lon": 0.0, "lat": 38.907826666666665, "bike_id": "aff88c8ce046fabffc8ef9b0639aba90", "type": "electric_scooter", "is_reserved": 0, "lon": -77.07241016666667}, {"fusion_lat": 0.0, "name": "7796c2700740b707dc66be81da45f49a", "is_disabled": 0, "rental_uris": {"android": "https://dc.lft.to/lastmile_qr_scan", "ios": "https://dc.lft.to/lastmile_qr_scan"}, "fusion_lon": 0.0, "lat": 38.927204333333336, "bike_id": "7796c2700740b707dc66be81da45f49a", "type": "electric_scooter", "is_reserved": 0, "lon": -77.02087166666666}, {"fusion_lat": 0.0, "name": "08cceb65ce2d4850d2fd1183f10c88ad", "is_disabled": 0, "rental_uris": {"android": "https://dc.lft.to/lastmile_qr_scan", "ios": "https://dc.lft.to/lastmile_qr_scan"}, "fusion_lon": 0.0, "lat": 38.887496, "bike_id": "08cceb65ce2d4850d2fd1183f10c88ad", "type": "electric_scooter", "is_reserved": 0, "lon": -77.02123616666667}, {"fusion_lat": 0.0, "name": "aaaa95f7c2fb7680e4f5cb34923ab1c2", "is_disabled": 0, "rental_uris": {"android": "https://dc.lft.to/lastmile_qr_scan", "ios": "https://dc.lft.to/lastmile_qr_scan"}, "fusion_lon": 0.0, "lat": 38.91677583333333, "bike_id": "aaaa95f7c2fb7680e4f5cb34923ab1c2", "type": "electric_scooter", "is_reserved": 0, "lon": -77.027129}, {"fusion_lat": 0.0, "name": "7c06d26610ef788ed9bd5a102d3a2df9", "is_disabled": 0, "rental_uris": {"android": "https://dc.lft.to/lastmile_qr_scan", "ios": "https://dc.lft.to/lastmile_qr_scan"}, "fusion_lon": 0.0, "lat": 38.90531, "bike_id": "7c06d26610ef788ed9bd5a102d3a2df9", "type": "electric_scooter", "is_reserved": 0, "lon": -77.02971483333333}, {"fusion_lat": 0.0, "name": "026b56a688159e27f9329d9e1aad9a78", "is_disabled": 0, "rental_uris": {"android": "https://dc.lft.to/lastmile_qr_scan", "ios": "https://dc.lft.to/lastmile_qr_scan"}, "fusion_lon": 0.0, "lat": 38.9059805, "bike_id": "026b56a688159e27f9329d9e1aad9a78", "type": "electric_scooter", "is_reserved": 0, "lon": -77.06299866666667}, {"fusion_lat": 0.0, "name": "92124255a3f53e9fe1684a10b83af55b", "is_disabled": 0, "rental_uris": {"android": "https://dc.lft.to/lastmile_qr_scan", "ios": "https://dc.lft.to/lastmile_qr_scan"}, "fusion_lon": 0.0, "lat": 38.907732, "bike_id": "92124255a3f53e9fe1684a10b83af55b", "type": "electric_scooter", "is_reserved": 0, "lon": -77.035643}, {"fusion_lat": 0.0, "name": "b68d4a2865796549f219e684e9c82b6f", "is_disabled": 0, "rental_uris": {"android": "https://dc.lft.to/lastmile_qr_scan", "ios": "https://dc.lft.to/lastmile_qr_scan"}, "fusion_lon": 0.0, "lat": 38.89993366666667, "bike_id": "b68d4a2865796549f219e684e9c82b6f", "type": "electric_scooter", "is_reserved": 0, "lon": -77.0510465}, {"fusion_lat": 0.0, "name": "6eac0fc91d1a77278503ba60bceaf5ea", "is_disabled": 0, "rental_uris": {"android": "https://dc.lft.to/lastmile_qr_scan", "ios": "https://dc.lft.to/lastmile_qr_scan"}, "fusion_lon": 0.0, "lat": 38.84422633333333, "bike_id": "6eac0fc91d1a77278503ba60bceaf5ea", "type": "electric_scooter", "is_reserved": 0, "lon": -76.99777683333333}, {"fusion_lat": 0.0, "name": "a43f349bfacf77aba88cbf7912174cca", "is_disabled": 0, "rental_uris": {"android": "https://dc.lft.to/lastmile_qr_scan", "ios": "https://dc.lft.to/lastmile_qr_scan"}, "fusion_lon": 0.0, "lat": 38.883819, "bike_id": "a43f349bfacf77aba88cbf7912174cca", "type": "electric_scooter", "is_reserved": 0, "lon": -77.00522283333333}, {"fusion_lat": 0.0, "name": "d8b97bceed882bc901ce96ce00c8d7dc", "is_disabled": 0, "rental_uris": {"android": "https://dc.lft.to/lastmile_qr_scan", "ios": "https://dc.lft.to/lastmile_qr_scan"}, "fusion_lon": 0.0, "lat": 38.91719366666667, "bike_id": "d8b97bceed882bc901ce96ce00c8d7dc", "type": "electric_scooter", "is_reserved": 0, "lon": -77.02895133333334}, {"fusion_lat": 0.0, "name": "da4bf9812bfe2297d133bde51a62f6ac", "is_disabled": 0, "rental_uris": {"android": "https://dc.lft.to/lastmile_qr_scan", "ios": "https://dc.lft.to/lastmile_qr_scan"}, "fusion_lon": 0.0, "lat": 38.85203716666667, "bike_id": "da4bf9812bfe2297d133bde51a62f6ac", "type": "electric_bike", "is_reserved": 0, "lon": -76.96283083333333}, {"fusion_lat": 0.0, "name": "b8ed2ed838ed397c3bfbc0a587c27ebc", "is_disabled": 0, "rental_uris": {"android": "https://dc.lft.to/lastmile_qr_scan", "ios": "https://dc.lft.to/lastmile_qr_scan"}, "fusion_lon": 0.0, "lat": 38.92483466666667, "bike_id": "b8ed2ed838ed397c3bfbc0a587c27ebc", "type": "electric_scooter", "is_reserved": 0, "lon": -77.05212966666667}, {"fusion_lat": 0.0, "name": "7e7a5377cfc70e0a7da33740360a06c5", "is_disabled": 0, "rental_uris": {"android": "https://dc.lft.to/lastmile_qr_scan", "ios": "https://dc.lft.to/lastmile_qr_scan"}, "fusion_lon": 0.0, "lat": 38.886841, "bike_id": "7e7a5377cfc70e0a7da33740360a06c5", "type": "electric_scooter", "is_reserved": 0, "lon": -77.00198716666667}, {"fusion_lat": 0.0, "name": "2189442262cc4f226638a3bec8cdc135", "is_disabled": 0, "rental_uris": {"android": "https://dc.lft.to/lastmile_qr_scan", "ios": "https://dc.lft.to/lastmile_qr_scan"}, "fusion_lon": 0.0, "lat": 38.88763733333333, "bike_id": "2189442262cc4f226638a3bec8cdc135", "type": "electric_scooter", "is_reserved": 0, "lon": -77.02940983333333}, {"fusion_lat": 0.0, "name": "29c1ee7ba4f68c57d2a935aeabcf4ee9", "is_disabled": 0, "rental_uris": {"android": "https://dc.lft.to/lastmile_qr_scan", "ios": "https://dc.lft.to/lastmile_qr_scan"}, "fusion_lon": 0.0, "lat": 38.913229333333334, "bike_id": "29c1ee7ba4f68c57d2a935aeabcf4ee9", "type": "electric_scooter", "is_reserved": 0, "lon": -77.03171716666667}, {"fusion_lat": 0.0, "name": "69b8037c88266a1f88c6707fc8ff882e", "is_disabled": 0, "rental_uris": {"android": "https://dc.lft.to/lastmile_qr_scan", "ios": "https://dc.lft.to/lastmile_qr_scan"}, "fusion_lon": 0.0, "lat": 38.919585166666664, "bike_id": "69b8037c88266a1f88c6707fc8ff882e", "type": "electric_scooter", "is_reserved": 0, "lon": -77.023954}, {"fusion_lat": 0.0, "name": "715d66d563b401b9d716ff24a6f7ecf2", "is_disabled": 0, "rental_uris": {"android": "https://dc.lft.to/lastmile_qr_scan", "ios": "https://dc.lft.to/lastmile_qr_scan"}, "fusion_lon": 0.0, "lat": 38.900776666666665, "bike_id": "715d66d563b401b9d716ff24a6f7ecf2", "type": "electric_scooter", "is_reserved": 0, "lon": -77.04915166666666}, {"fusion_lat": 0.0, "name": "7c52bbb5e41b43acd4cf38e9c6d7e631", "is_disabled": 0, "rental_uris": {"android": "https://dc.lft.to/lastmile_qr_scan", "ios": "https://dc.lft.to/lastmile_qr_scan"}, "fusion_lon": 0.0, "lat": 38.9020175, "bike_id": "7c52bbb5e41b43acd4cf38e9c6d7e631", "type": "electric_scooter", "is_reserved": 0, "lon": -77.02377083333333}, {"fusion_lat": 0.0, "name": "b29fe087d14c1a3840298cce81a8a3a9", "is_disabled": 0, "rental_uris": {"android": "https://dc.lft.to/lastmile_qr_scan", "ios": "https://dc.lft.to/lastmile_qr_scan"}, "fusion_lon": 0.0, "lat": 38.9452475, "bike_id": "b29fe087d14c1a3840298cce81a8a3a9", "type": "electric_scooter", "is_reserved": 0, "lon": -77.0209515}, {"fusion_lat": 0.0, "name": "3ebcc19b8dfb13ecb2879d9f1a198d2c", "is_disabled": 0, "rental_uris": {"android": "https://dc.lft.to/lastmile_qr_scan", "ios": "https://dc.lft.to/lastmile_qr_scan"}, "fusion_lon": 0.0, "lat": 38.936339, "bike_id": "3ebcc19b8dfb13ecb2879d9f1a198d2c", "type": "electric_scooter", "is_reserved": 0, "lon": -77.03672983333334}, {"fusion_lat": 0.0, "name": "3f4c83fb03e10dba2a26d10a384c2ab3", "is_disabled": 0, "rental_uris": {"android": "https://dc.lft.to/lastmile_qr_scan", "ios": "https://dc.lft.to/lastmile_qr_scan"}, "fusion_lon": 0.0, "lat": 38.92318133333333, "bike_id": "3f4c83fb03e10dba2a26d10a384c2ab3", "type": "electric_scooter", "is_reserved": 0, "lon": -77.04038183333333}, {"fusion_lat": 0.0, "name": "1801b26850751c164fbdb8f5c6a5c018", "is_disabled": 0, "rental_uris": {"android": "https://dc.lft.to/lastmile_qr_scan", "ios": "https://dc.lft.to/lastmile_qr_scan"}, "fusion_lon": 0.0, "lat": 38.906180166666665, "bike_id": "1801b26850751c164fbdb8f5c6a5c018", "type": "electric_scooter", "is_reserved": 0, "lon": -77.01492633333334}, {"fusion_lat": 0.0, "name": "5eb2a1ca0d24268629d0e07ef6f439f1", "is_disabled": 0, "rental_uris": {"android": "https://dc.lft.to/lastmile_qr_scan", "ios": "https://dc.lft.to/lastmile_qr_scan"}, "fusion_lon": 0.0, "lat": 38.89219766666667, "bike_id": "5eb2a1ca0d24268629d0e07ef6f439f1", "type": "electric_scooter", "is_reserved": 0, "lon": -77.045054}, {"fusion_lat": 0.0, "name": "d37426582a220938187da5b94b3d6c5a", "is_disabled": 0, "rental_uris": {"android": "https://dc.lft.to/lastmile_qr_scan", "ios": "https://dc.lft.to/lastmile_qr_scan"}, "fusion_lon": 0.0, "lat": 38.89964166666667, "bike_id": "d37426582a220938187da5b94b3d6c5a", "type": "electric_scooter", "is_reserved": 0, "lon": -77.01712316666666}, {"fusion_lat": 0.0, "name": "a2acb144a9a64e9454530ba1e4b5890b", "is_disabled": 0, "rental_uris": {"android": "https://dc.lft.to/lastmile_qr_scan", "ios": "https://dc.lft.to/lastmile_qr_scan"}, "fusion_lon": 0.0, "lat": 38.916967666666665, "bike_id": "a2acb144a9a64e9454530ba1e4b5890b", "type": "electric_scooter", "is_reserved": 0, "lon": -77.02450683333333}, {"fusion_lat": 0.0, "name": "cce7d92ef11026294b76ce7f16eeb6cf", "is_disabled": 0, "rental_uris": {"android": "https://dc.lft.to/lastmile_qr_scan", "ios": "https://dc.lft.to/lastmile_qr_scan"}, "fusion_lon": 0.0, "lat": 38.92416683333333, "bike_id": "cce7d92ef11026294b76ce7f16eeb6cf", "type": "electric_scooter", "is_reserved": 0, "lon": -77.03633316666667}, {"fusion_lat": 0.0, "name": "3c3a22763c2e2895b00d8b3643a5f926", "is_disabled": 0, "rental_uris": {"android": "https://dc.lft.to/lastmile_qr_scan", "ios": "https://dc.lft.to/lastmile_qr_scan"}, "fusion_lon": 0.0, "lat": 38.878812333333336, "bike_id": "3c3a22763c2e2895b00d8b3643a5f926", "type": "electric_scooter", "is_reserved": 0, "lon": -77.005356}, {"fusion_lat": 0.0, "name": "483f9583aa43820c35443ea0fdc04b54", "is_disabled": 0, "rental_uris": {"android": "https://dc.lft.to/lastmile_qr_scan", "ios": "https://dc.lft.to/lastmile_qr_scan"}, "fusion_lon": 0.0, "lat": 38.905411666666666, "bike_id": "483f9583aa43820c35443ea0fdc04b54", "type": "electric_scooter", "is_reserved": 0, "lon": -77.05008116666667}, {"fusion_lat": 0.0, "name": "f1251a90173991271445b2ecd05e6535", "is_disabled": 0, "rental_uris": {"android": "https://dc.lft.to/lastmile_qr_scan", "ios": "https://dc.lft.to/lastmile_qr_scan"}, "fusion_lon": 0.0, "lat": 39.010777166666664, "bike_id": "f1251a90173991271445b2ecd05e6535", "type": "electric_bike", "is_reserved": 0, "lon": -76.91064316666667}, {"fusion_lat": 0.0, "name": "05eebac74af59c3a0b609f8f4178c35a", "is_disabled": 0, "rental_uris": {"android": "https://dc.lft.to/lastmile_qr_scan", "ios": "https://dc.lft.to/lastmile_qr_scan"}, "fusion_lon": 0.0, "lat": 38.91256083333333, "bike_id": "05eebac74af59c3a0b609f8f4178c35a", "type": "electric_scooter", "is_reserved": 0, "lon": -77.03857683333334}, {"fusion_lat": 0.0, "name": "9e6e5140a36ddfacbd018448610b730f", "is_disabled": 0, "rental_uris": {"android": "https://dc.lft.to/lastmile_qr_scan", "ios": "https://dc.lft.to/lastmile_qr_scan"}, "fusion_lon": 0.0, "lat": 38.923661, "bike_id": "9e6e5140a36ddfacbd018448610b730f", "type": "electric_scooter", "is_reserved": 0, "lon": -77.05190366666666}, {"fusion_lat": 0.0, "name": "9fff0f0d3c524921a6b332a13ae0b817", "is_disabled": 0, "rental_uris": {"android": "https://dc.lft.to/lastmile_qr_scan", "ios": "https://dc.lft.to/lastmile_qr_scan"}, "fusion_lon": 0.0, "lat": 38.924744833333335, "bike_id": "9fff0f0d3c524921a6b332a13ae0b817", "type": "electric_scooter", "is_reserved": 0, "lon": -77.03088533333333}, {"fusion_lat": 0.0, "name": "0c70a8f4ce16b488da9e563ed8a8fb0d", "is_disabled": 0, "rental_uris": {"android": "https://dc.lft.to/lastmile_qr_scan", "ios": "https://dc.lft.to/lastmile_qr_scan"}, "fusion_lon": 0.0, "lat": 38.907330333333334, "bike_id": "0c70a8f4ce16b488da9e563ed8a8fb0d", "type": "electric_scooter", "is_reserved": 0, "lon": -77.01098533333334}, {"fusion_lat": 0.0, "name": "3f5de603decc3b81d7b5bab069d75e2e", "is_disabled": 0, "rental_uris": {"android": "https://dc.lft.to/lastmile_qr_scan", "ios": "https://dc.lft.to/lastmile_qr_scan"}, "fusion_lon": 0.0, "lat": 38.91500216666667, "bike_id": "3f5de603decc3b81d7b5bab069d75e2e", "type": "electric_scooter", "is_reserved": 0, "lon": -77.01221166666667}, {"fusion_lat": 0.0, "name": "69f3456c75e9a5fd9d1cdce0edd28e97", "is_disabled": 0, "rental_uris": {"android": "https://dc.lft.to/lastmile_qr_scan", "ios": "https://dc.lft.to/lastmile_qr_scan"}, "fusion_lon": 0.0, "lat": 38.9205855, "bike_id": "69f3456c75e9a5fd9d1cdce0edd28e97", "type": "electric_scooter", "is_reserved": 0, "lon": -77.024417}, {"fusion_lat": 0.0, "name": "f9bb9c36e5a3950446c0c62668b0ed11", "is_disabled": 0, "rental_uris": {"android": "https://dc.lft.to/lastmile_qr_scan", "ios": "https://dc.lft.to/lastmile_qr_scan"}, "fusion_lon": 0.0, "lat": 38.9322655, "bike_id": "f9bb9c36e5a3950446c0c62668b0ed11", "type": "electric_scooter", "is_reserved": 0, "lon": -76.99493933333333}, {"fusion_lat": 0.0, "name": "f47b3a0dde458b9014dc21347be7e824", "is_disabled": 0, "rental_uris": {"android": "https://dc.lft.to/lastmile_qr_scan", "ios": "https://dc.lft.to/lastmile_qr_scan"}, "fusion_lon": 0.0, "lat": 38.9612145, "bike_id": "f47b3a0dde458b9014dc21347be7e824", "type": "electric_scooter", "is_reserved": 0, "lon": -77.027891}, {"fusion_lat": 0.0, "name": "82e55712a7c2f9628163a04ba3f14db8", "is_disabled": 0, "rental_uris": {"android": "https://dc.lft.to/lastmile_qr_scan", "ios": "https://dc.lft.to/lastmile_qr_scan"}, "fusion_lon": 0.0, "lat": 38.934444666666664, "bike_id": "82e55712a7c2f9628163a04ba3f14db8", "type": "electric_scooter", "is_reserved": 0, "lon": -77.0577185}, {"fusion_lat": 0.0, "name": "49d46430c15164de7ddc8dc49f8523e7", "is_disabled": 0, "rental_uris": {"android": "https://dc.lft.to/lastmile_qr_scan", "ios": "https://dc.lft.to/lastmile_qr_scan"}, "fusion_lon": 0.0, "lat": 38.90272083333333, "bike_id": "49d46430c15164de7ddc8dc49f8523e7", "type": "electric_scooter", "is_reserved": 0, "lon": -77.01762916666667}, {"fusion_lat": 0.0, "name": "7719ba57220bf3c40c8fb1be6a7dde3d", "is_disabled": 0, "rental_uris": {"android": "https://dc.lft.to/lastmile_qr_scan", "ios": "https://dc.lft.to/lastmile_qr_scan"}, "fusion_lon": 0.0, "lat": 38.92454083333333, "bike_id": "7719ba57220bf3c40c8fb1be6a7dde3d", "type": "electric_scooter", "is_reserved": 0, "lon": -76.97102516666666}, {"fusion_lat": 0.0, "name": "90a6f0773158b5d5636fb0792c739ed0", "is_disabled": 0, "rental_uris": {"android": "https://dc.lft.to/lastmile_qr_scan", "ios": "https://dc.lft.to/lastmile_qr_scan"}, "fusion_lon": 0.0, "lat": 38.907029, "bike_id": "90a6f0773158b5d5636fb0792c739ed0", "type": "electric_scooter", "is_reserved": 0, "lon": -76.98856066666667}, {"fusion_lat": 0.0, "name": "ae29c23ebc3e2d6eda2fd48e1a805c75", "is_disabled": 0, "rental_uris": {"android": "https://dc.lft.to/lastmile_qr_scan", "ios": "https://dc.lft.to/lastmile_qr_scan"}, "fusion_lon": 0.0, "lat": 38.887856, "bike_id": "ae29c23ebc3e2d6eda2fd48e1a805c75", "type": "electric_scooter", "is_reserved": 0, "lon": -76.95531183333334}, {"fusion_lat": 0.0, "name": "69a211ca8de97624043f4296c40ab2ae", "is_disabled": 0, "rental_uris": {"android": "https://dc.lft.to/lastmile_qr_scan", "ios": "https://dc.lft.to/lastmile_qr_scan"}, "fusion_lon": 0.0, "lat": 38.905457, "bike_id": "69a211ca8de97624043f4296c40ab2ae", "type": "electric_scooter", "is_reserved": 0, "lon": -77.04649216666667}, {"fusion_lat": 0.0, "name": "b67f8833214c518008839fe849b053ad", "is_disabled": 0, "rental_uris": {"android": "https://dc.lft.to/lastmile_qr_scan", "ios": "https://dc.lft.to/lastmile_qr_scan"}, "fusion_lon": 0.0, "lat": 38.93397216666666, "bike_id": "b67f8833214c518008839fe849b053ad", "type": "electric_scooter", "is_reserved": 0, "lon": -77.05741266666666}, {"fusion_lat": 0.0, "name": "fea18becd0ef9071243a61bc02e0c403", "is_disabled": 0, "rental_uris": {"android": "https://dc.lft.to/lastmile_qr_scan", "ios": "https://dc.lft.to/lastmile_qr_scan"}, "fusion_lon": 0.0, "lat": 38.938606, "bike_id": "fea18becd0ef9071243a61bc02e0c403", "type": "electric_scooter", "is_reserved": 0, "lon": -77.03434683333333}, {"fusion_lat": 0.0, "name": "bc104a93f44801d887c2d8d44bb6b4d0", "is_disabled": 0, "rental_uris": {"android": "https://dc.lft.to/lastmile_qr_scan", "ios": "https://dc.lft.to/lastmile_qr_scan"}, "fusion_lon": 0.0, "lat": 38.909945, "bike_id": "bc104a93f44801d887c2d8d44bb6b4d0", "type": "electric_scooter", "is_reserved": 0, "lon": -77.0467405}, {"fusion_lat": 0.0, "name": "ace7aa9d2f9e1ae0678357685b92c6a1", "is_disabled": 0, "rental_uris": {"android": "https://dc.lft.to/lastmile_qr_scan", "ios": "https://dc.lft.to/lastmile_qr_scan"}, "fusion_lon": 0.0, "lat": 38.893058333333336, "bike_id": "ace7aa9d2f9e1ae0678357685b92c6a1", "type": "electric_scooter", "is_reserved": 0, "lon": -77.01241733333333}, {"fusion_lat": 0.0, "name": "9eb74b6534dce964de0a0fa6f7cf8265", "is_disabled": 0, "rental_uris": {"android": "https://dc.lft.to/lastmile_qr_scan", "ios": "https://dc.lft.to/lastmile_qr_scan"}, "fusion_lon": 0.0, "lat": 38.919643, "bike_id": "9eb74b6534dce964de0a0fa6f7cf8265", "type": "electric_scooter", "is_reserved": 0, "lon": -77.0321495}, {"fusion_lat": 0.0, "name": "cce1adc055ce6809e0a05fee99eadb0f", "is_disabled": 0, "rental_uris": {"android": "https://dc.lft.to/lastmile_qr_scan", "ios": "https://dc.lft.to/lastmile_qr_scan"}, "fusion_lon": 0.0, "lat": 38.90229333333333, "bike_id": "cce1adc055ce6809e0a05fee99eadb0f", "type": "electric_scooter", "is_reserved": 0, "lon": -77.05342166666667}, {"fusion_lat": 0.0, "name": "d523c5d4db60c1251afbe311850d4591", "is_disabled": 0, "rental_uris": {"android": "https://dc.lft.to/lastmile_qr_scan", "ios": "https://dc.lft.to/lastmile_qr_scan"}, "fusion_lon": 0.0, "lat": 38.916945166666665, "bike_id": "d523c5d4db60c1251afbe311850d4591", "type": "electric_scooter", "is_reserved": 0, "lon": -77.03383766666667}, {"fusion_lat": 0.0, "name": "38ee89ae830b7bf647ab8f16d9ba90b5", "is_disabled": 0, "rental_uris": {"android": "https://dc.lft.to/lastmile_qr_scan", "ios": "https://dc.lft.to/lastmile_qr_scan"}, "fusion_lon": 0.0, "lat": 38.935416833333335, "bike_id": "38ee89ae830b7bf647ab8f16d9ba90b5", "type": "electric_scooter", "is_reserved": 0, "lon": -77.05741416666666}, {"fusion_lat": 0.0, "name": "212ef1537071f751db03a7e67d738024", "is_disabled": 0, "rental_uris": {"android": "https://dc.lft.to/lastmile_qr_scan", "ios": "https://dc.lft.to/lastmile_qr_scan"}, "fusion_lon": 0.0, "lat": 38.90128266666667, "bike_id": "212ef1537071f751db03a7e67d738024", "type": "electric_scooter", "is_reserved": 0, "lon": -77.00208216666667}, {"fusion_lat": 0.0, "name": "8a7f616912b2bac2a7865e7162cfba00", "is_disabled": 0, "rental_uris": {"android": "https://dc.lft.to/lastmile_qr_scan", "ios": "https://dc.lft.to/lastmile_qr_scan"}, "fusion_lon": 0.0, "lat": 38.92172, "bike_id": "8a7f616912b2bac2a7865e7162cfba00", "type": "electric_scooter", "is_reserved": 0, "lon": -77.03508766666667}, {"fusion_lat": 0.0, "name": "5eb59278eae9f48418ae7d6bf03fa50d", "is_disabled": 0, "rental_uris": {"android": "https://dc.lft.to/lastmile_qr_scan", "ios": "https://dc.lft.to/lastmile_qr_scan"}, "fusion_lon": 0.0, "lat": 38.8818525, "bike_id": "5eb59278eae9f48418ae7d6bf03fa50d", "type": "electric_scooter", "is_reserved": 0, "lon": -77.00351966666666}, {"fusion_lat": 0.0, "name": "1de1b70eb0737a7c53811ee863cb3e97", "is_disabled": 0, "rental_uris": {"android": "https://dc.lft.to/lastmile_qr_scan", "ios": "https://dc.lft.to/lastmile_qr_scan"}, "fusion_lon": 0.0, "lat": 38.872911333333334, "bike_id": "1de1b70eb0737a7c53811ee863cb3e97", "type": "electric_scooter", "is_reserved": 0, "lon": -77.00983183333334}, {"fusion_lat": 0.0, "name": "4cb3a788c8425bba18129525168930e4", "is_disabled": 0, "rental_uris": {"android": "https://dc.lft.to/lastmile_qr_scan", "ios": "https://dc.lft.to/lastmile_qr_scan"}, "fusion_lon": 0.0, "lat": 38.908769666666664, "bike_id": "4cb3a788c8425bba18129525168930e4", "type": "electric_scooter", "is_reserved": 0, "lon": -76.99799266666666}, {"fusion_lat": 0.0, "name": "872e42d1df979d4a55bced9b4733a64b", "is_disabled": 0, "rental_uris": {"android": "https://dc.lft.to/lastmile_qr_scan", "ios": "https://dc.lft.to/lastmile_qr_scan"}, "fusion_lon": 0.0, "lat": 38.9179695, "bike_id": "872e42d1df979d4a55bced9b4733a64b", "type": "electric_scooter", "is_reserved": 0, "lon": -77.04111916666666}, {"fusion_lat": 0.0, "name": "b428a89a7d29970cd293aa1df67ccdc8", "is_disabled": 0, "rental_uris": {"android": "https://dc.lft.to/lastmile_qr_scan", "ios": "https://dc.lft.to/lastmile_qr_scan"}, "fusion_lon": 0.0, "lat": 38.921194166666666, "bike_id": "b428a89a7d29970cd293aa1df67ccdc8", "type": "electric_scooter", "is_reserved": 0, "lon": -77.0365805}, {"fusion_lat": 0.0, "name": "4e0d33fe209da66ae1a2cd7d9f623ce6", "is_disabled": 0, "rental_uris": {"android": "https://dc.lft.to/lastmile_qr_scan", "ios": "https://dc.lft.to/lastmile_qr_scan"}, "fusion_lon": 0.0, "lat": 38.923724, "bike_id": "4e0d33fe209da66ae1a2cd7d9f623ce6", "type": "electric_scooter", "is_reserved": 0, "lon": -77.02817466666667}, {"fusion_lat": 0.0, "name": "363507443f9ee7395e6cd1a5a093689f", "is_disabled": 0, "rental_uris": {"android": "https://dc.lft.to/lastmile_qr_scan", "ios": "https://dc.lft.to/lastmile_qr_scan"}, "fusion_lon": 0.0, "lat": 38.903655, "bike_id": "363507443f9ee7395e6cd1a5a093689f", "type": "electric_scooter", "is_reserved": 0, "lon": -77.04028183333334}, {"fusion_lat": 0.0, "name": "9a422e3f9ca2de596447bf2632947d32", "is_disabled": 0, "rental_uris": {"android": "https://dc.lft.to/lastmile_qr_scan", "ios": "https://dc.lft.to/lastmile_qr_scan"},