{"data": {"bikes": [{"fusion_lat": 0.0, "type": "electric_scooter", "bike_id": "2932e09773849d5c6abe43d2be46fb79", "lat": 38.897228, "name": "2932e09773849d5c6abe43d2be46fb79", "is_disabled": 0, "rental_uris": {"android": "https://dc.lft.to/lastmile_qr_scan", "ios": "https://dc.lft.to/lastmile_qr_scan"}, "fusion_lon": 0.0, "lon": -76.92596316666666, "is_reserved": 0}, {"fusion_lat": 0.0, "type": "electric_scooter", "bike_id": "2ca9552561841bae265a6ee20d062f62", "lat": 38.920026666666665, "name": "2ca9552561841bae265a6ee20d062f62", "is_disabled": 0, "rental_uris": {"android": "https://dc.lft.to/lastmile_qr_scan", "ios": "https://dc.lft.to/lastmile_qr_scan"}, "fusion_lon": 0.0, "lon": -77.02085, "is_reserved": 0}, {"fusion_lat": 0.0, "type": "electric_scooter", "bike_id": "9bd324f4e59ab8d868ba8171c00b0c1c", "lat": 38.92370916666667, "name": "9bd324f4e59ab8d868ba8171c00b0c1c", "is_disabled": 0, "rental_uris": {"android": "https://dc.lft.to/lastmile_qr_scan", "ios": "https://dc.lft.to/lastmile_qr_scan"}, "fusion_lon": 0.0, "lon": -77.01922683333333, "is_reserved": 0}, {"fusion_lat": 0.0, "type": "electric_scooter", "bike_id": "dc2e63217e9df24701de9b7244af1216", "lat": 38.9248835, "name": "dc2e63217e9df24701de9b7244af1216", "is_disabled": 0, "rental_uris": {"android": "https://dc.lft.to/lastmile_qr_scan", "ios": "https://dc.lft.to/lastmile_qr_scan"}, "fusion_lon": 0.0, "lon": -77.02136633333333, "is_reserved": 0}, {"fusion_lat": 0.0, "type": "electric_scooter", "bike_id": "a8e87e015cae63e022f30473e59f4571", "lat": 38.9023825, "name": "a8e87e015cae63e022f30473e59f4571", "is_disabled": 0, "rental_uris": {"android": "https://dc.lft.to/lastmile_qr_scan", "ios": "https://dc.lft.to/lastmile_qr_scan"}, "fusion_lon": 0.0, "lon": -77.032651, "is_reserved": 0}, {"fusion_lat": 0.0, "type": "electric_scooter", "bike_id": "73b0a5b5522ca3e8deca8a5407b65aed", "lat": 38.92033083333333, "name": "73b0a5b5522ca3e8deca8a5407b65aed", "is_disabled": 0, "rental_uris": {"android": "https://dc.lft.to/lastmile_qr_scan", "ios": "https://dc.lft.to/lastmile_qr_scan"}, "fusion_lon": 0.0, "lon": -77.02588233333333, "is_reserved": 0}, {"fusion_lat": 0.0, "type": "electric_scooter", "bike_id": "323037295a97a08d22267798704530bd", "lat": 38.87882283333333, "name": "323037295a97a08d22267798704530bd", "is_disabled": 0, "rental_uris": {"android": "https://dc.lft.to/lastmile_qr_scan", "ios": "https://dc.lft.to/lastmile_qr_scan"}, "fusion_lon": 0.0, "lon": -77.00059233333333, "is_reserved": 0}, {"fusion_lat": 0.0, "type": "electric_scooter", "bike_id": "f6d1cd1d1a285d7c3e9d54ccfe988aeb", "lat": 38.931323666666664, "name": "f6d1cd1d1a285d7c3e9d54ccfe988aeb", "is_disabled": 0, "rental_uris": {"android": "https://dc.lft.to/lastmile_qr_scan", "ios": "https://dc.lft.to/lastmile_qr_scan"}, "fusion_lon": 0.0, "lon": -77.05727783333333, "is_reserved": 0}, {"fusion_lat": 0.0, "type": "electric_scooter", "bike_id": "306ebf97e1091883746cfeef4c941753", "lat": 38.89478, "name": "306ebf97e1091883746cfeef4c941753", "is_disabled": 0, "rental_uris": {"android": "https://dc.lft.to/lastmile_qr_scan", "ios": "https://dc.lft.to/lastmile_qr_scan"}, "fusion_lon": 0.0, "lon": -76.97916666666667, "is_reserved": 0}, {"fusion_lat": 0.0, "type": "electric_scooter", "bike_id": "110c828c44d137becd70385b777b1e92", "lat": 38.921286333333335, "name": "110c828c44d137becd70385b777b1e92", "is_disabled": 0, "rental_uris": {"android": "https://dc.lft.to/lastmile_qr_scan", "ios": "https://dc.lft.to/lastmile_qr_scan"}, "fusion_lon": 0.0, "lon": -77.017975, "is_reserved": 0}, {"fusion_lat": 0.0, "type": "electric_scooter", "bike_id": "d5a2ed4cf466c3d180b8442776497d32", "lat": 38.895415666666665, "name": "d5a2ed4cf466c3d180b8442776497d32", "is_disabled": 0, "rental_uris": {"android": "https://dc.lft.to/lastmile_qr_scan", "ios": "https://dc.lft.to/lastmile_qr_scan"}, "fusion_lon": 0.0, "lon": -77.00900816666666, "is_reserved": 0}, {"fusion_lat": 0.0, "type": "electric_scooter", "bike_id": "1c9cb9bd4ba966ee481da021cebdcc60", "lat": 38.924668, "name": "1c9cb9bd4ba966ee481da021cebdcc60", "is_disabled": 0, "rental_uris": {"android": "https://dc.lft.to/lastmile_qr_scan", "ios": "https://dc.lft.to/lastmile_qr_scan"}, "fusion_lon": 0.0, "lon": -77.05237916666667, "is_reserved": 0}, {"fusion_lat": 0.0, "type": "electric_bike", "bike_id": "7c92ac5aabea605d937266aee8004e60", "lat": 38.96632116666667, "name": "7c92ac5aabea605d937266aee8004e60", "is_disabled": 0, "rental_uris": {"android": "https://dc.lft.to/lastmile_qr_scan", "ios": "https://dc.lft.to/lastmile_qr_scan"}, "fusion_lon": 0.0, "lon": -77.01056833333334, "is_reserved": 0}, {"fusion_lat": 0.0, "type": "electric_scooter", "bike_id": "11472f044974b166d52418a5fe3cc721", "lat": 38.877989, "name": "11472f044974b166d52418a5fe3cc721", "is_disabled": 0, "rental_uris": {"android": "https://dc.lft.to/lastmile_qr_scan", "ios": "https://dc.lft.to/lastmile_qr_scan"}, "fusion_lon": 0.0, "lon": -77.00124966666667, "is_reserved": 0}, {"fusion_lat": 0.0, "type": "electric_scooter", "bike_id": "6a46202a28f5f8e7630529720fc10103", "lat": 38.9133325, "name": "6a46202a28f5f8e7630529720fc10103", "is_disabled": 0, "rental_uris": {"android": "https://dc.lft.to/lastmile_qr_scan", "ios": "https://dc.lft.to/lastmile_qr_scan"}, "fusion_lon": 0.0, "lon": -77.04821433333333, "is_reserved": 0}, {"fusion_lat": 0.0, "type": "electric_scooter", "bike_id": "6b53198a3f4f26e3ca18990c7afdf24d", "lat": 38.8843065, "name": "6b53198a3f4f26e3ca18990c7afdf24d", "is_disabled": 0, "rental_uris": {"android": "https://dc.lft.to/lastmile_qr_scan", "ios": "https://dc.lft.to/lastmile_qr_scan"}, "fusion_lon": 0.0, "lon": -76.99679066666667, "is_reserved": 0}, {"fusion_lat": 0.0, "type": "electric_bike", "bike_id": "78eb45a157f95f31e03ea7c93d71fec4", "lat": 38.992258666666665, "name": "78eb45a157f95f31e03ea7c93d71fec4", "is_disabled": 0, "rental_uris": {"android": "https://dc.lft.to/lastmile_qr_scan", "ios": "https://dc.lft.to/lastmile_qr_scan"}, "fusion_lon": 0.0, "lon": -77.06533, "is_reserved": 0}, {"fusion_lat": 0.0, "type": "electric_scooter", "bike_id": "d40749d90b23098905ea489b39743853", "lat": 38.921462166666664, "name": "d40749d90b23098905ea489b39743853", "is_disabled": 0, "rental_uris": {"android": "https://dc.lft.to/lastmile_qr_scan", "ios": "https://dc.lft.to/lastmile_qr_scan"}, "fusion_lon": 0.0, "lon": -77.03307783333334, "is_reserved": 0}, {"fusion_lat": 0.0, "type": "electric_bike", "bike_id": "37cb16d23d003c3d21b24d00d17f9738", "lat": 38.98216933333333, "name": "37cb16d23d003c3d21b24d00d17f9738", "is_disabled": 0, "rental_uris": {"android": "https://dc.lft.to/lastmile_qr_scan", "ios": "https://dc.lft.to/lastmile_qr_scan"}, "fusion_lon": 0.0, "lon": -77.09658316666666, "is_reserved": 0}, {"fusion_lat": 0.0, "type": "electric_scooter", "bike_id": "265ad66aec78c8aaab7054aeffc03b7f", "lat": 38.92912466666667, "name": "265ad66aec78c8aaab7054aeffc03b7f", "is_disabled": 0, "rental_uris": {"android": "https://dc.lft.to/lastmile_qr_scan", "ios": "https://dc.lft.to/lastmile_qr_scan"}, "fusion_lon": 0.0, "lon": -77.0219375, "is_reserved": 0}, {"fusion_lat": 0.0, "type": "electric_scooter", "bike_id": "b527e60a35b899e5ab20008bca7a3a97", "lat": 38.897287166666665, "name": "b527e60a35b899e5ab20008bca7a3a97", "is_disabled": 0, "rental_uris": {"android": "https://dc.lft.to/lastmile_qr_scan", "ios": "https://dc.lft.to/lastmile_qr_scan"}, "fusion_lon": 0.0, "lon": -77.0269965, "is_reserved": 0}, {"fusion_lat": 0.0, "type": "electric_bike", "bike_id": "d464da949b91301f57db702d9b3efdff", "lat": 38.8565025, "name": "d464da949b91301f57db702d9b3efdff", "is_disabled": 0, "rental_uris": {"android": "https://dc.lft.to/lastmile_qr_scan", "ios": "https://dc.lft.to/lastmile_qr_scan"}, "fusion_lon": 0.0, "lon": -77.08531133333334, "is_reserved": 0}, {"fusion_lat": 0.0, "type": "electric_scooter", "bike_id": "fe4d255137ff8c654f2e08371270858f", "lat": 38.91878116666667, "name": "fe4d255137ff8c654f2e08371270858f", "is_disabled": 0, "rental_uris": {"android": "https://dc.lft.to/lastmile_qr_scan", "ios": "https://dc.lft.to/lastmile_qr_scan"}, "fusion_lon": 0.0, "lon": -77.04310183333334, "is_reserved": 0}, {"fusion_lat": 0.0, "type": "electric_scooter", "bike_id": "e824c1d2138f68cbd723d0b038f9c002", "lat": 38.88731516666667, "name": "e824c1d2138f68cbd723d0b038f9c002", "is_disabled": 0, "rental_uris": {"android": "https://dc.lft.to/lastmile_qr_scan", "ios": "https://dc.lft.to/lastmile_qr_scan"}, "fusion_lon": 0.0, "lon": -77.0139495, "is_reserved": 0}, {"fusion_lat": 0.0, "type": "electric_scooter", "bike_id": "91e0f4bfaacdcad466fb3481576de490", "lat": 38.90152716666667, "name": "91e0f4bfaacdcad466fb3481576de490", "is_disabled": 0, "rental_uris": {"android": "https://dc.lft.to/lastmile_qr_scan", "ios": "https://dc.lft.to/lastmile_qr_scan"}, "fusion_lon": 0.0, "lon": -77.040478, "is_reserved": 0}, {"fusion_lat": 0.0, "type": "electric_scooter", "bike_id": "e0ccd3c1a75e4c7f68fd503818cd520d", "lat": 38.90129016666667, "name": "e0ccd3c1a75e4c7f68fd503818cd520d", "is_disabled": 0, "rental_uris": {"android": "https://dc.lft.to/lastmile_qr_scan", "ios": "https://dc.lft.to/lastmile_qr_scan"}, "fusion_lon": 0.0, "lon": -77.03972216666666, "is_reserved": 0}, {"fusion_lat": 0.0, "type": "electric_scooter", "bike_id": "77cc281feea84a8219390c98daf66486", "lat": 38.90785133333333, "name": "77cc281feea84a8219390c98daf66486", "is_disabled": 0, "rental_uris": {"android": "https://dc.lft.to/lastmile_qr_scan", "ios": "https://dc.lft.to/lastmile_qr_scan"}, "fusion_lon": 0.0, "lon": -77.03202816666666, "is_reserved": 0}, {"fusion_lat": 0.0, "type": "electric_scooter", "bike_id": "07cdd0e7dbb2f7458f8c594b6749d0b3", "lat": 38.92612, "name": "07cdd0e7dbb2f7458f8c594b6749d0b3", "is_disabled": 0, "rental_uris": {"android": "https://dc.lft.to/lastmile_qr_scan", "ios": "https://dc.lft.to/lastmile_qr_scan"}, "fusion_lon": 0.0, "lon": -77.02170016666666, "is_reserved": 0}, {"fusion_lat": 0.0, "type": "electric_scooter", "bike_id": "bd987d2b735e6edd01455624bb134fb5", "lat": 38.9026045, "name": "bd987d2b735e6edd01455624bb134fb5", "is_disabled": 0, "rental_uris": {"android": "https://dc.lft.to/lastmile_qr_scan", "ios": "https://dc.lft.to/lastmile_qr_scan"}, "fusion_lon": 0.0, "lon": -77.03888466666666, "is_reserved": 0}, {"fusion_lat": 0.0, "type": "electric_bike", "bike_id": "9030c496a95c7472e9fdac7c7f26134e", "lat": 38.898367, "name": "9030c496a95c7472e9fdac7c7f26134e", "is_disabled": 0, "rental_uris": {"android": "https://dc.lft.to/lastmile_qr_scan", "ios": "https://dc.lft.to/lastmile_qr_scan"}, "fusion_lon": 0.0, "lon": -77.03974016666666, "is_reserved": 0}, {"fusion_lat": 0.0, "type": "electric_scooter", "bike_id": "2eb3e51a2d51ec8e5ccac6d8ce713680", "lat": 38.92578966666667, "name": "2eb3e51a2d51ec8e5ccac6d8ce713680", "is_disabled": 0, "rental_uris": {"android": "https://dc.lft.to/lastmile_qr_scan", "ios": "https://dc.lft.to/lastmile_qr_scan"}, "fusion_lon": 0.0, "lon": -77.02653583333333, "is_reserved": 0}, {"fusion_lat": 0.0, "type": "electric_scooter", "bike_id": "0c97c35cf6b6f9c7389659c2aef00161", "lat": 38.91667266666666, "name": "0c97c35cf6b6f9c7389659c2aef00161", "is_disabled": 0, "rental_uris": {"android": "https://dc.lft.to/lastmile_qr_scan", "ios": "https://dc.lft.to/lastmile_qr_scan"}, "fusion_lon": 0.0, "lon": -77.027179, "is_reserved": 0}, {"fusion_lat": 0.0, "type": "electric_bike", "bike_id": "b8fcb9df7de9a5d9fd68189eae660de7", "lat": 38.865489333333336, "name": "b8fcb9df7de9a5d9fd68189eae660de7", "is_disabled": 0, "rental_uris": {"android": "https://dc.lft.to/lastmile_qr_scan", "ios": "https://dc.lft.to/lastmile_qr_scan"}, "fusion_lon": 0.0, "lon": -76.94156333333333, "is_reserved": 0}, {"fusion_lat": 0.0, "type": "electric_scooter", "bike_id": "84d239b0878f309c90a78a060497fcc0", "lat": 38.89710133333333, "name": "84d239b0878f309c90a78a060497fcc0", "is_disabled": 0, "rental_uris": {"android": "https://dc.lft.to/lastmile_qr_scan", "ios": "https://dc.lft.to/lastmile_qr_scan"}, "fusion_lon": 0.0, "lon": -77.0132575, "is_reserved": 0}, {"fusion_lat": 0.0, "type": "electric_scooter", "bike_id": "bff8a2e1aea2feeb18decd7fb8398395", "lat": 38.9073725, "name": "bff8a2e1aea2feeb18decd7fb8398395", "is_disabled": 0, "rental_uris": {"android": "https://dc.lft.to/lastmile_qr_scan", "ios": "https://dc.lft.to/lastmile_qr_scan"}, "fusion_lon": 0.0, "lon": -77.0280435, "is_reserved": 0}, {"fusion_lat": 0.0, "type": "electric_scooter", "bike_id": "71f0ce9672ca228592a2f69c126e450e", "lat": 38.9064325, "name": "71f0ce9672ca228592a2f69c126e450e", "is_disabled": 0, "rental_uris": {"android": "https://dc.lft.to/lastmile_qr_scan", "ios": "https://dc.lft.to/lastmile_qr_scan"}, "fusion_lon": 0.0, "lon": -77.01416266666666, "is_reserved": 0}, {"fusion_lat": 0.0, "type": "electric_scooter", "bike_id": "2597da205d410167014dacd8550aaf51", "lat": 38.899472833333334, "name": "2597da205d410167014dacd8550aaf51", "is_disabled": 0, "rental_uris": {"android": "https://dc.lft.to/lastmile_qr_scan", "ios": "https://dc.lft.to/lastmile_qr_scan"}, "fusion_lon": 0.0, "lon": -77.01428716666666, "is_reserved": 0}, {"fusion_lat": 0.0, "type": "electric_bike", "bike_id": "1d4e3b1976490e01e9b09db518ef9c2b", "lat": 38.880274, "name": "1d4e3b1976490e01e9b09db518ef9c2b", "is_disabled": 0, "rental_uris": {"android": "https://dc.lft.to/lastmile_qr_scan", "ios": "https://dc.lft.to/lastmile_qr_scan"}, "fusion_lon": 0.0, "lon": -76.91725583333333, "is_reserved": 0}, {"fusion_lat": 0.0, "type": "electric_scooter", "bike_id": "3c26c2279843c70d0002ef07a0c0aca7", "lat": 38.899787333333336, "name": "3c26c2279843c70d0002ef07a0c0aca7", "is_disabled": 0, "rental_uris": {"android": "https://dc.lft.to/lastmile_qr_scan", "ios": "https://dc.lft.to/lastmile_qr_scan"}, "fusion_lon": 0.0, "lon": -77.05514, "is_reserved": 0}, {"fusion_lat": 0.0, "type": "electric_scooter", "bike_id": "a5941d11e24ec17e2a22c538de0b2400", "lat": 38.9554065, "name": "a5941d11e24ec17e2a22c538de0b2400", "is_disabled": 0, "rental_uris": {"android": "https://dc.lft.to/lastmile_qr_scan", "ios": "https://dc.lft.to/lastmile_qr_scan"}, "fusion_lon": 0.0, "lon": -77.02784, "is_reserved": 0}, {"fusion_lat": 0.0, "type": "electric_scooter", "bike_id": "6470672e3a7e014934e141397503e46f", "lat": 38.923682, "name": "6470672e3a7e014934e141397503e46f", "is_disabled": 0, "rental_uris": {"android": "https://dc.lft.to/lastmile_qr_scan", "ios": "https://dc.lft.to/lastmile_qr_scan"}, "fusion_lon": 0.0, "lon": -77.02058616666666, "is_reserved": 0}, {"fusion_lat": 0.0, "type": "electric_scooter", "bike_id": "5177844baa73d5361f01e5883cb42682", "lat": 38.91363966666667, "name": "5177844baa73d5361f01e5883cb42682", "is_disabled": 0, "rental_uris": {"android": "https://dc.lft.to/lastmile_qr_scan", "ios": "https://dc.lft.to/lastmile_qr_scan"}, "fusion_lon": 0.0, "lon": -77.07228583333334, "is_reserved": 0}, {"fusion_lat": 0.0, "type": "electric_scooter", "bike_id": "9f0e83776b3b27b8624a7d6c4f6fcd6d", "lat": 38.9050885, "name": "9f0e83776b3b27b8624a7d6c4f6fcd6d", "is_disabled": 0, "rental_uris": {"android": "https://dc.lft.to/lastmile_qr_scan", "ios": "https://dc.lft.to/lastmile_qr_scan"}, "fusion_lon": 0.0, "lon": -77.06037466666666, "is_reserved": 0}, {"fusion_lat": 0.0, "type": "electric_scooter", "bike_id": "6c3a38d328270c5f0ca8f673363393aa", "lat": 38.949312666666664, "name": "6c3a38d328270c5f0ca8f673363393aa", "is_disabled": 0, "rental_uris": {"android": "https://dc.lft.to/lastmile_qr_scan", "ios": "https://dc.lft.to/lastmile_qr_scan"}, "fusion_lon": 0.0, "lon": -77.01852833333334, "is_reserved": 0}, {"fusion_lat": 0.0, "type": "electric_scooter", "bike_id": "ebeeaadfc333a4460c7b842f1c3e1ed7", "lat": 38.92135183333333, "name": "ebeeaadfc333a4460c7b842f1c3e1ed7", "is_disabled": 0, "rental_uris": {"android": "https://dc.lft.to/lastmile_qr_scan", "ios": "https://dc.lft.to/lastmile_qr_scan"}, "fusion_lon": 0.0, "lon": -77.017945, "is_reserved": 0}, {"fusion_lat": 0.0, "type": "electric_scooter", "bike_id": "8d64aa81a2d25575b5120926394b734b", "lat": 38.893495333333334, "name": "8d64aa81a2d25575b5120926394b734b", "is_disabled": 0, "rental_uris": {"android": "https://dc.lft.to/lastmile_qr_scan", "ios": "https://dc.lft.to/lastmile_qr_scan"}, "fusion_lon": 0.0, "lon": -77.0034005, "is_reserved": 0}, {"fusion_lat": 0.0, "type": "electric_scooter", "bike_id": "e86a9c12b131acc62a94f07445c6186c", "lat": 38.928996, "name": "e86a9c12b131acc62a94f07445c6186c", "is_disabled": 0, "rental_uris": {"android": "https://dc.lft.to/lastmile_qr_scan", "ios": "https://dc.lft.to/lastmile_qr_scan"}, "fusion_lon": 0.0, "lon": -77.05457483333333, "is_reserved": 0}, {"fusion_lat": 0.0, "type": "electric_scooter", "bike_id": "da7fafbdbc79055acf6602761654bab4", "lat": 38.92401016666667, "name": "da7fafbdbc79055acf6602761654bab4", "is_disabled": 0, "rental_uris": {"android": "https://dc.lft.to/lastmile_qr_scan", "ios": "https://dc.lft.to/lastmile_qr_scan"}, "fusion_lon": 0.0, "lon": -77.02549916666666, "is_reserved": 0}, {"fusion_lat": 0.0, "type": "electric_scooter", "bike_id": "bbbeeaea3740c86d6f1e7dd3bb70d13e", "lat": 38.91962083333333, "name": "bbbeeaea3740c86d6f1e7dd3bb70d13e", "is_disabled": 0, "rental_uris": {"android": "https://dc.lft.to/lastmile_qr_scan", "ios": "https://dc.lft.to/lastmile_qr_scan"}, "fusion_lon": 0.0, "lon": -77.0271505, "is_reserved": 0}, {"fusion_lat": 0.0, "type": "electric_scooter", "bike_id": "2cd8526d98725e25a58fb1e3dc679d03", "lat": 38.90067966666667, "name": "2cd8526d98725e25a58fb1e3dc679d03", "is_disabled": 0, "rental_uris": {"android": "https://dc.lft.to/lastmile_qr_scan", "ios": "https://dc.lft.to/lastmile_qr_scan"}, "fusion_lon": 0.0, "lon": -77.05005583333333, "is_reserved": 0}, {"fusion_lat": 0.0, "type": "electric_scooter", "bike_id": "7b7d053a30e4f685ecebb94d1a5dce36", "lat": 38.900196333333334, "name": "7b7d053a30e4f685ecebb94d1a5dce36", "is_disabled": 0, "rental_uris": {"android": "https://dc.lft.to/lastmile_qr_scan", "ios": "https://dc.lft.to/lastmile_qr_scan"}, "fusion_lon": 0.0, "lon": -77.022128, "is_reserved": 0}, {"fusion_lat": 0.0, "type": "electric_scooter", "bike_id": "bb9ae74501365a7e48fb5cf08d683a9d", "lat": 38.9095605, "name": "bb9ae74501365a7e48fb5cf08d683a9d", "is_disabled": 0, "rental_uris": {"android": "https://dc.lft.to/lastmile_qr_scan", "ios": "https://dc.lft.to/lastmile_qr_scan"}, "fusion_lon": 0.0, "lon": -77.00764, "is_reserved": 0}, {"fusion_lat": 0.0, "type": "electric_scooter", "bike_id": "a9cd2291f69cf9884037d53624e0f628", "lat": 38.8863745, "name": "a9cd2291f69cf9884037d53624e0f628", "is_disabled": 0, "rental_uris": {"android": "https://dc.lft.to/lastmile_qr_scan", "ios": "https://dc.lft.to/lastmile_qr_scan"}, "fusion_lon": 0.0, "lon": -77.02138033333334, "is_reserved": 0}, {"fusion_lat": 0.0, "type": "electric_bike", "bike_id": "72bdf7ae13c94dd4fc91de307b714bdc", "lat": 38.81544233333334, "name": "72bdf7ae13c94dd4fc91de307b714bdc", "is_disabled": 0, "rental_uris": {"android": "https://dc.lft.to/lastmile_qr_scan", "ios": "https://dc.lft.to/lastmile_qr_scan"}, "fusion_lon": 0.0, "lon": -77.04648933333333, "is_reserved": 0}, {"fusion_lat": 0.0, "type": "electric_scooter", "bike_id": "b7da73b6032df586254845d420e2956b", "lat": 38.89484216666666, "name": "b7da73b6032df586254845d420e2956b", "is_disabled": 0, "rental_uris": {"android": "https://dc.lft.to/lastmile_qr_scan", "ios": "https://dc.lft.to/lastmile_qr_scan"}, "fusion_lon": 0.0, "lon": -77.0109115, "is_reserved": 0}, {"fusion_lat": 0.0, "type": "electric_scooter", "bike_id": "6c128077fe9a9d1cfe868df2f3b22a02", "lat": 38.92470383333333, "name": "6c128077fe9a9d1cfe868df2f3b22a02", "is_disabled": 0, "rental_uris": {"android": "https://dc.lft.to/lastmile_qr_scan", "ios": "https://dc.lft.to/lastmile_qr_scan"}, "fusion_lon": 0.0, "lon": -77.02220683333333, "is_reserved": 0}, {"fusion_lat": 0.0, "type": "electric_scooter", "bike_id": "9e1463a18c22fec2b7c724e02d8aaba1", "lat": 38.929049, "name": "9e1463a18c22fec2b7c724e02d8aaba1", "is_disabled": 0, "rental_uris": {"android": "https://dc.lft.to/lastmile_qr_scan", "ios": "https://dc.lft.to/lastmile_qr_scan"}, "fusion_lon": 0.0, "lon": -77.05810633333333, "is_reserved": 0}, {"fusion_lat": 0.0, "type": "electric_scooter", "bike_id": "b6b8d90d9f7d2f578706d820a8c36784", "lat": 38.8951265, "name": "b6b8d90d9f7d2f578706d820a8c36784", "is_disabled": 0, "rental_uris": {"android": "https://dc.lft.to/lastmile_qr_scan", "ios": "https://dc.lft.to/lastmile_qr_scan"}, "fusion_lon": 0.0, "lon": -77.02417083333333, "is_reserved": 0}, {"fusion_lat": 0.0, "type": "electric_scooter", "bike_id": "e12198504d12b2dedd7bcd397523d4a0", "lat": 38.92343566666667, "name": "e12198504d12b2dedd7bcd397523d4a0", "is_disabled": 0, "rental_uris": {"android": "https://dc.lft.to/lastmile_qr_scan", "ios": "https://dc.lft.to/lastmile_qr_scan"}, "fusion_lon": 0.0, "lon": -77.01908516666667, "is_reserved": 0}, {"fusion_lat": 0.0, "type": "electric_scooter", "bike_id": "6c181da8dd5c288393c4011fd37f7a2f", "lat": 38.9014855, "name": "6c181da8dd5c288393c4011fd37f7a2f", "is_disabled": 0, "rental_uris": {"android": "https://dc.lft.to/lastmile_qr_scan", "ios": "https://dc.lft.to/lastmile_qr_scan"}, "fusion_lon": 0.0, "lon": -77.05025083333334, "is_reserved": 0}, {"fusion_lat": 0.0, "type": "electric_scooter", "bike_id": "92f70850d44f182501d068d9f5efb95d", "lat": 38.89191266666667, "name": "92f70850d44f182501d068d9f5efb95d", "is_disabled": 0, "rental_uris": {"android": "https://dc.lft.to/lastmile_qr_scan", "ios": "https://dc.lft.to/lastmile_qr_scan"}, "fusion_lon": 0.0, "lon": -77.00295466666667, "is_reserved": 0}, {"fusion_lat": 0.0, "type": "electric_scooter", "bike_id": "910e95a09f3eabe94524d5aa9c249261", "lat": 38.87832983333333, "name": "910e95a09f3eabe94524d5aa9c249261", "is_disabled": 0, "rental_uris": {"android": "https://dc.lft.to/lastmile_qr_scan", "ios": "https://dc.lft.to/lastmile_qr_scan"}, "fusion_lon": 0.0, "lon": -77.02282783333334, "is_reserved": 0}, {"fusion_lat": 0.0, "type": "electric_bike", "bike_id": "593eb56b2626eb7b7240bfa0dd6c3b49", "lat": 38.93625816666667, "name": "593eb56b2626eb7b7240bfa0dd6c3b49", "is_disabled": 0, "rental_uris": {"android": "https://dc.lft.to/lastmile_qr_scan", "ios": "https://dc.lft.to/lastmile_qr_scan"}, "fusion_lon": 0.0, "lon": -76.96072366666667, "is_reserved": 0}, {"fusion_lat": 0.0, "type": "electric_scooter", "bike_id": "cdf50ef2af3588b8fcf6c1290cdccb93", "lat": 38.939655, "name": "cdf50ef2af3588b8fcf6c1290cdccb93", "is_disabled": 0, "rental_uris": {"android": "https://dc.lft.to/lastmile_qr_scan", "ios": "https://dc.lft.to/lastmile_qr_scan"}, "fusion_lon": 0.0, "lon": -77.0328395, "is_reserved": 0}, {"fusion_lat": 0.0, "type": "electric_scooter", "bike_id": "f0f5d70b67724abc54acaa3bcf35979c", "lat": 38.897977, "name": "f0f5d70b67724abc54acaa3bcf35979c", "is_disabled": 0, "rental_uris": {"android": "https://dc.lft.to/lastmile_qr_scan", "ios": "https://dc.lft.to/lastmile_qr_scan"}, "fusion_lon": 0.0, "lon": -76.97933266666666, "is_reserved": 0}, {"fusion_lat": 0.0, "type": "electric_scooter", "bike_id": "f919a0c6b56b185ae6ab8b38a46e2b8b", "lat": 38.86944833333333, "name": "f919a0c6b56b185ae6ab8b38a46e2b8b", "is_disabled": 0, "rental_uris": {"android": "https://dc.lft.to/lastmile_qr_scan", "ios": "https://dc.lft.to/lastmile_qr_scan"}, "fusion_lon": 0.0, "lon": -76.97083233333333, "is_reserved": 0}, {"fusion_lat": 0.0, "type": "electric_scooter", "bike_id": "62ee77fd771c31e35a0b4331b00eedf4", "lat": 38.89543883333333, "name": "62ee77fd771c31e35a0b4331b00eedf4", "is_disabled": 0, "rental_uris": {"android": "https://dc.lft.to/lastmile_qr_scan", "ios": "https://dc.lft.to/lastmile_qr_scan"}, "fusion_lon": 0.0, "lon": -76.983381, "is_reserved": 0}, {"fusion_lat": 0.0, "type": "electric_scooter", "bike_id": "893bd72fa31480a5b4820e3ff6b45751", "lat": 38.894371666666665, "name": "893bd72fa31480a5b4820e3ff6b45751", "is_disabled": 0, "rental_uris": {"android": "https://dc.lft.to/lastmile_qr_scan", "ios": "https://dc.lft.to/lastmile_qr_scan"}, "fusion_lon": 0.0, "lon": -77.02179983333333, "is_reserved": 0}, {"fusion_lat": 0.0, "type": "electric_scooter", "bike_id": "c5c5076230c824bd3b2470226046ec57", "lat": 38.90823866666667, "name": "c5c5076230c824bd3b2470226046ec57", "is_disabled": 0, "rental_uris": {"android": "https://dc.lft.to/lastmile_qr_scan", "ios": "https://dc.lft.to/lastmile_qr_scan"}, "fusion_lon": 0.0, "lon": -76.9945385, "is_reserved": 0}, {"fusion_lat": 0.0, "type": "electric_bike", "bike_id": "99092f998919e46ee0d92af4843fca9a", "lat": 38.95073883333333, "name": "99092f998919e46ee0d92af4843fca9a", "is_disabled": 0, "rental_uris": {"android": "https://dc.lft.to/lastmile_qr_scan", "ios": "https://dc.lft.to/lastmile_qr_scan"}, "fusion_lon": 0.0, "lon": -76.99598683333333, "is_reserved": 0}, {"fusion_lat": 0.0, "type": "electric_scooter", "bike_id": "d00e1e9009304b643faca95ae6ad3503", "lat": 38.9062745, "name": "d00e1e9009304b643faca95ae6ad3503", "is_disabled": 0, "rental_uris": {"android": "https://dc.lft.to/lastmile_qr_scan", "ios": "https://dc.lft.to/lastmile_qr_scan"}, "fusion_lon": 0.0, "lon": -77.005774, "is_reserved": 0}, {"fusion_lat": 0.0, "type": "electric_scooter", "bike_id": "0698fd5325aaf1c9bc8b70f336666e0e", "lat": 38.916395666666666, "name": "0698fd5325aaf1c9bc8b70f336666e0e", "is_disabled": 0, "rental_uris": {"android": "https://dc.lft.to/lastmile_qr_scan", "ios": "https://dc.lft.to/lastmile_qr_scan"}, "fusion_lon": 0.0, "lon": -77.02886916666667, "is_reserved": 0}, {"fusion_lat": 0.0, "type": "electric_scooter", "bike_id": "d972deae443ca69d8e4c6e2ed59e3380", "lat": 38.924685833333335, "name": "d972deae443ca69d8e4c6e2ed59e3380", "is_disabled": 0, "rental_uris": {"android": "https://dc.lft.to/lastmile_qr_scan", "ios": "https://dc.lft.to/lastmile_qr_scan"}, "fusion_lon": 0.0, "lon": -77.03011133333334, "is_reserved": 0}, {"fusion_lat": 0.0, "type": "electric_scooter", "bike_id": "e8356baf4bcf9897a879d73c6a67e2c0", "lat": 38.88730566666667, "name": "e8356baf4bcf9897a879d73c6a67e2c0", "is_disabled": 0, "rental_uris": {"android": "https://dc.lft.to/lastmile_qr_scan", "ios": "https://dc.lft.to/lastmile_qr_scan"}, "fusion_lon": 0.0, "lon": -77.031487, "is_reserved": 0}, {"fusion_lat": 0.0, "type": "electric_scooter", "bike_id": "c97f58dacb6a00c87a77fda5ef7a5459", "lat": 38.91897866666667, "name": "c97f58dacb6a00c87a77fda5ef7a5459", "is_disabled": 0, "rental_uris": {"android": "https://dc.lft.to/lastmile_qr_scan", "ios": "https://dc.lft.to/lastmile_qr_scan"}, "fusion_lon": 0.0, "lon": -77.020826, "is_reserved": 0}, {"fusion_lat": 0.0, "type": "electric_scooter", "bike_id": "dd52db5040fa1608d3f737ec6d0652bd", "lat": 38.9023645, "name": "dd52db5040fa1608d3f737ec6d0652bd", "is_disabled": 0, "rental_uris": {"android": "https://dc.lft.to/lastmile_qr_scan", "ios": "https://dc.lft.to/lastmile_qr_scan"}, "fusion_lon": 0.0, "lon": -77.04034833333333, "is_reserved": 0}, {"fusion_lat": 0.0, "type": "electric_scooter", "bike_id": "640bd520bf06d25dfd5c7591923fd4d8", "lat": 38.903059666666664, "name": "640bd520bf06d25dfd5c7591923fd4d8", "is_disabled": 0, "rental_uris": {"android": "https://dc.lft.to/lastmile_qr_scan", "ios": "https://dc.lft.to/lastmile_qr_scan"}, "fusion_lon": 0.0, "lon": -77.05051683333333, "is_reserved": 0}, {"fusion_lat": 0.0, "type": "electric_bike", "bike_id": "34d3e1250a688aad1369d0ef84e261d3", "lat": 38.84474633333333, "name": "34d3e1250a688aad1369d0ef84e261d3", "is_disabled": 0, "rental_uris": {"android": "https://dc.lft.to/lastmile_qr_scan", "ios": "https://dc.lft.to/lastmile_qr_scan"}, "fusion_lon": 0.0, "lon": -76.98785616666666, "is_reserved": 0}, {"fusion_lat": 0.0, "type": "electric_scooter", "bike_id": "c1f06dac18d7e15cc2bd55910522676c", "lat": 38.908351833333334, "name": "c1f06dac18d7e15cc2bd55910522676c", "is_disabled": 0, "rental_uris": {"android": "https://dc.lft.to/lastmile_qr_scan", "ios": "https://dc.lft.to/lastmile_qr_scan"}, "fusion_lon": 0.0, "lon": -77.03996666666667, "is_reserved": 0}, {"fusion_lat": 0.0, "type": "electric_bike", "bike_id": "925cb61f9ab5b67f044ee441ebc3031f", "lat": 38.91167733333333, "name": "925cb61f9ab5b67f044ee441ebc3031f", "is_disabled": 0, "rental_uris": {"android": "https://dc.lft.to/lastmile_qr_scan", "ios": "https://dc.lft.to/lastmile_qr_scan"}, "fusion_lon": 0.0, "lon": -77.002954, "is_reserved": 0}, {"fusion_lat": 0.0, "type": "electric_scooter", "bike_id": "e157c623258f414d2ccb3b7d7d552f6c", "lat": 38.90315183333333, "name": "e157c623258f414d2ccb3b7d7d552f6c", "is_disabled": 0, "rental_uris": {"android": "https://dc.lft.to/lastmile_qr_scan", "ios": "https://dc.lft.to/lastmile_qr_scan"}, "fusion_lon": 0.0, "lon": -77.02129, "is_reserved": 0}, {"fusion_lat": 0.0, "type": "electric_scooter", "bike_id": "171b36cb5d0ec42dd2f1e095fc83267c", "lat": 38.891624166666666, "name": "171b36cb5d0ec42dd2f1e095fc83267c", "is_disabled": 0, "rental_uris": {"android": "https://dc.lft.to/lastmile_qr_scan", "ios": "https://dc.lft.to/lastmile_qr_scan"}, "fusion_lon": 0.0, "lon": -77.015044, "is_reserved": 0}, {"fusion_lat": 0.0, "type": "electric_bike", "bike_id": "f4a3059d1aa3aaac5d04eee65e365a87", "lat": 39.00290116666667, "name": "f4a3059d1aa3aaac5d04eee65e365a87", "is_disabled": 0, "rental_uris": {"android": "https://dc.lft.to/lastmile_qr_scan", "ios": "https://dc.lft.to/lastmile_qr_scan"}, "fusion_lon": 0.0, "lon": -76.90302083333333, "is_reserved": 0}, {"fusion_lat": 0.0, "type": "electric_scooter", "bike_id": "cf3f858b6cf0cc760825860deeb93859", "lat": 38.87625583333333, "name": "cf3f858b6cf0cc760825860deeb93859", "is_disabled": 0, "rental_uris": {"android": "https://dc.lft.to/lastmile_qr_scan", "ios": "https://dc.lft.to/lastmile_qr_scan"}, "fusion_lon": 0.0, "lon": -77.00385516666667, "is_reserved": 0}, {"fusion_lat": 0.0, "type": "electric_bike", "bike_id": "365946c757da23116af93baa9629b869", "lat": 38.99501083333333, "name": "365946c757da23116af93baa9629b869", "is_disabled": 0, "rental_uris": {"android": "https://dc.lft.to/lastmile_qr_scan", "ios": "https://dc.lft.to/lastmile_qr_scan"}, "fusion_lon": 0.0, "lon": -77.02873, "is_reserved": 0}, {"fusion_lat": 0.0, "type": "electric_scooter", "bike_id": "668373a3e0650b35e6f954059e9c332c", "lat": 38.9019755, "name": "668373a3e0650b35e6f954059e9c332c", "is_disabled": 0, "rental_uris": {"android": "https://dc.lft.to/lastmile_qr_scan", "ios": "https://dc.lft.to/lastmile_qr_scan"}, "fusion_lon": 0.0, "lon": -77.050918, "is_reserved": 0}, {"fusion_lat": 0.0, "type": "electric_scooter", "bike_id": "91e966ad757086d464d4c46cae926951", "lat": 38.912705833333334, "name": "91e966ad757086d464d4c46cae926951", "is_disabled": 0, "rental_uris": {"android": "https://dc.lft.to/lastmile_qr_scan", "ios": "https://dc.lft.to/lastmile_qr_scan"}, "fusion_lon": 0.0, "lon": -77.02215383333333, "is_reserved": 0}, {"fusion_lat": 0.0, "type": "electric_scooter", "bike_id": "ec4b45ded13f6001800458f7aa34cfa7", "lat": 38.8885755, "name": "ec4b45ded13f6001800458f7aa34cfa7", "is_disabled": 0, "rental_uris": {"android": "https://dc.lft.to/lastmile_qr_scan", "ios": "https://dc.lft.to/lastmile_qr_scan"}, "fusion_lon": 0.0, "lon": -76.93715483333334, "is_reserved": 0}, {"fusion_lat": 0.0, "type": "electric_scooter", "bike_id": "306d6ee42a24ed20a146f923ece643ff", "lat": 38.893438833333335, "name": "306d6ee42a24ed20a146f923ece643ff", "is_disabled": 0, "rental_uris": {"android": "https://dc.lft.to/lastmile_qr_scan", "ios": "https://dc.lft.to/lastmile_qr_scan"}, "fusion_lon": 0.0, "lon": -77.03971283333334, "is_reserved": 0}, {"fusion_lat": 0.0, "type": "electric_scooter", "bike_id": "db3d58139397eab42451243228cf2873", "lat": 38.90754033333333, "name": "db3d58139397eab42451243228cf2873", "is_disabled": 0, "rental_uris": {"android": "https://dc.lft.to/lastmile_qr_scan", "ios": "https://dc.lft.to/lastmile_qr_scan"}, "fusion_lon": 0.0, "lon": -77.024527, "is_reserved": 0}, {"fusion_lat": 0.0, "type": "electric_scooter", "bike_id": "6d363e0c2456f6b14053efd952ae1f8f", "lat": 38.90397016666667, "name": "6d363e0c2456f6b14053efd952ae1f8f", "is_disabled": 0, "rental_uris": {"android": "https://dc.lft.to/lastmile_qr_scan", "ios": "https://dc.lft.to/lastmile_qr_scan"}, "fusion_lon": 0.0, "lon": -77.06770466666667, "is_reserved": 0}, {"fusion_lat": 0.0, "type": "electric_scooter", "bike_id": "01e6166e54c788b244710d7667002fa2", "lat": 38.93950683333333, "name": "01e6166e54c788b244710d7667002fa2", "is_disabled": 0, "rental_uris": {"android": "https://dc.lft.to/lastmile_qr_scan", "ios": "https://dc.lft.to/lastmile_qr_scan"}, "fusion_lon": 0.0, "lon": -77.0723965, "is_reserved": 0}, {"fusion_lat": 0.0, "type": "electric_scooter", "bike_id": "7d8e7a79da65b6811429fe8faebca27f", "lat": 38.89831933333333, "name": "7d8e7a79da65b6811429fe8faebca27f", "is_disabled": 0, "rental_uris": {"android": "https://dc.lft.to/lastmile_qr_scan", "ios": "https://dc.lft.to/lastmile_qr_scan"}, "fusion_lon": 0.0, "lon": -77.01295183333333, "is_reserved": 0}, {"fusion_lat": 0.0, "type": "electric_scooter", "bike_id": "04b57011d2de69deff034dcdfb1cd1c7", "lat": 38.9232485, "name": "04b57011d2de69deff034dcdfb1cd1c7", "is_disabled": 0, "rental_uris": {"android": "https://dc.lft.to/lastmile_qr_scan", "ios": "https://dc.lft.to/lastmile_qr_scan"}, "fusion_lon": 0.0, "lon": -77.01963683333334, "is_reserved": 0}, {"fusion_lat": 0.0, "type": "electric_scooter", "bike_id": "6bc754343f3a85e422c8a41e628568ee", "lat": 38.921380166666665, "name": "6bc754343f3a85e422c8a41e628568ee", "is_disabled": 0, "rental_uris": {"android": "https://dc.lft.to/lastmile_qr_scan", "ios": "https://dc.lft.to/lastmile_qr_scan"}, "fusion_lon": 0.0, "lon": -77.04519, "is_reserved": 0}, {"fusion_lat": 0.0, "type": "electric_scooter", "bike_id": "1474cf9fa2c3f96c84a94d65b7487025", "lat": 38.89764133333333, "name": "1474cf9fa2c3f96c84a94d65b7487025", "is_disabled": 0, "rental_uris": {"android": "https://dc.lft.to/lastmile_qr_scan", "ios": "https://dc.lft.to/lastmile_qr_scan"}, "fusion_lon": 0.0, "lon": -77.02686866666667, "is_reserved": 0}, {"fusion_lat": 0.0, "type": "electric_scooter", "bike_id": "6b1d2aa007b3e62a4eff066f4a1f6baf", "lat": 38.9078975, "name": "6b1d2aa007b3e62a4eff066f4a1f6baf", "is_disabled": 0, "rental_uris": {"android": "https://dc.lft.to/lastmile_qr_scan", "ios": "https://dc.lft.to/lastmile_qr_scan"}, "fusion_lon": 0.0, "lon": -77.03194883333333, "is_reserved": 0}, {"fusion_lat": 0.0, "type": "electric_scooter", "bike_id": "1ce1619ff5d6b75ff493a0f125e601c8", "lat": 38.89947216666667, "name": "1ce1619ff5d6b75ff493a0f125e601c8", "is_disabled": 0, "rental_uris": {"android": "https://dc.lft.to/lastmile_qr_scan", "ios": "https://dc.lft.to/lastmile_qr_scan"}, "fusion_lon": 0.0, "lon": -76.988393, "is_reserved": 0}, {"fusion_lat": 0.0, "type": "electric_scooter", "bike_id": "9ca725740ae09e0d699b8441f9f557bd", "lat": 38.93198233333333, "name": "9ca725740ae09e0d699b8441f9f557bd", "is_disabled": 0, "rental_uris": {"android": "https://dc.lft.to/lastmile_qr_scan", "ios": "https://dc.lft.to/lastmile_qr_scan"}, "fusion_lon": 0.0, "lon": -77.03751966666667, "is_reserved": 0}, {"fusion_lat": 0.0, "type": "electric_scooter", "bike_id": "b1c2041c269398e5cefdee1baf60b38c", "lat": 38.900164833333335, "name": "b1c2041c269398e5cefdee1baf60b38c", "is_disabled": 0, "rental_uris": {"android": "https://dc.lft.to/lastmile_qr_scan", "ios": "https://dc.lft.to/lastmile_qr_scan"}, "fusion_lon": 0.0, "lon": -77.04481633333333, "is_reserved": 0}, {"fusion_lat": 0.0, "type": "electric_scooter", "bike_id": "d73397b9dc399354541e9e7459f3e94b", "lat": 38.90152116666667, "name": "d73397b9dc399354541e9e7459f3e94b", "is_disabled": 0, "rental_uris": {"android": "https://dc.lft.to/lastmile_qr_scan", "ios": "https://dc.lft.to/lastmile_qr_scan"}, "fusion_lon": 0.0, "lon": -77.05930666666667, "is_reserved": 0}, {"fusion_lat": 0.0, "type": "electric_scooter", "bike_id": "cf790c303213889033c99d4b5953676d", "lat": 38.88290383333333, "name": "cf790c303213889033c99d4b5953676d", "is_disabled": 0, "rental_uris": {"android": "https://dc.lft.to/lastmile_qr_scan", "ios": "https://dc.lft.to/lastmile_qr_scan"}, "fusion_lon": 0.0, "lon": -76.98935366666667, "is_reserved": 0}, {"fusion_lat": 0.0, "type": "electric_scooter", "bike_id": "56f036710604af69a155dbc2576d2f51", "lat": 38.911963, "name": "56f036710604af69a155dbc2576d2f51", "is_disabled": 0, "rental_uris": {"android": "https://dc.lft.to/lastmile_qr_scan", "ios": "https://dc.lft.to/lastmile_qr_scan"}, "fusion_lon": 0.0, "lon": -77.00725266666667, "is_reserved": 0}, {"fusion_lat": 0.0, "type": "electric_scooter", "bike_id": "254f16c0a6bf73592f08b78aa77a7f37", "lat": 38.92159, "name": "254f16c0a6bf73592f08b78aa77a7f37", "is_disabled": 0, "rental_uris": {"android": "https://dc.lft.to/lastmile_qr_scan", "ios": "https://dc.lft.to/lastmile_qr_scan"}, "fusion_lon": 0.0, "lon": -77.03863883333334, "is_reserved": 0}, {"fusion_lat": 0.0, "type": "electric_scooter", "bike_id": "5d6141d4f55550d6f2212e1613883b07", "lat": 38.94082066666667, "name": "5d6141d4f55550d6f2212e1613883b07", "is_disabled": 0, "rental_uris": {"android": "https://dc.lft.to/lastmile_qr_scan", "ios": "https://dc.lft.to/lastmile_qr_scan"}, "fusion_lon": 0.0, "lon": -77.02717616666666, "is_reserved": 0}, {"fusion_lat": 0.0, "type": "electric_scooter", "bike_id": "6c1153e1088e1d9eab5b8991798126f7", "lat": 38.876306, "name": "6c1153e1088e1d9eab5b8991798126f7", "is_disabled": 0, "rental_uris": {"android": "https://dc.lft.to/lastmile_qr_scan", "ios": "https://dc.lft.to/lastmile_qr_scan"}, "fusion_lon": 0.0, "lon": -77.009625, "is_reserved": 0}, {"fusion_lat": 0.0, "type": "electric_scooter", "bike_id": "a2170b29fe6bf76f5073388d8ffdfcf5", "lat": 38.89847233333333, "name": "a2170b29fe6bf76f5073388d8ffdfcf5", "is_disabled": 0, "rental_uris": {"android": "https://dc.lft.to/lastmile_qr_scan", "ios": "https://dc.lft.to/lastmile_qr_scan"}, "fusion_lon": 0.0, "lon": -77.01375483333334, "is_reserved": 0}, {"fusion_lat": 0.0, "type": "electric_scooter", "bike_id": "96408f9dd4b774191154295f1ce9e9b6", "lat": 38.92662983333334, "name": "96408f9dd4b774191154295f1ce9e9b6", "is_disabled": 0, "rental_uris": {"android": "https://dc.lft.to/lastmile_qr_scan", "ios": "https://dc.lft.to/lastmile_qr_scan"}, "fusion_lon": 0.0, "lon": -76.99557466666667, "is_reserved": 0}, {"fusion_lat": 0.0, "type": "electric_scooter", "bike_id": "f0f09792830003dc5fb54f3efdf13178", "lat": 38.8972335, "name": "f0f09792830003dc5fb54f3efdf13178", "is_disabled": 0, "rental_uris": {"android": "https://dc.lft.to/lastmile_qr_scan", "ios": "https://dc.lft.to/lastmile_qr_scan"}, "fusion_lon": 0.0, "lon": -77.05027633333333, "is_reserved": 0}, {"fusion_lat": 0.0, "type": "electric_scooter", "bike_id": "aa7a49d905eb16c9c5a508317f6b7a93", "lat": 38.927852333333334, "name": "aa7a49d905eb16c9c5a508317f6b7a93", "is_disabled": 0, "rental_uris": {"android": "https://dc.lft.to/lastmile_qr_scan", "ios": "https://dc.lft.to/lastmile_qr_scan"}, "fusion_lon": 0.0, "lon": -77.015548, "is_reserved": 0}, {"fusion_lat": 0.0, "type": "electric_bike", "bike_id": "a7bae0dc78eb1844370db0309b70bd51", "lat": 38.91870383333333, "name": "a7bae0dc78eb1844370db0309b70bd51", "is_disabled": 0, "rental_uris": {"android": "https://dc.lft.to/lastmile_qr_scan", "ios": "https://dc.lft.to/lastmile_qr_scan"}, "fusion_lon": 0.0, "lon": -76.96441483333334, "is_reserved": 0}, {"fusion_lat": 0.0, "type": "electric_scooter", "bike_id": "195dfff41241f21172bae86eb16537be", "lat": 38.9059255, "name": "195dfff41241f21172bae86eb16537be", "is_disabled": 0, "rental_uris": {"android": "https://dc.lft.to/lastmile_qr_scan", "ios": "https://dc.lft.to/lastmile_qr_scan"}, "fusion_lon": 0.0, "lon": -77.05715683333334, "is_reserved": 0}, {"fusion_lat": 0.0, "type": "electric_bike", "bike_id": "2f692bf6c8b95773b6d5d6aae558f37a", "lat": 38.91070883333333, "name": "2f692bf6c8b95773b6d5d6aae558f37a", "is_disabled": 0, "rental_uris": {"android": "https://dc.lft.to/lastmile_qr_scan", "ios": "https://dc.lft.to/lastmile_qr_scan"}, "fusion_lon": 0.0, "lon": -77.027125, "is_reserved": 0}, {"fusion_lat": 0.0, "type": "electric_scooter", "bike_id": "5de8cab312ca6af0b376737554d485f0", "lat": 38.887352166666666, "name": "5de8cab312ca6af0b376737554d485f0", "is_disabled": 0, "rental_uris": {"android": "https://dc.lft.to/lastmile_qr_scan", "ios": "https://dc.lft.to/lastmile_qr_scan"}, "fusion_lon": 0.0, "lon": -77.0150655, "is_reserved": 0}, {"fusion_lat": 0.0, "type": "electric_scooter", "bike_id": "6e8c3e723c4d99321e9de379745625ca", "lat": 38.923240166666666, "name": "6e8c3e723c4d99321e9de379745625ca", "is_disabled": 0, "rental_uris": {"android": "https://dc.lft.to/lastmile_qr_scan", "ios": "https://dc.lft.to/lastmile_qr_scan"}, "fusion_lon": 0.0, "lon": -77.019611, "is_reserved": 0}, {"fusion_lat": 0.0, "type": "electric_bike", "bike_id": "a92349683ee2bbf882db3d4b8a662f01", "lat": 38.90601483333333, "name": "a92349683ee2bbf882db3d4b8a662f01", "is_disabled": 0, "rental_uris": {"android": "https://dc.lft.to/lastmile_qr_scan", "ios": "https://dc.lft.to/lastmile_qr_scan"}, "fusion_lon": 0.0, "lon": -77.07160566666667, "is_reserved": 0}, {"fusion_lat": 0.0, "type": "electric_bike", "bike_id": "d0df8470bdbe76d7491d5c025205f6b0", "lat": 38.835827, "name": "d0df8470bdbe76d7491d5c025205f6b0", "is_disabled": 0, "rental_uris": {"android": "https://dc.lft.to/lastmile_qr_scan", "ios": "https://dc.lft.to/lastmile_qr_scan"}, "fusion_lon": 0.0, "lon": -76.99030716666667, "is_reserved": 0}, {"fusion_lat": 0.0, "type": "electric_scooter", "bike_id": "466f24f5f32b5583120772ef90428a4c", "lat": 38.92622216666667, "name": "466f24f5f32b5583120772ef90428a4c", "is_disabled": 0, "rental_uris": {"android": "https://dc.lft.to/lastmile_qr_scan", "ios": "https://dc.lft.to/lastmile_qr_scan"}, "fusion_lon": 0.0, "lon": -77.04190883333334, "is_reserved": 0}, {"fusion_lat": 0.0, "type": "electric_bike", "bike_id": "1beb0785a1c811aa4a5928384cf68f4e", "lat": 38.93576516666667, "name": "1beb0785a1c811aa4a5928384cf68f4e", "is_disabled": 0, "rental_uris": {"android": "https://dc.lft.to/lastmile_qr_scan", "ios": "https://dc.lft.to/lastmile_qr_scan"}, "fusion_lon": 0.0, "lon": -77.10595833333333, "is_reserved": 0}, {"fusion_lat": 0.0, "type": "electric_scooter", "bike_id": "ed450dd5d72efb7fabf13487e062e57d", "lat": 38.919644, "name": "ed450dd5d72efb7fabf13487e062e57d", "is_disabled": 0, "rental_uris": {"android": "https://dc.lft.to/lastmile_qr_scan", "ios": "https://dc.lft.to/lastmile_qr_scan"}, "fusion_lon": 0.0, "lon": -77.03965316666667, "is_reserved": 0}, {"fusion_lat": 0.0, "type": "electric_scooter", "bike_id": "3925aef6f21e1910b6d8243ae9db29a0", "lat": 38.89223116666667, "name": "3925aef6f21e1910b6d8243ae9db29a0", "is_disabled": 0, "rental_uris": {"android": "https://dc.lft.to/lastmile_qr_scan", "ios": "https://dc.lft.to/lastmile_qr_scan"}, "fusion_lon": 0.0, "lon": -77.048701, "is_reserved": 0}, {"fusion_lat": 0.0, "type": "electric_scooter", "bike_id": "816f0f5fb1da2ab764dcca8d10bb83f9", "lat": 38.901404666666664, "name": "816f0f5fb1da2ab764dcca8d10bb83f9", "is_disabled": 0, "rental_uris": {"android": "https://dc.lft.to/lastmile_qr_scan", "ios": "https://dc.lft.to/lastmile_qr_scan"}, "fusion_lon": 0.0, "lon": -77.02300966666667, "is_reserved": 0}, {"fusion_lat": 0.0, "type": "electric_scooter", "bike_id": "a065834bf54045e930ae007142be52e1", "lat": 38.900459166666664, "name": "a065834bf54045e930ae007142be52e1", "is_disabled": 0, "rental_uris": {"android": "https://dc.lft.to/lastmile_qr_scan", "ios": "https://dc.lft.to/lastmile_qr_scan"}, "fusion_lon": 0.0, "lon": -77.0366365, "is_reserved": 0}, {"fusion_lat": 0.0, "type": "electric_scooter", "bike_id": "23b6bf70c660a2a6dfb4596c50b2813c", "lat": 38.9385445, "name": "23b6bf70c660a2a6dfb4596c50b2813c", "is_disabled": 0, "rental_uris": {"android": "https://dc.lft.to/lastmile_qr_scan", "ios": "https://dc.lft.to/lastmile_qr_scan"}, "fusion_lon": 0.0, "lon": -77.02454683333333, "is_reserved": 0}, {"fusion_lat": 0.0, "type": "electric_scooter", "bike_id": "8c77aac213ba8101669c68586c98023b", "lat": 38.9002105, "name": "8c77aac213ba8101669c68586c98023b", "is_disabled": 0, "rental_uris": {"android": "https://dc.lft.to/lastmile_qr_scan", "ios": "https://dc.lft.to/lastmile_qr_scan"}, "fusion_lon": 0.0, "lon": -77.04363516666666, "is_reserved": 0}, {"fusion_lat": 0.0, "type": "electric_scooter", "bike_id": "6ab0d1b9bc43aa64d14885c7fb23fcfe", "lat": 38.89616733333333, "name": "6ab0d1b9bc43aa64d14885c7fb23fcfe", "is_disabled": 0, "rental_uris": {"android": "https://dc.lft.to/lastmile_qr_scan", "ios": "https://dc.lft.to/lastmile_qr_scan"}, "fusion_lon": 0.0, "lon": -76.9973335, "is_reserved": 0}, {"fusion_lat": 0.0, "type": "electric_scooter", "bike_id": "ea4ed6d18ba8a543034b4dbe7bccf447", "lat": 38.899605, "name": "ea4ed6d18ba8a543034b4dbe7bccf447", "is_disabled": 0, "rental_uris": {"android": "https://dc.lft.to/lastmile_qr_scan", "ios": "https://dc.lft.to/lastmile_qr_scan"}, "fusion_lon": 0.0, "lon": -77.0308195, "is_reserved": 0}, {"fusion_lat": 0.0, "type": "electric_scooter", "bike_id": "4d92b10c2bba40173fd7c59a41dff503", "lat": 38.9483785, "name": "4d92b10c2bba40173fd7c59a41dff503", "is_disabled": 0, "rental_uris": {"android": "https://dc.lft.to/lastmile_qr_scan", "ios": "https://dc.lft.to/lastmile_qr_scan"}, "fusion_lon": 0.0, "lon": -77.02531583333334, "is_reserved": 0}, {"fusion_lat": 0.0, "type": "electric_scooter", "bike_id": "eebcf40d87f8423f275fca1d8d82a1af", "lat": 38.89835866666667, "name": "eebcf40d87f8423f275fca1d8d82a1af", "is_disabled": 0, "rental_uris": {"android": "https://dc.lft.to/lastmile_qr_scan", "ios": "https://dc.lft.to/lastmile_qr_scan"}, "fusion_lon": 0.0, "lon": -77.04551183333334, "is_reserved": 0}, {"fusion_lat": 0.0, "type": "electric_scooter", "bike_id": "924c2be22bec132943be6a0babce718d", "lat": 38.91531166666667, "name": "924c2be22bec132943be6a0babce718d", "is_disabled": 0, "rental_uris": {"android": "https://dc.lft.to/lastmile_qr_scan", "ios": "https://dc.lft.to/lastmile_qr_scan"}, "fusion_lon": 0.0, "lon": -77.04424933333334, "is_reserved": 0}, {"fusion_lat": 0.0, "type": "electric_scooter", "bike_id": "bd0ecd2e63677937cdd71e390f92f663", "lat": 38.900369, "name": "bd0ecd2e63677937cdd71e390f92f663", "is_disabled": 0, "rental_uris": {"android": "https://dc.lft.to/lastmile_qr_scan", "ios": "https://dc.lft.to/lastmile_qr_scan"}, "fusion_lon": 0.0, "lon": -76.99149016666667, "is_reserved": 0}, {"fusion_lat": 0.0, "type": "electric_scooter", "bike_id": "8755781edf013558a1b5655c183d3666", "lat": 38.9066175, "name": "8755781edf013558a1b5655c183d3666", "is_disabled": 0, "rental_uris": {"android": "https://dc.lft.to/lastmile_qr_scan", "ios": "https://dc.lft.to/lastmile_qr_scan"}, "fusion_lon": 0.0, "lon": -77.05127916666666, "is_reserved": 0}, {"fusion_lat": 0.0, "type": "electric_scooter", "bike_id": "22d64fbca75300396cb964636b48ff18", "lat": 38.860343, "name": "22d64fbca75300396cb964636b48ff18", "is_disabled": 0, "rental_uris": {"android": "https://dc.lft.to/lastmile_qr_scan", "ios": "https://dc.lft.to/lastmile_qr_scan"}, "fusion_lon": 0.0, "lon": -76.98376233333333, "is_reserved": 0}, {"fusion_lat": 0.0, "type": "electric_scooter", "bike_id": "c12babc193c14bfc3b11b33f223a8ee9", "lat": 38.877044166666664, "name": "c12babc193c14bfc3b11b33f223a8ee9", "is_disabled": 0, "rental_uris": {"android": "https://dc.lft.to/lastmile_qr_scan", "ios": "https://dc.lft.to/lastmile_qr_scan"}, "fusion_lon": 0.0, "lon": -77.003084, "is_reserved": 0}, {"fusion_lat": 0.0, "type": "electric_scooter", "bike_id": "1333fec28c55a5e1e83f7a6867c7819d", "lat": 38.927482, "name": "1333fec28c55a5e1e83f7a6867c7819d", "is_disabled": 0, "rental_uris": {"android": "https://dc.lft.to/lastmile_qr_scan", "ios": "https://dc.lft.to/lastmile_qr_scan"}, "fusion_lon": 0.0, "lon": -77.02964183333333, "is_reserved": 0}, {"fusion_lat": 0.0, "type": "electric_bike", "bike_id": "5d4ded4a77b1ee2650cf9bc2b6b47287", "lat": 38.8000565, "name": "5d4ded4a77b1ee2650cf9bc2b6b47287", "is_disabled": 0, "rental_uris": {"android": "https://dc.lft.to/lastmile_qr_scan", "ios": "https://dc.lft.to/lastmile_qr_scan"}, "fusion_lon": 0.0, "lon": -77.1300445, "is_reserved": 0}, {"fusion_lat": 0.0, "type": "electric_bike", "bike_id": "dea9edb4f20fdee09693795b526ac504", "lat": 38.88691633333333, "name": "dea9edb4f20fdee09693795b526ac504", "is_disabled": 0, "rental_uris": {"android": "https://dc.lft.to/lastmile_qr_scan", "ios": "https://dc.lft.to/lastmile_qr_scan"}, "fusion_lon": 0.0, "lon": -77.00218016666666, "is_reserved": 0}, {"fusion_lat": 0.0, "type": "electric_scooter", "bike_id": "175dd4d34854bc514306708ef434dc69", "lat": 38.907307333333335, "name": "175dd4d34854bc514306708ef434dc69", "is_disabled": 0, "rental_uris": {"android": "https://dc.lft.to/lastmile_qr_scan", "ios": "https://dc.lft.to/lastmile_qr_scan"}, "fusion_lon": 0.0, "lon": -77.028082, "is_reserved": 0}, {"fusion_lat": 0.0, "type": "electric_scooter", "bike_id": "d2af54a8eb36591f729b72bc56084e71", "lat": 38.886026333333334, "name": "d2af54a8eb36591f729b72bc56084e71", "is_disabled": 0, "rental_uris": {"android": "https://dc.lft.to/lastmile_qr_scan", "ios": "https://dc.lft.to/lastmile_qr_scan"}, "fusion_lon": 0.0, "lon": -77.017947, "is_reserved": 0}, {"fusion_lat": 0.0, "type": "electric_scooter", "bike_id": "e49c9b9b5b7d30a96de85b63bda2942d", "lat": 38.892441, "name": "e49c9b9b5b7d30a96de85b63bda2942d", "is_disabled": 0, "rental_uris": {"android": "https://dc.lft.to/lastmile_qr_scan", "ios": "https://dc.lft.to/lastmile_qr_scan"}, "fusion_lon": 0.0, "lon": -77.05025933333333, "is_reserved": 0}, {"fusion_lat": 0.0, "type": "electric_scooter", "bike_id": "00dae2e0b2e082ede7e934b7318d4f57", "lat": 38.886612666666664, "name": "00dae2e0b2e082ede7e934b7318d4f57", "is_disabled": 0, "rental_uris": {"android": "https://dc.lft.to/lastmile_qr_scan", "ios": "https://dc.lft.to/lastmile_qr_scan"}, "fusion_lon": 0.0, "lon": -77.03393616666666, "is_reserved": 0}, {"fusion_lat": 0.0, "type": "electric_scooter", "bike_id": "a8b5fbd710207f4b6464d91f8225dfd1", "lat": 38.8921835, "name": "a8b5fbd710207f4b6464d91f8225dfd1", "is_disabled": 0, "rental_uris": {"android": "https://dc.lft.to/lastmile_qr_scan", "ios": "https://dc.lft.to/lastmile_qr_scan"}, "fusion_lon": 0.0, "lon": -77.02541916666667, "is_reserved": 0}, {"fusion_lat": 0.0, "type": "electric_scooter", "bike_id": "b21f671ec899148d5c6e87b984951a0f", "lat": 38.90516233333334, "name": "b21f671ec899148d5c6e87b984951a0f", "is_disabled": 0, "rental_uris": {"android": "https://dc.lft.to/lastmile_qr_scan", "ios": "https://dc.lft.to/lastmile_qr_scan"}, "fusion_lon": 0.0, "lon": -77.06878816666666, "is_reserved": 0}, {"fusion_lat": 0.0, "type": "electric_scooter", "bike_id": "cb58abccb3ef5bdf1a4e9c5138c7a086", "lat": 38.944413833333336, "name": "cb58abccb3ef5bdf1a4e9c5138c7a086", "is_disabled": 0, "rental_uris": {"android": "https://dc.lft.to/lastmile_qr_scan", "ios": "https://dc.lft.to/lastmile_qr_scan"}, "fusion_lon": 0.0, "lon": -77.02916616666667, "is_reserved": 0}, {"fusion_lat": 0.0, "type": "electric_scooter", "bike_id": "1862c1a6cfdf9c2f3e0f82a203400eb6", "lat": 38.922355833333334, "name": "1862c1a6cfdf9c2f3e0f82a203400eb6", "is_disabled": 0, "rental_uris": {"android": "https://dc.lft.to/lastmile_qr_scan", "ios": "https://dc.lft.to/lastmile_qr_scan"}, "fusion_lon": 0.0, "lon": -77.02820483333333, "is_reserved": 0}, {"fusion_lat": 0.0, "type": "electric_scooter", "bike_id": "30a9960d1b0269f1a563d0379cfe8e2c", "lat": 38.9038155, "name": "30a9960d1b0269f1a563d0379cfe8e2c", "is_disabled": 0, "rental_uris": {"android": "https://dc.lft.to/lastmile_qr_scan", "ios": "https://dc.lft.to/lastmile_qr_scan"}, "fusion_lon": 0.0, "lon": -77.04440666666666, "is_reserved": 0}, {"fusion_lat": 0.0, "type": "electric_scooter", "bike_id": "77e7cf92fe47c44f0bc6013e641348d3", "lat": 38.901428, "name": "77e7cf92fe47c44f0bc6013e641348d3", "is_disabled": 0, "rental_uris": {"android": "https://dc.lft.to/lastmile_qr_scan", "ios": "https://dc.lft.to/lastmile_qr_scan"}, "fusion_lon": 0.0, "lon": -76.99620016666667, "is_reserved": 0}, {"fusion_lat": 0.0, "type": "electric_scooter", "bike_id": "981bbf273e5621fa32a83639d1647801", "lat": 38.896080833333336, "name": "981bbf273e5621fa32a83639d1647801", "is_disabled": 0, "rental_uris": {"android": "https://dc.lft.to/lastmile_qr_scan", "ios": "https://dc.lft.to/lastmile_qr_scan"}, "fusion_lon": 0.0, "lon": -76.98573583333334, "is_reserved": 0}, {"fusion_lat": 0.0, "type": "electric_scooter", "bike_id": "52b38fe6e35e85c8039a80b804b3646f", "lat": 38.926193, "name": "52b38fe6e35e85c8039a80b804b3646f", "is_disabled": 0, "rental_uris": {"android": "https://dc.lft.to/lastmile_qr_scan", "ios": "https://dc.lft.to/lastmile_qr_scan"}, "fusion_lon": 0.0, "lon": -77.04328816666667, "is_reserved": 0}, {"fusion_lat": 0.0, "type": "electric_scooter", "bike_id": "45de997173773fb9b3b8657867f6a7f5", "lat": 38.90385933333334, "name": "45de997173773fb9b3b8657867f6a7f5", "is_disabled": 0, "rental_uris": {"android": "https://dc.lft.to/lastmile_qr_scan", "ios": "https://dc.lft.to/lastmile_qr_scan"}, "fusion_lon": 0.0, "lon": -77.03492566666667, "is_reserved": 0}, {"fusion_lat": 0.0, "type": "electric_scooter", "bike_id": "8db8f0c13c04600195c4b307094586f8", "lat": 38.88729816666667, "name": "8db8f0c13c04600195c4b307094586f8", "is_disabled": 0, "rental_uris": {"android": "https://dc.lft.to/lastmile_qr_scan", "ios": "https://dc.lft.to/lastmile_qr_scan"}, "fusion_lon": 0.0, "lon": -76.98350916666666, "is_reserved": 0}, {"fusion_lat": 0.0, "type": "electric_scooter", "bike_id": "d74350149d7ddef284789f00d84d9e54", "lat": 38.9679465, "name": "d74350149d7ddef284789f00d84d9e54", "is_disabled": 0, "rental_uris": {"android": "https://dc.lft.to/lastmile_qr_scan", "ios": "https://dc.lft.to/lastmile_qr_scan"}, "fusion_lon": 0.0, "lon": -77.02412316666667, "is_reserved": 0}, {"fusion_lat": 0.0, "type": "electric_scooter", "bike_id": "b9d4bb6252239e856133b0522fa7c066", "lat": 38.887337333333335, "name": "b9d4bb6252239e856133b0522fa7c066", "is_disabled": 0, "rental_uris": {"android": "https://dc.lft.to/lastmile_qr_scan", "ios": "https://dc.lft.to/lastmile_qr_scan"}, "fusion_lon": 0.0, "lon": -77.031485, "is_reserved": 0}, {"fusion_lat": 0.0, "type": "electric_scooter", "bike_id": "7123ed3692d9d4912703b55ef59f54dd", "lat": 38.885772833333334, "name": "7123ed3692d9d4912703b55ef59f54dd", "is_disabled": 0, "rental_uris": {"android": "https://dc.lft.to/lastmile_qr_scan", "ios": "https://dc.lft.to/lastmile_qr_scan"}, "fusion_lon": 0.0, "lon": -77.00056583333334, "is_reserved": 0}, {"fusion_lat": 0.0, "type": "electric_scooter", "bike_id": "59ff8579cb29c357fbbf9e15fe9c3b90", "lat": 38.92155, "name": "59ff8579cb29c357fbbf9e15fe9c3b90", "is_disabled": 0, "rental_uris": {"android": "https://dc.lft.to/lastmile_qr_scan", "ios": "https://dc.lft.to/lastmile_qr_scan"}, "fusion_lon": 0.0, "lon": -77.03329, "is_reserved": 0}, {"fusion_lat": 0.0, "type": "electric_scooter", "bike_id": "39d06510baa41789c98a770d06055ff3", "lat": 38.90061933333333, "name": "39d06510baa41789c98a770d06055ff3", "is_disabled": 0, "rental_uris": {"android": "https://dc.lft.to/lastmile_qr_scan", "ios": "https://dc.lft.to/lastmile_qr_scan"}, "fusion_lon": 0.0, "lon": -77.04538633333334, "is_reserved": 0}, {"fusion_lat": 0.0, "type": "electric_scooter", "bike_id": "bbb4e38bfc4e2a4d81afb45448a2bd67", "lat": 38.8845215, "name": "bbb4e38bfc4e2a4d81afb45448a2bd67", "is_disabled": 0, "rental_uris": {"android": "https://dc.lft.to/lastmile_qr_scan", "ios": "https://dc.lft.to/lastmile_qr_scan"}, "fusion_lon": 0.0, "lon": -76.9296315, "is_reserved": 0}, {"fusion_lat": 0.0, "type": "electric_scooter", "bike_id": "6933da9092ee2399ee58eb1fdb573bb4", "lat": 38.94918533333333, "name": "6933da9092ee2399ee58eb1fdb573bb4", "is_disabled": 0, "rental_uris": {"android": "https://dc.lft.to/lastmile_qr_scan", "ios": "https://dc.lft.to/lastmile_qr_scan"}, "fusion_lon": 0.0, "lon": -77.018615, "is_reserved": 0}, {"fusion_lat": 0.0, "type": "electric_scooter", "bike_id": "f6ccc6fef63d7197fdc60cc3d0027824", "lat": 38.903798333333334, "name": "f6ccc6fef63d7197fdc60cc3d0027824", "is_disabled": 0, "rental_uris": {"android": "https://dc.lft.to/lastmile_qr_scan", "ios": "https://dc.lft.to/lastmile_qr_scan"}, "fusion_lon": 0.0, "lon": -77.0474565, "is_reserved": 0}, {"fusion_lat": 0.0, "type": "electric_scooter", "bike_id": "be7201c90b4d96bde1949f597c7b2675", "lat": 38.87421616666666, "name": "be7201c90b4d96bde1949f597c7b2675", "is_disabled": 0, "rental_uris": {"android": "https://dc.lft.to/lastmile_qr_scan", "ios": "https://dc.lft.to/lastmile_qr_scan"}, "fusion_lon": 0.0, "lon": -77.00072783333333, "is_reserved": 0}, {"fusion_lat": 0.0, "type": "electric_scooter", "bike_id": "6e0b2d8c7fd7e3c760cfa3e869836efd", "lat": 38.911842666666665, "name": "6e0b2d8c7fd7e3c760cfa3e869836efd", "is_disabled": 0, "rental_uris": {"android": "https://dc.lft.to/lastmile_qr_scan", "ios": "https://dc.lft.to/lastmile_qr_scan"}, "fusion_lon": 0.0, "lon": -77.0608485, "is_reserved": 0}, {"fusion_lat": 0.0, "type": "electric_scooter", "bike_id": "ae3d93448686e1c1c5de50a454b7b7ff", "lat": 38.914026, "name": "ae3d93448686e1c1c5de50a454b7b7ff", "is_disabled": 0, "rental_uris": {"android": "https://dc.lft.to/lastmile_qr_scan", "ios": "https://dc.lft.to/lastmile_qr_scan"}, "fusion_lon": 0.0, "lon": -77.03250233333333, "is_reserved": 0}, {"fusion_lat": 0.0, "type": "electric_scooter", "bike_id": "ef12cffda162a526a908650162514548", "lat": 38.906067666666665, "name": "ef12cffda162a526a908650162514548", "is_disabled": 0, "rental_uris": {"android": "https://dc.lft.to/lastmile_qr_scan", "ios": "https://dc.lft.to/lastmile_qr_scan"}, "fusion_lon": 0.0, "lon": -77.04053683333333, "is_reserved": 0}, {"fusion_lat": 0.0, "type": "electric_scooter", "bike_id": "6fe473f09453e4ee98f029225dc8bbd7", "lat": 38.922483166666666, "name": "6fe473f09453e4ee98f029225dc8bbd7", "is_disabled": 0, "rental_uris": {"android": "https://dc.lft.to/lastmile_qr_scan", "ios": "https://dc.lft.to/lastmile_qr_scan"}, "fusion_lon": 0.0, "lon": -77.019529, "is_reserved": 0}, {"fusion_lat": 0.0, "type": "electric_scooter", "bike_id": "6cd8a4285c2c91a62647594ce3317dcb", "lat": 38.906673, "name": "6cd8a4285c2c91a62647594ce3317dcb", "is_disabled": 0, "rental_uris": {"android": "https://dc.lft.to/lastmile_qr_scan", "ios": "https://dc.lft.to/lastmile_qr_scan"}, "fusion_lon": 0.0, "lon": -77.04337733333334, "is_reserved": 0}, {"fusion_lat": 0.0, "type": "electric_scooter", "bike_id": "65cd26839e15cce3b3d620164c9bbcc7", "lat": 38.92703916666667, "name": "65cd26839e15cce3b3d620164c9bbcc7", "is_disabled": 0, "rental_uris": {"android": "https://dc.lft.to/lastmile_qr_scan", "ios": "https://dc.lft.to/lastmile_qr_scan"}, "fusion_lon": 0.0, "lon": -77.02089983333333, "is_reserved": 0}, {"fusion_lat": 0.0, "type": "electric_scooter", "bike_id": "8e2623f0bffffd8eff8e9d7e6a32f47a", "lat": 38.9132385, "name": "8e2623f0bffffd8eff8e9d7e6a32f47a", "is_disabled": 0, "rental_uris": {"android": "https://dc.lft.to/lastmile_qr_scan", "ios": "https://dc.lft.to/lastmile_qr_scan"}, "fusion_lon": 0.0, "lon": -77.04539233333334, "is_reserved": 0}, {"fusion_lat": 0.0, "type": "electric_scooter", "bike_id": "ac0ef94dfb9b431a6c3bfb0c2aec042e", "lat": 38.898213166666665, "name": "ac0ef94dfb9b431a6c3bfb0c2aec042e", "is_disabled": 0, "rental_uris": {"android": "https://dc.lft.to/lastmile_qr_scan", "ios": "https://dc.lft.to/lastmile_qr_scan"}, "fusion_lon": 0.0, "lon": -77.02855583333333, "is_reserved": 0}, {"fusion_lat": 0.0, "type": "electric_scooter", "bike_id": "4d344a3d256c9044bf586f89b209d3a1", "lat": 38.88347616666667, "name": "4d344a3d256c9044bf586f89b209d3a1", "is_disabled": 0, "rental_uris": {"android": "https://dc.lft.to/lastmile_qr_scan", "ios": "https://dc.lft.to/lastmile_qr_scan"}, "fusion_lon": 0.0, "lon": -76.93634, "is_reserved": 0}, {"fusion_lat": 0.0, "type": "electric_scooter", "bike_id": "288ad1408c4d6b28729c77219b099644", "lat": 38.89845016666666, "name": "288ad1408c4d6b28729c77219b099644", "is_disabled": 0, "rental_uris": {"android": "https://dc.lft.to/lastmile_qr_scan", "ios": "https://dc.lft.to/lastmile_qr_scan"}, "fusion_lon": 0.0, "lon": -76.9463885, "is_reserved": 0}, {"fusion_lat": 0.0, "type": "electric_scooter", "bike_id": "85cd4e323b3c94f6a58dc19e59e86aa0", "lat": 38.916788, "name": "85cd4e323b3c94f6a58dc19e59e86aa0", "is_disabled": 0, "rental_uris": {"android": "https://dc.lft.to/lastmile_qr_scan", "ios": "https://dc.lft.to/lastmile_qr_scan"}, "fusion_lon": 0.0, "lon": -77.037501, "is_reserved": 0}, {"fusion_lat": 0.0, "type": "electric_scooter", "bike_id": "c0d4a272665f7c326d9af8566ac2c5fe", "lat": 38.9214775, "name": "c0d4a272665f7c326d9af8566ac2c5fe", "is_disabled": 0, "rental_uris": {"android": "https://dc.lft.to/lastmile_qr_scan", "ios": "https://dc.lft.to/lastmile_qr_scan"}, "fusion_lon": 0.0, "lon": -77.03502766666666, "is_reserved": 0}, {"fusion_lat": 0.0, "type": "electric_scooter", "bike_id": "593497d37e44d9d7765d1f819752a70a", "lat": 38.89883116666667, "name": "593497d37e44d9d7765d1f819752a70a", "is_disabled": 0, "rental_uris": {"android": "https://dc.lft.to/lastmile_qr_scan", "ios": "https://dc.lft.to/lastmile_qr_scan"}, "fusion_lon": 0.0, "lon": -77.0261455, "is_reserved": 0}, {"fusion_lat": 0.0, "type": "electric_scooter", "bike_id": "fb9d6dac62d74a35b6ca5c8b557198d8", "lat": 38.91920433333333, "name": "fb9d6dac62d74a35b6ca5c8b557198d8", "is_disabled": 0, "rental_uris": {"android": "https://dc.lft.to/lastmile_qr_scan", "ios": "https://dc.lft.to/lastmile_qr_scan"}, "fusion_lon": 0.0, "lon": -77.02466966666667, "is_reserved": 0}, {"fusion_lat": 0.0, "type": "electric_scooter", "bike_id": "e3bcbd6287b33cbc0916c34a77448363", "lat": 38.892244166666664, "name": "e3bcbd6287b33cbc0916c34a77448363", "is_disabled": 0, "rental_uris": {"android": "https://dc.lft.to/lastmile_qr_scan", "ios": "https://dc.lft.to/lastmile_qr_scan"}, "fusion_lon": 0.0, "lon": -77.04117966666666, "is_reserved": 0}, {"fusion_lat": 0.0, "type": "electric_scooter", "bike_id": "40fafa2aebc16d0a382977228b4b5cd9", "lat": 38.89853183333334, "name": "40fafa2aebc16d0a382977228b4b5cd9", "is_disabled": 0, "rental_uris": {"android": "https://dc.lft.to/lastmile_qr_scan", "ios": "https://dc.lft.to/lastmile_qr_scan"}, "fusion_lon": 0.0, "lon": -77.0318105, "is_reserved": 0}, {"fusion_lat": 0.0, "type": "electric_bike", "bike_id": "62401460d281d9555d82a8a2c7e074c0", "lat": 38.99092983333333, "name": "62401460d281d9555d82a8a2c7e074c0", "is_disabled": 0, "rental_uris": {"android": "https://dc.lft.to/lastmile_qr_scan", "ios": "https://dc.lft.to/lastmile_qr_scan"}, "fusion_lon": 0.0, "lon": -76.99371766666667, "is_reserved": 0}, {"fusion_lat": 0.0, "type": "electric_scooter", "bike_id": "f1f55e6c021192b76e4b19a0e1a00933", "lat": 38.93421516666667, "name": "f1f55e6c021192b76e4b19a0e1a00933", "is_disabled": 0, "rental_uris": {"android": "https://dc.lft.to/lastmile_qr_scan", "ios": "https://dc.lft.to/lastmile_qr_scan"}, "fusion_lon": 0.0, "lon": -77.04002516666667, "is_reserved": 0}, {"fusion_lat": 0.0, "type": "electric_scooter", "bike_id": "1a2654658ae7db57dd9f4fe85a899e7b", "lat": 38.920421166666664, "name": "1a2654658ae7db57dd9f4fe85a899e7b", "is_disabled": 0, "rental_uris": {"android": "https://dc.lft.to/lastmile_qr_scan", "ios": "https://dc.lft.to/lastmile_qr_scan"}, "fusion_lon": 0.0, "lon": -77.01699216666667, "is_reserved": 0}, {"fusion_lat": 0.0, "type": "electric_scooter", "bike_id": "5749fa29fa0a6e866f400fa8a587ac80", "lat": 38.88126466666667, "name": "5749fa29fa0a6e866f400fa8a587ac80", "is_disabled": 0, "rental_uris": {"android": "https://dc.lft.to/lastmile_qr_scan", "ios": "https://dc.lft.to/lastmile_qr_scan"}, "fusion_lon": 0.0, "lon": -77.000997, "is_reserved": 0}, {"fusion_lat": 0.0, "type": "electric_scooter", "bike_id": "8d6474c77021d9b567f1a170b1892180", "lat": 38.89474166666667, "name": "8d6474c77021d9b567f1a170b1892180", "is_disabled": 0, "rental_uris": {"android": "https://dc.lft.to/lastmile_qr_scan", "ios": "https://dc.lft.to/lastmile_qr_scan"}, "fusion_lon": 0.0, "lon": -76.95840966666667, "is_reserved": 0}, {"fusion_lat": 0.0, "type": "electric_scooter", "bike_id": "f357f0789f630448fa12b88ed2f90737", "lat": 38.89869483333333, "name": "f357f0789f630448fa12b88ed2f90737", "is_disabled": 0, "rental_uris": {"android": "https://dc.lft.to/lastmile_qr_scan", "ios": "https://dc.lft.to/lastmile_qr_scan"}, "fusion_lon": 0.0, "lon": -76.9466535, "is_reserved": 0}, {"fusion_lat": 0.0, "type": "electric_scooter", "bike_id": "898d64af2ff12b6b329b6362be8ce768", "lat": 38.915549666666664, "name": "898d64af2ff12b6b329b6362be8ce768", "is_disabled": 0, "rental_uris": {"android": "https://dc.lft.to/lastmile_qr_scan", "ios": "https://dc.lft.to/lastmile_qr_scan"}, "fusion_lon": 0.0, "lon": -77.02210283333334, "is_reserved": 0}, {"fusion_lat": 0.0, "type": "electric_scooter", "bike_id": "3d6266cff37fb4640767be591610f80b", "lat": 38.90756733333333, "name": "3d6266cff37fb4640767be591610f80b", "is_disabled": 0, "rental_uris": {"android": "https://dc.lft.to/lastmile_qr_scan", "ios": "https://dc.lft.to/lastmile_qr_scan"}, "fusion_lon": 0.0, "lon": -76.98850916666666, "is_reserved": 0}, {"fusion_lat": 0.0, "type": "electric_scooter", "bike_id": "17aa78949d9ff6d8479612a95c221510", "lat": 38.90273283333333, "name": "17aa78949d9ff6d8479612a95c221510", "is_disabled": 0, "rental_uris": {"android": "https://dc.lft.to/lastmile_qr_scan", "ios": "https://dc.lft.to/lastmile_qr_scan"}, "fusion_lon": 0.0, "lon": -77.02840166666667, "is_reserved": 0}, {"fusion_lat": 0.0, "type": "electric_bike", "bike_id": "0625e1c483eca9b9f84efbee8d3a1247", "lat": 39.03427466666667, "name": "0625e1c483eca9b9f84efbee8d3a1247", "is_disabled": 0, "rental_uris": {"android": "https://dc.lft.to/lastmile_qr_scan", "ios": "https://dc.lft.to/lastmile_qr_scan"}, "fusion_lon": 0.0, "lon": -77.043222, "is_reserved": 0}, {"fusion_lat": 0.0, "type": "electric_scooter", "bike_id": "f6112bb2e03bc2522ab1ec8cad768f6e", "lat": 38.9075275, "name": "f6112bb2e03bc2522ab1ec8cad768f6e", "is_disabled": 0, "rental_uris": {"android": "https://dc.lft.to/lastmile_qr_scan", "ios": "https://dc.lft.to/lastmile_qr_scan"}, "fusion_lon": 0.0, "lon": -77.06140633333334, "is_reserved": 0}, {"fusion_lat": 0.0, "type": "electric_scooter", "bike_id": "b2834d827f29ac41a8b2c93fafd59944", "lat": 38.903557, "name": "b2834d827f29ac41a8b2c93fafd59944", "is_disabled": 0, "rental_uris": {"android": "https://dc.lft.to/lastmile_qr_scan", "ios": "https://dc.lft.to/lastmile_qr_scan"}, "fusion_lon": 0.0, "lon": -77.031825, "is_reserved": 0}, {"fusion_lat": 0.0, "type": "electric_scooter", "bike_id": "8329bd608c43b877fc87b012d5e153dc", "lat": 38.90350933333333, "name": "8329bd608c43b877fc87b012d5e153dc", "is_disabled": 0, "rental_uris": {"android": "https://dc.lft.to/lastmile_qr_scan", "ios": "https://dc.lft.to/lastmile_qr_scan"}, "fusion_lon": 0.0, "lon": -77.0429255, "is_reserved": 0}, {"fusion_lat": 0.0, "type": "electric_scooter", "bike_id": "2e31f430cc1175ae4f6475cd9e7fd75d", "lat": 38.87373616666667, "name": "2e31f430cc1175ae4f6475cd9e7fd75d", "is_disabled": 0, "rental_uris": {"android": "https://dc.lft.to/lastmile_qr_scan", "ios": "https://dc.lft.to/lastmile_qr_scan"}, "fusion_lon": 0.0, "lon": -77.00138933333334, "is_reserved": 0}, {"fusion_lat": 0.0, "type": "electric_scooter", "bike_id": "c88ba9398d8862f00a68418b66143e86", "lat": 38.9291295, "name": "c88ba9398d8862f00a68418b66143e86", "is_disabled": 0, "rental_uris": {"android": "https://dc.lft.to/lastmile_qr_scan", "ios": "https://dc.lft.to/lastmile_qr_scan"}, "fusion_lon": 0.0, "lon": -77.01851833333333, "is_reserved": 0}, {"fusion_lat": 0.0, "type": "electric_scooter", "bike_id": "8196740fe9709b59e00047b4fda4bc36", "lat": 38.899706, "name": "8196740fe9709b59e00047b4fda4bc36", "is_disabled": 0, "rental_uris": {"android": "https://dc.lft.to/lastmile_qr_scan", "ios": "https://dc.lft.to/lastmile_qr_scan"}, "fusion_lon": 0.0, "lon": -77.016127, "is_reserved": 0}, {"fusion_lat": 0.0, "type": "electric_scooter", "bike_id": "ae7cd6158ae899e6c619952655358975", "lat": 38.91484166666667, "name": "ae7cd6158ae899e6c619952655358975", "is_disabled": 0, "rental_uris": {"android": "https://dc.lft.to/lastmile_qr_scan", "ios": "https://dc.lft.to/lastmile_qr_scan"}, "fusion_lon": 0.0, "lon": -77.02207966666667, "is_reserved": 0}, {"fusion_lat": 0.0, "type": "electric_scooter", "bike_id": "097109e2469e2b8e63d7d1a1142072a3", "lat": 38.891996666666664, "name": "097109e2469e2b8e63d7d1a1142072a3", "is_disabled": 0, "rental_uris": {"android": "https://dc.lft.to/lastmile_qr_scan", "ios": "https://dc.lft.to/lastmile_qr_scan"}, "fusion_lon": 0.0, "lon": -77.00299283333334, "is_reserved": 0}, {"fusion_lat": 0.0, "type": "electric_scooter", "bike_id": "2973037400168bc3623fcf1d5c2d4c29", "lat": 38.9007095, "name": "2973037400168bc3623fcf1d5c2d4c29", "is_disabled": 0, "rental_uris": {"android": "https://dc.lft.to/lastmile_qr_scan", "ios": "https://dc.lft.to/lastmile_qr_scan"}, "fusion_lon": 0.0, "lon": -77.04424966666667, "is_reserved": 0}, {"fusion_lat": 0.0, "type": "electric_bike", "bike_id": "e0feec144d232380132874b503914b56", "lat": 38.958774, "name": "e0feec144d232380132874b503914b56", "is_disabled": 0, "rental_uris": {"android": "https://dc.lft.to/lastmile_qr_scan", "ios": "https://dc.lft.to/lastmile_qr_scan"}, "fusion_lon": 0.0, "lon": -77.01029616666666, "is_reserved": 0}, {"fusion_lat": 0.0, "type": "electric_scooter", "bike_id": "1873cced3aaa66eabb961d9d2642072f", "lat": 38.926606666666665, "name": "1873cced3aaa66eabb961d9d2642072f", "is_disabled": 0, "rental_uris": {"android": "https://dc.lft.to/lastmile_qr_scan", "ios": "https://dc.lft.to/lastmile_qr_scan"}, "fusion_lon": 0.0, "lon": -77.02292616666666, "is_reserved": 0}, {"fusion_lat": 0.0, "type": "electric_scooter", "bike_id": "ada5f17794e2d45bd5888bdb1493430c", "lat": 38.89219683333334, "name": "ada5f17794e2d45bd5888bdb1493430c", "is_disabled": 0, "rental_uris": {"android": "https://dc.lft.to/lastmile_qr_scan", "ios": "https://dc.lft.to/lastmile_qr_scan"}, "fusion_lon": 0.0, "lon": -77.02159466666667, "is_reserved": 0}, {"fusion_lat": 0.0, "type": "electric_bike", "bike_id": "e756117370bc67cfe51b631eef99fe7e", "lat": 38.92875016666667, "name": "e756117370bc67cfe51b631eef99fe7e", "is_disabled": 0, "rental_uris": {"android": "https://dc.lft.to/lastmile_qr_scan", "ios": "https://dc.lft.to/lastmile_qr_scan"}, "fusion_lon": 0.0, "lon": -77.01937116666667, "is_reserved": 0}, {"fusion_lat": 0.0, "type": "electric_scooter", "bike_id": "af4951fa731e143e675d361c3a5e67dd", "lat": 38.911790833333335, "name": "af4951fa731e143e675d361c3a5e67dd", "is_disabled": 0, "rental_uris": {"android": "https://dc.lft.to/lastmile_qr_scan", "ios": "https://dc.lft.to/lastmile_qr_scan"}, "fusion_lon": 0.0, "lon": -77.02963616666666, "is_reserved": 0}, {"fusion_lat": 0.0, "type": "electric_scooter", "bike_id": "1e4bbc692713eb71c2ceebace8c401f5", "lat": 38.90230116666667, "name": "1e4bbc692713eb71c2ceebace8c401f5", "is_disabled": 0, "rental_uris": {"android": "https://dc.lft.to/lastmile_qr_scan", "ios": "https://dc.lft.to/lastmile_qr_scan"}, "fusion_lon": 0.0, "lon": -77.04565333333333, "is_reserved": 0}, {"fusion_lat": 0.0, "type": "electric_scooter", "bike_id": "8c4400dbb829d5ef4a562d6ebb924075", "lat": 38.892143, "name": "8c4400dbb829d5ef4a562d6ebb924075", "is_disabled": 0, "rental_uris": {"android": "https://dc.lft.to/lastmile_qr_scan", "ios": "https://dc.lft.to/lastmile_qr_scan"}, "fusion_lon": 0.0, "lon": -77.0033815, "is_reserved": 0}, {"fusion_lat": 0.0, "type": "electric_scooter", "bike_id": "f8dc5b88f9dd0a313b3bd1b1f4bb6ce7", "lat": 38.924130166666664, "name": "f8dc5b88f9dd0a313b3bd1b1f4bb6ce7", "is_disabled": 0, "rental_uris": {"android": "https://dc.lft.to/lastmile_qr_scan", "ios": "https://dc.lft.to/lastmile_qr_scan"}, "fusion_lon": 0.0, "lon": -77.02003866666666, "is_reserved": 0}, {"fusion_lat": 0.0, "type": "electric_scooter", "bike_id": "fe6c15badf2306e843c8a9913651979f", "lat": 38.897388666666664, "name": "fe6c15badf2306e843c8a9913651979f", "is_disabled": 0, "rental_uris": {"android": "https://dc.lft.to/lastmile_qr_scan", "ios": "https://dc.lft.to/lastmile_qr_scan"}, "fusion_lon": 0.0, "lon": -77.01312816666666, "is_reserved": 0}, {"fusion_lat": 0.0, "type": "electric_scooter", "bike_id": "96a7db485c97f22520deb4e4567bb45e", "lat": 38.92134733333333, "name": "96a7db485c97f22520deb4e4567bb45e", "is_disabled": 0, "rental_uris": {"android": "https://dc.lft.to/lastmile_qr_scan", "ios": "https://dc.lft.to/lastmile_qr_scan"}, "fusion_lon": 0.0, "lon": -77.018578, "is_reserved": 0}, {"fusion_lat": 0.0, "type": "electric_scooter", "bike_id": "fd3cd1f41e28dd4cf20f765fc648c60e", "lat": 38.901574333333336, "name": "fd3cd1f41e28dd4cf20f765fc648c60e", "is_disabled": 0, "rental_uris": {"android": "https://dc.lft.to/lastmile_qr_scan", "ios": "https://dc.lft.to/lastmile_qr_scan"}, "fusion_lon": 0.0, "lon": -77.02213183333333, "is_reserved": 0}, {"fusion_lat": 0.0, "type": "electric_scooter", "bike_id": "8133f9af24b82b653d1fb126b26d3852", "lat": 38.90392633333333, "name": "8133f9af24b82b653d1fb126b26d3852", "is_disabled": 0, "rental_uris": {"android": "https://dc.lft.to/lastmile_qr_scan", "ios": "https://dc.lft.to/lastmile_qr_scan"}, "fusion_lon": 0.0, "lon": -77.03321383333333, "is_reserved": 0}, {"fusion_lat": 0.0, "type": "electric_scooter", "bike_id": "b80013b33ecbbbcac11f83b56d1630fa", "lat": 38.90208066666667, "name": "b80013b33ecbbbcac11f83b56d1630fa", "is_disabled": 0, "rental_uris": {"android": "https://dc.lft.to/lastmile_qr_scan", "ios": "https://dc.lft.to/lastmile_qr_scan"}, "fusion_lon": 0.0, "lon": -77.0592425, "is_reserved": 0}, {"fusion_lat": 0.0, "type": "electric_scooter", "bike_id": "c643c0e32a35089da2b7a6436865d963", "lat": 38.952689166666666, "name": "c643c0e32a35089da2b7a6436865d963", "is_disabled": 0, "rental_uris": {"android": "https://dc.lft.to/lastmile_qr_scan", "ios": "https://dc.lft.to/lastmile_qr_scan"}, "fusion_lon": 0.0, "lon": -77.02380866666667, "is_reserved": 0}, {"fusion_lat": 0.0, "type": "electric_scooter", "bike_id": "0fd6346e863a9eefd61c53126e546c8d", "lat": 38.90377266666667, "name": "0fd6346e863a9eefd61c53126e546c8d", "is_disabled": 0, "rental_uris": {"android": "https://dc.lft.to/lastmile_qr_scan", "ios": "https://dc.lft.to/lastmile_qr_scan"}, "fusion_lon": 0.0, "lon": -77.0074715, "is_reserved": 0}, {"fusion_lat": 0.0, "type": "electric_scooter", "bike_id": "0529e1907b14065856e8826317c4d1a1", "lat": 38.930717, "name": "0529e1907b14065856e8826317c4d1a1", "is_disabled": 0, "rental_uris": {"android": "https://dc.lft.to/lastmile_qr_scan", "ios": "https://dc.lft.to/lastmile_qr_scan"}, "fusion_lon": 0.0, "lon": -77.02340716666667, "is_reserved": 0}, {"fusion_lat": 0.0, "type": "electric_scooter", "bike_id": "e5e30c54d2b46b397f3ec1310aa99a4c", "lat": 38.922550333333334, "name": "e5e30c54d2b46b397f3ec1310aa99a4c", "is_disabled": 0, "rental_uris": {"android": "https://dc.lft.to/lastmile_qr_scan", "ios": "https://dc.lft.to/lastmile_qr_scan"}, "fusion_lon": 0.0, "lon": -77.047211, "is_reserved": 0}, {"fusion_lat": 0.0, "type": "electric_scooter", "bike_id": "af362d3019481e65899d60321d6f1da1", "lat": 38.90774566666666, "name": "af362d3019481e65899d60321d6f1da1", "is_disabled": 0, "rental_uris": {"android": "https://dc.lft.to/lastmile_qr_scan", "ios": "https://dc.lft.to/lastmile_qr_scan"}, "fusion_lon": 0.0, "lon": -77.0629405, "is_reserved": 0}, {"fusion_lat": 0.0, "type": "electric_scooter", "bike_id": "9eae9df11bf9dc13ee3154d8592d8d49", "lat": 38.90378316666666, "name": "9eae9df11bf9dc13ee3154d8592d8d49", "is_disabled": 0, "rental_uris": {"android": "https://dc.lft.to/lastmile_qr_scan", "ios": "https://dc.lft.to/lastmile_qr_scan"}, "fusion_lon": 0.0, "lon": -77.04362566666667, "is_reserved": 0}, {"fusion_lat": 0.0, "type": "electric_scooter", "bike_id": "d3d6c26e2f0d83c7ff2fadc861152bd5", "lat": 38.924203166666665, "name": "d3d6c26e2f0d83c7ff2fadc861152bd5", "is_disabled": 0, "rental_uris": {"android": "https://dc.lft.to/lastmile_qr_scan", "ios": "https://dc.lft.to/lastmile_qr_scan"}, "fusion_lon": 0.0, "lon": -77.01955483333333, "is_reserved": 0}, {"fusion_lat": 0.0, "type": "electric_scooter", "bike_id": "12c8774540be765c49813d7cc5acd5b0", "lat": 38.943048833333336, "name": "12c8774540be765c49813d7cc5acd5b0", "is_disabled": 0, "rental_uris": {"android": "https://dc.lft.to/lastmile_qr_scan", "ios": "https://dc.lft.to/lastmile_qr_scan"}, "fusion_lon": 0.0, "lon": -77.02959816666667, "is_reserved": 0}, {"fusion_lat": 0.0, "type": "electric_bike", "bike_id": "19e9a469f4a25b211a8ed4b38957c4d5", "lat": 38.8956085, "name": "19e9a469f4a25b211a8ed4b38957c4d5", "is_disabled": 0, "rental_uris": {"android": "https://dc.lft.to/lastmile_qr_scan", "ios": "https://dc.lft.to/lastmile_qr_scan"}, "fusion_lon": 0.0, "lon": -77.12736883333334, "is_reserved": 0}, {"fusion_lat": 0.0, "type": "electric_scooter", "bike_id": "d392ef1e436811e53f8cf3bccc6aa05a", "lat": 38.92912716666667, "name": "d392ef1e436811e53f8cf3bccc6aa05a", "is_disabled": 0, "rental_uris": {"android": "https://dc.lft.to/lastmile_qr_scan", "ios": "https://dc.lft.to/lastmile_qr_scan"}, "fusion_lon": 0.0, "lon": -77.01873333333333, "is_reserved": 0}, {"fusion_lat": 0.0, "type": "electric_scooter", "bike_id": "c7c98b8b28ff6781a371707c26bdd07f", "lat": 38.87832616666667, "name": "c7c98b8b28ff6781a371707c26bdd07f", "is_disabled": 0, "rental_uris": {"android": "https://dc.lft.to/lastmile_qr_scan", "ios": "https://dc.lft.to/lastmile_qr_scan"}, "fusion_lon": 0.0, "lon": -77.022804, "is_reserved": 0}, {"fusion_lat": 0.0, "type": "electric_bike", "bike_id": "bfbe5fef8fdfd377c55f5fe94e1f3f65", "lat": 38.9002825, "name": "bfbe5fef8fdfd377c55f5fe94e1f3f65", "is_disabled": 0, "rental_uris": {"android": "https://dc.lft.to/lastmile_qr_scan", "ios": "https://dc.lft.to/lastmile_qr_scan"}, "fusion_lon": 0.0, "lon": -77.02996933333333, "is_reserved": 0}, {"fusion_lat": 0.0, "type": "electric_scooter", "bike_id": "6d81768b340b0c724dda0a97b5425995", "lat": 38.92327083333333, "name": "6d81768b340b0c724dda0a97b5425995", "is_disabled": 0, "rental_uris": {"android": "https://dc.lft.to/lastmile_qr_scan", "ios": "https://dc.lft.to/lastmile_qr_scan"}, "fusion_lon": 0.0, "lon": -77.00896366666667, "is_reserved": 0}, {"fusion_lat": 0.0, "type": "electric_scooter", "bike_id": "a1bea62be452e0567647bd77447e38b1", "lat": 38.92685766666666, "name": "a1bea62be452e0567647bd77447e38b1", "is_disabled": 0, "rental_uris": {"android": "https://dc.lft.to/lastmile_qr_scan", "ios": "https://dc.lft.to/lastmile_qr_scan"}, "fusion_lon": 0.0, "lon": -77.0157115, "is_reserved": 0}, {"fusion_lat": 0.0, "type": "electric_scooter", "bike_id": "66c3cd05430444b4ecfd4b6169ef3377", "lat": 38.91837233333333, "name": "66c3cd05430444b4ecfd4b6169ef3377", "is_disabled": 0, "rental_uris": {"android": "https://dc.lft.to/lastmile_qr_scan", "ios": "https://dc.lft.to/lastmile_qr_scan"}, "fusion_lon": 0.0, "lon": -77.02291933333333, "is_reserved": 0}, {"fusion_lat": 0.0, "type": "electric_bike", "bike_id": "1d448a435265b2037dd6397841d2b2c3", "lat": 38.85590416666667, "name": "1d448a435265b2037dd6397841d2b2c3", "is_disabled": 0, "rental_uris": {"android": "https://dc.lft.to/lastmile_qr_scan", "ios": "https://dc.lft.to/lastmile_qr_scan"}, "fusion_lon": 0.0, "lon": -76.972679, "is_reserved": 0}, {"fusion_lat": 0.0, "type": "electric_bike", "bike_id": "56d6689066a0aeb015580fa32a21e598", "lat": 38.985549, "name": "56d6689066a0aeb015580fa32a21e598", "is_disabled": 0, "rental_uris": {"android": "https://dc.lft.to/lastmile_qr_scan", "ios": "https://dc.lft.to/lastmile_qr_scan"}, "fusion_lon": 0.0, "lon": -77.003996, "is_reserved": 0}, {"fusion_lat": 0.0, "type": "electric_scooter", "bike_id": "7633c1faacc6f6ae8c0462872bb45012", "lat": 38.9210395, "name": "7633c1faacc6f6ae8c0462872bb45012", "is_disabled": 0, "rental_uris": {"android": "https://dc.lft.to/lastmile_qr_scan", "ios": "https://dc.lft.to/lastmile_qr_scan"}, "fusion_lon": 0.0, "lon": -77.0393895, "is_reserved": 0}, {"fusion_lat": 0.0, "type": "electric_scooter", "bike_id": "e249b5ede4ae7c3415789b4c9cc22437", "lat": 38.90616983333334, "name": "e249b5ede4ae7c3415789b4c9cc22437", "is_disabled": 0, "rental_uris": {"android": "https://dc.lft.to/lastmile_qr_scan", "ios": "https://dc.lft.to/lastmile_qr_scan"}, "fusion_lon": 0.0, "lon": -77.00595933333334, "is_reserved": 0}, {"fusion_lat": 0.0, "type": "electric_scooter", "bike_id": "e567465a8228c1d1be030ec03b95637f", "lat": 38.901223, "name": "e567465a8228c1d1be030ec03b95637f", "is_disabled": 0, "rental_uris": {"android": "https://dc.lft.to/lastmile_qr_scan", "ios": "https://dc.lft.to/lastmile_qr_scan"}, "fusion_lon": 0.0, "lon": -77.0439125, "is_reserved": 0}, {"fusion_lat": 0.0, "type": "electric_scooter", "bike_id": "570d58513a63bac1b21348f7a5736992", "lat": 38.892796833333335, "name": "570d58513a63bac1b21348f7a5736992", "is_disabled": 0, "rental_uris": {"android": "https://dc.lft.to/lastmile_qr_scan", "ios": "https://dc.lft.to/lastmile_qr_scan"}, "fusion_lon": 0.0, "lon": -77.05039683333334, "is_reserved": 0}, {"fusion_lat": 0.0, "type": "electric_scooter", "bike_id": "b37d0aa0ca1090da5957922e36716e5d", "lat": 38.901562, "name": "b37d0aa0ca1090da5957922e36716e5d", "is_disabled": 0, "rental_uris": {"android": "https://dc.lft.to/lastmile_qr_scan", "ios": "https://dc.lft.to/lastmile_qr_scan"}, "fusion_lon": 0.0, "lon": -77.02299316666667, "is_reserved": 0}, {"fusion_lat": 0.0, "type": "electric_scooter", "bike_id": "4e594a9625c1f0f6c7ac9bceba0beee2", "lat": 38.94613866666667, "name": "4e594a9625c1f0f6c7ac9bceba0beee2", "is_disabled": 0, "rental_uris": {"android": "https://dc.lft.to/lastmile_qr_scan", "ios": "https://dc.lft.to/lastmile_qr_scan"}, "fusion_lon": 0.0, "lon": -77.030583, "is_reserved": 0}, {"fusion_lat": 0.0, "type": "electric_scooter", "bike_id": "8bca0313d14501c7b0b24740dc38e440", "lat": 38.909431, "name": "8bca0313d14501c7b0b24740dc38e440", "is_disabled": 0, "rental_uris": {"android": "https://dc.lft.to/lastmile_qr_scan", "ios": "https://dc.lft.to/lastmile_qr_scan"}, "fusion_lon": 0.0, "lon": -77.04446766666666, "is_reserved": 0}, {"fusion_lat": 0.0, "type": "electric_bike", "bike_id": "c63bf7f13d8fe38021d567d1c2ec8a3c", "lat": 38.920240166666666, "name": "c63bf7f13d8fe38021d567d1c2ec8a3c", "is_disabled": 0, "rental_uris": {"android": "https://dc.lft.to/lastmile_qr_scan", "ios": "https://dc.lft.to/lastmile_qr_scan"}, "fusion_lon": 0.0, "lon": -77.003391, "is_reserved": 0}, {"fusion_lat": 0.0, "type": "electric_scooter", "bike_id": "272e87083ffce39f48a7110b17dba167", "lat": 38.918508, "name": "272e87083ffce39f48a7110b17dba167", "is_disabled": 0, "rental_uris": {"android": "https://dc.lft.to/lastmile_qr_scan", "ios": "https://dc.lft.to/lastmile_qr_scan"}, "fusion_lon": 0.0, "lon": -77.038907, "is_reserved": 0}, {"fusion_lat": 0.0, "type": "electric_scooter", "bike_id": "435cd3e087b58221f838135e2934f4af", "lat": 38.935335333333335, "name": "435cd3e087b58221f838135e2934f4af", "is_disabled": 0, "rental_uris": {"android": "https://dc.lft.to/lastmile_qr_scan", "ios": "https://dc.lft.to/lastmile_qr_scan"}, "fusion_lon": 0.0, "lon": -77.02347716666667, "is_reserved": 0}, {"fusion_lat": 0.0, "type": "electric_scooter", "bike_id": "03e5574d8b4a3046c8bc2b393f737903", "lat": 38.907084166666664, "name": "03e5574d8b4a3046c8bc2b393f737903", "is_disabled": 0, "rental_uris": {"android": "https://dc.lft.to/lastmile_qr_scan", "ios": "https://dc.lft.to/lastmile_qr_scan"}, "fusion_lon": 0.0, "lon": -76.99963433333333, "is_reserved": 0}, {"fusion_lat": 0.0, "type": "electric_scooter", "bike_id": "e4c492744e754d981fbf86dbb12aec56", "lat": 38.917677833333336, "name": "e4c492744e754d981fbf86dbb12aec56", "is_disabled": 0, "rental_uris": {"android": "https://dc.lft.to/lastmile_qr_scan", "ios": "https://dc.lft.to/lastmile_qr_scan"}, "fusion_lon": 0.0, "lon": -77.040633, "is_reserved": 0}, {"fusion_lat": 0.0, "type": "electric_scooter", "bike_id": "ece4ec936eac1f45184c845693ee3ff2", "lat": 38.924653666666664, "name": "ece4ec936eac1f45184c845693ee3ff2", "is_disabled": 0, "rental_uris": {"android": "https://dc.lft.to/lastmile_qr_scan", "ios": "https://dc.lft.to/lastmile_qr_scan"}, "fusion_lon": 0.0, "lon": -77.05203, "is_reserved": 0}, {"fusion_lat": 0.0, "type": "electric_scooter", "bike_id": "614f6400fb9073f2049a170c44cb343f", "lat": 38.90609166666667, "name": "614f6400fb9073f2049a170c44cb343f", "is_disabled": 0, "rental_uris": {"android": "https://dc.lft.to/lastmile_qr_scan", "ios": "https://dc.lft.to/lastmile_qr_scan"}, "fusion_lon": 0.0, "lon": -77.039924, "is_reserved": 0}, {"fusion_lat": 0.0, "type": "electric_scooter", "bike_id": "fc835252442d89d46ed06ddf874d648a", "lat": 38.915384, "name": "fc835252442d89d46ed06ddf874d648a", "is_disabled": 0, "rental_uris": {"android": "https://dc.lft.to/lastmile_qr_scan", "ios": "https://dc.lft.to/lastmile_qr_scan"}, "fusion_lon": 0.0, "lon": -77.044717, "is_reserved": 0}, {"fusion_lat": 0.0, "type": "electric_scooter", "bike_id": "52bea50793bd3d293b4a235df28dbbfa", "lat": 38.915508833333334, "name": "52bea50793bd3d293b4a235df28dbbfa", "is_disabled": 0, "rental_uris": {"android": "https://dc.lft.to/lastmile_qr_scan", "ios": "https://dc.lft.to/lastmile_qr_scan"}, "fusion_lon": 0.0, "lon": -77.01234966666667, "is_reserved": 0}, {"fusion_lat": 0.0, "type": "electric_scooter", "bike_id": "d68095d5201bef610781427fc7d6d4c5", "lat": 38.920353666666664, "name": "d68095d5201bef610781427fc7d6d4c5", "is_disabled": 0, "rental_uris": {"android": "https://dc.lft.to/lastmile_qr_scan", "ios": "https://dc.lft.to/lastmile_qr_scan"}, "fusion_lon": 0.0, "lon": -77.03131483333334, "is_reserved": 0}, {"fusion_lat": 0.0, "type": "electric_scooter", "bike_id": "64495d9ed189f720a5f6ac8b57f28269", "lat": 38.9259545, "name": "64495d9ed189f720a5f6ac8b57f28269", "is_disabled": 0, "rental_uris": {"android": "https://dc.lft.to/lastmile_qr_scan", "ios": "https://dc.lft.to/lastmile_qr_scan"}, "fusion_lon": 0.0, "lon": -77.05714116666667, "is_reserved": 0}, {"fusion_lat": 0.0, "type": "electric_scooter", "bike_id": "2a6bc1e88474d4ad13ce52faaa29020e", "lat": 38.917048666666666, "name": "2a6bc1e88474d4ad13ce52faaa29020e", "is_disabled": 0, "rental_uris": {"android": "https://dc.lft.to/lastmile_qr_scan", "ios": "https://dc.lft.to/lastmile_qr_scan"}, "fusion_lon": 0.0, "lon": -77.01183883333333, "is_reserved": 0}, {"fusion_lat": 0.0, "type": "electric_scooter", "bike_id": "dbbdf54f9dcd578a6137f24211d2e3c8", "lat": 38.929688666666664, "name": "dbbdf54f9dcd578a6137f24211d2e3c8", "is_disabled": 0, "rental_uris": {"android": "https://dc.lft.to/lastmile_qr_scan", "ios": "https://dc.lft.to/lastmile_qr_scan"}, "fusion_lon": 0.0, "lon": -77.0312145, "is_reserved": 0}, {"fusion_lat": 0.0, "type": "electric_scooter", "bike_id": "8df6658c61c5872f32986a984fc67701", "lat": 38.899605, "name": "8df6658c61c5872f32986a984fc67701", "is_disabled": 0, "rental_uris": {"android": "https://dc.lft.to/lastmile_qr_scan", "ios": "https://dc.lft.to/lastmile_qr_scan"}, "fusion_lon": 0.0, "lon": -77.03078333333333, "is_reserved": 0}, {"fusion_lat": 0.0, "type": "electric_scooter", "bike_id": "4e042ad6985623da2b26118f5f185c79", "lat": 38.9027335, "name": "4e042ad6985623da2b26118f5f185c79", "is_disabled": 0, "rental_uris": {"android": "https://dc.lft.to/lastmile_qr_scan", "ios": "https://dc.lft.to/lastmile_qr_scan"}, "fusion_lon": 0.0, "lon": -77.03444516666667, "is_reserved": 0}, {"fusion_lat": 0.0, "type": "electric_scooter", "bike_id": "5158b773a71f88e4dbbbf8912bfa69c8", "lat": 38.8859065, "name": "5158b773a71f88e4dbbbf8912bfa69c8", "is_disabled": 0, "rental_uris": {"android": "https://dc.lft.to/lastmile_qr_scan", "ios": "https://dc.lft.to/lastmile_qr_scan"}, "fusion_lon": 0.0, "lon": -77.01989033333334, "is_reserved": 0}, {"fusion_lat": 0.0, "type": "electric_scooter", "bike_id": "3162bcf8d3676ba774d3fedf1588cccc", "lat": 38.89027433333333, "name": "3162bcf8d3676ba774d3fedf1588cccc", "is_disabled": 0, "rental_uris": {"android": "https://dc.lft.to/lastmile_qr_scan", "ios": "https://dc.lft.to/lastmile_qr_scan"}, "fusion_lon": 0.0, "lon": -76.94469433333333, "is_reserved": 0}, {"fusion_lat": 0.0, "type": "electric_scooter", "bike_id": "5a51d8c11e5716cf82138de8f7afe4c0", "lat": 38.89353933333334, "name": "5a51d8c11e5716cf82138de8f7afe4c0", "is_disabled": 0, "rental_uris": {"android": "https://dc.lft.to/lastmile_qr_scan", "ios": "https://dc.lft.to/lastmile_qr_scan"}, "fusion_lon": 0.0, "lon": -77.00288716666667, "is_reserved": 0}, {"fusion_lat": 0.0, "type": "electric_scooter", "bike_id": "91f549726801ade5199545164a199a54", "lat": 38.9320705, "name": "91f549726801ade5199545164a199a54", "is_disabled": 0, "rental_uris": {"android": "https://dc.lft.to/lastmile_qr_scan", "ios": "https://dc.lft.to/lastmile_qr_scan"}, "fusion_lon": 0.0, "lon": -77.01879383333333, "is_reserved": 0}, {"fusion_lat": 0.0, "type": "electric_scooter", "bike_id": "9efe3c47c61cd0f3ecb4d606dd1140f3", "lat": 38.89886, "name": "9efe3c47c61cd0f3ecb4d606dd1140f3", "is_disabled": 0, "rental_uris": {"android": "https://dc.lft.to/lastmile_qr_scan", "ios": "https://dc.lft.to/lastmile_qr_scan"}, "fusion_lon": 0.0, "lon": -77.02974983333333, "is_reserved": 0}, {"fusion_lat": 0.0, "type": "electric_scooter", "bike_id": "645e6ced9fb36247490a41f67fc252fb", "lat": 38.89813183333333, "name": "645e6ced9fb36247490a41f67fc252fb", "is_disabled": 0, "rental_uris": {"android": "https://dc.lft.to/lastmile_qr_scan", "ios": "https://dc.lft.to/lastmile_qr_scan"}, "fusion_lon": 0.0, "lon": -77.02634266666666, "is_reserved": 0}, {"fusion_lat": 0.0, "type": "electric_scooter", "bike_id": "4348817a902cf89805ad0d6ba5c0a425", "lat": 38.898890333333334, "name": "4348817a902cf89805ad0d6ba5c0a425", "is_disabled": 0, "rental_uris": {"android": "https://dc.lft.to/lastmile_qr_scan", "ios": "https://dc.lft.to/lastmile_qr_scan"}, "fusion_lon": 0.0, "lon": -77.01443083333334, "is_reserved": 0}, {"fusion_lat": 0.0, "type": "electric_scooter", "bike_id": "6ea343fd631fe0b5d9ccdbbc3084990e", "lat": 38.90584966666667, "name": "6ea343fd631fe0b5d9ccdbbc3084990e", "is_disabled": 0, "rental_uris": {"android": "https://dc.lft.to/lastmile_qr_scan", "ios": "https://dc.lft.to/lastmile_qr_scan"}, "fusion_lon": 0.0, "lon": -77.00612283333334, "is_reserved": 0}, {"fusion_lat": 0.0, "type": "electric_scooter", "bike_id": "c2917a7c1ff5d1ceb15c933bcc224c0a", "lat": 38.901994333333334, "name": "c2917a7c1ff5d1ceb15c933bcc224c0a", "is_disabled": 0, "rental_uris": {"android": "https://dc.lft.to/lastmile_qr_scan", "ios": "https://dc.lft.to/lastmile_qr_scan"}, "fusion_lon": 0.0, "lon": -77.0480995, "is_reserved": 0}, {"fusion_lat": 0.0, "type": "electric_scooter", "bike_id": "2aa52adfe4c8ff576778a18ef3cb53b1", "lat": 38.88969616666667, "name": "2aa52adfe4c8ff576778a18ef3cb53b1", "is_disabled": 0, "rental_uris": {"android": "https://dc.lft.to/lastmile_qr_scan", "ios": "https://dc.lft.to/lastmile_qr_scan"}, "fusion_lon": 0.0, "lon": -76.98040766666666, "is_reserved": 0}, {"fusion_lat": 0.0, "type": "electric_scooter", "bike_id": "c9bd157e12dc3abd978a9dec3e93bcd0", "lat": 38.914466, "name": "c9bd157e12dc3abd978a9dec3e93bcd0", "is_disabled": 0, "rental_uris": {"android": "https://dc.lft.to/lastmile_qr_scan", "ios": "https://dc.lft.to/lastmile_qr_scan"}, "fusion_lon": 0.0, "lon": -77.02288033333333, "is_reserved": 0}, {"fusion_lat": 0.0, "type": "electric_scooter", "bike_id": "a9c192e5910e3ff9627086ab4648565a", "lat": 38.896378, "name": "a9c192e5910e3ff9627086ab4648565a", "is_disabled": 0, "rental_uris": {"android": "https://dc.lft.to/lastmile_qr_scan", "ios": "https://dc.lft.to/lastmile_qr_scan"}, "fusion_lon": 0.0, "lon": -77.011606, "is_reserved": 0}, {"fusion_lat": 0.0, "type": "electric_scooter", "bike_id": "796de2f0e81d15b4955e53a55ae6233e", "lat": 38.906671333333335, "name": "796de2f0e81d15b4955e53a55ae6233e", "is_disabled": 0, "rental_uris": {"android": "https://dc.lft.to/lastmile_qr_scan", "ios": "https://dc.lft.to/lastmile_qr_scan"}, "fusion_lon": 0.0, "lon": -77.02700433333334, "is_reserved": 0}, {"fusion_lat": 0.0, "type": "electric_scooter", "bike_id": "050bee811d3f94439e7f022f3c8d9a6b", "lat": 38.899598, "name": "050bee811d3f94439e7f022f3c8d9a6b", "is_disabled": 0, "rental_uris": {"android": "https://dc.lft.to/lastmile_qr_scan", "ios": "https://dc.lft.to/lastmile_qr_scan"}, "fusion_lon": 0.0, "lon": -77.04686433333333, "is_reserved": 0}, {"fusion_lat": 0.0, "type": "electric_scooter", "bike_id": "76261de6107ddd53268fbdaf38c56ad3", "lat": 38.89962366666666, "name": "76261de6107ddd53268fbdaf38c56ad3", "is_disabled": 0, "rental_uris": {"android": "https://dc.lft.to/lastmile_qr_scan", "ios": "https://dc.lft.to/lastmile_qr_scan"}, "fusion_lon": 0.0, "lon": -77.01621516666667, "is_reserved": 0}, {"fusion_lat": 0.0, "type": "electric_scooter", "bike_id": "d247cfdfc16f733550a97527d21ec134", "lat": 38.9025495, "name": "d247cfdfc16f733550a97527d21ec134", "is_disabled": 0, "rental_uris": {"android": "https://dc.lft.to/lastmile_qr_scan", "ios": "https://dc.lft.to/lastmile_qr_scan"}, "fusion_lon": 0.0, "lon": -77.03212216666667, "is_reserved": 0}, {"fusion_lat": 0.0, "type": "electric_scooter", "bike_id": "349db8f702f9ddb0da3b85dc1e12f549", "lat": 38.91689133333333, "name": "349db8f702f9ddb0da3b85dc1e12f549", "is_disabled": 0, "rental_uris": {"android": "https://dc.lft.to/lastmile_qr_scan", "ios": "https://dc.lft.to/lastmile_qr_scan"}, "fusion_lon": 0.0, "lon": -77.03219066666666, "is_reserved": 0}, {"fusion_lat": 0.0, "type": "electric_bike", "bike_id": "71061df8585bb699f911929690c2b35c", "lat": 38.98531216666667, "name": "71061df8585bb699f911929690c2b35c", "is_disabled": 0, "rental_uris": {"android": "https://dc.lft.to/lastmile_qr_scan", "ios": "https://dc.lft.to/lastmile_qr_scan"}, "fusion_lon": 0.0, "lon": -77.00414766666667, "is_reserved": 0}, {"fusion_lat": 0.0, "type": "electric_scooter", "bike_id": "4a5d34fcb880cb1c9f0f0da7fcf06021", "lat": 38.92419966666667, "name": "4a5d34fcb880cb1c9f0f0da7fcf06021", "is_disabled": 0, "rental_uris": {"android": "https://dc.lft.to/lastmile_qr_scan", "ios": "https://dc.lft.to/lastmile_qr_scan"}, "fusion_lon": 0.0, "lon": -77.0194695, "is_reserved": 0}, {"fusion_lat": 0.0, "type": "electric_scooter", "bike_id": "4fbb11473e644abdb30069d536b6c10f", "lat": 38.89672216666666, "name": "4fbb11473e644abdb30069d536b6c10f", "is_disabled": 0, "rental_uris": {"android": "https://dc.lft.to/lastmile_qr_scan", "ios": "https://dc.lft.to/lastmile_qr_scan"}, "fusion_lon": 0.0, "lon": -76.93212166666666, "is_reserved": 0}, {"fusion_lat": 0.0, "type": "electric_scooter", "bike_id": "72b514dfba75e466cfca5537a909cd03", "lat": 38.90182816666667, "name": "72b514dfba75e466cfca5537a909cd03", "is_disabled": 0, "rental_uris": {"android": "https://dc.lft.to/lastmile_qr_scan", "ios": "https://dc.lft.to/lastmile_qr_scan"}, "fusion_lon": 0.0, "lon": -76.9346545, "is_reserved": 0}, {"fusion_lat": 0.0, "type": "electric_scooter", "bike_id": "3baf72146883bc245bac2d87e93c6950", "lat": 38.9393605, "name": "3baf72146883bc245bac2d87e93c6950", "is_disabled": 0, "rental_uris": {"android": "https://dc.lft.to/lastmile_qr_scan", "ios": "https://dc.lft.to/lastmile_qr_scan"}, "fusion_lon": 0.0, "lon": -77.03269983333334, "is_reserved": 0}, {"fusion_lat": 0.0, "type": "electric_scooter", "bike_id": "671b8f7520f8f73bcc58f745e169bd8a", "lat": 38.901576, "name": "671b8f7520f8f73bcc58f745e169bd8a", "is_disabled": 0, "rental_uris": {"android": "https://dc.lft.to/lastmile_qr_scan", "ios": "https://dc.lft.to/lastmile_qr_scan"}, "fusion_lon": 0.0, "lon": -77.05305816666667, "is_reserved": 0}, {"fusion_lat": 0.0, "type": "electric_scooter", "bike_id": "863891b37ffd0da283392fbece4672dc", "lat": 38.8754555, "name": "863891b37ffd0da283392fbece4672dc", "is_disabled": 0, "rental_uris": {"android": "https://dc.lft.to/lastmile_qr_scan", "ios": "https://dc.lft.to/lastmile_qr_scan"}, "fusion_lon": 0.0, "lon": -77.00540433333333, "is_reserved": 0}, {"fusion_lat": 0.0, "type": "electric_scooter", "bike_id": "13c3da392cbd6f0aabbc279953a37007", "lat": 38.899705833333336, "name": "13c3da392cbd6f0aabbc279953a37007", "is_disabled": 0, "rental_uris": {"android": "https://dc.lft.to/lastmile_qr_scan", "ios": "https://dc.lft.to/lastmile_qr_scan"}, "fusion_lon": 0.0, "lon": -77.04491066666667, "is_reserved": 0}, {"fusion_lat": 0.0, "type": "electric_scooter", "bike_id": "fbb1239b87da9a12241dad1dc7763a0f", "lat": 38.92650016666666, "name": "fbb1239b87da9a12241dad1dc7763a0f", "is_disabled": 0, "rental_uris": {"android": "https://dc.lft.to/lastmile_qr_scan", "ios": "https://dc.lft.to/lastmile_qr_scan"}, "fusion_lon": 0.0, "lon": -77.03707966666667, "is_reserved": 0}, {"fusion_lat": 0.0, "type": "electric_scooter", "bike_id": "7f061b446fe600350d5778f734631074", "lat": 38.89770883333333, "name": "7f061b446fe600350d5778f734631074", "is_disabled": 0, "rental_uris": {"android": "https://dc.lft.to/lastmile_qr_scan", "ios": "https://dc.lft.to/lastmile_qr_scan"}, "fusion_lon": 0.0, "lon": -77.02684333333333, "is_reserved": 0}, {"fusion_lat": 0.0, "type": "electric_bike", "bike_id": "c5072809faebe70bbff21a1e2ffbb98f", "lat": 38.896232499999996, "name": "c5072809faebe70bbff21a1e2ffbb98f", "is_disabled": 0, "rental_uris": {"android": "https://dc.lft.to/lastmile_qr_scan", "ios": "https://dc.lft.to/lastmile_qr_scan"}, "fusion_lon": 0.0, "lon": -76.90756116666667, "is_reserved": 0}, {"fusion_lat": 0.0, "type": "electric_scooter", "bike_id": "b10c424fea820654097a835f6fd3ab75", "lat": 38.925695166666664, "name": "b10c424fea820654097a835f6fd3ab75", "is_disabled": 0, "rental_uris": {"android": "https://dc.lft.to/lastmile_qr_scan", "ios": "https://dc.lft.to/lastmile_qr_scan"}, "fusion_lon": 0.0, "lon": -77.02968116666666, "is_reserved": 0}, {"fusion_lat": 0.0, "type": "electric_scooter", "bike_id": "27c52fbacd77bc48da8b3d5947590cdf", "lat": 38.90546616666666, "name": "27c52fbacd77bc48da8b3d5947590cdf", "is_disabled": 0, "rental_uris": {"android": "https://dc.lft.to/lastmile_qr_scan", "ios": "https://dc.lft.to/lastmile_qr_scan"}, "fusion_lon": 0.0, "lon": -77.00572416666667, "is_reserved": 0}, {"fusion_lat": 0.0, "type": "electric_scooter", "bike_id": "c9f06fed9c46c419ce29b1d26e19eacc", "lat": 38.91212316666667, "name": "c9f06fed9c46c419ce29b1d26e19eacc", "is_disabled": 0, "rental_uris": {"android": "https://dc.lft.to/lastmile_qr_scan", "ios": "https://dc.lft.to/lastmile_qr_scan"}, "fusion_lon": 0.0, "lon": -77.043975, "is_reserved": 0}, {"fusion_lat": 0.0, "type": "electric_scooter", "bike_id": "e50c52f34192665c1221b4790d3d05bb", "lat": 38.954186166666666, "name": "e50c52f34192665c1221b4790d3d05bb", "is_disabled": 0, "rental_uris": {"android": "https://dc.lft.to/lastmile_qr_scan", "ios": "https://dc.lft.to/lastmile_qr_scan"}, "fusion_lon": 0.0, "lon": -77.02759633333334, "is_reserved": 0}, {"fusion_lat": 0.0, "type": "electric_scooter", "bike_id": "87f2625e56c0960d2ea07e4910a5a69e", "lat": 38.924149666666665, "name": "87f2625e56c0960d2ea07e4910a5a69e", "is_disabled": 0, "rental_uris": {"android": "https://dc.lft.to/lastmile_qr_scan", "ios": "https://dc.lft.to/lastmile_qr_scan"}, "fusion_lon": 0.0, "lon": -77.0201155, "is_reserved": 0}, {"fusion_lat": 0.0, "type": "electric_scooter", "bike_id": "c84cca3cf0b216894f92e47a69a7a716", "lat": 38.87620283333333, "name": "c84cca3cf0b216894f92e47a69a7a716", "is_disabled": 0, "rental_uris": {"android": "https://dc.lft.to/lastmile_qr_scan", "ios": "https://dc.lft.to/lastmile_qr_scan"}, "fusion_lon": 0.0, "lon": -77.00138, "is_reserved": 0}, {"fusion_lat": 0.0, "type": "electric_scooter", "bike_id": "e55b32df9356130c5f53e16303f4ac1f", "lat": 38.919301833333336, "name": "e55b32df9356130c5f53e16303f4ac1f", "is_disabled": 0, "rental_uris": {"android": "https://dc.lft.to/lastmile_qr_scan", "ios": "https://dc.lft.to/lastmile_qr_scan"}, "fusion_lon": 0.0, "lon": -77.01968866666667, "is_reserved": 0},