{"data": {"bikes": [{"rental_uris": {"android": "https://dc.lft.to/lastmile_qr_scan", "ios": "https://dc.lft.to/lastmile_qr_scan"}, "lat": 38.906663, "type": "electric_scooter", "name": "32a880f066830e63246921fca5e619b3", "fusion_lon": 0.0, "fusion_lat": 0.0, "is_reserved": 0, "bike_id": "32a880f066830e63246921fca5e619b3", "lon": -77.026898, "is_disabled": 0}, {"rental_uris": {"android": "https://dc.lft.to/lastmile_qr_scan", "ios": "https://dc.lft.to/lastmile_qr_scan"}, "lat": 38.918613, "type": "electric_bike", "name": "9f1c456f39973e84e48c590ff7d1b1f3", "fusion_lon": 0.0, "fusion_lat": 0.0, "is_reserved": 0, "bike_id": "9f1c456f39973e84e48c590ff7d1b1f3", "lon": -76.96082366666667, "is_disabled": 0}, {"rental_uris": {"android": "https://dc.lft.to/lastmile_qr_scan", "ios": "https://dc.lft.to/lastmile_qr_scan"}, "lat": 38.8920025, "type": "electric_scooter", "name": "031dd6e6e82af91b4c5c0225ee91ffea", "fusion_lon": 0.0, "fusion_lat": 0.0, "is_reserved": 0, "bike_id": "031dd6e6e82af91b4c5c0225ee91ffea", "lon": -77.021439, "is_disabled": 0}, {"rental_uris": {"android": "https://dc.lft.to/lastmile_qr_scan", "ios": "https://dc.lft.to/lastmile_qr_scan"}, "lat": 38.9418225, "type": "electric_scooter", "name": "a4aaac0df15e0eb19e1632b718a35840", "fusion_lon": 0.0, "fusion_lat": 0.0, "is_reserved": 0, "bike_id": "a4aaac0df15e0eb19e1632b718a35840", "lon": -77.03146666666666, "is_disabled": 0}, {"rental_uris": {"android": "https://dc.lft.to/lastmile_qr_scan", "ios": "https://dc.lft.to/lastmile_qr_scan"}, "lat": 38.92054233333333, "type": "electric_scooter", "name": "aaffe0501b7b3e598db6ec2c61456b95", "fusion_lon": 0.0, "fusion_lat": 0.0, "is_reserved": 0, "bike_id": "aaffe0501b7b3e598db6ec2c61456b95", "lon": -77.04184166666667, "is_disabled": 0}, {"rental_uris": {"android": "https://dc.lft.to/lastmile_qr_scan", "ios": "https://dc.lft.to/lastmile_qr_scan"}, "lat": 38.91821183333333, "type": "electric_scooter", "name": "516ef6592d0b349ce22169326591c92c", "fusion_lon": 0.0, "fusion_lat": 0.0, "is_reserved": 0, "bike_id": "516ef6592d0b349ce22169326591c92c", "lon": -77.027092, "is_disabled": 0}, {"rental_uris": {"android": "https://dc.lft.to/lastmile_qr_scan", "ios": "https://dc.lft.to/lastmile_qr_scan"}, "lat": 38.891188, "type": "electric_bike", "name": "396ed05ea6b3e99c619a1db720b548be", "fusion_lon": 0.0, "fusion_lat": 0.0, "is_reserved": 0, "bike_id": "396ed05ea6b3e99c619a1db720b548be", "lon": -77.0058515, "is_disabled": 0}, {"rental_uris": {"android": "https://dc.lft.to/lastmile_qr_scan", "ios": "https://dc.lft.to/lastmile_qr_scan"}, "lat": 38.87662533333334, "type": "electric_scooter", "name": "461b8b72a72ccd941ee7d6716c3286a7", "fusion_lon": 0.0, "fusion_lat": 0.0, "is_reserved": 0, "bike_id": "461b8b72a72ccd941ee7d6716c3286a7", "lon": -77.00067133333333, "is_disabled": 0}, {"rental_uris": {"android": "https://dc.lft.to/lastmile_qr_scan", "ios": "https://dc.lft.to/lastmile_qr_scan"}, "lat": 38.901574, "type": "electric_scooter", "name": "48cc93146aa746918f30f826bc4a7d71", "fusion_lon": 0.0, "fusion_lat": 0.0, "is_reserved": 0, "bike_id": "48cc93146aa746918f30f826bc4a7d71", "lon": -76.97418033333334, "is_disabled": 0}, {"rental_uris": {"android": "https://dc.lft.to/lastmile_qr_scan", "ios": "https://dc.lft.to/lastmile_qr_scan"}, "lat": 38.82925066666667, "type": "electric_bike", "name": "4dce5eedaca536c6ca3fa6c6bd231a44", "fusion_lon": 0.0, "fusion_lat": 0.0, "is_reserved": 0, "bike_id": "4dce5eedaca536c6ca3fa6c6bd231a44", "lon": -77.06878516666667, "is_disabled": 0}, {"rental_uris": {"android": "https://dc.lft.to/lastmile_qr_scan", "ios": "https://dc.lft.to/lastmile_qr_scan"}, "lat": 38.9263295, "type": "electric_scooter", "name": "bda7d6892b7da8467bd4e8d013ce6231", "fusion_lon": 0.0, "fusion_lat": 0.0, "is_reserved": 0, "bike_id": "bda7d6892b7da8467bd4e8d013ce6231", "lon": -77.02291133333334, "is_disabled": 0}, {"rental_uris": {"android": "https://dc.lft.to/lastmile_qr_scan", "ios": "https://dc.lft.to/lastmile_qr_scan"}, "lat": 38.910553, "type": "electric_scooter", "name": "6a355094acb0f5f893ea294edaed2c31", "fusion_lon": 0.0, "fusion_lat": 0.0, "is_reserved": 0, "bike_id": "6a355094acb0f5f893ea294edaed2c31", "lon": -77.04364783333334, "is_disabled": 0}, {"rental_uris": {"android": "https://dc.lft.to/lastmile_qr_scan", "ios": "https://dc.lft.to/lastmile_qr_scan"}, "lat": 38.91373383333333, "type": "electric_scooter", "name": "5ad0fd18b8db6d4a91a5a8de1cc29c80", "fusion_lon": 0.0, "fusion_lat": 0.0, "is_reserved": 0, "bike_id": "5ad0fd18b8db6d4a91a5a8de1cc29c80", "lon": -77.03203483333333, "is_disabled": 0}, {"rental_uris": {"android": "https://dc.lft.to/lastmile_qr_scan", "ios": "https://dc.lft.to/lastmile_qr_scan"}, "lat": 38.894008, "type": "electric_scooter", "name": "24fca97d30e32f47d291a49037b4dd17", "fusion_lon": 0.0, "fusion_lat": 0.0, "is_reserved": 0, "bike_id": "24fca97d30e32f47d291a49037b4dd17", "lon": -77.02168583333334, "is_disabled": 0}, {"rental_uris": {"android": "https://dc.lft.to/lastmile_qr_scan", "ios": "https://dc.lft.to/lastmile_qr_scan"}, "lat": 38.88988283333333, "type": "electric_scooter", "name": "c55f66d63039173a1859ee919285b235", "fusion_lon": 0.0, "fusion_lat": 0.0, "is_reserved": 0, "bike_id": "c55f66d63039173a1859ee919285b235", "lon": -77.0033525, "is_disabled": 0}, {"rental_uris": {"android": "https://dc.lft.to/lastmile_qr_scan", "ios": "https://dc.lft.to/lastmile_qr_scan"}, "lat": 38.92709766666667, "type": "electric_scooter", "name": "7e4fe6d33366720487338eb47180e327", "fusion_lon": 0.0, "fusion_lat": 0.0, "is_reserved": 0, "bike_id": "7e4fe6d33366720487338eb47180e327", "lon": -77.02405383333334, "is_disabled": 0}, {"rental_uris": {"android": "https://dc.lft.to/lastmile_qr_scan", "ios": "https://dc.lft.to/lastmile_qr_scan"}, "lat": 38.902394666666666, "type": "electric_scooter", "name": "9fda2f431908f1e3bbf7ce559c5a3041", "fusion_lon": 0.0, "fusion_lat": 0.0, "is_reserved": 0, "bike_id": "9fda2f431908f1e3bbf7ce559c5a3041", "lon": -77.0153455, "is_disabled": 0}, {"rental_uris": {"android": "https://dc.lft.to/lastmile_qr_scan", "ios": "https://dc.lft.to/lastmile_qr_scan"}, "lat": 38.89973466666667, "type": "electric_scooter", "name": "f990fc203273f5e43ffc14c194607f08", "fusion_lon": 0.0, "fusion_lat": 0.0, "is_reserved": 0, "bike_id": "f990fc203273f5e43ffc14c194607f08", "lon": -77.03078683333334, "is_disabled": 0}, {"rental_uris": {"android": "https://dc.lft.to/lastmile_qr_scan", "ios": "https://dc.lft.to/lastmile_qr_scan"}, "lat": 38.90837783333333, "type": "electric_scooter", "name": "789aeb9f25510b6b6ff5c259bbab70b3", "fusion_lon": 0.0, "fusion_lat": 0.0, "is_reserved": 0, "bike_id": "789aeb9f25510b6b6ff5c259bbab70b3", "lon": -77.0730295, "is_disabled": 0}, {"rental_uris": {"android": "https://dc.lft.to/lastmile_qr_scan", "ios": "https://dc.lft.to/lastmile_qr_scan"}, "lat": 38.898240333333334, "type": "electric_scooter", "name": "c686938e58c66e6c3ac336a1aac128c5", "fusion_lon": 0.0, "fusion_lat": 0.0, "is_reserved": 0, "bike_id": "c686938e58c66e6c3ac336a1aac128c5", "lon": -77.03352866666667, "is_disabled": 0}, {"rental_uris": {"android": "https://dc.lft.to/lastmile_qr_scan", "ios": "https://dc.lft.to/lastmile_qr_scan"}, "lat": 38.890112333333335, "type": "electric_scooter", "name": "90408799e2b4faf507fc4f5a60b88d55", "fusion_lon": 0.0, "fusion_lat": 0.0, "is_reserved": 0, "bike_id": "90408799e2b4faf507fc4f5a60b88d55", "lon": -76.93743616666667, "is_disabled": 0}, {"rental_uris": {"android": "https://dc.lft.to/lastmile_qr_scan", "ios": "https://dc.lft.to/lastmile_qr_scan"}, "lat": 38.9207555, "type": "electric_scooter", "name": "dbfd88a53a0374d3bdbf903ab367d421", "fusion_lon": 0.0, "fusion_lat": 0.0, "is_reserved": 0, "bike_id": "dbfd88a53a0374d3bdbf903ab367d421", "lon": -77.02367416666667, "is_disabled": 0}, {"rental_uris": {"android": "https://dc.lft.to/lastmile_qr_scan", "ios": "https://dc.lft.to/lastmile_qr_scan"}, "lat": 38.8675495, "type": "electric_bike", "name": "543e238e5d8211aef316af83af4f194c", "fusion_lon": 0.0, "fusion_lat": 0.0, "is_reserved": 0, "bike_id": "543e238e5d8211aef316af83af4f194c", "lon": -76.945307, "is_disabled": 0}, {"rental_uris": {"android": "https://dc.lft.to/lastmile_qr_scan", "ios": "https://dc.lft.to/lastmile_qr_scan"}, "lat": 38.899134, "type": "electric_scooter", "name": "9829f1a09530d5f390925cdd035c9dba", "fusion_lon": 0.0, "fusion_lat": 0.0, "is_reserved": 0, "bike_id": "9829f1a09530d5f390925cdd035c9dba", "lon": -76.93387833333334, "is_disabled": 0}, {"rental_uris": {"android": "https://dc.lft.to/lastmile_qr_scan", "ios": "https://dc.lft.to/lastmile_qr_scan"}, "lat": 38.9060295, "type": "electric_scooter", "name": "66d603bb614e655e1c0c8be8f864270e", "fusion_lon": 0.0, "fusion_lat": 0.0, "is_reserved": 0, "bike_id": "66d603bb614e655e1c0c8be8f864270e", "lon": -77.008926, "is_disabled": 0}, {"rental_uris": {"android": "https://dc.lft.to/lastmile_qr_scan", "ios": "https://dc.lft.to/lastmile_qr_scan"}, "lat": 38.905264, "type": "electric_scooter", "name": "357cf6c45a50af99915255c4cdb2d5c3", "fusion_lon": 0.0, "fusion_lat": 0.0, "is_reserved": 0, "bike_id": "357cf6c45a50af99915255c4cdb2d5c3", "lon": -77.06039516666667, "is_disabled": 0}, {"rental_uris": {"android": "https://dc.lft.to/lastmile_qr_scan", "ios": "https://dc.lft.to/lastmile_qr_scan"}, "lat": 38.903108333333336, "type": "electric_scooter", "name": "9628c8afa41b869055c89ab8ca322e6c", "fusion_lon": 0.0, "fusion_lat": 0.0, "is_reserved": 0, "bike_id": "9628c8afa41b869055c89ab8ca322e6c", "lon": -77.02227333333333, "is_disabled": 0}, {"rental_uris": {"android": "https://dc.lft.to/lastmile_qr_scan", "ios": "https://dc.lft.to/lastmile_qr_scan"}, "lat": 38.892222333333336, "type": "electric_scooter", "name": "de240d2a61b3b3641f7cd8702cd6128e", "fusion_lon": 0.0, "fusion_lat": 0.0, "is_reserved": 0, "bike_id": "de240d2a61b3b3641f7cd8702cd6128e", "lon": -77.0274375, "is_disabled": 0}, {"rental_uris": {"android": "https://dc.lft.to/lastmile_qr_scan", "ios": "https://dc.lft.to/lastmile_qr_scan"}, "lat": 38.877078166666664, "type": "electric_scooter", "name": "32bc42cb45434c5aaf0873d7cc264149", "fusion_lon": 0.0, "fusion_lat": 0.0, "is_reserved": 0, "bike_id": "32bc42cb45434c5aaf0873d7cc264149", "lon": -77.0178055, "is_disabled": 0}, {"rental_uris": {"android": "https://dc.lft.to/lastmile_qr_scan", "ios": "https://dc.lft.to/lastmile_qr_scan"}, "lat": 38.90252816666667, "type": "electric_scooter", "name": "e100d4be7cd81d3a9b80975cf62157e4", "fusion_lon": 0.0, "fusion_lat": 0.0, "is_reserved": 0, "bike_id": "e100d4be7cd81d3a9b80975cf62157e4", "lon": -77.03344416666667, "is_disabled": 0}, {"rental_uris": {"android": "https://dc.lft.to/lastmile_qr_scan", "ios": "https://dc.lft.to/lastmile_qr_scan"}, "lat": 38.899816666666666, "type": "electric_scooter", "name": "06928c28de64deb34e3d3a47a10e1070", "fusion_lon": 0.0, "fusion_lat": 0.0, "is_reserved": 0, "bike_id": "06928c28de64deb34e3d3a47a10e1070", "lon": -77.01634966666667, "is_disabled": 0}, {"rental_uris": {"android": "https://dc.lft.to/lastmile_qr_scan", "ios": "https://dc.lft.to/lastmile_qr_scan"}, "lat": 38.8936425, "type": "electric_scooter", "name": "0c9f1c15e9befea2249480f6ac12f957", "fusion_lon": 0.0, "fusion_lat": 0.0, "is_reserved": 0, "bike_id": "0c9f1c15e9befea2249480f6ac12f957", "lon": -77.0033515, "is_disabled": 0}, {"rental_uris": {"android": "https://dc.lft.to/lastmile_qr_scan", "ios": "https://dc.lft.to/lastmile_qr_scan"}, "lat": 38.87698566666667, "type": "electric_scooter", "name": "1722da4fe463f27afeb2e31665e6a775", "fusion_lon": 0.0, "fusion_lat": 0.0, "is_reserved": 0, "bike_id": "1722da4fe463f27afeb2e31665e6a775", "lon": -77.01765566666667, "is_disabled": 0}, {"rental_uris": {"android": "https://dc.lft.to/lastmile_qr_scan", "ios": "https://dc.lft.to/lastmile_qr_scan"}, "lat": 38.9275935, "type": "electric_scooter", "name": "a8f379f63ace2ddedf61fefbcb7c5ddb", "fusion_lon": 0.0, "fusion_lat": 0.0, "is_reserved": 0, "bike_id": "a8f379f63ace2ddedf61fefbcb7c5ddb", "lon": -77.02938533333334, "is_disabled": 0}, {"rental_uris": {"android": "https://dc.lft.to/lastmile_qr_scan", "ios": "https://dc.lft.to/lastmile_qr_scan"}, "lat": 38.9026395, "type": "electric_scooter", "name": "a1d8a8abfec3ec984f0a6ffc72465cb2", "fusion_lon": 0.0, "fusion_lat": 0.0, "is_reserved": 0, "bike_id": "a1d8a8abfec3ec984f0a6ffc72465cb2", "lon": -77.01756933333333, "is_disabled": 0}, {"rental_uris": {"android": "https://dc.lft.to/lastmile_qr_scan", "ios": "https://dc.lft.to/lastmile_qr_scan"}, "lat": 38.93005433333333, "type": "electric_bike", "name": "b8ef17e45fd83bb520964f82b1cf262c", "fusion_lon": 0.0, "fusion_lat": 0.0, "is_reserved": 0, "bike_id": "b8ef17e45fd83bb520964f82b1cf262c", "lon": -77.018205, "is_disabled": 0}, {"rental_uris": {"android": "https://dc.lft.to/lastmile_qr_scan", "ios": "https://dc.lft.to/lastmile_qr_scan"}, "lat": 38.92258866666667, "type": "electric_scooter", "name": "2f55f9d892ec9ab2576f356692f78a43", "fusion_lon": 0.0, "fusion_lat": 0.0, "is_reserved": 0, "bike_id": "2f55f9d892ec9ab2576f356692f78a43", "lon": -77.0210475, "is_disabled": 0}, {"rental_uris": {"android": "https://dc.lft.to/lastmile_qr_scan", "ios": "https://dc.lft.to/lastmile_qr_scan"}, "lat": 38.93152966666667, "type": "electric_scooter", "name": "d8bb12b1f9650584350c6a097f8cfd8f", "fusion_lon": 0.0, "fusion_lat": 0.0, "is_reserved": 0, "bike_id": "d8bb12b1f9650584350c6a097f8cfd8f", "lon": -77.06821183333334, "is_disabled": 0}, {"rental_uris": {"android": "https://dc.lft.to/lastmile_qr_scan", "ios": "https://dc.lft.to/lastmile_qr_scan"}, "lat": 39.00722016666667, "type": "electric_bike", "name": "60ab93d29043876565dab744efe00ed8", "fusion_lon": 0.0, "fusion_lat": 0.0, "is_reserved": 0, "bike_id": "60ab93d29043876565dab744efe00ed8", "lon": -76.9815075, "is_disabled": 0}, {"rental_uris": {"android": "https://dc.lft.to/lastmile_qr_scan", "ios": "https://dc.lft.to/lastmile_qr_scan"}, "lat": 38.903091333333336, "type": "electric_scooter", "name": "6b20212542256cf128af9353b97c3b2a", "fusion_lon": 0.0, "fusion_lat": 0.0, "is_reserved": 0, "bike_id": "6b20212542256cf128af9353b97c3b2a", "lon": -77.046879, "is_disabled": 0}, {"rental_uris": {"android": "https://dc.lft.to/lastmile_qr_scan", "ios": "https://dc.lft.to/lastmile_qr_scan"}, "lat": 38.923213833333335, "type": "electric_scooter", "name": "2740c861930c7c07338a2c568ba71343", "fusion_lon": 0.0, "fusion_lat": 0.0, "is_reserved": 0, "bike_id": "2740c861930c7c07338a2c568ba71343", "lon": -77.01951716666666, "is_disabled": 0}, {"rental_uris": {"android": "https://dc.lft.to/lastmile_qr_scan", "ios": "https://dc.lft.to/lastmile_qr_scan"}, "lat": 38.902815833333335, "type": "electric_scooter", "name": "e0193002737313f580c849d74ac37a23", "fusion_lon": 0.0, "fusion_lat": 0.0, "is_reserved": 0, "bike_id": "e0193002737313f580c849d74ac37a23", "lon": -77.03852083333334, "is_disabled": 0}, {"rental_uris": {"android": "https://dc.lft.to/lastmile_qr_scan", "ios": "https://dc.lft.to/lastmile_qr_scan"}, "lat": 38.858025166666664, "type": "electric_bike", "name": "9a456451440cdcedc658a168fb0412bf", "fusion_lon": 0.0, "fusion_lat": 0.0, "is_reserved": 0, "bike_id": "9a456451440cdcedc658a168fb0412bf", "lon": -76.98751116666666, "is_disabled": 0}, {"rental_uris": {"android": "https://dc.lft.to/lastmile_qr_scan", "ios": "https://dc.lft.to/lastmile_qr_scan"}, "lat": 38.923410833333335, "type": "electric_scooter", "name": "e939c74388632a43127d659335a2716b", "fusion_lon": 0.0, "fusion_lat": 0.0, "is_reserved": 0, "bike_id": "e939c74388632a43127d659335a2716b", "lon": -77.0190575, "is_disabled": 0}, {"rental_uris": {"android": "https://dc.lft.to/lastmile_qr_scan", "ios": "https://dc.lft.to/lastmile_qr_scan"}, "lat": 38.87805733333333, "type": "electric_scooter", "name": "2403e3e158a92f1e0dd11ce607ffd553", "fusion_lon": 0.0, "fusion_lat": 0.0, "is_reserved": 0, "bike_id": "2403e3e158a92f1e0dd11ce607ffd553", "lon": -76.9882565, "is_disabled": 0}, {"rental_uris": {"android": "https://dc.lft.to/lastmile_qr_scan", "ios": "https://dc.lft.to/lastmile_qr_scan"}, "lat": 38.9258455, "type": "electric_scooter", "name": "012f2e656e06db7b7f49d6e2f654cc49", "fusion_lon": 0.0, "fusion_lat": 0.0, "is_reserved": 0, "bike_id": "012f2e656e06db7b7f49d6e2f654cc49", "lon": -77.03641983333333, "is_disabled": 0}, {"rental_uris": {"android": "https://dc.lft.to/lastmile_qr_scan", "ios": "https://dc.lft.to/lastmile_qr_scan"}, "lat": 38.90000116666667, "type": "electric_scooter", "name": "1aead96b7d387bc385ca646faf56fa33", "fusion_lon": 0.0, "fusion_lat": 0.0, "is_reserved": 0, "bike_id": "1aead96b7d387bc385ca646faf56fa33", "lon": -77.0293025, "is_disabled": 0}, {"rental_uris": {"android": "https://dc.lft.to/lastmile_qr_scan", "ios": "https://dc.lft.to/lastmile_qr_scan"}, "lat": 38.908645666666665, "type": "electric_scooter", "name": "d728c86c692c1038f23a7ad8ab5662ba", "fusion_lon": 0.0, "fusion_lat": 0.0, "is_reserved": 0, "bike_id": "d728c86c692c1038f23a7ad8ab5662ba", "lon": -77.0709055, "is_disabled": 0}, {"rental_uris": {"android": "https://dc.lft.to/lastmile_qr_scan", "ios": "https://dc.lft.to/lastmile_qr_scan"}, "lat": 38.902774, "type": "electric_scooter", "name": "2083aa5b9507e34327a9e5f98c98aad6", "fusion_lon": 0.0, "fusion_lat": 0.0, "is_reserved": 0, "bike_id": "2083aa5b9507e34327a9e5f98c98aad6", "lon": -77.03825133333333, "is_disabled": 0}, {"rental_uris": {"android": "https://dc.lft.to/lastmile_qr_scan", "ios": "https://dc.lft.to/lastmile_qr_scan"}, "lat": 38.90596083333333, "type": "electric_scooter", "name": "c46fe1401fef35480b7d00307102848a", "fusion_lon": 0.0, "fusion_lat": 0.0, "is_reserved": 0, "bike_id": "c46fe1401fef35480b7d00307102848a", "lon": -77.06268166666666, "is_disabled": 0}, {"rental_uris": {"android": "https://dc.lft.to/lastmile_qr_scan", "ios": "https://dc.lft.to/lastmile_qr_scan"}, "lat": 39.026236, "type": "electric_bike", "name": "708a293db01cbaa93e52d540d4574e89", "fusion_lon": 0.0, "fusion_lat": 0.0, "is_reserved": 0, "bike_id": "708a293db01cbaa93e52d540d4574e89", "lon": -77.03874883333333, "is_disabled": 0}, {"rental_uris": {"android": "https://dc.lft.to/lastmile_qr_scan", "ios": "https://dc.lft.to/lastmile_qr_scan"}, "lat": 38.91635433333333, "type": "electric_scooter", "name": "e06dd4a34d70097bf98ceadf95e3a402", "fusion_lon": 0.0, "fusion_lat": 0.0, "is_reserved": 0, "bike_id": "e06dd4a34d70097bf98ceadf95e3a402", "lon": -77.02542183333334, "is_disabled": 0}, {"rental_uris": {"android": "https://dc.lft.to/lastmile_qr_scan", "ios": "https://dc.lft.to/lastmile_qr_scan"}, "lat": 38.914042, "type": "electric_scooter", "name": "5fa5e922c7bc98c4c223fe08e3e1539f", "fusion_lon": 0.0, "fusion_lat": 0.0, "is_reserved": 0, "bike_id": "5fa5e922c7bc98c4c223fe08e3e1539f", "lon": -77.048816, "is_disabled": 0}, {"rental_uris": {"android": "https://dc.lft.to/lastmile_qr_scan", "ios": "https://dc.lft.to/lastmile_qr_scan"}, "lat": 38.928854, "type": "electric_scooter", "name": "586446ca37a75f5177feaf995faa82f1", "fusion_lon": 0.0, "fusion_lat": 0.0, "is_reserved": 0, "bike_id": "586446ca37a75f5177feaf995faa82f1", "lon": -77.03241116666666, "is_disabled": 0}, {"rental_uris": {"android": "https://dc.lft.to/lastmile_qr_scan", "ios": "https://dc.lft.to/lastmile_qr_scan"}, "lat": 38.92574883333333, "type": "electric_scooter", "name": "aacb5937e3a61bf5366b609ff1479d31", "fusion_lon": 0.0, "fusion_lat": 0.0, "is_reserved": 0, "bike_id": "aacb5937e3a61bf5366b609ff1479d31", "lon": -77.02565383333334, "is_disabled": 0}, {"rental_uris": {"android": "https://dc.lft.to/lastmile_qr_scan", "ios": "https://dc.lft.to/lastmile_qr_scan"}, "lat": 38.941864333333335, "type": "electric_scooter", "name": "19d3aab117a9a5157f97f92a437f86d2", "fusion_lon": 0.0, "fusion_lat": 0.0, "is_reserved": 0, "bike_id": "19d3aab117a9a5157f97f92a437f86d2", "lon": -77.02487566666667, "is_disabled": 0}, {"rental_uris": {"android": "https://dc.lft.to/lastmile_qr_scan", "ios": "https://dc.lft.to/lastmile_qr_scan"}, "lat": 38.91390216666667, "type": "electric_scooter", "name": "5a3e25f5634468eee6f298d18ef96dce", "fusion_lon": 0.0, "fusion_lat": 0.0, "is_reserved": 0, "bike_id": "5a3e25f5634468eee6f298d18ef96dce", "lon": -76.9841275, "is_disabled": 0}, {"rental_uris": {"android": "https://dc.lft.to/lastmile_qr_scan", "ios": "https://dc.lft.to/lastmile_qr_scan"}, "lat": 38.92329616666667, "type": "electric_scooter", "name": "800aa01dbaf8e3f782b825c8324c1a0b", "fusion_lon": 0.0, "fusion_lat": 0.0, "is_reserved": 0, "bike_id": "800aa01dbaf8e3f782b825c8324c1a0b", "lon": -77.01958683333334, "is_disabled": 0}, {"rental_uris": {"android": "https://dc.lft.to/lastmile_qr_scan", "ios": "https://dc.lft.to/lastmile_qr_scan"}, "lat": 38.896017, "type": "electric_scooter", "name": "3a295d3a37960bd20a2e91d583e638a9", "fusion_lon": 0.0, "fusion_lat": 0.0, "is_reserved": 0, "bike_id": "3a295d3a37960bd20a2e91d583e638a9", "lon": -77.02804816666666, "is_disabled": 0}, {"rental_uris": {"android": "https://dc.lft.to/lastmile_qr_scan", "ios": "https://dc.lft.to/lastmile_qr_scan"}, "lat": 38.91627316666667, "type": "electric_scooter", "name": "b4ed678679248e87940e9d8b864c260a", "fusion_lon": 0.0, "fusion_lat": 0.0, "is_reserved": 0, "bike_id": "b4ed678679248e87940e9d8b864c260a", "lon": -77.050379, "is_disabled": 0}, {"rental_uris": {"android": "https://dc.lft.to/lastmile_qr_scan", "ios": "https://dc.lft.to/lastmile_qr_scan"}, "lat": 38.935239833333334, "type": "electric_scooter", "name": "df658f2996f72421c6da700c07ee2238", "fusion_lon": 0.0, "fusion_lat": 0.0, "is_reserved": 0, "bike_id": "df658f2996f72421c6da700c07ee2238", "lon": -77.03261633333334, "is_disabled": 0}, {"rental_uris": {"android": "https://dc.lft.to/lastmile_qr_scan", "ios": "https://dc.lft.to/lastmile_qr_scan"}, "lat": 38.876650166666664, "type": "electric_scooter", "name": "6998e168510b8f49a597dcbd1cb0651c", "fusion_lon": 0.0, "fusion_lat": 0.0, "is_reserved": 0, "bike_id": "6998e168510b8f49a597dcbd1cb0651c", "lon": -77.00068183333333, "is_disabled": 0}, {"rental_uris": {"android": "https://dc.lft.to/lastmile_qr_scan", "ios": "https://dc.lft.to/lastmile_qr_scan"}, "lat": 38.932499666666665, "type": "electric_scooter", "name": "4cabb5b2283492e799bffb1c916ed35d", "fusion_lon": 0.0, "fusion_lat": 0.0, "is_reserved": 0, "bike_id": "4cabb5b2283492e799bffb1c916ed35d", "lon": -77.0328165, "is_disabled": 0}, {"rental_uris": {"android": "https://dc.lft.to/lastmile_qr_scan", "ios": "https://dc.lft.to/lastmile_qr_scan"}, "lat": 38.9025365, "type": "electric_scooter", "name": "33b517993e2e2ce1c728d435f915de82", "fusion_lon": 0.0, "fusion_lat": 0.0, "is_reserved": 0, "bike_id": "33b517993e2e2ce1c728d435f915de82", "lon": -77.03883466666667, "is_disabled": 0}, {"rental_uris": {"android": "https://dc.lft.to/lastmile_qr_scan", "ios": "https://dc.lft.to/lastmile_qr_scan"}, "lat": 38.90061583333333, "type": "electric_scooter", "name": "b4ecf23eb4fa99eb22c90e9d15d7077d", "fusion_lon": 0.0, "fusion_lat": 0.0, "is_reserved": 0, "bike_id": "b4ecf23eb4fa99eb22c90e9d15d7077d", "lon": -77.00757266666666, "is_disabled": 0}, {"rental_uris": {"android": "https://dc.lft.to/lastmile_qr_scan", "ios": "https://dc.lft.to/lastmile_qr_scan"}, "lat": 38.9355325, "type": "electric_scooter", "name": "a8ee39bdf87333142e0cfcb7acc3d7be", "fusion_lon": 0.0, "fusion_lat": 0.0, "is_reserved": 0, "bike_id": "a8ee39bdf87333142e0cfcb7acc3d7be", "lon": -77.03484333333333, "is_disabled": 0}, {"rental_uris": {"android": "https://dc.lft.to/lastmile_qr_scan", "ios": "https://dc.lft.to/lastmile_qr_scan"}, "lat": 38.89842516666667, "type": "electric_scooter", "name": "773c814a2c2f3bceac8e2fc01edcbaba", "fusion_lon": 0.0, "fusion_lat": 0.0, "is_reserved": 0, "bike_id": "773c814a2c2f3bceac8e2fc01edcbaba", "lon": -77.04813816666666, "is_disabled": 0}, {"rental_uris": {"android": "https://dc.lft.to/lastmile_qr_scan", "ios": "https://dc.lft.to/lastmile_qr_scan"}, "lat": 39.084889833333335, "type": "electric_bike", "name": "31d123068e21e48004f0a1dfc012ca95", "fusion_lon": 0.0, "fusion_lat": 0.0, "is_reserved": 0, "bike_id": "31d123068e21e48004f0a1dfc012ca95", "lon": -76.95049033333333, "is_disabled": 0}, {"rental_uris": {"android": "https://dc.lft.to/lastmile_qr_scan", "ios": "https://dc.lft.to/lastmile_qr_scan"}, "lat": 38.90574616666667, "type": "electric_scooter", "name": "87e5231279fd8b0142a5000e31b90a08", "fusion_lon": 0.0, "fusion_lat": 0.0, "is_reserved": 0, "bike_id": "87e5231279fd8b0142a5000e31b90a08", "lon": -77.00942166666667, "is_disabled": 0}, {"rental_uris": {"android": "https://dc.lft.to/lastmile_qr_scan", "ios": "https://dc.lft.to/lastmile_qr_scan"}, "lat": 38.923602833333334, "type": "electric_scooter", "name": "92516dc3763dc6317a6f3837ed46b79a", "fusion_lon": 0.0, "fusion_lat": 0.0, "is_reserved": 0, "bike_id": "92516dc3763dc6317a6f3837ed46b79a", "lon": -77.0507265, "is_disabled": 0}, {"rental_uris": {"android": "https://dc.lft.to/lastmile_qr_scan", "ios": "https://dc.lft.to/lastmile_qr_scan"}, "lat": 38.908814666666665, "type": "electric_scooter", "name": "ffef40ffa475fe577825ebcb8459f07e", "fusion_lon": 0.0, "fusion_lat": 0.0, "is_reserved": 0, "bike_id": "ffef40ffa475fe577825ebcb8459f07e", "lon": -77.04346033333333, "is_disabled": 0}, {"rental_uris": {"android": "https://dc.lft.to/lastmile_qr_scan", "ios": "https://dc.lft.to/lastmile_qr_scan"}, "lat": 38.903810166666666, "type": "electric_scooter", "name": "91d95d061d856950700b337ad7838064", "fusion_lon": 0.0, "fusion_lat": 0.0, "is_reserved": 0, "bike_id": "91d95d061d856950700b337ad7838064", "lon": -77.03859433333334, "is_disabled": 0}, {"rental_uris": {"android": "https://dc.lft.to/lastmile_qr_scan", "ios": "https://dc.lft.to/lastmile_qr_scan"}, "lat": 38.8962815, "type": "electric_scooter", "name": "7391070aa01b673ba5f78d6616b73f14", "fusion_lon": 0.0, "fusion_lat": 0.0, "is_reserved": 0, "bike_id": "7391070aa01b673ba5f78d6616b73f14", "lon": -77.02409966666667, "is_disabled": 0}, {"rental_uris": {"android": "https://dc.lft.to/lastmile_qr_scan", "ios": "https://dc.lft.to/lastmile_qr_scan"}, "lat": 38.890984833333334, "type": "electric_bike", "name": "ce0dd025528a6a8cb733cf83acedce40", "fusion_lon": 0.0, "fusion_lat": 0.0, "is_reserved": 0, "bike_id": "ce0dd025528a6a8cb733cf83acedce40", "lon": -77.18400716666666, "is_disabled": 0}, {"rental_uris": {"android": "https://dc.lft.to/lastmile_qr_scan", "ios": "https://dc.lft.to/lastmile_qr_scan"}, "lat": 38.90285633333333, "type": "electric_scooter", "name": "367349e2878a3e928becda72a13e53f9", "fusion_lon": 0.0, "fusion_lat": 0.0, "is_reserved": 0, "bike_id": "367349e2878a3e928becda72a13e53f9", "lon": -77.03856583333334, "is_disabled": 0}, {"rental_uris": {"android": "https://dc.lft.to/lastmile_qr_scan", "ios": "https://dc.lft.to/lastmile_qr_scan"}, "lat": 38.920626166666665, "type": "electric_scooter", "name": "2ad07f40048735c11e919c47fb4ea917", "fusion_lon": 0.0, "fusion_lat": 0.0, "is_reserved": 0, "bike_id": "2ad07f40048735c11e919c47fb4ea917", "lon": -77.0294595, "is_disabled": 0}, {"rental_uris": {"android": "https://dc.lft.to/lastmile_qr_scan", "ios": "https://dc.lft.to/lastmile_qr_scan"}, "lat": 38.897289, "type": "electric_scooter", "name": "b94486aca9fcb626f0fff85b417c507c", "fusion_lon": 0.0, "fusion_lat": 0.0, "is_reserved": 0, "bike_id": "b94486aca9fcb626f0fff85b417c507c", "lon": -77.04358583333334, "is_disabled": 0}, {"rental_uris": {"android": "https://dc.lft.to/lastmile_qr_scan", "ios": "https://dc.lft.to/lastmile_qr_scan"}, "lat": 38.92061133333333, "type": "electric_scooter", "name": "2239716576e9e3457f841d88ece85f8c", "fusion_lon": 0.0, "fusion_lat": 0.0, "is_reserved": 0, "bike_id": "2239716576e9e3457f841d88ece85f8c", "lon": -77.023036, "is_disabled": 0}, {"rental_uris": {"android": "https://dc.lft.to/lastmile_qr_scan", "ios": "https://dc.lft.to/lastmile_qr_scan"}, "lat": 38.8918835, "type": "electric_scooter", "name": "31cc615cfb03d3b6f60c8df37d329cee", "fusion_lon": 0.0, "fusion_lat": 0.0, "is_reserved": 0, "bike_id": "31cc615cfb03d3b6f60c8df37d329cee", "lon": -76.99855716666667, "is_disabled": 0}, {"rental_uris": {"android": "https://dc.lft.to/lastmile_qr_scan", "ios": "https://dc.lft.to/lastmile_qr_scan"}, "lat": 38.8922065, "type": "electric_scooter", "name": "82ad52886bc6f578908aa04a482f365b", "fusion_lon": 0.0, "fusion_lat": 0.0, "is_reserved": 0, "bike_id": "82ad52886bc6f578908aa04a482f365b", "lon": -77.022199, "is_disabled": 0}, {"rental_uris": {"android": "https://dc.lft.to/lastmile_qr_scan", "ios": "https://dc.lft.to/lastmile_qr_scan"}, "lat": 38.89596516666667, "type": "electric_scooter", "name": "bb12017940a198e08fbe3b7050d92267", "fusion_lon": 0.0, "fusion_lat": 0.0, "is_reserved": 0, "bike_id": "bb12017940a198e08fbe3b7050d92267", "lon": -77.04807, "is_disabled": 0}, {"rental_uris": {"android": "https://dc.lft.to/lastmile_qr_scan", "ios": "https://dc.lft.to/lastmile_qr_scan"}, "lat": 38.89716966666667, "type": "electric_scooter", "name": "0a82a22d8569b1e1c9f6cff3726425c6", "fusion_lon": 0.0, "fusion_lat": 0.0, "is_reserved": 0, "bike_id": "0a82a22d8569b1e1c9f6cff3726425c6", "lon": -77.024322, "is_disabled": 0}, {"rental_uris": {"android": "https://dc.lft.to/lastmile_qr_scan", "ios": "https://dc.lft.to/lastmile_qr_scan"}, "lat": 38.904979833333336, "type": "electric_scooter", "name": "300afc1b3488e80e98e35088dd6f371e", "fusion_lon": 0.0, "fusion_lat": 0.0, "is_reserved": 0, "bike_id": "300afc1b3488e80e98e35088dd6f371e", "lon": -77.02993416666666, "is_disabled": 0}, {"rental_uris": {"android": "https://dc.lft.to/lastmile_qr_scan", "ios": "https://dc.lft.to/lastmile_qr_scan"}, "lat": 39.005359, "type": "electric_bike", "name": "fab274f2a739a0a03e842cca0a223c5f", "fusion_lon": 0.0, "fusion_lat": 0.0, "is_reserved": 0, "bike_id": "fab274f2a739a0a03e842cca0a223c5f", "lon": -77.10399883333334, "is_disabled": 0}, {"rental_uris": {"android": "https://dc.lft.to/lastmile_qr_scan", "ios": "https://dc.lft.to/lastmile_qr_scan"}, "lat": 38.905209166666666, "type": "electric_scooter", "name": "94bfc299adec8c1db81a8cf653f64560", "fusion_lon": 0.0, "fusion_lat": 0.0, "is_reserved": 0, "bike_id": "94bfc299adec8c1db81a8cf653f64560", "lon": -77.04742233333333, "is_disabled": 0}, {"rental_uris": {"android": "https://dc.lft.to/lastmile_qr_scan", "ios": "https://dc.lft.to/lastmile_qr_scan"}, "lat": 38.878651833333336, "type": "electric_bike", "name": "089750d5a5ef5267cbf1198f52df1e00", "fusion_lon": 0.0, "fusion_lat": 0.0, "is_reserved": 0, "bike_id": "089750d5a5ef5267cbf1198f52df1e00", "lon": -77.00788, "is_disabled": 0}, {"rental_uris": {"android": "https://dc.lft.to/lastmile_qr_scan", "ios": "https://dc.lft.to/lastmile_qr_scan"}, "lat": 38.924454833333336, "type": "electric_scooter", "name": "54a998d58c8440f11ba30b54eaf379f4", "fusion_lon": 0.0, "fusion_lat": 0.0, "is_reserved": 0, "bike_id": "54a998d58c8440f11ba30b54eaf379f4", "lon": -77.02151983333333, "is_disabled": 0}, {"rental_uris": {"android": "https://dc.lft.to/lastmile_qr_scan", "ios": "https://dc.lft.to/lastmile_qr_scan"}, "lat": 38.92641033333334, "type": "electric_scooter", "name": "32ed5ff77a41034d9e29030f789f1fbb", "fusion_lon": 0.0, "fusion_lat": 0.0, "is_reserved": 0, "bike_id": "32ed5ff77a41034d9e29030f789f1fbb", "lon": -77.035491, "is_disabled": 0}, {"rental_uris": {"android": "https://dc.lft.to/lastmile_qr_scan", "ios": "https://dc.lft.to/lastmile_qr_scan"}, "lat": 38.89886116666667, "type": "electric_scooter", "name": "61d2322a66ccec68e11a59483458aab4", "fusion_lon": 0.0, "fusion_lat": 0.0, "is_reserved": 0, "bike_id": "61d2322a66ccec68e11a59483458aab4", "lon": -76.93178283333333, "is_disabled": 0}, {"rental_uris": {"android": "https://dc.lft.to/lastmile_qr_scan", "ios": "https://dc.lft.to/lastmile_qr_scan"}, "lat": 38.8995585, "type": "electric_scooter", "name": "e2152d41ac3810566e10c64fc4ab734c", "fusion_lon": 0.0, "fusion_lat": 0.0, "is_reserved": 0, "bike_id": "e2152d41ac3810566e10c64fc4ab734c", "lon": -77.05031, "is_disabled": 0}, {"rental_uris": {"android": "https://dc.lft.to/lastmile_qr_scan", "ios": "https://dc.lft.to/lastmile_qr_scan"}, "lat": 38.918806833333335, "type": "electric_scooter", "name": "8f931c93d27091a4a2cabe8939117398", "fusion_lon": 0.0, "fusion_lat": 0.0, "is_reserved": 0, "bike_id": "8f931c93d27091a4a2cabe8939117398", "lon": -77.04474933333333, "is_disabled": 0}, {"rental_uris": {"android": "https://dc.lft.to/lastmile_qr_scan", "ios": "https://dc.lft.to/lastmile_qr_scan"}, "lat": 38.90437716666667, "type": "electric_scooter", "name": "988bf8fff263d6171fb39471fc7be335", "fusion_lon": 0.0, "fusion_lat": 0.0, "is_reserved": 0, "bike_id": "988bf8fff263d6171fb39471fc7be335", "lon": -77.0322755, "is_disabled": 0}, {"rental_uris": {"android": "https://dc.lft.to/lastmile_qr_scan", "ios": "https://dc.lft.to/lastmile_qr_scan"}, "lat": 38.96046916666667, "type": "electric_scooter", "name": "167abee0d94c228f1955bd631f5f9dd4", "fusion_lon": 0.0, "fusion_lat": 0.0, "is_reserved": 0, "bike_id": "167abee0d94c228f1955bd631f5f9dd4", "lon": -77.00506516666667, "is_disabled": 0}, {"rental_uris": {"android": "https://dc.lft.to/lastmile_qr_scan", "ios": "https://dc.lft.to/lastmile_qr_scan"}, "lat": 38.9236645, "type": "electric_scooter", "name": "60423ce0595de3038ba2d91bcd469770", "fusion_lon": 0.0, "fusion_lat": 0.0, "is_reserved": 0, "bike_id": "60423ce0595de3038ba2d91bcd469770", "lon": -77.051306, "is_disabled": 0}, {"rental_uris": {"android": "https://dc.lft.to/lastmile_qr_scan", "ios": "https://dc.lft.to/lastmile_qr_scan"}, "lat": 38.930587, "type": "electric_scooter", "name": "deade6ede78383d8b8bbbb33654715d3", "fusion_lon": 0.0, "fusion_lat": 0.0, "is_reserved": 0, "bike_id": "deade6ede78383d8b8bbbb33654715d3", "lon": -77.04330766666666, "is_disabled": 0}, {"rental_uris": {"android": "https://dc.lft.to/lastmile_qr_scan", "ios": "https://dc.lft.to/lastmile_qr_scan"}, "lat": 38.90440016666667, "type": "electric_scooter", "name": "57ebae8d20532d7618711747d71fe4d7", "fusion_lon": 0.0, "fusion_lat": 0.0, "is_reserved": 0, "bike_id": "57ebae8d20532d7618711747d71fe4d7", "lon": -77.0250415, "is_disabled": 0}, {"rental_uris": {"android": "https://dc.lft.to/lastmile_qr_scan", "ios": "https://dc.lft.to/lastmile_qr_scan"}, "lat": 38.901232666666665, "type": "electric_scooter", "name": "62b5f82c0acf70f54eceb325145e42b0", "fusion_lon": 0.0, "fusion_lat": 0.0, "is_reserved": 0, "bike_id": "62b5f82c0acf70f54eceb325145e42b0", "lon": -77.01754566666666, "is_disabled": 0}, {"rental_uris": {"android": "https://dc.lft.to/lastmile_qr_scan", "ios": "https://dc.lft.to/lastmile_qr_scan"}, "lat": 38.91833883333334, "type": "electric_scooter", "name": "79dfde22bf667d36312049505d9e323d", "fusion_lon": 0.0, "fusion_lat": 0.0, "is_reserved": 0, "bike_id": "79dfde22bf667d36312049505d9e323d", "lon": -77.05313616666666, "is_disabled": 0}, {"rental_uris": {"android": "https://dc.lft.to/lastmile_qr_scan", "ios": "https://dc.lft.to/lastmile_qr_scan"}, "lat": 38.89290066666667, "type": "electric_bike", "name": "2b95c8f37d2054451651cb6530b8521a", "fusion_lon": 0.0, "fusion_lat": 0.0, "is_reserved": 0, "bike_id": "2b95c8f37d2054451651cb6530b8521a", "lon": -76.92233016666667, "is_disabled": 0}, {"rental_uris": {"android": "https://dc.lft.to/lastmile_qr_scan", "ios": "https://dc.lft.to/lastmile_qr_scan"}, "lat": 38.83866116666667, "type": "electric_bike", "name": "662a184bdec6f7d9ac032c3768535e77", "fusion_lon": 0.0, "fusion_lat": 0.0, "is_reserved": 0, "bike_id": "662a184bdec6f7d9ac032c3768535e77", "lon": -76.99485083333333, "is_disabled": 0}, {"rental_uris": {"android": "https://dc.lft.to/lastmile_qr_scan", "ios": "https://dc.lft.to/lastmile_qr_scan"}, "lat": 38.877803, "type": "electric_scooter", "name": "a0a3044075d190752006e3bb07801a65", "fusion_lon": 0.0, "fusion_lat": 0.0, "is_reserved": 0, "bike_id": "a0a3044075d190752006e3bb07801a65", "lon": -77.00212116666667, "is_disabled": 0}, {"rental_uris": {"android": "https://dc.lft.to/lastmile_qr_scan", "ios": "https://dc.lft.to/lastmile_qr_scan"}, "lat": 38.87933433333333, "type": "electric_scooter", "name": "add8a1fc7d23a69845072d23655279a9", "fusion_lon": 0.0, "fusion_lat": 0.0, "is_reserved": 0, "bike_id": "add8a1fc7d23a69845072d23655279a9", "lon": -77.0237295, "is_disabled": 0}, {"rental_uris": {"android": "https://dc.lft.to/lastmile_qr_scan", "ios": "https://dc.lft.to/lastmile_qr_scan"}, "lat": 38.93635116666667, "type": "electric_scooter", "name": "020cf05a51fb05bcde03df7e8f9cdeba", "fusion_lon": 0.0, "fusion_lat": 0.0, "is_reserved": 0, "bike_id": "020cf05a51fb05bcde03df7e8f9cdeba", "lon": -77.03662566666667, "is_disabled": 0}, {"rental_uris": {"android": "https://dc.lft.to/lastmile_qr_scan", "ios": "https://dc.lft.to/lastmile_qr_scan"}, "lat": 38.901723, "type": "electric_scooter", "name": "90e9a39c6e9cd978dc808b1c0ee4161d", "fusion_lon": 0.0, "fusion_lat": 0.0, "is_reserved": 0, "bike_id": "90e9a39c6e9cd978dc808b1c0ee4161d", "lon": -77.02222766666667, "is_disabled": 0}, {"rental_uris": {"android": "https://dc.lft.to/lastmile_qr_scan", "ios": "https://dc.lft.to/lastmile_qr_scan"}, "lat": 38.921492666666666, "type": "electric_scooter", "name": "466ccb7cd2df031dbd8b259d452b1d8d", "fusion_lon": 0.0, "fusion_lat": 0.0, "is_reserved": 0, "bike_id": "466ccb7cd2df031dbd8b259d452b1d8d", "lon": -77.01796616666667, "is_disabled": 0}, {"rental_uris": {"android": "https://dc.lft.to/lastmile_qr_scan", "ios": "https://dc.lft.to/lastmile_qr_scan"}, "lat": 38.934062833333336, "type": "electric_scooter", "name": "ec944a4623d054c808a604847bebfa18", "fusion_lon": 0.0, "fusion_lat": 0.0, "is_reserved": 0, "bike_id": "ec944a4623d054c808a604847bebfa18", "lon": -77.04137416666667, "is_disabled": 0}, {"rental_uris": {"android": "https://dc.lft.to/lastmile_qr_scan", "ios": "https://dc.lft.to/lastmile_qr_scan"}, "lat": 38.89727666666667, "type": "electric_scooter", "name": "c3a23ad5ac024e3019a56cae97001e9d", "fusion_lon": 0.0, "fusion_lat": 0.0, "is_reserved": 0, "bike_id": "c3a23ad5ac024e3019a56cae97001e9d", "lon": -77.032194, "is_disabled": 0}, {"rental_uris": {"android": "https://dc.lft.to/lastmile_qr_scan", "ios": "https://dc.lft.to/lastmile_qr_scan"}, "lat": 38.898995, "type": "electric_scooter", "name": "c37a1cb71dba98be612bee9d75ab38ea", "fusion_lon": 0.0, "fusion_lat": 0.0, "is_reserved": 0, "bike_id": "c37a1cb71dba98be612bee9d75ab38ea", "lon": -77.04861866666667, "is_disabled": 0}, {"rental_uris": {"android": "https://dc.lft.to/lastmile_qr_scan", "ios": "https://dc.lft.to/lastmile_qr_scan"}, "lat": 38.9037705, "type": "electric_scooter", "name": "7f1e17425465c8b61cc0e9b7aa11d13c", "fusion_lon": 0.0, "fusion_lat": 0.0, "is_reserved": 0, "bike_id": "7f1e17425465c8b61cc0e9b7aa11d13c", "lon": -77.03421766666666, "is_disabled": 0}, {"rental_uris": {"android": "https://dc.lft.to/lastmile_qr_scan", "ios": "https://dc.lft.to/lastmile_qr_scan"}, "lat": 38.897579666666665, "type": "electric_scooter", "name": "d317b85c0197b7284de764f5f9f74be5", "fusion_lon": 0.0, "fusion_lat": 0.0, "is_reserved": 0, "bike_id": "d317b85c0197b7284de764f5f9f74be5", "lon": -77.0095005, "is_disabled": 0}, {"rental_uris": {"android": "https://dc.lft.to/lastmile_qr_scan", "ios": "https://dc.lft.to/lastmile_qr_scan"}, "lat": 38.9388095, "type": "electric_scooter", "name": "f7a0f144b28e96c47376b56104c231f2", "fusion_lon": 0.0, "fusion_lat": 0.0, "is_reserved": 0, "bike_id": "f7a0f144b28e96c47376b56104c231f2", "lon": -77.02482516666667, "is_disabled": 0}, {"rental_uris": {"android": "https://dc.lft.to/lastmile_qr_scan", "ios": "https://dc.lft.to/lastmile_qr_scan"}, "lat": 38.90144266666667, "type": "electric_scooter", "name": "ca8c723437b1377979f76cfcb4d646aa", "fusion_lon": 0.0, "fusion_lat": 0.0, "is_reserved": 0, "bike_id": "ca8c723437b1377979f76cfcb4d646aa", "lon": -77.04179133333334, "is_disabled": 0}, {"rental_uris": {"android": "https://dc.lft.to/lastmile_qr_scan", "ios": "https://dc.lft.to/lastmile_qr_scan"}, "lat": 38.927509, "type": "electric_scooter", "name": "e9c8ec04c7435f17f6cd17ca967f4f3c", "fusion_lon": 0.0, "fusion_lat": 0.0, "is_reserved": 0, "bike_id": "e9c8ec04c7435f17f6cd17ca967f4f3c", "lon": -77.02113316666667, "is_disabled": 0}, {"rental_uris": {"android": "https://dc.lft.to/lastmile_qr_scan", "ios": "https://dc.lft.to/lastmile_qr_scan"}, "lat": 38.9202645, "type": "electric_scooter", "name": "793f86d636606ddd6b89eb7674500fb4", "fusion_lon": 0.0, "fusion_lat": 0.0, "is_reserved": 0, "bike_id": "793f86d636606ddd6b89eb7674500fb4", "lon": -77.0372725, "is_disabled": 0}, {"rental_uris": {"android": "https://dc.lft.to/lastmile_qr_scan", "ios": "https://dc.lft.to/lastmile_qr_scan"}, "lat": 38.892233833333336, "type": "electric_scooter", "name": "f98298bc0c89fd0cda6f3cdaba74c23c", "fusion_lon": 0.0, "fusion_lat": 0.0, "is_reserved": 0, "bike_id": "f98298bc0c89fd0cda6f3cdaba74c23c", "lon": -77.04624616666666, "is_disabled": 0}, {"rental_uris": {"android": "https://dc.lft.to/lastmile_qr_scan", "ios": "https://dc.lft.to/lastmile_qr_scan"}, "lat": 38.9573705, "type": "electric_scooter", "name": "fbf207b4df8dc9295b0c465c6e9f745d", "fusion_lon": 0.0, "fusion_lat": 0.0, "is_reserved": 0, "bike_id": "fbf207b4df8dc9295b0c465c6e9f745d", "lon": -77.02749033333333, "is_disabled": 0}, {"rental_uris": {"android": "https://dc.lft.to/lastmile_qr_scan", "ios": "https://dc.lft.to/lastmile_qr_scan"}, "lat": 38.92476033333333, "type": "electric_scooter", "name": "544ef03c72c9e139af814578eaff78bf", "fusion_lon": 0.0, "fusion_lat": 0.0, "is_reserved": 0, "bike_id": "544ef03c72c9e139af814578eaff78bf", "lon": -77.03008366666667, "is_disabled": 0}, {"rental_uris": {"android": "https://dc.lft.to/lastmile_qr_scan", "ios": "https://dc.lft.to/lastmile_qr_scan"}, "lat": 38.90544583333333, "type": "electric_bike", "name": "31d1509a8d6af7df629adc7749f52075", "fusion_lon": 0.0, "fusion_lat": 0.0, "is_reserved": 0, "bike_id": "31d1509a8d6af7df629adc7749f52075", "lon": -77.0678095, "is_disabled": 0}, {"rental_uris": {"android": "https://dc.lft.to/lastmile_qr_scan", "ios": "https://dc.lft.to/lastmile_qr_scan"}, "lat": 38.901715833333334, "type": "electric_scooter", "name": "e31da8f8862f242673f3b24f70736fad", "fusion_lon": 0.0, "fusion_lat": 0.0, "is_reserved": 0, "bike_id": "e31da8f8862f242673f3b24f70736fad", "lon": -77.02216833333334, "is_disabled": 0}, {"rental_uris": {"android": "https://dc.lft.to/lastmile_qr_scan", "ios": "https://dc.lft.to/lastmile_qr_scan"}, "lat": 38.89884633333333, "type": "electric_scooter", "name": "fad35e7c0168236989a9d0294510a499", "fusion_lon": 0.0, "fusion_lat": 0.0, "is_reserved": 0, "bike_id": "fad35e7c0168236989a9d0294510a499", "lon": -76.93174733333333, "is_disabled": 0}, {"rental_uris": {"android": "https://dc.lft.to/lastmile_qr_scan", "ios": "https://dc.lft.to/lastmile_qr_scan"}, "lat": 38.928828, "type": "electric_scooter", "name": "86ec54b85bf0114eb9663d70a4dd0bb3", "fusion_lon": 0.0, "fusion_lat": 0.0, "is_reserved": 0, "bike_id": "86ec54b85bf0114eb9663d70a4dd0bb3", "lon": -77.03359683333333, "is_disabled": 0}, {"rental_uris": {"android": "https://dc.lft.to/lastmile_qr_scan", "ios": "https://dc.lft.to/lastmile_qr_scan"}, "lat": 38.92357833333333, "type": "electric_scooter", "name": "a4d68ff0731b9cf491efcdff3aedf175", "fusion_lon": 0.0, "fusion_lat": 0.0, "is_reserved": 0, "bike_id": "a4d68ff0731b9cf491efcdff3aedf175", "lon": -77.05078566666667, "is_disabled": 0}, {"rental_uris": {"android": "https://dc.lft.to/lastmile_qr_scan", "ios": "https://dc.lft.to/lastmile_qr_scan"}, "lat": 38.92275866666667, "type": "electric_scooter", "name": "3363e61806b76f119ea11b70e37c2a7b", "fusion_lon": 0.0, "fusion_lat": 0.0, "is_reserved": 0, "bike_id": "3363e61806b76f119ea11b70e37c2a7b", "lon": -77.02128933333333, "is_disabled": 0}, {"rental_uris": {"android": "https://dc.lft.to/lastmile_qr_scan", "ios": "https://dc.lft.to/lastmile_qr_scan"}, "lat": 38.90626283333334, "type": "electric_scooter", "name": "6befb6db43d7fbb6459d80bf460d0a01", "fusion_lon": 0.0, "fusion_lat": 0.0, "is_reserved": 0, "bike_id": "6befb6db43d7fbb6459d80bf460d0a01", "lon": -77.062612, "is_disabled": 0}, {"rental_uris": {"android": "https://dc.lft.to/lastmile_qr_scan", "ios": "https://dc.lft.to/lastmile_qr_scan"}, "lat": 38.88116633333333, "type": "electric_scooter", "name": "2563a36cca9c99eaed5a8a06e5c57999", "fusion_lon": 0.0, "fusion_lat": 0.0, "is_reserved": 0, "bike_id": "2563a36cca9c99eaed5a8a06e5c57999", "lon": -77.01986833333333, "is_disabled": 0}, {"rental_uris": {"android": "https://dc.lft.to/lastmile_qr_scan", "ios": "https://dc.lft.to/lastmile_qr_scan"}, "lat": 38.908507166666666, "type": "electric_scooter", "name": "28bc5b419aa0135a0bf10805c1c39540", "fusion_lon": 0.0, "fusion_lat": 0.0, "is_reserved": 0, "bike_id": "28bc5b419aa0135a0bf10805c1c39540", "lon": -77.03191683333333, "is_disabled": 0}, {"rental_uris": {"android": "https://dc.lft.to/lastmile_qr_scan", "ios": "https://dc.lft.to/lastmile_qr_scan"}, "lat": 38.8931855, "type": "electric_scooter", "name": "69e043782cfae4b0c622970142dddc0c", "fusion_lon": 0.0, "fusion_lat": 0.0, "is_reserved": 0, "bike_id": "69e043782cfae4b0c622970142dddc0c", "lon": -77.029517, "is_disabled": 0}, {"rental_uris": {"android": "https://dc.lft.to/lastmile_qr_scan", "ios": "https://dc.lft.to/lastmile_qr_scan"}, "lat": 38.92325733333333, "type": "electric_scooter", "name": "5d050c6a3180f97efd842c3bdbba141d", "fusion_lon": 0.0, "fusion_lat": 0.0, "is_reserved": 0, "bike_id": "5d050c6a3180f97efd842c3bdbba141d", "lon": -77.01961683333333, "is_disabled": 0}, {"rental_uris": {"android": "https://dc.lft.to/lastmile_qr_scan", "ios": "https://dc.lft.to/lastmile_qr_scan"}, "lat": 38.92051, "type": "electric_scooter", "name": "10b49c9a2952e7a7f30492c6369c5490", "fusion_lon": 0.0, "fusion_lat": 0.0, "is_reserved": 0, "bike_id": "10b49c9a2952e7a7f30492c6369c5490", "lon": -77.041815, "is_disabled": 0}, {"rental_uris": {"android": "https://dc.lft.to/lastmile_qr_scan", "ios": "https://dc.lft.to/lastmile_qr_scan"}, "lat": 38.928609, "type": "electric_scooter", "name": "f3921862fc4f5e9638f344547a22a349", "fusion_lon": 0.0, "fusion_lat": 0.0, "is_reserved": 0, "bike_id": "f3921862fc4f5e9638f344547a22a349", "lon": -77.01417683333334, "is_disabled": 0}, {"rental_uris": {"android": "https://dc.lft.to/lastmile_qr_scan", "ios": "https://dc.lft.to/lastmile_qr_scan"}, "lat": 38.93006416666667, "type": "electric_scooter", "name": "bf6e92a8648061b9da59a4b508983446", "fusion_lon": 0.0, "fusion_lat": 0.0, "is_reserved": 0, "bike_id": "bf6e92a8648061b9da59a4b508983446", "lon": -77.02113983333334, "is_disabled": 0}, {"rental_uris": {"android": "https://dc.lft.to/lastmile_qr_scan", "ios": "https://dc.lft.to/lastmile_qr_scan"}, "lat": 38.889856, "type": "electric_scooter", "name": "f6581b3fb139ad9ceba162eea31c2be8", "fusion_lon": 0.0, "fusion_lat": 0.0, "is_reserved": 0, "bike_id": "f6581b3fb139ad9ceba162eea31c2be8", "lon": -77.00336283333333, "is_disabled": 0}, {"rental_uris": {"android": "https://dc.lft.to/lastmile_qr_scan", "ios": "https://dc.lft.to/lastmile_qr_scan"}, "lat": 38.88707216666667, "type": "electric_scooter", "name": "2b4627f058da0672c708bb7a634e369e", "fusion_lon": 0.0, "fusion_lat": 0.0, "is_reserved": 0, "bike_id": "2b4627f058da0672c708bb7a634e369e", "lon": -77.01364483333333, "is_disabled": 0}, {"rental_uris": {"android": "https://dc.lft.to/lastmile_qr_scan", "ios": "https://dc.lft.to/lastmile_qr_scan"}, "lat": 38.897187833333334, "type": "electric_scooter", "name": "46ddca67fc40d45a4c295d894845e298", "fusion_lon": 0.0, "fusion_lat": 0.0, "is_reserved": 0, "bike_id": "46ddca67fc40d45a4c295d894845e298", "lon": -77.02689866666667, "is_disabled": 0}, {"rental_uris": {"android": "https://dc.lft.to/lastmile_qr_scan", "ios": "https://dc.lft.to/lastmile_qr_scan"}, "lat": 38.90282166666667, "type": "electric_scooter", "name": "24d6353ae3e9f827a6d0412eda49dce4", "fusion_lon": 0.0, "fusion_lat": 0.0, "is_reserved": 0, "bike_id": "24d6353ae3e9f827a6d0412eda49dce4", "lon": -77.034705, "is_disabled": 0}, {"rental_uris": {"android": "https://dc.lft.to/lastmile_qr_scan", "ios": "https://dc.lft.to/lastmile_qr_scan"}, "lat": 38.9233335, "type": "electric_scooter", "name": "2deeb4de81eaeb74e0e18e5c23dfde53", "fusion_lon": 0.0, "fusion_lat": 0.0, "is_reserved": 0, "bike_id": "2deeb4de81eaeb74e0e18e5c23dfde53", "lon": -77.0088585, "is_disabled": 0}, {"rental_uris": {"android": "https://dc.lft.to/lastmile_qr_scan", "ios": "https://dc.lft.to/lastmile_qr_scan"}, "lat": 38.89914233333333, "type": "electric_scooter", "name": "6dea92f959b670b22f7558e85fa62139", "fusion_lon": 0.0, "fusion_lat": 0.0, "is_reserved": 0, "bike_id": "6dea92f959b670b22f7558e85fa62139", "lon": -77.01378416666667, "is_disabled": 0}, {"rental_uris": {"android": "https://dc.lft.to/lastmile_qr_scan", "ios": "https://dc.lft.to/lastmile_qr_scan"}, "lat": 38.924538166666665, "type": "electric_scooter", "name": "544d6deac39b2d7ace5d1bc1e1eb88cb", "fusion_lon": 0.0, "fusion_lat": 0.0, "is_reserved": 0, "bike_id": "544d6deac39b2d7ace5d1bc1e1eb88cb", "lon": -77.022352, "is_disabled": 0}, {"rental_uris": {"android": "https://dc.lft.to/lastmile_qr_scan", "ios": "https://dc.lft.to/lastmile_qr_scan"}, "lat": 38.883764666666664, "type": "electric_scooter", "name": "2d603b4e40197e0e734f0a946ee902f1", "fusion_lon": 0.0, "fusion_lat": 0.0, "is_reserved": 0, "bike_id": "2d603b4e40197e0e734f0a946ee902f1", "lon": -76.9951945, "is_disabled": 0}, {"rental_uris": {"android": "https://dc.lft.to/lastmile_qr_scan", "ios": "https://dc.lft.to/lastmile_qr_scan"}, "lat": 38.923237, "type": "electric_scooter", "name": "25ff50f050a71b630a758e7310e895ff", "fusion_lon": 0.0, "fusion_lat": 0.0, "is_reserved": 0, "bike_id": "25ff50f050a71b630a758e7310e895ff", "lon": -77.02074983333333, "is_disabled": 0}, {"rental_uris": {"android": "https://dc.lft.to/lastmile_qr_scan", "ios": "https://dc.lft.to/lastmile_qr_scan"}, "lat": 38.89739466666666, "type": "electric_scooter", "name": "fe18a390dfd9c764fed30ea4bdd2de35", "fusion_lon": 0.0, "fusion_lat": 0.0, "is_reserved": 0, "bike_id": "fe18a390dfd9c764fed30ea4bdd2de35", "lon": -77.0320695, "is_disabled": 0}, {"rental_uris": {"android": "https://dc.lft.to/lastmile_qr_scan", "ios": "https://dc.lft.to/lastmile_qr_scan"}, "lat": 38.92249983333333, "type": "electric_scooter", "name": "794d4ea522304507373664193c71ce0f", "fusion_lon": 0.0, "fusion_lat": 0.0, "is_reserved": 0, "bike_id": "794d4ea522304507373664193c71ce0f", "lon": -77.03084433333333, "is_disabled": 0}, {"rental_uris": {"android": "https://dc.lft.to/lastmile_qr_scan", "ios": "https://dc.lft.to/lastmile_qr_scan"}, "lat": 38.900155, "type": "electric_scooter", "name": "700bd5732a19d156233b508aba0a6a9f", "fusion_lon": 0.0, "fusion_lat": 0.0, "is_reserved": 0, "bike_id": "700bd5732a19d156233b508aba0a6a9f", "lon": -77.01248133333333, "is_disabled": 0}, {"rental_uris": {"android": "https://dc.lft.to/lastmile_qr_scan", "ios": "https://dc.lft.to/lastmile_qr_scan"}, "lat": 38.903801333333334, "type": "electric_scooter", "name": "ec100d4e7186b9215156995b178cf412", "fusion_lon": 0.0, "fusion_lat": 0.0, "is_reserved": 0, "bike_id": "ec100d4e7186b9215156995b178cf412", "lon": -77.03201833333334, "is_disabled": 0}, {"rental_uris": {"android": "https://dc.lft.to/lastmile_qr_scan", "ios": "https://dc.lft.to/lastmile_qr_scan"}, "lat": 38.915561333333336, "type": "electric_scooter", "name": "d9d320aac497f239afff1a3d7bfc3481", "fusion_lon": 0.0, "fusion_lat": 0.0, "is_reserved": 0, "bike_id": "d9d320aac497f239afff1a3d7bfc3481", "lon": -77.05208883333333, "is_disabled": 0}, {"rental_uris": {"android": "https://dc.lft.to/lastmile_qr_scan", "ios": "https://dc.lft.to/lastmile_qr_scan"}, "lat": 38.900589333333336, "type": "electric_bike", "name": "778a862bd897b6b375442ea17c5f5fc5", "fusion_lon": 0.0, "fusion_lat": 0.0, "is_reserved": 0, "bike_id": "778a862bd897b6b375442ea17c5f5fc5", "lon": -77.04332433333333, "is_disabled": 0}, {"rental_uris": {"android": "https://dc.lft.to/lastmile_qr_scan", "ios": "https://dc.lft.to/lastmile_qr_scan"}, "lat": 38.92925783333333, "type": "electric_scooter", "name": "4834db016c64dddaf6d356a4ba5980fa", "fusion_lon": 0.0, "fusion_lat": 0.0, "is_reserved": 0, "bike_id": "4834db016c64dddaf6d356a4ba5980fa", "lon": -77.032917, "is_disabled": 0}, {"rental_uris": {"android": "https://dc.lft.to/lastmile_qr_scan", "ios": "https://dc.lft.to/lastmile_qr_scan"}, "lat": 38.92016916666667, "type": "electric_scooter", "name": "33c37cde4619b4b9cbaa57c3ff632a99", "fusion_lon": 0.0, "fusion_lat": 0.0, "is_reserved": 0, "bike_id": "33c37cde4619b4b9cbaa57c3ff632a99", "lon": -77.03094916666667, "is_disabled": 0}, {"rental_uris": {"android": "https://dc.lft.to/lastmile_qr_scan", "ios": "https://dc.lft.to/lastmile_qr_scan"}, "lat": 38.95759966666667, "type": "electric_scooter", "name": "e62d6472af3b1d7420c9c43872cbbd83", "fusion_lon": 0.0, "fusion_lat": 0.0, "is_reserved": 0, "bike_id": "e62d6472af3b1d7420c9c43872cbbd83", "lon": -77.0091565, "is_disabled": 0}, {"rental_uris": {"android": "https://dc.lft.to/lastmile_qr_scan", "ios": "https://dc.lft.to/lastmile_qr_scan"}, "lat": 38.9119405, "type": "electric_scooter", "name": "75bd721a500af5cb150a0c6631293d2c", "fusion_lon": 0.0, "fusion_lat": 0.0, "is_reserved": 0, "bike_id": "75bd721a500af5cb150a0c6631293d2c", "lon": -77.04289716666666, "is_disabled": 0}, {"rental_uris": {"android": "https://dc.lft.to/lastmile_qr_scan", "ios": "https://dc.lft.to/lastmile_qr_scan"}, "lat": 38.92338266666667, "type": "electric_scooter", "name": "86b92fe79f2a4643ddf09a9de5e5969b", "fusion_lon": 0.0, "fusion_lat": 0.0, "is_reserved": 0, "bike_id": "86b92fe79f2a4643ddf09a9de5e5969b", "lon": -77.03503183333333, "is_disabled": 0}, {"rental_uris": {"android": "https://dc.lft.to/lastmile_qr_scan", "ios": "https://dc.lft.to/lastmile_qr_scan"}, "lat": 38.896158666666665, "type": "electric_scooter", "name": "90d0da32ed523c009ce99c63de58021c", "fusion_lon": 0.0, "fusion_lat": 0.0, "is_reserved": 0, "bike_id": "90d0da32ed523c009ce99c63de58021c", "lon": -77.02210216666667, "is_disabled": 0}, {"rental_uris": {"android": "https://dc.lft.to/lastmile_qr_scan", "ios": "https://dc.lft.to/lastmile_qr_scan"}, "lat": 38.92574166666667, "type": "electric_scooter", "name": "4405b009e60cc32a452f42895145767f", "fusion_lon": 0.0, "fusion_lat": 0.0, "is_reserved": 0, "bike_id": "4405b009e60cc32a452f42895145767f", "lon": -77.0256725, "is_disabled": 0}, {"rental_uris": {"android": "https://dc.lft.to/lastmile_qr_scan", "ios": "https://dc.lft.to/lastmile_qr_scan"}, "lat": 38.92781866666667, "type": "electric_scooter", "name": "71310ea8d316402735727994e49a7d0e", "fusion_lon": 0.0, "fusion_lat": 0.0, "is_reserved": 0, "bike_id": "71310ea8d316402735727994e49a7d0e", "lon": -77.02740683333333, "is_disabled": 0}, {"rental_uris": {"android": "https://dc.lft.to/lastmile_qr_scan", "ios": "https://dc.lft.to/lastmile_qr_scan"}, "lat": 38.922704333333336, "type": "electric_scooter", "name": "9c8be02d5147b7b133cd26f64fc5de5a", "fusion_lon": 0.0, "fusion_lat": 0.0, "is_reserved": 0, "bike_id": "9c8be02d5147b7b133cd26f64fc5de5a", "lon": -77.01949333333333, "is_disabled": 0}, {"rental_uris": {"android": "https://dc.lft.to/lastmile_qr_scan", "ios": "https://dc.lft.to/lastmile_qr_scan"}, "lat": 38.9168295, "type": "electric_scooter", "name": "ed76a4802248674336a49bb55f858fab", "fusion_lon": 0.0, "fusion_lat": 0.0, "is_reserved": 0, "bike_id": "ed76a4802248674336a49bb55f858fab", "lon": -77.02972116666666, "is_disabled": 0}, {"rental_uris": {"android": "https://dc.lft.to/lastmile_qr_scan", "ios": "https://dc.lft.to/lastmile_qr_scan"}, "lat": 38.902913833333336, "type": "electric_scooter", "name": "fa8307c86baa60f61de9f2e8342f8c1b", "fusion_lon": 0.0, "fusion_lat": 0.0, "is_reserved": 0, "bike_id": "fa8307c86baa60f61de9f2e8342f8c1b", "lon": -77.03841783333333, "is_disabled": 0}, {"rental_uris": {"android": "https://dc.lft.to/lastmile_qr_scan", "ios": "https://dc.lft.to/lastmile_qr_scan"}, "lat": 38.90041516666667, "type": "electric_scooter", "name": "b66847a0f25f11a3979fca7a121ea08b", "fusion_lon": 0.0, "fusion_lat": 0.0, "is_reserved": 0, "bike_id": "b66847a0f25f11a3979fca7a121ea08b", "lon": -76.99837866666667, "is_disabled": 0}, {"rental_uris": {"android": "https://dc.lft.to/lastmile_qr_scan", "ios": "https://dc.lft.to/lastmile_qr_scan"}, "lat": 38.91585666666667, "type": "electric_scooter", "name": "7cc815ebb0fbd01d48ae638d7098c181", "fusion_lon": 0.0, "fusion_lat": 0.0, "is_reserved": 0, "bike_id": "7cc815ebb0fbd01d48ae638d7098c181", "lon": -77.0123205, "is_disabled": 0}, {"rental_uris": {"android": "https://dc.lft.to/lastmile_qr_scan", "ios": "https://dc.lft.to/lastmile_qr_scan"}, "lat": 38.9003545, "type": "electric_scooter", "name": "4613216161c8930f5b8a95b3277844be", "fusion_lon": 0.0, "fusion_lat": 0.0, "is_reserved": 0, "bike_id": "4613216161c8930f5b8a95b3277844be", "lon": -76.9883365, "is_disabled": 0}, {"rental_uris": {"android": "https://dc.lft.to/lastmile_qr_scan", "ios": "https://dc.lft.to/lastmile_qr_scan"}, "lat": 38.903723, "type": "electric_scooter", "name": "bccdc4a95c3211f56dc313f56578dd63", "fusion_lon": 0.0, "fusion_lat": 0.0, "is_reserved": 0, "bike_id": "bccdc4a95c3211f56dc313f56578dd63", "lon": -77.03575833333333, "is_disabled": 0}, {"rental_uris": {"android": "https://dc.lft.to/lastmile_qr_scan", "ios": "https://dc.lft.to/lastmile_qr_scan"}, "lat": 38.9132825, "type": "electric_scooter", "name": "2960d3cc27bd5331003df4061cd85e0b", "fusion_lon": 0.0, "fusion_lat": 0.0, "is_reserved": 0, "bike_id": "2960d3cc27bd5331003df4061cd85e0b", "lon": -77.04530416666667, "is_disabled": 0}, {"rental_uris": {"android": "https://dc.lft.to/lastmile_qr_scan", "ios": "https://dc.lft.to/lastmile_qr_scan"}, "lat": 38.855904833333334, "type": "electric_bike", "name": "f769346bf3d77bb067ab3684b3351f77", "fusion_lon": 0.0, "fusion_lat": 0.0, "is_reserved": 0, "bike_id": "f769346bf3d77bb067ab3684b3351f77", "lon": -76.972784, "is_disabled": 0}, {"rental_uris": {"android": "https://dc.lft.to/lastmile_qr_scan", "ios": "https://dc.lft.to/lastmile_qr_scan"}, "lat": 38.8148735, "type": "electric_bike", "name": "ad50bfbc74ae671eb2ee918744ad4f73", "fusion_lon": 0.0, "fusion_lat": 0.0, "is_reserved": 0, "bike_id": "ad50bfbc74ae671eb2ee918744ad4f73", "lon": -77.04521333333334, "is_disabled": 0}, {"rental_uris": {"android": "https://dc.lft.to/lastmile_qr_scan", "ios": "https://dc.lft.to/lastmile_qr_scan"}, "lat": 38.887384, "type": "electric_scooter", "name": "7825959bf9bfe70961ae2aa5cda654b6", "fusion_lon": 0.0, "fusion_lat": 0.0, "is_reserved": 0, "bike_id": "7825959bf9bfe70961ae2aa5cda654b6", "lon": -77.01527833333333, "is_disabled": 0}, {"rental_uris": {"android": "https://dc.lft.to/lastmile_qr_scan", "ios": "https://dc.lft.to/lastmile_qr_scan"}, "lat": 39.074712, "type": "electric_bike", "name": "ab6458820d6787649ecf454b6f4594cc", "fusion_lon": 0.0, "fusion_lat": 0.0, "is_reserved": 0, "bike_id": "ab6458820d6787649ecf454b6f4594cc", "lon": -77.11524583333333, "is_disabled": 0}, {"rental_uris": {"android": "https://dc.lft.to/lastmile_qr_scan", "ios": "https://dc.lft.to/lastmile_qr_scan"}, "lat": 38.900365666666666, "type": "electric_scooter", "name": "cc4a406f64ae089e5520fd21a26610ba", "fusion_lon": 0.0, "fusion_lat": 0.0, "is_reserved": 0, "bike_id": "cc4a406f64ae089e5520fd21a26610ba", "lon": -76.9984495, "is_disabled": 0}, {"rental_uris": {"android": "https://dc.lft.to/lastmile_qr_scan", "ios": "https://dc.lft.to/lastmile_qr_scan"}, "lat": 38.9051185, "type": "electric_scooter", "name": "f9651428d580e4e6311a83f6b710b370", "fusion_lon": 0.0, "fusion_lat": 0.0, "is_reserved": 0, "bike_id": "f9651428d580e4e6311a83f6b710b370", "lon": -77.0344835, "is_disabled": 0}, {"rental_uris": {"android": "https://dc.lft.to/lastmile_qr_scan", "ios": "https://dc.lft.to/lastmile_qr_scan"}, "lat": 38.9098845, "type": "electric_scooter", "name": "b3093fbf681e0a56eec53b9e2a0384b1", "fusion_lon": 0.0, "fusion_lat": 0.0, "is_reserved": 0, "bike_id": "b3093fbf681e0a56eec53b9e2a0384b1", "lon": -77.02419616666667, "is_disabled": 0}, {"rental_uris": {"android": "https://dc.lft.to/lastmile_qr_scan", "ios": "https://dc.lft.to/lastmile_qr_scan"}, "lat": 38.87173166666667, "type": "electric_bike", "name": "915bf90b74b3c5074f98b5a682dcb648", "fusion_lon": 0.0, "fusion_lat": 0.0, "is_reserved": 0, "bike_id": "915bf90b74b3c5074f98b5a682dcb648", "lon": -77.233889, "is_disabled": 0}, {"rental_uris": {"android": "https://dc.lft.to/lastmile_qr_scan", "ios": "https://dc.lft.to/lastmile_qr_scan"}, "lat": 38.886324333333334, "type": "electric_scooter", "name": "44c0de14468bcd70d0e2ead6f963babb", "fusion_lon": 0.0, "fusion_lat": 0.0, "is_reserved": 0, "bike_id": "44c0de14468bcd70d0e2ead6f963babb", "lon": -77.02205483333333, "is_disabled": 0}, {"rental_uris": {"android": "https://dc.lft.to/lastmile_qr_scan", "ios": "https://dc.lft.to/lastmile_qr_scan"}, "lat": 38.92877583333333, "type": "electric_scooter", "name": "af6935e7b681af24f113ec86e61c40f4", "fusion_lon": 0.0, "fusion_lat": 0.0, "is_reserved": 0, "bike_id": "af6935e7b681af24f113ec86e61c40f4", "lon": -77.01230416666667, "is_disabled": 0}, {"rental_uris": {"android": "https://dc.lft.to/lastmile_qr_scan", "ios": "https://dc.lft.to/lastmile_qr_scan"}, "lat": 38.953687333333335, "type": "electric_scooter", "name": "3069c2f2f94dd04cf0ddfd993bb1ad12", "fusion_lon": 0.0, "fusion_lat": 0.0, "is_reserved": 0, "bike_id": "3069c2f2f94dd04cf0ddfd993bb1ad12", "lon": -76.9916535, "is_disabled": 0}, {"rental_uris": {"android": "https://dc.lft.to/lastmile_qr_scan", "ios": "https://dc.lft.to/lastmile_qr_scan"}, "lat": 38.86741716666667, "type": "electric_scooter", "name": "9cf589ee28e9a008a24114b22e670c38", "fusion_lon": 0.0, "fusion_lat": 0.0, "is_reserved": 0, "bike_id": "9cf589ee28e9a008a24114b22e670c38", "lon": -77.0137685, "is_disabled": 0}, {"rental_uris": {"android": "https://dc.lft.to/lastmile_qr_scan", "ios": "https://dc.lft.to/lastmile_qr_scan"}, "lat": 38.9802035, "type": "electric_bike", "name": "28bbbacf8a8350e878ef471d0d80822f", "fusion_lon": 0.0, "fusion_lat": 0.0, "is_reserved": 0, "bike_id": "28bbbacf8a8350e878ef471d0d80822f", "lon": -76.942397, "is_disabled": 0}, {"rental_uris": {"android": "https://dc.lft.to/lastmile_qr_scan", "ios": "https://dc.lft.to/lastmile_qr_scan"}, "lat": 38.9170975, "type": "electric_scooter", "name": "b4153e8dacb5b9c57631a4f711863946", "fusion_lon": 0.0, "fusion_lat": 0.0, "is_reserved": 0, "bike_id": "b4153e8dacb5b9c57631a4f711863946", "lon": -77.01139366666666, "is_disabled": 0}, {"rental_uris": {"android": "https://dc.lft.to/lastmile_qr_scan", "ios": "https://dc.lft.to/lastmile_qr_scan"}, "lat": 38.915568666666665, "type": "electric_scooter", "name": "ac188a10f90463ee123882b1b982168f", "fusion_lon": 0.0, "fusion_lat": 0.0, "is_reserved": 0, "bike_id": "ac188a10f90463ee123882b1b982168f", "lon": -77.02046583333333, "is_disabled": 0}, {"rental_uris": {"android": "https://dc.lft.to/lastmile_qr_scan", "ios": "https://dc.lft.to/lastmile_qr_scan"}, "lat": 38.89271316666667, "type": "electric_scooter", "name": "0833a680077a778fc71d6fc6b0dab06f", "fusion_lon": 0.0, "fusion_lat": 0.0, "is_reserved": 0, "bike_id": "0833a680077a778fc71d6fc6b0dab06f", "lon": -77.00376083333333, "is_disabled": 0}, {"rental_uris": {"android": "https://dc.lft.to/lastmile_qr_scan", "ios": "https://dc.lft.to/lastmile_qr_scan"}, "lat": 38.89217816666667, "type": "electric_scooter", "name": "0a119537739b7f9ba57c415199598a16", "fusion_lon": 0.0, "fusion_lat": 0.0, "is_reserved": 0, "bike_id": "0a119537739b7f9ba57c415199598a16", "lon": -76.97953983333333, "is_disabled": 0}, {"rental_uris": {"android": "https://dc.lft.to/lastmile_qr_scan", "ios": "https://dc.lft.to/lastmile_qr_scan"}, "lat": 38.88618666666667, "type": "electric_scooter", "name": "cee72ba2f83322a843e8107e643ada13", "fusion_lon": 0.0, "fusion_lat": 0.0, "is_reserved": 0, "bike_id": "cee72ba2f83322a843e8107e643ada13", "lon": -76.97704466666667, "is_disabled": 0}, {"rental_uris": {"android": "https://dc.lft.to/lastmile_qr_scan", "ios": "https://dc.lft.to/lastmile_qr_scan"}, "lat": 38.90307933333333, "type": "electric_scooter", "name": "8604ae1d43d79bb8794cea7e01cc31d6", "fusion_lon": 0.0, "fusion_lat": 0.0, "is_reserved": 0, "bike_id": "8604ae1d43d79bb8794cea7e01cc31d6", "lon": -77.03465616666666, "is_disabled": 0}, {"rental_uris": {"android": "https://dc.lft.to/lastmile_qr_scan", "ios": "https://dc.lft.to/lastmile_qr_scan"}, "lat": 38.88392283333334, "type": "electric_scooter", "name": "dda3251c868e8c1b9f53ccf2706e53d3", "fusion_lon": 0.0, "fusion_lat": 0.0, "is_reserved": 0, "bike_id": "dda3251c868e8c1b9f53ccf2706e53d3", "lon": -76.99509016666667, "is_disabled": 0}, {"rental_uris": {"android": "https://dc.lft.to/lastmile_qr_scan", "ios": "https://dc.lft.to/lastmile_qr_scan"}, "lat": 38.902660833333336, "type": "electric_scooter", "name": "40104bccaaa491b5a45233c92fd39f12", "fusion_lon": 0.0, "fusion_lat": 0.0, "is_reserved": 0, "bike_id": "40104bccaaa491b5a45233c92fd39f12", "lon": -77.03448383333334, "is_disabled": 0}, {"rental_uris": {"android": "https://dc.lft.to/lastmile_qr_scan", "ios": "https://dc.lft.to/lastmile_qr_scan"}, "lat": 38.893997166666665, "type": "electric_bike", "name": "790b15f3171963199bfbfb34b0a6bec3", "fusion_lon": 0.0, "fusion_lat": 0.0, "is_reserved": 0, "bike_id": "790b15f3171963199bfbfb34b0a6bec3", "lon": -76.99709416666667, "is_disabled": 0}, {"rental_uris": {"android": "https://dc.lft.to/lastmile_qr_scan", "ios": "https://dc.lft.to/lastmile_qr_scan"}, "lat": 38.9270715, "type": "electric_scooter", "name": "0bf18c148f558d28890286f1b4744e8e", "fusion_lon": 0.0, "fusion_lat": 0.0, "is_reserved": 0, "bike_id": "0bf18c148f558d28890286f1b4744e8e", "lon": -76.9607855, "is_disabled": 0}, {"rental_uris": {"android": "https://dc.lft.to/lastmile_qr_scan", "ios": "https://dc.lft.to/lastmile_qr_scan"}, "lat": 38.898216833333336, "type": "electric_scooter", "name": "3063f225e96ba419446ad516a9ff7407", "fusion_lon": 0.0, "fusion_lat": 0.0, "is_reserved": 0, "bike_id": "3063f225e96ba419446ad516a9ff7407", "lon": -77.02395416666667, "is_disabled": 0}, {"rental_uris": {"android": "https://dc.lft.to/lastmile_qr_scan", "ios": "https://dc.lft.to/lastmile_qr_scan"}, "lat": 38.905039, "type": "electric_scooter", "name": "fa8c4852a0a0cb9cf8056a982f2ec7be", "fusion_lon": 0.0, "fusion_lat": 0.0, "is_reserved": 0, "bike_id": "fa8c4852a0a0cb9cf8056a982f2ec7be", "lon": -77.04115583333333, "is_disabled": 0}, {"rental_uris": {"android": "https://dc.lft.to/lastmile_qr_scan", "ios": "https://dc.lft.to/lastmile_qr_scan"}, "lat": 38.890455333333335, "type": "electric_scooter", "name": "51ec825c78a04d32b4e301ae2615120e", "fusion_lon": 0.0, "fusion_lat": 0.0, "is_reserved": 0, "bike_id": "51ec825c78a04d32b4e301ae2615120e", "lon": -76.93752633333334, "is_disabled": 0}, {"rental_uris": {"android": "https://dc.lft.to/lastmile_qr_scan", "ios": "https://dc.lft.to/lastmile_qr_scan"}, "lat": 38.9172155, "type": "electric_scooter", "name": "ed70bad7bd1ca6b0cc659138929acc82", "fusion_lon": 0.0, "fusion_lat": 0.0, "is_reserved": 0, "bike_id": "ed70bad7bd1ca6b0cc659138929acc82", "lon": -77.02821416666667, "is_disabled": 0}, {"rental_uris": {"android": "https://dc.lft.to/lastmile_qr_scan", "ios": "https://dc.lft.to/lastmile_qr_scan"}, "lat": 38.8971425, "type": "electric_scooter", "name": "2c7072813dd5a924ebd441f0febc8b3f", "fusion_lon": 0.0, "fusion_lat": 0.0, "is_reserved": 0, "bike_id": "2c7072813dd5a924ebd441f0febc8b3f", "lon": -77.00839916666666, "is_disabled": 0}, {"rental_uris": {"android": "https://dc.lft.to/lastmile_qr_scan", "ios": "https://dc.lft.to/lastmile_qr_scan"}, "lat": 38.89999483333333, "type": "electric_scooter", "name": "627373acd7e93259ae7ba56f4c488789", "fusion_lon": 0.0, "fusion_lat": 0.0, "is_reserved": 0, "bike_id": "627373acd7e93259ae7ba56f4c488789", "lon": -77.031626, "is_disabled": 0}, {"rental_uris": {"android": "https://dc.lft.to/lastmile_qr_scan", "ios": "https://dc.lft.to/lastmile_qr_scan"}, "lat": 38.87288916666667, "type": "electric_scooter", "name": "2afd79853d83bf30b5e310ac96263f25", "fusion_lon": 0.0, "fusion_lat": 0.0, "is_reserved": 0, "bike_id": "2afd79853d83bf30b5e310ac96263f25", "lon": -77.0098195, "is_disabled": 0}, {"rental_uris": {"android": "https://dc.lft.to/lastmile_qr_scan", "ios": "https://dc.lft.to/lastmile_qr_scan"}, "lat": 38.931787166666666, "type": "electric_scooter", "name": "e955d32ef4c8becdee199b568a8db8f9", "fusion_lon": 0.0, "fusion_lat": 0.0, "is_reserved": 0, "bike_id": "e955d32ef4c8becdee199b568a8db8f9", "lon": -77.03662416666667, "is_disabled": 0}, {"rental_uris": {"android": "https://dc.lft.to/lastmile_qr_scan", "ios": "https://dc.lft.to/lastmile_qr_scan"}, "lat": 38.89660466666667, "type": "electric_scooter", "name": "0ef556b94bf8cacc434eb21e751fa23a", "fusion_lon": 0.0, "fusion_lat": 0.0, "is_reserved": 0, "bike_id": "0ef556b94bf8cacc434eb21e751fa23a", "lon": -77.024158, "is_disabled": 0}, {"rental_uris": {"android": "https://dc.lft.to/lastmile_qr_scan", "ios": "https://dc.lft.to/lastmile_qr_scan"}, "lat": 38.8752415, "type": "electric_scooter", "name": "57cffc453acbdd1e81da4cde289ee035", "fusion_lon": 0.0, "fusion_lat": 0.0, "is_reserved": 0, "bike_id": "57cffc453acbdd1e81da4cde289ee035", "lon": -77.01227666666666, "is_disabled": 0}, {"rental_uris": {"android": "https://dc.lft.to/lastmile_qr_scan", "ios": "https://dc.lft.to/lastmile_qr_scan"}, "lat": 38.949163166666665, "type": "electric_scooter", "name": "b592541f40f86b443c28d1f208e17580", "fusion_lon": 0.0, "fusion_lat": 0.0, "is_reserved": 0, "bike_id": "b592541f40f86b443c28d1f208e17580", "lon": -77.020797, "is_disabled": 0}, {"rental_uris": {"android": "https://dc.lft.to/lastmile_qr_scan", "ios": "https://dc.lft.to/lastmile_qr_scan"}, "lat": 38.91740566666667, "type": "electric_scooter", "name": "1fff2da1c0fae504717f2c6184a9bff9", "fusion_lon": 0.0, "fusion_lat": 0.0, "is_reserved": 0, "bike_id": "1fff2da1c0fae504717f2c6184a9bff9", "lon": -77.021144, "is_disabled": 0}, {"rental_uris": {"android": "https://dc.lft.to/lastmile_qr_scan", "ios": "https://dc.lft.to/lastmile_qr_scan"}, "lat": 38.903273166666665, "type": "electric_scooter", "name": "41409f02dcc5e11b4cdd6252e259ce68", "fusion_lon": 0.0, "fusion_lat": 0.0, "is_reserved": 0, "bike_id": "41409f02dcc5e11b4cdd6252e259ce68", "lon": -77.03969566666666, "is_disabled": 0}, {"rental_uris": {"android": "https://dc.lft.to/lastmile_qr_scan", "ios": "https://dc.lft.to/lastmile_qr_scan"}, "lat": 38.90850983333333, "type": "electric_scooter", "name": "7e37bdf3cd728dfefc3bec130bc3d54a", "fusion_lon": 0.0, "fusion_lat": 0.0, "is_reserved": 0, "bike_id": "7e37bdf3cd728dfefc3bec130bc3d54a", "lon": -76.99795116666667, "is_disabled": 0}, {"rental_uris": {"android": "https://dc.lft.to/lastmile_qr_scan", "ios": "https://dc.lft.to/lastmile_qr_scan"}, "lat": 38.84038416666667, "type": "electric_bike", "name": "dc331a5aedd79310a92b3200754a4c01", "fusion_lon": 0.0, "fusion_lat": 0.0, "is_reserved": 0, "bike_id": "dc331a5aedd79310a92b3200754a4c01", "lon": -76.97632216666666, "is_disabled": 0}, {"rental_uris": {"android": "https://dc.lft.to/lastmile_qr_scan", "ios": "https://dc.lft.to/lastmile_qr_scan"}, "lat": 38.90390083333333, "type": "electric_scooter", "name": "fb42d4c977fb67296b09875ff0020ef3", "fusion_lon": 0.0, "fusion_lat": 0.0, "is_reserved": 0, "bike_id": "fb42d4c977fb67296b09875ff0020ef3", "lon": -76.97383866666667, "is_disabled": 0}, {"rental_uris": {"android": "https://dc.lft.to/lastmile_qr_scan", "ios": "https://dc.lft.to/lastmile_qr_scan"}, "lat": 38.89226266666667, "type": "electric_scooter", "name": "1e6925c62d7ce287ce0362c6ce5267fc", "fusion_lon": 0.0, "fusion_lat": 0.0, "is_reserved": 0, "bike_id": "1e6925c62d7ce287ce0362c6ce5267fc", "lon": -77.024081, "is_disabled": 0}, {"rental_uris": {"android": "https://dc.lft.to/lastmile_qr_scan", "ios": "https://dc.lft.to/lastmile_qr_scan"}, "lat": 38.95788566666667, "type": "electric_bike", "name": "b91ee0dff6ee8499edb1b7ace10dc458", "fusion_lon": 0.0, "fusion_lat": 0.0, "is_reserved": 0, "bike_id": "b91ee0dff6ee8499edb1b7ace10dc458", "lon": -76.99775533333333, "is_disabled": 0}, {"rental_uris": {"android": "https://dc.lft.to/lastmile_qr_scan", "ios": "https://dc.lft.to/lastmile_qr_scan"}, "lat": 38.87866733333333, "type": "electric_scooter", "name": "bd5ee6454b75aa195311677088b6f4cc", "fusion_lon": 0.0, "fusion_lat": 0.0, "is_reserved": 0, "bike_id": "bd5ee6454b75aa195311677088b6f4cc", "lon": -76.9966035, "is_disabled": 0}, {"rental_uris": {"android": "https://dc.lft.to/lastmile_qr_scan", "ios": "https://dc.lft.to/lastmile_qr_scan"}, "lat": 38.886940833333334, "type": "electric_bike", "name": "9d23fa5ccdc9c89c97293d7763aa92ca", "fusion_lon": 0.0, "fusion_lat": 0.0, "is_reserved": 0, "bike_id": "9d23fa5ccdc9c89c97293d7763aa92ca", "lon": -76.98177433333333, "is_disabled": 0}, {"rental_uris": {"android": "https://dc.lft.to/lastmile_qr_scan", "ios": "https://dc.lft.to/lastmile_qr_scan"}, "lat": 38.974707, "type": "electric_bike", "name": "c506f305bbb7b8a7fc1195827f822d27", "fusion_lon": 0.0, "fusion_lat": 0.0, "is_reserved": 0, "bike_id": "c506f305bbb7b8a7fc1195827f822d27", "lon": -76.98638866666667, "is_disabled": 0}, {"rental_uris": {"android": "https://dc.lft.to/lastmile_qr_scan", "ios": "https://dc.lft.to/lastmile_qr_scan"}, "lat": 38.8545525, "type": "electric_bike", "name": "ead185ff778fba71c05988a3df8e0ccd", "fusion_lon": 0.0, "fusion_lat": 0.0, "is_reserved": 0, "bike_id": "ead185ff778fba71c05988a3df8e0ccd", "lon": -76.98622683333333, "is_disabled": 0}, {"rental_uris": {"android": "https://dc.lft.to/lastmile_qr_scan", "ios": "https://dc.lft.to/lastmile_qr_scan"}, "lat": 38.922622, "type": "electric_scooter", "name": "8731b0474ee489f4806b65aea9813211", "fusion_lon": 0.0, "fusion_lat": 0.0, "is_reserved": 0, "bike_id": "8731b0474ee489f4806b65aea9813211", "lon": -77.042908, "is_disabled": 0}, {"rental_uris": {"android": "https://dc.lft.to/lastmile_qr_scan", "ios": "https://dc.lft.to/lastmile_qr_scan"}, "lat": 38.902813, "type": "electric_scooter", "name": "05b6490f8a04d26e86d9687c1c1d5901", "fusion_lon": 0.0, "fusion_lat": 0.0, "is_reserved": 0, "bike_id": "05b6490f8a04d26e86d9687c1c1d5901", "lon": -77.046071, "is_disabled": 0}, {"rental_uris": {"android": "https://dc.lft.to/lastmile_qr_scan", "ios": "https://dc.lft.to/lastmile_qr_scan"}, "lat": 38.924918166666664, "type": "electric_scooter", "name": "a3c0f20339c8069c2279b028ac2dcb36", "fusion_lon": 0.0, "fusion_lat": 0.0, "is_reserved": 0, "bike_id": "a3c0f20339c8069c2279b028ac2dcb36", "lon": -77.026933, "is_disabled": 0}, {"rental_uris": {"android": "https://dc.lft.to/lastmile_qr_scan", "ios": "https://dc.lft.to/lastmile_qr_scan"}, "lat": 38.8945435, "type": "electric_scooter", "name": "90f31236c7baf489e18870056b429135", "fusion_lon": 0.0, "fusion_lat": 0.0, "is_reserved": 0, "bike_id": "90f31236c7baf489e18870056b429135", "lon": -77.0266515, "is_disabled": 0}, {"rental_uris": {"android": "https://dc.lft.to/lastmile_qr_scan", "ios": "https://dc.lft.to/lastmile_qr_scan"}, "lat": 38.89625366666667, "type": "electric_scooter", "name": "25ade39b3f20fe7448893828d72409e5", "fusion_lon": 0.0, "fusion_lat": 0.0, "is_reserved": 0, "bike_id": "25ade39b3f20fe7448893828d72409e5", "lon": -77.022046, "is_disabled": 0}, {"rental_uris": {"android": "https://dc.lft.to/lastmile_qr_scan", "ios": "https://dc.lft.to/lastmile_qr_scan"}, "lat": 38.855763333333336, "type": "electric_bike", "name": "7c38d958575e5d9008ba170b1f21730c", "fusion_lon": 0.0, "fusion_lat": 0.0, "is_reserved": 0, "bike_id": "7c38d958575e5d9008ba170b1f21730c", "lon": -77.05334866666666, "is_disabled": 0}, {"rental_uris": {"android": "https://dc.lft.to/lastmile_qr_scan", "ios": "https://dc.lft.to/lastmile_qr_scan"}, "lat": 38.975506833333334, "type": "electric_scooter", "name": "9f84cee9efc547e25a0446e107d2b278", "fusion_lon": 0.0, "fusion_lat": 0.0, "is_reserved": 0, "bike_id": "9f84cee9efc547e25a0446e107d2b278", "lon": -77.02647333333333, "is_disabled": 0}, {"rental_uris": {"android": "https://dc.lft.to/lastmile_qr_scan", "ios": "https://dc.lft.to/lastmile_qr_scan"}, "lat": 38.871192, "type": "electric_scooter", "name": "a40343683485cc7c3139cb5139dce6ce", "fusion_lon": 0.0, "fusion_lat": 0.0, "is_reserved": 0, "bike_id": "a40343683485cc7c3139cb5139dce6ce", "lon": -77.00910683333333, "is_disabled": 0}, {"rental_uris": {"android": "https://dc.lft.to/lastmile_qr_scan", "ios": "https://dc.lft.to/lastmile_qr_scan"}, "lat": 38.934638, "type": "electric_scooter", "name": "a20113778cb24c5637aab21261a57295", "fusion_lon": 0.0, "fusion_lat": 0.0, "is_reserved": 0, "bike_id": "a20113778cb24c5637aab21261a57295", "lon": -77.08636566666667, "is_disabled": 0}, {"rental_uris": {"android": "https://dc.lft.to/lastmile_qr_scan", "ios": "https://dc.lft.to/lastmile_qr_scan"}, "lat": 38.9235415, "type": "electric_scooter", "name": "19124d449edb5781dd046e2a2535354f", "fusion_lon": 0.0, "fusion_lat": 0.0, "is_reserved": 0, "bike_id": "19124d449edb5781dd046e2a2535354f", "lon": -77.0207825, "is_disabled": 0}, {"rental_uris": {"android": "https://dc.lft.to/lastmile_qr_scan", "ios": "https://dc.lft.to/lastmile_qr_scan"}, "lat": 38.923138, "type": "electric_scooter", "name": "13325d4e0061e063219b1af244f3a3d2", "fusion_lon": 0.0, "fusion_lat": 0.0, "is_reserved": 0, "bike_id": "13325d4e0061e063219b1af244f3a3d2", "lon": -77.04625266666666, "is_disabled": 0}, {"rental_uris": {"android": "https://dc.lft.to/lastmile_qr_scan", "ios": "https://dc.lft.to/lastmile_qr_scan"}, "lat": 38.904048, "type": "electric_scooter", "name": "22fe47ef2e740d548886bd3ec0ccc820", "fusion_lon": 0.0, "fusion_lat": 0.0, "is_reserved": 0, "bike_id": "22fe47ef2e740d548886bd3ec0ccc820", "lon": -77.03256533333334, "is_disabled": 0}, {"rental_uris": {"android": "https://dc.lft.to/lastmile_qr_scan", "ios": "https://dc.lft.to/lastmile_qr_scan"}, "lat": 38.8766135, "type": "electric_scooter", "name": "a5f5a9a163dd3fcb03622dd48641b288", "fusion_lon": 0.0, "fusion_lat": 0.0, "is_reserved": 0, "bike_id": "a5f5a9a163dd3fcb03622dd48641b288", "lon": -77.0006915, "is_disabled": 0}, {"rental_uris": {"android": "https://dc.lft.to/lastmile_qr_scan", "ios": "https://dc.lft.to/lastmile_qr_scan"}, "lat": 38.908064, "type": "electric_scooter", "name": "e6139ddc117cd55a3420a187bee5f27a", "fusion_lon": 0.0, "fusion_lat": 0.0, "is_reserved": 0, "bike_id": "e6139ddc117cd55a3420a187bee5f27a", "lon": -77.0839775, "is_disabled": 0}, {"rental_uris": {"android": "https://dc.lft.to/lastmile_qr_scan", "ios": "https://dc.lft.to/lastmile_qr_scan"}, "lat": 38.86284833333333, "type": "electric_bike", "name": "52c53c54bc59d218c1874bd74001df8d", "fusion_lon": 0.0, "fusion_lat": 0.0, "is_reserved": 0, "bike_id": "52c53c54bc59d218c1874bd74001df8d", "lon": -76.94518483333333, "is_disabled": 0}, {"rental_uris": {"android": "https://dc.lft.to/lastmile_qr_scan", "ios": "https://dc.lft.to/lastmile_qr_scan"}, "lat": 38.908636666666666, "type": "electric_bike", "name": "3324f08e1f5bca662a95bf24f863ba81", "fusion_lon": 0.0, "fusion_lat": 0.0, "is_reserved": 0, "bike_id": "3324f08e1f5bca662a95bf24f863ba81", "lon": -77.0808105, "is_disabled": 0}, {"rental_uris": {"android": "https://dc.lft.to/lastmile_qr_scan", "ios": "https://dc.lft.to/lastmile_qr_scan"}, "lat": 38.926812166666664, "type": "electric_scooter", "name": "a690277a2f4371084b0eca53f7d2456a", "fusion_lon": 0.0, "fusion_lat": 0.0, "is_reserved": 0, "bike_id": "a690277a2f4371084b0eca53f7d2456a", "lon": -77.01536083333333, "is_disabled": 0}, {"rental_uris": {"android": "https://dc.lft.to/lastmile_qr_scan", "ios": "https://dc.lft.to/lastmile_qr_scan"}, "lat": 38.908530999999996, "type": "electric_scooter", "name": "f9127c3ce206c1f7419a39b7401782ae", "fusion_lon": 0.0, "fusion_lat": 0.0, "is_reserved": 0, "bike_id": "f9127c3ce206c1f7419a39b7401782ae", "lon": -77.00999983333334, "is_disabled": 0}, {"rental_uris": {"android": "https://dc.lft.to/lastmile_qr_scan", "ios": "https://dc.lft.to/lastmile_qr_scan"}, "lat": 38.840563833333334, "type": "electric_scooter", "name": "32bd18285ffd9e7e422d2b90e75fa30c", "fusion_lon": 0.0, "fusion_lat": 0.0, "is_reserved": 0, "bike_id": "32bd18285ffd9e7e422d2b90e75fa30c", "lon": -76.97667166666666, "is_disabled": 0}, {"rental_uris": {"android": "https://dc.lft.to/lastmile_qr_scan", "ios": "https://dc.lft.to/lastmile_qr_scan"}, "lat": 38.892207, "type": "electric_scooter", "name": "1aedd4e6347c080933f0f2f7c68dc3b5", "fusion_lon": 0.0, "fusion_lat": 0.0, "is_reserved": 0, "bike_id": "1aedd4e6347c080933f0f2f7c68dc3b5", "lon": -77.02222566666667, "is_disabled": 0}, {"rental_uris": {"android": "https://dc.lft.to/lastmile_qr_scan", "ios": "https://dc.lft.to/lastmile_qr_scan"}, "lat": 38.90238016666667, "type": "electric_scooter", "name": "2530be9eccb0ac1c12a540b363809bc3", "fusion_lon": 0.0, "fusion_lat": 0.0, "is_reserved": 0, "bike_id": "2530be9eccb0ac1c12a540b363809bc3", "lon": -77.002019, "is_disabled": 0}, {"rental_uris": {"android": "https://dc.lft.to/lastmile_qr_scan", "ios": "https://dc.lft.to/lastmile_qr_scan"}, "lat": 38.9232545, "type": "electric_scooter", "name": "ea46cdd92704fd5c605bb05100e5600c", "fusion_lon": 0.0, "fusion_lat": 0.0, "is_reserved": 0, "bike_id": "ea46cdd92704fd5c605bb05100e5600c", "lon": -77.01950883333333, "is_disabled": 0}, {"rental_uris": {"android": "https://dc.lft.to/lastmile_qr_scan", "ios": "https://dc.lft.to/lastmile_qr_scan"}, "lat": 38.83035266666667, "type": "electric_bike", "name": "46cfd00b26f00247c621087369e05b90", "fusion_lon": 0.0, "fusion_lat": 0.0, "is_reserved": 0, "bike_id": "46cfd00b26f00247c621087369e05b90", "lon": -77.00813216666667, "is_disabled": 0}, {"rental_uris": {"android": "https://dc.lft.to/lastmile_qr_scan", "ios": "https://dc.lft.to/lastmile_qr_scan"}, "lat": 38.934479333333336, "type": "electric_scooter", "name": "847d5bc1cc6ba11f6b92259304edee03", "fusion_lon": 0.0, "fusion_lat": 0.0, "is_reserved": 0, "bike_id": "847d5bc1cc6ba11f6b92259304edee03", "lon": -77.089682, "is_disabled": 0}, {"rental_uris": {"android": "https://dc.lft.to/lastmile_qr_scan", "ios": "https://dc.lft.to/lastmile_qr_scan"}, "lat": 38.924486333333334, "type": "electric_scooter", "name": "bea9722d2fe6239a0a69f5b4b5053a1f", "fusion_lon": 0.0, "fusion_lat": 0.0, "is_reserved": 0, "bike_id": "bea9722d2fe6239a0a69f5b4b5053a1f", "lon": -77.02137783333333, "is_disabled": 0}, {"rental_uris": {"android": "https://dc.lft.to/lastmile_qr_scan", "ios": "https://dc.lft.to/lastmile_qr_scan"}, "lat": 38.91785183333333, "type": "electric_scooter", "name": "f4aab16c8cacbb6fa9b47ad4d05f708e", "fusion_lon": 0.0, "fusion_lat": 0.0, "is_reserved": 0, "bike_id": "f4aab16c8cacbb6fa9b47ad4d05f708e", "lon": -77.04667816666667, "is_disabled": 0}, {"rental_uris": {"android": "https://dc.lft.to/lastmile_qr_scan", "ios": "https://dc.lft.to/lastmile_qr_scan"}, "lat": 38.96165116666667, "type": "electric_scooter", "name": "a649ed8924ae40e575d4b3f54de38cef", "fusion_lon": 0.0, "fusion_lat": 0.0, "is_reserved": 0, "bike_id": "a649ed8924ae40e575d4b3f54de38cef", "lon": -77.02790083333333, "is_disabled": 0}, {"rental_uris": {"android": "https://dc.lft.to/lastmile_qr_scan", "ios": "https://dc.lft.to/lastmile_qr_scan"}, "lat": 38.949767666666666, "type": "electric_scooter", "name": "dea2cf6acbbcd87487d4425275327c3b", "fusion_lon": 0.0, "fusion_lat": 0.0, "is_reserved": 0, "bike_id": "dea2cf6acbbcd87487d4425275327c3b", "lon": -77.02432016666667, "is_disabled": 0}, {"rental_uris": {"android": "https://dc.lft.to/lastmile_qr_scan", "ios": "https://dc.lft.to/lastmile_qr_scan"}, "lat": 38.90967233333333, "type": "electric_scooter", "name": "42304f784ba593d7a5b189f39c6d0d9f", "fusion_lon": 0.0, "fusion_lat": 0.0, "is_reserved": 0, "bike_id": "42304f784ba593d7a5b189f39c6d0d9f", "lon": -77.04232833333333, "is_disabled": 0}, {"rental_uris": {"android": "https://dc.lft.to/lastmile_qr_scan", "ios": "https://dc.lft.to/lastmile_qr_scan"}, "lat": 38.926158666666666, "type": "electric_scooter", "name": "4554e17a189ccd318e718fe9895c3dbb", "fusion_lon": 0.0, "fusion_lat": 0.0, "is_reserved": 0, "bike_id": "4554e17a189ccd318e718fe9895c3dbb", "lon": -77.02156583333333, "is_disabled": 0}, {"rental_uris": {"android": "https://dc.lft.to/lastmile_qr_scan", "ios": "https://dc.lft.to/lastmile_qr_scan"}, "lat": 38.924839, "type": "electric_scooter", "name": "e8e49b35b35547a03ba781815205a5a6", "fusion_lon": 0.0, "fusion_lat": 0.0, "is_reserved": 0, "bike_id": "e8e49b35b35547a03ba781815205a5a6", "lon": -77.02275616666667, "is_disabled": 0}, {"rental_uris": {"android": "https://dc.lft.to/lastmile_qr_scan", "ios": "https://dc.lft.to/lastmile_qr_scan"}, "lat": 38.904169833333334, "type": "electric_scooter", "name": "e235555a29d42fecb13c8f4b798d07d2", "fusion_lon": 0.0, "fusion_lat": 0.0, "is_reserved": 0, "bike_id": "e235555a29d42fecb13c8f4b798d07d2", "lon": -77.04358983333333, "is_disabled": 0}, {"rental_uris": {"android": "https://dc.lft.to/lastmile_qr_scan", "ios": "https://dc.lft.to/lastmile_qr_scan"}, "lat": 38.89754633333333, "type": "electric_scooter", "name": "b665f1d369706d068e197f61d21b86a9", "fusion_lon": 0.0, "fusion_lat": 0.0, "is_reserved": 0, "bike_id": "b665f1d369706d068e197f61d21b86a9", "lon": -77.02971883333333, "is_disabled": 0}, {"rental_uris": {"android": "https://dc.lft.to/lastmile_qr_scan", "ios": "https://dc.lft.to/lastmile_qr_scan"}, "lat": 38.905877, "type": "electric_scooter", "name": "a99a606f4c2d12cd477a0cb8ef4a9a5a", "fusion_lon": 0.0, "fusion_lat": 0.0, "is_reserved": 0, "bike_id": "a99a606f4c2d12cd477a0cb8ef4a9a5a", "lon": -77.06964116666667, "is_disabled": 0}, {"rental_uris": {"android": "https://dc.lft.to/lastmile_qr_scan", "ios": "https://dc.lft.to/lastmile_qr_scan"}, "lat": 38.9148865, "type": "electric_scooter", "name": "63f6180f137123378c89afe7959a97f5", "fusion_lon": 0.0, "fusion_lat": 0.0, "is_reserved": 0, "bike_id": "63f6180f137123378c89afe7959a97f5", "lon": -77.0178615, "is_disabled": 0}, {"rental_uris": {"android": "https://dc.lft.to/lastmile_qr_scan", "ios": "https://dc.lft.to/lastmile_qr_scan"}, "lat": 38.91791, "type": "electric_scooter", "name": "c3c2c7011aabb55c79384643107c0d64", "fusion_lon": 0.0, "fusion_lat": 0.0, "is_reserved": 0, "bike_id": "c3c2c7011aabb55c79384643107c0d64", "lon": -77.03212866666667, "is_disabled": 0}, {"rental_uris": {"android": "https://dc.lft.to/lastmile_qr_scan", "ios": "https://dc.lft.to/lastmile_qr_scan"}, "lat": 38.87900483333333, "type": "electric_scooter", "name": "640c2c2a1fbafd1332876a568d80df63", "fusion_lon": 0.0, "fusion_lat": 0.0, "is_reserved": 0, "bike_id": "640c2c2a1fbafd1332876a568d80df63", "lon": -77.01367516666667, "is_disabled": 0}, {"rental_uris": {"android": "https://dc.lft.to/lastmile_qr_scan", "ios": "https://dc.lft.to/lastmile_qr_scan"}, "lat": 38.895185, "type": "electric_scooter", "name": "87c5987f48975d2bac7d27777898dfee", "fusion_lon": 0.0, "fusion_lat": 0.0, "is_reserved": 0, "bike_id": "87c5987f48975d2bac7d27777898dfee", "lon": -77.0447995, "is_disabled": 0}, {"rental_uris": {"android": "https://dc.lft.to/lastmile_qr_scan", "ios": "https://dc.lft.to/lastmile_qr_scan"}, "lat": 38.889684833333334, "type": "electric_scooter", "name": "57b4300b170c6096e445e1d2b7fbefe3", "fusion_lon": 0.0, "fusion_lat": 0.0, "is_reserved": 0, "bike_id": "57b4300b170c6096e445e1d2b7fbefe3", "lon": -76.9803535, "is_disabled": 0}, {"rental_uris": {"android": "https://dc.lft.to/lastmile_qr_scan", "ios": "https://dc.lft.to/lastmile_qr_scan"}, "lat": 38.90568016666667, "type": "electric_scooter", "name": "7435f3feb149c74c66da1d65b9217896", "fusion_lon": 0.0, "fusion_lat": 0.0, "is_reserved": 0, "bike_id": "7435f3feb149c74c66da1d65b9217896", "lon": -77.0569635, "is_disabled": 0}, {"rental_uris": {"android": "https://dc.lft.to/lastmile_qr_scan", "ios": "https://dc.lft.to/lastmile_qr_scan"}, "lat": 38.90811633333333, "type": "electric_scooter", "name": "54a3196b4c2c57ecddb2fe5c3a5afc4a", "fusion_lon": 0.0, "fusion_lat": 0.0, "is_reserved": 0, "bike_id": "54a3196b4c2c57ecddb2fe5c3a5afc4a", "lon": -77.03403133333333, "is_disabled": 0}, {"rental_uris": {"android": "https://dc.lft.to/lastmile_qr_scan", "ios": "https://dc.lft.to/lastmile_qr_scan"}, "lat": 38.8993995, "type": "electric_scooter", "name": "93d9b99c041fe00597995e7ab4f86a4b", "fusion_lon": 0.0, "fusion_lat": 0.0, "is_reserved": 0, "bike_id": "93d9b99c041fe00597995e7ab4f86a4b", "lon": -77.04768966666667, "is_disabled": 0}, {"rental_uris": {"android": "https://dc.lft.to/lastmile_qr_scan", "ios": "https://dc.lft.to/lastmile_qr_scan"}, "lat": 38.9155635, "type": "electric_scooter", "name": "d673f87a2b09b589a132bc3de4cd6d38", "fusion_lon": 0.0, "fusion_lat": 0.0, "is_reserved": 0, "bike_id": "d673f87a2b09b589a132bc3de4cd6d38", "lon": -77.05105216666666, "is_disabled": 0}, {"rental_uris": {"android": "https://dc.lft.to/lastmile_qr_scan", "ios": "https://dc.lft.to/lastmile_qr_scan"}, "lat": 38.9132925, "type": "electric_scooter", "name": "df836266182044ad8f1ffebce525af66", "fusion_lon": 0.0, "fusion_lat": 0.0, "is_reserved": 0, "bike_id": "df836266182044ad8f1ffebce525af66", "lon": -77.04526766666666, "is_disabled": 0}, {"rental_uris": {"android": "https://dc.lft.to/lastmile_qr_scan", "ios": "https://dc.lft.to/lastmile_qr_scan"}, "lat": 38.89820533333334, "type": "electric_scooter", "name": "64f59bf59bdc31686a0653fdb5743bc2", "fusion_lon": 0.0, "fusion_lat": 0.0, "is_reserved": 0, "bike_id": "64f59bf59bdc31686a0653fdb5743bc2", "lon": -77.011997, "is_disabled": 0}, {"rental_uris": {"android": "https://dc.lft.to/lastmile_qr_scan", "ios": "https://dc.lft.to/lastmile_qr_scan"}, "lat": 38.846734166666664, "type": "electric_bike", "name": "0b4f8fcd5e8246978b5eb904611472f3", "fusion_lon": 0.0, "fusion_lat": 0.0, "is_reserved": 0, "bike_id": "0b4f8fcd5e8246978b5eb904611472f3", "lon": -77.13934866666666, "is_disabled": 0}, {"rental_uris": {"android": "https://dc.lft.to/lastmile_qr_scan", "ios": "https://dc.lft.to/lastmile_qr_scan"}, "lat": 38.91636716666667, "type": "electric_scooter", "name": "039f94d6e1a63f3516a65a2e632f2f79", "fusion_lon": 0.0, "fusion_lat": 0.0, "is_reserved": 0, "bike_id": "039f94d6e1a63f3516a65a2e632f2f79", "lon": -77.02694083333333, "is_disabled": 0}, {"rental_uris": {"android": "https://dc.lft.to/lastmile_qr_scan", "ios": "https://dc.lft.to/lastmile_qr_scan"}, "lat": 38.905856666666665, "type": "electric_scooter", "name": "d1a084893f07b715974d76f1b64ab68a", "fusion_lon": 0.0, "fusion_lat": 0.0, "is_reserved": 0, "bike_id": "d1a084893f07b715974d76f1b64ab68a", "lon": -77.0409915, "is_disabled": 0}, {"rental_uris": {"android": "https://dc.lft.to/lastmile_qr_scan", "ios": "https://dc.lft.to/lastmile_qr_scan"}, "lat": 38.8935685, "type": "electric_scooter", "name": "5d704d23497ab767948b95c764397003", "fusion_lon": 0.0, "fusion_lat": 0.0, "is_reserved": 0, "bike_id": "5d704d23497ab767948b95c764397003", "lon": -77.00334483333333, "is_disabled": 0}, {"rental_uris": {"android": "https://dc.lft.to/lastmile_qr_scan", "ios": "https://dc.lft.to/lastmile_qr_scan"}, "lat": 38.923107, "type": "electric_scooter", "name": "4ec58d3bdf110efc4cc6d767a129a1f6", "fusion_lon": 0.0, "fusion_lat": 0.0, "is_reserved": 0, "bike_id": "4ec58d3bdf110efc4cc6d767a129a1f6", "lon": -77.042199, "is_disabled": 0}, {"rental_uris": {"android": "https://dc.lft.to/lastmile_qr_scan", "ios": "https://dc.lft.to/lastmile_qr_scan"}, "lat": 38.96394633333333, "type": "electric_scooter", "name": "54b2b67b98fa104e44a9ed9c06753a2c", "fusion_lon": 0.0, "fusion_lat": 0.0, "is_reserved": 0, "bike_id": "54b2b67b98fa104e44a9ed9c06753a2c", "lon": -77.02590116666667, "is_disabled": 0}, {"rental_uris": {"android": "https://dc.lft.to/lastmile_qr_scan", "ios": "https://dc.lft.to/lastmile_qr_scan"}, "lat": 38.90035316666667, "type": "electric_scooter", "name": "16cdc015a969bb43ba086d45ccc40482", "fusion_lon": 0.0, "fusion_lat": 0.0, "is_reserved": 0, "bike_id": "16cdc015a969bb43ba086d45ccc40482", "lon": -76.988323, "is_disabled": 0}, {"rental_uris": {"android": "https://dc.lft.to/lastmile_qr_scan", "ios": "https://dc.lft.to/lastmile_qr_scan"}, "lat": 38.91488, "type": "electric_scooter", "name": "86947817c8cd876db204c231894befc6", "fusion_lon": 0.0, "fusion_lat": 0.0, "is_reserved": 0, "bike_id": "86947817c8cd876db204c231894befc6", "lon": -77.02166316666667, "is_disabled": 0}, {"rental_uris": {"android": "https://dc.lft.to/lastmile_qr_scan", "ios": "https://dc.lft.to/lastmile_qr_scan"}, "lat": 38.91896216666667, "type": "electric_bike", "name": "b1a778d85b1c0a784870b97e91735f00", "fusion_lon": 0.0, "fusion_lat": 0.0, "is_reserved": 0, "bike_id": "b1a778d85b1c0a784870b97e91735f00", "lon": -77.10167516666667, "is_disabled": 0}, {"rental_uris": {"android": "https://dc.lft.to/lastmile_qr_scan", "ios": "https://dc.lft.to/lastmile_qr_scan"}, "lat": 38.905131, "type": "electric_scooter", "name": "a1cde4da24e47781b2d8064aa64e6c13", "fusion_lon": 0.0, "fusion_lat": 0.0, "is_reserved": 0, "bike_id": "a1cde4da24e47781b2d8064aa64e6c13", "lon": -77.070112, "is_disabled": 0}, {"rental_uris": {"android": "https://dc.lft.to/lastmile_qr_scan", "ios": "https://dc.lft.to/lastmile_qr_scan"}, "lat": 38.835853, "type": "electric_bike", "name": "1368cdcfc7842f9118ad5f481ca9f527", "fusion_lon": 0.0, "fusion_lat": 0.0, "is_reserved": 0, "bike_id": "1368cdcfc7842f9118ad5f481ca9f527", "lon": -76.99027083333333, "is_disabled": 0}, {"rental_uris": {"android": "https://dc.lft.to/lastmile_qr_scan", "ios": "https://dc.lft.to/lastmile_qr_scan"}, "lat": 38.90017666666667, "type": "electric_scooter", "name": "a97357895bd42bddc1942df83a2b2be2", "fusion_lon": 0.0, "fusion_lat": 0.0, "is_reserved": 0, "bike_id": "a97357895bd42bddc1942df83a2b2be2", "lon": -77.012461, "is_disabled": 0}, {"rental_uris": {"android": "https://dc.lft.to/lastmile_qr_scan", "ios": "https://dc.lft.to/lastmile_qr_scan"}, "lat": 38.922371, "type": "electric_scooter", "name": "2c94ec6600019ddcd57209aefba18979", "fusion_lon": 0.0, "fusion_lat": 0.0, "is_reserved": 0, "bike_id": "2c94ec6600019ddcd57209aefba18979", "lon": -77.0351715, "is_disabled": 0}, {"rental_uris": {"android": "https://dc.lft.to/lastmile_qr_scan", "ios": "https://dc.lft.to/lastmile_qr_scan"}, "lat": 38.94465866666667, "type": "electric_scooter", "name": "1965d1f1473658d192986516f352e9ff", "fusion_lon": 0.0, "fusion_lat": 0.0, "is_reserved": 0, "bike_id": "1965d1f1473658d192986516f352e9ff", "lon": -77.00656016666667, "is_disabled": 0}, {"rental_uris": {"android": "https://dc.lft.to/lastmile_qr_scan", "ios": "https://dc.lft.to/lastmile_qr_scan"}, "lat": 38.92471366666667, "type": "electric_scooter", "name": "97266303b8ee090ae707758a8e74dbeb", "fusion_lon": 0.0, "fusion_lat": 0.0, "is_reserved": 0, "bike_id": "97266303b8ee090ae707758a8e74dbeb", "lon": -77.02240966666666, "is_disabled": 0}, {"rental_uris": {"android": "https://dc.lft.to/lastmile_qr_scan", "ios": "https://dc.lft.to/lastmile_qr_scan"}, "lat": 38.902247, "type": "electric_scooter", "name": "1983f62755d1691761bae4cac8f95b79", "fusion_lon": 0.0, "fusion_lat": 0.0, "is_reserved": 0, "bike_id": "1983f62755d1691761bae4cac8f95b79", "lon": -77.02828216666667, "is_disabled": 0}, {"rental_uris": {"android": "https://dc.lft.to/lastmile_qr_scan", "ios": "https://dc.lft.to/lastmile_qr_scan"}, "lat": 38.93084566666667, "type": "electric_scooter", "name": "3e40657ce49858b83bec04ad3a35438c", "fusion_lon": 0.0, "fusion_lat": 0.0, "is_reserved": 0, "bike_id": "3e40657ce49858b83bec04ad3a35438c", "lon": -77.027954, "is_disabled": 0}, {"rental_uris": {"android": "https://dc.lft.to/lastmile_qr_scan", "ios": "https://dc.lft.to/lastmile_qr_scan"}, "lat": 38.896311, "type": "electric_scooter", "name": "6afc509bc07625dd69ebc267cafa51a2", "fusion_lon": 0.0, "fusion_lat": 0.0, "is_reserved": 0, "bike_id": "6afc509bc07625dd69ebc267cafa51a2", "lon": -77.04006533333333, "is_disabled": 0}, {"rental_uris": {"android": "https://dc.lft.to/lastmile_qr_scan", "ios": "https://dc.lft.to/lastmile_qr_scan"}, "lat": 38.92168433333333, "type": "electric_scooter", "name": "8e9436852d2f6e4ddedbc1e12c80e4d6", "fusion_lon": 0.0, "fusion_lat": 0.0, "is_reserved": 0, "bike_id": "8e9436852d2f6e4ddedbc1e12c80e4d6", "lon": -77.03846516666667, "is_disabled": 0}, {"rental_uris": {"android": "https://dc.lft.to/lastmile_qr_scan", "ios": "https://dc.lft.to/lastmile_qr_scan"}, "lat": 38.905729666666666, "type": "electric_scooter", "name": "071b929a6bd5fa436c9e03fcef4badd9", "fusion_lon": 0.0, "fusion_lat": 0.0, "is_reserved": 0, "bike_id": "071b929a6bd5fa436c9e03fcef4badd9", "lon": -77.00572233333334, "is_disabled": 0}, {"rental_uris": {"android": "https://dc.lft.to/lastmile_qr_scan", "ios": "https://dc.lft.to/lastmile_qr_scan"}, "lat": 38.886872833333335, "type": "electric_scooter", "name": "d2aeb704a02605e19993e93a354fd738", "fusion_lon": 0.0, "fusion_lat": 0.0, "is_reserved": 0, "bike_id": "d2aeb704a02605e19993e93a354fd738", "lon": -76.97636066666666, "is_disabled": 0}, {"rental_uris": {"android": "https://dc.lft.to/lastmile_qr_scan", "ios": "https://dc.lft.to/lastmile_qr_scan"}, "lat": 38.90288133333333, "type": "electric_scooter", "name": "624275dfce02a796083dfab731eb1d27", "fusion_lon": 0.0, "fusion_lat": 0.0, "is_reserved": 0, "bike_id": "624275dfce02a796083dfab731eb1d27", "lon": -77.0426355, "is_disabled": 0}, {"rental_uris": {"android": "https://dc.lft.to/lastmile_qr_scan", "ios": "https://dc.lft.to/lastmile_qr_scan"}, "lat": 38.90298533333333, "type": "electric_scooter", "name": "94d072d0059dc84cca5896b3f2dfe581", "fusion_lon": 0.0, "fusion_lat": 0.0, "is_reserved": 0, "bike_id": "94d072d0059dc84cca5896b3f2dfe581", "lon": -77.04689283333333, "is_disabled": 0}, {"rental_uris": {"android": "https://dc.lft.to/lastmile_qr_scan", "ios": "https://dc.lft.to/lastmile_qr_scan"}, "lat": 38.94653666666667, "type": "electric_bike", "name": "d7a6dae0d27125d5b495e3dc951a6c6c", "fusion_lon": 0.0, "fusion_lat": 0.0, "is_reserved": 0, "bike_id": "d7a6dae0d27125d5b495e3dc951a6c6c", "lon": -77.0646375, "is_disabled": 0}, {"rental_uris": {"android": "https://dc.lft.to/lastmile_qr_scan", "ios": "https://dc.lft.to/lastmile_qr_scan"}, "lat": 38.97236866666667, "type": "electric_scooter", "name": "c62744b2bbe4df96c8a9e77678aaf872", "fusion_lon": 0.0, "fusion_lat": 0.0, "is_reserved": 0, "bike_id": "c62744b2bbe4df96c8a9e77678aaf872", "lon": -77.02708466666667, "is_disabled": 0}, {"rental_uris": {"android": "https://dc.lft.to/lastmile_qr_scan", "ios": "https://dc.lft.to/lastmile_qr_scan"}, "lat": 38.92239133333333, "type": "electric_scooter", "name": "3676d444b51c7b62e5548013796ffefa", "fusion_lon": 0.0, "fusion_lat": 0.0, "is_reserved": 0, "bike_id": "3676d444b51c7b62e5548013796ffefa", "lon": -77.0282285, "is_disabled": 0}, {"rental_uris": {"android": "https://dc.lft.to/lastmile_qr_scan", "ios": "https://dc.lft.to/lastmile_qr_scan"}, "lat": 38.926873666666665, "type": "electric_scooter", "name": "59b4e4edc7441484414f1ba98224c85b", "fusion_lon": 0.0, "fusion_lat": 0.0, "is_reserved": 0, "bike_id": "59b4e4edc7441484414f1ba98224c85b", "lon": -77.02967133333334, "is_disabled": 0}, {"rental_uris": {"android": "https://dc.lft.to/lastmile_qr_scan", "ios": "https://dc.lft.to/lastmile_qr_scan"}, "lat": 38.893605666666666, "type": "electric_scooter", "name": "6217ac148134fbb158e66ba4998f6465", "fusion_lon": 0.0, "fusion_lat": 0.0, "is_reserved": 0, "bike_id": "6217ac148134fbb158e66ba4998f6465", "lon": -77.00338383333333, "is_disabled": 0}, {"rental_uris": {"android": "https://dc.lft.to/lastmile_qr_scan", "ios": "https://dc.lft.to/lastmile_qr_scan"}, "lat": 38.887058833333334, "type": "electric_scooter", "name": "d0691ba18b477736d83c525c11447a52", "fusion_lon": 0.0, "fusion_lat": 0.0, "is_reserved": 0, "bike_id": "d0691ba18b477736d83c525c11447a52", "lon": -77.01365416666667, "is_disabled": 0}, {"rental_uris": {"android": "https://dc.lft.to/lastmile_qr_scan", "ios": "https://dc.lft.to/lastmile_qr_scan"}, "lat": 38.9233705, "type": "electric_scooter", "name": "0792bf2829871fc763812236ed762675", "fusion_lon": 0.0, "fusion_lat": 0.0, "is_reserved": 0, "bike_id": "0792bf2829871fc763812236ed762675", "lon": -77.01902783333334, "is_disabled": 0}, {"rental_uris": {"android": "https://dc.lft.to/lastmile_qr_scan", "ios": "https://dc.lft.to/lastmile_qr_scan"},