{"data": {"bikes": [{"name": "21c338534c424e820ac124f159d419c7", "fusion_lat": 0.0, "type": "electric_scooter", "lat": 38.905592166666665, "is_reserved": 0, "is_disabled": 0, "fusion_lon": 0.0, "bike_id": "21c338534c424e820ac124f159d419c7", "lon": -77.0055285, "rental_uris": {"ios": "https://dc.lft.to/lastmile_qr_scan", "android": "https://dc.lft.to/lastmile_qr_scan"}}, {"name": "0181bad8f08327a45debab61a85adc01", "fusion_lat": 0.0, "type": "electric_scooter", "lat": 38.91070716666667, "is_reserved": 0, "is_disabled": 0, "fusion_lon": 0.0, "bike_id": "0181bad8f08327a45debab61a85adc01", "lon": -77.008542, "rental_uris": {"ios": "https://dc.lft.to/lastmile_qr_scan", "android": "https://dc.lft.to/lastmile_qr_scan"}}, {"name": "d0f603c7030c2da05b9283eb24d6666e", "fusion_lat": 0.0, "type": "electric_scooter", "lat": 38.91565583333333, "is_reserved": 0, "is_disabled": 0, "fusion_lon": 0.0, "bike_id": "d0f603c7030c2da05b9283eb24d6666e", "lon": -77.0120095, "rental_uris": {"ios": "https://dc.lft.to/lastmile_qr_scan", "android": "https://dc.lft.to/lastmile_qr_scan"}}, {"name": "827a6546684e6d2512ab1044efdfa56b", "fusion_lat": 0.0, "type": "electric_scooter", "lat": 38.892403333333334, "is_reserved": 0, "is_disabled": 0, "fusion_lon": 0.0, "bike_id": "827a6546684e6d2512ab1044efdfa56b", "lon": -77.01522183333333, "rental_uris": {"ios": "https://dc.lft.to/lastmile_qr_scan", "android": "https://dc.lft.to/lastmile_qr_scan"}}, {"name": "7ec9bcd3d114f3a213b1116deceb1630", "fusion_lat": 0.0, "type": "electric_scooter", "lat": 38.91914033333333, "is_reserved": 0, "is_disabled": 0, "fusion_lon": 0.0, "bike_id": "7ec9bcd3d114f3a213b1116deceb1630", "lon": -77.03424733333334, "rental_uris": {"ios": "https://dc.lft.to/lastmile_qr_scan", "android": "https://dc.lft.to/lastmile_qr_scan"}}, {"name": "d31773333d71ee672a4e32e4ef70d678", "fusion_lat": 0.0, "type": "electric_bike", "lat": 38.970899333333335, "is_reserved": 0, "is_disabled": 0, "fusion_lon": 0.0, "bike_id": "d31773333d71ee672a4e32e4ef70d678", "lon": -77.06966133333333, "rental_uris": {"ios": "https://dc.lft.to/lastmile_qr_scan", "android": "https://dc.lft.to/lastmile_qr_scan"}}, {"name": "114abfbf08d1e66147185f82e13c9a90", "fusion_lat": 0.0, "type": "electric_scooter", "lat": 38.87661383333333, "is_reserved": 0, "is_disabled": 0, "fusion_lon": 0.0, "bike_id": "114abfbf08d1e66147185f82e13c9a90", "lon": -77.00429166666666, "rental_uris": {"ios": "https://dc.lft.to/lastmile_qr_scan", "android": "https://dc.lft.to/lastmile_qr_scan"}}, {"name": "d96a2aef166daaacb44ac6d602fa3f08", "fusion_lat": 0.0, "type": "electric_scooter", "lat": 38.916927, "is_reserved": 0, "is_disabled": 0, "fusion_lon": 0.0, "bike_id": "d96a2aef166daaacb44ac6d602fa3f08", "lon": -77.0376445, "rental_uris": {"ios": "https://dc.lft.to/lastmile_qr_scan", "android": "https://dc.lft.to/lastmile_qr_scan"}}, {"name": "45eacc0c49bfc0f40ffbe1ac67827274", "fusion_lat": 0.0, "type": "electric_bike", "lat": 38.86375983333333, "is_reserved": 0, "is_disabled": 0, "fusion_lon": 0.0, "bike_id": "45eacc0c49bfc0f40ffbe1ac67827274", "lon": -77.12900966666666, "rental_uris": {"ios": "https://dc.lft.to/lastmile_qr_scan", "android": "https://dc.lft.to/lastmile_qr_scan"}}, {"name": "9aadb0d9e3efd182a1eaa6cc397244dd", "fusion_lat": 0.0, "type": "electric_scooter", "lat": 38.92628783333333, "is_reserved": 0, "is_disabled": 0, "fusion_lon": 0.0, "bike_id": "9aadb0d9e3efd182a1eaa6cc397244dd", "lon": -77.03790216666667, "rental_uris": {"ios": "https://dc.lft.to/lastmile_qr_scan", "android": "https://dc.lft.to/lastmile_qr_scan"}}, {"name": "df043b5c8fd28dc6ed701baf5dac1ca2", "fusion_lat": 0.0, "type": "electric_scooter", "lat": 38.91330816666667, "is_reserved": 0, "is_disabled": 0, "fusion_lon": 0.0, "bike_id": "df043b5c8fd28dc6ed701baf5dac1ca2", "lon": -77.04871033333333, "rental_uris": {"ios": "https://dc.lft.to/lastmile_qr_scan", "android": "https://dc.lft.to/lastmile_qr_scan"}}, {"name": "b703d0b097ead6b607eab7b7cfca3d51", "fusion_lat": 0.0, "type": "electric_scooter", "lat": 38.91875316666667, "is_reserved": 0, "is_disabled": 0, "fusion_lon": 0.0, "bike_id": "b703d0b097ead6b607eab7b7cfca3d51", "lon": -77.044848, "rental_uris": {"ios": "https://dc.lft.to/lastmile_qr_scan", "android": "https://dc.lft.to/lastmile_qr_scan"}}, {"name": "1c2ea021942e0df92e7f03491a44ca97", "fusion_lat": 0.0, "type": "electric_scooter", "lat": 38.920201, "is_reserved": 0, "is_disabled": 0, "fusion_lon": 0.0, "bike_id": "1c2ea021942e0df92e7f03491a44ca97", "lon": -77.03118516666666, "rental_uris": {"ios": "https://dc.lft.to/lastmile_qr_scan", "android": "https://dc.lft.to/lastmile_qr_scan"}}, {"name": "42e8c563a671886859775c05ece5851f", "fusion_lat": 0.0, "type": "electric_scooter", "lat": 38.88824116666667, "is_reserved": 0, "is_disabled": 0, "fusion_lon": 0.0, "bike_id": "42e8c563a671886859775c05ece5851f", "lon": -77.0494035, "rental_uris": {"ios": "https://dc.lft.to/lastmile_qr_scan", "android": "https://dc.lft.to/lastmile_qr_scan"}}, {"name": "20128a3e01e0f0879aae20c3bad1c0b6", "fusion_lat": 0.0, "type": "electric_scooter", "lat": 38.87647366666667, "is_reserved": 0, "is_disabled": 0, "fusion_lon": 0.0, "bike_id": "20128a3e01e0f0879aae20c3bad1c0b6", "lon": -76.9650985, "rental_uris": {"ios": "https://dc.lft.to/lastmile_qr_scan", "android": "https://dc.lft.to/lastmile_qr_scan"}}, {"name": "65e1aa4b6e61408a076feaf1993dfdb7", "fusion_lat": 0.0, "type": "electric_scooter", "lat": 38.90120366666667, "is_reserved": 0, "is_disabled": 0, "fusion_lon": 0.0, "bike_id": "65e1aa4b6e61408a076feaf1993dfdb7", "lon": -77.049981, "rental_uris": {"ios": "https://dc.lft.to/lastmile_qr_scan", "android": "https://dc.lft.to/lastmile_qr_scan"}}, {"name": "90b92c978f361f388dccbf16f98bc63a", "fusion_lat": 0.0, "type": "electric_scooter", "lat": 38.903416666666665, "is_reserved": 0, "is_disabled": 0, "fusion_lon": 0.0, "bike_id": "90b92c978f361f388dccbf16f98bc63a", "lon": -77.03843166666667, "rental_uris": {"ios": "https://dc.lft.to/lastmile_qr_scan", "android": "https://dc.lft.to/lastmile_qr_scan"}}, {"name": "7b028be67da9b7b161e20286c9ecb839", "fusion_lat": 0.0, "type": "electric_scooter", "lat": 38.933924, "is_reserved": 0, "is_disabled": 0, "fusion_lon": 0.0, "bike_id": "7b028be67da9b7b161e20286c9ecb839", "lon": -77.03155133333334, "rental_uris": {"ios": "https://dc.lft.to/lastmile_qr_scan", "android": "https://dc.lft.to/lastmile_qr_scan"}}, {"name": "20b50e561541e2dda1c81cc1f39c9c4a", "fusion_lat": 0.0, "type": "electric_scooter", "lat": 38.900265166666664, "is_reserved": 0, "is_disabled": 0, "fusion_lon": 0.0, "bike_id": "20b50e561541e2dda1c81cc1f39c9c4a", "lon": -77.0118625, "rental_uris": {"ios": "https://dc.lft.to/lastmile_qr_scan", "android": "https://dc.lft.to/lastmile_qr_scan"}}, {"name": "49984b74d9661a9f2f8baad49792a077", "fusion_lat": 0.0, "type": "electric_scooter", "lat": 38.8901925, "is_reserved": 0, "is_disabled": 0, "fusion_lon": 0.0, "bike_id": "49984b74d9661a9f2f8baad49792a077", "lon": -76.934964, "rental_uris": {"ios": "https://dc.lft.to/lastmile_qr_scan", "android": "https://dc.lft.to/lastmile_qr_scan"}}, {"name": "b85516ab7dae04fb3ec640f3ad77890b", "fusion_lat": 0.0, "type": "electric_scooter", "lat": 38.90040916666667, "is_reserved": 0, "is_disabled": 0, "fusion_lon": 0.0, "bike_id": "b85516ab7dae04fb3ec640f3ad77890b", "lon": -76.919163, "rental_uris": {"ios": "https://dc.lft.to/lastmile_qr_scan", "android": "https://dc.lft.to/lastmile_qr_scan"}}, {"name": "4c7935c487812b3cd20e3355ca646cfd", "fusion_lat": 0.0, "type": "electric_scooter", "lat": 38.91797316666667, "is_reserved": 0, "is_disabled": 0, "fusion_lon": 0.0, "bike_id": "4c7935c487812b3cd20e3355ca646cfd", "lon": -77.028187, "rental_uris": {"ios": "https://dc.lft.to/lastmile_qr_scan", "android": "https://dc.lft.to/lastmile_qr_scan"}}, {"name": "3a1ef0664c43cdf0275338d87d024da4", "fusion_lat": 0.0, "type": "electric_scooter", "lat": 38.927693, "is_reserved": 0, "is_disabled": 0, "fusion_lon": 0.0, "bike_id": "3a1ef0664c43cdf0275338d87d024da4", "lon": -77.02787466666666, "rental_uris": {"ios": "https://dc.lft.to/lastmile_qr_scan", "android": "https://dc.lft.to/lastmile_qr_scan"}}, {"name": "84f8ff7e542d08354047ff3b48bc96f9", "fusion_lat": 0.0, "type": "electric_scooter", "lat": 38.93106366666667, "is_reserved": 0, "is_disabled": 0, "fusion_lon": 0.0, "bike_id": "84f8ff7e542d08354047ff3b48bc96f9", "lon": -77.03513283333334, "rental_uris": {"ios": "https://dc.lft.to/lastmile_qr_scan", "android": "https://dc.lft.to/lastmile_qr_scan"}}, {"name": "5e02aa72c155f8d9796976f728140615", "fusion_lat": 0.0, "type": "electric_scooter", "lat": 38.885024666666666, "is_reserved": 0, "is_disabled": 0, "fusion_lon": 0.0, "bike_id": "5e02aa72c155f8d9796976f728140615", "lon": -77.00572783333334, "rental_uris": {"ios": "https://dc.lft.to/lastmile_qr_scan", "android": "https://dc.lft.to/lastmile_qr_scan"}}, {"name": "908f5bd05354957de0e62d58f38cb132", "fusion_lat": 0.0, "type": "electric_scooter", "lat": 38.8954785, "is_reserved": 0, "is_disabled": 0, "fusion_lon": 0.0, "bike_id": "908f5bd05354957de0e62d58f38cb132", "lon": -76.948769, "rental_uris": {"ios": "https://dc.lft.to/lastmile_qr_scan", "android": "https://dc.lft.to/lastmile_qr_scan"}}, {"name": "61b799fe06523d208bd21db169b40310", "fusion_lat": 0.0, "type": "electric_scooter", "lat": 38.9050315, "is_reserved": 0, "is_disabled": 0, "fusion_lon": 0.0, "bike_id": "61b799fe06523d208bd21db169b40310", "lon": -77.06882033333333, "rental_uris": {"ios": "https://dc.lft.to/lastmile_qr_scan", "android": "https://dc.lft.to/lastmile_qr_scan"}}, {"name": "e441667e03b665b8f225c6f542e26df4", "fusion_lat": 0.0, "type": "electric_scooter", "lat": 38.925886166666665, "is_reserved": 0, "is_disabled": 0, "fusion_lon": 0.0, "bike_id": "e441667e03b665b8f225c6f542e26df4", "lon": -77.02498233333333, "rental_uris": {"ios": "https://dc.lft.to/lastmile_qr_scan", "android": "https://dc.lft.to/lastmile_qr_scan"}}, {"name": "4bd48ec5631523eb63e67b931bd2c7a5", "fusion_lat": 0.0, "type": "electric_scooter", "lat": 38.92350066666667, "is_reserved": 0, "is_disabled": 0, "fusion_lon": 0.0, "bike_id": "4bd48ec5631523eb63e67b931bd2c7a5", "lon": -77.03530833333333, "rental_uris": {"ios": "https://dc.lft.to/lastmile_qr_scan", "android": "https://dc.lft.to/lastmile_qr_scan"}}, {"name": "6488bc7c5d798dfd5e41b5737f72ca11", "fusion_lat": 0.0, "type": "electric_scooter", "lat": 38.927108, "is_reserved": 0, "is_disabled": 0, "fusion_lon": 0.0, "bike_id": "6488bc7c5d798dfd5e41b5737f72ca11", "lon": -77.03730316666666, "rental_uris": {"ios": "https://dc.lft.to/lastmile_qr_scan", "android": "https://dc.lft.to/lastmile_qr_scan"}}, {"name": "5164a292fea03e49e9c960740291a24c", "fusion_lat": 0.0, "type": "electric_scooter", "lat": 38.9112195, "is_reserved": 0, "is_disabled": 0, "fusion_lon": 0.0, "bike_id": "5164a292fea03e49e9c960740291a24c", "lon": -77.0477175, "rental_uris": {"ios": "https://dc.lft.to/lastmile_qr_scan", "android": "https://dc.lft.to/lastmile_qr_scan"}}, {"name": "bc6b2624bc9f1e0a01b68545d4d80eef", "fusion_lat": 0.0, "type": "electric_bike", "lat": 38.853166333333334, "is_reserved": 0, "is_disabled": 0, "fusion_lon": 0.0, "bike_id": "bc6b2624bc9f1e0a01b68545d4d80eef", "lon": -76.98016416666667, "rental_uris": {"ios": "https://dc.lft.to/lastmile_qr_scan", "android": "https://dc.lft.to/lastmile_qr_scan"}}, {"name": "f3f541c764733d39883be6ac93d1dfed", "fusion_lat": 0.0, "type": "electric_scooter", "lat": 38.9025445, "is_reserved": 0, "is_disabled": 0, "fusion_lon": 0.0, "bike_id": "f3f541c764733d39883be6ac93d1dfed", "lon": -77.0326825, "rental_uris": {"ios": "https://dc.lft.to/lastmile_qr_scan", "android": "https://dc.lft.to/lastmile_qr_scan"}}, {"name": "88d0f9e8d51cf2685dd4c4180c74bfb3", "fusion_lat": 0.0, "type": "electric_scooter", "lat": 38.91253016666667, "is_reserved": 0, "is_disabled": 0, "fusion_lon": 0.0, "bike_id": "88d0f9e8d51cf2685dd4c4180c74bfb3", "lon": -77.03871416666667, "rental_uris": {"ios": "https://dc.lft.to/lastmile_qr_scan", "android": "https://dc.lft.to/lastmile_qr_scan"}}, {"name": "98a6a1c626d84e1c555683ee3b7801aa", "fusion_lat": 0.0, "type": "electric_scooter", "lat": 38.9002725, "is_reserved": 0, "is_disabled": 0, "fusion_lon": 0.0, "bike_id": "98a6a1c626d84e1c555683ee3b7801aa", "lon": -76.99860516666666, "rental_uris": {"ios": "https://dc.lft.to/lastmile_qr_scan", "android": "https://dc.lft.to/lastmile_qr_scan"}}, {"name": "c4fb831ca2b93197e2c86c1134daacd9", "fusion_lat": 0.0, "type": "electric_scooter", "lat": 38.89524216666667, "is_reserved": 0, "is_disabled": 0, "fusion_lon": 0.0, "bike_id": "c4fb831ca2b93197e2c86c1134daacd9", "lon": -76.94891416666667, "rental_uris": {"ios": "https://dc.lft.to/lastmile_qr_scan", "android": "https://dc.lft.to/lastmile_qr_scan"}}, {"name": "3ee6b85ea5e5b430bf3255a282b5010e", "fusion_lat": 0.0, "type": "electric_scooter", "lat": 38.89853766666667, "is_reserved": 0, "is_disabled": 0, "fusion_lon": 0.0, "bike_id": "3ee6b85ea5e5b430bf3255a282b5010e", "lon": -77.0394265, "rental_uris": {"ios": "https://dc.lft.to/lastmile_qr_scan", "android": "https://dc.lft.to/lastmile_qr_scan"}}, {"name": "9523e7707f85e5cb9a4c0c92e9b2fdf7", "fusion_lat": 0.0, "type": "electric_scooter", "lat": 38.89686183333333, "is_reserved": 0, "is_disabled": 0, "fusion_lon": 0.0, "bike_id": "9523e7707f85e5cb9a4c0c92e9b2fdf7", "lon": -77.004979, "rental_uris": {"ios": "https://dc.lft.to/lastmile_qr_scan", "android": "https://dc.lft.to/lastmile_qr_scan"}}, {"name": "e3bfb2503d84811d887baef8a3e8f506", "fusion_lat": 0.0, "type": "electric_scooter", "lat": 38.939280333333336, "is_reserved": 0, "is_disabled": 0, "fusion_lon": 0.0, "bike_id": "e3bfb2503d84811d887baef8a3e8f506", "lon": -77.03683266666667, "rental_uris": {"ios": "https://dc.lft.to/lastmile_qr_scan", "android": "https://dc.lft.to/lastmile_qr_scan"}}, {"name": "da48ef52229269c5c53d25aa0aff5a1a", "fusion_lat": 0.0, "type": "electric_scooter", "lat": 38.92605283333333, "is_reserved": 0, "is_disabled": 0, "fusion_lon": 0.0, "bike_id": "da48ef52229269c5c53d25aa0aff5a1a", "lon": -77.02157766666667, "rental_uris": {"ios": "https://dc.lft.to/lastmile_qr_scan", "android": "https://dc.lft.to/lastmile_qr_scan"}}, {"name": "9bfb98640ced051157131141a4b9ab6c", "fusion_lat": 0.0, "type": "electric_scooter", "lat": 38.9066925, "is_reserved": 0, "is_disabled": 0, "fusion_lon": 0.0, "bike_id": "9bfb98640ced051157131141a4b9ab6c", "lon": -77.0270325, "rental_uris": {"ios": "https://dc.lft.to/lastmile_qr_scan", "android": "https://dc.lft.to/lastmile_qr_scan"}}, {"name": "6403021375425951b4663ccd53c0d45f", "fusion_lat": 0.0, "type": "electric_scooter", "lat": 38.89232883333333, "is_reserved": 0, "is_disabled": 0, "fusion_lon": 0.0, "bike_id": "6403021375425951b4663ccd53c0d45f", "lon": -77.05001466666667, "rental_uris": {"ios": "https://dc.lft.to/lastmile_qr_scan", "android": "https://dc.lft.to/lastmile_qr_scan"}}, {"name": "3113dc735a91c899f46bac45b68652ed", "fusion_lat": 0.0, "type": "electric_scooter", "lat": 38.935320833333336, "is_reserved": 0, "is_disabled": 0, "fusion_lon": 0.0, "bike_id": "3113dc735a91c899f46bac45b68652ed", "lon": -77.03402983333334, "rental_uris": {"ios": "https://dc.lft.to/lastmile_qr_scan", "android": "https://dc.lft.to/lastmile_qr_scan"}}, {"name": "76d5ab9c81b13b6389ebcf5efb413686", "fusion_lat": 0.0, "type": "electric_scooter", "lat": 38.87652116666667, "is_reserved": 0, "is_disabled": 0, "fusion_lon": 0.0, "bike_id": "76d5ab9c81b13b6389ebcf5efb413686", "lon": -77.000578, "rental_uris": {"ios": "https://dc.lft.to/lastmile_qr_scan", "android": "https://dc.lft.to/lastmile_qr_scan"}}, {"name": "b9a0cc563ac9281617e9a54fbb42fc94", "fusion_lat": 0.0, "type": "electric_scooter", "lat": 38.9074395, "is_reserved": 0, "is_disabled": 0, "fusion_lon": 0.0, "bike_id": "b9a0cc563ac9281617e9a54fbb42fc94", "lon": -77.03468216666667, "rental_uris": {"ios": "https://dc.lft.to/lastmile_qr_scan", "android": "https://dc.lft.to/lastmile_qr_scan"}}, {"name": "1fb3b5f5943ec7c6918a250b7d8ae4af", "fusion_lat": 0.0, "type": "electric_bike", "lat": 38.8543295, "is_reserved": 0, "is_disabled": 0, "fusion_lon": 0.0, "bike_id": "1fb3b5f5943ec7c6918a250b7d8ae4af", "lon": -76.909668, "rental_uris": {"ios": "https://dc.lft.to/lastmile_qr_scan", "android": "https://dc.lft.to/lastmile_qr_scan"}}, {"name": "da52cc912d3d2314503b4e93304881b6", "fusion_lat": 0.0, "type": "electric_bike", "lat": 38.810508, "is_reserved": 0, "is_disabled": 0, "fusion_lon": 0.0, "bike_id": "da52cc912d3d2314503b4e93304881b6", "lon": -77.08506066666666, "rental_uris": {"ios": "https://dc.lft.to/lastmile_qr_scan", "android": "https://dc.lft.to/lastmile_qr_scan"}}, {"name": "ca06158d88979bdd693c87ce67c192e8", "fusion_lat": 0.0, "type": "electric_scooter", "lat": 38.930151333333335, "is_reserved": 0, "is_disabled": 0, "fusion_lon": 0.0, "bike_id": "ca06158d88979bdd693c87ce67c192e8", "lon": -77.0125515, "rental_uris": {"ios": "https://dc.lft.to/lastmile_qr_scan", "android": "https://dc.lft.to/lastmile_qr_scan"}}, {"name": "db73851505bda19ada97baa8dc1bda8d", "fusion_lat": 0.0, "type": "electric_scooter", "lat": 38.917662, "is_reserved": 0, "is_disabled": 0, "fusion_lon": 0.0, "bike_id": "db73851505bda19ada97baa8dc1bda8d", "lon": -77.03188733333333, "rental_uris": {"ios": "https://dc.lft.to/lastmile_qr_scan", "android": "https://dc.lft.to/lastmile_qr_scan"}}, {"name": "4194a63fa65a3ec636692d8354960ff7", "fusion_lat": 0.0, "type": "electric_scooter", "lat": 38.934262333333336, "is_reserved": 0, "is_disabled": 0, "fusion_lon": 0.0, "bike_id": "4194a63fa65a3ec636692d8354960ff7", "lon": -77.0400815, "rental_uris": {"ios": "https://dc.lft.to/lastmile_qr_scan", "android": "https://dc.lft.to/lastmile_qr_scan"}}, {"name": "2a25855be77d9eacb36bad0acc2d5688", "fusion_lat": 0.0, "type": "electric_bike", "lat": 38.97322616666666, "is_reserved": 0, "is_disabled": 0, "fusion_lon": 0.0, "bike_id": "2a25855be77d9eacb36bad0acc2d5688", "lon": -77.021517, "rental_uris": {"ios": "https://dc.lft.to/lastmile_qr_scan", "android": "https://dc.lft.to/lastmile_qr_scan"}}, {"name": "56f7379b96f2b007be89504617261c48", "fusion_lat": 0.0, "type": "electric_scooter", "lat": 38.903240333333336, "is_reserved": 0, "is_disabled": 0, "fusion_lon": 0.0, "bike_id": "56f7379b96f2b007be89504617261c48", "lon": -77.03839516666666, "rental_uris": {"ios": "https://dc.lft.to/lastmile_qr_scan", "android": "https://dc.lft.to/lastmile_qr_scan"}}, {"name": "6c1a2efe9dc7e553a4dc8639d5660613", "fusion_lat": 0.0, "type": "electric_bike", "lat": 38.902845666666664, "is_reserved": 0, "is_disabled": 0, "fusion_lon": 0.0, "bike_id": "6c1a2efe9dc7e553a4dc8639d5660613", "lon": -76.9809095, "rental_uris": {"ios": "https://dc.lft.to/lastmile_qr_scan", "android": "https://dc.lft.to/lastmile_qr_scan"}}, {"name": "2d3f1cf6ec3fdd8aa75e050428c5683a", "fusion_lat": 0.0, "type": "electric_scooter", "lat": 38.8991625, "is_reserved": 0, "is_disabled": 0, "fusion_lon": 0.0, "bike_id": "2d3f1cf6ec3fdd8aa75e050428c5683a", "lon": -76.93384983333334, "rental_uris": {"ios": "https://dc.lft.to/lastmile_qr_scan", "android": "https://dc.lft.to/lastmile_qr_scan"}}, {"name": "d9b8e7a8783bc178a14125a1c90107f5", "fusion_lat": 0.0, "type": "electric_bike", "lat": 38.88242966666667, "is_reserved": 0, "is_disabled": 0, "fusion_lon": 0.0, "bike_id": "d9b8e7a8783bc178a14125a1c90107f5", "lon": -77.17986433333333, "rental_uris": {"ios": "https://dc.lft.to/lastmile_qr_scan", "android": "https://dc.lft.to/lastmile_qr_scan"}}, {"name": "dbcb9dcd40297eba7be9b7b153c40b80", "fusion_lat": 0.0, "type": "electric_scooter", "lat": 38.91803483333333, "is_reserved": 0, "is_disabled": 0, "fusion_lon": 0.0, "bike_id": "dbcb9dcd40297eba7be9b7b153c40b80", "lon": -77.028167, "rental_uris": {"ios": "https://dc.lft.to/lastmile_qr_scan", "android": "https://dc.lft.to/lastmile_qr_scan"}}, {"name": "acd099477769c69bc058392ebb27075c", "fusion_lat": 0.0, "type": "electric_scooter", "lat": 38.93104066666667, "is_reserved": 0, "is_disabled": 0, "fusion_lon": 0.0, "bike_id": "acd099477769c69bc058392ebb27075c", "lon": -77.02408783333334, "rental_uris": {"ios": "https://dc.lft.to/lastmile_qr_scan", "android": "https://dc.lft.to/lastmile_qr_scan"}}, {"name": "94b279894b047c3c4580503fe57a6bf7", "fusion_lat": 0.0, "type": "electric_scooter", "lat": 38.874632166666665, "is_reserved": 0, "is_disabled": 0, "fusion_lon": 0.0, "bike_id": "94b279894b047c3c4580503fe57a6bf7", "lon": -77.0020045, "rental_uris": {"ios": "https://dc.lft.to/lastmile_qr_scan", "android": "https://dc.lft.to/lastmile_qr_scan"}}, {"name": "7b75652265b6b73747b7538498e60b9d", "fusion_lat": 0.0, "type": "electric_scooter", "lat": 38.918201333333336, "is_reserved": 0, "is_disabled": 0, "fusion_lon": 0.0, "bike_id": "7b75652265b6b73747b7538498e60b9d", "lon": -77.04015116666666, "rental_uris": {"ios": "https://dc.lft.to/lastmile_qr_scan", "android": "https://dc.lft.to/lastmile_qr_scan"}}, {"name": "ab7c7238e8b274aa982420b18bdbb8c0", "fusion_lat": 0.0, "type": "electric_scooter", "lat": 38.901432666666665, "is_reserved": 0, "is_disabled": 0, "fusion_lon": 0.0, "bike_id": "ab7c7238e8b274aa982420b18bdbb8c0", "lon": -76.9996765, "rental_uris": {"ios": "https://dc.lft.to/lastmile_qr_scan", "android": "https://dc.lft.to/lastmile_qr_scan"}}, {"name": "eef76e99243c50bc93bfa6bd2016f634", "fusion_lat": 0.0, "type": "electric_scooter", "lat": 38.92094066666667, "is_reserved": 0, "is_disabled": 0, "fusion_lon": 0.0, "bike_id": "eef76e99243c50bc93bfa6bd2016f634", "lon": -77.03181783333333, "rental_uris": {"ios": "https://dc.lft.to/lastmile_qr_scan", "android": "https://dc.lft.to/lastmile_qr_scan"}}, {"name": "8034f0368ae4cbbacef91c86ebd69ea5", "fusion_lat": 0.0, "type": "electric_scooter", "lat": 38.89913966666667, "is_reserved": 0, "is_disabled": 0, "fusion_lon": 0.0, "bike_id": "8034f0368ae4cbbacef91c86ebd69ea5", "lon": -76.93369616666666, "rental_uris": {"ios": "https://dc.lft.to/lastmile_qr_scan", "android": "https://dc.lft.to/lastmile_qr_scan"}}, {"name": "63661c2957f6fb3fc468b45a46586903", "fusion_lat": 0.0, "type": "electric_scooter", "lat": 38.895035666666665, "is_reserved": 0, "is_disabled": 0, "fusion_lon": 0.0, "bike_id": "63661c2957f6fb3fc468b45a46586903", "lon": -77.04674, "rental_uris": {"ios": "https://dc.lft.to/lastmile_qr_scan", "android": "https://dc.lft.to/lastmile_qr_scan"}}, {"name": "fb9c3ba5a9d241490f7c6fa9eafc975a", "fusion_lat": 0.0, "type": "electric_scooter", "lat": 38.8761765, "is_reserved": 0, "is_disabled": 0, "fusion_lon": 0.0, "bike_id": "fb9c3ba5a9d241490f7c6fa9eafc975a", "lon": -77.00749033333334, "rental_uris": {"ios": "https://dc.lft.to/lastmile_qr_scan", "android": "https://dc.lft.to/lastmile_qr_scan"}}, {"name": "fe5c71aaeec7353e0af062e07b38c4cd", "fusion_lat": 0.0, "type": "electric_scooter", "lat": 38.879196, "is_reserved": 0, "is_disabled": 0, "fusion_lon": 0.0, "bike_id": "fe5c71aaeec7353e0af062e07b38c4cd", "lon": -77.02104583333333, "rental_uris": {"ios": "https://dc.lft.to/lastmile_qr_scan", "android": "https://dc.lft.to/lastmile_qr_scan"}}, {"name": "27996cc53e11bd9bef66ba722f9f1623", "fusion_lat": 0.0, "type": "electric_scooter", "lat": 38.884587833333335, "is_reserved": 0, "is_disabled": 0, "fusion_lon": 0.0, "bike_id": "27996cc53e11bd9bef66ba722f9f1623", "lon": -76.9247105, "rental_uris": {"ios": "https://dc.lft.to/lastmile_qr_scan", "android": "https://dc.lft.to/lastmile_qr_scan"}}, {"name": "1b9a89910c4c005cc8874efe1c43f276", "fusion_lat": 0.0, "type": "electric_bike", "lat": 38.875272333333335, "is_reserved": 0, "is_disabled": 0, "fusion_lon": 0.0, "bike_id": "1b9a89910c4c005cc8874efe1c43f276", "lon": -77.19909166666666, "rental_uris": {"ios": "https://dc.lft.to/lastmile_qr_scan", "android": "https://dc.lft.to/lastmile_qr_scan"}}, {"name": "791c827edc855e2df286e770cfd51657", "fusion_lat": 0.0, "type": "electric_scooter", "lat": 38.92724483333333, "is_reserved": 0, "is_disabled": 0, "fusion_lon": 0.0, "bike_id": "791c827edc855e2df286e770cfd51657", "lon": -77.00568266666667, "rental_uris": {"ios": "https://dc.lft.to/lastmile_qr_scan", "android": "https://dc.lft.to/lastmile_qr_scan"}}, {"name": "87446d64fec9aeeaf48f331e60f057c1", "fusion_lat": 0.0, "type": "electric_scooter", "lat": 38.902824333333335, "is_reserved": 0, "is_disabled": 0, "fusion_lon": 0.0, "bike_id": "87446d64fec9aeeaf48f331e60f057c1", "lon": -77.03065983333333, "rental_uris": {"ios": "https://dc.lft.to/lastmile_qr_scan", "android": "https://dc.lft.to/lastmile_qr_scan"}}, {"name": "e215cfa839095c4dc593067d1dbbc467", "fusion_lat": 0.0, "type": "electric_scooter", "lat": 38.8922515, "is_reserved": 0, "is_disabled": 0, "fusion_lon": 0.0, "bike_id": "e215cfa839095c4dc593067d1dbbc467", "lon": -77.03185966666666, "rental_uris": {"ios": "https://dc.lft.to/lastmile_qr_scan", "android": "https://dc.lft.to/lastmile_qr_scan"}}, {"name": "e1f6c6c57e0526009e3d27589f0d1c0e", "fusion_lat": 0.0, "type": "electric_bike", "lat": 39.094567166666664, "is_reserved": 0, "is_disabled": 0, "fusion_lon": 0.0, "bike_id": "e1f6c6c57e0526009e3d27589f0d1c0e", "lon": -77.14995283333333, "rental_uris": {"ios": "https://dc.lft.to/lastmile_qr_scan", "android": "https://dc.lft.to/lastmile_qr_scan"}}, {"name": "663bd45c6120db64a1e5021b6417cc12", "fusion_lat": 0.0, "type": "electric_scooter", "lat": 38.91811783333333, "is_reserved": 0, "is_disabled": 0, "fusion_lon": 0.0, "bike_id": "663bd45c6120db64a1e5021b6417cc12", "lon": -77.02798233333333, "rental_uris": {"ios": "https://dc.lft.to/lastmile_qr_scan", "android": "https://dc.lft.to/lastmile_qr_scan"}}, {"name": "a0fe72f7e6d02fac9fafa729e4a5cdbe", "fusion_lat": 0.0, "type": "electric_scooter", "lat": 38.87321283333333, "is_reserved": 0, "is_disabled": 0, "fusion_lon": 0.0, "bike_id": "a0fe72f7e6d02fac9fafa729e4a5cdbe", "lon": -77.001097, "rental_uris": {"ios": "https://dc.lft.to/lastmile_qr_scan", "android": "https://dc.lft.to/lastmile_qr_scan"}}, {"name": "214ba3b7faa1465f251292a426654559", "fusion_lat": 0.0, "type": "electric_scooter", "lat": 38.90958, "is_reserved": 0, "is_disabled": 0, "fusion_lon": 0.0, "bike_id": "214ba3b7faa1465f251292a426654559", "lon": -77.04864483333333, "rental_uris": {"ios": "https://dc.lft.to/lastmile_qr_scan", "android": "https://dc.lft.to/lastmile_qr_scan"}}, {"name": "6486a5d25762094bcec92c218252ffc6", "fusion_lat": 0.0, "type": "electric_bike", "lat": 38.951827, "is_reserved": 0, "is_disabled": 0, "fusion_lon": 0.0, "bike_id": "6486a5d25762094bcec92c218252ffc6", "lon": -76.93547483333333, "rental_uris": {"ios": "https://dc.lft.to/lastmile_qr_scan", "android": "https://dc.lft.to/lastmile_qr_scan"}}, {"name": "3e74f2c2a23a9f88387eda11e90a7b62", "fusion_lat": 0.0, "type": "electric_bike", "lat": 38.99990616666667, "is_reserved": 0, "is_disabled": 0, "fusion_lon": 0.0, "bike_id": "3e74f2c2a23a9f88387eda11e90a7b62", "lon": -76.995213, "rental_uris": {"ios": "https://dc.lft.to/lastmile_qr_scan", "android": "https://dc.lft.to/lastmile_qr_scan"}}, {"name": "f2cc7e5fb63dfae4e9c593295e829640", "fusion_lat": 0.0, "type": "electric_scooter", "lat": 38.90376633333333, "is_reserved": 0, "is_disabled": 0, "fusion_lon": 0.0, "bike_id": "f2cc7e5fb63dfae4e9c593295e829640", "lon": -77.04826133333333, "rental_uris": {"ios": "https://dc.lft.to/lastmile_qr_scan", "android": "https://dc.lft.to/lastmile_qr_scan"}}, {"name": "7aaf5d3bf91dff17029179377ea6f413", "fusion_lat": 0.0, "type": "electric_scooter", "lat": 38.90865983333333, "is_reserved": 0, "is_disabled": 0, "fusion_lon": 0.0, "bike_id": "7aaf5d3bf91dff17029179377ea6f413", "lon": -77.02385083333333, "rental_uris": {"ios": "https://dc.lft.to/lastmile_qr_scan", "android": "https://dc.lft.to/lastmile_qr_scan"}}, {"name": "7ab36bb48620790bfee1aaeed9e2e782", "fusion_lat": 0.0, "type": "electric_scooter", "lat": 38.89503166666667, "is_reserved": 0, "is_disabled": 0, "fusion_lon": 0.0, "bike_id": "7ab36bb48620790bfee1aaeed9e2e782", "lon": -77.04673983333333, "rental_uris": {"ios": "https://dc.lft.to/lastmile_qr_scan", "android": "https://dc.lft.to/lastmile_qr_scan"}}, {"name": "7f86927f8af6c8f84de086d19a9c2e78", "fusion_lat": 0.0, "type": "electric_scooter", "lat": 38.90480216666667, "is_reserved": 0, "is_disabled": 0, "fusion_lon": 0.0, "bike_id": "7f86927f8af6c8f84de086d19a9c2e78", "lon": -76.97333333333333, "rental_uris": {"ios": "https://dc.lft.to/lastmile_qr_scan", "android": "https://dc.lft.to/lastmile_qr_scan"}}, {"name": "268f96421cb0168b4440813a629494fa", "fusion_lat": 0.0, "type": "electric_scooter", "lat": 38.90031966666667, "is_reserved": 0, "is_disabled": 0, "fusion_lon": 0.0, "bike_id": "268f96421cb0168b4440813a629494fa", "lon": -77.00191083333333, "rental_uris": {"ios": "https://dc.lft.to/lastmile_qr_scan", "android": "https://dc.lft.to/lastmile_qr_scan"}}, {"name": "824b4ae612974c827c40c06cb06f7de2", "fusion_lat": 0.0, "type": "electric_scooter", "lat": 38.90713, "is_reserved": 0, "is_disabled": 0, "fusion_lon": 0.0, "bike_id": "824b4ae612974c827c40c06cb06f7de2", "lon": -77.04343666666666, "rental_uris": {"ios": "https://dc.lft.to/lastmile_qr_scan", "android": "https://dc.lft.to/lastmile_qr_scan"}}, {"name": "9291e1158f7404ff098ce6d8fc7bc2ba", "fusion_lat": 0.0, "type": "electric_scooter", "lat": 38.900271000000004, "is_reserved": 0, "is_disabled": 0, "fusion_lon": 0.0, "bike_id": "9291e1158f7404ff098ce6d8fc7bc2ba", "lon": -77.03269083333333, "rental_uris": {"ios": "https://dc.lft.to/lastmile_qr_scan", "android": "https://dc.lft.to/lastmile_qr_scan"}}, {"name": "b8247d7456522daaa55f6e382a8241d4", "fusion_lat": 0.0, "type": "electric_scooter", "lat": 38.928153, "is_reserved": 0, "is_disabled": 0, "fusion_lon": 0.0, "bike_id": "b8247d7456522daaa55f6e382a8241d4", "lon": -77.01365416666667, "rental_uris": {"ios": "https://dc.lft.to/lastmile_qr_scan", "android": "https://dc.lft.to/lastmile_qr_scan"}}, {"name": "bfe04b9d8afc55ede3974aa80e550ce4", "fusion_lat": 0.0, "type": "electric_scooter", "lat": 38.900447166666666, "is_reserved": 0, "is_disabled": 0, "fusion_lon": 0.0, "bike_id": "bfe04b9d8afc55ede3974aa80e550ce4", "lon": -77.029582, "rental_uris": {"ios": "https://dc.lft.to/lastmile_qr_scan", "android": "https://dc.lft.to/lastmile_qr_scan"}}, {"name": "7d77c882b554413f0c16f9712c8f0c09", "fusion_lat": 0.0, "type": "electric_scooter", "lat": 38.93452583333333, "is_reserved": 0, "is_disabled": 0, "fusion_lon": 0.0, "bike_id": "7d77c882b554413f0c16f9712c8f0c09", "lon": -77.03219333333334, "rental_uris": {"ios": "https://dc.lft.to/lastmile_qr_scan", "android": "https://dc.lft.to/lastmile_qr_scan"}}, {"name": "f5aa8d358355570a198c39b0ef2a18d7", "fusion_lat": 0.0, "type": "electric_scooter", "lat": 38.9125775, "is_reserved": 0, "is_disabled": 0, "fusion_lon": 0.0, "bike_id": "f5aa8d358355570a198c39b0ef2a18d7", "lon": -77.00957483333333, "rental_uris": {"ios": "https://dc.lft.to/lastmile_qr_scan", "android": "https://dc.lft.to/lastmile_qr_scan"}}, {"name": "ec880e05d3c036aeeb9f7c2aad034241", "fusion_lat": 0.0, "type": "electric_bike", "lat": 38.96623566666667, "is_reserved": 0, "is_disabled": 0, "fusion_lon": 0.0, "bike_id": "ec880e05d3c036aeeb9f7c2aad034241", "lon": -76.97669616666667, "rental_uris": {"ios": "https://dc.lft.to/lastmile_qr_scan", "android": "https://dc.lft.to/lastmile_qr_scan"}}, {"name": "1eb6f3fb57cf9dd73f13bcee2a565437", "fusion_lat": 0.0, "type": "electric_scooter", "lat": 38.91936183333333, "is_reserved": 0, "is_disabled": 0, "fusion_lon": 0.0, "bike_id": "1eb6f3fb57cf9dd73f13bcee2a565437", "lon": -77.0343465, "rental_uris": {"ios": "https://dc.lft.to/lastmile_qr_scan", "android": "https://dc.lft.to/lastmile_qr_scan"}}, {"name": "1330f279cd347608264b7e7994673182", "fusion_lat": 0.0, "type": "electric_scooter", "lat": 38.88361166666667, "is_reserved": 0, "is_disabled": 0, "fusion_lon": 0.0, "bike_id": "1330f279cd347608264b7e7994673182", "lon": -77.03173216666667, "rental_uris": {"ios": "https://dc.lft.to/lastmile_qr_scan", "android": "https://dc.lft.to/lastmile_qr_scan"}}, {"name": "31bc142fe85646ad79dad517dc0fc541", "fusion_lat": 0.0, "type": "electric_scooter", "lat": 38.9198485, "is_reserved": 0, "is_disabled": 0, "fusion_lon": 0.0, "bike_id": "31bc142fe85646ad79dad517dc0fc541", "lon": -77.04179533333334, "rental_uris": {"ios": "https://dc.lft.to/lastmile_qr_scan", "android": "https://dc.lft.to/lastmile_qr_scan"}}, {"name": "9ddd68d2d78922f6daeabf8bcbc34f31", "fusion_lat": 0.0, "type": "electric_scooter", "lat": 38.916759, "is_reserved": 0, "is_disabled": 0, "fusion_lon": 0.0, "bike_id": "9ddd68d2d78922f6daeabf8bcbc34f31", "lon": -77.02974033333334, "rental_uris": {"ios": "https://dc.lft.to/lastmile_qr_scan", "android": "https://dc.lft.to/lastmile_qr_scan"}}, {"name": "f89ffcf1c49a9f796db7b0393a99efdb", "fusion_lat": 0.0, "type": "electric_scooter", "lat": 38.887395833333336, "is_reserved": 0, "is_disabled": 0, "fusion_lon": 0.0, "bike_id": "f89ffcf1c49a9f796db7b0393a99efdb", "lon": -76.99643583333334, "rental_uris": {"ios": "https://dc.lft.to/lastmile_qr_scan", "android": "https://dc.lft.to/lastmile_qr_scan"}}, {"name": "2ab751244ae2cb2b45704b6e13a06991", "fusion_lat": 0.0, "type": "electric_scooter", "lat": 38.907405, "is_reserved": 0, "is_disabled": 0, "fusion_lon": 0.0, "bike_id": "2ab751244ae2cb2b45704b6e13a06991", "lon": -77.0452465, "rental_uris": {"ios": "https://dc.lft.to/lastmile_qr_scan", "android": "https://dc.lft.to/lastmile_qr_scan"}}, {"name": "585bbf5ddf0b0b585f70c121892479ef", "fusion_lat": 0.0, "type": "electric_bike", "lat": 38.8461055, "is_reserved": 0, "is_disabled": 0, "fusion_lon": 0.0, "bike_id": "585bbf5ddf0b0b585f70c121892479ef", "lon": -76.9783125, "rental_uris": {"ios": "https://dc.lft.to/lastmile_qr_scan", "android": "https://dc.lft.to/lastmile_qr_scan"}}, {"name": "61728b123a7f8bfa497f8f4b98921c9b", "fusion_lat": 0.0, "type": "electric_scooter", "lat": 38.92806433333333, "is_reserved": 0, "is_disabled": 0, "fusion_lon": 0.0, "bike_id": "61728b123a7f8bfa497f8f4b98921c9b", "lon": -77.01400283333334, "rental_uris": {"ios": "https://dc.lft.to/lastmile_qr_scan", "android": "https://dc.lft.to/lastmile_qr_scan"}}, {"name": "be24d2ca925989991e734f12e7358bb6", "fusion_lat": 0.0, "type": "electric_scooter", "lat": 38.8849015, "is_reserved": 0, "is_disabled": 0, "fusion_lon": 0.0, "bike_id": "be24d2ca925989991e734f12e7358bb6", "lon": -77.00714366666666, "rental_uris": {"ios": "https://dc.lft.to/lastmile_qr_scan", "android": "https://dc.lft.to/lastmile_qr_scan"}}, {"name": "dab848c44fa4586e9adc570058a0dd33", "fusion_lat": 0.0, "type": "electric_scooter", "lat": 38.90134833333333, "is_reserved": 0, "is_disabled": 0, "fusion_lon": 0.0, "bike_id": "dab848c44fa4586e9adc570058a0dd33", "lon": -77.017892, "rental_uris": {"ios": "https://dc.lft.to/lastmile_qr_scan", "android": "https://dc.lft.to/lastmile_qr_scan"}}, {"name": "3d2c4fccc7616325e68b54443f2b5c73", "fusion_lat": 0.0, "type": "electric_scooter", "lat": 38.90143116666667, "is_reserved": 0, "is_disabled": 0, "fusion_lon": 0.0, "bike_id": "3d2c4fccc7616325e68b54443f2b5c73", "lon": -77.04394916666666, "rental_uris": {"ios": "https://dc.lft.to/lastmile_qr_scan", "android": "https://dc.lft.to/lastmile_qr_scan"}}, {"name": "c48277d1644dfc693b6fcb9ecdead592", "fusion_lat": 0.0, "type": "electric_scooter", "lat": 38.88730416666667, "is_reserved": 0, "is_disabled": 0, "fusion_lon": 0.0, "bike_id": "c48277d1644dfc693b6fcb9ecdead592", "lon": -77.017687, "rental_uris": {"ios": "https://dc.lft.to/lastmile_qr_scan", "android": "https://dc.lft.to/lastmile_qr_scan"}}, {"name": "0fd00e9d46387331c44c94077b990d17", "fusion_lat": 0.0, "type": "electric_scooter", "lat": 38.91426283333333, "is_reserved": 0, "is_disabled": 0, "fusion_lon": 0.0, "bike_id": "0fd00e9d46387331c44c94077b990d17", "lon": -77.03185383333333, "rental_uris": {"ios": "https://dc.lft.to/lastmile_qr_scan", "android": "https://dc.lft.to/lastmile_qr_scan"}}, {"name": "62bbd394b8f98cb59c8d2797b1375c7a", "fusion_lat": 0.0, "type": "electric_scooter", "lat": 38.911066, "is_reserved": 0, "is_disabled": 0, "fusion_lon": 0.0, "bike_id": "62bbd394b8f98cb59c8d2797b1375c7a", "lon": -77.04292116666667, "rental_uris": {"ios": "https://dc.lft.to/lastmile_qr_scan", "android": "https://dc.lft.to/lastmile_qr_scan"}}, {"name": "ffae3291ff1639cb6b6e29e9398418c8", "fusion_lat": 0.0, "type": "electric_scooter", "lat": 38.919833833333335, "is_reserved": 0, "is_disabled": 0, "fusion_lon": 0.0, "bike_id": "ffae3291ff1639cb6b6e29e9398418c8", "lon": -77.02399883333334, "rental_uris": {"ios": "https://dc.lft.to/lastmile_qr_scan", "android": "https://dc.lft.to/lastmile_qr_scan"}}, {"name": "b6fc093a2a44fdb1c334d7bed9d453be", "fusion_lat": 0.0, "type": "electric_scooter", "lat": 38.905494166666664, "is_reserved": 0, "is_disabled": 0, "fusion_lon": 0.0, "bike_id": "b6fc093a2a44fdb1c334d7bed9d453be", "lon": -77.00523966666667, "rental_uris": {"ios": "https://dc.lft.to/lastmile_qr_scan", "android": "https://dc.lft.to/lastmile_qr_scan"}}, {"name": "975164ebfd2dc4a2b1b13fb7c08bbbbb", "fusion_lat": 0.0, "type": "electric_bike", "lat": 39.088967, "is_reserved": 0, "is_disabled": 0, "fusion_lon": 0.0, "bike_id": "975164ebfd2dc4a2b1b13fb7c08bbbbb", "lon": -77.17850666666666, "rental_uris": {"ios": "https://dc.lft.to/lastmile_qr_scan", "android": "https://dc.lft.to/lastmile_qr_scan"}}, {"name": "a32a49640aaa7c0776f3114a605c56da", "fusion_lat": 0.0, "type": "electric_scooter", "lat": 38.87567266666667, "is_reserved": 0, "is_disabled": 0, "fusion_lon": 0.0, "bike_id": "a32a49640aaa7c0776f3114a605c56da", "lon": -77.00587, "rental_uris": {"ios": "https://dc.lft.to/lastmile_qr_scan", "android": "https://dc.lft.to/lastmile_qr_scan"}}, {"name": "03522b0cea3a899cef644c1319d5601f", "fusion_lat": 0.0, "type": "electric_scooter", "lat": 38.901182, "is_reserved": 0, "is_disabled": 0, "fusion_lon": 0.0, "bike_id": "03522b0cea3a899cef644c1319d5601f", "lon": -77.04645816666667, "rental_uris": {"ios": "https://dc.lft.to/lastmile_qr_scan", "android": "https://dc.lft.to/lastmile_qr_scan"}}, {"name": "13fd38b0354361278dcdfec84b5f4042", "fusion_lat": 0.0, "type": "electric_scooter", "lat": 38.92973716666667, "is_reserved": 0, "is_disabled": 0, "fusion_lon": 0.0, "bike_id": "13fd38b0354361278dcdfec84b5f4042", "lon": -77.02827616666667, "rental_uris": {"ios": "https://dc.lft.to/lastmile_qr_scan", "android": "https://dc.lft.to/lastmile_qr_scan"}}, {"name": "93c3e5676ae5a4f5d964276ee42522ce", "fusion_lat": 0.0, "type": "electric_scooter", "lat": 38.924980166666664, "is_reserved": 0, "is_disabled": 0, "fusion_lon": 0.0, "bike_id": "93c3e5676ae5a4f5d964276ee42522ce", "lon": -77.0216375, "rental_uris": {"ios": "https://dc.lft.to/lastmile_qr_scan", "android": "https://dc.lft.to/lastmile_qr_scan"}}, {"name": "4f14f03392feeb7c353ec55cdbc423ac", "fusion_lat": 0.0, "type": "electric_scooter", "lat": 38.9285935, "is_reserved": 0, "is_disabled": 0, "fusion_lon": 0.0, "bike_id": "4f14f03392feeb7c353ec55cdbc423ac", "lon": -77.01364133333334, "rental_uris": {"ios": "https://dc.lft.to/lastmile_qr_scan", "android": "https://dc.lft.to/lastmile_qr_scan"}}, {"name": "a50197ccabacb2983a6823e2e73444cb", "fusion_lat": 0.0, "type": "electric_scooter", "lat": 38.89646583333333, "is_reserved": 0, "is_disabled": 0, "fusion_lon": 0.0, "bike_id": "a50197ccabacb2983a6823e2e73444cb", "lon": -77.00909933333334, "rental_uris": {"ios": "https://dc.lft.to/lastmile_qr_scan", "android": "https://dc.lft.to/lastmile_qr_scan"}}, {"name": "48b3d52c87ce8e7c780aee33b383fc19", "fusion_lat": 0.0, "type": "electric_scooter", "lat": 38.90384683333333, "is_reserved": 0, "is_disabled": 0, "fusion_lon": 0.0, "bike_id": "48b3d52c87ce8e7c780aee33b383fc19", "lon": -77.04543866666667, "rental_uris": {"ios": "https://dc.lft.to/lastmile_qr_scan", "android": "https://dc.lft.to/lastmile_qr_scan"}}, {"name": "c36929a36beade42e9b2b17fb5a4a81a", "fusion_lat": 0.0, "type": "electric_bike", "lat": 38.9222805, "is_reserved": 0, "is_disabled": 0, "fusion_lon": 0.0, "bike_id": "c36929a36beade42e9b2b17fb5a4a81a", "lon": -77.02829983333334, "rental_uris": {"ios": "https://dc.lft.to/lastmile_qr_scan", "android": "https://dc.lft.to/lastmile_qr_scan"}}, {"name": "51a25a71f04b4f75f8ef8417889fdc83", "fusion_lat": 0.0, "type": "electric_scooter", "lat": 38.923451666666665, "is_reserved": 0, "is_disabled": 0, "fusion_lon": 0.0, "bike_id": "51a25a71f04b4f75f8ef8417889fdc83", "lon": -77.0434495, "rental_uris": {"ios": "https://dc.lft.to/lastmile_qr_scan", "android": "https://dc.lft.to/lastmile_qr_scan"}}, {"name": "2059d6dcbc0c9dee3b155b2cd31484c5", "fusion_lat": 0.0, "type": "electric_scooter", "lat": 38.938766666666666, "is_reserved": 0, "is_disabled": 0, "fusion_lon": 0.0, "bike_id": "2059d6dcbc0c9dee3b155b2cd31484c5", "lon": -77.02918716666667, "rental_uris": {"ios": "https://dc.lft.to/lastmile_qr_scan", "android": "https://dc.lft.to/lastmile_qr_scan"}}, {"name": "b57596c143a932fad362ec480e7ebf7f", "fusion_lat": 0.0, "type": "electric_scooter", "lat": 38.87294, "is_reserved": 0, "is_disabled": 0, "fusion_lon": 0.0, "bike_id": "b57596c143a932fad362ec480e7ebf7f", "lon": -77.00156816666667, "rental_uris": {"ios": "https://dc.lft.to/lastmile_qr_scan", "android": "https://dc.lft.to/lastmile_qr_scan"}}, {"name": "856713a50cae7f67e904b5dae03211d8", "fusion_lat": 0.0, "type": "electric_scooter", "lat": 38.9140585, "is_reserved": 0, "is_disabled": 0, "fusion_lon": 0.0, "bike_id": "856713a50cae7f67e904b5dae03211d8", "lon": -77.04566433333333, "rental_uris": {"ios": "https://dc.lft.to/lastmile_qr_scan", "android": "https://dc.lft.to/lastmile_qr_scan"}}, {"name": "05af8a8c1edbc19ba61e031d09e9b80e", "fusion_lat": 0.0, "type": "electric_bike", "lat": 38.945469, "is_reserved": 0, "is_disabled": 0, "fusion_lon": 0.0, "bike_id": "05af8a8c1edbc19ba61e031d09e9b80e", "lon": -76.89536416666667, "rental_uris": {"ios": "https://dc.lft.to/lastmile_qr_scan", "android": "https://dc.lft.to/lastmile_qr_scan"}}, {"name": "8eeddcc67bb6056b2dca783aa36598dc", "fusion_lat": 0.0, "type": "electric_scooter", "lat": 38.9057595, "is_reserved": 0, "is_disabled": 0, "fusion_lon": 0.0, "bike_id": "8eeddcc67bb6056b2dca783aa36598dc", "lon": -77.022068, "rental_uris": {"ios": "https://dc.lft.to/lastmile_qr_scan", "android": "https://dc.lft.to/lastmile_qr_scan"}}, {"name": "53944fcac826c6bd889b1131e729ef52", "fusion_lat": 0.0, "type": "electric_scooter", "lat": 38.90005883333333, "is_reserved": 0, "is_disabled": 0, "fusion_lon": 0.0, "bike_id": "53944fcac826c6bd889b1131e729ef52", "lon": -76.995655, "rental_uris": {"ios": "https://dc.lft.to/lastmile_qr_scan", "android": "https://dc.lft.to/lastmile_qr_scan"}}, {"name": "dff284cfbb8eb26ed01ceec981d20a09", "fusion_lat": 0.0, "type": "electric_bike", "lat": 38.97329, "is_reserved": 0, "is_disabled": 0, "fusion_lon": 0.0, "bike_id": "dff284cfbb8eb26ed01ceec981d20a09", "lon": -77.0215, "rental_uris": {"ios": "https://dc.lft.to/lastmile_qr_scan", "android": "https://dc.lft.to/lastmile_qr_scan"}}, {"name": "c6e50b6da218203a5b51bbf091bcbfef", "fusion_lat": 0.0, "type": "electric_scooter", "lat": 38.917131833333336, "is_reserved": 0, "is_disabled": 0, "fusion_lon": 0.0, "bike_id": "c6e50b6da218203a5b51bbf091bcbfef", "lon": -77.03868183333333, "rental_uris": {"ios": "https://dc.lft.to/lastmile_qr_scan", "android": "https://dc.lft.to/lastmile_qr_scan"}}, {"name": "da747565b60593d21535caa137b5f51c", "fusion_lat": 0.0, "type": "electric_scooter", "lat": 38.893409, "is_reserved": 0, "is_disabled": 0, "fusion_lon": 0.0, "bike_id": "da747565b60593d21535caa137b5f51c", "lon": -76.99152616666667, "rental_uris": {"ios": "https://dc.lft.to/lastmile_qr_scan", "android": "https://dc.lft.to/lastmile_qr_scan"}}, {"name": "c742d3b95f282880ef67338e63cf6505", "fusion_lat": 0.0, "type": "electric_scooter", "lat": 38.890131, "is_reserved": 0, "is_disabled": 0, "fusion_lon": 0.0, "bike_id": "c742d3b95f282880ef67338e63cf6505", "lon": -76.9375075, "rental_uris": {"ios": "https://dc.lft.to/lastmile_qr_scan", "android": "https://dc.lft.to/lastmile_qr_scan"}}, {"name": "1b6a58095b44114f4233c40f5cf97b88", "fusion_lat": 0.0, "type": "electric_scooter", "lat": 38.91937016666667, "is_reserved": 0, "is_disabled": 0, "fusion_lon": 0.0, "bike_id": "1b6a58095b44114f4233c40f5cf97b88", "lon": -77.0706595, "rental_uris": {"ios": "https://dc.lft.to/lastmile_qr_scan", "android": "https://dc.lft.to/lastmile_qr_scan"}}, {"name": "652397c3a4c4a94b0bdc92a16247e131", "fusion_lat": 0.0, "type": "electric_scooter", "lat": 38.894827666666664, "is_reserved": 0, "is_disabled": 0, "fusion_lon": 0.0, "bike_id": "652397c3a4c4a94b0bdc92a16247e131", "lon": -76.94873333333334, "rental_uris": {"ios": "https://dc.lft.to/lastmile_qr_scan", "android": "https://dc.lft.to/lastmile_qr_scan"}}, {"name": "810fcadbb75339645a077bcfd143a7de", "fusion_lat": 0.0, "type": "electric_scooter", "lat": 38.896122, "is_reserved": 0, "is_disabled": 0, "fusion_lon": 0.0, "bike_id": "810fcadbb75339645a077bcfd143a7de", "lon": -77.0120765, "rental_uris": {"ios": "https://dc.lft.to/lastmile_qr_scan", "android": "https://dc.lft.to/lastmile_qr_scan"}}, {"name": "7b53b2d78dd43d0895aacbbef9d279c7", "fusion_lat": 0.0, "type": "electric_scooter", "lat": 38.90546033333333, "is_reserved": 0, "is_disabled": 0, "fusion_lon": 0.0, "bike_id": "7b53b2d78dd43d0895aacbbef9d279c7", "lon": -77.047437, "rental_uris": {"ios": "https://dc.lft.to/lastmile_qr_scan", "android": "https://dc.lft.to/lastmile_qr_scan"}}, {"name": "49104d0a251fc614e23a973f137ec567", "fusion_lat": 0.0, "type": "electric_scooter", "lat": 38.9024095, "is_reserved": 0, "is_disabled": 0, "fusion_lon": 0.0, "bike_id": "49104d0a251fc614e23a973f137ec567", "lon": -77.05384316666667, "rental_uris": {"ios": "https://dc.lft.to/lastmile_qr_scan", "android": "https://dc.lft.to/lastmile_qr_scan"}}, {"name": "73c3231bfe700f46767304043969564f", "fusion_lat": 0.0, "type": "electric_scooter", "lat": 38.832309, "is_reserved": 0, "is_disabled": 0, "fusion_lon": 0.0, "bike_id": "73c3231bfe700f46767304043969564f", "lon": -76.98887466666666, "rental_uris": {"ios": "https://dc.lft.to/lastmile_qr_scan", "android": "https://dc.lft.to/lastmile_qr_scan"}}, {"name": "f39fa10d263215ea27a95f805763856b", "fusion_lat": 0.0, "type": "electric_scooter", "lat": 38.89587133333333, "is_reserved": 0, "is_disabled": 0, "fusion_lon": 0.0, "bike_id": "f39fa10d263215ea27a95f805763856b", "lon": -77.04269416666666, "rental_uris": {"ios": "https://dc.lft.to/lastmile_qr_scan", "android": "https://dc.lft.to/lastmile_qr_scan"}}, {"name": "83e3af4e10cca7c0dc1e2bbec8270359", "fusion_lat": 0.0, "type": "electric_scooter", "lat": 38.9022845, "is_reserved": 0, "is_disabled": 0, "fusion_lon": 0.0, "bike_id": "83e3af4e10cca7c0dc1e2bbec8270359", "lon": -77.044562, "rental_uris": {"ios": "https://dc.lft.to/lastmile_qr_scan", "android": "https://dc.lft.to/lastmile_qr_scan"}}, {"name": "6981e80c450d1f5dc4aea854dd56f79b", "fusion_lat": 0.0, "type": "electric_bike", "lat": 38.97519533333333, "is_reserved": 0, "is_disabled": 0, "fusion_lon": 0.0, "bike_id": "6981e80c450d1f5dc4aea854dd56f79b", "lon": -77.01687983333333, "rental_uris": {"ios": "https://dc.lft.to/lastmile_qr_scan", "android": "https://dc.lft.to/lastmile_qr_scan"}}, {"name": "1b8d5a54d7f81680580eff1947801d87", "fusion_lat": 0.0, "type": "electric_scooter", "lat": 38.92748533333334, "is_reserved": 0, "is_disabled": 0, "fusion_lon": 0.0, "bike_id": "1b8d5a54d7f81680580eff1947801d87", "lon": -77.024221, "rental_uris": {"ios": "https://dc.lft.to/lastmile_qr_scan", "android": "https://dc.lft.to/lastmile_qr_scan"}}, {"name": "e46b4b028a7e08a7fec5a7e77538448f", "fusion_lat": 0.0, "type": "electric_bike", "lat": 38.92853433333333, "is_reserved": 0, "is_disabled": 0, "fusion_lon": 0.0, "bike_id": "e46b4b028a7e08a7fec5a7e77538448f", "lon": -77.2223165, "rental_uris": {"ios": "https://dc.lft.to/lastmile_qr_scan", "android": "https://dc.lft.to/lastmile_qr_scan"}}, {"name": "20f1b958195abf0b54caadad8d243516", "fusion_lat": 0.0, "type": "electric_bike", "lat": 39.053128, "is_reserved": 0, "is_disabled": 0, "fusion_lon": 0.0, "bike_id": "20f1b958195abf0b54caadad8d243516", "lon": -77.04774533333334, "rental_uris": {"ios": "https://dc.lft.to/lastmile_qr_scan", "android": "https://dc.lft.to/lastmile_qr_scan"}}, {"name": "51e33353115d1becb9501635e44afb79", "fusion_lat": 0.0, "type": "electric_bike", "lat": 38.935213166666664, "is_reserved": 0, "is_disabled": 0, "fusion_lon": 0.0, "bike_id": "51e33353115d1becb9501635e44afb79", "lon": -76.95064216666667, "rental_uris": {"ios": "https://dc.lft.to/lastmile_qr_scan", "android": "https://dc.lft.to/lastmile_qr_scan"}}, {"name": "ec29a8abcb63383c3e96e9fda1a2d093", "fusion_lat": 0.0, "type": "electric_bike", "lat": 39.08855483333333, "is_reserved": 0, "is_disabled": 0, "fusion_lon": 0.0, "bike_id": "ec29a8abcb63383c3e96e9fda1a2d093", "lon": -77.17840516666666, "rental_uris": {"ios": "https://dc.lft.to/lastmile_qr_scan", "android": "https://dc.lft.to/lastmile_qr_scan"}}, {"name": "20e300e38aab9b0b573d345a5773e988", "fusion_lat": 0.0, "type": "electric_scooter", "lat": 38.877862, "is_reserved": 0, "is_disabled": 0, "fusion_lon": 0.0, "bike_id": "20e300e38aab9b0b573d345a5773e988", "lon": -76.99411166666667, "rental_uris": {"ios": "https://dc.lft.to/lastmile_qr_scan", "android": "https://dc.lft.to/lastmile_qr_scan"}}, {"name": "57afc5f79312c4646028a96b1f1d9fe1", "fusion_lat": 0.0, "type": "electric_scooter", "lat": 38.86690133333333, "is_reserved": 0, "is_disabled": 0, "fusion_lon": 0.0, "bike_id": "57afc5f79312c4646028a96b1f1d9fe1", "lon": -76.98903983333334, "rental_uris": {"ios": "https://dc.lft.to/lastmile_qr_scan", "android": "https://dc.lft.to/lastmile_qr_scan"}}, {"name": "9e5743b353903665f1405b8ac3ff48fe", "fusion_lat": 0.0, "type": "electric_scooter", "lat": 38.906778833333334, "is_reserved": 0, "is_disabled": 0, "fusion_lon": 0.0, "bike_id": "9e5743b353903665f1405b8ac3ff48fe", "lon": -77.038397, "rental_uris": {"ios": "https://dc.lft.to/lastmile_qr_scan", "android": "https://dc.lft.to/lastmile_qr_scan"}}, {"name": "5b47f59d81c05fa212dc21a43ccb3cb9", "fusion_lat": 0.0, "type": "electric_scooter", "lat": 38.876618, "is_reserved": 0, "is_disabled": 0, "fusion_lon": 0.0, "bike_id": "5b47f59d81c05fa212dc21a43ccb3cb9", "lon": -77.00064483333334, "rental_uris": {"ios": "https://dc.lft.to/lastmile_qr_scan", "android": "https://dc.lft.to/lastmile_qr_scan"}}, {"name": "553a744f52cf4014e126df4ea7a0edd0", "fusion_lat": 0.0, "type": "electric_scooter", "lat": 38.9026795, "is_reserved": 0, "is_disabled": 0, "fusion_lon": 0.0, "bike_id": "553a744f52cf4014e126df4ea7a0edd0", "lon": -76.98713783333334, "rental_uris": {"ios": "https://dc.lft.to/lastmile_qr_scan", "android": "https://dc.lft.to/lastmile_qr_scan"}}, {"name": "233659e09c2d610eaa7da955c7270db6", "fusion_lat": 0.0, "type": "electric_scooter", "lat": 38.91134233333333, "is_reserved": 0, "is_disabled": 0, "fusion_lon": 0.0, "bike_id": "233659e09c2d610eaa7da955c7270db6", "lon": -77.038404, "rental_uris": {"ios": "https://dc.lft.to/lastmile_qr_scan", "android": "https://dc.lft.to/lastmile_qr_scan"}}, {"name": "a68760e1e8a890569fad823e7b19df62", "fusion_lat": 0.0, "type": "electric_scooter", "lat": 38.86537283333333, "is_reserved": 0, "is_disabled": 0, "fusion_lon": 0.0, "bike_id": "a68760e1e8a890569fad823e7b19df62", "lon": -76.98707816666666, "rental_uris": {"ios": "https://dc.lft.to/lastmile_qr_scan", "android": "https://dc.lft.to/lastmile_qr_scan"}}, {"name": "ce7b60931b5aadd3e39013504d9ad974", "fusion_lat": 0.0, "type": "electric_scooter", "lat": 38.90400416666667, "is_reserved": 0, "is_disabled": 0, "fusion_lon": 0.0, "bike_id": "ce7b60931b5aadd3e39013504d9ad974", "lon": -77.02182, "rental_uris": {"ios": "https://dc.lft.to/lastmile_qr_scan", "android": "https://dc.lft.to/lastmile_qr_scan"}}, {"name": "28e6576eed153145da6cb36b7c3d08b4", "fusion_lat": 0.0, "type": "electric_scooter", "lat": 38.91797916666667, "is_reserved": 0, "is_disabled": 0, "fusion_lon": 0.0, "bike_id": "28e6576eed153145da6cb36b7c3d08b4", "lon": -77.02711633333334, "rental_uris": {"ios": "https://dc.lft.to/lastmile_qr_scan", "android": "https://dc.lft.to/lastmile_qr_scan"}}, {"name": "16ce7a1b0b51cab2f70c284d0bc40876", "fusion_lat": 0.0, "type": "electric_scooter", "lat": 38.86503016666666, "is_reserved": 0, "is_disabled": 0, "fusion_lon": 0.0, "bike_id": "16ce7a1b0b51cab2f70c284d0bc40876", "lon": -76.99003083333334, "rental_uris": {"ios": "https://dc.lft.to/lastmile_qr_scan", "android": "https://dc.lft.to/lastmile_qr_scan"}}, {"name": "dc6ba6c19c339a712487eaf55eb5445a", "fusion_lat": 0.0, "type": "electric_scooter", "lat": 38.894673, "is_reserved": 0, "is_disabled": 0, "fusion_lon": 0.0, "bike_id": "dc6ba6c19c339a712487eaf55eb5445a", "lon": -77.03062083333333, "rental_uris": {"ios": "https://dc.lft.to/lastmile_qr_scan", "android": "https://dc.lft.to/lastmile_qr_scan"}}, {"name": "141cc45281a660dab7653941d0d0d24b", "fusion_lat": 0.0, "type": "electric_scooter", "lat": 38.89743983333334, "is_reserved": 0, "is_disabled": 0, "fusion_lon": 0.0, "bike_id": "141cc45281a660dab7653941d0d0d24b", "lon": -77.0198665, "rental_uris": {"ios": "https://dc.lft.to/lastmile_qr_scan", "android": "https://dc.lft.to/lastmile_qr_scan"}}, {"name": "696d7fa0e994fedc0d2d400b68cfe64b", "fusion_lat": 0.0, "type": "electric_scooter", "lat": 38.905735, "is_reserved": 0, "is_disabled": 0, "fusion_lon": 0.0, "bike_id": "696d7fa0e994fedc0d2d400b68cfe64b", "lon": -77.022179, "rental_uris": {"ios": "https://dc.lft.to/lastmile_qr_scan", "android": "https://dc.lft.to/lastmile_qr_scan"}}, {"name": "022b05d05e27ece1ddc69859d99fa203", "fusion_lat": 0.0, "type": "electric_scooter", "lat": 38.876592333333335, "is_reserved": 0, "is_disabled": 0, "fusion_lon": 0.0, "bike_id": "022b05d05e27ece1ddc69859d99fa203", "lon": -77.0157195, "rental_uris": {"ios": "https://dc.lft.to/lastmile_qr_scan", "android": "https://dc.lft.to/lastmile_qr_scan"}}, {"name": "12219c725aeeb6ad60c54bc048973822", "fusion_lat": 0.0, "type": "electric_scooter", "lat": 38.919901, "is_reserved": 0, "is_disabled": 0, "fusion_lon": 0.0, "bike_id": "12219c725aeeb6ad60c54bc048973822", "lon": -77.02402066666667, "rental_uris": {"ios": "https://dc.lft.to/lastmile_qr_scan", "android": "https://dc.lft.to/lastmile_qr_scan"}}, {"name": "3e94af829e90f0910e13c252c4ce1340", "fusion_lat": 0.0, "type": "electric_scooter", "lat": 38.91122166666667, "is_reserved": 0, "is_disabled": 0, "fusion_lon": 0.0, "bike_id": "3e94af829e90f0910e13c252c4ce1340", "lon": -77.0220095, "rental_uris": {"ios": "https://dc.lft.to/lastmile_qr_scan", "android": "https://dc.lft.to/lastmile_qr_scan"}}, {"name": "c896791abf7f07a4103143bdaf5a4419", "fusion_lat": 0.0, "type": "electric_scooter", "lat": 38.8696025, "is_reserved": 0, "is_disabled": 0, "fusion_lon": 0.0, "bike_id": "c896791abf7f07a4103143bdaf5a4419", "lon": -77.01377916666667, "rental_uris": {"ios": "https://dc.lft.to/lastmile_qr_scan", "android": "https://dc.lft.to/lastmile_qr_scan"}}, {"name": "a61c5a23599f03872f47935882056955", "fusion_lat": 0.0, "type": "electric_scooter", "lat": 38.9312905, "is_reserved": 0, "is_disabled": 0, "fusion_lon": 0.0, "bike_id": "a61c5a23599f03872f47935882056955", "lon": -77.02824083333333, "rental_uris": {"ios": "https://dc.lft.to/lastmile_qr_scan", "android": "https://dc.lft.to/lastmile_qr_scan"}}, {"name": "517626a8386ec2488450c49ed4b038c3", "fusion_lat": 0.0, "type": "electric_scooter", "lat": 38.89196583333333, "is_reserved": 0, "is_disabled": 0, "fusion_lon": 0.0, "bike_id": "517626a8386ec2488450c49ed4b038c3", "lon": -77.00293016666667, "rental_uris": {"ios": "https://dc.lft.to/lastmile_qr_scan", "android": "https://dc.lft.to/lastmile_qr_scan"}}, {"name": "8a73a5d299bd827fbaf44278b2883989", "fusion_lat": 0.0, "type": "electric_scooter", "lat": 38.901378, "is_reserved": 0, "is_disabled": 0, "fusion_lon": 0.0, "bike_id": "8a73a5d299bd827fbaf44278b2883989", "lon": -76.99746533333334, "rental_uris": {"ios": "https://dc.lft.to/lastmile_qr_scan", "android": "https://dc.lft.to/lastmile_qr_scan"}}, {"name": "78d11a5b7f3e28d37e0e9024742e8394", "fusion_lat": 0.0, "type": "electric_scooter", "lat": 38.91420566666667, "is_reserved": 0, "is_disabled": 0, "fusion_lon": 0.0, "bike_id": "78d11a5b7f3e28d37e0e9024742e8394", "lon": -77.0318615, "rental_uris": {"ios": "https://dc.lft.to/lastmile_qr_scan", "android": "https://dc.lft.to/lastmile_qr_scan"}}, {"name": "9f9110cc1b8a7baa5d7f3e4f46719335", "fusion_lat": 0.0, "type": "electric_scooter", "lat": 38.89573166666667, "is_reserved": 0, "is_disabled": 0, "fusion_lon": 0.0, "bike_id": "9f9110cc1b8a7baa5d7f3e4f46719335", "lon": -76.94877083333333, "rental_uris": {"ios": "https://dc.lft.to/lastmile_qr_scan", "android": "https://dc.lft.to/lastmile_qr_scan"}}, {"name": "eaf2000086e4f2bd60ed07e3770a76e5", "fusion_lat": 0.0, "type": "electric_scooter", "lat": 38.89621233333333, "is_reserved": 0, "is_disabled": 0, "fusion_lon": 0.0, "bike_id": "eaf2000086e4f2bd60ed07e3770a76e5", "lon": -77.0283605, "rental_uris": {"ios": "https://dc.lft.to/lastmile_qr_scan", "android": "https://dc.lft.to/lastmile_qr_scan"}}, {"name": "b66a4dd379bbdaceebb96d92a5dbf2ac", "fusion_lat": 0.0, "type": "electric_scooter", "lat": 38.874255166666664, "is_reserved": 0, "is_disabled": 0, "fusion_lon": 0.0, "bike_id": "b66a4dd379bbdaceebb96d92a5dbf2ac", "lon": -77.0206145, "rental_uris": {"ios": "https://dc.lft.to/lastmile_qr_scan", "android": "https://dc.lft.to/lastmile_qr_scan"}}, {"name": "4661e96aa03d81d773d7d32bdfcc1bb1", "fusion_lat": 0.0, "type": "electric_scooter", "lat": 38.91857783333333, "is_reserved": 0, "is_disabled": 0, "fusion_lon": 0.0, "bike_id": "4661e96aa03d81d773d7d32bdfcc1bb1", "lon": -77.04593166666666, "rental_uris": {"ios": "https://dc.lft.to/lastmile_qr_scan", "android": "https://dc.lft.to/lastmile_qr_scan"}}, {"name": "9f196d756d41c83f41cab7a3bcd4d9f0", "fusion_lat": 0.0, "type": "electric_scooter", "lat": 38.893296166666666, "is_reserved": 0, "is_disabled": 0, "fusion_lon": 0.0, "bike_id": "9f196d756d41c83f41cab7a3bcd4d9f0", "lon": -76.92895433333334, "rental_uris": {"ios": "https://dc.lft.to/lastmile_qr_scan", "android": "https://dc.lft.to/lastmile_qr_scan"}}, {"name": "ce40392809a1cd8178d988ad7f11bf6c", "fusion_lat": 0.0, "type": "electric_scooter", "lat": 38.92793233333333, "is_reserved": 0, "is_disabled": 0, "fusion_lon": 0.0, "bike_id": "ce40392809a1cd8178d988ad7f11bf6c", "lon": -77.03248516666666, "rental_uris": {"ios": "https://dc.lft.to/lastmile_qr_scan", "android": "https://dc.lft.to/lastmile_qr_scan"}}, {"name": "5517161d78aece85a95ff9a16dfddaf9", "fusion_lat": 0.0, "type": "electric_scooter", "lat": 38.86369916666666, "is_reserved": 0, "is_disabled": 0, "fusion_lon": 0.0, "bike_id": "5517161d78aece85a95ff9a16dfddaf9", "lon": -77.013527, "rental_uris": {"ios": "https://dc.lft.to/lastmile_qr_scan", "android": "https://dc.lft.to/lastmile_qr_scan"}}, {"name": "b3994186fa3454d479a658fc4fad8456", "fusion_lat": 0.0, "type": "electric_scooter", "lat": 38.898380833333334, "is_reserved": 0, "is_disabled": 0, "fusion_lon": 0.0, "bike_id": "b3994186fa3454d479a658fc4fad8456", "lon": -77.00752633333333, "rental_uris": {"ios": "https://dc.lft.to/lastmile_qr_scan", "android": "https://dc.lft.to/lastmile_qr_scan"}}, {"name": "e2fb00757514f447cc82867d81cc2d3e", "fusion_lat": 0.0, "type": "electric_scooter", "lat": 38.9033765, "is_reserved": 0, "is_disabled": 0, "fusion_lon": 0.0, "bike_id": "e2fb00757514f447cc82867d81cc2d3e", "lon": -77.0259605, "rental_uris": {"ios": "https://dc.lft.to/lastmile_qr_scan", "android": "https://dc.lft.to/lastmile_qr_scan"}}, {"name": "d12df96e2783928519af2fc9f1e3c359", "fusion_lat": 0.0, "type": "electric_bike", "lat": 38.93060233333333, "is_reserved": 0, "is_disabled": 0, "fusion_lon": 0.0, "bike_id": "d12df96e2783928519af2fc9f1e3c359", "lon": -76.97328066666667, "rental_uris": {"ios": "https://dc.lft.to/lastmile_qr_scan", "android": "https://dc.lft.to/lastmile_qr_scan"}}, {"name": "a64a39a67fbe34cf4630970ecffe67ce", "fusion_lat": 0.0, "type": "electric_scooter", "lat": 38.885342666666666, "is_reserved": 0, "is_disabled": 0, "fusion_lon": 0.0, "bike_id": "a64a39a67fbe34cf4630970ecffe67ce", "lon": -77.03359616666667, "rental_uris": {"ios": "https://dc.lft.to/lastmile_qr_scan", "android": "https://dc.lft.to/lastmile_qr_scan"}}, {"name": "9083f50e32fc52b67470fba72bc70359", "fusion_lat": 0.0, "type": "electric_bike", "lat": 38.903287166666665, "is_reserved": 0, "is_disabled": 0, "fusion_lon": 0.0, "bike_id": "9083f50e32fc52b67470fba72bc70359", "lon": -77.04534633333333, "rental_uris": {"ios": "https://dc.lft.to/lastmile_qr_scan", "android": "https://dc.lft.to/lastmile_qr_scan"}}, {"name": "fef07f14f9bbe51c01deca7629d940be", "fusion_lat": 0.0, "type": "electric_scooter", "lat": 38.900123, "is_reserved": 0, "is_disabled": 0, "fusion_lon": 0.0, "bike_id": "fef07f14f9bbe51c01deca7629d940be", "lon": -76.9852005, "rental_uris": {"ios": "https://dc.lft.to/lastmile_qr_scan", "android": "https://dc.lft.to/lastmile_qr_scan"}}, {"name": "eae2d3db62a101b1a228e63228b04275", "fusion_lat": 0.0, "type": "electric_scooter", "lat": 38.9319775, "is_reserved": 0, "is_disabled": 0, "fusion_lon": 0.0, "bike_id": "eae2d3db62a101b1a228e63228b04275", "lon": -77.027691, "rental_uris": {"ios": "https://dc.lft.to/lastmile_qr_scan", "android": "https://dc.lft.to/lastmile_qr_scan"}}, {"name": "a4d65838314ea202fa2804862eeb1b4d", "fusion_lat": 0.0, "type": "electric_scooter", "lat": 38.907917833333336, "is_reserved": 0, "is_disabled": 0, "fusion_lon": 0.0, "bike_id": "a4d65838314ea202fa2804862eeb1b4d", "lon": -77.03833316666666, "rental_uris": {"ios": "https://dc.lft.to/lastmile_qr_scan", "android": "https://dc.lft.to/lastmile_qr_scan"}}, {"name": "1381e6c744ce53f3b7bb69b005e4aba6", "fusion_lat": 0.0, "type": "electric_scooter", "lat": 38.886089, "is_reserved": 0, "is_disabled": 0, "fusion_lon": 0.0, "bike_id": "1381e6c744ce53f3b7bb69b005e4aba6", "lon": -76.978171, "rental_uris": {"ios": "https://dc.lft.to/lastmile_qr_scan", "android": "https://dc.lft.to/lastmile_qr_scan"}}, {"name": "aeff4140bd0fb1f6dcc8485c854de5d2", "fusion_lat": 0.0, "type": "electric_scooter", "lat": 38.910706166666664, "is_reserved": 0, "is_disabled": 0, "fusion_lon": 0.0, "bike_id": "aeff4140bd0fb1f6dcc8485c854de5d2", "lon": -77.02719016666667, "rental_uris": {"ios": "https://dc.lft.to/lastmile_qr_scan", "android": "https://dc.lft.to/lastmile_qr_scan"}}, {"name": "12f26949314cf1d96967a10e2b65b1bf", "fusion_lat": 0.0, "type": "electric_scooter", "lat": 38.8873715, "is_reserved": 0, "is_disabled": 0, "fusion_lon": 0.0, "bike_id": "12f26949314cf1d96967a10e2b65b1bf", "lon": -77.01532466666667, "rental_uris": {"ios": "https://dc.lft.to/lastmile_qr_scan", "android": "https://dc.lft.to/lastmile_qr_scan"}}, {"name": "1145c4eea6ce18d823429c7a9aefc15e", "fusion_lat": 0.0, "type": "electric_scooter", "lat": 38.918459, "is_reserved": 0, "is_disabled": 0, "fusion_lon": 0.0, "bike_id": "1145c4eea6ce18d823429c7a9aefc15e", "lon": -77.001759, "rental_uris": {"ios": "https://dc.lft.to/lastmile_qr_scan", "android": "https://dc.lft.to/lastmile_qr_scan"}}, {"name": "89dc744c4fdd9571bc94db72b20b0636", "fusion_lat": 0.0, "type": "electric_scooter", "lat": 38.905349333333334, "is_reserved": 0, "is_disabled": 0, "fusion_lon": 0.0, "bike_id": "89dc744c4fdd9571bc94db72b20b0636", "lon": -77.06270616666667, "rental_uris": {"ios": "https://dc.lft.to/lastmile_qr_scan", "android": "https://dc.lft.to/lastmile_qr_scan"}}, {"name": "c9eaf0c0b2c1e472a3d1bdce28f2af00", "fusion_lat": 0.0, "type": "electric_scooter", "lat": 38.9148455, "is_reserved": 0, "is_disabled": 0, "fusion_lon": 0.0, "bike_id": "c9eaf0c0b2c1e472a3d1bdce28f2af00", "lon": -77.021738, "rental_uris": {"ios": "https://dc.lft.to/lastmile_qr_scan", "android": "https://dc.lft.to/lastmile_qr_scan"}}, {"name": "31fd4b1a7a9822106862af1734d4ab00", "fusion_lat": 0.0, "type": "electric_scooter", "lat": 38.935487, "is_reserved": 0, "is_disabled": 0, "fusion_lon": 0.0, "bike_id": "31fd4b1a7a9822106862af1734d4ab00", "lon": -77.05982033333333, "rental_uris": {"ios": "https://dc.lft.to/lastmile_qr_scan", "android": "https://dc.lft.to/lastmile_qr_scan"}}, {"name": "cbc4f9486f46ae1f9df030019789540a", "fusion_lat": 0.0, "type": "electric_bike", "lat": 38.886334833333336, "is_reserved": 0, "is_disabled": 0, "fusion_lon": 0.0, "bike_id": "cbc4f9486f46ae1f9df030019789540a", "lon": -76.95478683333333, "rental_uris": {"ios": "https://dc.lft.to/lastmile_qr_scan", "android": "https://dc.lft.to/lastmile_qr_scan"}}, {"name": "a414cfe1fc38af9d37cd5c77f8ed522e", "fusion_lat": 0.0, "type": "electric_scooter", "lat": 38.925680666666665, "is_reserved": 0, "is_disabled": 0, "fusion_lon": 0.0, "bike_id": "a414cfe1fc38af9d37cd5c77f8ed522e", "lon": -77.02963866666667, "rental_uris": {"ios": "https://dc.lft.to/lastmile_qr_scan", "android": "https://dc.lft.to/lastmile_qr_scan"}}, {"name": "22e1b6593d66ce09287ad7e480d43cac", "fusion_lat": 0.0, "type": "electric_scooter", "lat": 38.936438333333335, "is_reserved": 0, "is_disabled": 0, "fusion_lon": 0.0, "bike_id": "22e1b6593d66ce09287ad7e480d43cac", "lon": -77.03461216666666, "rental_uris": {"ios": "https://dc.lft.to/lastmile_qr_scan", "android": "https://dc.lft.to/lastmile_qr_scan"}}, {"name": "ca0c1fc7d4d50d3a87e41f1cd5092bb2", "fusion_lat": 0.0, "type": "electric_scooter", "lat": 38.90198933333333, "is_reserved": 0, "is_disabled": 0, "fusion_lon": 0.0, "bike_id": "ca0c1fc7d4d50d3a87e41f1cd5092bb2", "lon": -77.02172183333333, "rental_uris": {"ios": "https://dc.lft.to/lastmile_qr_scan", "android": "https://dc.lft.to/lastmile_qr_scan"}}, {"name": "63c813ea684fbfc28e95c88fece79028", "fusion_lat": 0.0, "type": "electric_scooter", "lat": 38.9248215, "is_reserved": 0, "is_disabled": 0, "fusion_lon": 0.0, "bike_id": "63c813ea684fbfc28e95c88fece79028", "lon": -77.02757416666667, "rental_uris": {"ios": "https://dc.lft.to/lastmile_qr_scan", "android": "https://dc.lft.to/lastmile_qr_scan"}}, {"name": "48729dbd557fbdf9351227161aad564e", "fusion_lat": 0.0, "type": "electric_scooter", "lat": 38.912778833333334, "is_reserved": 0, "is_disabled": 0, "fusion_lon": 0.0, "bike_id": "48729dbd557fbdf9351227161aad564e", "lon": -77.035811, "rental_uris": {"ios": "https://dc.lft.to/lastmile_qr_scan", "android": "https://dc.lft.to/lastmile_qr_scan"}}, {"name": "7f68dc65fb0cabd21796c549f003d9d8", "fusion_lat": 0.0, "type": "electric_bike", "lat": 38.89835933333333, "is_reserved": 0, "is_disabled": 0, "fusion_lon": 0.0, "bike_id": "7f68dc65fb0cabd21796c549f003d9d8", "lon": -77.1179885, "rental_uris": {"ios": "https://dc.lft.to/lastmile_qr_scan", "android": "https://dc.lft.to/lastmile_qr_scan"}}, {"name": "f6a0db9e0fd8875d6110bc0a217cf4d8", "fusion_lat": 0.0, "type": "electric_bike", "lat": 38.992363, "is_reserved": 0, "is_disabled": 0, "fusion_lon": 0.0, "bike_id": "f6a0db9e0fd8875d6110bc0a217cf4d8", "lon": -76.8782185, "rental_uris": {"ios": "https://dc.lft.to/lastmile_qr_scan", "android": "https://dc.lft.to/lastmile_qr_scan"}}, {"name": "be7facf7194e96c75b924ec692561c60", "fusion_lat": 0.0, "type": "electric_bike", "lat": 38.88427883333333, "is_reserved": 0, "is_disabled": 0, "fusion_lon": 0.0, "bike_id": "be7facf7194e96c75b924ec692561c60", "lon": -76.9575925, "rental_uris": {"ios": "https://dc.lft.to/lastmile_qr_scan", "android": "https://dc.lft.to/lastmile_qr_scan"}}, {"name": "6d3c3226e8d44669ef2fd5b387511371", "fusion_lat": 0.0, "type": "electric_scooter", "lat": 38.872678, "is_reserved": 0, "is_disabled": 0, "fusion_lon": 0.0, "bike_id": "6d3c3226e8d44669ef2fd5b387511371", "lon": -77.01509533333333, "rental_uris": {"ios": "https://dc.lft.to/lastmile_qr_scan", "android": "https://dc.lft.to/lastmile_qr_scan"}}, {"name": "ec527bb4ca979fc8d62e9e759aefd953", "fusion_lat": 0.0, "type": "electric_scooter", "lat": 38.907672833333336, "is_reserved": 0, "is_disabled": 0, "fusion_lon": 0.0, "bike_id": "ec527bb4ca979fc8d62e9e759aefd953", "lon": -77.03862316666667, "rental_uris": {"ios": "https://dc.lft.to/lastmile_qr_scan", "android": "https://dc.lft.to/lastmile_qr_scan"}}, {"name": "d4bf81698fa2bc1174e4f7d837a81525", "fusion_lat": 0.0, "type": "electric_scooter", "lat": 38.903394, "is_reserved": 0, "is_disabled": 0, "fusion_lon": 0.0, "bike_id": "d4bf81698fa2bc1174e4f7d837a81525", "lon": -76.94665116666667, "rental_uris": {"ios": "https://dc.lft.to/lastmile_qr_scan", "android": "https://dc.lft.to/lastmile_qr_scan"}}, {"name": "55f23b78f9e32047c90cf7ab06d47ce4", "fusion_lat": 0.0, "type": "electric_bike", "lat": 38.949121166666664, "is_reserved": 0, "is_disabled": 0, "fusion_lon": 0.0, "bike_id": "55f23b78f9e32047c90cf7ab06d47ce4", "lon": -77.00843283333333, "rental_uris": {"ios": "https://dc.lft.to/lastmile_qr_scan", "android": "https://dc.lft.to/lastmile_qr_scan"}}, {"name": "6be827eeec0e480c7495589ad07a8a02", "fusion_lat": 0.0, "type": "electric_scooter", "lat": 38.90949666666667, "is_reserved": 0, "is_disabled": 0, "fusion_lon": 0.0, "bike_id": "6be827eeec0e480c7495589ad07a8a02", "lon": -77.0240825, "rental_uris": {"ios": "https://dc.lft.to/lastmile_qr_scan", "android": "https://dc.lft.to/lastmile_qr_scan"}}, {"name": "a75601ed67479de757812bcb4a5afcfb", "fusion_lat": 0.0, "type": "electric_bike", "lat": 38.90520433333333, "is_reserved": 0, "is_disabled": 0, "fusion_lon": 0.0, "bike_id": "a75601ed67479de757812bcb4a5afcfb", "lon": -77.07191716666667, "rental_uris": {"ios": "https://dc.lft.to/lastmile_qr_scan", "android": "https://dc.lft.to/lastmile_qr_scan"}}, {"name": "670130e29b1b7dc6d8e013ce115189d4", "fusion_lat": 0.0, "type": "electric_scooter", "lat": 38.895512, "is_reserved": 0, "is_disabled": 0, "fusion_lon": 0.0, "bike_id": "670130e29b1b7dc6d8e013ce115189d4", "lon": -77.04670416666667, "rental_uris": {"ios": "https://dc.lft.to/lastmile_qr_scan", "android": "https://dc.lft.to/lastmile_qr_scan"}}, {"name": "1d94bbaea0b2712a0c890b1ac08e2e1c", "fusion_lat": 0.0, "type": "electric_bike", "lat": 38.94360016666667, "is_reserved": 0, "is_disabled": 0, "fusion_lon": 0.0, "bike_id": "1d94bbaea0b2712a0c890b1ac08e2e1c", "lon": -77.0034755, "rental_uris": {"ios": "https://dc.lft.to/lastmile_qr_scan", "android": "https://dc.lft.to/lastmile_qr_scan"}}, {"name": "2cf618fa0e921a4fb7c45c9c0910c186", "fusion_lat": 0.0, "type": "electric_scooter", "lat": 38.905199, "is_reserved": 0, "is_disabled": 0, "fusion_lon": 0.0, "bike_id": "2cf618fa0e921a4fb7c45c9c0910c186", "lon": -77.0637725, "rental_uris": {"ios": "https://dc.lft.to/lastmile_qr_scan", "android": "https://dc.lft.to/lastmile_qr_scan"}}, {"name": "5cf2bb02046c5e5e2a6d7238cb8539d9", "fusion_lat": 0.0, "type": "electric_scooter", "lat": 38.934154, "is_reserved": 0, "is_disabled": 0, "fusion_lon": 0.0, "bike_id": "5cf2bb02046c5e5e2a6d7238cb8539d9", "lon": -77.04189066666666, "rental_uris": {"ios": "https://dc.lft.to/lastmile_qr_scan", "android": "https://dc.lft.to/lastmile_qr_scan"}}, {"name": "fa1cc41717138da3e2d91d21745d468d", "fusion_lat": 0.0, "type": "electric_bike", "lat": 38.897212333333336, "is_reserved": 0, "is_disabled": 0, "fusion_lon": 0.0, "bike_id": "fa1cc41717138da3e2d91d21745d468d", "lon": -77.01913816666666, "rental_uris": {"ios": "https://dc.lft.to/lastmile_qr_scan", "android": "https://dc.lft.to/lastmile_qr_scan"}}, {"name": "6517e97313abc1ad126063e134f53bba", "fusion_lat": 0.0, "type": "electric_scooter", "lat": 38.92003616666667, "is_reserved": 0, "is_disabled": 0, "fusion_lon": 0.0, "bike_id": "6517e97313abc1ad126063e134f53bba", "lon": -77.08189766666666, "rental_uris": {"ios": "https://dc.lft.to/lastmile_qr_scan", "android": "https://dc.lft.to/lastmile_qr_scan"}}, {"name": "5dd7ec944b6d5899d90283fc42300431", "fusion_lat": 0.0, "type": "electric_scooter", "lat": 38.89371916666666, "is_reserved": 0, "is_disabled": 0, "fusion_lon": 0.0, "bike_id": "5dd7ec944b6d5899d90283fc42300431", "lon": -76.94998666666666, "rental_uris": {"ios": "https://dc.lft.to/lastmile_qr_scan", "android": "https://dc.lft.to/lastmile_qr_scan"}}, {"name": "0497eaf0e28d4027e26995c6ddd2b05a", "fusion_lat": 0.0, "type": "electric_scooter", "lat": 38.885955833333334, "is_reserved": 0, "is_disabled": 0, "fusion_lon": 0.0, "bike_id": "0497eaf0e28d4027e26995c6ddd2b05a", "lon": -77.02194, "rental_uris": {"ios": "https://dc.lft.to/lastmile_qr_scan", "android": "https://dc.lft.to/lastmile_qr_scan"}}, {"name": "94360357c076f2053a0a654364f2a24a", "fusion_lat": 0.0, "type": "electric_bike", "lat": 38.883439, "is_reserved": 0, "is_disabled": 0, "fusion_lon": 0.0, "bike_id": "94360357c076f2053a0a654364f2a24a", "lon": -77.18298116666666, "rental_uris": {"ios": "https://dc.lft.to/lastmile_qr_scan", "android": "https://dc.lft.to/lastmile_qr_scan"}}, {"name": "fe37bc9720eb81d16b288ca76bf71a46", "fusion_lat": 0.0, "type": "electric_scooter", "lat": 38.9104585, "is_reserved": 0, "is_disabled": 0, "fusion_lon": 0.0, "bike_id": "fe37bc9720eb81d16b288ca76bf71a46", "lon": -77.0437335, "rental_uris": {"ios": "https://dc.lft.to/lastmile_qr_scan", "android": "https://dc.lft.to/lastmile_qr_scan"}}, {"name": "ee51ebb677293a1949a85be36a229f68", "fusion_lat": 0.0, "type": "electric_scooter", "lat": 38.92728666666667, "is_reserved": 0, "is_disabled": 0, "fusion_lon": 0.0, "bike_id": "ee51ebb677293a1949a85be36a229f68", "lon": -77.07139833333333, "rental_uris": {"ios": "https://dc.lft.to/lastmile_qr_scan", "android": "https://dc.lft.to/lastmile_qr_scan"}}, {"name": "24f6ba50b834e87f347e9d4d20637f5f", "fusion_lat": 0.0, "type": "electric_scooter", "lat": 38.8791845, "is_reserved": 0, "is_disabled": 0, "fusion_lon": 0.0, "bike_id": "24f6ba50b834e87f347e9d4d20637f5f", "lon": -76.99256216666667, "rental_uris": {"ios": "https://dc.lft.to/lastmile_qr_scan", "android": "https://dc.lft.to/lastmile_qr_scan"}}, {"name": "5dd01572c10820f9ed6b91a0fa5bdb2d", "fusion_lat": 0.0, "type": "electric_scooter", "lat": 38.93714416666667, "is_reserved": 0, "is_disabled": 0, "fusion_lon": 0.0, "bike_id": "5dd01572c10820f9ed6b91a0fa5bdb2d", "lon": -77.02018133333333, "rental_uris": {"ios": "https://dc.lft.to/lastmile_qr_scan", "android": "https://dc.lft.to/lastmile_qr_scan"}}, {"name": "6b5d25a163a79a387202a3f2330a24e1", "fusion_lat": 0.0, "type": "electric_scooter", "lat": 38.912721, "is_reserved": 0, "is_disabled": 0, "fusion_lon": 0.0, "bike_id": "6b5d25a163a79a387202a3f2330a24e1", "lon": -77.02967033333333, "rental_uris": {"ios": "https://dc.lft.to/lastmile_qr_scan", "android": "https://dc.lft.to/lastmile_qr_scan"}}, {"name": "18c83efd43cc6e49fd1e812202bd0c75", "fusion_lat": 0.0, "type": "electric_scooter", "lat": 38.874172333333334, "is_reserved": 0, "is_disabled": 0, "fusion_lon": 0.0, "bike_id": "18c83efd43cc6e49fd1e812202bd0c75", "lon": -76.9609075, "rental_uris": {"ios": "https://dc.lft.to/lastmile_qr_scan", "android": "https://dc.lft.to/lastmile_qr_scan"}}, {"name": "26450647c1bdff071cbefd141589f308", "fusion_lat": 0.0, "type": "electric_scooter", "lat": 38.942906, "is_reserved": 0, "is_disabled": 0, "fusion_lon": 0.0, "bike_id": "26450647c1bdff071cbefd141589f308", "lon": -77.02173833333333, "rental_uris": {"ios": "https://dc.lft.to/lastmile_qr_scan", "android": "https://dc.lft.to/lastmile_qr_scan"}}, {"name": "2d452d3f959ad35022c98088353cc696", "fusion_lat": 0.0, "type": "electric_scooter", "lat": 38.912708333333335, "is_reserved": 0, "is_disabled": 0, "fusion_lon": 0.0, "bike_id": "2d452d3f959ad35022c98088353cc696", "lon": -77.02694183333334, "rental_uris": {"ios": "https://dc.lft.to/lastmile_qr_scan", "android": "https://dc.lft.to/lastmile_qr_scan"}}, {"name": "d3e75204bce13345950506d4e892669b", "fusion_lat": 0.0, "type": "electric_scooter", "lat": 38.89374433333333, "is_reserved": 0, "is_disabled": 0, "fusion_lon": 0.0, "bike_id": "d3e75204bce13345950506d4e892669b", "lon": -76.94996566666667, "rental_uris": {"ios": "https://dc.lft.to/lastmile_qr_scan", "android": "https://dc.lft.to/lastmile_qr_scan"}}, {"name": "baac8d90208ef7a6352cd79aea82f5df", "fusion_lat": 0.0, "type": "electric_scooter", "lat": 38.909805666666664, "is_reserved": 0, "is_disabled": 0, "fusion_lon": 0.0, "bike_id": "baac8d90208ef7a6352cd79aea82f5df", "lon": -77.067143, "rental_uris": {"ios": "https://dc.lft.to/lastmile_qr_scan", "android": "https://dc.lft.to/lastmile_qr_scan"}}, {"name": "b31b93a6c527b7e93fff89cf2a0a2bc2", "fusion_lat": 0.0, "type": "electric_scooter", "lat": 38.892255, "is_reserved": 0, "is_disabled": 0, "fusion_lon": 0.0, "bike_id": "b31b93a6c527b7e93fff89cf2a0a2bc2", "lon": -77.024894, "rental_uris": {"ios": "https://dc.lft.to/lastmile_qr_scan", "android": "https://dc.lft.to/lastmile_qr_scan"}}, {"name": "82b6c27f46acceb21109f090f2f4a425", "fusion_lat": 0.0, "type": "electric_scooter", "lat": 38.8922195, "is_reserved": 0, "is_disabled": 0, "fusion_lon": 0.0, "bike_id": "82b6c27f46acceb21109f090f2f4a425", "lon": -77.03021, "rental_uris": {"ios": "https://dc.lft.to/lastmile_qr_scan", "android": "https://dc.lft.to/lastmile_qr_scan"}}, {"name": "fcc3f521b6df64909b7dd7a3112a7feb", "fusion_lat": 0.0, "type": "electric_scooter", "lat": 38.918164, "is_reserved": 0, "is_disabled": 0, "fusion_lon": 0.0, "bike_id": "fcc3f521b6df64909b7dd7a3112a7feb", "lon": -77.04004616666667, "rental_uris": {"ios": "https://dc.lft.to/lastmile_qr_scan", "android": "https://dc.lft.to/lastmile_qr_scan"}}, {"name": "d3937796e35805ecd1a23bb508a3132e", "fusion_lat": 0.0, "type": "electric_bike", "lat": 38.927788, "is_reserved": 0, "is_disabled": 0, "fusion_lon": 0.0, "bike_id": "d3937796e35805ecd1a23bb508a3132e", "lon": -77.05262816666666, "rental_uris": {"ios": "https://dc.lft.to/lastmile_qr_scan", "android": "https://dc.lft.to/lastmile_qr_scan"}}, {"name": "58d4c10668687f0239e59d3bab129811", "fusion_lat": 0.0, "type": "electric_scooter", "lat": 38.897271333333336, "is_reserved": 0, "is_disabled": 0, "fusion_lon": 0.0, "bike_id": "58d4c10668687f0239e59d3bab129811", "lon": -77.04655716666667, "rental_uris": {"ios": "https://dc.lft.to/lastmile_qr_scan", "android": "https://dc.lft.to/lastmile_qr_scan"}}, {"name": "e40878fc0b6de99d1be06191b892af78", "fusion_lat": 0.0, "type": "electric_scooter", "lat": 38.909040833333336, "is_reserved": 0, "is_disabled": 0, "fusion_lon": 0.0, "bike_id": "e40878fc0b6de99d1be06191b892af78", "lon": -77.0271285, "rental_uris": {"ios": "https://dc.lft.to/lastmile_qr_scan", "android": "https://dc.lft.to/lastmile_qr_scan"}}, {"name": "6e0176d650ad8ee8819dc8270a9deb0f", "fusion_lat": 0.0, "type": "electric_scooter", "lat": 38.90237616666667, "is_reserved": 0, "is_disabled": 0, "fusion_lon": 0.0, "bike_id": "6e0176d650ad8ee8819dc8270a9deb0f", "lon": -77.0019955, "rental_uris": {"ios": "https://dc.lft.to/lastmile_qr_scan", "android": "https://dc.lft.to/lastmile_qr_scan"}}, {"name": "6070ee4b1d310e2827ddd4676ddb0bc1", "fusion_lat": 0.0, "type": "electric_scooter", "lat": 38.85833133333333, "is_reserved": 0, "is_disabled": 0, "fusion_lon": 0.0, "bike_id": "6070ee4b1d310e2827ddd4676ddb0bc1", "lon": -76.98902666666666, "rental_uris": {"ios": "https://dc.lft.to/lastmile_qr_scan", "android": "https://dc.lft.to/lastmile_qr_scan"}}, {"name": "0d2aee9727189ff09e124aae6b4e6939", "fusion_lat": 0.0, "type": "electric_scooter", "lat": 38.933106, "is_reserved": 0, "is_disabled": 0, "fusion_lon": 0.0, "bike_id": "0d2aee9727189ff09e124aae6b4e6939", "lon": -77.05090466666667, "rental_uris": {"ios": "https://dc.lft.to/lastmile_qr_scan", "android": "https://dc.lft.to/lastmile_qr_scan"}}, {"name": "6b77515dc6043eefd93524c091ccc8dc", "fusion_lat": 0.0, "type": "electric_scooter", "lat": 38.887646, "is_reserved": 0, "is_disabled": 0, "fusion_lon": 0.0, "bike_id": "6b77515dc6043eefd93524c091ccc8dc", "lon": -76.95597933333333, "rental_uris": {"ios": "https://dc.lft.to/lastmile_qr_scan", "android": "https://dc.lft.to/lastmile_qr_scan"}}, {"name": "bcf086c5a1cfa78f0a62e256a029bd50", "fusion_lat": 0.0, "type": "electric_scooter", "lat": 38.93589383333333, "is_reserved": 0, "is_disabled": 0, "fusion_lon": 0.0, "bike_id": "bcf086c5a1cfa78f0a62e256a029bd50", "lon": -76.9912175, "rental_uris": {"ios": "https://dc.lft.to/lastmile_qr_scan", "android": "https://dc.lft.to/lastmile_qr_scan"}}, {"name": "17f23c48321b1f9f5f3223f75673fe15", "fusion_lat": 0.0, "type": "electric_scooter", "lat": 38.907030666666664, "is_reserved": 0, "is_disabled": 0, "fusion_lon": 0.0, "bike_id": "17f23c48321b1f9f5f3223f75673fe15", "lon": -77.02385866666667, "rental_uris": {"ios": "https://dc.lft.to/lastmile_qr_scan", "android": "https://dc.lft.to/lastmile_qr_scan"}}, {"name": "bcf4ce4fa1a868f73a6d5cad980f7029", "fusion_lat": 0.0, "type": "electric_scooter", "lat": 38.91650216666667, "is_reserved": 0, "is_disabled": 0, "fusion_lon": 0.0, "bike_id": "bcf4ce4fa1a868f73a6d5cad980f7029", "lon": -77.03196166666666, "rental_uris": {"ios": "https://dc.lft.to/lastmile_qr_scan", "android": "https://dc.lft.to/lastmile_qr_scan"}}, {"name": "aa701003e8c263f28d1580d668544fe3", "fusion_lat": 0.0, "type": "electric_scooter", "lat": 38.912692166666666, "is_reserved": 0, "is_disabled": 0, "fusion_lon": 0.0, "bike_id": "aa701003e8c263f28d1580d668544fe3", "lon": -77.0386975, "rental_uris": {"ios": "https://dc.lft.to/lastmile_qr_scan", "android": "https://dc.lft.to/lastmile_qr_scan"}}, {"name": "b99c95151a7a4b730c0e1599906b9e3d", "fusion_lat": 0.0, "type": "electric_scooter", "lat": 38.932670333333334, "is_reserved": 0, "is_disabled": 0, "fusion_lon": 0.0, "bike_id": "b99c95151a7a4b730c0e1599906b9e3d", "lon": -77.03901566666667, "rental_uris": {"ios": "https://dc.lft.to/lastmile_qr_scan", "android": "https://dc.lft.to/lastmile_qr_scan"}}, {"name": "9d455100a06b02fc844f6e734c51af3f", "fusion_lat": 0.0, "type": "electric_scooter", "lat": 38.88737833333333, "is_reserved": 0, "is_disabled": 0, "fusion_lon": 0.0, "bike_id": "9d455100a06b02fc844f6e734c51af3f", "lon": -76.996455, "rental_uris": {"ios": "https://dc.lft.to/lastmile_qr_scan", "android": "https://dc.lft.to/lastmile_qr_scan"}}, {"name": "4daa69c590bb3aabb824fa556717d0e3", "fusion_lat": 0.0, "type": "electric_scooter", "lat": 38.93617883333334, "is_reserved": 0, "is_disabled": 0, "fusion_lon": 0.0, "bike_id": "4daa69c590bb3aabb824fa556717d0e3", "lon": -77.0321565, "rental_uris": {"ios": "https://dc.lft.to/lastmile_qr_scan", "android": "https://dc.lft.to/lastmile_qr_scan"}}, {"name": "0768d3388df894a37ddb660b18d15070", "fusion_lat": 0.0, "type": "electric_scooter", "lat": 38.91184916666667, "is_reserved": 0, "is_disabled": 0, "fusion_lon": 0.0, "bike_id": "0768d3388df894a37ddb660b18d15070", "lon": -77.01125383333333, "rental_uris": {"ios": "https://dc.lft.to/lastmile_qr_scan", "android": "https://dc.lft.to/lastmile_qr_scan"}}, {"name": "5875af7dcbee2614213df09fcfb36945", "fusion_lat": 0.0, "type": "electric_scooter", "lat": 38.902325, "is_reserved": 0, "is_disabled": 0, "fusion_lon": 0.0, "bike_id": "5875af7dcbee2614213df09fcfb36945", "lon": -77.05142183333334, "rental_uris": {"ios": "https://dc.lft.to/lastmile_qr_scan", "android": "https://dc.lft.to/lastmile_qr_scan"}}, {"name": "e442f8655cf57b6c50ea74287b4646b5", "fusion_lat": 0.0, "type": "electric_scooter", "lat": 38.896030833333334, "is_reserved": 0, "is_disabled": 0, "fusion_lon": 0.0, "bike_id": "e442f8655cf57b6c50ea74287b4646b5", "lon": -77.04691333333334, "rental_uris": {"ios": "https://dc.lft.to/lastmile_qr_scan", "android": "https://dc.lft.to/lastmile_qr_scan"}}, {"name": "3e57683dd2205941062df179289dbe22", "fusion_lat": 0.0, "type": "electric_scooter", "lat": 38.9225115, "is_reserved": 0, "is_disabled": 0, "fusion_lon": 0.0, "bike_id": "3e57683dd2205941062df179289dbe22", "lon": -77.01946983333333, "rental_uris": {"ios": "https://dc.lft.to/lastmile_qr_scan", "android": "https://dc.lft.to/lastmile_qr_scan"}}, {"name": "8cd586728e8591701add49db5c7fce64", "fusion_lat": 0.0, "type": "electric_bike", "lat": 38.81305733333333, "is_reserved": 0, "is_disabled": 0, "fusion_lon": 0.0, "bike_id": "8cd586728e8591701add49db5c7fce64", "lon": -77.11209183333334, "rental_uris": {"ios": "https://dc.lft.to/lastmile_qr_scan", "android": "https://dc.lft.to/lastmile_qr_scan"}}, {"name": "b9f698a935c2c69e3eb853f89169ebb4", "fusion_lat": 0.0, "type": "electric_scooter", "lat": 38.906731666666666, "is_reserved": 0, "is_disabled": 0, "fusion_lon": 0.0, "bike_id": "b9f698a935c2c69e3eb853f89169ebb4", "lon": -76.978137, "rental_uris": {"ios": "https://dc.lft.to/lastmile_qr_scan", "android": "https://dc.lft.to/lastmile_qr_scan"}}, {"name": "eed0a2b04c21134e3f4791665eb567fe", "fusion_lat": 0.0, "type": "electric_bike", "lat": 38.89185366666667, "is_reserved": 0, "is_disabled": 0, "fusion_lon": 0.0, "bike_id": "eed0a2b04c21134e3f4791665eb567fe", "lon": -77.12262616666666, "rental_uris": {"ios": "https://dc.lft.to/lastmile_qr_scan", "android": "https://dc.lft.to/lastmile_qr_scan"}}, {"name": "a4ff37b5ec1b1bbfcd9a84cb5959e554", "fusion_lat": 0.0, "type": "electric_scooter", "lat": 38.90469516666667, "is_reserved": 0, "is_disabled": 0, "fusion_lon": 0.0, "bike_id": "a4ff37b5ec1b1bbfcd9a84cb5959e554", "lon": -77.03842333333333, "rental_uris": {"ios": "https://dc.lft.to/lastmile_qr_scan", "android": "https://dc.lft.to/lastmile_qr_scan"}}, {"name": "82631b2a4611e2c357ef43ed2329a37a", "fusion_lat": 0.0, "type": "electric_scooter", "lat": 38.9206935, "is_reserved": 0, "is_disabled": 0, "fusion_lon": 0.0, "bike_id": "82631b2a4611e2c357ef43ed2329a37a", "lon": -77.04380916666666, "rental_uris": {"ios": "https://dc.lft.to/lastmile_qr_scan", "android": "https://dc.lft.to/lastmile_qr_scan"}}, {"name": "9f39bec433fc93cbd081ddd1ab1bc692", "fusion_lat": 0.0, "type": "electric_scooter", "lat": 38.910634, "is_reserved": 0, "is_disabled": 0, "fusion_lon": 0.0, "bike_id": "9f39bec433fc93cbd081ddd1ab1bc692", "lon": -77.05325216666667, "rental_uris": {"ios": "https://dc.lft.to/lastmile_qr_scan", "android": "https://dc.lft.to/lastmile_qr_scan"}}, {"name": "fee109fcc09acef7534f356fd0ec745c", "fusion_lat": 0.0, "type": "electric_scooter", "lat": 38.9126255, "is_reserved": 0, "is_disabled": 0, "fusion_lon": 0.0, "bike_id": "fee109fcc09acef7534f356fd0ec745c", "lon": -77.03635166666666, "rental_uris": {"ios": "https://dc.lft.to/lastmile_qr_scan", "android": "https://dc.lft.to/lastmile_qr_scan"}}, {"name": "6a52cdf51cd4748e40aaeb48936812f5", "fusion_lat": 0.0, "type": "electric_scooter", "lat": 38.892355, "is_reserved": 0, "is_disabled": 0, "fusion_lon": 0.0, "bike_id": "6a52cdf51cd4748e40aaeb48936812f5", "lon": -77.0500675, "rental_uris": {"ios": "https://dc.lft.to/lastmile_qr_scan", "android": "https://dc.lft.to/lastmile_qr_scan"}}, {"name": "b9dd958ae39ebdeb0bde85d277e9f06a", "fusion_lat": 0.0, "type": "electric_scooter", "lat": 38.93360216666667, "is_reserved": 0, "is_disabled": 0, "fusion_lon": 0.0, "bike_id": "b9dd958ae39ebdeb0bde85d277e9f06a", "lon": -77.037223, "rental_uris": {"ios": "https://dc.lft.to/lastmile_qr_scan", "android": "https://dc.lft.to/lastmile_qr_scan"}}, {"name": "6354dd8570f6319bb1f4af821c7b4a15", "fusion_lat": 0.0, "type": "electric_scooter", "lat": 38.9169795, "is_reserved": 0, "is_disabled": 0, "fusion_lon": 0.0, "bike_id": "6354dd8570f6319bb1f4af821c7b4a15", "lon": -77.028959, "rental_uris": {"ios": "https://dc.lft.to/lastmile_qr_scan", "android": "https://dc.lft.to/lastmile_qr_scan"}}, {"name": "ac76d4243202e4daf70b26c35eeb8e2a", "fusion_lat": 0.0, "type": "electric_scooter", "lat": 38.892256833333334, "is_reserved": 0, "is_disabled": 0, "fusion_lon": 0.0, "bike_id": "ac76d4243202e4daf70b26c35eeb8e2a", "lon": -77.02414783333333, "rental_uris": {"ios": "https://dc.lft.to/lastmile_qr_scan", "android": "https://dc.lft.to/lastmile_qr_scan"}}, {"name": "e170f0ff0bdc8c2a24fb60118cab99c1", "fusion_lat": 0.0, "type": "electric_bike", "lat": 38.929924666666665, "is_reserved": 0, "is_disabled": 0, "fusion_lon": 0.0, "bike_id": "e170f0ff0bdc8c2a24fb60118cab99c1", "lon": -77.2260645, "rental_uris": {"ios": "https://dc.lft.to/lastmile_qr_scan", "android": "https://dc.lft.to/lastmile_qr_scan"}}, {"name": "9a0dafcd4e8f352c95fbd4d5f33d69dd", "fusion_lat": 0.0, "type": "electric_bike", "lat": 38.83190866666666, "is_reserved": 0, "is_disabled": 0, "fusion_lon": 0.0, "bike_id": "9a0dafcd4e8f352c95fbd4d5f33d69dd", "lon": -77.07685666666667, "rental_uris": {"ios": "https://dc.lft.to/lastmile_qr_scan", "android": "https://dc.lft.to/lastmile_qr_scan"}}, {"name": "cfeb68b93f25483ff54750602afc6d36", "fusion_lat": 0.0, "type": "electric_bike", "lat": 38.955514666666666, "is_reserved": 0, "is_disabled": 0, "fusion_lon": 0.0, "bike_id": "cfeb68b93f25483ff54750602afc6d36", "lon": -76.93539516666667, "rental_uris": {"ios": "https://dc.lft.to/lastmile_qr_scan", "android": "https://dc.lft.to/lastmile_qr_scan"}}, {"name": "91006a53b81cf4cb7d449c6b8ad57fa3", "fusion_lat": 0.0, "type": "electric_scooter", "lat": 38.92972483333333, "is_reserved": 0, "is_disabled": 0, "fusion_lon": 0.0, "bike_id": "91006a53b81cf4cb7d449c6b8ad57fa3", "lon": -77.0240375, "rental_uris": {"ios": "https://dc.lft.to/lastmile_qr_scan", "android": "https://dc.lft.to/lastmile_qr_scan"}}, {"name": "d4f0d3d1b874b1f7d8a609214fa9f4af", "fusion_lat": 0.0, "type": "electric_scooter", "lat": 38.9521805, "is_reserved": 0, "is_disabled": 0, "fusion_lon": 0.0, "bike_id": "d4f0d3d1b874b1f7d8a609214fa9f4af", "lon": -77.07064183333334, "rental_uris": {"ios": "https://dc.lft.to/lastmile_qr_scan", "android": "https://dc.lft.to/lastmile_qr_scan"}}, {"name": "245bf54738ad8dfe81c532e1bbea337c", "fusion_lat": 0.0, "type": "electric_scooter", "lat": 38.90123116666667, "is_reserved": 0, "is_disabled": 0, "fusion_lon": 0.0, "bike_id": "245bf54738ad8dfe81c532e1bbea337c", "lon": -77.03350666666667, "rental_uris": {"ios": "https://dc.lft.to/lastmile_qr_scan", "android": "https://dc.lft.to/lastmile_qr_scan"}}, {"name": "43be9556e7a9c255b8507a52bf696b31", "fusion_lat": 0.0, "type": "electric_scooter", "lat": 38.91053816666667, "is_reserved": 0, "is_disabled": 0, "fusion_lon": 0.0, "bike_id": "43be9556e7a9c255b8507a52bf696b31", "lon": -77.04580516666667, "rental_uris": {"ios": "https://dc.lft.to/lastmile_qr_scan", "android": "https://dc.lft.to/lastmile_qr_scan"}}, {"name": "90b066c63f01e6d93fa331174d03c54e", "fusion_lat": 0.0, "type": "electric_scooter", "lat": 38.865004, "is_reserved": 0, "is_disabled": 0, "fusion_lon": 0.0, "bike_id": "90b066c63f01e6d93fa331174d03c54e", "lon": -76.99001916666667, "rental_uris": {"ios": "https://dc.lft.to/lastmile_qr_scan", "android": "https://dc.lft.to/lastmile_qr_scan"}}, {"name": "a9dcd1525898200f899236ed72b41b95", "fusion_lat": 0.0, "type": "electric_scooter", "lat": 38.8948105, "is_reserved": 0, "is_disabled": 0, "fusion_lon": 0.0, "bike_id": "a9dcd1525898200f899236ed72b41b95", "lon": -76.94873933333334, "rental_uris": {"ios": "https://dc.lft.to/lastmile_qr_scan", "android": "https://dc.lft.to/lastmile_qr_scan"}}, {"name": "181972b8b787874cb856c1299ea7940b", "fusion_lat": 0.0, "type": "electric_scooter", "lat": 38.91891916666667, "is_reserved": 0, "is_disabled": 0, "fusion_lon": 0.0, "bike_id": "181972b8b787874cb856c1299ea7940b", "lon": -77.05289833333333, "rental_uris": {"ios": "https://dc.lft.to/lastmile_qr_scan", "android": "https://dc.lft.to/lastmile_qr_scan"}}, {"name": "b5360c24adf33f9e9c982f364fbf920a", "fusion_lat": 0.0, "type": "electric_bike", "lat": 38.8272755, "is_reserved": 0, "is_disabled": 0, "fusion_lon": 0.0, "bike_id": "b5360c24adf33f9e9c982f364fbf920a", "lon": -77.008672, "rental_uris": {"ios": "https://dc.lft.to/lastmile_qr_scan", "android": "https://dc.lft.to/lastmile_qr_scan"}}, {"name": "73753ff146c26107289863e89c5e52ec", "fusion_lat": 0.0, "type": "electric_scooter", "lat": 38.898308, "is_reserved": 0, "is_disabled": 0, "fusion_lon": 0.0, "bike_id": "73753ff146c26107289863e89c5e52ec", "lon": -76.946454, "rental_uris": {"ios": "https://dc.lft.to/lastmile_qr_scan", "android": "https://dc.lft.to/lastmile_qr_scan"}}, {"name": "72891621afe0619155a11bbb4170380d", "fusion_lat": 0.0, "type": "electric_scooter", "lat": 38.88669466666666, "is_reserved": 0, "is_disabled": 0, "fusion_lon": 0.0, "bike_id": "72891621afe0619155a11bbb4170380d", "lon": -76.93617083333334, "rental_uris": {"ios": "https://dc.lft.to/lastmile_qr_scan", "android": "https://dc.lft.to/lastmile_qr_scan"}}, {"name": "52dfb0c3c58704650a61e435fbe4c36d", "fusion_lat": 0.0, "type": "electric_scooter", "lat": 38.894997333333336, "is_reserved": 0, "is_disabled": 0, "fusion_lon": 0.0, "bike_id": "52dfb0c3c58704650a61e435fbe4c36d", "lon": -77.02382383333334, "rental_uris": {"ios": "https://dc.lft.to/lastmile_qr_scan", "android": "https://dc.lft.to/lastmile_qr_scan"}}, {"name": "aac06c5959063826cd5d6e4f7b977c93", "fusion_lat": 0.0, "type": "electric_scooter", "lat": 38.9258625, "is_reserved": 0, "is_disabled": 0, "fusion_lon": 0.0, "bike_id": "aac06c5959063826cd5d6e4f7b977c93", "lon": -77.05291266666667, "rental_uris": {"ios": "https://dc.lft.to/lastmile_qr_scan", "android": "https://dc.lft.to/lastmile_qr_scan"}}, {"name": "fdd7c7f0d347933a810a83af15e72346", "fusion_lat": 0.0, "type": "electric_scooter", "lat": 38.8989585, "is_reserved": 0, "is_disabled": 0, "fusion_lon": 0.0, "bike_id": "fdd7c7f0d347933a810a83af15e72346", "lon": -77.03278683333333, "rental_uris": {"ios": "https://dc.lft.to/lastmile_qr_scan", "android": "https://dc.lft.to/lastmile_qr_scan"}}, {"name": "750b3d220f48163031f3a87c3e079f04", "fusion_lat": 0.0, "type": "electric_scooter", "lat": 38.896527, "is_reserved": 0, "is_disabled": 0, "fusion_lon": 0.0, "bike_id": "750b3d220f48163031f3a87c3e079f04", "lon": -77.050271, "rental_uris": {"ios": "https://dc.lft.to/lastmile_qr_scan", "android": "https://dc.lft.to/lastmile_qr_scan"}}, {"name": "25973e46f35503b31a0f02c0401433c2", "fusion_lat": 0.0, "type": "electric_scooter", "lat": 38.90713916666667, "is_reserved": 0, "is_disabled": 0, "fusion_lon": 0.0, "bike_id": "25973e46f35503b31a0f02c0401433c2", "lon": -77.04323483333333, "rental_uris": {"ios": "https://dc.lft.to/lastmile_qr_scan", "android": "https://dc.lft.to/lastmile_qr_scan"}}, {"name": "2cf86e131408746233655d48b9d209d7", "fusion_lat": 0.0, "type": "electric_scooter", "lat": 38.918448166666664, "is_reserved": 0, "is_disabled": 0, "fusion_lon": 0.0, "bike_id": "2cf86e131408746233655d48b9d209d7", "lon": -77.02605933333334, "rental_uris": {"ios": "https://dc.lft.to/lastmile_qr_scan", "android": "https://dc.lft.to/lastmile_qr_scan"}}, {"name": "f8651ebc14b68aa6d0f6dc95e91ae931", "fusion_lat": 0.0, "type": "electric_scooter", "lat": 38.9041615, "is_reserved": 0, "is_disabled": 0, "fusion_lon": 0.0, "bike_id": "f8651ebc14b68aa6d0f6dc95e91ae931", "lon": -76.97890783333334, "rental_uris": {"ios": "https://dc.lft.to/lastmile_qr_scan", "android": "https://dc.lft.to/lastmile_qr_scan"}}, {"name": "fd0b895432400c2d4c2487c65b005ed5", "fusion_lat": 0.0, "type": "electric_scooter", "lat": 38.8454095, "is_reserved": 0, "is_disabled": 0, "fusion_lon": 0.0, "bike_id": "fd0b895432400c2d4c2487c65b005ed5", "lon": -76.9959645, "rental_uris": {"ios": "https://dc.lft.to/lastmile_qr_scan", "android": "https://dc.lft.to/lastmile_qr_scan"}}, {"name": "2790ab756d13b062275dff50212a5435", "fusion_lat": 0.0, "type": "electric_scooter", "lat": 38.91630583333333, "is_reserved": 0, "is_disabled": 0, "fusion_lon": 0.0, "bike_id": "2790ab756d13b062275dff50212a5435", "lon": -77.00105316666667, "rental_uris": {"ios": "https://dc.lft.to/lastmile_qr_scan", "android": "https://dc.lft.to/lastmile_qr_scan"}}, {"name": "c022414aa6dc161b55251463ea53aa34", "fusion_lat": 0.0, "type": "electric_scooter", "lat": 38.90001733333333, "is_reserved": 0, "is_disabled": 0, "fusion_lon": 0.0, "bike_id": "c022414aa6dc161b55251463ea53aa34", "lon": -76.996275, "rental_uris": {"ios": "https://dc.lft.to/lastmile_qr_scan", "android": "https://dc.lft.to/lastmile_qr_scan"}}, {"name": "85c4348382a904b3217d4b01163abce1", "fusion_lat": 0.0, "type": "electric_bike", "lat": 38.95956783333333, "is_reserved": 0, "is_disabled": 0, "fusion_lon": 0.0, "bike_id": "85c4348382a904b3217d4b01163abce1", "lon": -77.100885, "rental_uris": {"ios": "https://dc.lft.to/lastmile_qr_scan", "android": "https://dc.lft.to/lastmile_qr_scan"}}, {"name": "730862902d8dc7a9a5113624d9216798", "fusion_lat": 0.0, "type": "electric_bike", "lat": 38.857902, "is_reserved": 0, "is_disabled": 0, "fusion_lon": 0.0, "bike_id": "730862902d8dc7a9a5113624d9216798", "lon": -76.9874575, "rental_uris": {"ios": "https://dc.lft.to/lastmile_qr_scan", "android": "https://dc.lft.to/lastmile_qr_scan"}}, {"name": "7a0a7b9c3e5d2e405113a97ecebbba27", "fusion_lat": 0.0, "type": "electric_scooter", "lat": 38.91327783333333, "is_reserved": 0, "is_disabled": 0, "fusion_lon": 0.0, "bike_id": "7a0a7b9c3e5d2e405113a97ecebbba27", "lon": -77.04531983333334, "rental_uris": {"ios": "https://dc.lft.to/lastmile_qr_scan", "android": "https://dc.lft.to/lastmile_qr_scan"}}, {"name": "ddc22ba034058e566266da11713a6938", "fusion_lat": 0.0, "type": "electric_scooter", "lat": 38.92828466666667, "is_reserved": 0, "is_disabled": 0, "fusion_lon": 0.0, "bike_id": "ddc22ba034058e566266da11713a6938", "lon": -77.037105, "rental_uris": {"ios": "https://dc.lft.to/lastmile_qr_scan", "android": "https://dc.lft.to/lastmile_qr_scan"}}, {"name": "c0811f388b51ae3af210227273eec3f8", "fusion_lat": 0.0, "type": "electric_scooter", "lat": 38.90033666666667, "is_reserved": 0, "is_disabled": 0, "fusion_lon": 0.0, "bike_id": "c0811f388b51ae3af210227273eec3f8", "lon": -77.0020665, "rental_uris": {"ios": "https://dc.lft.to/lastmile_qr_scan", "android": "https://dc.lft.to/lastmile_qr_scan"}}, {"name": "0826ca4d3c369c1ff932ce2c81c682d2", "fusion_lat": 0.0, "type": "electric_scooter", "lat": 38.9063195, "is_reserved": 0, "is_disabled": 0, "fusion_lon": 0.0, "bike_id": "0826ca4d3c369c1ff932ce2c81c682d2", "lon": -77.038705, "rental_uris": {"ios": "https://dc.lft.to/lastmile_qr_scan", "android": "https://dc.lft.to/lastmile_qr_scan"}}, {"name": "56600b3466d993bb58311613c7e5a6da", "fusion_lat": 0.0, "type": "electric_scooter", "lat": 38.932665, "is_reserved": 0, "is_disabled": 0, "fusion_lon": 0.0, "bike_id": "56600b3466d993bb58311613c7e5a6da", "lon": -77.0389745, "rental_uris": {"ios": "https://dc.lft.to/lastmile_qr_scan", "android": "https://dc.lft.to/lastmile_qr_scan"}}, {"name": "618fad77795f78c187baa72b61382ed7", "fusion_lat": 0.0, "type": "electric_bike", "lat": 38.90021566666667, "is_reserved": 0, "is_disabled": 0, "fusion_lon": 0.0, "bike_id": "618fad77795f78c187baa72b61382ed7", "lon": -77.00039183333334, "rental_uris": {"ios": "https://dc.lft.to/lastmile_qr_scan", "android": "https://dc.lft.to/lastmile_qr_scan"}}, {"name": "8fad782291ff540ae77b1fe02d0af940", "fusion_lat": 0.0, "type": "electric_scooter", "lat": 38.90646566666667, "is_reserved": 0, "is_disabled": 0, "fusion_lon": 0.0, "bike_id": "8fad782291ff540ae77b1fe02d0af940", "lon": -77.011374, "rental_uris": {"ios": "https://dc.lft.to/lastmile_qr_scan", "android": "https://dc.lft.to/lastmile_qr_scan"}}, {"name": "2b69e1d81440b44ab7d311ae2817aaea", "fusion_lat": 0.0, "type": "electric_scooter", "lat": 38.9154915, "is_reserved": 0, "is_disabled": 0, "fusion_lon": 0.0, "bike_id": "2b69e1d81440b44ab7d311ae2817aaea", "lon": -77.031808, "rental_uris": {"ios": "https://dc.lft.to/lastmile_qr_scan", "android": "https://dc.lft.to/lastmile_qr_scan"}}, {"name": "75625d8399b0c6c8eea97459fde4e30a", "fusion_lat": 0.0, "type": "electric_bike", "lat": 38.911979, "is_reserved": 0, "is_disabled": 0, "fusion_lon": 0.0, "bike_id": "75625d8399b0c6c8eea97459fde4e30a", "lon": -77.00195066666667, "rental_uris": {"ios": "https://dc.lft.to/lastmile_qr_scan", "android": "https://dc.lft.to/lastmile_qr_scan"}}, {"name": "61342c07bbdd16094d69c649190f69b8", "fusion_lat": 0.0, "type": "electric_scooter", "lat": 38.905653666666666, "is_reserved": 0, "is_disabled": 0, "fusion_lon": 0.0, "bike_id": "61342c07bbdd16094d69c649190f69b8", "lon": -77.02214633333334, "rental_uris": {"ios": "https://dc.lft.to/lastmile_qr_scan", "android": "https://dc.lft.to/lastmile_qr_scan"}}, {"name": "fec15e06a11b621b9a7f012c2bf27b9a", "fusion_lat": 0.0, "type": "electric_scooter", "lat": 38.89230283333333, "is_reserved": 0, "is_disabled": 0, "fusion_lon": 0.0, "bike_id": "fec15e06a11b621b9a7f012c2bf27b9a", "lon": -77.0500195, "rental_uris": {"ios": "https://dc.lft.to/lastmile_qr_scan", "android": "https://dc.lft.to/lastmile_qr_scan"}},