{"data": {"bikes": [{"type": "electric_bike", "name": "32a2ae20358d7559dc5a3ee59d2ee77f", "fusion_lat": 0.0, "fusion_lon": 0.0, "lon": -77.129383, "is_disabled": 0, "bike_id": "32a2ae20358d7559dc5a3ee59d2ee77f", "is_reserved": 0, "rental_uris": {"android": "https://dc.lft.to/lastmile_qr_scan", "ios": "https://dc.lft.to/lastmile_qr_scan"}, "lat": 38.865825}, {"type": "electric_scooter", "name": "ac7568ef33089048d95fff21e6bc3c69", "fusion_lat": 0.0, "fusion_lon": 0.0, "lon": -76.98995616666667, "is_disabled": 0, "bike_id": "ac7568ef33089048d95fff21e6bc3c69", "is_reserved": 0, "rental_uris": {"android": "https://dc.lft.to/lastmile_qr_scan", "ios": "https://dc.lft.to/lastmile_qr_scan"}, "lat": 38.86434466666667}, {"type": "electric_scooter", "name": "c661a1fb55a9f3300d49852dd17054ae", "fusion_lat": 0.0, "fusion_lon": 0.0, "lon": -77.02858066666667, "is_disabled": 0, "bike_id": "c661a1fb55a9f3300d49852dd17054ae", "is_reserved": 0, "rental_uris": {"android": "https://dc.lft.to/lastmile_qr_scan", "ios": "https://dc.lft.to/lastmile_qr_scan"}, "lat": 38.912601333333335}, {"type": "electric_scooter", "name": "efb35c38b3b743f6672a97be53368668", "fusion_lat": 0.0, "fusion_lon": 0.0, "lon": -77.02159333333333, "is_disabled": 0, "bike_id": "efb35c38b3b743f6672a97be53368668", "is_reserved": 0, "rental_uris": {"android": "https://dc.lft.to/lastmile_qr_scan", "ios": "https://dc.lft.to/lastmile_qr_scan"}, "lat": 38.92465}, {"type": "electric_scooter", "name": "7167e1480bf2887f03539fe0161d091a", "fusion_lat": 0.0, "fusion_lon": 0.0, "lon": -77.00926866666667, "is_disabled": 0, "bike_id": "7167e1480bf2887f03539fe0161d091a", "is_reserved": 0, "rental_uris": {"android": "https://dc.lft.to/lastmile_qr_scan", "ios": "https://dc.lft.to/lastmile_qr_scan"}, "lat": 38.92139433333333}, {"type": "electric_scooter", "name": "b79f461b0fff9cebbe49c9fa657a8977", "fusion_lat": 0.0, "fusion_lon": 0.0, "lon": -76.9296565, "is_disabled": 0, "bike_id": "b79f461b0fff9cebbe49c9fa657a8977", "is_reserved": 0, "rental_uris": {"android": "https://dc.lft.to/lastmile_qr_scan", "ios": "https://dc.lft.to/lastmile_qr_scan"}, "lat": 38.89636133333333}, {"type": "electric_scooter", "name": "b8eded24892e1189e5d0c25d4802daf3", "fusion_lat": 0.0, "fusion_lon": 0.0, "lon": -77.0217415, "is_disabled": 0, "bike_id": "b8eded24892e1189e5d0c25d4802daf3", "is_reserved": 0, "rental_uris": {"android": "https://dc.lft.to/lastmile_qr_scan", "ios": "https://dc.lft.to/lastmile_qr_scan"}, "lat": 38.914880833333335}, {"type": "electric_scooter", "name": "6409cf79e56efa7c82b9adc612fc1faa", "fusion_lat": 0.0, "fusion_lon": 0.0, "lon": -77.003478, "is_disabled": 0, "bike_id": "6409cf79e56efa7c82b9adc612fc1faa", "is_reserved": 0, "rental_uris": {"android": "https://dc.lft.to/lastmile_qr_scan", "ios": "https://dc.lft.to/lastmile_qr_scan"}, "lat": 38.886435166666665}, {"type": "electric_scooter", "name": "91431d917d148cc896f18b9b64a1c5c7", "fusion_lat": 0.0, "fusion_lon": 0.0, "lon": -77.03826266666667, "is_disabled": 0, "bike_id": "91431d917d148cc896f18b9b64a1c5c7", "is_reserved": 0, "rental_uris": {"android": "https://dc.lft.to/lastmile_qr_scan", "ios": "https://dc.lft.to/lastmile_qr_scan"}, "lat": 38.96267066666667}, {"type": "electric_scooter", "name": "7cfb9149744793bfa996b2dee2653b63", "fusion_lat": 0.0, "fusion_lon": 0.0, "lon": -77.0297135, "is_disabled": 0, "bike_id": "7cfb9149744793bfa996b2dee2653b63", "is_reserved": 0, "rental_uris": {"android": "https://dc.lft.to/lastmile_qr_scan", "ios": "https://dc.lft.to/lastmile_qr_scan"}, "lat": 38.9231765}, {"type": "electric_scooter", "name": "0a5351c9d5d8428d3b3062d6adc63b7d", "fusion_lat": 0.0, "fusion_lon": 0.0, "lon": -77.068785, "is_disabled": 0, "bike_id": "0a5351c9d5d8428d3b3062d6adc63b7d", "is_reserved": 0, "rental_uris": {"android": "https://dc.lft.to/lastmile_qr_scan", "ios": "https://dc.lft.to/lastmile_qr_scan"}, "lat": 38.952816}, {"type": "electric_scooter", "name": "44b6d8f67bd2f6b021b475d190304441", "fusion_lat": 0.0, "fusion_lon": 0.0, "lon": -77.014996, "is_disabled": 0, "bike_id": "44b6d8f67bd2f6b021b475d190304441", "is_reserved": 0, "rental_uris": {"android": "https://dc.lft.to/lastmile_qr_scan", "ios": "https://dc.lft.to/lastmile_qr_scan"}, "lat": 38.9266605}, {"type": "electric_scooter", "name": "5cef51ed15bf505483a079af307c8174", "fusion_lat": 0.0, "fusion_lon": 0.0, "lon": -77.0418035, "is_disabled": 0, "bike_id": "5cef51ed15bf505483a079af307c8174", "is_reserved": 0, "rental_uris": {"android": "https://dc.lft.to/lastmile_qr_scan", "ios": "https://dc.lft.to/lastmile_qr_scan"}, "lat": 38.920285166666666}, {"type": "electric_scooter", "name": "7df1263a9fcc478eaa91c111d6b6d3ca", "fusion_lat": 0.0, "fusion_lon": 0.0, "lon": -77.034362, "is_disabled": 0, "bike_id": "7df1263a9fcc478eaa91c111d6b6d3ca", "is_reserved": 0, "rental_uris": {"android": "https://dc.lft.to/lastmile_qr_scan", "ios": "https://dc.lft.to/lastmile_qr_scan"}, "lat": 38.90751683333333}, {"type": "electric_scooter", "name": "e5118ef5b713a5ff52a84b04df2305f3", "fusion_lat": 0.0, "fusion_lon": 0.0, "lon": -77.0233075, "is_disabled": 0, "bike_id": "e5118ef5b713a5ff52a84b04df2305f3", "is_reserved": 0, "rental_uris": {"android": "https://dc.lft.to/lastmile_qr_scan", "ios": "https://dc.lft.to/lastmile_qr_scan"}, "lat": 38.92303366666667}, {"type": "electric_scooter", "name": "41ab1c9a12a3df02d3c8e19f82c2b605", "fusion_lat": 0.0, "fusion_lon": 0.0, "lon": -77.0265605, "is_disabled": 0, "bike_id": "41ab1c9a12a3df02d3c8e19f82c2b605", "is_reserved": 0, "rental_uris": {"android": "https://dc.lft.to/lastmile_qr_scan", "ios": "https://dc.lft.to/lastmile_qr_scan"}, "lat": 38.9105845}, {"type": "electric_scooter", "name": "c0c3b8f47d13c0dd0152632361b4142f", "fusion_lat": 0.0, "fusion_lon": 0.0, "lon": -76.97889266666667, "is_disabled": 0, "bike_id": "c0c3b8f47d13c0dd0152632361b4142f", "is_reserved": 0, "rental_uris": {"android": "https://dc.lft.to/lastmile_qr_scan", "ios": "https://dc.lft.to/lastmile_qr_scan"}, "lat": 38.88539266666667}, {"type": "electric_scooter", "name": "7e29cd8d01b36dab970e330b7bef7fc3", "fusion_lat": 0.0, "fusion_lon": 0.0, "lon": -77.02178816666667, "is_disabled": 0, "bike_id": "7e29cd8d01b36dab970e330b7bef7fc3", "is_reserved": 0, "rental_uris": {"android": "https://dc.lft.to/lastmile_qr_scan", "ios": "https://dc.lft.to/lastmile_qr_scan"}, "lat": 38.89228766666667}, {"type": "electric_scooter", "name": "0d426fb1cf54ace0e22e3b4c663aa23d", "fusion_lat": 0.0, "fusion_lon": 0.0, "lon": -77.05228283333334, "is_disabled": 0, "bike_id": "0d426fb1cf54ace0e22e3b4c663aa23d", "is_reserved": 0, "rental_uris": {"android": "https://dc.lft.to/lastmile_qr_scan", "ios": "https://dc.lft.to/lastmile_qr_scan"}, "lat": 38.924460833333335}, {"type": "electric_scooter", "name": "bec24f9997960229f7d6046b4c602e1d", "fusion_lat": 0.0, "fusion_lon": 0.0, "lon": -76.98706183333333, "is_disabled": 0, "bike_id": "bec24f9997960229f7d6046b4c602e1d", "is_reserved": 0, "rental_uris": {"android": "https://dc.lft.to/lastmile_qr_scan", "ios": "https://dc.lft.to/lastmile_qr_scan"}, "lat": 38.86540883333333}, {"type": "electric_scooter", "name": "8c05b73ab8c6acfe47b4564d9466813c", "fusion_lat": 0.0, "fusion_lon": 0.0, "lon": -77.02666, "is_disabled": 0, "bike_id": "8c05b73ab8c6acfe47b4564d9466813c", "is_reserved": 0, "rental_uris": {"android": "https://dc.lft.to/lastmile_qr_scan", "ios": "https://dc.lft.to/lastmile_qr_scan"}, "lat": 38.922181333333334}, {"type": "electric_scooter", "name": "a62525ff9409c8b5a95b697790108161", "fusion_lat": 0.0, "fusion_lon": 0.0, "lon": -77.033752, "is_disabled": 0, "bike_id": "a62525ff9409c8b5a95b697790108161", "is_reserved": 0, "rental_uris": {"android": "https://dc.lft.to/lastmile_qr_scan", "ios": "https://dc.lft.to/lastmile_qr_scan"}, "lat": 38.9103595}, {"type": "electric_bike", "name": "11984a13f599f5a3b503f94c9388d07a", "fusion_lat": 0.0, "fusion_lon": 0.0, "lon": -77.0511925, "is_disabled": 0, "bike_id": "11984a13f599f5a3b503f94c9388d07a", "is_reserved": 0, "rental_uris": {"android": "https://dc.lft.to/lastmile_qr_scan", "ios": "https://dc.lft.to/lastmile_qr_scan"}, "lat": 38.859353666666664}, {"type": "electric_bike", "name": "124090b638f435b5b060ae02f9bea8b0", "fusion_lat": 0.0, "fusion_lon": 0.0, "lon": -77.0201255, "is_disabled": 0, "bike_id": "124090b638f435b5b060ae02f9bea8b0", "is_reserved": 0, "rental_uris": {"android": "https://dc.lft.to/lastmile_qr_scan", "ios": "https://dc.lft.to/lastmile_qr_scan"}, "lat": 38.964426833333334}, {"type": "electric_scooter", "name": "ec0877bb47f100fb540d026b71a48661", "fusion_lat": 0.0, "fusion_lon": 0.0, "lon": -77.01581766666666, "is_disabled": 0, "bike_id": "ec0877bb47f100fb540d026b71a48661", "is_reserved": 0, "rental_uris": {"android": "https://dc.lft.to/lastmile_qr_scan", "ios": "https://dc.lft.to/lastmile_qr_scan"}, "lat": 38.87641383333333}, {"type": "electric_scooter", "name": "3dd5f53f8fc6a89134c3fd7553e7a815", "fusion_lat": 0.0, "fusion_lon": 0.0, "lon": -77.031506, "is_disabled": 0, "bike_id": "3dd5f53f8fc6a89134c3fd7553e7a815", "is_reserved": 0, "rental_uris": {"android": "https://dc.lft.to/lastmile_qr_scan", "ios": "https://dc.lft.to/lastmile_qr_scan"}, "lat": 38.927941}, {"type": "electric_scooter", "name": "ebec46b8d793ca9e099b5beb4571fd46", "fusion_lat": 0.0, "fusion_lon": 0.0, "lon": -77.02471683333333, "is_disabled": 0, "bike_id": "ebec46b8d793ca9e099b5beb4571fd46", "is_reserved": 0, "rental_uris": {"android": "https://dc.lft.to/lastmile_qr_scan", "ios": "https://dc.lft.to/lastmile_qr_scan"}, "lat": 38.938562166666664}, {"type": "electric_scooter", "name": "03f2fc39c2d6ea61a6c54ddfe51b7b3f", "fusion_lat": 0.0, "fusion_lon": 0.0, "lon": -77.02568733333334, "is_disabled": 0, "bike_id": "03f2fc39c2d6ea61a6c54ddfe51b7b3f", "is_reserved": 0, "rental_uris": {"android": "https://dc.lft.to/lastmile_qr_scan", "ios": "https://dc.lft.to/lastmile_qr_scan"}, "lat": 38.94852066666667}, {"type": "electric_scooter", "name": "ac25b33e679d9f0275f49df14ec8dca4", "fusion_lat": 0.0, "fusion_lon": 0.0, "lon": -77.02441783333333, "is_disabled": 0, "bike_id": "ac25b33e679d9f0275f49df14ec8dca4", "is_reserved": 0, "rental_uris": {"android": "https://dc.lft.to/lastmile_qr_scan", "ios": "https://dc.lft.to/lastmile_qr_scan"}, "lat": 38.94976483333333}, {"type": "electric_scooter", "name": "b1c081585fb6424e7f3338c7b79514e1", "fusion_lat": 0.0, "fusion_lon": 0.0, "lon": -77.0105245, "is_disabled": 0, "bike_id": "b1c081585fb6424e7f3338c7b79514e1", "is_reserved": 0, "rental_uris": {"android": "https://dc.lft.to/lastmile_qr_scan", "ios": "https://dc.lft.to/lastmile_qr_scan"}, "lat": 38.92988233333333}, {"type": "electric_scooter", "name": "075e0a3d44490fddb2b31f372431744e", "fusion_lat": 0.0, "fusion_lon": 0.0, "lon": -77.03169783333334, "is_disabled": 0, "bike_id": "075e0a3d44490fddb2b31f372431744e", "is_reserved": 0, "rental_uris": {"android": "https://dc.lft.to/lastmile_qr_scan", "ios": "https://dc.lft.to/lastmile_qr_scan"}, "lat": 38.92099016666667}, {"type": "electric_bike", "name": "d314cfc7bd294c03eb0ef97e4d1ad2af", "fusion_lat": 0.0, "fusion_lon": 0.0, "lon": -76.9795645, "is_disabled": 0, "bike_id": "d314cfc7bd294c03eb0ef97e4d1ad2af", "is_reserved": 0, "rental_uris": {"android": "https://dc.lft.to/lastmile_qr_scan", "ios": "https://dc.lft.to/lastmile_qr_scan"}, "lat": 38.920390166666664}, {"type": "electric_scooter", "name": "bb5ef3d04b4bb2e55b691ea0810ce9ae", "fusion_lat": 0.0, "fusion_lon": 0.0, "lon": -77.02005183333333, "is_disabled": 0, "bike_id": "bb5ef3d04b4bb2e55b691ea0810ce9ae", "is_reserved": 0, "rental_uris": {"android": "https://dc.lft.to/lastmile_qr_scan", "ios": "https://dc.lft.to/lastmile_qr_scan"}, "lat": 38.92805966666667}, {"type": "electric_scooter", "name": "16fdcb78d026bb3922850617914d3760", "fusion_lat": 0.0, "fusion_lon": 0.0, "lon": -76.92303016666666, "is_disabled": 0, "bike_id": "16fdcb78d026bb3922850617914d3760", "is_reserved": 0, "rental_uris": {"android": "https://dc.lft.to/lastmile_qr_scan", "ios": "https://dc.lft.to/lastmile_qr_scan"}, "lat": 38.8938795}, {"type": "electric_scooter", "name": "e0e17f9892912d919c62941da7c89dd4", "fusion_lat": 0.0, "fusion_lon": 0.0, "lon": -77.00592766666666, "is_disabled": 0, "bike_id": "e0e17f9892912d919c62941da7c89dd4", "is_reserved": 0, "rental_uris": {"android": "https://dc.lft.to/lastmile_qr_scan", "ios": "https://dc.lft.to/lastmile_qr_scan"}, "lat": 38.876672166666665}, {"type": "electric_scooter", "name": "61fc48cbdb40c065bac7ea2bfdc29b67", "fusion_lat": 0.0, "fusion_lon": 0.0, "lon": -77.02790516666667, "is_disabled": 0, "bike_id": "61fc48cbdb40c065bac7ea2bfdc29b67", "is_reserved": 0, "rental_uris": {"android": "https://dc.lft.to/lastmile_qr_scan", "ios": "https://dc.lft.to/lastmile_qr_scan"}, "lat": 38.9267745}, {"type": "electric_scooter", "name": "94063b0e545d5a464bd7f4de83805a0c", "fusion_lat": 0.0, "fusion_lon": 0.0, "lon": -77.0007055, "is_disabled": 0, "bike_id": "94063b0e545d5a464bd7f4de83805a0c", "is_reserved": 0, "rental_uris": {"android": "https://dc.lft.to/lastmile_qr_scan", "ios": "https://dc.lft.to/lastmile_qr_scan"}, "lat": 38.90138833333334}, {"type": "electric_scooter", "name": "6e3756d91b69f06d1c791d2074a49f24", "fusion_lat": 0.0, "fusion_lon": 0.0, "lon": -76.98359516666666, "is_disabled": 0, "bike_id": "6e3756d91b69f06d1c791d2074a49f24", "is_reserved": 0, "rental_uris": {"android": "https://dc.lft.to/lastmile_qr_scan", "ios": "https://dc.lft.to/lastmile_qr_scan"}, "lat": 38.887358}, {"type": "electric_bike", "name": "3b8e1ca82c58e27199b557fd57bacb28", "fusion_lat": 0.0, "fusion_lon": 0.0, "lon": -77.07902883333334, "is_disabled": 0, "bike_id": "3b8e1ca82c58e27199b557fd57bacb28", "is_reserved": 0, "rental_uris": {"android": "https://dc.lft.to/lastmile_qr_scan", "ios": "https://dc.lft.to/lastmile_qr_scan"}, "lat": 38.839336833333334}, {"type": "electric_scooter", "name": "d1adb79aa5a2d4ddeb2553eeddfc8e6a", "fusion_lat": 0.0, "fusion_lon": 0.0, "lon": -77.016439, "is_disabled": 0, "bike_id": "d1adb79aa5a2d4ddeb2553eeddfc8e6a", "is_reserved": 0, "rental_uris": {"android": "https://dc.lft.to/lastmile_qr_scan", "ios": "https://dc.lft.to/lastmile_qr_scan"}, "lat": 38.929418166666665}, {"type": "electric_bike", "name": "75e3f8e53e7eddc130395e99932cd67c", "fusion_lat": 0.0, "fusion_lon": 0.0, "lon": -77.102904, "is_disabled": 0, "bike_id": "75e3f8e53e7eddc130395e99932cd67c", "is_reserved": 0, "rental_uris": {"android": "https://dc.lft.to/lastmile_qr_scan", "ios": "https://dc.lft.to/lastmile_qr_scan"}, "lat": 38.8525505}, {"type": "electric_scooter", "name": "6bf5d53fa2733d1cfed3ca82ecbefdde", "fusion_lat": 0.0, "fusion_lon": 0.0, "lon": -77.04483283333333, "is_disabled": 0, "bike_id": "6bf5d53fa2733d1cfed3ca82ecbefdde", "is_reserved": 0, "rental_uris": {"android": "https://dc.lft.to/lastmile_qr_scan", "ios": "https://dc.lft.to/lastmile_qr_scan"}, "lat": 38.913600833333334}, {"type": "electric_scooter", "name": "f4a96fd7a2d7bf9382e2bed3643f4eb4", "fusion_lat": 0.0, "fusion_lon": 0.0, "lon": -77.063839, "is_disabled": 0, "bike_id": "f4a96fd7a2d7bf9382e2bed3643f4eb4", "is_reserved": 0, "rental_uris": {"android": "https://dc.lft.to/lastmile_qr_scan", "ios": "https://dc.lft.to/lastmile_qr_scan"}, "lat": 38.905325500000004}, {"type": "electric_scooter", "name": "d98508fe35249c7cf32b135481a67b26", "fusion_lat": 0.0, "fusion_lon": 0.0, "lon": -77.034165, "is_disabled": 0, "bike_id": "d98508fe35249c7cf32b135481a67b26", "is_reserved": 0, "rental_uris": {"android": "https://dc.lft.to/lastmile_qr_scan", "ios": "https://dc.lft.to/lastmile_qr_scan"}, "lat": 38.9014935}, {"type": "electric_bike", "name": "a86a651cbdbaa3edbe28b8386f601a16", "fusion_lat": 0.0, "fusion_lon": 0.0, "lon": -77.231768, "is_disabled": 0, "bike_id": "a86a651cbdbaa3edbe28b8386f601a16", "is_reserved": 0, "rental_uris": {"android": "https://dc.lft.to/lastmile_qr_scan", "ios": "https://dc.lft.to/lastmile_qr_scan"}, "lat": 38.9289665}, {"type": "electric_scooter", "name": "3dab89c84b85b2d9eaa903e5e6d3f167", "fusion_lat": 0.0, "fusion_lon": 0.0, "lon": -77.0297835, "is_disabled": 0, "bike_id": "3dab89c84b85b2d9eaa903e5e6d3f167", "is_reserved": 0, "rental_uris": {"android": "https://dc.lft.to/lastmile_qr_scan", "ios": "https://dc.lft.to/lastmile_qr_scan"}, "lat": 38.9245085}, {"type": "electric_scooter", "name": "23208f91acc18e0aeb05147e777151ee", "fusion_lat": 0.0, "fusion_lon": 0.0, "lon": -77.03831516666666, "is_disabled": 0, "bike_id": "23208f91acc18e0aeb05147e777151ee", "is_reserved": 0, "rental_uris": {"android": "https://dc.lft.to/lastmile_qr_scan", "ios": "https://dc.lft.to/lastmile_qr_scan"}, "lat": 38.91191366666666}, {"type": "electric_scooter", "name": "56c9ee992c40d37af582e2561dd4ca4d", "fusion_lat": 0.0, "fusion_lon": 0.0, "lon": -76.946371, "is_disabled": 0, "bike_id": "56c9ee992c40d37af582e2561dd4ca4d", "is_reserved": 0, "rental_uris": {"android": "https://dc.lft.to/lastmile_qr_scan", "ios": "https://dc.lft.to/lastmile_qr_scan"}, "lat": 38.89868883333333}, {"type": "electric_scooter", "name": "b8316156399fc62ee69cd52ee6e0ea94", "fusion_lat": 0.0, "fusion_lon": 0.0, "lon": -77.01500183333333, "is_disabled": 0, "bike_id": "b8316156399fc62ee69cd52ee6e0ea94", "is_reserved": 0, "rental_uris": {"android": "https://dc.lft.to/lastmile_qr_scan", "ios": "https://dc.lft.to/lastmile_qr_scan"}, "lat": 38.90655833333334}, {"type": "electric_scooter", "name": "436dc2d2669ad6db4b69d2a2fd708754", "fusion_lat": 0.0, "fusion_lon": 0.0, "lon": -77.01464416666667, "is_disabled": 0, "bike_id": "436dc2d2669ad6db4b69d2a2fd708754", "is_reserved": 0, "rental_uris": {"android": "https://dc.lft.to/lastmile_qr_scan", "ios": "https://dc.lft.to/lastmile_qr_scan"}, "lat": 38.9065225}, {"type": "electric_scooter", "name": "fb10f766a8b7ba6263f87bff97b7be0f", "fusion_lat": 0.0, "fusion_lon": 0.0, "lon": -77.03070583333333, "is_disabled": 0, "bike_id": "fb10f766a8b7ba6263f87bff97b7be0f", "is_reserved": 0, "rental_uris": {"android": "https://dc.lft.to/lastmile_qr_scan", "ios": "https://dc.lft.to/lastmile_qr_scan"}, "lat": 38.92018233333334}, {"type": "electric_scooter", "name": "fd541748fec0e4a2272efff3388c59db", "fusion_lat": 0.0, "fusion_lon": 0.0, "lon": -77.02807683333333, "is_disabled": 0, "bike_id": "fd541748fec0e4a2272efff3388c59db", "is_reserved": 0, "rental_uris": {"android": "https://dc.lft.to/lastmile_qr_scan", "ios": "https://dc.lft.to/lastmile_qr_scan"}, "lat": 38.930836666666664}, {"type": "electric_bike", "name": "6e35b24ab8674fcc8e3d3a254c38dee4", "fusion_lat": 0.0, "fusion_lon": 0.0, "lon": -77.019748, "is_disabled": 0, "bike_id": "6e35b24ab8674fcc8e3d3a254c38dee4", "is_reserved": 0, "rental_uris": {"android": "https://dc.lft.to/lastmile_qr_scan", "ios": "https://dc.lft.to/lastmile_qr_scan"}, "lat": 38.897884833333336}, {"type": "electric_scooter", "name": "da297ce81bbc1e253e0303c555672d7e", "fusion_lat": 0.0, "fusion_lon": 0.0, "lon": -77.03181333333333, "is_disabled": 0, "bike_id": "da297ce81bbc1e253e0303c555672d7e", "is_reserved": 0, "rental_uris": {"android": "https://dc.lft.to/lastmile_qr_scan", "ios": "https://dc.lft.to/lastmile_qr_scan"}, "lat": 38.9210075}, {"type": "electric_scooter", "name": "6e541e433632d1903762f4a31f7bedd4", "fusion_lat": 0.0, "fusion_lon": 0.0, "lon": -77.02424116666667, "is_disabled": 0, "bike_id": "6e541e433632d1903762f4a31f7bedd4", "is_reserved": 0, "rental_uris": {"android": "https://dc.lft.to/lastmile_qr_scan", "ios": "https://dc.lft.to/lastmile_qr_scan"}, "lat": 38.92046766666667}, {"type": "electric_bike", "name": "780094cb39fc348be0a720173c985901", "fusion_lat": 0.0, "fusion_lon": 0.0, "lon": -77.07895816666667, "is_disabled": 0, "bike_id": "780094cb39fc348be0a720173c985901", "is_reserved": 0, "rental_uris": {"android": "https://dc.lft.to/lastmile_qr_scan", "ios": "https://dc.lft.to/lastmile_qr_scan"}, "lat": 38.92546316666667}, {"type": "electric_scooter", "name": "f0b66467451e24a3c0fc584a6fbaa34d", "fusion_lat": 0.0, "fusion_lon": 0.0, "lon": -76.99630283333333, "is_disabled": 0, "bike_id": "f0b66467451e24a3c0fc584a6fbaa34d", "is_reserved": 0, "rental_uris": {"android": "https://dc.lft.to/lastmile_qr_scan", "ios": "https://dc.lft.to/lastmile_qr_scan"}, "lat": 38.877379833333336}, {"type": "electric_scooter", "name": "a02b7f1b1cd140d115b077f7017b74da", "fusion_lat": 0.0, "fusion_lon": 0.0, "lon": -77.02294266666667, "is_disabled": 0, "bike_id": "a02b7f1b1cd140d115b077f7017b74da", "is_reserved": 0, "rental_uris": {"android": "https://dc.lft.to/lastmile_qr_scan", "ios": "https://dc.lft.to/lastmile_qr_scan"}, "lat": 38.898874166666666}, {"type": "electric_bike", "name": "dcd87c51a581208263ce1a7f5803fbaa", "fusion_lat": 0.0, "fusion_lon": 0.0, "lon": -77.05271, "is_disabled": 0, "bike_id": "dcd87c51a581208263ce1a7f5803fbaa", "is_reserved": 0, "rental_uris": {"android": "https://dc.lft.to/lastmile_qr_scan", "ios": "https://dc.lft.to/lastmile_qr_scan"}, "lat": 38.940934666666664}, {"type": "electric_scooter", "name": "d6414bab856fe8e9ae2e75fbc981fa1b", "fusion_lat": 0.0, "fusion_lon": 0.0, "lon": -77.0399095, "is_disabled": 0, "bike_id": "d6414bab856fe8e9ae2e75fbc981fa1b", "is_reserved": 0, "rental_uris": {"android": "https://dc.lft.to/lastmile_qr_scan", "ios": "https://dc.lft.to/lastmile_qr_scan"}, "lat": 38.89886666666666}, {"type": "electric_scooter", "name": "7dbd98e49d07117701726c0ae03263b0", "fusion_lat": 0.0, "fusion_lon": 0.0, "lon": -76.99855333333333, "is_disabled": 0, "bike_id": "7dbd98e49d07117701726c0ae03263b0", "is_reserved": 0, "rental_uris": {"android": "https://dc.lft.to/lastmile_qr_scan", "ios": "https://dc.lft.to/lastmile_qr_scan"}, "lat": 38.8919055}, {"type": "electric_scooter", "name": "3303b660e67a30f6ba44a5729fd4b024", "fusion_lat": 0.0, "fusion_lon": 0.0, "lon": -77.02835283333333, "is_disabled": 0, "bike_id": "3303b660e67a30f6ba44a5729fd4b024", "is_reserved": 0, "rental_uris": {"android": "https://dc.lft.to/lastmile_qr_scan", "ios": "https://dc.lft.to/lastmile_qr_scan"}, "lat": 38.88740883333333}, {"type": "electric_scooter", "name": "ac5bd47f501add4f42738102c702a5fe", "fusion_lat": 0.0, "fusion_lon": 0.0, "lon": -77.0396635, "is_disabled": 0, "bike_id": "ac5bd47f501add4f42738102c702a5fe", "is_reserved": 0, "rental_uris": {"android": "https://dc.lft.to/lastmile_qr_scan", "ios": "https://dc.lft.to/lastmile_qr_scan"}, "lat": 38.90144166666666}, {"type": "electric_scooter", "name": "a5205dbbcaf44e84a6fa14e3ebb76c73", "fusion_lat": 0.0, "fusion_lon": 0.0, "lon": -77.04904283333333, "is_disabled": 0, "bike_id": "a5205dbbcaf44e84a6fa14e3ebb76c73", "is_reserved": 0, "rental_uris": {"android": "https://dc.lft.to/lastmile_qr_scan", "ios": "https://dc.lft.to/lastmile_qr_scan"}, "lat": 38.897306}, {"type": "electric_scooter", "name": "31e3ed93af10b8de630cc9b841da8178", "fusion_lat": 0.0, "fusion_lon": 0.0, "lon": -77.02950316666667, "is_disabled": 0, "bike_id": "31e3ed93af10b8de630cc9b841da8178", "is_reserved": 0, "rental_uris": {"android": "https://dc.lft.to/lastmile_qr_scan", "ios": "https://dc.lft.to/lastmile_qr_scan"}, "lat": 38.91674916666667}, {"type": "electric_scooter", "name": "05d128859bd0a7939351cc5a26c3ee57", "fusion_lat": 0.0, "fusion_lon": 0.0, "lon": -77.06565, "is_disabled": 0, "bike_id": "05d128859bd0a7939351cc5a26c3ee57", "is_reserved": 0, "rental_uris": {"android": "https://dc.lft.to/lastmile_qr_scan", "ios": "https://dc.lft.to/lastmile_qr_scan"}, "lat": 38.883388333333336}, {"type": "electric_bike", "name": "2b46e420e3260fd5b3f64facd5f3eb0c", "fusion_lat": 0.0, "fusion_lon": 0.0, "lon": -77.00717516666667, "is_disabled": 0, "bike_id": "2b46e420e3260fd5b3f64facd5f3eb0c", "is_reserved": 0, "rental_uris": {"android": "https://dc.lft.to/lastmile_qr_scan", "ios": "https://dc.lft.to/lastmile_qr_scan"}, "lat": 38.995095166666665}, {"type": "electric_scooter", "name": "1bf25bd935ccc205d15c378adf789cfb", "fusion_lat": 0.0, "fusion_lon": 0.0, "lon": -77.0423145, "is_disabled": 0, "bike_id": "1bf25bd935ccc205d15c378adf789cfb", "is_reserved": 0, "rental_uris": {"android": "https://dc.lft.to/lastmile_qr_scan", "ios": "https://dc.lft.to/lastmile_qr_scan"}, "lat": 38.92171916666667}, {"type": "electric_scooter", "name": "3807ab8226492dfcc5dc8b4b565d5eb5", "fusion_lat": 0.0, "fusion_lon": 0.0, "lon": -77.02817416666667, "is_disabled": 0, "bike_id": "3807ab8226492dfcc5dc8b4b565d5eb5", "is_reserved": 0, "rental_uris": {"android": "https://dc.lft.to/lastmile_qr_scan", "ios": "https://dc.lft.to/lastmile_qr_scan"}, "lat": 38.909383}, {"type": "electric_scooter", "name": "9f4d20de4f4b9b3987b8e56b4d0c8a8f", "fusion_lat": 0.0, "fusion_lon": 0.0, "lon": -77.02804683333333, "is_disabled": 0, "bike_id": "9f4d20de4f4b9b3987b8e56b4d0c8a8f", "is_reserved": 0, "rental_uris": {"android": "https://dc.lft.to/lastmile_qr_scan", "ios": "https://dc.lft.to/lastmile_qr_scan"}, "lat": 38.8964545}, {"type": "electric_bike", "name": "2f1ea6cd5e7572f3de37bc9588508691", "fusion_lat": 0.0, "fusion_lon": 0.0, "lon": -77.038404, "is_disabled": 0, "bike_id": "2f1ea6cd5e7572f3de37bc9588508691", "is_reserved": 0, "rental_uris": {"android": "https://dc.lft.to/lastmile_qr_scan", "ios": "https://dc.lft.to/lastmile_qr_scan"}, "lat": 38.9311165}, {"type": "electric_scooter", "name": "1d099cbac0d067e5faef6c55bbf3a867", "fusion_lat": 0.0, "fusion_lon": 0.0, "lon": -77.0255965, "is_disabled": 0, "bike_id": "1d099cbac0d067e5faef6c55bbf3a867", "is_reserved": 0, "rental_uris": {"android": "https://dc.lft.to/lastmile_qr_scan", "ios": "https://dc.lft.to/lastmile_qr_scan"}, "lat": 38.887541}, {"type": "electric_scooter", "name": "8765df52a8c34bdf9e5fa1b69cf7bc39", "fusion_lat": 0.0, "fusion_lon": 0.0, "lon": -77.042336, "is_disabled": 0, "bike_id": "8765df52a8c34bdf9e5fa1b69cf7bc39", "is_reserved": 0, "rental_uris": {"android": "https://dc.lft.to/lastmile_qr_scan", "ios": "https://dc.lft.to/lastmile_qr_scan"}, "lat": 38.91120466666667}, {"type": "electric_scooter", "name": "58381a47ebf590fcb49c239c89d03a4a", "fusion_lat": 0.0, "fusion_lon": 0.0, "lon": -77.02957666666667, "is_disabled": 0, "bike_id": "58381a47ebf590fcb49c239c89d03a4a", "is_reserved": 0, "rental_uris": {"android": "https://dc.lft.to/lastmile_qr_scan", "ios": "https://dc.lft.to/lastmile_qr_scan"}, "lat": 38.905447333333335}, {"type": "electric_bike", "name": "6c390d898058504fea7cdd0729472b96", "fusion_lat": 0.0, "fusion_lon": 0.0, "lon": -77.08979516666666, "is_disabled": 0, "bike_id": "6c390d898058504fea7cdd0729472b96", "is_reserved": 0, "rental_uris": {"android": "https://dc.lft.to/lastmile_qr_scan", "ios": "https://dc.lft.to/lastmile_qr_scan"}, "lat": 38.911748}, {"type": "electric_scooter", "name": "0b8ec00df33162613f9f13b8b564f809", "fusion_lat": 0.0, "fusion_lon": 0.0, "lon": -77.02854833333333, "is_disabled": 0, "bike_id": "0b8ec00df33162613f9f13b8b564f809", "is_reserved": 0, "rental_uris": {"android": "https://dc.lft.to/lastmile_qr_scan", "ios": "https://dc.lft.to/lastmile_qr_scan"}, "lat": 38.9056425}, {"type": "electric_scooter", "name": "baef3432cbe4b9e93620f87b84c09a1b", "fusion_lat": 0.0, "fusion_lon": 0.0, "lon": -77.04031416666666, "is_disabled": 0, "bike_id": "baef3432cbe4b9e93620f87b84c09a1b", "is_reserved": 0, "rental_uris": {"android": "https://dc.lft.to/lastmile_qr_scan", "ios": "https://dc.lft.to/lastmile_qr_scan"}, "lat": 38.918082}, {"type": "electric_scooter", "name": "24281376715c6a53a9eb451774da1dd5", "fusion_lat": 0.0, "fusion_lon": 0.0, "lon": -77.02639766666667, "is_disabled": 0, "bike_id": "24281376715c6a53a9eb451774da1dd5", "is_reserved": 0, "rental_uris": {"android": "https://dc.lft.to/lastmile_qr_scan", "ios": "https://dc.lft.to/lastmile_qr_scan"}, "lat": 38.90424633333333}, {"type": "electric_scooter", "name": "05ef328c8ba0271459d8d0030fe08f03", "fusion_lat": 0.0, "fusion_lon": 0.0, "lon": -77.01871383333334, "is_disabled": 0, "bike_id": "05ef328c8ba0271459d8d0030fe08f03", "is_reserved": 0, "rental_uris": {"android": "https://dc.lft.to/lastmile_qr_scan", "ios": "https://dc.lft.to/lastmile_qr_scan"}, "lat": 38.91416433333333}, {"type": "electric_scooter", "name": "2fddfd87618e7317e73d691a71162171", "fusion_lat": 0.0, "fusion_lon": 0.0, "lon": -77.04031433333333, "is_disabled": 0, "bike_id": "2fddfd87618e7317e73d691a71162171", "is_reserved": 0, "rental_uris": {"android": "https://dc.lft.to/lastmile_qr_scan", "ios": "https://dc.lft.to/lastmile_qr_scan"}, "lat": 38.91808066666667}, {"type": "electric_scooter", "name": "ddba80636eb4dd514338d7e19db60ea6", "fusion_lat": 0.0, "fusion_lon": 0.0, "lon": -77.06332916666666, "is_disabled": 0, "bike_id": "ddba80636eb4dd514338d7e19db60ea6", "is_reserved": 0, "rental_uris": {"android": "https://dc.lft.to/lastmile_qr_scan", "ios": "https://dc.lft.to/lastmile_qr_scan"}, "lat": 38.92154566666667}, {"type": "electric_scooter", "name": "ec2b2ad9d21d4344d1e467442e44f0b9", "fusion_lat": 0.0, "fusion_lon": 0.0, "lon": -77.04170116666667, "is_disabled": 0, "bike_id": "ec2b2ad9d21d4344d1e467442e44f0b9", "is_reserved": 0, "rental_uris": {"android": "https://dc.lft.to/lastmile_qr_scan", "ios": "https://dc.lft.to/lastmile_qr_scan"}, "lat": 38.91817116666667}, {"type": "electric_scooter", "name": "81c1b568e0c6830620e15bd10b4fc14a", "fusion_lat": 0.0, "fusion_lon": 0.0, "lon": -77.02723916666666, "is_disabled": 0, "bike_id": "81c1b568e0c6830620e15bd10b4fc14a", "is_reserved": 0, "rental_uris": {"android": "https://dc.lft.to/lastmile_qr_scan", "ios": "https://dc.lft.to/lastmile_qr_scan"}, "lat": 38.91673433333333}, {"type": "electric_scooter", "name": "42b4875de66538cbb03915ecd36e2919", "fusion_lat": 0.0, "fusion_lon": 0.0, "lon": -77.02679316666666, "is_disabled": 0, "bike_id": "42b4875de66538cbb03915ecd36e2919", "is_reserved": 0, "rental_uris": {"android": "https://dc.lft.to/lastmile_qr_scan", "ios": "https://dc.lft.to/lastmile_qr_scan"}, "lat": 38.90050133333333}, {"type": "electric_scooter", "name": "af074246baf63c5539dea19536235b07", "fusion_lat": 0.0, "fusion_lon": 0.0, "lon": -77.0261015, "is_disabled": 0, "bike_id": "af074246baf63c5539dea19536235b07", "is_reserved": 0, "rental_uris": {"android": "https://dc.lft.to/lastmile_qr_scan", "ios": "https://dc.lft.to/lastmile_qr_scan"}, "lat": 38.90349283333333}, {"type": "electric_scooter", "name": "d4bcc3a0d0d485dc8ec91ffbcdb5f75d", "fusion_lat": 0.0, "fusion_lon": 0.0, "lon": -77.01067633333334, "is_disabled": 0, "bike_id": "d4bcc3a0d0d485dc8ec91ffbcdb5f75d", "is_reserved": 0, "rental_uris": {"android": "https://dc.lft.to/lastmile_qr_scan", "ios": "https://dc.lft.to/lastmile_qr_scan"}, "lat": 38.918206}, {"type": "electric_scooter", "name": "fe97378f553ff5c74435688f2361b46e", "fusion_lat": 0.0, "fusion_lon": 0.0, "lon": -77.02492516666666, "is_disabled": 0, "bike_id": "fe97378f553ff5c74435688f2361b46e", "is_reserved": 0, "rental_uris": {"android": "https://dc.lft.to/lastmile_qr_scan", "ios": "https://dc.lft.to/lastmile_qr_scan"}, "lat": 38.905716166666664}, {"type": "electric_scooter", "name": "4350d8ce33eb31475e39e452e32e9f8d", "fusion_lat": 0.0, "fusion_lon": 0.0, "lon": -77.04767016666666, "is_disabled": 0, "bike_id": "4350d8ce33eb31475e39e452e32e9f8d", "is_reserved": 0, "rental_uris": {"android": "https://dc.lft.to/lastmile_qr_scan", "ios": "https://dc.lft.to/lastmile_qr_scan"}, "lat": 38.91751166666667}, {"type": "electric_scooter", "name": "f0be277821dec1ee6eadef79c48faa2b", "fusion_lat": 0.0, "fusion_lon": 0.0, "lon": -77.06047266666667, "is_disabled": 0, "bike_id": "f0be277821dec1ee6eadef79c48faa2b", "is_reserved": 0, "rental_uris": {"android": "https://dc.lft.to/lastmile_qr_scan", "ios": "https://dc.lft.to/lastmile_qr_scan"}, "lat": 38.902351}, {"type": "electric_scooter", "name": "5e0b5f08696583eced2afe1bece98ba4", "fusion_lat": 0.0, "fusion_lon": 0.0, "lon": -77.04024183333334, "is_disabled": 0, "bike_id": "5e0b5f08696583eced2afe1bece98ba4", "is_reserved": 0, "rental_uris": {"android": "https://dc.lft.to/lastmile_qr_scan", "ios": "https://dc.lft.to/lastmile_qr_scan"}, "lat": 38.89937533333333}, {"type": "electric_scooter", "name": "1654b2dd1cdbcf22623f46954b439f5c", "fusion_lat": 0.0, "fusion_lon": 0.0, "lon": -77.04179666666667, "is_disabled": 0, "bike_id": "1654b2dd1cdbcf22623f46954b439f5c", "is_reserved": 0, "rental_uris": {"android": "https://dc.lft.to/lastmile_qr_scan", "ios": "https://dc.lft.to/lastmile_qr_scan"}, "lat": 38.901445}, {"type": "electric_scooter", "name": "7099172f34aeb03fd65a114aaf86bbac", "fusion_lat": 0.0, "fusion_lon": 0.0, "lon": -77.0507425, "is_disabled": 0, "bike_id": "7099172f34aeb03fd65a114aaf86bbac", "is_reserved": 0, "rental_uris": {"android": "https://dc.lft.to/lastmile_qr_scan", "ios": "https://dc.lft.to/lastmile_qr_scan"}, "lat": 38.90374216666667}, {"type": "electric_scooter", "name": "83d8172e109bb1a8e048fa283ddcecf5", "fusion_lat": 0.0, "fusion_lon": 0.0, "lon": -77.0295195, "is_disabled": 0, "bike_id": "83d8172e109bb1a8e048fa283ddcecf5", "is_reserved": 0, "rental_uris": {"android": "https://dc.lft.to/lastmile_qr_scan", "ios": "https://dc.lft.to/lastmile_qr_scan"}, "lat": 38.916751166666664}, {"type": "electric_scooter", "name": "9e53e6c02a016bb84972a052b47ad541", "fusion_lat": 0.0, "fusion_lon": 0.0, "lon": -76.9833775, "is_disabled": 0, "bike_id": "9e53e6c02a016bb84972a052b47ad541", "is_reserved": 0, "rental_uris": {"android": "https://dc.lft.to/lastmile_qr_scan", "ios": "https://dc.lft.to/lastmile_qr_scan"}, "lat": 38.895429166666666}, {"type": "electric_scooter", "name": "9108aa4210c3f27ef0a38c0868508c4e", "fusion_lat": 0.0, "fusion_lon": 0.0, "lon": -77.04556483333333, "is_disabled": 0, "bike_id": "9108aa4210c3f27ef0a38c0868508c4e", "is_reserved": 0, "rental_uris": {"android": "https://dc.lft.to/lastmile_qr_scan", "ios": "https://dc.lft.to/lastmile_qr_scan"}, "lat": 38.903772000000004}, {"type": "electric_scooter", "name": "fb3f51dedbb81b8520cf751bc8e5ae03", "fusion_lat": 0.0, "fusion_lon": 0.0, "lon": -77.00053766666667, "is_disabled": 0, "bike_id": "fb3f51dedbb81b8520cf751bc8e5ae03", "is_reserved": 0, "rental_uris": {"android": "https://dc.lft.to/lastmile_qr_scan", "ios": "https://dc.lft.to/lastmile_qr_scan"}, "lat": 38.878859}, {"type": "electric_scooter", "name": "10c6dcc9c58f34f123180e7fcba234e5", "fusion_lat": 0.0, "fusion_lon": 0.0, "lon": -77.03669416666666, "is_disabled": 0, "bike_id": "10c6dcc9c58f34f123180e7fcba234e5", "is_reserved": 0, "rental_uris": {"android": "https://dc.lft.to/lastmile_qr_scan", "ios": "https://dc.lft.to/lastmile_qr_scan"}, "lat": 38.918158166666664}, {"type": "electric_scooter", "name": "5b143ac8ef4397e8b89dc5eb121156ee", "fusion_lat": 0.0, "fusion_lon": 0.0, "lon": -76.983423, "is_disabled": 0, "bike_id": "5b143ac8ef4397e8b89dc5eb121156ee", "is_reserved": 0, "rental_uris": {"android": "https://dc.lft.to/lastmile_qr_scan", "ios": "https://dc.lft.to/lastmile_qr_scan"}, "lat": 38.90094083333334}, {"type": "electric_scooter", "name": "0056963c93420afd4c8d00f6362d2af0", "fusion_lat": 0.0, "fusion_lon": 0.0, "lon": -77.03451033333333, "is_disabled": 0, "bike_id": "0056963c93420afd4c8d00f6362d2af0", "is_reserved": 0, "rental_uris": {"android": "https://dc.lft.to/lastmile_qr_scan", "ios": "https://dc.lft.to/lastmile_qr_scan"}, "lat": 38.91598166666667}, {"type": "electric_scooter", "name": "d98cc65d525810e9d2b8313e9ea3ae34", "fusion_lat": 0.0, "fusion_lon": 0.0, "lon": -76.94461183333334, "is_disabled": 0, "bike_id": "d98cc65d525810e9d2b8313e9ea3ae34", "is_reserved": 0, "rental_uris": {"android": "https://dc.lft.to/lastmile_qr_scan", "ios": "https://dc.lft.to/lastmile_qr_scan"}, "lat": 38.89032916666667}, {"type": "electric_scooter", "name": "6b4a71a8d5ea094e9de38b91f6b75b1f", "fusion_lat": 0.0, "fusion_lon": 0.0, "lon": -77.07275583333333, "is_disabled": 0, "bike_id": "6b4a71a8d5ea094e9de38b91f6b75b1f", "is_reserved": 0, "rental_uris": {"android": "https://dc.lft.to/lastmile_qr_scan", "ios": "https://dc.lft.to/lastmile_qr_scan"}, "lat": 38.9348345}, {"type": "electric_bike", "name": "1355c759097318daf3acdd4b380b8945", "fusion_lat": 0.0, "fusion_lon": 0.0, "lon": -77.0605625, "is_disabled": 0, "bike_id": "1355c759097318daf3acdd4b380b8945", "is_reserved": 0, "rental_uris": {"android": "https://dc.lft.to/lastmile_qr_scan", "ios": "https://dc.lft.to/lastmile_qr_scan"}, "lat": 38.943381}, {"type": "electric_scooter", "name": "609a4640fd3cf174b6ce6b7609e195bf", "fusion_lat": 0.0, "fusion_lon": 0.0, "lon": -77.03655116666667, "is_disabled": 0, "bike_id": "609a4640fd3cf174b6ce6b7609e195bf", "is_reserved": 0, "rental_uris": {"android": "https://dc.lft.to/lastmile_qr_scan", "ios": "https://dc.lft.to/lastmile_qr_scan"}, "lat": 38.91327966666667}, {"type": "electric_scooter", "name": "7af102be4064e5af3702fe72b0fa264f", "fusion_lat": 0.0, "fusion_lon": 0.0, "lon": -77.021957, "is_disabled": 0, "bike_id": "7af102be4064e5af3702fe72b0fa264f", "is_reserved": 0, "rental_uris": {"android": "https://dc.lft.to/lastmile_qr_scan", "ios": "https://dc.lft.to/lastmile_qr_scan"}, "lat": 38.9078215}, {"type": "electric_scooter", "name": "1b368c95d40caa3b4566bb8d2dbb5481", "fusion_lat": 0.0, "fusion_lon": 0.0, "lon": -77.03399883333333, "is_disabled": 0, "bike_id": "1b368c95d40caa3b4566bb8d2dbb5481", "is_reserved": 0, "rental_uris": {"android": "https://dc.lft.to/lastmile_qr_scan", "ios": "https://dc.lft.to/lastmile_qr_scan"}, "lat": 38.9244045}, {"type": "electric_scooter", "name": "c03ff2eb291a2364ceebaec8b619c3d3", "fusion_lat": 0.0, "fusion_lon": 0.0, "lon": -77.05502766666666, "is_disabled": 0, "bike_id": "c03ff2eb291a2364ceebaec8b619c3d3", "is_reserved": 0, "rental_uris": {"android": "https://dc.lft.to/lastmile_qr_scan", "ios": "https://dc.lft.to/lastmile_qr_scan"}, "lat": 38.928344333333335}, {"type": "electric_scooter", "name": "0a21ef36c0941e86200a03023eefb602", "fusion_lat": 0.0, "fusion_lon": 0.0, "lon": -77.03667616666667, "is_disabled": 0, "bike_id": "0a21ef36c0941e86200a03023eefb602", "is_reserved": 0, "rental_uris": {"android": "https://dc.lft.to/lastmile_qr_scan", "ios": "https://dc.lft.to/lastmile_qr_scan"}, "lat": 38.9182045}, {"type": "electric_scooter", "name": "9a8909d3be8e9f80f205cba8c3c00cd3", "fusion_lat": 0.0, "fusion_lon": 0.0, "lon": -77.034765, "is_disabled": 0, "bike_id": "9a8909d3be8e9f80f205cba8c3c00cd3", "is_reserved": 0, "rental_uris": {"android": "https://dc.lft.to/lastmile_qr_scan", "ios": "https://dc.lft.to/lastmile_qr_scan"}, "lat": 38.93538216666666}, {"type": "electric_scooter", "name": "dee7556bbe9df727ed2f976112c2a09e", "fusion_lat": 0.0, "fusion_lon": 0.0, "lon": -77.03942383333333, "is_disabled": 0, "bike_id": "dee7556bbe9df727ed2f976112c2a09e", "is_reserved": 0, "rental_uris": {"android": "https://dc.lft.to/lastmile_qr_scan", "ios": "https://dc.lft.to/lastmile_qr_scan"}, "lat": 38.902707666666664}, {"type": "electric_scooter", "name": "81d00a94370626a5dd91aeb6c36abfc2", "fusion_lat": 0.0, "fusion_lon": 0.0, "lon": -77.0460405, "is_disabled": 0, "bike_id": "81d00a94370626a5dd91aeb6c36abfc2", "is_reserved": 0, "rental_uris": {"android": "https://dc.lft.to/lastmile_qr_scan", "ios": "https://dc.lft.to/lastmile_qr_scan"}, "lat": 38.932922166666664}, {"type": "electric_scooter", "name": "ed378343f60e91c3de797f8de100a641", "fusion_lat": 0.0, "fusion_lon": 0.0, "lon": -77.0004845, "is_disabled": 0, "bike_id": "ed378343f60e91c3de797f8de100a641", "is_reserved": 0, "rental_uris": {"android": "https://dc.lft.to/lastmile_qr_scan", "ios": "https://dc.lft.to/lastmile_qr_scan"}, "lat": 38.878831}, {"type": "electric_scooter", "name": "95e76687891c3be8aa11f7800d07bf0b", "fusion_lat": 0.0, "fusion_lon": 0.0, "lon": -77.02938866666666, "is_disabled": 0, "bike_id": "95e76687891c3be8aa11f7800d07bf0b", "is_reserved": 0, "rental_uris": {"android": "https://dc.lft.to/lastmile_qr_scan", "ios": "https://dc.lft.to/lastmile_qr_scan"}, "lat": 38.898193}, {"type": "electric_bike", "name": "1e12eaa866d4dfa4a6e0177018a8a00a", "fusion_lat": 0.0, "fusion_lon": 0.0, "lon": -76.951549, "is_disabled": 0, "bike_id": "1e12eaa866d4dfa4a6e0177018a8a00a", "is_reserved": 0, "rental_uris": {"android": "https://dc.lft.to/lastmile_qr_scan", "ios": "https://dc.lft.to/lastmile_qr_scan"}, "lat": 39.0844075}, {"type": "electric_scooter", "name": "e42cddabe14c2e96398b958e631ef238", "fusion_lat": 0.0, "fusion_lon": 0.0, "lon": -77.03904266666666, "is_disabled": 0, "bike_id": "e42cddabe14c2e96398b958e631ef238", "is_reserved": 0, "rental_uris": {"android": "https://dc.lft.to/lastmile_qr_scan", "ios": "https://dc.lft.to/lastmile_qr_scan"}, "lat": 38.914222333333335}, {"type": "electric_scooter", "name": "1f428422b7ce344bb42173d0c4526066", "fusion_lat": 0.0, "fusion_lon": 0.0, "lon": -77.06428333333334, "is_disabled": 0, "bike_id": "1f428422b7ce344bb42173d0c4526066", "is_reserved": 0, "rental_uris": {"android": "https://dc.lft.to/lastmile_qr_scan", "ios": "https://dc.lft.to/lastmile_qr_scan"}, "lat": 38.935636}, {"type": "electric_bike", "name": "69416834dba5ba4c6390dd2788b2a138", "fusion_lat": 0.0, "fusion_lon": 0.0, "lon": -77.0776695, "is_disabled": 0, "bike_id": "69416834dba5ba4c6390dd2788b2a138", "is_reserved": 0, "rental_uris": {"android": "https://dc.lft.to/lastmile_qr_scan", "ios": "https://dc.lft.to/lastmile_qr_scan"}, "lat": 38.930485166666664}, {"type": "electric_scooter", "name": "ce10b2826825062052946a5acb4f2c5a", "fusion_lat": 0.0, "fusion_lon": 0.0, "lon": -77.029495, "is_disabled": 0, "bike_id": "ce10b2826825062052946a5acb4f2c5a", "is_reserved": 0, "rental_uris": {"android": "https://dc.lft.to/lastmile_qr_scan", "ios": "https://dc.lft.to/lastmile_qr_scan"}, "lat": 38.916286666666664}, {"type": "electric_scooter", "name": "0e803c206483e1f1eb4cbb48d0b447b3", "fusion_lat": 0.0, "fusion_lon": 0.0, "lon": -77.00154866666666, "is_disabled": 0, "bike_id": "0e803c206483e1f1eb4cbb48d0b447b3", "is_reserved": 0, "rental_uris": {"android": "https://dc.lft.to/lastmile_qr_scan", "ios": "https://dc.lft.to/lastmile_qr_scan"}, "lat": 38.82135316666667}, {"type": "electric_scooter", "name": "5d63677301173d9370135869dc381507", "fusion_lat": 0.0, "fusion_lon": 0.0, "lon": -76.99939416666666, "is_disabled": 0, "bike_id": "5d63677301173d9370135869dc381507", "is_reserved": 0, "rental_uris": {"android": "https://dc.lft.to/lastmile_qr_scan", "ios": "https://dc.lft.to/lastmile_qr_scan"}, "lat": 38.890869}, {"type": "electric_scooter", "name": "67e20df6bcfa6edb92ee0c95ba14aa9e", "fusion_lat": 0.0, "fusion_lon": 0.0, "lon": -77.01725783333333, "is_disabled": 0, "bike_id": "67e20df6bcfa6edb92ee0c95ba14aa9e", "is_reserved": 0, "rental_uris": {"android": "https://dc.lft.to/lastmile_qr_scan", "ios": "https://dc.lft.to/lastmile_qr_scan"}, "lat": 38.89229566666667}, {"type": "electric_scooter", "name": "ef4c4b27dbc6324dec395c5199290ca9", "fusion_lat": 0.0, "fusion_lon": 0.0, "lon": -77.03052366666667, "is_disabled": 0, "bike_id": "ef4c4b27dbc6324dec395c5199290ca9", "is_reserved": 0, "rental_uris": {"android": "https://dc.lft.to/lastmile_qr_scan", "ios": "https://dc.lft.to/lastmile_qr_scan"}, "lat": 38.898355}, {"type": "electric_bike", "name": "f8038f9b312967a9327e46e3eb6138af", "fusion_lat": 0.0, "fusion_lon": 0.0, "lon": -76.9754525, "is_disabled": 0, "bike_id": "f8038f9b312967a9327e46e3eb6138af", "is_reserved": 0, "rental_uris": {"android": "https://dc.lft.to/lastmile_qr_scan", "ios": "https://dc.lft.to/lastmile_qr_scan"}, "lat": 38.904316333333334}, {"type": "electric_scooter", "name": "b1140ab368d646b6037d0af965274616", "fusion_lat": 0.0, "fusion_lon": 0.0, "lon": -77.0451, "is_disabled": 0, "bike_id": "b1140ab368d646b6037d0af965274616", "is_reserved": 0, "rental_uris": {"android": "https://dc.lft.to/lastmile_qr_scan", "ios": "https://dc.lft.to/lastmile_qr_scan"}, "lat": 38.9193665}, {"type": "electric_scooter", "name": "8d1b8ba6875504dafa699eea8d703cfd", "fusion_lat": 0.0, "fusion_lon": 0.0, "lon": -77.0322445, "is_disabled": 0, "bike_id": "8d1b8ba6875504dafa699eea8d703cfd", "is_reserved": 0, "rental_uris": {"android": "https://dc.lft.to/lastmile_qr_scan", "ios": "https://dc.lft.to/lastmile_qr_scan"}, "lat": 38.925495}, {"type": "electric_scooter", "name": "fbd5d260da21a8236bdccad165d3a18b", "fusion_lat": 0.0, "fusion_lon": 0.0, "lon": -76.93348666666667, "is_disabled": 0, "bike_id": "fbd5d260da21a8236bdccad165d3a18b", "is_reserved": 0, "rental_uris": {"android": "https://dc.lft.to/lastmile_qr_scan", "ios": "https://dc.lft.to/lastmile_qr_scan"}, "lat": 38.899118333333334}, {"type": "electric_scooter", "name": "f43bd34d42889fab7ac2f8f383809013", "fusion_lat": 0.0, "fusion_lon": 0.0, "lon": -77.036389, "is_disabled": 0, "bike_id": "f43bd34d42889fab7ac2f8f383809013", "is_reserved": 0, "rental_uris": {"android": "https://dc.lft.to/lastmile_qr_scan", "ios": "https://dc.lft.to/lastmile_qr_scan"}, "lat": 38.91249633333334}, {"type": "electric_scooter", "name": "ade032436e3b6bd285c9967878ad6d9b", "fusion_lat": 0.0, "fusion_lon": 0.0, "lon": -77.01431333333333, "is_disabled": 0, "bike_id": "ade032436e3b6bd285c9967878ad6d9b", "is_reserved": 0, "rental_uris": {"android": "https://dc.lft.to/lastmile_qr_scan", "ios": "https://dc.lft.to/lastmile_qr_scan"}, "lat": 38.91255683333333}, {"type": "electric_scooter", "name": "97161ebf67811b254690fa010dacdc85", "fusion_lat": 0.0, "fusion_lon": 0.0, "lon": -76.98358333333333, "is_disabled": 0, "bike_id": "97161ebf67811b254690fa010dacdc85", "is_reserved": 0, "rental_uris": {"android": "https://dc.lft.to/lastmile_qr_scan", "ios": "https://dc.lft.to/lastmile_qr_scan"}, "lat": 38.887356}, {"type": "electric_scooter", "name": "7cfaeb875f00423ff3f142ebff9d63db", "fusion_lat": 0.0, "fusion_lon": 0.0, "lon": -76.93216366666667, "is_disabled": 0, "bike_id": "7cfaeb875f00423ff3f142ebff9d63db", "is_reserved": 0, "rental_uris": {"android": "https://dc.lft.to/lastmile_qr_scan", "ios": "https://dc.lft.to/lastmile_qr_scan"}, "lat": 38.880689}, {"type": "electric_scooter", "name": "d058aa930cfad8bb73c3f39094b789ed", "fusion_lat": 0.0, "fusion_lon": 0.0, "lon": -77.04138716666667, "is_disabled": 0, "bike_id": "d058aa930cfad8bb73c3f39094b789ed", "is_reserved": 0, "rental_uris": {"android": "https://dc.lft.to/lastmile_qr_scan", "ios": "https://dc.lft.to/lastmile_qr_scan"}, "lat": 38.893538166666666}, {"type": "electric_scooter", "name": "bb9a3d0bb38fc00b4c61be84ffd273cc", "fusion_lat": 0.0, "fusion_lon": 0.0, "lon": -77.04000266666667, "is_disabled": 0, "bike_id": "bb9a3d0bb38fc00b4c61be84ffd273cc", "is_reserved": 0, "rental_uris": {"android": "https://dc.lft.to/lastmile_qr_scan", "ios": "https://dc.lft.to/lastmile_qr_scan"}, "lat": 38.93429233333333}, {"type": "electric_scooter", "name": "bbaaf4bd98ee782f23ae10eabcf9f76c", "fusion_lat": 0.0, "fusion_lon": 0.0, "lon": -77.04744366666667, "is_disabled": 0, "bike_id": "bbaaf4bd98ee782f23ae10eabcf9f76c", "is_reserved": 0, "rental_uris": {"android": "https://dc.lft.to/lastmile_qr_scan", "ios": "https://dc.lft.to/lastmile_qr_scan"}, "lat": 38.923333}, {"type": "electric_scooter", "name": "375ea678530d90a856ec4a12d5eaae59", "fusion_lat": 0.0, "fusion_lon": 0.0, "lon": -77.0292175, "is_disabled": 0, "bike_id": "375ea678530d90a856ec4a12d5eaae59", "is_reserved": 0, "rental_uris": {"android": "https://dc.lft.to/lastmile_qr_scan", "ios": "https://dc.lft.to/lastmile_qr_scan"}, "lat": 38.897534}, {"type": "electric_scooter", "name": "3ffc8fe64b3aa48d9bd8fa69d71a1137", "fusion_lat": 0.0, "fusion_lon": 0.0, "lon": -77.04824783333333, "is_disabled": 0, "bike_id": "3ffc8fe64b3aa48d9bd8fa69d71a1137", "is_reserved": 0, "rental_uris": {"android": "https://dc.lft.to/lastmile_qr_scan", "ios": "https://dc.lft.to/lastmile_qr_scan"}, "lat": 38.90954716666667}, {"type": "electric_scooter", "name": "61bc5a5399f44e89ad173351db59dfb6", "fusion_lat": 0.0, "fusion_lon": 0.0, "lon": -77.03446266666667, "is_disabled": 0, "bike_id": "61bc5a5399f44e89ad173351db59dfb6", "is_reserved": 0, "rental_uris": {"android": "https://dc.lft.to/lastmile_qr_scan", "ios": "https://dc.lft.to/lastmile_qr_scan"}, "lat": 38.913945166666664}, {"type": "electric_scooter", "name": "d6fe80847db75c56a3ca9bfa4742d800", "fusion_lat": 0.0, "fusion_lon": 0.0, "lon": -76.98277416666667, "is_disabled": 0, "bike_id": "d6fe80847db75c56a3ca9bfa4742d800", "is_reserved": 0, "rental_uris": {"android": "https://dc.lft.to/lastmile_qr_scan", "ios": "https://dc.lft.to/lastmile_qr_scan"}, "lat": 38.90342916666667}, {"type": "electric_scooter", "name": "02e6ba4506ad83b171f3dd93f1eaecd9", "fusion_lat": 0.0, "fusion_lon": 0.0, "lon": -77.02204933333333, "is_disabled": 0, "bike_id": "02e6ba4506ad83b171f3dd93f1eaecd9", "is_reserved": 0, "rental_uris": {"android": "https://dc.lft.to/lastmile_qr_scan", "ios": "https://dc.lft.to/lastmile_qr_scan"}, "lat": 38.89580866666667}, {"type": "electric_scooter", "name": "6e1e04bb070a68b8dbdfe11e62de32fd", "fusion_lat": 0.0, "fusion_lon": 0.0, "lon": -77.00730133333333, "is_disabled": 0, "bike_id": "6e1e04bb070a68b8dbdfe11e62de32fd", "is_reserved": 0, "rental_uris": {"android": "https://dc.lft.to/lastmile_qr_scan", "ios": "https://dc.lft.to/lastmile_qr_scan"}, "lat": 38.911893166666665}, {"type": "electric_scooter", "name": "0af412e05001fe0d6beeac5692abecc0", "fusion_lat": 0.0, "fusion_lon": 0.0, "lon": -77.00098783333334, "is_disabled": 0, "bike_id": "0af412e05001fe0d6beeac5692abecc0", "is_reserved": 0, "rental_uris": {"android": "https://dc.lft.to/lastmile_qr_scan", "ios": "https://dc.lft.to/lastmile_qr_scan"}, "lat": 38.90029416666667}, {"type": "electric_scooter", "name": "3975dbe68f05e521165226b88a9e6892", "fusion_lat": 0.0, "fusion_lon": 0.0, "lon": -77.02002116666667, "is_disabled": 0, "bike_id": "3975dbe68f05e521165226b88a9e6892", "is_reserved": 0, "rental_uris": {"android": "https://dc.lft.to/lastmile_qr_scan", "ios": "https://dc.lft.to/lastmile_qr_scan"}, "lat": 38.91496766666667}, {"type": "electric_scooter", "name": "23f943d72e4fbf54a3fd3a8a34fb3ec5", "fusion_lat": 0.0, "fusion_lon": 0.0, "lon": -77.05931533333333, "is_disabled": 0, "bike_id": "23f943d72e4fbf54a3fd3a8a34fb3ec5", "is_reserved": 0, "rental_uris": {"android": "https://dc.lft.to/lastmile_qr_scan", "ios": "https://dc.lft.to/lastmile_qr_scan"}, "lat": 38.936623}, {"type": "electric_scooter", "name": "8dae438e03cad105ffac8f89da53f253", "fusion_lat": 0.0, "fusion_lon": 0.0, "lon": -77.03516466666666, "is_disabled": 0, "bike_id": "8dae438e03cad105ffac8f89da53f253", "is_reserved": 0, "rental_uris": {"android": "https://dc.lft.to/lastmile_qr_scan", "ios": "https://dc.lft.to/lastmile_qr_scan"}, "lat": 38.934698166666664}, {"type": "electric_scooter", "name": "793c13b89817ad9a739ccee9f5e7c6d3", "fusion_lat": 0.0, "fusion_lon": 0.0, "lon": -77.02371483333333, "is_disabled": 0, "bike_id": "793c13b89817ad9a739ccee9f5e7c6d3", "is_reserved": 0, "rental_uris": {"android": "https://dc.lft.to/lastmile_qr_scan", "ios": "https://dc.lft.to/lastmile_qr_scan"}, "lat": 38.90957266666667}, {"type": "electric_scooter", "name": "2fd86e55f334cfea9f95755323710bbc", "fusion_lat": 0.0, "fusion_lon": 0.0, "lon": -77.0294325, "is_disabled": 0, "bike_id": "2fd86e55f334cfea9f95755323710bbc", "is_reserved": 0, "rental_uris": {"android": "https://dc.lft.to/lastmile_qr_scan", "ios": "https://dc.lft.to/lastmile_qr_scan"}, "lat": 38.907185166666665}, {"type": "electric_scooter", "name": "57e1918e03c18dfe81cd10bb7d66dace", "fusion_lat": 0.0, "fusion_lon": 0.0, "lon": -77.02713, "is_disabled": 0, "bike_id": "57e1918e03c18dfe81cd10bb7d66dace", "is_reserved": 0, "rental_uris": {"android": "https://dc.lft.to/lastmile_qr_scan", "ios": "https://dc.lft.to/lastmile_qr_scan"}, "lat": 38.90456983333333}, {"type": "electric_scooter", "name": "63fa8cfdc6227ea895b44fb30ef8c724", "fusion_lat": 0.0, "fusion_lon": 0.0, "lon": -77.0517195, "is_disabled": 0, "bike_id": "63fa8cfdc6227ea895b44fb30ef8c724", "is_reserved": 0, "rental_uris": {"android": "https://dc.lft.to/lastmile_qr_scan", "ios": "https://dc.lft.to/lastmile_qr_scan"}, "lat": 38.90323883333333}, {"type": "electric_scooter", "name": "a5e9b9a8263de0368b71fb5d24612375", "fusion_lat": 0.0, "fusion_lon": 0.0, "lon": -77.0400995, "is_disabled": 0, "bike_id": "a5e9b9a8263de0368b71fb5d24612375", "is_reserved": 0, "rental_uris": {"android": "https://dc.lft.to/lastmile_qr_scan", "ios": "https://dc.lft.to/lastmile_qr_scan"}, "lat": 38.92165833333333}, {"type": "electric_scooter", "name": "60065756c92a646cf651bb75b1384b1f", "fusion_lat": 0.0, "fusion_lon": 0.0, "lon": -77.03437783333334, "is_disabled": 0, "bike_id": "60065756c92a646cf651bb75b1384b1f", "is_reserved": 0, "rental_uris": {"android": "https://dc.lft.to/lastmile_qr_scan", "ios": "https://dc.lft.to/lastmile_qr_scan"}, "lat": 38.9273975}, {"type": "electric_scooter", "name": "1e3ef565666fd8cff360f8f2651290f4", "fusion_lat": 0.0, "fusion_lon": 0.0, "lon": -77.0357015, "is_disabled": 0, "bike_id": "1e3ef565666fd8cff360f8f2651290f4", "is_reserved": 0, "rental_uris": {"android": "https://dc.lft.to/lastmile_qr_scan", "ios": "https://dc.lft.to/lastmile_qr_scan"}, "lat": 38.91816433333334}, {"type": "electric_scooter", "name": "00d0050b6f5970fd5e9823f8a4168e44", "fusion_lat": 0.0, "fusion_lon": 0.0, "lon": -77.03451133333333, "is_disabled": 0, "bike_id": "00d0050b6f5970fd5e9823f8a4168e44", "is_reserved": 0, "rental_uris": {"android": "https://dc.lft.to/lastmile_qr_scan", "ios": "https://dc.lft.to/lastmile_qr_scan"}, "lat": 38.908360333333334}, {"type": "electric_bike", "name": "d5ff183102972661c691bc9d5ebf085c", "fusion_lat": 0.0, "fusion_lon": 0.0, "lon": -77.035009, "is_disabled": 0, "bike_id": "d5ff183102972661c691bc9d5ebf085c", "is_reserved": 0, "rental_uris": {"android": "https://dc.lft.to/lastmile_qr_scan", "ios": "https://dc.lft.to/lastmile_qr_scan"}, "lat": 38.9214305}, {"type": "electric_bike", "name": "15831aa958f2fb377f06cd04b14106c9", "fusion_lat": 0.0, "fusion_lon": 0.0, "lon": -77.03877716666666, "is_disabled": 0, "bike_id": "15831aa958f2fb377f06cd04b14106c9", "is_reserved": 0, "rental_uris": {"android": "https://dc.lft.to/lastmile_qr_scan", "ios": "https://dc.lft.to/lastmile_qr_scan"}, "lat": 39.0262335}, {"type": "electric_scooter", "name": "a059a7051915bf85235c0f0199c4045d", "fusion_lat": 0.0, "fusion_lon": 0.0, "lon": -77.032139, "is_disabled": 0, "bike_id": "a059a7051915bf85235c0f0199c4045d", "is_reserved": 0, "rental_uris": {"android": "https://dc.lft.to/lastmile_qr_scan", "ios": "https://dc.lft.to/lastmile_qr_scan"}, "lat": 38.90730683333334}, {"type": "electric_scooter", "name": "7b25c1d7fcf76447c70f79be69bd27db", "fusion_lat": 0.0, "fusion_lon": 0.0, "lon": -77.02526, "is_disabled": 0, "bike_id": "7b25c1d7fcf76447c70f79be69bd27db", "is_reserved": 0, "rental_uris": {"android": "https://dc.lft.to/lastmile_qr_scan", "ios": "https://dc.lft.to/lastmile_qr_scan"}, "lat": 38.9209735}, {"type": "electric_bike", "name": "eab64a040bd431499b68a280c2c6f3f9", "fusion_lat": 0.0, "fusion_lon": 0.0, "lon": -77.096226, "is_disabled": 0, "bike_id": "eab64a040bd431499b68a280c2c6f3f9", "is_reserved": 0, "rental_uris": {"android": "https://dc.lft.to/lastmile_qr_scan", "ios": "https://dc.lft.to/lastmile_qr_scan"}, "lat": 38.9525515}, {"type": "electric_scooter", "name": "904c8a9158db004e508513dffd5a6c61", "fusion_lat": 0.0, "fusion_lon": 0.0, "lon": -77.01190666666666, "is_disabled": 0, "bike_id": "904c8a9158db004e508513dffd5a6c61", "is_reserved": 0, "rental_uris": {"android": "https://dc.lft.to/lastmile_qr_scan", "ios": "https://dc.lft.to/lastmile_qr_scan"}, "lat": 38.89661433333333}, {"type": "electric_bike", "name": "afa4fabeeffc8d7daf5dbe95a52e32cf", "fusion_lat": 0.0, "fusion_lon": 0.0, "lon": -77.1274215, "is_disabled": 0, "bike_id": "afa4fabeeffc8d7daf5dbe95a52e32cf", "is_reserved": 0, "rental_uris": {"android": "https://dc.lft.to/lastmile_qr_scan", "ios": "https://dc.lft.to/lastmile_qr_scan"}, "lat": 38.89570333333333}, {"type": "electric_scooter", "name": "33b83228c919701f4548999261329381", "fusion_lat": 0.0, "fusion_lon": 0.0, "lon": -77.03430933333334, "is_disabled": 0, "bike_id": "33b83228c919701f4548999261329381", "is_reserved": 0, "rental_uris": {"android": "https://dc.lft.to/lastmile_qr_scan", "ios": "https://dc.lft.to/lastmile_qr_scan"}, "lat": 38.90573216666667}, {"type": "electric_scooter", "name": "e90c8d417b47efc0fd65ad9b00457553", "fusion_lat": 0.0, "fusion_lon": 0.0, "lon": -76.94579633333333, "is_disabled": 0, "bike_id": "e90c8d417b47efc0fd65ad9b00457553", "is_reserved": 0, "rental_uris": {"android": "https://dc.lft.to/lastmile_qr_scan", "ios": "https://dc.lft.to/lastmile_qr_scan"}, "lat": 38.8992575}, {"type": "electric_scooter", "name": "1000764e92e44f5e567d73ba0256a0d9", "fusion_lat": 0.0, "fusion_lon": 0.0, "lon": -77.02377566666667, "is_disabled": 0, "bike_id": "1000764e92e44f5e567d73ba0256a0d9", "is_reserved": 0, "rental_uris": {"android": "https://dc.lft.to/lastmile_qr_scan", "ios": "https://dc.lft.to/lastmile_qr_scan"}, "lat": 38.89198416666667}, {"type": "electric_scooter", "name": "5739ed0b73bd8eea5509a20430bd7dec", "fusion_lat": 0.0, "fusion_lon": 0.0, "lon": -77.05141566666667, "is_disabled": 0, "bike_id": "5739ed0b73bd8eea5509a20430bd7dec", "is_reserved": 0, "rental_uris": {"android": "https://dc.lft.to/lastmile_qr_scan", "ios": "https://dc.lft.to/lastmile_qr_scan"}, "lat": 38.8986825}, {"type": "electric_scooter", "name": "4148e18eee9d224635a455194016d19d", "fusion_lat": 0.0, "fusion_lon": 0.0, "lon": -77.01607633333333, "is_disabled": 0, "bike_id": "4148e18eee9d224635a455194016d19d", "is_reserved": 0, "rental_uris": {"android": "https://dc.lft.to/lastmile_qr_scan", "ios": "https://dc.lft.to/lastmile_qr_scan"}, "lat": 38.909611}, {"type": "electric_scooter", "name": "e835c51cf43645154b5b1d2fb1e0cad7", "fusion_lat": 0.0, "fusion_lon": 0.0, "lon": -77.0321485, "is_disabled": 0, "bike_id": "e835c51cf43645154b5b1d2fb1e0cad7", "is_reserved": 0, "rental_uris": {"android": "https://dc.lft.to/lastmile_qr_scan", "ios": "https://dc.lft.to/lastmile_qr_scan"}, "lat": 38.9073095}, {"type": "electric_scooter", "name": "ca1ace641d7a3691098cefaca950cf51", "fusion_lat": 0.0, "fusion_lon": 0.0, "lon": -77.00200883333333, "is_disabled": 0, "bike_id": "ca1ace641d7a3691098cefaca950cf51", "is_reserved": 0, "rental_uris": {"android": "https://dc.lft.to/lastmile_qr_scan", "ios": "https://dc.lft.to/lastmile_qr_scan"}, "lat": 38.89347}, {"type": "electric_scooter", "name": "7a7f532224f6b86141e34b6160e15fb7", "fusion_lat": 0.0, "fusion_lon": 0.0, "lon": -76.99834216666666, "is_disabled": 0, "bike_id": "7a7f532224f6b86141e34b6160e15fb7", "is_reserved": 0, "rental_uris": {"android": "https://dc.lft.to/lastmile_qr_scan", "ios": "https://dc.lft.to/lastmile_qr_scan"}, "lat": 38.90066616666667}, {"type": "electric_scooter", "name": "ddacb4f93778b774ba5fb5223be185d3", "fusion_lat": 0.0, "fusion_lon": 0.0, "lon": -77.02347583333334, "is_disabled": 0, "bike_id": "ddacb4f93778b774ba5fb5223be185d3", "is_reserved": 0, "rental_uris": {"android": "https://dc.lft.to/lastmile_qr_scan", "ios": "https://dc.lft.to/lastmile_qr_scan"}, "lat": 38.942009166666665}, {"type": "electric_scooter", "name": "4e1c11346a4b0e0dee2dc22f13537e99", "fusion_lat": 0.0, "fusion_lon": 0.0, "lon": -76.9837255, "is_disabled": 0, "bike_id": "4e1c11346a4b0e0dee2dc22f13537e99", "is_reserved": 0, "rental_uris": {"android": "https://dc.lft.to/lastmile_qr_scan", "ios": "https://dc.lft.to/lastmile_qr_scan"}, "lat": 38.89267433333333}, {"type": "electric_scooter", "name": "aeadb7eb6d3d038ffec7d05802b3e79e", "fusion_lat": 0.0, "fusion_lon": 0.0, "lon": -77.04159083333333, "is_disabled": 0, "bike_id": "aeadb7eb6d3d038ffec7d05802b3e79e", "is_reserved": 0, "rental_uris": {"android": "https://dc.lft.to/lastmile_qr_scan", "ios": "https://dc.lft.to/lastmile_qr_scan"}, "lat": 38.91548866666667}, {"type": "electric_scooter", "name": "c8b604f6ea6809e9eeeab5c7cc73ffbd", "fusion_lat": 0.0, "fusion_lon": 0.0, "lon": -76.98494816666667, "is_disabled": 0, "bike_id": "c8b604f6ea6809e9eeeab5c7cc73ffbd", "is_reserved": 0, "rental_uris": {"android": "https://dc.lft.to/lastmile_qr_scan", "ios": "https://dc.lft.to/lastmile_qr_scan"}, "lat": 38.90365933333333}, {"type": "electric_scooter", "name": "816a303d30a9039c0379283e55c93eeb", "fusion_lat": 0.0, "fusion_lon": 0.0, "lon": -77.0059345, "is_disabled": 0, "bike_id": "816a303d30a9039c0379283e55c93eeb", "is_reserved": 0, "rental_uris": {"android": "https://dc.lft.to/lastmile_qr_scan", "ios": "https://dc.lft.to/lastmile_qr_scan"}, "lat": 38.90675433333333}, {"type": "electric_scooter", "name": "52e37632b6bc58ceb3b486f3f4e434a0", "fusion_lat": 0.0, "fusion_lon": 0.0, "lon": -77.00041666666667, "is_disabled": 0, "bike_id": "52e37632b6bc58ceb3b486f3f4e434a0", "is_reserved": 0, "rental_uris": {"android": "https://dc.lft.to/lastmile_qr_scan", "ios": "https://dc.lft.to/lastmile_qr_scan"}, "lat": 38.90015133333333}, {"type": "electric_bike", "name": "1d95ce0f8ada48e81048737300d6a700", "fusion_lat": 0.0, "fusion_lon": 0.0, "lon": -76.96059766666667, "is_disabled": 0, "bike_id": "1d95ce0f8ada48e81048737300d6a700", "is_reserved": 0, "rental_uris": {"android": "https://dc.lft.to/lastmile_qr_scan", "ios": "https://dc.lft.to/lastmile_qr_scan"}, "lat": 38.88404333333333}, {"type": "electric_scooter", "name": "4d072f498b106a55895d2f8c2e25e156", "fusion_lat": 0.0, "fusion_lon": 0.0, "lon": -76.9289055, "is_disabled": 0, "bike_id": "4d072f498b106a55895d2f8c2e25e156", "is_reserved": 0, "rental_uris": {"android": "https://dc.lft.to/lastmile_qr_scan", "ios": "https://dc.lft.to/lastmile_qr_scan"}, "lat": 38.87942616666667}, {"type": "electric_scooter", "name": "f068ed47ed838c550c2dced2ff4a717d", "fusion_lat": 0.0, "fusion_lon": 0.0, "lon": -77.00561383333333, "is_disabled": 0, "bike_id": "f068ed47ed838c550c2dced2ff4a717d", "is_reserved": 0, "rental_uris": {"android": "https://dc.lft.to/lastmile_qr_scan", "ios": "https://dc.lft.to/lastmile_qr_scan"}, "lat": 38.9182425}, {"type": "electric_scooter", "name": "68311b8273a85c566521ff1f21ae8205", "fusion_lat": 0.0, "fusion_lon": 0.0, "lon": -77.034357, "is_disabled": 0, "bike_id": "68311b8273a85c566521ff1f21ae8205", "is_reserved": 0, "rental_uris": {"android": "https://dc.lft.to/lastmile_qr_scan", "ios": "https://dc.lft.to/lastmile_qr_scan"}, "lat": 38.90648133333333}, {"type": "electric_scooter", "name": "ebec8d9a06e0096e61b72814dd49aeff", "fusion_lat": 0.0, "fusion_lon": 0.0, "lon": -77.000556, "is_disabled": 0, "bike_id": "ebec8d9a06e0096e61b72814dd49aeff", "is_reserved": 0, "rental_uris": {"android": "https://dc.lft.to/lastmile_qr_scan", "ios": "https://dc.lft.to/lastmile_qr_scan"}, "lat": 38.87386816666667}, {"type": "electric_scooter", "name": "84e79bca5cac10769b1cdb3f1361230d", "fusion_lat": 0.0, "fusion_lon": 0.0, "lon": -76.98355533333333, "is_disabled": 0, "bike_id": "84e79bca5cac10769b1cdb3f1361230d", "is_reserved": 0, "rental_uris": {"android": "https://dc.lft.to/lastmile_qr_scan", "ios": "https://dc.lft.to/lastmile_qr_scan"}, "lat": 38.91258283333333}, {"type": "electric_scooter", "name": "d26ac8b26d384609a5a62d1320d40bcf", "fusion_lat": 0.0, "fusion_lon": 0.0, "lon": -76.94653433333333, "is_disabled": 0, "bike_id": "d26ac8b26d384609a5a62d1320d40bcf", "is_reserved": 0, "rental_uris": {"android": "https://dc.lft.to/lastmile_qr_scan", "ios": "https://dc.lft.to/lastmile_qr_scan"}, "lat": 38.898288}, {"type": "electric_scooter", "name": "eb74200eb3cfcff7af55391ffec707a0", "fusion_lat": 0.0, "fusion_lon": 0.0, "lon": -77.03518583333333, "is_disabled": 0, "bike_id": "eb74200eb3cfcff7af55391ffec707a0", "is_reserved": 0, "rental_uris": {"android": "https://dc.lft.to/lastmile_qr_scan", "ios": "https://dc.lft.to/lastmile_qr_scan"}, "lat": 38.922381666666666}, {"type": "electric_scooter", "name": "32226f6105f9b0d7cbff453e38bf47d2", "fusion_lat": 0.0, "fusion_lon": 0.0, "lon": -77.022292, "is_disabled": 0, "bike_id": "32226f6105f9b0d7cbff453e38bf47d2", "is_reserved": 0, "rental_uris": {"android": "https://dc.lft.to/lastmile_qr_scan", "ios": "https://dc.lft.to/lastmile_qr_scan"}, "lat": 38.91273866666667}, {"type": "electric_scooter", "name": "60500ff887945d5252e8e6dcdb835d9e", "fusion_lat": 0.0, "fusion_lon": 0.0, "lon": -77.01718083333333, "is_disabled": 0, "bike_id": "60500ff887945d5252e8e6dcdb835d9e", "is_reserved": 0, "rental_uris": {"android": "https://dc.lft.to/lastmile_qr_scan", "ios": "https://dc.lft.to/lastmile_qr_scan"}, "lat": 38.90469983333333}, {"type": "electric_bike", "name": "e1cbdf7baa924a4f6d29daa43e85c22c", "fusion_lat": 0.0, "fusion_lon": 0.0, "lon": -77.01230666666666, "is_disabled": 0, "bike_id": "e1cbdf7baa924a4f6d29daa43e85c22c", "is_reserved": 0, "rental_uris": {"android": "https://dc.lft.to/lastmile_qr_scan", "ios": "https://dc.lft.to/lastmile_qr_scan"}, "lat": 38.95087066666667}, {"type": "electric_scooter", "name": "d868785aa2295ed95e461a4505defad1", "fusion_lat": 0.0, "fusion_lon": 0.0, "lon": -77.0344005, "is_disabled": 0, "bike_id": "d868785aa2295ed95e461a4505defad1", "is_reserved": 0, "rental_uris": {"android": "https://dc.lft.to/lastmile_qr_scan", "ios": "https://dc.lft.to/lastmile_qr_scan"}, "lat": 38.90649966666667}, {"type": "electric_scooter", "name": "abd8798cb828b1657f11a5f08941dc56", "fusion_lat": 0.0, "fusion_lon": 0.0, "lon": -77.03364033333334, "is_disabled": 0, "bike_id": "abd8798cb828b1657f11a5f08941dc56", "is_reserved": 0, "rental_uris": {"android": "https://dc.lft.to/lastmile_qr_scan", "ios": "https://dc.lft.to/lastmile_qr_scan"}, "lat": 38.927524166666664}, {"type": "electric_scooter", "name": "65cd121694c75ddafd6487ba102b6e56", "fusion_lat": 0.0, "fusion_lon": 0.0, "lon": -76.9916195, "is_disabled": 0, "bike_id": "65cd121694c75ddafd6487ba102b6e56", "is_reserved": 0, "rental_uris": {"android": "https://dc.lft.to/lastmile_qr_scan", "ios": "https://dc.lft.to/lastmile_qr_scan"}, "lat": 38.88827083333334}, {"type": "electric_scooter", "name": "c4ab7806ceab08a421b5358b51fd7a75", "fusion_lat": 0.0, "fusion_lon": 0.0, "lon": -76.98646983333333, "is_disabled": 0, "bike_id": "c4ab7806ceab08a421b5358b51fd7a75", "is_reserved": 0, "rental_uris": {"android": "https://dc.lft.to/lastmile_qr_scan", "ios": "https://dc.lft.to/lastmile_qr_scan"}, "lat": 38.855123166666665}, {"type": "electric_scooter", "name": "36fb3e7699bd128f6184f7be9c9591d3", "fusion_lat": 0.0, "fusion_lon": 0.0, "lon": -77.03177233333334, "is_disabled": 0, "bike_id": "36fb3e7699bd128f6184f7be9c9591d3", "is_reserved": 0, "rental_uris": {"android": "https://dc.lft.to/lastmile_qr_scan", "ios": "https://dc.lft.to/lastmile_qr_scan"}, "lat": 38.89324533333333}, {"type": "electric_scooter", "name": "53c7347da92f41e16f5fcf54e2e64c75", "fusion_lat": 0.0, "fusion_lon": 0.0, "lon": -77.046286, "is_disabled": 0, "bike_id": "53c7347da92f41e16f5fcf54e2e64c75", "is_reserved": 0, "rental_uris": {"android": "https://dc.lft.to/lastmile_qr_scan", "ios": "https://dc.lft.to/lastmile_qr_scan"}, "lat": 38.90662483333333}, {"type": "electric_scooter", "name": "126917179a4a3dc93b2af06e11c5ca5d", "fusion_lat": 0.0, "fusion_lon": 0.0, "lon": -77.03461883333334, "is_disabled": 0, "bike_id": "126917179a4a3dc93b2af06e11c5ca5d", "is_reserved": 0, "rental_uris": {"android": "https://dc.lft.to/lastmile_qr_scan", "ios": "https://dc.lft.to/lastmile_qr_scan"}, "lat": 38.91722566666667}, {"type": "electric_scooter", "name": "93050b8248977cdc7cc5e5ea5ebddf6b", "fusion_lat": 0.0, "fusion_lon": 0.0, "lon": -77.0417045, "is_disabled": 0, "bike_id": "93050b8248977cdc7cc5e5ea5ebddf6b", "is_reserved": 0, "rental_uris": {"android": "https://dc.lft.to/lastmile_qr_scan", "ios": "https://dc.lft.to/lastmile_qr_scan"}, "lat": 38.920168}, {"type": "electric_scooter", "name": "3a88e8ab88637a4a209c755324e8baec", "fusion_lat": 0.0, "fusion_lon": 0.0, "lon": -77.0487325, "is_disabled": 0, "bike_id": "3a88e8ab88637a4a209c755324e8baec", "is_reserved": 0, "rental_uris": {"android": "https://dc.lft.to/lastmile_qr_scan", "ios": "https://dc.lft.to/lastmile_qr_scan"}, "lat": 38.9091355}, {"type": "electric_scooter", "name": "ddb1ab90b2ebab988932b39c1bf42de0", "fusion_lat": 0.0, "fusion_lon": 0.0, "lon": -77.02224733333334, "is_disabled": 0, "bike_id": "ddb1ab90b2ebab988932b39c1bf42de0", "is_reserved": 0, "rental_uris": {"android": "https://dc.lft.to/lastmile_qr_scan", "ios": "https://dc.lft.to/lastmile_qr_scan"}, "lat": 38.91271416666667}, {"type": "electric_scooter", "name": "f2a40ec40f2ca54f05731348762d608c", "fusion_lat": 0.0, "fusion_lon": 0.0, "lon": -76.99909866666667, "is_disabled": 0, "bike_id": "f2a40ec40f2ca54f05731348762d608c", "is_reserved": 0, "rental_uris": {"android": "https://dc.lft.to/lastmile_qr_scan", "ios": "https://dc.lft.to/lastmile_qr_scan"}, "lat": 38.937527}, {"type": "electric_scooter", "name": "997bb5e29d097b231f55ad18cda30501", "fusion_lat": 0.0, "fusion_lon": 0.0, "lon": -76.98358116666667, "is_disabled": 0, "bike_id": "997bb5e29d097b231f55ad18cda30501", "is_reserved": 0, "rental_uris": {"android": "https://dc.lft.to/lastmile_qr_scan", "ios": "https://dc.lft.to/lastmile_qr_scan"}, "lat": 38.8874925}, {"type": "electric_scooter", "name": "493022c6ed4ea31e1245f0e73865b69e", "fusion_lat": 0.0, "fusion_lon": 0.0, "lon": -77.0338055, "is_disabled": 0, "bike_id": "493022c6ed4ea31e1245f0e73865b69e", "is_reserved": 0, "rental_uris": {"android": "https://dc.lft.to/lastmile_qr_scan", "ios": "https://dc.lft.to/lastmile_qr_scan"}, "lat": 38.901441166666665}, {"type": "electric_bike", "name": "7ac4a3b20866f9de9c798b8739e13613", "fusion_lat": 0.0, "fusion_lon": 0.0, "lon": -76.98688283333334, "is_disabled": 0, "bike_id": "7ac4a3b20866f9de9c798b8739e13613", "is_reserved": 0, "rental_uris": {"android": "https://dc.lft.to/lastmile_qr_scan", "ios": "https://dc.lft.to/lastmile_qr_scan"}, "lat": 38.944748833333335}, {"type": "electric_scooter", "name": "79fe694dfc79f9e7d86640e42c49a62d", "fusion_lat": 0.0, "fusion_lon": 0.0, "lon": -77.02249683333334, "is_disabled": 0, "bike_id": "79fe694dfc79f9e7d86640e42c49a62d", "is_reserved": 0, "rental_uris": {"android": "https://dc.lft.to/lastmile_qr_scan", "ios": "https://dc.lft.to/lastmile_qr_scan"}, "lat": 38.894872}, {"type": "electric_scooter", "name": "ab5a9e1b391d0962c98868b6a47e5ad9", "fusion_lat": 0.0, "fusion_lon": 0.0, "lon": -77.04868616666667, "is_disabled": 0, "bike_id": "ab5a9e1b391d0962c98868b6a47e5ad9", "is_reserved": 0, "rental_uris": {"android": "https://dc.lft.to/lastmile_qr_scan", "ios": "https://dc.lft.to/lastmile_qr_scan"}, "lat": 38.91106}, {"type": "electric_scooter", "name": "2bceabd7d18e1f7a7ecaf100c4cd9fe6", "fusion_lat": 0.0, "fusion_lon": 0.0, "lon": -77.02322916666667, "is_disabled": 0, "bike_id": "2bceabd7d18e1f7a7ecaf100c4cd9fe6", "is_reserved": 0, "rental_uris": {"android": "https://dc.lft.to/lastmile_qr_scan", "ios": "https://dc.lft.to/lastmile_qr_scan"}, "lat": 38.9306245}, {"type": "electric_scooter", "name": "c434e7f39b4a0db6b699cabeba31150e", "fusion_lat": 0.0, "fusion_lon": 0.0, "lon": -77.03500783333334, "is_disabled": 0, "bike_id": "c434e7f39b4a0db6b699cabeba31150e", "is_reserved": 0, "rental_uris": {"android": "https://dc.lft.to/lastmile_qr_scan", "ios": "https://dc.lft.to/lastmile_qr_scan"}, "lat": 38.91708933333334}, {"type": "electric_scooter", "name": "20568daea5679860bc7cec6d978e4a49", "fusion_lat": 0.0, "fusion_lon": 0.0, "lon": -77.04086233333334, "is_disabled": 0, "bike_id": "20568daea5679860bc7cec6d978e4a49", "is_reserved": 0, "rental_uris": {"android": "https://dc.lft.to/lastmile_qr_scan", "ios": "https://dc.lft.to/lastmile_qr_scan"}, "lat": 38.920761166666665}, {"type": "electric_scooter", "name": "322a580ab08fa527d97d761badb6cc4d", "fusion_lat": 0.0, "fusion_lon": 0.0, "lon": -77.03963566666667, "is_disabled": 0, "bike_id": "322a580ab08fa527d97d761badb6cc4d", "is_reserved": 0, "rental_uris": {"android": "https://dc.lft.to/lastmile_qr_scan", "ios": "https://dc.lft.to/lastmile_qr_scan"}, "lat": 38.8989315}, {"type": "electric_scooter", "name": "aa9032ec94c04749559f8e4d53b046ea", "fusion_lat": 0.0, "fusion_lon": 0.0, "lon": -77.02774616666666, "is_disabled": 0, "bike_id": "aa9032ec94c04749559f8e4d53b046ea", "is_reserved": 0, "rental_uris": {"android": "https://dc.lft.to/lastmile_qr_scan", "ios": "https://dc.lft.to/lastmile_qr_scan"}, "lat": 38.965845333333334}, {"type": "electric_bike", "name": "f54ee57de97b944eff4fa7f578548c2d", "fusion_lat": 0.0, "fusion_lon": 0.0, "lon": -77.09557633333333, "is_disabled": 0, "bike_id": "f54ee57de97b944eff4fa7f578548c2d", "is_reserved": 0, "rental_uris": {"android": "https://dc.lft.to/lastmile_qr_scan", "ios": "https://dc.lft.to/lastmile_qr_scan"}, "lat": 38.858749833333334}, {"type": "electric_scooter", "name": "332e16670fa733c51c306bb090372bc6", "fusion_lat": 0.0, "fusion_lon": 0.0, "lon": -77.01339033333333, "is_disabled": 0, "bike_id": "332e16670fa733c51c306bb090372bc6", "is_reserved": 0, "rental_uris": {"android": "https://dc.lft.to/lastmile_qr_scan", "ios": "https://dc.lft.to/lastmile_qr_scan"}, "lat": 38.881238}, {"type": "electric_scooter", "name": "8c338451a073ca6b5e726693f6adbbfc", "fusion_lat": 0.0, "fusion_lon": 0.0, "lon": -77.02280033333334, "is_disabled": 0, "bike_id": "8c338451a073ca6b5e726693f6adbbfc", "is_reserved": 0, "rental_uris": {"android": "https://dc.lft.to/lastmile_qr_scan", "ios": "https://dc.lft.to/lastmile_qr_scan"}, "lat": 38.92689933333333}, {"type": "electric_scooter", "name": "bb039ec06d50f04d0afdfe6ce15d5cdc", "fusion_lat": 0.0, "fusion_lon": 0.0, "lon": -77.0435175, "is_disabled": 0, "bike_id": "bb039ec06d50f04d0afdfe6ce15d5cdc", "is_reserved": 0, "rental_uris": {"android": "https://dc.lft.to/lastmile_qr_scan", "ios": "https://dc.lft.to/lastmile_qr_scan"}, "lat": 38.90475583333333}, {"type": "electric_scooter", "name": "699d562075a9a1104a508bc1b3840e61", "fusion_lat": 0.0, "fusion_lon": 0.0, "lon": -77.035044, "is_disabled": 0, "bike_id": "699d562075a9a1104a508bc1b3840e61", "is_reserved": 0, "rental_uris": {"android": "https://dc.lft.to/lastmile_qr_scan", "ios": "https://dc.lft.to/lastmile_qr_scan"}, "lat": 38.92149966666667}, {"type": "electric_scooter", "name": "097a41cf52533f6e31ea70ad84fcb152", "fusion_lat": 0.0, "fusion_lon": 0.0, "lon": -77.0325715, "is_disabled": 0, "bike_id": "097a41cf52533f6e31ea70ad84fcb152", "is_reserved": 0, "rental_uris": {"android": "https://dc.lft.to/lastmile_qr_scan", "ios": "https://dc.lft.to/lastmile_qr_scan"}, "lat": 38.93310483333333}, {"type": "electric_scooter", "name": "e4dc5db12bba691bcaaac8a135d56827", "fusion_lat": 0.0, "fusion_lon": 0.0, "lon": -76.97652916666667, "is_disabled": 0, "bike_id": "e4dc5db12bba691bcaaac8a135d56827", "is_reserved": 0, "rental_uris": {"android": "https://dc.lft.to/lastmile_qr_scan", "ios": "https://dc.lft.to/lastmile_qr_scan"}, "lat": 38.90364983333333}, {"type": "electric_bike", "name": "7f8a547ca692e046789f8110e3fd6684", "fusion_lat": 0.0, "fusion_lon": 0.0, "lon": -77.03241533333333, "is_disabled": 0, "bike_id": "7f8a547ca692e046789f8110e3fd6684", "is_reserved": 0, "rental_uris": {"android": "https://dc.lft.to/lastmile_qr_scan", "ios": "https://dc.lft.to/lastmile_qr_scan"}, "lat": 38.96168383333333}, {"type": "electric_scooter", "name": "4f28e09f68bf00642a2aeddee3ab118a", "fusion_lat": 0.0, "fusion_lon": 0.0, "lon": -77.06170916666666, "is_disabled": 0, "bike_id": "4f28e09f68bf00642a2aeddee3ab118a", "is_reserved": 0, "rental_uris": {"android": "https://dc.lft.to/lastmile_qr_scan", "ios": "https://dc.lft.to/lastmile_qr_scan"}, "lat": 38.94127616666667}, {"type": "electric_bike", "name": "1e11c73cda3198b6accea1c0a3c8cce0", "fusion_lat": 0.0, "fusion_lon": 0.0, "lon": -76.97845333333333, "is_disabled": 0, "bike_id": "1e11c73cda3198b6accea1c0a3c8cce0", "is_reserved": 0, "rental_uris": {"android": "https://dc.lft.to/lastmile_qr_scan", "ios": "https://dc.lft.to/lastmile_qr_scan"}, "lat": 38.88873866666667}, {"type": "electric_bike", "name": "5e2322da5205a312531f98d0801e7de2", "fusion_lat": 0.0, "fusion_lon": 0.0, "lon": -76.91804883333333, "is_disabled": 0, "bike_id": "5e2322da5205a312531f98d0801e7de2", "is_reserved": 0, "rental_uris": {"android": "https://dc.lft.to/lastmile_qr_scan", "ios": "https://dc.lft.to/lastmile_qr_scan"}, "lat": 39.00002833333333}, {"type": "electric_scooter", "name": "34c3696d7bcaf89ac80e1a51399ccf5e", "fusion_lat": 0.0, "fusion_lon": 0.0, "lon": -77.04619133333334, "is_disabled": 0, "bike_id": "34c3696d7bcaf89ac80e1a51399ccf5e", "is_reserved": 0, "rental_uris": {"android": "https://dc.lft.to/lastmile_qr_scan", "ios": "https://dc.lft.to/lastmile_qr_scan"}, "lat": 38.92328416666667}, {"type": "electric_scooter", "name": "3f720ba8adaa66948381c7a5b7094668", "fusion_lat": 0.0, "fusion_lon": 0.0, "lon": -77.024753, "is_disabled": 0, "bike_id": "3f720ba8adaa66948381c7a5b7094668", "is_reserved": 0, "rental_uris": {"android": "https://dc.lft.to/lastmile_qr_scan", "ios": "https://dc.lft.to/lastmile_qr_scan"}, "lat": 38.9181635}, {"type": "electric_scooter", "name": "8ab2fc1159d287766e4604ed34b35c3a", "fusion_lat": 0.0, "fusion_lon": 0.0, "lon": -77.022987, "is_disabled": 0, "bike_id": "8ab2fc1159d287766e4604ed34b35c3a", "is_reserved": 0, "rental_uris": {"android": "https://dc.lft.to/lastmile_qr_scan", "ios": "https://dc.lft.to/lastmile_qr_scan"}, "lat": 38.916607}, {"type": "electric_scooter", "name": "5caa063db7f84e7477bc0062b7897d92", "fusion_lat": 0.0, "fusion_lon": 0.0, "lon": -77.02819566666666, "is_disabled": 0, "bike_id": "5caa063db7f84e7477bc0062b7897d92", "is_reserved": 0, "rental_uris": {"android": "https://dc.lft.to/lastmile_qr_scan", "ios": "https://dc.lft.to/lastmile_qr_scan"}, "lat": 38.90492883333334}, {"type": "electric_scooter", "name": "029fc67fa99c50fb6265a4956e1d7505", "fusion_lat": 0.0, "fusion_lon": 0.0, "lon": -77.026443, "is_disabled": 0, "bike_id": "029fc67fa99c50fb6265a4956e1d7505", "is_reserved": 0, "rental_uris": {"android": "https://dc.lft.to/lastmile_qr_scan", "ios": "https://dc.lft.to/lastmile_qr_scan"}, "lat": 38.93101466666667}, {"type": "electric_scooter", "name": "8bdf27beeadf39ef82e56c020db5021e", "fusion_lat": 0.0, "fusion_lon": 0.0, "lon": -77.01521133333334, "is_disabled": 0, "bike_id": "8bdf27beeadf39ef82e56c020db5021e", "is_reserved": 0, "rental_uris": {"android": "https://dc.lft.to/lastmile_qr_scan", "ios": "https://dc.lft.to/lastmile_qr_scan"}, "lat": 38.872678666666665}, {"type": "electric_scooter", "name": "8d5fb69921a1c60ee399e845a7c2a8cc", "fusion_lat": 0.0, "fusion_lon": 0.0, "lon": -77.03599033333333, "is_disabled": 0, "bike_id": "8d5fb69921a1c60ee399e845a7c2a8cc", "is_reserved": 0, "rental_uris": {"android": "https://dc.lft.to/lastmile_qr_scan", "ios": "https://dc.lft.to/lastmile_qr_scan"}, "lat": 38.92856666666667}, {"type": "electric_scooter", "name": "2d0dc4d8b34387ae3dc038bb614423bd", "fusion_lat": 0.0, "fusion_lon": 0.0, "lon": -77.03448733333333, "is_disabled": 0, "bike_id": "2d0dc4d8b34387ae3dc038bb614423bd", "is_reserved": 0, "rental_uris": {"android": "https://dc.lft.to/lastmile_qr_scan", "ios": "https://dc.lft.to/lastmile_qr_scan"}, "lat": 38.9071755}, {"type": "electric_scooter", "name": "791178b1e62eca4f6aa33be3082ae0fa", "fusion_lat": 0.0, "fusion_lon": 0.0, "lon": -77.0436315, "is_disabled": 0, "bike_id": "791178b1e62eca4f6aa33be3082ae0fa", "is_reserved": 0, "rental_uris": {"android": "https://dc.lft.to/lastmile_qr_scan", "ios": "https://dc.lft.to/lastmile_qr_scan"}, "lat": 38.9224665}, {"type": "electric_scooter", "name": "8598faf0c338164ac3eb6626fb9e0811", "fusion_lat": 0.0, "fusion_lon": 0.0, "lon": -76.9948915, "is_disabled": 0, "bike_id": "8598faf0c338164ac3eb6626fb9e0811", "is_reserved": 0, "rental_uris": {"android": "https://dc.lft.to/lastmile_qr_scan", "ios": "https://dc.lft.to/lastmile_qr_scan"}, "lat": 38.8822885}, {"type": "electric_bike", "name": "edd57cbce679dfb064f1a89aa1800781", "fusion_lat": 0.0, "fusion_lon": 0.0, "lon": -77.1325255, "is_disabled": 0, "bike_id": "edd57cbce679dfb064f1a89aa1800781", "is_reserved": 0, "rental_uris": {"android": "https://dc.lft.to/lastmile_qr_scan", "ios": "https://dc.lft.to/lastmile_qr_scan"}, "lat": 38.805605166666666}, {"type": "electric_scooter", "name": "f4cf1d0e5e45a8553ded99c0c5679163", "fusion_lat": 0.0, "fusion_lon": 0.0, "lon": -77.01832316666666, "is_disabled": 0, "bike_id": "f4cf1d0e5e45a8553ded99c0c5679163", "is_reserved": 0, "rental_uris": {"android": "https://dc.lft.to/lastmile_qr_scan", "ios": "https://dc.lft.to/lastmile_qr_scan"}, "lat": 38.909593666666666}, {"type": "electric_scooter", "name": "9b304ae008f82e7bc5358edb92d9e73d", "fusion_lat": 0.0, "fusion_lon": 0.0, "lon": -77.01212216666667, "is_disabled": 0, "bike_id": "9b304ae008f82e7bc5358edb92d9e73d", "is_reserved": 0, "rental_uris": {"android": "https://dc.lft.to/lastmile_qr_scan", "ios": "https://dc.lft.to/lastmile_qr_scan"}, "lat": 38.918242}, {"type": "electric_scooter", "name": "2b054f6d024d2be523d96c0217502249", "fusion_lat": 0.0, "fusion_lon": 0.0, "lon": -77.03277666666666, "is_disabled": 0, "bike_id": "2b054f6d024d2be523d96c0217502249", "is_reserved": 0, "rental_uris": {"android": "https://dc.lft.to/lastmile_qr_scan", "ios": "https://dc.lft.to/lastmile_qr_scan"}, "lat": 38.91999033333333}, {"type": "electric_scooter", "name": "e23cfe645c995a7273af102a54e99bc2", "fusion_lat": 0.0, "fusion_lon": 0.0, "lon": -77.03853416666666, "is_disabled": 0, "bike_id": "e23cfe645c995a7273af102a54e99bc2", "is_reserved": 0, "rental_uris": {"android": "https://dc.lft.to/lastmile_qr_scan", "ios": "https://dc.lft.to/lastmile_qr_scan"}, "lat": 38.9166945}, {"type": "electric_scooter", "name": "d3fa97023d83cd15ca587f877c75e180", "fusion_lat": 0.0, "fusion_lon": 0.0, "lon": -77.025244, "is_disabled": 0, "bike_id": "d3fa97023d83cd15ca587f877c75e180", "is_reserved": 0, "rental_uris": {"android": "https://dc.lft.to/lastmile_qr_scan", "ios": "https://dc.lft.to/lastmile_qr_scan"}, "lat": 38.92100033333333}, {"type": "electric_scooter", "name": "ae7f87dad6151e0ab30223a9026e4aa4", "fusion_lat": 0.0, "fusion_lon": 0.0, "lon": -77.05638933333333, "is_disabled": 0, "bike_id": "ae7f87dad6151e0ab30223a9026e4aa4", "is_reserved": 0, "rental_uris": {"android": "https://dc.lft.to/lastmile_qr_scan", "ios": "https://dc.lft.to/lastmile_qr_scan"}, "lat": 38.935972666666665}, {"type": "electric_scooter", "name": "1ae5094f0df19f8dce69a80db5b04371", "fusion_lat": 0.0, "fusion_lon": 0.0, "lon": -77.05916183333333, "is_disabled": 0, "bike_id": "1ae5094f0df19f8dce69a80db5b04371", "is_reserved": 0, "rental_uris": {"android": "https://dc.lft.to/lastmile_qr_scan", "ios": "https://dc.lft.to/lastmile_qr_scan"}, "lat": 38.9027985}, {"type": "electric_scooter", "name": "d90c8d69c2dde09bda19c44abcd3c56e", "fusion_lat": 0.0, "fusion_lon": 0.0, "lon": -77.07863166666667, "is_disabled": 0, "bike_id": "d90c8d69c2dde09bda19c44abcd3c56e", "is_reserved": 0, "rental_uris": {"android": "https://dc.lft.to/lastmile_qr_scan", "ios": "https://dc.lft.to/lastmile_qr_scan"}, "lat": 38.924627666666666}, {"type": "electric_scooter", "name": "f4c206e9e83262f87cce86b169a423e1", "fusion_lat": 0.0, "fusion_lon": 0.0, "lon": -77.03631833333333, "is_disabled": 0, "bike_id": "f4c206e9e83262f87cce86b169a423e1", "is_reserved": 0, "rental_uris": {"android": "https://dc.lft.to/lastmile_qr_scan", "ios": "https://dc.lft.to/lastmile_qr_scan"}, "lat": 38.925967666666665}, {"type": "electric_scooter", "name": "caa9a9e9e4c8bcc0b538eaba65b50486", "fusion_lat": 0.0, "fusion_lon": 0.0, "lon": -77.0395905, "is_disabled": 0, "bike_id": "caa9a9e9e4c8bcc0b538eaba65b50486", "is_reserved": 0, "rental_uris": {"android": "https://dc.lft.to/lastmile_qr_scan", "ios": "https://dc.lft.to/lastmile_qr_scan"}, "lat": 38.89249916666667}, {"type": "electric_scooter", "name": "1995350754752a5e1882c24997d21550", "fusion_lat": 0.0, "fusion_lon": 0.0, "lon": -77.03464833333334, "is_disabled": 0, "bike_id": "1995350754752a5e1882c24997d21550", "is_reserved": 0, "rental_uris": {"android": "https://dc.lft.to/lastmile_qr_scan", "ios": "https://dc.lft.to/lastmile_qr_scan"}, "lat": 38.91726833333333}, {"type": "electric_scooter", "name": "56076a6af5e3b9e9fca7c925ab20e027", "fusion_lat": 0.0, "fusion_lon": 0.0, "lon": -77.01569233333333, "is_disabled": 0, "bike_id": "56076a6af5e3b9e9fca7c925ab20e027", "is_reserved": 0, "rental_uris": {"android": "https://dc.lft.to/lastmile_qr_scan", "ios": "https://dc.lft.to/lastmile_qr_scan"}, "lat": 38.876243}, {"type": "electric_bike", "name": "baee3a6afb7e4c75049584ec14b2cfc4", "fusion_lat": 0.0, "fusion_lon": 0.0, "lon": -77.097247, "is_disabled": 0, "bike_id": "baee3a6afb7e4c75049584ec14b2cfc4", "is_reserved": 0, "rental_uris": {"android": "https://dc.lft.to/lastmile_qr_scan", "ios": "https://dc.lft.to/lastmile_qr_scan"}, "lat": 38.80740766666667}, {"type": "electric_bike", "name": "02fd834c8766e6dcc87c96955be01772", "fusion_lat": 0.0, "fusion_lon": 0.0, "lon": -77.00129166666666, "is_disabled": 0, "bike_id": "02fd834c8766e6dcc87c96955be01772", "is_reserved": 0, "rental_uris": {"android": "https://dc.lft.to/lastmile_qr_scan", "ios": "https://dc.lft.to/lastmile_qr_scan"}, "lat": 38.925551166666665}, {"type": "electric_bike", "name": "de89463b7fa5f4ea241e262c2c19e666", "fusion_lat": 0.0, "fusion_lon": 0.0, "lon": -77.06528633333333, "is_disabled": 0, "bike_id": "de89463b7fa5f4ea241e262c2c19e666", "is_reserved": 0, "rental_uris": {"android": "https://dc.lft.to/lastmile_qr_scan", "ios": "https://dc.lft.to/lastmile_qr_scan"}, "lat": 38.99229366666667}, {"type": "electric_bike", "name": "b79a6c9d36f54221ad72da40f43ad09e", "fusion_lat": 0.0, "fusion_lon": 0.0, "lon": -77.02421583333333, "is_disabled": 0, "bike_id": "b79a6c9d36f54221ad72da40f43ad09e", "is_reserved": 0, "rental_uris": {"android": "https://dc.lft.to/lastmile_qr_scan", "ios": "https://dc.lft.to/lastmile_qr_scan"}, "lat": 38.99119783333333}, {"type": "electric_scooter", "name": "38b6acd6f29b02c9939df6c30419a16f", "fusion_lat": 0.0, "fusion_lon": 0.0, "lon": -77.05514583333333, "is_disabled": 0, "bike_id": "38b6acd6f29b02c9939df6c30419a16f", "is_reserved": 0, "rental_uris": {"android": "https://dc.lft.to/lastmile_qr_scan", "ios": "https://dc.lft.to/lastmile_qr_scan"}, "lat": 38.928412333333334}, {"type": "electric_scooter", "name": "f1240fbfb24ed8a909d12a310f752a80", "fusion_lat": 0.0, "fusion_lon": 0.0, "lon": -77.018625, "is_disabled": 0, "bike_id": "f1240fbfb24ed8a909d12a310f752a80", "is_reserved": 0, "rental_uris": {"android": "https://dc.lft.to/lastmile_qr_scan", "ios": "https://dc.lft.to/lastmile_qr_scan"}, "lat": 38.93048483333333}, {"type": "electric_scooter", "name": "b007f3284487b97007e346a2ba7a01e8", "fusion_lat": 0.0, "fusion_lon": 0.0, "lon": -77.01226933333334, "is_disabled": 0, "bike_id": "b007f3284487b97007e346a2ba7a01e8", "is_reserved": 0, "rental_uris": {"android": "https://dc.lft.to/lastmile_qr_scan", "ios": "https://dc.lft.to/lastmile_qr_scan"}, "lat": 38.914029}, {"type": "electric_scooter", "name": "e761807d47061d7b87d8743a41642f01", "fusion_lat": 0.0, "fusion_lon": 0.0, "lon": -77.01575183333334, "is_disabled": 0, "bike_id": "e761807d47061d7b87d8743a41642f01", "is_reserved": 0, "rental_uris": {"android": "https://dc.lft.to/lastmile_qr_scan", "ios": "https://dc.lft.to/lastmile_qr_scan"}, "lat": 38.8762775}, {"type": "electric_scooter", "name": "163a939ca20f85f3280d7b2d5e53c960", "fusion_lat": 0.0, "fusion_lon": 0.0, "lon": -77.046078, "is_disabled": 0, "bike_id": "163a939ca20f85f3280d7b2d5e53c960", "is_reserved": 0, "rental_uris": {"android": "https://dc.lft.to/lastmile_qr_scan", "ios": "https://dc.lft.to/lastmile_qr_scan"}, "lat": 38.883812666666664}, {"type": "electric_scooter", "name": "c4d0365a6266127a3177d75ae91a7110", "fusion_lat": 0.0, "fusion_lon": 0.0, "lon": -77.02208583333334, "is_disabled": 0, "bike_id": "c4d0365a6266127a3177d75ae91a7110", "is_reserved": 0, "rental_uris": {"android": "https://dc.lft.to/lastmile_qr_scan", "ios": "https://dc.lft.to/lastmile_qr_scan"}, "lat": 38.89233766666667}, {"type": "electric_scooter", "name": "6f2be745c501af88e37afd53c1eabad5", "fusion_lat": 0.0, "fusion_lon": 0.0, "lon": -77.0453185, "is_disabled": 0, "bike_id": "6f2be745c501af88e37afd53c1eabad5", "is_reserved": 0, "rental_uris": {"android": "https://dc.lft.to/lastmile_qr_scan", "ios": "https://dc.lft.to/lastmile_qr_scan"}, "lat": 38.9112065}, {"type": "electric_scooter", "name": "a9a41d39b879d10a9b7485669e24c813", "fusion_lat": 0.0, "fusion_lon": 0.0, "lon": -77.035653, "is_disabled": 0, "bike_id": "a9a41d39b879d10a9b7485669e24c813", "is_reserved": 0, "rental_uris": {"android": "https://dc.lft.to/lastmile_qr_scan", "ios": "https://dc.lft.to/lastmile_qr_scan"}, "lat": 38.91817866666667}, {"type": "electric_bike", "name": "66b33a00f857af84c45a8a32ca773b01", "fusion_lat": 0.0, "fusion_lon": 0.0, "lon": -77.012293, "is_disabled": 0, "bike_id": "66b33a00f857af84c45a8a32ca773b01", "is_reserved": 0, "rental_uris": {"android": "https://dc.lft.to/lastmile_qr_scan", "ios": "https://dc.lft.to/lastmile_qr_scan"}, "lat": 38.9508435}, {"type": "electric_scooter", "name": "cd5213e292045aa7c2d4138e61402e0a", "fusion_lat": 0.0, "fusion_lon": 0.0, "lon": -77.0474045, "is_disabled": 0, "bike_id": "cd5213e292045aa7c2d4138e61402e0a", "is_reserved": 0, "rental_uris": {"android": "https://dc.lft.to/lastmile_qr_scan", "ios": "https://dc.lft.to/lastmile_qr_scan"}, "lat": 38.91285383333334}, {"type": "electric_scooter", "name": "626d54004f733b6c1f6040e69884f3a2", "fusion_lat": 0.0, "fusion_lon": 0.0, "lon": -77.02352566666667, "is_disabled": 0, "bike_id": "626d54004f733b6c1f6040e69884f3a2", "is_reserved": 0, "rental_uris": {"android": "https://dc.lft.to/lastmile_qr_scan", "ios": "https://dc.lft.to/lastmile_qr_scan"}, "lat": 38.935336166666666}, {"type": "electric_scooter", "name": "7ec70c25a750486f2144475d5d2f154c", "fusion_lat": 0.0, "fusion_lon": 0.0, "lon": -77.04555583333334, "is_disabled": 0, "bike_id": "7ec70c25a750486f2144475d5d2f154c", "is_reserved": 0, "rental_uris": {"android": "https://dc.lft.to/lastmile_qr_scan", "ios": "https://dc.lft.to/lastmile_qr_scan"}, "lat": 38.900758333333336}, {"type": "electric_scooter", "name": "6ed932310f2a740d796718d59867fb2e", "fusion_lat": 0.0, "fusion_lon": 0.0, "lon": -77.042129, "is_disabled": 0, "bike_id": "6ed932310f2a740d796718d59867fb2e", "is_reserved": 0, "rental_uris": {"android": "https://dc.lft.to/lastmile_qr_scan", "ios": "https://dc.lft.to/lastmile_qr_scan"}, "lat": 38.92130783333333}, {"type": "electric_bike", "name": "ebbaecd0e62ef3a40886549fbffbd4f2", "fusion_lat": 0.0, "fusion_lon": 0.0, "lon": -76.98018716666667, "is_disabled": 0, "bike_id": "ebbaecd0e62ef3a40886549fbffbd4f2", "is_reserved": 0, "rental_uris": {"android": "https://dc.lft.to/lastmile_qr_scan", "ios": "https://dc.lft.to/lastmile_qr_scan"}, "lat": 38.85331333333333}, {"type": "electric_scooter", "name": "51af524c74e37b5f92304a572d1b2569", "fusion_lat": 0.0, "fusion_lon": 0.0, "lon": -77.02182133333334, "is_disabled": 0, "bike_id": "51af524c74e37b5f92304a572d1b2569", "is_reserved": 0, "rental_uris": {"android": "https://dc.lft.to/lastmile_qr_scan", "ios": "https://dc.lft.to/lastmile_qr_scan"}, "lat": 38.901943}, {"type": "electric_scooter", "name": "bd9fcd24875c925a6be681b113e4036d", "fusion_lat": 0.0, "fusion_lon": 0.0, "lon": -77.0057995, "is_disabled": 0, "bike_id": "bd9fcd24875c925a6be681b113e4036d", "is_reserved": 0, "rental_uris": {"android": "https://dc.lft.to/lastmile_qr_scan", "ios": "https://dc.lft.to/lastmile_qr_scan"}, "lat": 38.902579}, {"type": "electric_scooter", "name": "41f6eba0d1144a5f1d0d5dd48132071b", "fusion_lat": 0.0, "fusion_lon": 0.0, "lon": -77.04171883333333, "is_disabled": 0, "bike_id": "41f6eba0d1144a5f1d0d5dd48132071b", "is_reserved": 0, "rental_uris": {"android": "https://dc.lft.to/lastmile_qr_scan", "ios": "https://dc.lft.to/lastmile_qr_scan"}, "lat": 38.914010833333336}, {"type": "electric_scooter", "name": "20db0ea8be671b25f670fa6bc592a1fd", "fusion_lat": 0.0, "fusion_lon": 0.0, "lon": -76.9815235, "is_disabled": 0, "bike_id": "20db0ea8be671b25f670fa6bc592a1fd", "is_reserved": 0, "rental_uris": {"android": "https://dc.lft.to/lastmile_qr_scan", "ios": "https://dc.lft.to/lastmile_qr_scan"}, "lat": 38.8993715}, {"type": "electric_bike", "name": "691a803083ddb64205053dc52825fb55", "fusion_lat": 0.0, "fusion_lon": 0.0, "lon": -76.98247333333333, "is_disabled": 0, "bike_id": "691a803083ddb64205053dc52825fb55", "is_reserved": 0, "rental_uris": {"android": "https://dc.lft.to/lastmile_qr_scan", "ios": "https://dc.lft.to/lastmile_qr_scan"}, "lat": 38.952388166666665}, {"type": "electric_scooter", "name": "da5a30df15af70ad9be5b0d717afa9b2", "fusion_lat": 0.0, "fusion_lon": 0.0, "lon": -77.0052635, "is_disabled": 0, "bike_id": "da5a30df15af70ad9be5b0d717afa9b2", "is_reserved": 0, "rental_uris": {"android": "https://dc.lft.to/lastmile_qr_scan", "ios": "https://dc.lft.to/lastmile_qr_scan"}, "lat": 38.87645783333333}, {"type": "electric_scooter", "name": "fd4ab1b8236d0b6d79b58e0f326664bc", "fusion_lat": 0.0, "fusion_lon": 0.0, "lon": -77.02973633333333, "is_disabled": 0, "bike_id": "fd4ab1b8236d0b6d79b58e0f326664bc", "is_reserved": 0, "rental_uris": {"android": "https://dc.lft.to/lastmile_qr_scan", "ios": "https://dc.lft.to/lastmile_qr_scan"}, "lat": 38.930619666666665}, {"type": "electric_scooter", "name": "eed875bec255689bbb87a1e25d383b13", "fusion_lat": 0.0, "fusion_lon": 0.0, "lon": -77.0450425, "is_disabled": 0, "bike_id": "eed875bec255689bbb87a1e25d383b13", "is_reserved": 0, "rental_uris": {"android": "https://dc.lft.to/lastmile_qr_scan", "ios": "https://dc.lft.to/lastmile_qr_scan"}, "lat": 38.9127645}, {"type": "electric_scooter", "name": "b8573042e0b17903a89b59a145240a48", "fusion_lat": 0.0, "fusion_lon": 0.0, "lon": -77.02148316666667, "is_disabled": 0, "bike_id": "b8573042e0b17903a89b59a145240a48", "is_reserved": 0, "rental_uris": {"android": "https://dc.lft.to/lastmile_qr_scan", "ios": "https://dc.lft.to/lastmile_qr_scan"}, "lat": 38.9029385}, {"type": "electric_scooter", "name": "6379d0f411b67d8a34f78fded631a441", "fusion_lat": 0.0, "fusion_lon": 0.0, "lon": -77.03328, "is_disabled": 0, "bike_id": "6379d0f411b67d8a34f78fded631a441", "is_reserved": 0, "rental_uris": {"android": "https://dc.lft.to/lastmile_qr_scan", "ios": "https://dc.lft.to/lastmile_qr_scan"}, "lat": 38.9001345}, {"type": "electric_scooter", "name": "30a14566701dcd4741065c04a024cf38", "fusion_lat": 0.0, "fusion_lon": 0.0, "lon": -77.03796716666666, "is_disabled": 0, "bike_id": "30a14566701dcd4741065c04a024cf38", "is_reserved": 0, "rental_uris": {"android": "https://dc.lft.to/lastmile_qr_scan", "ios": "https://dc.lft.to/lastmile_qr_scan"}, "lat": 38.9250685}, {"type": "electric_scooter", "name": "ca1137793432170b90cf4766650395b9", "fusion_lat": 0.0, "fusion_lon": 0.0, "lon": -77.03436333333333, "is_disabled": 0, "bike_id": "ca1137793432170b90cf4766650395b9", "is_reserved": 0, "rental_uris": {"android": "https://dc.lft.to/lastmile_qr_scan", "ios": "https://dc.lft.to/lastmile_qr_scan"}, "lat": 38.90934033333333}, {"type": "electric_scooter", "name": "400a9d5af206f2eb751f3e69af32b756", "fusion_lat": 0.0, "fusion_lon": 0.0, "lon": -77.04610816666667, "is_disabled": 0, "bike_id": "400a9d5af206f2eb751f3e69af32b756", "is_reserved": 0, "rental_uris": {"android": "https://dc.lft.to/lastmile_qr_scan", "ios": "https://dc.lft.to/lastmile_qr_scan"}, "lat": 38.92230883333333}, {"type": "electric_scooter", "name": "e9f298df4310a29fea4d1076c0d82da0", "fusion_lat": 0.0, "fusion_lon": 0.0, "lon": -77.04032533333333, "is_disabled": 0, "bike_id": "e9f298df4310a29fea4d1076c0d82da0", "is_reserved": 0, "rental_uris": {"android": "https://dc.lft.to/lastmile_qr_scan", "ios": "https://dc.lft.to/lastmile_qr_scan"}, "lat": 38.91807383333333}, {"type": "electric_bike", "name": "e65332a4bc37eabd975513a2eb7f4065", "fusion_lat": 0.0, "fusion_lon": 0.0, "lon": -77.024238, "is_disabled": 0, "bike_id": "e65332a4bc37eabd975513a2eb7f4065", "is_reserved": 0, "rental_uris": {"android": "https://dc.lft.to/lastmile_qr_scan", "ios": "https://dc.lft.to/lastmile_qr_scan"}, "lat": 38.94910016666667}, {"type": "electric_scooter", "name": "08dee85ca90adfb0c1147c42ec43f8b1", "fusion_lat": 0.0, "fusion_lon": 0.0, "lon": -77.03986016666667, "is_disabled": 0, "bike_id": "08dee85ca90adfb0c1147c42ec43f8b1", "is_reserved": 0, "rental_uris": {"android": "https://dc.lft.to/lastmile_qr_scan", "ios": "https://dc.lft.to/lastmile_qr_scan"}, "lat": 38.934054}, {"type": "electric_scooter", "name": "d6d18f84f6e02db48a5334bb39c0fbc9", "fusion_lat": 0.0, "fusion_lon": 0.0, "lon": -77.03954366666666, "is_disabled": 0, "bike_id": "d6d18f84f6e02db48a5334bb39c0fbc9", "is_reserved": 0, "rental_uris": {"android": "https://dc.lft.to/lastmile_qr_scan", "ios": "https://dc.lft.to/lastmile_qr_scan"}, "lat": 38.8924935}, {"type": "electric_scooter", "name": "8fbf1a6ba2420dc1bc8e2ed94a855126", "fusion_lat": 0.0, "fusion_lon": 0.0, "lon": -76.99030433333333, "is_disabled": 0, "bike_id": "8fbf1a6ba2420dc1bc8e2ed94a855126", "is_reserved": 0, "rental_uris": {"android": "https://dc.lft.to/lastmile_qr_scan", "ios": "https://dc.lft.to/lastmile_qr_scan"}, "lat": 38.89137983333333}, {"type": "electric_bike", "name": "ed33ccbada59de0b1a44bd10bf054af1", "fusion_lat": 0.0, "fusion_lon": 0.0, "lon": -77.02058783333334, "is_disabled": 0, "bike_id": "ed33ccbada59de0b1a44bd10bf054af1", "is_reserved": 0, "rental_uris": {"android": "https://dc.lft.to/lastmile_qr_scan", "ios": "https://dc.lft.to/lastmile_qr_scan"}, "lat": 38.92848633333333}, {"type": "electric_scooter", "name": "dd6cdf60f09e33ea8b973914333baa62", "fusion_lat": 0.0, "fusion_lon": 0.0, "lon": -77.00701883333333, "is_disabled": 0, "bike_id": "dd6cdf60f09e33ea8b973914333baa62", "is_reserved": 0, "rental_uris": {"android": "https://dc.lft.to/lastmile_qr_scan", "ios": "https://dc.lft.to/lastmile_qr_scan"}, "lat": 38.90587766666667}, {"type": "electric_scooter", "name": "fa8978c113e4399ac855daff1e5c9c9a", "fusion_lat": 0.0, "fusion_lon": 0.0, "lon": -77.00480183333333, "is_disabled": 0, "bike_id": "fa8978c113e4399ac855daff1e5c9c9a", "is_reserved": 0, "rental_uris": {"android": "https://dc.lft.to/lastmile_qr_scan", "ios": "https://dc.lft.to/lastmile_qr_scan"}, "lat": 38.87461483333333}, {"type": "electric_scooter", "name": "9c4a1a74b66873630abfe1fb1bca968c", "fusion_lat": 0.0, "fusion_lon": 0.0, "lon": -77.04154783333334, "is_disabled": 0, "bike_id": "9c4a1a74b66873630abfe1fb1bca968c", "is_reserved": 0, "rental_uris": {"android": "https://dc.lft.to/lastmile_qr_scan", "ios": "https://dc.lft.to/lastmile_qr_scan"}, "lat": 38.91547466666667}, {"type": "electric_scooter", "name": "7ca0835f4f381e4d99604ba42c1d0f74", "fusion_lat": 0.0, "fusion_lon": 0.0, "lon": -77.036799, "is_disabled": 0, "bike_id": "7ca0835f4f381e4d99604ba42c1d0f74", "is_reserved": 0, "rental_uris": {"android": "https://dc.lft.to/lastmile_qr_scan", "ios": "https://dc.lft.to/lastmile_qr_scan"}, "lat": 38.9393}, {"type": "electric_bike", "name": "909c93adac84824d3147c4b50da3823a", "fusion_lat": 0.0, "fusion_lon": 0.0, "lon": -76.98058816666666, "is_disabled": 0, "bike_id": "909c93adac84824d3147c4b50da3823a", "is_reserved": 0, "rental_uris": {"android": "https://dc.lft.to/lastmile_qr_scan", "ios": "https://dc.lft.to/lastmile_qr_scan"}, "lat": 38.97253383333333}, {"type": "electric_scooter", "name": "ae2f7b3cd82e23efab8a66e97e725d49", "fusion_lat": 0.0, "fusion_lon": 0.0, "lon": -77.04486, "is_disabled": 0, "bike_id": "ae2f7b3cd82e23efab8a66e97e725d49", "is_reserved": 0, "rental_uris": {"android": "https://dc.lft.to/lastmile_qr_scan", "ios": "https://dc.lft.to/lastmile_qr_scan"}, "lat": 38.91593866666667}, {"type": "electric_scooter", "name": "cb4fad1ae6dbbc2ab76d1d52dafbc381", "fusion_lat": 0.0, "fusion_lon": 0.0, "lon": -77.02447483333333, "is_disabled": 0, "bike_id": "cb4fad1ae6dbbc2ab76d1d52dafbc381", "is_reserved": 0, "rental_uris": {"android": "https://dc.lft.to/lastmile_qr_scan", "ios": "https://dc.lft.to/lastmile_qr_scan"}, "lat": 38.920948333333335}, {"type": "electric_scooter", "name": "7e1990c7b28e75fb3405027464d2b8bd", "fusion_lat": 0.0, "fusion_lon": 0.0, "lon": -77.03182666666666, "is_disabled": 0, "bike_id": "7e1990c7b28e75fb3405027464d2b8bd", "is_reserved": 0, "rental_uris": {"android": "https://dc.lft.to/lastmile_qr_scan", "ios": "https://dc.lft.to/lastmile_qr_scan"}, "lat": 38.929167166666666},