{"data": {"bikes": [{"bike_id": "21ea8d51b48fd6edd2fc7f16a9bf3fc6", "lat": 38.9055475, "is_reserved": 0, "fusion_lat": 0.0, "rental_uris": {"android": "https://dc.lft.to/lastmile_qr_scan", "ios": "https://dc.lft.to/lastmile_qr_scan"}, "fusion_lon": 0.0, "name": "21ea8d51b48fd6edd2fc7f16a9bf3fc6", "lon": -77.04100966666667, "is_disabled": 0, "type": "electric_scooter"}, {"bike_id": "77df70a51486dc847b202e60d5642bf0", "lat": 38.93883966666667, "is_reserved": 0, "fusion_lat": 0.0, "rental_uris": {"android": "https://dc.lft.to/lastmile_qr_scan", "ios": "https://dc.lft.to/lastmile_qr_scan"}, "fusion_lon": 0.0, "name": "77df70a51486dc847b202e60d5642bf0", "lon": -77.0246315, "is_disabled": 0, "type": "electric_scooter"}, {"bike_id": "5f7b11d0b39da7d10d787dc505f1cfab", "lat": 38.84319516666667, "is_reserved": 0, "fusion_lat": 0.0, "rental_uris": {"android": "https://dc.lft.to/lastmile_qr_scan", "ios": "https://dc.lft.to/lastmile_qr_scan"}, "fusion_lon": 0.0, "name": "5f7b11d0b39da7d10d787dc505f1cfab", "lon": -76.99909283333334, "is_disabled": 0, "type": "electric_scooter"}, {"bike_id": "5b1c9a8e502cc6215000faf83d1fb9f6", "lat": 38.8995355, "is_reserved": 0, "fusion_lat": 0.0, "rental_uris": {"android": "https://dc.lft.to/lastmile_qr_scan", "ios": "https://dc.lft.to/lastmile_qr_scan"}, "fusion_lon": 0.0, "name": "5b1c9a8e502cc6215000faf83d1fb9f6", "lon": -77.04533866666667, "is_disabled": 0, "type": "electric_scooter"}, {"bike_id": "4f2aa8d86e6ca86b5da6208ba48887e2", "lat": 38.90262416666667, "is_reserved": 0, "fusion_lat": 0.0, "rental_uris": {"android": "https://dc.lft.to/lastmile_qr_scan", "ios": "https://dc.lft.to/lastmile_qr_scan"}, "fusion_lon": 0.0, "name": "4f2aa8d86e6ca86b5da6208ba48887e2", "lon": -77.00612433333333, "is_disabled": 0, "type": "electric_scooter"}, {"bike_id": "2986dc84b11a6e34043b938caea84970", "lat": 38.894039666666664, "is_reserved": 0, "fusion_lat": 0.0, "rental_uris": {"android": "https://dc.lft.to/lastmile_qr_scan", "ios": "https://dc.lft.to/lastmile_qr_scan"}, "fusion_lon": 0.0, "name": "2986dc84b11a6e34043b938caea84970", "lon": -77.02124633333334, "is_disabled": 0, "type": "electric_scooter"}, {"bike_id": "9b285fc9c4c3b16e38c815f69f6b4e6f", "lat": 38.924738, "is_reserved": 0, "fusion_lat": 0.0, "rental_uris": {"android": "https://dc.lft.to/lastmile_qr_scan", "ios": "https://dc.lft.to/lastmile_qr_scan"}, "fusion_lon": 0.0, "name": "9b285fc9c4c3b16e38c815f69f6b4e6f", "lon": -77.03902616666667, "is_disabled": 0, "type": "electric_scooter"}, {"bike_id": "5dc018ddecc2a2c3523ab5ed15cfb1a3", "lat": 38.851261, "is_reserved": 0, "fusion_lat": 0.0, "rental_uris": {"android": "https://dc.lft.to/lastmile_qr_scan", "ios": "https://dc.lft.to/lastmile_qr_scan"}, "fusion_lon": 0.0, "name": "5dc018ddecc2a2c3523ab5ed15cfb1a3", "lon": -76.97112883333334, "is_disabled": 0, "type": "electric_scooter"}, {"bike_id": "3e1e828cd7a5ac4ee1b336fd8cc2faeb", "lat": 38.923236, "is_reserved": 0, "fusion_lat": 0.0, "rental_uris": {"android": "https://dc.lft.to/lastmile_qr_scan", "ios": "https://dc.lft.to/lastmile_qr_scan"}, "fusion_lon": 0.0, "name": "3e1e828cd7a5ac4ee1b336fd8cc2faeb", "lon": -77.0464725, "is_disabled": 0, "type": "electric_scooter"}, {"bike_id": "4bf39b8326b91fb07e70257a5a3fc699", "lat": 38.947996833333335, "is_reserved": 0, "fusion_lat": 0.0, "rental_uris": {"android": "https://dc.lft.to/lastmile_qr_scan", "ios": "https://dc.lft.to/lastmile_qr_scan"}, "fusion_lon": 0.0, "name": "4bf39b8326b91fb07e70257a5a3fc699", "lon": -76.9554015, "is_disabled": 0, "type": "electric_bike"}, {"bike_id": "edbe3a76c162cf3d48a0c13ec40dc8e2", "lat": 38.868733666666664, "is_reserved": 0, "fusion_lat": 0.0, "rental_uris": {"android": "https://dc.lft.to/lastmile_qr_scan", "ios": "https://dc.lft.to/lastmile_qr_scan"}, "fusion_lon": 0.0, "name": "edbe3a76c162cf3d48a0c13ec40dc8e2", "lon": -76.97086066666667, "is_disabled": 0, "type": "electric_bike"}, {"bike_id": "8c7db2fbb21e525efa255d62057a8b35", "lat": 38.90012266666667, "is_reserved": 0, "fusion_lat": 0.0, "rental_uris": {"android": "https://dc.lft.to/lastmile_qr_scan", "ios": "https://dc.lft.to/lastmile_qr_scan"}, "fusion_lon": 0.0, "name": "8c7db2fbb21e525efa255d62057a8b35", "lon": -77.03813383333333, "is_disabled": 0, "type": "electric_scooter"}, {"bike_id": "9441848b45e0b04ac3d8a395a2601289", "lat": 38.915658666666666, "is_reserved": 0, "fusion_lat": 0.0, "rental_uris": {"android": "https://dc.lft.to/lastmile_qr_scan", "ios": "https://dc.lft.to/lastmile_qr_scan"}, "fusion_lon": 0.0, "name": "9441848b45e0b04ac3d8a395a2601289", "lon": -77.0258775, "is_disabled": 0, "type": "electric_scooter"}, {"bike_id": "484e1f91805a2258ebdc19aa34ef0846", "lat": 38.91713333333333, "is_reserved": 0, "fusion_lat": 0.0, "rental_uris": {"android": "https://dc.lft.to/lastmile_qr_scan", "ios": "https://dc.lft.to/lastmile_qr_scan"}, "fusion_lon": 0.0, "name": "484e1f91805a2258ebdc19aa34ef0846", "lon": -77.0288905, "is_disabled": 0, "type": "electric_scooter"}, {"bike_id": "246b673beafee461eaa9a9bf87fe421b", "lat": 38.91568916666667, "is_reserved": 0, "fusion_lat": 0.0, "rental_uris": {"android": "https://dc.lft.to/lastmile_qr_scan", "ios": "https://dc.lft.to/lastmile_qr_scan"}, "fusion_lon": 0.0, "name": "246b673beafee461eaa9a9bf87fe421b", "lon": -77.01245933333334, "is_disabled": 0, "type": "electric_scooter"}, {"bike_id": "1241694713dfb31a077c172d6b2c7746", "lat": 38.905000666666666, "is_reserved": 0, "fusion_lat": 0.0, "rental_uris": {"android": "https://dc.lft.to/lastmile_qr_scan", "ios": "https://dc.lft.to/lastmile_qr_scan"}, "fusion_lon": 0.0, "name": "1241694713dfb31a077c172d6b2c7746", "lon": -76.97936133333333, "is_disabled": 0, "type": "electric_scooter"}, {"bike_id": "0d8749c7b76a91cfa772cad0aaf52c1c", "lat": 38.915656, "is_reserved": 0, "fusion_lat": 0.0, "rental_uris": {"android": "https://dc.lft.to/lastmile_qr_scan", "ios": "https://dc.lft.to/lastmile_qr_scan"}, "fusion_lon": 0.0, "name": "0d8749c7b76a91cfa772cad0aaf52c1c", "lon": -77.02564516666666, "is_disabled": 0, "type": "electric_scooter"}, {"bike_id": "9ce254f89fa190ce250ce83ee3bcdec3", "lat": 38.865059333333335, "is_reserved": 0, "fusion_lat": 0.0, "rental_uris": {"android": "https://dc.lft.to/lastmile_qr_scan", "ios": "https://dc.lft.to/lastmile_qr_scan"}, "fusion_lon": 0.0, "name": "9ce254f89fa190ce250ce83ee3bcdec3", "lon": -76.99006183333333, "is_disabled": 0, "type": "electric_scooter"}, {"bike_id": "c968c6e700d585925c7c08fe4c41b7e8", "lat": 38.90377683333333, "is_reserved": 0, "fusion_lat": 0.0, "rental_uris": {"android": "https://dc.lft.to/lastmile_qr_scan", "ios": "https://dc.lft.to/lastmile_qr_scan"}, "fusion_lon": 0.0, "name": "c968c6e700d585925c7c08fe4c41b7e8", "lon": -77.0448975, "is_disabled": 0, "type": "electric_scooter"}, {"bike_id": "7a17a12affdc3f5140bf1ec0f5aa412d", "lat": 38.955686666666665, "is_reserved": 0, "fusion_lat": 0.0, "rental_uris": {"android": "https://dc.lft.to/lastmile_qr_scan", "ios": "https://dc.lft.to/lastmile_qr_scan"}, "fusion_lon": 0.0, "name": "7a17a12affdc3f5140bf1ec0f5aa412d", "lon": -77.02720916666667, "is_disabled": 0, "type": "electric_scooter"}, {"bike_id": "ccdde7dfe4338480123c2305da70492f", "lat": 38.92329066666667, "is_reserved": 0, "fusion_lat": 0.0, "rental_uris": {"android": "https://dc.lft.to/lastmile_qr_scan", "ios": "https://dc.lft.to/lastmile_qr_scan"}, "fusion_lon": 0.0, "name": "ccdde7dfe4338480123c2305da70492f", "lon": -77.03683816666667, "is_disabled": 0, "type": "electric_scooter"}, {"bike_id": "6b5b46662d6931ee8dbd15560d1985d2", "lat": 38.853537833333334, "is_reserved": 0, "fusion_lat": 0.0, "rental_uris": {"android": "https://dc.lft.to/lastmile_qr_scan", "ios": "https://dc.lft.to/lastmile_qr_scan"}, "fusion_lon": 0.0, "name": "6b5b46662d6931ee8dbd15560d1985d2", "lon": -77.08684933333333, "is_disabled": 0, "type": "electric_bike"}, {"bike_id": "a50433e9343d4b8b944b1a33f27e65e2", "lat": 38.923264, "is_reserved": 0, "fusion_lat": 0.0, "rental_uris": {"android": "https://dc.lft.to/lastmile_qr_scan", "ios": "https://dc.lft.to/lastmile_qr_scan"}, "fusion_lon": 0.0, "name": "a50433e9343d4b8b944b1a33f27e65e2", "lon": -77.03681116666667, "is_disabled": 0, "type": "electric_scooter"}, {"bike_id": "7d484600655473782b65aa33e92b2fa3", "lat": 38.89827783333333, "is_reserved": 0, "fusion_lat": 0.0, "rental_uris": {"android": "https://dc.lft.to/lastmile_qr_scan", "ios": "https://dc.lft.to/lastmile_qr_scan"}, "fusion_lon": 0.0, "name": "7d484600655473782b65aa33e92b2fa3", "lon": -77.02710833333333, "is_disabled": 0, "type": "electric_scooter"}, {"bike_id": "c90696d41a5231d49958675269853bf7", "lat": 38.922849166666666, "is_reserved": 0, "fusion_lat": 0.0, "rental_uris": {"android": "https://dc.lft.to/lastmile_qr_scan", "ios": "https://dc.lft.to/lastmile_qr_scan"}, "fusion_lon": 0.0, "name": "c90696d41a5231d49958675269853bf7", "lon": -77.04241833333333, "is_disabled": 0, "type": "electric_scooter"}, {"bike_id": "9a8576b651344064ade2a2ddddeb7eb1", "lat": 38.926939833333336, "is_reserved": 0, "fusion_lat": 0.0, "rental_uris": {"android": "https://dc.lft.to/lastmile_qr_scan", "ios": "https://dc.lft.to/lastmile_qr_scan"}, "fusion_lon": 0.0, "name": "9a8576b651344064ade2a2ddddeb7eb1", "lon": -77.03560983333334, "is_disabled": 0, "type": "electric_scooter"}, {"bike_id": "d3f23d972bd581194a190df2e8bc7b3b", "lat": 38.84438333333333, "is_reserved": 0, "fusion_lat": 0.0, "rental_uris": {"android": "https://dc.lft.to/lastmile_qr_scan", "ios": "https://dc.lft.to/lastmile_qr_scan"}, "fusion_lon": 0.0, "name": "d3f23d972bd581194a190df2e8bc7b3b", "lon": -76.9986565, "is_disabled": 0, "type": "electric_scooter"}, {"bike_id": "c690b10622e145bc48eee51a34c0ca5c", "lat": 38.916910666666666, "is_reserved": 0, "fusion_lat": 0.0, "rental_uris": {"android": "https://dc.lft.to/lastmile_qr_scan", "ios": "https://dc.lft.to/lastmile_qr_scan"}, "fusion_lon": 0.0, "name": "c690b10622e145bc48eee51a34c0ca5c", "lon": -77.026004, "is_disabled": 0, "type": "electric_scooter"}, {"bike_id": "31cfc7b4b89ddfc04d0c981a4052e34b", "lat": 38.950048, "is_reserved": 0, "fusion_lat": 0.0, "rental_uris": {"android": "https://dc.lft.to/lastmile_qr_scan", "ios": "https://dc.lft.to/lastmile_qr_scan"}, "fusion_lon": 0.0, "name": "31cfc7b4b89ddfc04d0c981a4052e34b", "lon": -77.01842083333334, "is_disabled": 0, "type": "electric_scooter"}, {"bike_id": "336f3b03cd086c70ad130959cd938161", "lat": 38.896112333333335, "is_reserved": 0, "fusion_lat": 0.0, "rental_uris": {"android": "https://dc.lft.to/lastmile_qr_scan", "ios": "https://dc.lft.to/lastmile_qr_scan"}, "fusion_lon": 0.0, "name": "336f3b03cd086c70ad130959cd938161", "lon": -77.04476566666666, "is_disabled": 0, "type": "electric_scooter"}, {"bike_id": "75cc41f6408bef275a5725ecc258823e", "lat": 38.855111, "is_reserved": 0, "fusion_lat": 0.0, "rental_uris": {"android": "https://dc.lft.to/lastmile_qr_scan", "ios": "https://dc.lft.to/lastmile_qr_scan"}, "fusion_lon": 0.0, "name": "75cc41f6408bef275a5725ecc258823e", "lon": -77.12057033333333, "is_disabled": 0, "type": "electric_bike"}, {"bike_id": "4f71431d59e608af661b758f11779aa4", "lat": 38.901519666666665, "is_reserved": 0, "fusion_lat": 0.0, "rental_uris": {"android": "https://dc.lft.to/lastmile_qr_scan", "ios": "https://dc.lft.to/lastmile_qr_scan"}, "fusion_lon": 0.0, "name": "4f71431d59e608af661b758f11779aa4", "lon": -77.03242133333333, "is_disabled": 0, "type": "electric_scooter"}, {"bike_id": "593b881af129fbffef7af1838c97d1e4", "lat": 38.89357183333333, "is_reserved": 0, "fusion_lat": 0.0, "rental_uris": {"android": "https://dc.lft.to/lastmile_qr_scan", "ios": "https://dc.lft.to/lastmile_qr_scan"}, "fusion_lon": 0.0, "name": "593b881af129fbffef7af1838c97d1e4", "lon": -77.0222385, "is_disabled": 0, "type": "electric_scooter"}, {"bike_id": "a11600721804f012b364a6e2233678f9", "lat": 38.90535933333334, "is_reserved": 0, "fusion_lat": 0.0, "rental_uris": {"android": "https://dc.lft.to/lastmile_qr_scan", "ios": "https://dc.lft.to/lastmile_qr_scan"}, "fusion_lon": 0.0, "name": "a11600721804f012b364a6e2233678f9", "lon": -77.04449183333334, "is_disabled": 0, "type": "electric_scooter"}, {"bike_id": "94487ff41f39d140eecd253d2bea2d9a", "lat": 38.89892483333333, "is_reserved": 0, "fusion_lat": 0.0, "rental_uris": {"android": "https://dc.lft.to/lastmile_qr_scan", "ios": "https://dc.lft.to/lastmile_qr_scan"}, "fusion_lon": 0.0, "name": "94487ff41f39d140eecd253d2bea2d9a", "lon": -77.02152633333333, "is_disabled": 0, "type": "electric_scooter"}, {"bike_id": "7a6bd2db41647a6a6aa1089a6a74952e", "lat": 38.92470866666667, "is_reserved": 0, "fusion_lat": 0.0, "rental_uris": {"android": "https://dc.lft.to/lastmile_qr_scan", "ios": "https://dc.lft.to/lastmile_qr_scan"}, "fusion_lon": 0.0, "name": "7a6bd2db41647a6a6aa1089a6a74952e", "lon": -77.02204866666666, "is_disabled": 0, "type": "electric_scooter"}, {"bike_id": "121f8dcf9e3dab41acb992c56969d4d8", "lat": 38.895010166666665, "is_reserved": 0, "fusion_lat": 0.0, "rental_uris": {"android": "https://dc.lft.to/lastmile_qr_scan", "ios": "https://dc.lft.to/lastmile_qr_scan"}, "fusion_lon": 0.0, "name": "121f8dcf9e3dab41acb992c56969d4d8", "lon": -77.0217325, "is_disabled": 0, "type": "electric_scooter"}, {"bike_id": "31c56523d701a14c74d475eef6505f85", "lat": 38.906889166666666, "is_reserved": 0, "fusion_lat": 0.0, "rental_uris": {"android": "https://dc.lft.to/lastmile_qr_scan", "ios": "https://dc.lft.to/lastmile_qr_scan"}, "fusion_lon": 0.0, "name": "31c56523d701a14c74d475eef6505f85", "lon": -77.01073966666667, "is_disabled": 0, "type": "electric_scooter"}, {"bike_id": "f6d490aa3cc75c5bfe314f8d727fbe3b", "lat": 38.897383833333336, "is_reserved": 0, "fusion_lat": 0.0, "rental_uris": {"android": "https://dc.lft.to/lastmile_qr_scan", "ios": "https://dc.lft.to/lastmile_qr_scan"}, "fusion_lon": 0.0, "name": "f6d490aa3cc75c5bfe314f8d727fbe3b", "lon": -76.94725683333333, "is_disabled": 0, "type": "electric_scooter"}, {"bike_id": "f533a07d71fcceaca618c9b14ef3a431", "lat": 38.90260083333333, "is_reserved": 0, "fusion_lat": 0.0, "rental_uris": {"android": "https://dc.lft.to/lastmile_qr_scan", "ios": "https://dc.lft.to/lastmile_qr_scan"}, "fusion_lon": 0.0, "name": "f533a07d71fcceaca618c9b14ef3a431", "lon": -77.0264375, "is_disabled": 0, "type": "electric_scooter"}, {"bike_id": "033d9e6125543cc4952e7fc5dd32f4d1", "lat": 38.87959566666667, "is_reserved": 0, "fusion_lat": 0.0, "rental_uris": {"android": "https://dc.lft.to/lastmile_qr_scan", "ios": "https://dc.lft.to/lastmile_qr_scan"}, "fusion_lon": 0.0, "name": "033d9e6125543cc4952e7fc5dd32f4d1", "lon": -77.0068505, "is_disabled": 0, "type": "electric_scooter"}, {"bike_id": "54e6dcd85e70b8a2635acd4841bcf040", "lat": 38.87464083333333, "is_reserved": 0, "fusion_lat": 0.0, "rental_uris": {"android": "https://dc.lft.to/lastmile_qr_scan", "ios": "https://dc.lft.to/lastmile_qr_scan"}, "fusion_lon": 0.0, "name": "54e6dcd85e70b8a2635acd4841bcf040", "lon": -77.004843, "is_disabled": 0, "type": "electric_scooter"}, {"bike_id": "921cc2fe8742284bd1a5f67c2a2afeaf", "lat": 38.91589883333333, "is_reserved": 0, "fusion_lat": 0.0, "rental_uris": {"android": "https://dc.lft.to/lastmile_qr_scan", "ios": "https://dc.lft.to/lastmile_qr_scan"}, "fusion_lon": 0.0, "name": "921cc2fe8742284bd1a5f67c2a2afeaf", "lon": -77.00194883333333, "is_disabled": 0, "type": "electric_scooter"}, {"bike_id": "0cca7d3d108f9c4bd237bd55d9bc969e", "lat": 38.904116333333334, "is_reserved": 0, "fusion_lat": 0.0, "rental_uris": {"android": "https://dc.lft.to/lastmile_qr_scan", "ios": "https://dc.lft.to/lastmile_qr_scan"}, "fusion_lon": 0.0, "name": "0cca7d3d108f9c4bd237bd55d9bc969e", "lon": -76.973316, "is_disabled": 0, "type": "electric_scooter"}, {"bike_id": "eaa2e1c988d1ad19b7757ae91bb8a185", "lat": 38.911333, "is_reserved": 0, "fusion_lat": 0.0, "rental_uris": {"android": "https://dc.lft.to/lastmile_qr_scan", "ios": "https://dc.lft.to/lastmile_qr_scan"}, "fusion_lon": 0.0, "name": "eaa2e1c988d1ad19b7757ae91bb8a185", "lon": -77.04416416666666, "is_disabled": 0, "type": "electric_scooter"}, {"bike_id": "e218049303e600ab5d69fbf36e4e95f6", "lat": 38.88675516666667, "is_reserved": 0, "fusion_lat": 0.0, "rental_uris": {"android": "https://dc.lft.to/lastmile_qr_scan", "ios": "https://dc.lft.to/lastmile_qr_scan"}, "fusion_lon": 0.0, "name": "e218049303e600ab5d69fbf36e4e95f6", "lon": -77.01985183333333, "is_disabled": 0, "type": "electric_scooter"}, {"bike_id": "10bc2c757b15e29c088d748f9f9c6cde", "lat": 38.90316383333333, "is_reserved": 0, "fusion_lat": 0.0, "rental_uris": {"android": "https://dc.lft.to/lastmile_qr_scan", "ios": "https://dc.lft.to/lastmile_qr_scan"}, "fusion_lon": 0.0, "name": "10bc2c757b15e29c088d748f9f9c6cde", "lon": -77.03441316666667, "is_disabled": 0, "type": "electric_scooter"}, {"bike_id": "63d8c9bc99a600e7ec0f4b39ce944f7b", "lat": 38.90778383333333, "is_reserved": 0, "fusion_lat": 0.0, "rental_uris": {"android": "https://dc.lft.to/lastmile_qr_scan", "ios": "https://dc.lft.to/lastmile_qr_scan"}, "fusion_lon": 0.0, "name": "63d8c9bc99a600e7ec0f4b39ce944f7b", "lon": -77.07170983333333, "is_disabled": 0, "type": "electric_scooter"}, {"bike_id": "8a72f25a8f576c35e88b9d790538773b", "lat": 38.898556166666665, "is_reserved": 0, "fusion_lat": 0.0, "rental_uris": {"android": "https://dc.lft.to/lastmile_qr_scan", "ios": "https://dc.lft.to/lastmile_qr_scan"}, "fusion_lon": 0.0, "name": "8a72f25a8f576c35e88b9d790538773b", "lon": -77.02169083333334, "is_disabled": 0, "type": "electric_scooter"}, {"bike_id": "12ba8c52dcc4f367e4928ab20e7effd5", "lat": 38.902395166666665, "is_reserved": 0, "fusion_lat": 0.0, "rental_uris": {"android": "https://dc.lft.to/lastmile_qr_scan", "ios": "https://dc.lft.to/lastmile_qr_scan"}, "fusion_lon": 0.0, "name": "12ba8c52dcc4f367e4928ab20e7effd5", "lon": -77.00210733333333, "is_disabled": 0, "type": "electric_scooter"}, {"bike_id": "b8d0d364b5266f61a229b7564108e0c6", "lat": 38.89799283333333, "is_reserved": 0, "fusion_lat": 0.0, "rental_uris": {"android": "https://dc.lft.to/lastmile_qr_scan", "ios": "https://dc.lft.to/lastmile_qr_scan"}, "fusion_lon": 0.0, "name": "b8d0d364b5266f61a229b7564108e0c6", "lon": -77.03206783333333, "is_disabled": 0, "type": "electric_scooter"}, {"bike_id": "98e130eef2ad2d0e090af60e98152e0e", "lat": 38.85893433333333, "is_reserved": 0, "fusion_lat": 0.0, "rental_uris": {"android": "https://dc.lft.to/lastmile_qr_scan", "ios": "https://dc.lft.to/lastmile_qr_scan"}, "fusion_lon": 0.0, "name": "98e130eef2ad2d0e090af60e98152e0e", "lon": -77.11862966666666, "is_disabled": 0, "type": "electric_bike"}, {"bike_id": "7e6ae6322ac3070a01f79ba0b1cb6514", "lat": 38.9138285, "is_reserved": 0, "fusion_lat": 0.0, "rental_uris": {"android": "https://dc.lft.to/lastmile_qr_scan", "ios": "https://dc.lft.to/lastmile_qr_scan"}, "fusion_lon": 0.0, "name": "7e6ae6322ac3070a01f79ba0b1cb6514", "lon": -77.03215866666666, "is_disabled": 0, "type": "electric_scooter"}, {"bike_id": "5ba5b0458a82e0464219c17aa23d0aff", "lat": 38.89222516666667, "is_reserved": 0, "fusion_lat": 0.0, "rental_uris": {"android": "https://dc.lft.to/lastmile_qr_scan", "ios": "https://dc.lft.to/lastmile_qr_scan"}, "fusion_lon": 0.0, "name": "5ba5b0458a82e0464219c17aa23d0aff", "lon": -76.97083166666667, "is_disabled": 0, "type": "electric_bike"}, {"bike_id": "a7dd3805296cdcf6f1136022f07207f7", "lat": 38.898634666666666, "is_reserved": 0, "fusion_lat": 0.0, "rental_uris": {"android": "https://dc.lft.to/lastmile_qr_scan", "ios": "https://dc.lft.to/lastmile_qr_scan"}, "fusion_lon": 0.0, "name": "a7dd3805296cdcf6f1136022f07207f7", "lon": -76.94634166666667, "is_disabled": 0, "type": "electric_scooter"}, {"bike_id": "4d0fdde5e23a557d315f4769fd4e3025", "lat": 38.93394083333333, "is_reserved": 0, "fusion_lat": 0.0, "rental_uris": {"android": "https://dc.lft.to/lastmile_qr_scan", "ios": "https://dc.lft.to/lastmile_qr_scan"}, "fusion_lon": 0.0, "name": "4d0fdde5e23a557d315f4769fd4e3025", "lon": -77.05741233333333, "is_disabled": 0, "type": "electric_scooter"}, {"bike_id": "4e6371caad093e604251f1d0fe07a918", "lat": 38.90727833333333, "is_reserved": 0, "fusion_lat": 0.0, "rental_uris": {"android": "https://dc.lft.to/lastmile_qr_scan", "ios": "https://dc.lft.to/lastmile_qr_scan"}, "fusion_lon": 0.0, "name": "4e6371caad093e604251f1d0fe07a918", "lon": -77.023738, "is_disabled": 0, "type": "electric_scooter"}, {"bike_id": "9fdc1a44a1a3b8f678d5609236c7d6b0", "lat": 38.89241283333333, "is_reserved": 0, "fusion_lat": 0.0, "rental_uris": {"android": "https://dc.lft.to/lastmile_qr_scan", "ios": "https://dc.lft.to/lastmile_qr_scan"}, "fusion_lon": 0.0, "name": "9fdc1a44a1a3b8f678d5609236c7d6b0", "lon": -77.03955983333333, "is_disabled": 0, "type": "electric_scooter"}, {"bike_id": "2a6a4351d31a93b1a34d465e37e1394a", "lat": 38.902813, "is_reserved": 0, "fusion_lat": 0.0, "rental_uris": {"android": "https://dc.lft.to/lastmile_qr_scan", "ios": "https://dc.lft.to/lastmile_qr_scan"}, "fusion_lon": 0.0, "name": "2a6a4351d31a93b1a34d465e37e1394a", "lon": -77.05804516666667, "is_disabled": 0, "type": "electric_scooter"}, {"bike_id": "3ead2d69235e522bcb533fe9d5319c04", "lat": 38.929680166666664, "is_reserved": 0, "fusion_lat": 0.0, "rental_uris": {"android": "https://dc.lft.to/lastmile_qr_scan", "ios": "https://dc.lft.to/lastmile_qr_scan"}, "fusion_lon": 0.0, "name": "3ead2d69235e522bcb533fe9d5319c04", "lon": -77.18562316666667, "is_disabled": 0, "type": "electric_bike"}, {"bike_id": "5d8e8899700153be156f137c7872f239", "lat": 38.861541, "is_reserved": 0, "fusion_lat": 0.0, "rental_uris": {"android": "https://dc.lft.to/lastmile_qr_scan", "ios": "https://dc.lft.to/lastmile_qr_scan"}, "fusion_lon": 0.0, "name": "5d8e8899700153be156f137c7872f239", "lon": -77.09145233333334, "is_disabled": 0, "type": "electric_bike"}, {"bike_id": "ca2c25526768ea368caf93bd507581d0", "lat": 38.89330916666667, "is_reserved": 0, "fusion_lat": 0.0, "rental_uris": {"android": "https://dc.lft.to/lastmile_qr_scan", "ios": "https://dc.lft.to/lastmile_qr_scan"}, "fusion_lon": 0.0, "name": "ca2c25526768ea368caf93bd507581d0", "lon": -77.04671233333333, "is_disabled": 0, "type": "electric_scooter"}, {"bike_id": "13f490afa9d14f82d43cfe2fae8c4309", "lat": 38.9362115, "is_reserved": 0, "fusion_lat": 0.0, "rental_uris": {"android": "https://dc.lft.to/lastmile_qr_scan", "ios": "https://dc.lft.to/lastmile_qr_scan"}, "fusion_lon": 0.0, "name": "13f490afa9d14f82d43cfe2fae8c4309", "lon": -77.02453666666666, "is_disabled": 0, "type": "electric_scooter"}, {"bike_id": "855c5e9927d9dc733dae383046e245ce", "lat": 38.885934666666664, "is_reserved": 0, "fusion_lat": 0.0, "rental_uris": {"android": "https://dc.lft.to/lastmile_qr_scan", "ios": "https://dc.lft.to/lastmile_qr_scan"}, "fusion_lon": 0.0, "name": "855c5e9927d9dc733dae383046e245ce", "lon": -77.00581466666667, "is_disabled": 0, "type": "electric_scooter"}, {"bike_id": "220ce1a68a61a8056b9f05579733bf29", "lat": 38.9080395, "is_reserved": 0, "fusion_lat": 0.0, "rental_uris": {"android": "https://dc.lft.to/lastmile_qr_scan", "ios": "https://dc.lft.to/lastmile_qr_scan"}, "fusion_lon": 0.0, "name": "220ce1a68a61a8056b9f05579733bf29", "lon": -77.0306555, "is_disabled": 0, "type": "electric_scooter"}, {"bike_id": "3b8507c3769f05e22f59daf92084d84d", "lat": 38.90518566666667, "is_reserved": 0, "fusion_lat": 0.0, "rental_uris": {"android": "https://dc.lft.to/lastmile_qr_scan", "ios": "https://dc.lft.to/lastmile_qr_scan"}, "fusion_lon": 0.0, "name": "3b8507c3769f05e22f59daf92084d84d", "lon": -77.04190716666666, "is_disabled": 0, "type": "electric_scooter"}, {"bike_id": "6177203982fc928165cfda0695a3f45c", "lat": 38.932249166666665, "is_reserved": 0, "fusion_lat": 0.0, "rental_uris": {"android": "https://dc.lft.to/lastmile_qr_scan", "ios": "https://dc.lft.to/lastmile_qr_scan"}, "fusion_lon": 0.0, "name": "6177203982fc928165cfda0695a3f45c", "lon": -77.03862966666667, "is_disabled": 0, "type": "electric_scooter"}, {"bike_id": "3d2ff9aa6d0d516b27ce2308e4ae61ee", "lat": 38.9067385, "is_reserved": 0, "fusion_lat": 0.0, "rental_uris": {"android": "https://dc.lft.to/lastmile_qr_scan", "ios": "https://dc.lft.to/lastmile_qr_scan"}, "fusion_lon": 0.0, "name": "3d2ff9aa6d0d516b27ce2308e4ae61ee", "lon": -77.03813816666667, "is_disabled": 0, "type": "electric_scooter"}, {"bike_id": "5950abfe62f6cf5e5f7fe881a293ca17", "lat": 38.900536333333335, "is_reserved": 0, "fusion_lat": 0.0, "rental_uris": {"android": "https://dc.lft.to/lastmile_qr_scan", "ios": "https://dc.lft.to/lastmile_qr_scan"}, "fusion_lon": 0.0, "name": "5950abfe62f6cf5e5f7fe881a293ca17", "lon": -77.00070833333334, "is_disabled": 0, "type": "electric_scooter"}, {"bike_id": "64ccbb9cfd199fe098568a491a37c2e4", "lat": 38.905661333333335, "is_reserved": 0, "fusion_lat": 0.0, "rental_uris": {"android": "https://dc.lft.to/lastmile_qr_scan", "ios": "https://dc.lft.to/lastmile_qr_scan"}, "fusion_lon": 0.0, "name": "64ccbb9cfd199fe098568a491a37c2e4", "lon": -77.02170966666667, "is_disabled": 0, "type": "electric_scooter"}, {"bike_id": "79462b43d6cde0275df968af5f011494", "lat": 38.958229833333334, "is_reserved": 0, "fusion_lat": 0.0, "rental_uris": {"android": "https://dc.lft.to/lastmile_qr_scan", "ios": "https://dc.lft.to/lastmile_qr_scan"}, "fusion_lon": 0.0, "name": "79462b43d6cde0275df968af5f011494", "lon": -77.02833316666667, "is_disabled": 0, "type": "electric_scooter"}, {"bike_id": "37d6a0113976c04005c4a49da973e25d", "lat": 38.89196333333334, "is_reserved": 0, "fusion_lat": 0.0, "rental_uris": {"android": "https://dc.lft.to/lastmile_qr_scan", "ios": "https://dc.lft.to/lastmile_qr_scan"}, "fusion_lon": 0.0, "name": "37d6a0113976c04005c4a49da973e25d", "lon": -77.024041, "is_disabled": 0, "type": "electric_scooter"}, {"bike_id": "0e81c9870ceb661d230b93b8deb86555", "lat": 38.89739766666667, "is_reserved": 0, "fusion_lat": 0.0, "rental_uris": {"android": "https://dc.lft.to/lastmile_qr_scan", "ios": "https://dc.lft.to/lastmile_qr_scan"}, "fusion_lon": 0.0, "name": "0e81c9870ceb661d230b93b8deb86555", "lon": -76.94726783333333, "is_disabled": 0, "type": "electric_scooter"}, {"bike_id": "5fd012933f52e880aa1067f15b659020", "lat": 38.9233585, "is_reserved": 0, "fusion_lat": 0.0, "rental_uris": {"android": "https://dc.lft.to/lastmile_qr_scan", "ios": "https://dc.lft.to/lastmile_qr_scan"}, "fusion_lon": 0.0, "name": "5fd012933f52e880aa1067f15b659020", "lon": -77.05331666666666, "is_disabled": 0, "type": "electric_scooter"}, {"bike_id": "c06edc27421b3354e08665195a29bbc1", "lat": 38.905571, "is_reserved": 0, "fusion_lat": 0.0, "rental_uris": {"android": "https://dc.lft.to/lastmile_qr_scan", "ios": "https://dc.lft.to/lastmile_qr_scan"}, "fusion_lon": 0.0, "name": "c06edc27421b3354e08665195a29bbc1", "lon": -77.00606483333334, "is_disabled": 0, "type": "electric_scooter"}, {"bike_id": "970d284f79aadf25b814315459d4891d", "lat": 38.89052983333333, "is_reserved": 0, "fusion_lat": 0.0, "rental_uris": {"android": "https://dc.lft.to/lastmile_qr_scan", "ios": "https://dc.lft.to/lastmile_qr_scan"}, "fusion_lon": 0.0, "name": "970d284f79aadf25b814315459d4891d", "lon": -76.93747566666667, "is_disabled": 0, "type": "electric_scooter"}, {"bike_id": "9fe59d83f1bd7fe09aa364d72cf3a211", "lat": 38.929732666666666, "is_reserved": 0, "fusion_lat": 0.0, "rental_uris": {"android": "https://dc.lft.to/lastmile_qr_scan", "ios": "https://dc.lft.to/lastmile_qr_scan"}, "fusion_lon": 0.0, "name": "9fe59d83f1bd7fe09aa364d72cf3a211", "lon": -77.013019, "is_disabled": 0, "type": "electric_scooter"}, {"bike_id": "c1690d7402bb82003e0b2dd5a4c172e6", "lat": 38.87698616666667, "is_reserved": 0, "fusion_lat": 0.0, "rental_uris": {"android": "https://dc.lft.to/lastmile_qr_scan", "ios": "https://dc.lft.to/lastmile_qr_scan"}, "fusion_lon": 0.0, "name": "c1690d7402bb82003e0b2dd5a4c172e6", "lon": -77.0036585, "is_disabled": 0, "type": "electric_scooter"}, {"bike_id": "31f9ed38fae9aa6ae2fd5b41157e6d1b", "lat": 38.873842, "is_reserved": 0, "fusion_lat": 0.0, "rental_uris": {"android": "https://dc.lft.to/lastmile_qr_scan", "ios": "https://dc.lft.to/lastmile_qr_scan"}, "fusion_lon": 0.0, "name": "31f9ed38fae9aa6ae2fd5b41157e6d1b", "lon": -77.04341033333333, "is_disabled": 0, "type": "electric_scooter"}, {"bike_id": "f94b39da4618a1e9b8d37c10879bd7ff", "lat": 38.90183483333333, "is_reserved": 0, "fusion_lat": 0.0, "rental_uris": {"android": "https://dc.lft.to/lastmile_qr_scan", "ios": "https://dc.lft.to/lastmile_qr_scan"}, "fusion_lon": 0.0, "name": "f94b39da4618a1e9b8d37c10879bd7ff", "lon": -77.02162933333334, "is_disabled": 0, "type": "electric_scooter"}, {"bike_id": "fb4e43388ebb2eb2716a3f40e14f3f2f", "lat": 38.83432, "is_reserved": 0, "fusion_lat": 0.0, "rental_uris": {"android": "https://dc.lft.to/lastmile_qr_scan", "ios": "https://dc.lft.to/lastmile_qr_scan"}, "fusion_lon": 0.0, "name": "fb4e43388ebb2eb2716a3f40e14f3f2f", "lon": -77.05876266666667, "is_disabled": 0, "type": "electric_bike"}, {"bike_id": "7888549483453422e21283d4ee3bf617", "lat": 38.924171333333334, "is_reserved": 0, "fusion_lat": 0.0, "rental_uris": {"android": "https://dc.lft.to/lastmile_qr_scan", "ios": "https://dc.lft.to/lastmile_qr_scan"}, "fusion_lon": 0.0, "name": "7888549483453422e21283d4ee3bf617", "lon": -77.020278, "is_disabled": 0, "type": "electric_scooter"}, {"bike_id": "ac6d4a8016a7eca804f9ccefe752a6fc", "lat": 38.90611366666667, "is_reserved": 0, "fusion_lat": 0.0, "rental_uris": {"android": "https://dc.lft.to/lastmile_qr_scan", "ios": "https://dc.lft.to/lastmile_qr_scan"}, "fusion_lon": 0.0, "name": "ac6d4a8016a7eca804f9ccefe752a6fc", "lon": -77.02564083333333, "is_disabled": 0, "type": "electric_scooter"}, {"bike_id": "51212492716b0122c6a709bea644a4a1", "lat": 38.9268855, "is_reserved": 0, "fusion_lat": 0.0, "rental_uris": {"android": "https://dc.lft.to/lastmile_qr_scan", "ios": "https://dc.lft.to/lastmile_qr_scan"}, "fusion_lon": 0.0, "name": "51212492716b0122c6a709bea644a4a1", "lon": -77.03562416666666, "is_disabled": 0, "type": "electric_scooter"}, {"bike_id": "ca786b9746f17e3940ae04cc75cde9bf", "lat": 38.91362866666667, "is_reserved": 0, "fusion_lat": 0.0, "rental_uris": {"android": "https://dc.lft.to/lastmile_qr_scan", "ios": "https://dc.lft.to/lastmile_qr_scan"}, "fusion_lon": 0.0, "name": "ca786b9746f17e3940ae04cc75cde9bf", "lon": -77.04491766666666, "is_disabled": 0, "type": "electric_scooter"}, {"bike_id": "1e94c51dfbedfc626fd9660bfefda30a", "lat": 38.923214, "is_reserved": 0, "fusion_lat": 0.0, "rental_uris": {"android": "https://dc.lft.to/lastmile_qr_scan", "ios": "https://dc.lft.to/lastmile_qr_scan"}, "fusion_lon": 0.0, "name": "1e94c51dfbedfc626fd9660bfefda30a", "lon": -77.0245175, "is_disabled": 0, "type": "electric_scooter"}, {"bike_id": "9480fcf385ec053983731ea917850e11", "lat": 38.901187666666665, "is_reserved": 0, "fusion_lat": 0.0, "rental_uris": {"android": "https://dc.lft.to/lastmile_qr_scan", "ios": "https://dc.lft.to/lastmile_qr_scan"}, "fusion_lon": 0.0, "name": "9480fcf385ec053983731ea917850e11", "lon": -76.986228, "is_disabled": 0, "type": "electric_scooter"}, {"bike_id": "28bb7d041b86a467a0dc9ed201e5cd8c", "lat": 38.89858483333333, "is_reserved": 0, "fusion_lat": 0.0, "rental_uris": {"android": "https://dc.lft.to/lastmile_qr_scan", "ios": "https://dc.lft.to/lastmile_qr_scan"}, "fusion_lon": 0.0, "name": "28bb7d041b86a467a0dc9ed201e5cd8c", "lon": -77.04879683333333, "is_disabled": 0, "type": "electric_scooter"}, {"bike_id": "b8a6de413f1e4c51f79232a37efd3ebe", "lat": 38.90519583333333, "is_reserved": 0, "fusion_lat": 0.0, "rental_uris": {"android": "https://dc.lft.to/lastmile_qr_scan", "ios": "https://dc.lft.to/lastmile_qr_scan"}, "fusion_lon": 0.0, "name": "b8a6de413f1e4c51f79232a37efd3ebe", "lon": -77.05035333333333, "is_disabled": 0, "type": "electric_scooter"}, {"bike_id": "861ac3d0702e6697db7fabbcd3f3d2b1", "lat": 38.90524816666667, "is_reserved": 0, "fusion_lat": 0.0, "rental_uris": {"android": "https://dc.lft.to/lastmile_qr_scan", "ios": "https://dc.lft.to/lastmile_qr_scan"}, "fusion_lon": 0.0, "name": "861ac3d0702e6697db7fabbcd3f3d2b1", "lon": -77.04869583333333, "is_disabled": 0, "type": "electric_scooter"}, {"bike_id": "af887e774d369769561055165d023b09", "lat": 38.91835183333333, "is_reserved": 0, "fusion_lat": 0.0, "rental_uris": {"android": "https://dc.lft.to/lastmile_qr_scan", "ios": "https://dc.lft.to/lastmile_qr_scan"}, "fusion_lon": 0.0, "name": "af887e774d369769561055165d023b09", "lon": -77.041547, "is_disabled": 0, "type": "electric_scooter"}, {"bike_id": "896978452a9be8e847a369c31fe5fd5f", "lat": 38.8936065, "is_reserved": 0, "fusion_lat": 0.0, "rental_uris": {"android": "https://dc.lft.to/lastmile_qr_scan", "ios": "https://dc.lft.to/lastmile_qr_scan"}, "fusion_lon": 0.0, "name": "896978452a9be8e847a369c31fe5fd5f", "lon": -77.02223733333334, "is_disabled": 0, "type": "electric_scooter"}, {"bike_id": "9a9833c06017db13d17a3583563a25be", "lat": 38.9067525, "is_reserved": 0, "fusion_lat": 0.0, "rental_uris": {"android": "https://dc.lft.to/lastmile_qr_scan", "ios": "https://dc.lft.to/lastmile_qr_scan"}, "fusion_lon": 0.0, "name": "9a9833c06017db13d17a3583563a25be", "lon": -77.01059683333334, "is_disabled": 0, "type": "electric_scooter"}, {"bike_id": "e50280da0211dd3399e38da3d33979c9", "lat": 38.876713333333335, "is_reserved": 0, "fusion_lat": 0.0, "rental_uris": {"android": "https://dc.lft.to/lastmile_qr_scan", "ios": "https://dc.lft.to/lastmile_qr_scan"}, "fusion_lon": 0.0, "name": "e50280da0211dd3399e38da3d33979c9", "lon": -77.00813783333334, "is_disabled": 0, "type": "electric_scooter"}, {"bike_id": "60c2d6893215954561b3b9b7f6302a76", "lat": 38.875007833333335, "is_reserved": 0, "fusion_lat": 0.0, "rental_uris": {"android": "https://dc.lft.to/lastmile_qr_scan", "ios": "https://dc.lft.to/lastmile_qr_scan"}, "fusion_lon": 0.0, "name": "60c2d6893215954561b3b9b7f6302a76", "lon": -77.01245483333334, "is_disabled": 0, "type": "electric_scooter"}, {"bike_id": "24c3cfcab86058f6af4cbed7194732e9", "lat": 38.91031683333333, "is_reserved": 0, "fusion_lat": 0.0, "rental_uris": {"android": "https://dc.lft.to/lastmile_qr_scan", "ios": "https://dc.lft.to/lastmile_qr_scan"}, "fusion_lon": 0.0, "name": "24c3cfcab86058f6af4cbed7194732e9", "lon": -76.99341783333334, "is_disabled": 0, "type": "electric_scooter"}, {"bike_id": "4a5202c29842ea1f6938d153ce9462dc", "lat": 38.94019216666667, "is_reserved": 0, "fusion_lat": 0.0, "rental_uris": {"android": "https://dc.lft.to/lastmile_qr_scan", "ios": "https://dc.lft.to/lastmile_qr_scan"}, "fusion_lon": 0.0, "name": "4a5202c29842ea1f6938d153ce9462dc", "lon": -77.02632616666666, "is_disabled": 0, "type": "electric_scooter"}, {"bike_id": "954aa301f307074f13c1b7c338936d72", "lat": 38.907219, "is_reserved": 0, "fusion_lat": 0.0, "rental_uris": {"android": "https://dc.lft.to/lastmile_qr_scan", "ios": "https://dc.lft.to/lastmile_qr_scan"}, "fusion_lon": 0.0, "name": "954aa301f307074f13c1b7c338936d72", "lon": -77.02167283333333, "is_disabled": 0, "type": "electric_scooter"}, {"bike_id": "e0a22e04c6abc4bbd31dfee9b4ba4491", "lat": 38.8762285, "is_reserved": 0, "fusion_lat": 0.0, "rental_uris": {"android": "https://dc.lft.to/lastmile_qr_scan", "ios": "https://dc.lft.to/lastmile_qr_scan"}, "fusion_lon": 0.0, "name": "e0a22e04c6abc4bbd31dfee9b4ba4491", "lon": -76.96529116666666, "is_disabled": 0, "type": "electric_scooter"}, {"bike_id": "592dc0f5c340ac1f747f039d039fd0a3", "lat": 38.917252, "is_reserved": 0, "fusion_lat": 0.0, "rental_uris": {"android": "https://dc.lft.to/lastmile_qr_scan", "ios": "https://dc.lft.to/lastmile_qr_scan"}, "fusion_lon": 0.0, "name": "592dc0f5c340ac1f747f039d039fd0a3", "lon": -77.0191655, "is_disabled": 0, "type": "electric_scooter"}, {"bike_id": "1cae4e80b6c31209dc2f96fa94613381", "lat": 38.95615166666666, "is_reserved": 0, "fusion_lat": 0.0, "rental_uris": {"android": "https://dc.lft.to/lastmile_qr_scan", "ios": "https://dc.lft.to/lastmile_qr_scan"}, "fusion_lon": 0.0, "name": "1cae4e80b6c31209dc2f96fa94613381", "lon": -77.01017683333333, "is_disabled": 0, "type": "electric_scooter"}, {"bike_id": "cbfc96265400ee887da77d0da1bdb324", "lat": 38.9079685, "is_reserved": 0, "fusion_lat": 0.0, "rental_uris": {"android": "https://dc.lft.to/lastmile_qr_scan", "ios": "https://dc.lft.to/lastmile_qr_scan"}, "fusion_lon": 0.0, "name": "cbfc96265400ee887da77d0da1bdb324", "lon": -77.03438366666667, "is_disabled": 0, "type": "electric_scooter"}, {"bike_id": "2850ef5e74fc35d38f5184ab74405e00", "lat": 38.938881333333335, "is_reserved": 0, "fusion_lat": 0.0, "rental_uris": {"android": "https://dc.lft.to/lastmile_qr_scan", "ios": "https://dc.lft.to/lastmile_qr_scan"}, "fusion_lon": 0.0, "name": "2850ef5e74fc35d38f5184ab74405e00", "lon": -77.03329383333333, "is_disabled": 0, "type": "electric_scooter"}, {"bike_id": "d6279ce3dbdaeb9a57cbae376e0e9172", "lat": 38.8947785, "is_reserved": 0, "fusion_lat": 0.0, "rental_uris": {"android": "https://dc.lft.to/lastmile_qr_scan", "ios": "https://dc.lft.to/lastmile_qr_scan"}, "fusion_lon": 0.0, "name": "d6279ce3dbdaeb9a57cbae376e0e9172", "lon": -77.02390933333334, "is_disabled": 0, "type": "electric_scooter"}, {"bike_id": "0a3d05753d7f522191841ca4fdfde1ce", "lat": 38.92517016666667, "is_reserved": 0, "fusion_lat": 0.0, "rental_uris": {"android": "https://dc.lft.to/lastmile_qr_scan", "ios": "https://dc.lft.to/lastmile_qr_scan"}, "fusion_lon": 0.0, "name": "0a3d05753d7f522191841ca4fdfde1ce", "lon": -77.02362566666666, "is_disabled": 0, "type": "electric_scooter"}, {"bike_id": "c498a8e7573ed50e17846669b0033a24", "lat": 38.935148, "is_reserved": 0, "fusion_lat": 0.0, "rental_uris": {"android": "https://dc.lft.to/lastmile_qr_scan", "ios": "https://dc.lft.to/lastmile_qr_scan"}, "fusion_lon": 0.0, "name": "c498a8e7573ed50e17846669b0033a24", "lon": -77.01964, "is_disabled": 0, "type": "electric_scooter"}, {"bike_id": "8afa907c0b6fd0c3f2580e1623c3868f", "lat": 38.916332, "is_reserved": 0, "fusion_lat": 0.0, "rental_uris": {"android": "https://dc.lft.to/lastmile_qr_scan", "ios": "https://dc.lft.to/lastmile_qr_scan"}, "fusion_lon": 0.0, "name": "8afa907c0b6fd0c3f2580e1623c3868f", "lon": -77.03039933333334, "is_disabled": 0, "type": "electric_scooter"}, {"bike_id": "d0b4a400f405229d310cb4de7dcf1db5", "lat": 38.90219583333333, "is_reserved": 0, "fusion_lat": 0.0, "rental_uris": {"android": "https://dc.lft.to/lastmile_qr_scan", "ios": "https://dc.lft.to/lastmile_qr_scan"}, "fusion_lon": 0.0, "name": "d0b4a400f405229d310cb4de7dcf1db5", "lon": -77.02309783333334, "is_disabled": 0, "type": "electric_scooter"}, {"bike_id": "425257836de3ee935c7b6df15af59bea", "lat": 38.8738645, "is_reserved": 0, "fusion_lat": 0.0, "rental_uris": {"android": "https://dc.lft.to/lastmile_qr_scan", "ios": "https://dc.lft.to/lastmile_qr_scan"}, "fusion_lon": 0.0, "name": "425257836de3ee935c7b6df15af59bea", "lon": -77.00080933333334, "is_disabled": 0, "type": "electric_scooter"}, {"bike_id": "3730cb7189062e086932203fa3e9209c", "lat": 38.92209616666667, "is_reserved": 0, "fusion_lat": 0.0, "rental_uris": {"android": "https://dc.lft.to/lastmile_qr_scan", "ios": "https://dc.lft.to/lastmile_qr_scan"}, "fusion_lon": 0.0, "name": "3730cb7189062e086932203fa3e9209c", "lon": -77.03397033333333, "is_disabled": 0, "type": "electric_scooter"}, {"bike_id": "bbee24ff2fc3510cea0e85da0210f170", "lat": 38.89234866666666, "is_reserved": 0, "fusion_lat": 0.0, "rental_uris": {"android": "https://dc.lft.to/lastmile_qr_scan", "ios": "https://dc.lft.to/lastmile_qr_scan"}, "fusion_lon": 0.0, "name": "bbee24ff2fc3510cea0e85da0210f170", "lon": -77.04147833333333, "is_disabled": 0, "type": "electric_scooter"}, {"bike_id": "a95196a924d368ca3ba4748d1c2f98e6", "lat": 38.92065933333333, "is_reserved": 0, "fusion_lat": 0.0, "rental_uris": {"android": "https://dc.lft.to/lastmile_qr_scan", "ios": "https://dc.lft.to/lastmile_qr_scan"}, "fusion_lon": 0.0, "name": "a95196a924d368ca3ba4748d1c2f98e6", "lon": -77.0148225, "is_disabled": 0, "type": "electric_scooter"}, {"bike_id": "c03e5411744cdc771c75b28268314749", "lat": 38.917114833333336, "is_reserved": 0, "fusion_lat": 0.0, "rental_uris": {"android": "https://dc.lft.to/lastmile_qr_scan", "ios": "https://dc.lft.to/lastmile_qr_scan"}, "fusion_lon": 0.0, "name": "c03e5411744cdc771c75b28268314749", "lon": -77.0347205, "is_disabled": 0, "type": "electric_scooter"}, {"bike_id": "f58e1325af89b36d6f409f511d0ddeee", "lat": 38.90813, "is_reserved": 0, "fusion_lat": 0.0, "rental_uris": {"android": "https://dc.lft.to/lastmile_qr_scan", "ios": "https://dc.lft.to/lastmile_qr_scan"}, "fusion_lon": 0.0, "name": "f58e1325af89b36d6f409f511d0ddeee", "lon": -77.043458, "is_disabled": 0, "type": "electric_scooter"}, {"bike_id": "db1caf397e3b917aa87559d97e7cfc2d", "lat": 38.923474, "is_reserved": 0, "fusion_lat": 0.0, "rental_uris": {"android": "https://dc.lft.to/lastmile_qr_scan", "ios": "https://dc.lft.to/lastmile_qr_scan"}, "fusion_lon": 0.0, "name": "db1caf397e3b917aa87559d97e7cfc2d", "lon": -77.05117666666666, "is_disabled": 0, "type": "electric_scooter"}, {"bike_id": "331fe41e51c085278986ab1028388716", "lat": 38.963932666666665, "is_reserved": 0, "fusion_lat": 0.0, "rental_uris": {"android": "https://dc.lft.to/lastmile_qr_scan", "ios": "https://dc.lft.to/lastmile_qr_scan"}, "fusion_lon": 0.0, "name": "331fe41e51c085278986ab1028388716", "lon": -77.0259045, "is_disabled": 0, "type": "electric_scooter"}, {"bike_id": "b36cca688d7a34269b9df42e1c8cd5c5", "lat": 38.89495683333333, "is_reserved": 0, "fusion_lat": 0.0, "rental_uris": {"android": "https://dc.lft.to/lastmile_qr_scan", "ios": "https://dc.lft.to/lastmile_qr_scan"}, "fusion_lon": 0.0, "name": "b36cca688d7a34269b9df42e1c8cd5c5", "lon": -77.0217195, "is_disabled": 0, "type": "electric_scooter"}, {"bike_id": "98acfb03922523d075d8b82cc73f0c97", "lat": 38.89844766666667, "is_reserved": 0, "fusion_lat": 0.0, "rental_uris": {"android": "https://dc.lft.to/lastmile_qr_scan", "ios": "https://dc.lft.to/lastmile_qr_scan"}, "fusion_lon": 0.0, "name": "98acfb03922523d075d8b82cc73f0c97", "lon": -77.03103233333333, "is_disabled": 0, "type": "electric_scooter"}, {"bike_id": "3e63a80e933de0002d6d06db6ec283df", "lat": 38.873006333333336, "is_reserved": 0, "fusion_lat": 0.0, "rental_uris": {"android": "https://dc.lft.to/lastmile_qr_scan", "ios": "https://dc.lft.to/lastmile_qr_scan"}, "fusion_lon": 0.0, "name": "3e63a80e933de0002d6d06db6ec283df", "lon": -77.1392985, "is_disabled": 0, "type": "electric_bike"}, {"bike_id": "96d19bc7bbe0d8911b5a9c43b41a0355", "lat": 38.842825166666664, "is_reserved": 0, "fusion_lat": 0.0, "rental_uris": {"android": "https://dc.lft.to/lastmile_qr_scan", "ios": "https://dc.lft.to/lastmile_qr_scan"}, "fusion_lon": 0.0, "name": "96d19bc7bbe0d8911b5a9c43b41a0355", "lon": -76.98842133333333, "is_disabled": 0, "type": "electric_bike"}, {"bike_id": "bc81b02dbc649444196662c653d43365", "lat": 38.89292233333333, "is_reserved": 0, "fusion_lat": 0.0, "rental_uris": {"android": "https://dc.lft.to/lastmile_qr_scan", "ios": "https://dc.lft.to/lastmile_qr_scan"}, "fusion_lon": 0.0, "name": "bc81b02dbc649444196662c653d43365", "lon": -77.03352216666667, "is_disabled": 0, "type": "electric_scooter"}, {"bike_id": "54db9162d71f3d8ffb474e498d1418df", "lat": 38.916313333333335, "is_reserved": 0, "fusion_lat": 0.0, "rental_uris": {"android": "https://dc.lft.to/lastmile_qr_scan", "ios": "https://dc.lft.to/lastmile_qr_scan"}, "fusion_lon": 0.0, "name": "54db9162d71f3d8ffb474e498d1418df", "lon": -77.0320445, "is_disabled": 0, "type": "electric_scooter"}, {"bike_id": "37eaa888c32ec0e97a683cac8e0d6c4a", "lat": 38.90588016666667, "is_reserved": 0, "fusion_lat": 0.0, "rental_uris": {"android": "https://dc.lft.to/lastmile_qr_scan", "ios": "https://dc.lft.to/lastmile_qr_scan"}, "fusion_lon": 0.0, "name": "37eaa888c32ec0e97a683cac8e0d6c4a", "lon": -77.0219975, "is_disabled": 0, "type": "electric_scooter"}, {"bike_id": "05e763b090d7a0d294327fef01ce1c3e", "lat": 38.89913966666667, "is_reserved": 0, "fusion_lat": 0.0, "rental_uris": {"android": "https://dc.lft.to/lastmile_qr_scan", "ios": "https://dc.lft.to/lastmile_qr_scan"}, "fusion_lon": 0.0, "name": "05e763b090d7a0d294327fef01ce1c3e", "lon": -76.933694, "is_disabled": 0, "type": "electric_scooter"}, {"bike_id": "ec86093c9e7d37b045242ef99aaaf6bb", "lat": 38.87883716666666, "is_reserved": 0, "fusion_lat": 0.0, "rental_uris": {"android": "https://dc.lft.to/lastmile_qr_scan", "ios": "https://dc.lft.to/lastmile_qr_scan"}, "fusion_lon": 0.0, "name": "ec86093c9e7d37b045242ef99aaaf6bb", "lon": -77.02226566666667, "is_disabled": 0, "type": "electric_scooter"}, {"bike_id": "9a6ba127096649ea870fbbc7aa937acb", "lat": 38.89388, "is_reserved": 0, "fusion_lat": 0.0, "rental_uris": {"android": "https://dc.lft.to/lastmile_qr_scan", "ios": "https://dc.lft.to/lastmile_qr_scan"}, "fusion_lon": 0.0, "name": "9a6ba127096649ea870fbbc7aa937acb", "lon": -77.02267966666666, "is_disabled": 0, "type": "electric_scooter"}, {"bike_id": "ca11766f1f5bbdfa190210bed516c159", "lat": 38.93077066666667, "is_reserved": 0, "fusion_lat": 0.0, "rental_uris": {"android": "https://dc.lft.to/lastmile_qr_scan", "ios": "https://dc.lft.to/lastmile_qr_scan"}, "fusion_lon": 0.0, "name": "ca11766f1f5bbdfa190210bed516c159", "lon": -77.02790566666667, "is_disabled": 0, "type": "electric_scooter"}, {"bike_id": "b8cf6f8be0f4126a4606428cc6a4ca96", "lat": 38.90534816666667, "is_reserved": 0, "fusion_lat": 0.0, "rental_uris": {"android": "https://dc.lft.to/lastmile_qr_scan", "ios": "https://dc.lft.to/lastmile_qr_scan"}, "fusion_lon": 0.0, "name": "b8cf6f8be0f4126a4606428cc6a4ca96", "lon": -77.041532, "is_disabled": 0, "type": "electric_scooter"}, {"bike_id": "9682135ddd10fb4f21daff776da37882", "lat": 38.89621116666667, "is_reserved": 0, "fusion_lat": 0.0, "rental_uris": {"android": "https://dc.lft.to/lastmile_qr_scan", "ios": "https://dc.lft.to/lastmile_qr_scan"}, "fusion_lon": 0.0, "name": "9682135ddd10fb4f21daff776da37882", "lon": -77.04494416666667, "is_disabled": 0, "type": "electric_scooter"}, {"bike_id": "9426cfec8bbd2d72808dbcb1931783eb", "lat": 38.93920633333333, "is_reserved": 0, "fusion_lat": 0.0, "rental_uris": {"android": "https://dc.lft.to/lastmile_qr_scan", "ios": "https://dc.lft.to/lastmile_qr_scan"}, "fusion_lon": 0.0, "name": "9426cfec8bbd2d72808dbcb1931783eb", "lon": -77.060494, "is_disabled": 0, "type": "electric_scooter"}, {"bike_id": "6e5d20bd950d835f8b32bce0b2ed6cf2", "lat": 38.9170855, "is_reserved": 0, "fusion_lat": 0.0, "rental_uris": {"android": "https://dc.lft.to/lastmile_qr_scan", "ios": "https://dc.lft.to/lastmile_qr_scan"}, "fusion_lon": 0.0, "name": "6e5d20bd950d835f8b32bce0b2ed6cf2", "lon": -77.028374, "is_disabled": 0, "type": "electric_scooter"}, {"bike_id": "5e07bdc2e8864dbeb2a7a36e00c50455", "lat": 38.873705333333334, "is_reserved": 0, "fusion_lat": 0.0, "rental_uris": {"android": "https://dc.lft.to/lastmile_qr_scan", "ios": "https://dc.lft.to/lastmile_qr_scan"}, "fusion_lon": 0.0, "name": "5e07bdc2e8864dbeb2a7a36e00c50455", "lon": -76.97023883333334, "is_disabled": 0, "type": "electric_scooter"}, {"bike_id": "c5531c4a838a8a5c2fde0fc248028eb8", "lat": 38.89748183333333, "is_reserved": 0, "fusion_lat": 0.0, "rental_uris": {"android": "https://dc.lft.to/lastmile_qr_scan", "ios": "https://dc.lft.to/lastmile_qr_scan"}, "fusion_lon": 0.0, "name": "c5531c4a838a8a5c2fde0fc248028eb8", "lon": -77.043886, "is_disabled": 0, "type": "electric_scooter"}, {"bike_id": "bcaa11617186e056b32a21eb57497b3b", "lat": 38.94186766666667, "is_reserved": 0, "fusion_lat": 0.0, "rental_uris": {"android": "https://dc.lft.to/lastmile_qr_scan", "ios": "https://dc.lft.to/lastmile_qr_scan"}, "fusion_lon": 0.0, "name": "bcaa11617186e056b32a21eb57497b3b", "lon": -77.0249285, "is_disabled": 0, "type": "electric_scooter"}, {"bike_id": "04f3d951a9a55baa1463edbcec2e4869", "lat": 38.9062565, "is_reserved": 0, "fusion_lat": 0.0, "rental_uris": {"android": "https://dc.lft.to/lastmile_qr_scan", "ios": "https://dc.lft.to/lastmile_qr_scan"}, "fusion_lon": 0.0, "name": "04f3d951a9a55baa1463edbcec2e4869", "lon": -77.038892, "is_disabled": 0, "type": "electric_scooter"}, {"bike_id": "aaee46c0e2e7fdb9510bbeb9b0a1f0ca", "lat": 38.928849, "is_reserved": 0, "fusion_lat": 0.0, "rental_uris": {"android": "https://dc.lft.to/lastmile_qr_scan", "ios": "https://dc.lft.to/lastmile_qr_scan"}, "fusion_lon": 0.0, "name": "aaee46c0e2e7fdb9510bbeb9b0a1f0ca", "lon": -77.0331995, "is_disabled": 0, "type": "electric_scooter"}, {"bike_id": "2498ef6654e716f1ebaebf8a340ff99a", "lat": 38.956562166666664, "is_reserved": 0, "fusion_lat": 0.0, "rental_uris": {"android": "https://dc.lft.to/lastmile_qr_scan", "ios": "https://dc.lft.to/lastmile_qr_scan"}, "fusion_lon": 0.0, "name": "2498ef6654e716f1ebaebf8a340ff99a", "lon": -77.01963116666667, "is_disabled": 0, "type": "electric_scooter"}, {"bike_id": "a4d73b1c73883832757bad190487dc9a", "lat": 38.9327065, "is_reserved": 0, "fusion_lat": 0.0, "rental_uris": {"android": "https://dc.lft.to/lastmile_qr_scan", "ios": "https://dc.lft.to/lastmile_qr_scan"}, "fusion_lon": 0.0, "name": "a4d73b1c73883832757bad190487dc9a", "lon": -77.035011, "is_disabled": 0, "type": "electric_scooter"}, {"bike_id": "d8cfbfd4d215a612a7aa09c521f17257", "lat": 38.892404, "is_reserved": 0, "fusion_lat": 0.0, "rental_uris": {"android": "https://dc.lft.to/lastmile_qr_scan", "ios": "https://dc.lft.to/lastmile_qr_scan"}, "fusion_lon": 0.0, "name": "d8cfbfd4d215a612a7aa09c521f17257", "lon": -76.94097333333333, "is_disabled": 0, "type": "electric_scooter"}, {"bike_id": "73d29e2597b4850bb96e98af6c4b95b6", "lat": 38.92029016666667, "is_reserved": 0, "fusion_lat": 0.0, "rental_uris": {"android": "https://dc.lft.to/lastmile_qr_scan", "ios": "https://dc.lft.to/lastmile_qr_scan"}, "fusion_lon": 0.0, "name": "73d29e2597b4850bb96e98af6c4b95b6", "lon": -77.04205533333334, "is_disabled": 0, "type": "electric_scooter"}, {"bike_id": "2f7806bf68f9a217093871024e86a4b6", "lat": 38.90382783333333, "is_reserved": 0, "fusion_lat": 0.0, "rental_uris": {"android": "https://dc.lft.to/lastmile_qr_scan", "ios": "https://dc.lft.to/lastmile_qr_scan"}, "fusion_lon": 0.0, "name": "2f7806bf68f9a217093871024e86a4b6", "lon": -77.029502, "is_disabled": 0, "type": "electric_scooter"}, {"bike_id": "cbdce233d37a3857967b3ba6188517ac", "lat": 38.897976666666665, "is_reserved": 0, "fusion_lat": 0.0, "rental_uris": {"android": "https://dc.lft.to/lastmile_qr_scan", "ios": "https://dc.lft.to/lastmile_qr_scan"}, "fusion_lon": 0.0, "name": "cbdce233d37a3857967b3ba6188517ac", "lon": -77.02478516666666, "is_disabled": 0, "type": "electric_scooter"}, {"bike_id": "74c5bf12b9040db2b82cebe3cead4aba", "lat": 38.9351525, "is_reserved": 0, "fusion_lat": 0.0, "rental_uris": {"android": "https://dc.lft.to/lastmile_qr_scan", "ios": "https://dc.lft.to/lastmile_qr_scan"}, "fusion_lon": 0.0, "name": "74c5bf12b9040db2b82cebe3cead4aba", "lon": -77.032963, "is_disabled": 0, "type": "electric_scooter"}, {"bike_id": "2d2f405c5816639b85b13988fe5d2c6f", "lat": 38.89203283333333, "is_reserved": 0, "fusion_lat": 0.0, "rental_uris": {"android": "https://dc.lft.to/lastmile_qr_scan", "ios": "https://dc.lft.to/lastmile_qr_scan"}, "fusion_lon": 0.0, "name": "2d2f405c5816639b85b13988fe5d2c6f", "lon": -77.002958, "is_disabled": 0, "type": "electric_scooter"}, {"bike_id": "ecbd169a784329dee05585a2aa24570e", "lat": 38.948293666666665, "is_reserved": 0, "fusion_lat": 0.0, "rental_uris": {"android": "https://dc.lft.to/lastmile_qr_scan", "ios": "https://dc.lft.to/lastmile_qr_scan"}, "fusion_lon": 0.0, "name": "ecbd169a784329dee05585a2aa24570e", "lon": -77.080058, "is_disabled": 0, "type": "electric_scooter"}, {"bike_id": "db1a4adaf80851c5e30bc2947adbe59a", "lat": 38.91636866666666, "is_reserved": 0, "fusion_lat": 0.0, "rental_uris": {"android": "https://dc.lft.to/lastmile_qr_scan", "ios": "https://dc.lft.to/lastmile_qr_scan"}, "fusion_lon": 0.0, "name": "db1a4adaf80851c5e30bc2947adbe59a", "lon": -77.000475, "is_disabled": 0, "type": "electric_scooter"}, {"bike_id": "534ddfef36efa624b00f03640ecfd3c9", "lat": 38.91912216666667, "is_reserved": 0, "fusion_lat": 0.0, "rental_uris": {"android": "https://dc.lft.to/lastmile_qr_scan", "ios": "https://dc.lft.to/lastmile_qr_scan"}, "fusion_lon": 0.0, "name": "534ddfef36efa624b00f03640ecfd3c9", "lon": -77.01357883333333, "is_disabled": 0, "type": "electric_scooter"}, {"bike_id": "c284f557dab8f0d6fef7ebc305e45352", "lat": 38.928577833333335, "is_reserved": 0, "fusion_lat": 0.0, "rental_uris": {"android": "https://dc.lft.to/lastmile_qr_scan", "ios": "https://dc.lft.to/lastmile_qr_scan"}, "fusion_lon": 0.0, "name": "c284f557dab8f0d6fef7ebc305e45352", "lon": -77.03629666666667, "is_disabled": 0, "type": "electric_scooter"}, {"bike_id": "a76c1249b7cd3981db0aba249124e7ee", "lat": 38.910337166666665, "is_reserved": 0, "fusion_lat": 0.0, "rental_uris": {"android": "https://dc.lft.to/lastmile_qr_scan", "ios": "https://dc.lft.to/lastmile_qr_scan"}, "fusion_lon": 0.0, "name": "a76c1249b7cd3981db0aba249124e7ee", "lon": -76.98552466666666, "is_disabled": 0, "type": "electric_scooter"}, {"bike_id": "0e31e96d6f6fbf0749e95994f4412dc2", "lat": 38.916213166666665, "is_reserved": 0, "fusion_lat": 0.0, "rental_uris": {"android": "https://dc.lft.to/lastmile_qr_scan", "ios": "https://dc.lft.to/lastmile_qr_scan"}, "fusion_lon": 0.0, "name": "0e31e96d6f6fbf0749e95994f4412dc2", "lon": -77.02283866666667, "is_disabled": 0, "type": "electric_scooter"}, {"bike_id": "1cdae12e2513e9a503cbed707c6484e7", "lat": 38.859743, "is_reserved": 0, "fusion_lat": 0.0, "rental_uris": {"android": "https://dc.lft.to/lastmile_qr_scan", "ios": "https://dc.lft.to/lastmile_qr_scan"}, "fusion_lon": 0.0, "name": "1cdae12e2513e9a503cbed707c6484e7", "lon": -76.9916155, "is_disabled": 0, "type": "electric_scooter"}, {"bike_id": "828cfb7ea37384fb19fc916de577bd68", "lat": 38.89888233333333, "is_reserved": 0, "fusion_lat": 0.0, "rental_uris": {"android": "https://dc.lft.to/lastmile_qr_scan", "ios": "https://dc.lft.to/lastmile_qr_scan"}, "fusion_lon": 0.0, "name": "828cfb7ea37384fb19fc916de577bd68", "lon": -76.931764, "is_disabled": 0, "type": "electric_scooter"}, {"bike_id": "c37c6d07224a51cf0c65b76a6cb0cb1a", "lat": 38.92329816666667, "is_reserved": 0, "fusion_lat": 0.0, "rental_uris": {"android": "https://dc.lft.to/lastmile_qr_scan", "ios": "https://dc.lft.to/lastmile_qr_scan"}, "fusion_lon": 0.0, "name": "c37c6d07224a51cf0c65b76a6cb0cb1a", "lon": -77.05559033333333, "is_disabled": 0, "type": "electric_scooter"}, {"bike_id": "5728e8f0dfc675e8acefd349e1fd43d6", "lat": 38.914819333333334, "is_reserved": 0, "fusion_lat": 0.0, "rental_uris": {"android": "https://dc.lft.to/lastmile_qr_scan", "ios": "https://dc.lft.to/lastmile_qr_scan"}, "fusion_lon": 0.0, "name": "5728e8f0dfc675e8acefd349e1fd43d6", "lon": -77.03571233333334, "is_disabled": 0, "type": "electric_scooter"}, {"bike_id": "513a6ce88b93d71616e29fbb5caaf106", "lat": 38.922516, "is_reserved": 0, "fusion_lat": 0.0, "rental_uris": {"android": "https://dc.lft.to/lastmile_qr_scan", "ios": "https://dc.lft.to/lastmile_qr_scan"}, "fusion_lon": 0.0, "name": "513a6ce88b93d71616e29fbb5caaf106", "lon": -77.01954683333334, "is_disabled": 0, "type": "electric_scooter"}, {"bike_id": "47065ef7bd2f24fb58d6f6201a696187", "lat": 38.908488, "is_reserved": 0, "fusion_lat": 0.0, "rental_uris": {"android": "https://dc.lft.to/lastmile_qr_scan", "ios": "https://dc.lft.to/lastmile_qr_scan"}, "fusion_lon": 0.0, "name": "47065ef7bd2f24fb58d6f6201a696187", "lon": -76.999575, "is_disabled": 0, "type": "electric_scooter"}, {"bike_id": "ccb6e25e65e71b957b0f972232951630", "lat": 38.88780583333333, "is_reserved": 0, "fusion_lat": 0.0, "rental_uris": {"android": "https://dc.lft.to/lastmile_qr_scan", "ios": "https://dc.lft.to/lastmile_qr_scan"}, "fusion_lon": 0.0, "name": "ccb6e25e65e71b957b0f972232951630", "lon": -76.9553125, "is_disabled": 0, "type": "electric_scooter"}, {"bike_id": "80f284e3b09f6eb0b314b1f216345e41", "lat": 38.8662515, "is_reserved": 0, "fusion_lat": 0.0, "rental_uris": {"android": "https://dc.lft.to/lastmile_qr_scan", "ios": "https://dc.lft.to/lastmile_qr_scan"}, "fusion_lon": 0.0, "name": "80f284e3b09f6eb0b314b1f216345e41", "lon": -76.98712966666666, "is_disabled": 0, "type": "electric_scooter"}, {"bike_id": "29be4f1064aa6d1858d8103aba8df81f", "lat": 38.9317315, "is_reserved": 0, "fusion_lat": 0.0, "rental_uris": {"android": "https://dc.lft.to/lastmile_qr_scan", "ios": "https://dc.lft.to/lastmile_qr_scan"}, "fusion_lon": 0.0, "name": "29be4f1064aa6d1858d8103aba8df81f", "lon": -77.03152966666667, "is_disabled": 0, "type": "electric_scooter"}, {"bike_id": "3907290e7002332a0d325c1c91c39425", "lat": 38.89656516666667, "is_reserved": 0, "fusion_lat": 0.0, "rental_uris": {"android": "https://dc.lft.to/lastmile_qr_scan", "ios": "https://dc.lft.to/lastmile_qr_scan"}, "fusion_lon": 0.0, "name": "3907290e7002332a0d325c1c91c39425", "lon": -77.0707905, "is_disabled": 0, "type": "electric_scooter"}, {"bike_id": "a61520cc2194af7db678640e823d860e", "lat": 38.897264666666665, "is_reserved": 0, "fusion_lat": 0.0, "rental_uris": {"android": "https://dc.lft.to/lastmile_qr_scan", "ios": "https://dc.lft.to/lastmile_qr_scan"}, "fusion_lon": 0.0, "name": "a61520cc2194af7db678640e823d860e", "lon": -77.0270495, "is_disabled": 0, "type": "electric_scooter"}, {"bike_id": "e29d62ac1a2687f30c87322b5d530f72", "lat": 38.928823, "is_reserved": 0, "fusion_lat": 0.0, "rental_uris": {"android": "https://dc.lft.to/lastmile_qr_scan", "ios": "https://dc.lft.to/lastmile_qr_scan"}, "fusion_lon": 0.0, "name": "e29d62ac1a2687f30c87322b5d530f72", "lon": -77.03922566666667, "is_disabled": 0, "type": "electric_scooter"}, {"bike_id": "b73c70bba53aa49e9b2dcc66dbdfe0c2", "lat": 38.90792916666667, "is_reserved": 0, "fusion_lat": 0.0, "rental_uris": {"android": "https://dc.lft.to/lastmile_qr_scan", "ios": "https://dc.lft.to/lastmile_qr_scan"}, "fusion_lon": 0.0, "name": "b73c70bba53aa49e9b2dcc66dbdfe0c2", "lon": -77.04341316666667, "is_disabled": 0, "type": "electric_scooter"}, {"bike_id": "e40c10a00914cbdc4fe2843e1a661924", "lat": 38.8996785, "is_reserved": 0, "fusion_lat": 0.0, "rental_uris": {"android": "https://dc.lft.to/lastmile_qr_scan", "ios": "https://dc.lft.to/lastmile_qr_scan"}, "fusion_lon": 0.0, "name": "e40c10a00914cbdc4fe2843e1a661924", "lon": -77.01977883333333, "is_disabled": 0, "type": "electric_scooter"}, {"bike_id": "df20c0b689350eb73a3e742ad2a9e354", "lat": 38.90871083333333, "is_reserved": 0, "fusion_lat": 0.0, "rental_uris": {"android": "https://dc.lft.to/lastmile_qr_scan", "ios": "https://dc.lft.to/lastmile_qr_scan"}, "fusion_lon": 0.0, "name": "df20c0b689350eb73a3e742ad2a9e354", "lon": -77.031821, "is_disabled": 0, "type": "electric_scooter"}, {"bike_id": "263a037f7bb2e40dffe55408862365e5", "lat": 38.92331516666667, "is_reserved": 0, "fusion_lat": 0.0, "rental_uris": {"android": "https://dc.lft.to/lastmile_qr_scan", "ios": "https://dc.lft.to/lastmile_qr_scan"}, "fusion_lon": 0.0, "name": "263a037f7bb2e40dffe55408862365e5", "lon": -77.02965483333334, "is_disabled": 0, "type": "electric_scooter"}, {"bike_id": "01e3348c1e5452f6827e2c4a86ead0f3", "lat": 38.9044385, "is_reserved": 0, "fusion_lat": 0.0, "rental_uris": {"android": "https://dc.lft.to/lastmile_qr_scan", "ios": "https://dc.lft.to/lastmile_qr_scan"}, "fusion_lon": 0.0, "name": "01e3348c1e5452f6827e2c4a86ead0f3", "lon": -76.98002433333333, "is_disabled": 0, "type": "electric_scooter"}, {"bike_id": "286a5ee8429e29f9fd51342e289ba4e2", "lat": 38.925058166666666, "is_reserved": 0, "fusion_lat": 0.0, "rental_uris": {"android": "https://dc.lft.to/lastmile_qr_scan", "ios": "https://dc.lft.to/lastmile_qr_scan"}, "fusion_lon": 0.0, "name": "286a5ee8429e29f9fd51342e289ba4e2", "lon": -77.03790083333334, "is_disabled": 0, "type": "electric_scooter"}, {"bike_id": "dae876be8cbde7df111972931a428393", "lat": 38.91802283333333, "is_reserved": 0, "fusion_lat": 0.0, "rental_uris": {"android": "https://dc.lft.to/lastmile_qr_scan", "ios": "https://dc.lft.to/lastmile_qr_scan"}, "fusion_lon": 0.0, "name": "dae876be8cbde7df111972931a428393", "lon": -77.03445233333333, "is_disabled": 0, "type": "electric_scooter"}, {"bike_id": "7765c653e6aa19122323edf68d32231e", "lat": 38.89224766666667, "is_reserved": 0, "fusion_lat": 0.0, "rental_uris": {"android": "https://dc.lft.to/lastmile_qr_scan", "ios": "https://dc.lft.to/lastmile_qr_scan"}, "fusion_lon": 0.0, "name": "7765c653e6aa19122323edf68d32231e", "lon": -77.0245635, "is_disabled": 0, "type": "electric_scooter"}, {"bike_id": "505fc497ec5aebea3c1f4b675fd8246a", "lat": 38.9111075, "is_reserved": 0, "fusion_lat": 0.0, "rental_uris": {"android": "https://dc.lft.to/lastmile_qr_scan", "ios": "https://dc.lft.to/lastmile_qr_scan"}, "fusion_lon": 0.0, "name": "505fc497ec5aebea3c1f4b675fd8246a", "lon": -77.022297, "is_disabled": 0, "type": "electric_scooter"}, {"bike_id": "42306dde012bf365cb8d8c2a16221ea1", "lat": 38.928846166666666, "is_reserved": 0, "fusion_lat": 0.0, "rental_uris": {"android": "https://dc.lft.to/lastmile_qr_scan", "ios": "https://dc.lft.to/lastmile_qr_scan"}, "fusion_lon": 0.0, "name": "42306dde012bf365cb8d8c2a16221ea1", "lon": -77.03290366666667, "is_disabled": 0, "type": "electric_scooter"}, {"bike_id": "c1f350ad57aa5fea4d1672fc6111458f", "lat": 38.8991015, "is_reserved": 0, "fusion_lat": 0.0, "rental_uris": {"android": "https://dc.lft.to/lastmile_qr_scan", "ios": "https://dc.lft.to/lastmile_qr_scan"}, "fusion_lon": 0.0, "name": "c1f350ad57aa5fea4d1672fc6111458f", "lon": -76.93367083333334, "is_disabled": 0, "type": "electric_scooter"}, {"bike_id": "24bd6716a07f070b17df4a30458b77b3", "lat": 38.91693216666667, "is_reserved": 0, "fusion_lat": 0.0, "rental_uris": {"android": "https://dc.lft.to/lastmile_qr_scan", "ios": "https://dc.lft.to/lastmile_qr_scan"}, "fusion_lon": 0.0, "name": "24bd6716a07f070b17df4a30458b77b3", "lon": -77.0230475, "is_disabled": 0, "type": "electric_scooter"}, {"bike_id": "996f2c0dc4084ca260c534980847eebd", "lat": 38.90591716666667, "is_reserved": 0, "fusion_lat": 0.0, "rental_uris": {"android": "https://dc.lft.to/lastmile_qr_scan", "ios": "https://dc.lft.to/lastmile_qr_scan"}, "fusion_lon": 0.0, "name": "996f2c0dc4084ca260c534980847eebd", "lon": -77.00372033333333, "is_disabled": 0, "type": "electric_scooter"}, {"bike_id": "d8a49a39c0d5d84de8553b6b8349bc15", "lat": 38.90276033333333, "is_reserved": 0, "fusion_lat": 0.0, "rental_uris": {"android": "https://dc.lft.to/lastmile_qr_scan", "ios": "https://dc.lft.to/lastmile_qr_scan"}, "fusion_lon": 0.0, "name": "d8a49a39c0d5d84de8553b6b8349bc15", "lon": -77.03845716666666, "is_disabled": 0, "type": "electric_scooter"}, {"bike_id": "3cf1209cdde95bcc23ff52f6669a34a9", "lat": 38.86531983333333, "is_reserved": 0, "fusion_lat": 0.0, "rental_uris": {"android": "https://dc.lft.to/lastmile_qr_scan", "ios": "https://dc.lft.to/lastmile_qr_scan"}, "fusion_lon": 0.0, "name": "3cf1209cdde95bcc23ff52f6669a34a9", "lon": -76.97328116666667, "is_disabled": 0, "type": "electric_scooter"}, {"bike_id": "916ac34990a8e9cefad31391d15ffd5a", "lat": 38.899216833333334, "is_reserved": 0, "fusion_lat": 0.0, "rental_uris": {"android": "https://dc.lft.to/lastmile_qr_scan", "ios": "https://dc.lft.to/lastmile_qr_scan"}, "fusion_lon": 0.0, "name": "916ac34990a8e9cefad31391d15ffd5a", "lon": -77.04493883333333, "is_disabled": 0, "type": "electric_scooter"}, {"bike_id": "99bb736bff16fa76f83246a70870ba79", "lat": 38.92533783333333, "is_reserved": 0, "fusion_lat": 0.0, "rental_uris": {"android": "https://dc.lft.to/lastmile_qr_scan", "ios": "https://dc.lft.to/lastmile_qr_scan"}, "fusion_lon": 0.0, "name": "99bb736bff16fa76f83246a70870ba79", "lon": -77.03470116666666, "is_disabled": 0, "type": "electric_scooter"}, {"bike_id": "412e4868c2fc6611503089e181d6d775", "lat": 38.892207666666664, "is_reserved": 0, "fusion_lat": 0.0, "rental_uris": {"android": "https://dc.lft.to/lastmile_qr_scan", "ios": "https://dc.lft.to/lastmile_qr_scan"}, "fusion_lon": 0.0, "name": "412e4868c2fc6611503089e181d6d775", "lon": -77.03215283333333, "is_disabled": 0, "type": "electric_scooter"}, {"bike_id": "ceae3dc8119e89e6628f784a34904e30", "lat": 38.90596383333333, "is_reserved": 0, "fusion_lat": 0.0, "rental_uris": {"android": "https://dc.lft.to/lastmile_qr_scan", "ios": "https://dc.lft.to/lastmile_qr_scan"}, "fusion_lon": 0.0, "name": "ceae3dc8119e89e6628f784a34904e30", "lon": -77.04722083333333, "is_disabled": 0, "type": "electric_scooter"}, {"bike_id": "0dca2a2f4c3612fbcb1a3bc68fdbc127", "lat": 38.92328533333333, "is_reserved": 0, "fusion_lat": 0.0, "rental_uris": {"android": "https://dc.lft.to/lastmile_qr_scan", "ios": "https://dc.lft.to/lastmile_qr_scan"}, "fusion_lon": 0.0, "name": "0dca2a2f4c3612fbcb1a3bc68fdbc127", "lon": -77.01949866666666, "is_disabled": 0, "type": "electric_scooter"}, {"bike_id": "f60b097c77ec2e76cdd4df6b3fe768ea", "lat": 38.901404666666664, "is_reserved": 0, "fusion_lat": 0.0, "rental_uris": {"android": "https://dc.lft.to/lastmile_qr_scan", "ios": "https://dc.lft.to/lastmile_qr_scan"}, "fusion_lon": 0.0, "name": "f60b097c77ec2e76cdd4df6b3fe768ea", "lon": -77.02991466666667, "is_disabled": 0, "type": "electric_scooter"}, {"bike_id": "b316e69d3e9e1814d2b6fb149680bc9c", "lat": 38.87885133333333, "is_reserved": 0, "fusion_lat": 0.0, "rental_uris": {"android": "https://dc.lft.to/lastmile_qr_scan", "ios": "https://dc.lft.to/lastmile_qr_scan"}, "fusion_lon": 0.0, "name": "b316e69d3e9e1814d2b6fb149680bc9c", "lon": -77.0222975, "is_disabled": 0, "type": "electric_scooter"}, {"bike_id": "0346b096aefc90a315bed4c70ec0847a", "lat": 38.887437, "is_reserved": 0, "fusion_lat": 0.0, "rental_uris": {"android": "https://dc.lft.to/lastmile_qr_scan", "ios": "https://dc.lft.to/lastmile_qr_scan"}, "fusion_lon": 0.0, "name": "0346b096aefc90a315bed4c70ec0847a", "lon": -77.01727016666666, "is_disabled": 0, "type": "electric_scooter"}, {"bike_id": "67f7b6fcb78f4e45d6d547b099e76934", "lat": 38.91726116666667, "is_reserved": 0, "fusion_lat": 0.0, "rental_uris": {"android": "https://dc.lft.to/lastmile_qr_scan", "ios": "https://dc.lft.to/lastmile_qr_scan"}, "fusion_lon": 0.0, "name": "67f7b6fcb78f4e45d6d547b099e76934", "lon": -77.031841, "is_disabled": 0, "type": "electric_scooter"}, {"bike_id": "55dcc7c6e0e87b74bf43c5217eea689e", "lat": 38.928867833333335, "is_reserved": 0, "fusion_lat": 0.0, "rental_uris": {"android": "https://dc.lft.to/lastmile_qr_scan", "ios": "https://dc.lft.to/lastmile_qr_scan"}, "fusion_lon": 0.0, "name": "55dcc7c6e0e87b74bf43c5217eea689e", "lon": -77.03301316666666, "is_disabled": 0, "type": "electric_scooter"}, {"bike_id": "53772dd2e491ce57daeb499090237fba", "lat": 38.900329, "is_reserved": 0, "fusion_lat": 0.0, "rental_uris": {"android": "https://dc.lft.to/lastmile_qr_scan", "ios": "https://dc.lft.to/lastmile_qr_scan"}, "fusion_lon": 0.0, "name": "53772dd2e491ce57daeb499090237fba", "lon": -76.995854, "is_disabled": 0, "type": "electric_scooter"}, {"bike_id": "82bed850d3e5ba153187570c494c7008", "lat": 38.893673, "is_reserved": 0, "fusion_lat": 0.0, "rental_uris": {"android": "https://dc.lft.to/lastmile_qr_scan", "ios": "https://dc.lft.to/lastmile_qr_scan"}, "fusion_lon": 0.0, "name": "82bed850d3e5ba153187570c494c7008", "lon": -76.94702133333334, "is_disabled": 0, "type": "electric_scooter"}, {"bike_id": "2517b0a92541e1551c9a358fe3f0be59", "lat": 38.91401583333333, "is_reserved": 0, "fusion_lat": 0.0, "rental_uris": {"android": "https://dc.lft.to/lastmile_qr_scan", "ios": "https://dc.lft.to/lastmile_qr_scan"}, "fusion_lon": 0.0, "name": "2517b0a92541e1551c9a358fe3f0be59", "lon": -77.01796583333334, "is_disabled": 0, "type": "electric_scooter"}, {"bike_id": "724f26237105f33416a51ff95d00b995", "lat": 38.91296166666667, "is_reserved": 0, "fusion_lat": 0.0, "rental_uris": {"android": "https://dc.lft.to/lastmile_qr_scan", "ios": "https://dc.lft.to/lastmile_qr_scan"}, "fusion_lon": 0.0, "name": "724f26237105f33416a51ff95d00b995", "lon": -77.0296985, "is_disabled": 0, "type": "electric_scooter"}, {"bike_id": "404f051130973fb99739fc0412a2ed5f", "lat": 38.905700333333336, "is_reserved": 0, "fusion_lat": 0.0, "rental_uris": {"android": "https://dc.lft.to/lastmile_qr_scan", "ios": "https://dc.lft.to/lastmile_qr_scan"}, "fusion_lon": 0.0, "name": "404f051130973fb99739fc0412a2ed5f", "lon": -77.02813583333334, "is_disabled": 0, "type": "electric_scooter"}, {"bike_id": "99e7491bcacc1a80bb453900f6c6d7b9", "lat": 38.916114, "is_reserved": 0, "fusion_lat": 0.0, "rental_uris": {"android": "https://dc.lft.to/lastmile_qr_scan", "ios": "https://dc.lft.to/lastmile_qr_scan"}, "fusion_lon": 0.0, "name": "99e7491bcacc1a80bb453900f6c6d7b9", "lon": -77.03144883333333, "is_disabled": 0, "type": "electric_scooter"}, {"bike_id": "798d5286d081fe50ce0a28b203026002", "lat": 38.8921915, "is_reserved": 0, "fusion_lat": 0.0, "rental_uris": {"android": "https://dc.lft.to/lastmile_qr_scan", "ios": "https://dc.lft.to/lastmile_qr_scan"}, "fusion_lon": 0.0, "name": "798d5286d081fe50ce0a28b203026002", "lon": -77.022313, "is_disabled": 0, "type": "electric_scooter"}, {"bike_id": "5eb9b3341ebdbe7951a250d24d5b9e69", "lat": 38.916988333333336, "is_reserved": 0, "fusion_lat": 0.0, "rental_uris": {"android": "https://dc.lft.to/lastmile_qr_scan", "ios": "https://dc.lft.to/lastmile_qr_scan"}, "fusion_lon": 0.0, "name": "5eb9b3341ebdbe7951a250d24d5b9e69", "lon": -77.04334666666666, "is_disabled": 0, "type": "electric_scooter"}, {"bike_id": "b9a416003cfbd8702899ea0553ac854e", "lat": 38.96192116666667, "is_reserved": 0, "fusion_lat": 0.0, "rental_uris": {"android": "https://dc.lft.to/lastmile_qr_scan", "ios": "https://dc.lft.to/lastmile_qr_scan"}, "fusion_lon": 0.0, "name": "b9a416003cfbd8702899ea0553ac854e", "lon": -77.01027666666667, "is_disabled": 0, "type": "electric_scooter"}, {"bike_id": "caa092521b5b0e0ec0150c35265e60b3", "lat": 38.90771866666667, "is_reserved": 0, "fusion_lat": 0.0, "rental_uris": {"android": "https://dc.lft.to/lastmile_qr_scan", "ios": "https://dc.lft.to/lastmile_qr_scan"}, "fusion_lon": 0.0, "name": "caa092521b5b0e0ec0150c35265e60b3", "lon": -77.03440783333333, "is_disabled": 0, "type": "electric_scooter"}, {"bike_id": "abc842a487a62370699ebeabe2d20f4b", "lat": 38.8808865, "is_reserved": 0, "fusion_lat": 0.0, "rental_uris": {"android": "https://dc.lft.to/lastmile_qr_scan", "ios": "https://dc.lft.to/lastmile_qr_scan"}, "fusion_lon": 0.0, "name": "abc842a487a62370699ebeabe2d20f4b", "lon": -76.9950615, "is_disabled": 0, "type": "electric_scooter"}, {"bike_id": "87dec653e676220aaa6b76ec36a237e2", "lat": 38.905029666666664, "is_reserved": 0, "fusion_lat": 0.0, "rental_uris": {"android": "https://dc.lft.to/lastmile_qr_scan", "ios": "https://dc.lft.to/lastmile_qr_scan"}, "fusion_lon": 0.0, "name": "87dec653e676220aaa6b76ec36a237e2", "lon": -77.06014733333333, "is_disabled": 0, "type": "electric_scooter"}, {"bike_id": "6752a30d5d9dffe564991cc09ebab6e1", "lat": 38.89717266666667, "is_reserved": 0, "fusion_lat": 0.0, "rental_uris": {"android": "https://dc.lft.to/lastmile_qr_scan", "ios": "https://dc.lft.to/lastmile_qr_scan"}, "fusion_lon": 0.0, "name": "6752a30d5d9dffe564991cc09ebab6e1", "lon": -77.04899716666667, "is_disabled": 0, "type": "electric_scooter"}, {"bike_id": "ef2d2c62a68cac514a260895b3ca0255", "lat": 38.90594216666667, "is_reserved": 0, "fusion_lat": 0.0, "rental_uris": {"android": "https://dc.lft.to/lastmile_qr_scan", "ios": "https://dc.lft.to/lastmile_qr_scan"}, "fusion_lon": 0.0, "name": "ef2d2c62a68cac514a260895b3ca0255", "lon": -77.040146, "is_disabled": 0, "type": "electric_scooter"}, {"bike_id": "afa83cfd17d86d03df5f7d34d7468ecb", "lat": 38.94902716666667, "is_reserved": 0, "fusion_lat": 0.0, "rental_uris": {"android": "https://dc.lft.to/lastmile_qr_scan", "ios": "https://dc.lft.to/lastmile_qr_scan"}, "fusion_lon": 0.0, "name": "afa83cfd17d86d03df5f7d34d7468ecb", "lon": -77.02073633333333, "is_disabled": 0, "type": "electric_scooter"}, {"bike_id": "d8df98c5a0a64ca9aed25109a454d97e", "lat": 38.895018, "is_reserved": 0, "fusion_lat": 0.0, "rental_uris": {"android": "https://dc.lft.to/lastmile_qr_scan", "ios": "https://dc.lft.to/lastmile_qr_scan"}, "fusion_lon": 0.0, "name": "d8df98c5a0a64ca9aed25109a454d97e", "lon": -77.022916, "is_disabled": 0, "type": "electric_scooter"}, {"bike_id": "e68c1e4142b3c4f8feb3299ea0da170f", "lat": 38.9063975, "is_reserved": 0, "fusion_lat": 0.0, "rental_uris": {"android": "https://dc.lft.to/lastmile_qr_scan", "ios": "https://dc.lft.to/lastmile_qr_scan"}, "fusion_lon": 0.0, "name": "e68c1e4142b3c4f8feb3299ea0da170f", "lon": -77.0689265, "is_disabled": 0, "type": "electric_scooter"}, {"bike_id": "3fb130d6d7dcb0893f94e9b7716f0ed0", "lat": 39.0528005, "is_reserved": 0, "fusion_lat": 0.0, "rental_uris": {"android": "https://dc.lft.to/lastmile_qr_scan", "ios": "https://dc.lft.to/lastmile_qr_scan"}, "fusion_lon": 0.0, "name": "3fb130d6d7dcb0893f94e9b7716f0ed0", "lon": -77.08071316666667, "is_disabled": 0, "type": "electric_bike"}, {"bike_id": "5b17011f8d7f5b227c4c3828a58fb70a", "lat": 38.93579833333333, "is_reserved": 0, "fusion_lat": 0.0, "rental_uris": {"android": "https://dc.lft.to/lastmile_qr_scan", "ios": "https://dc.lft.to/lastmile_qr_scan"}, "fusion_lon": 0.0, "name": "5b17011f8d7f5b227c4c3828a58fb70a", "lon": -77.01975516666667, "is_disabled": 0, "type": "electric_scooter"}, {"bike_id": "0038656d1df6170e2bd3499c25a3b0aa", "lat": 38.9182505, "is_reserved": 0, "fusion_lat": 0.0, "rental_uris": {"android": "https://dc.lft.to/lastmile_qr_scan", "ios": "https://dc.lft.to/lastmile_qr_scan"}, "fusion_lon": 0.0, "name": "0038656d1df6170e2bd3499c25a3b0aa", "lon": -77.04945216666667, "is_disabled": 0, "type": "electric_scooter"}, {"bike_id": "088dd062ba2cdeb8cb7a7e08799c2aaf", "lat": 38.90723033333333, "is_reserved": 0, "fusion_lat": 0.0, "rental_uris": {"android": "https://dc.lft.to/lastmile_qr_scan", "ios": "https://dc.lft.to/lastmile_qr_scan"}, "fusion_lon": 0.0, "name": "088dd062ba2cdeb8cb7a7e08799c2aaf", "lon": -77.0324405, "is_disabled": 0, "type": "electric_scooter"}, {"bike_id": "8fee8a7358e324e7d2ae0bf2c4c633fb", "lat": 38.9051635, "is_reserved": 0, "fusion_lat": 0.0, "rental_uris": {"android": "https://dc.lft.to/lastmile_qr_scan", "ios": "https://dc.lft.to/lastmile_qr_scan"}, "fusion_lon": 0.0, "name": "8fee8a7358e324e7d2ae0bf2c4c633fb", "lon": -77.0646605, "is_disabled": 0, "type": "electric_scooter"}, {"bike_id": "98e71d1dfe1378b9e3ffb70d92a34a9a", "lat": 38.91510983333333, "is_reserved": 0, "fusion_lat": 0.0, "rental_uris": {"android": "https://dc.lft.to/lastmile_qr_scan", "ios": "https://dc.lft.to/lastmile_qr_scan"}, "fusion_lon": 0.0, "name": "98e71d1dfe1378b9e3ffb70d92a34a9a", "lon": -77.044896, "is_disabled": 0, "type": "electric_scooter"}, {"bike_id": "df772c64017894176100ad178edb7db8", "lat": 38.88122933333333, "is_reserved": 0, "fusion_lat": 0.0, "rental_uris": {"android": "https://dc.lft.to/lastmile_qr_scan", "ios": "https://dc.lft.to/lastmile_qr_scan"}, "fusion_lon": 0.0, "name": "df772c64017894176100ad178edb7db8", "lon": -77.00179133333333, "is_disabled": 0, "type": "electric_scooter"}, {"bike_id": "76a5e3c461a0805ce783ade1915a7929", "lat": 38.874724666666665, "is_reserved": 0, "fusion_lat": 0.0, "rental_uris": {"android": "https://dc.lft.to/lastmile_qr_scan", "ios": "https://dc.lft.to/lastmile_qr_scan"}, "fusion_lon": 0.0, "name": "76a5e3c461a0805ce783ade1915a7929", "lon": -77.00486433333333, "is_disabled": 0, "type": "electric_scooter"}, {"bike_id": "69a63e46611d2747690b32ec542337b7", "lat": 38.873673833333335, "is_reserved": 0, "fusion_lat": 0.0, "rental_uris": {"android": "https://dc.lft.to/lastmile_qr_scan", "ios": "https://dc.lft.to/lastmile_qr_scan"}, "fusion_lon": 0.0, "name": "69a63e46611d2747690b32ec542337b7", "lon": -76.97027433333334, "is_disabled": 0, "type": "electric_scooter"}, {"bike_id": "cb8d97a53db82b67e92fd524db5977ff", "lat": 38.933395833333336, "is_reserved": 0, "fusion_lat": 0.0, "rental_uris": {"android": "https://dc.lft.to/lastmile_qr_scan", "ios": "https://dc.lft.to/lastmile_qr_scan"}, "fusion_lon": 0.0, "name": "cb8d97a53db82b67e92fd524db5977ff", "lon": -77.020587, "is_disabled": 0, "type": "electric_scooter"}, {"bike_id": "8e5207446f9dfd4713a99526f7f0f0b5", "lat": 38.896291833333336, "is_reserved": 0, "fusion_lat": 0.0, "rental_uris": {"android": "https://dc.lft.to/lastmile_qr_scan", "ios": "https://dc.lft.to/lastmile_qr_scan"}, "fusion_lon": 0.0, "name": "8e5207446f9dfd4713a99526f7f0f0b5", "lon": -77.003466, "is_disabled": 0, "type": "electric_scooter"}, {"bike_id": "d4aa4c3ec6f49e38f35ccea8fa9bfa28", "lat": 38.8670465, "is_reserved": 0, "fusion_lat": 0.0, "rental_uris": {"android": "https://dc.lft.to/lastmile_qr_scan", "ios": "https://dc.lft.to/lastmile_qr_scan"}, "fusion_lon": 0.0, "name": "d4aa4c3ec6f49e38f35ccea8fa9bfa28", "lon": -76.98716966666667, "is_disabled": 0, "type": "electric_scooter"}, {"bike_id": "ef969400ace0093bbe3a792363d20853", "lat": 38.90982483333333, "is_reserved": 0, "fusion_lat": 0.0, "rental_uris": {"android": "https://dc.lft.to/lastmile_qr_scan", "ios": "https://dc.lft.to/lastmile_qr_scan"}, "fusion_lon": 0.0, "name": "ef969400ace0093bbe3a792363d20853", "lon": -76.99503283333334, "is_disabled": 0, "type": "electric_scooter"}, {"bike_id": "87625274976799f8a519d96e742828a1", "lat": 38.88183466666667, "is_reserved": 0, "fusion_lat": 0.0, "rental_uris": {"android": "https://dc.lft.to/lastmile_qr_scan", "ios": "https://dc.lft.to/lastmile_qr_scan"}, "fusion_lon": 0.0, "name": "87625274976799f8a519d96e742828a1", "lon": -77.0209085, "is_disabled": 0, "type": "electric_scooter"}, {"bike_id": "2492eacfb0aadf370cd1cdf523ac3d0a", "lat": 38.923207, "is_reserved": 0, "fusion_lat": 0.0, "rental_uris": {"android": "https://dc.lft.to/lastmile_qr_scan", "ios": "https://dc.lft.to/lastmile_qr_scan"}, "fusion_lon": 0.0, "name": "2492eacfb0aadf370cd1cdf523ac3d0a", "lon": -77.04448566666667, "is_disabled": 0, "type": "electric_scooter"}, {"bike_id": "bb84d261c21b72234e03096212725fb9", "lat": 38.88668716666667, "is_reserved": 0, "fusion_lat": 0.0, "rental_uris": {"android": "https://dc.lft.to/lastmile_qr_scan", "ios": "https://dc.lft.to/lastmile_qr_scan"}, "fusion_lon": 0.0, "name": "bb84d261c21b72234e03096212725fb9", "lon": -77.16232633333334, "is_disabled": 0, "type": "electric_bike"}, {"bike_id": "15b4aed50cfc351ecf8036bd28982329", "lat": 38.9499575, "is_reserved": 0, "fusion_lat": 0.0, "rental_uris": {"android": "https://dc.lft.to/lastmile_qr_scan", "ios": "https://dc.lft.to/lastmile_qr_scan"}, "fusion_lon": 0.0, "name": "15b4aed50cfc351ecf8036bd28982329", "lon": -77.01829266666667, "is_disabled": 0, "type": "electric_scooter"}, {"bike_id": "4043e80682d630940351212b4dc22fe2", "lat": 38.88344633333333, "is_reserved": 0, "fusion_lat": 0.0, "rental_uris": {"android": "https://dc.lft.to/lastmile_qr_scan", "ios": "https://dc.lft.to/lastmile_qr_scan"}, "fusion_lon": 0.0, "name": "4043e80682d630940351212b4dc22fe2", "lon": -76.9948865, "is_disabled": 0, "type": "electric_scooter"}, {"bike_id": "5e146ed942b579846edbf72475e354b7", "lat": 38.9017185, "is_reserved": 0, "fusion_lat": 0.0, "rental_uris": {"android": "https://dc.lft.to/lastmile_qr_scan", "ios": "https://dc.lft.to/lastmile_qr_scan"}, "fusion_lon": 0.0, "name": "5e146ed942b579846edbf72475e354b7", "lon": -77.02018233333334, "is_disabled": 0, "type": "electric_scooter"}, {"bike_id": "f7765649aa3f2753918874e64ed3cbde", "lat": 38.876546, "is_reserved": 0, "fusion_lat": 0.0, "rental_uris": {"android": "https://dc.lft.to/lastmile_qr_scan", "ios": "https://dc.lft.to/lastmile_qr_scan"}, "fusion_lon": 0.0, "name": "f7765649aa3f2753918874e64ed3cbde", "lon": -77.004367, "is_disabled": 0, "type": "electric_scooter"}, {"bike_id": "aa922cb28af767adb58d261b721a4579", "lat": 38.931984666666665, "is_reserved": 0, "fusion_lat": 0.0, "rental_uris": {"android": "https://dc.lft.to/lastmile_qr_scan", "ios": "https://dc.lft.to/lastmile_qr_scan"}, "fusion_lon": 0.0, "name": "aa922cb28af767adb58d261b721a4579", "lon": -77.0239845, "is_disabled": 0, "type": "electric_scooter"}, {"bike_id": "e54f22e6f93bb525b07aa151607ee10a", "lat": 38.926517, "is_reserved": 0, "fusion_lat": 0.0, "rental_uris": {"android": "https://dc.lft.to/lastmile_qr_scan", "ios": "https://dc.lft.to/lastmile_qr_scan"}, "fusion_lon": 0.0, "name": "e54f22e6f93bb525b07aa151607ee10a", "lon": -77.01523433333334, "is_disabled": 0, "type": "electric_scooter"}, {"bike_id": "55fa3dcfca1db4077323a9f44c73730b", "lat": 38.8762415, "is_reserved": 0, "fusion_lat": 0.0, "rental_uris": {"android": "https://dc.lft.to/lastmile_qr_scan", "ios": "https://dc.lft.to/lastmile_qr_scan"}, "fusion_lon": 0.0, "name": "55fa3dcfca1db4077323a9f44c73730b", "lon": -76.96528166666667, "is_disabled": 0, "type": "electric_scooter"}, {"bike_id": "9584ffdf2920925112e9952f6ff8f00f", "lat": 38.931656333333336, "is_reserved": 0, "fusion_lat": 0.0, "rental_uris": {"android": "https://dc.lft.to/lastmile_qr_scan", "ios": "https://dc.lft.to/lastmile_qr_scan"}, "fusion_lon": 0.0, "name": "9584ffdf2920925112e9952f6ff8f00f", "lon": -77.02879283333333, "is_disabled": 0, "type": "electric_scooter"}, {"bike_id": "cb77ca8c61e38d6f492a7698962626db", "lat": 38.9006515, "is_reserved": 0, "fusion_lat": 0.0, "rental_uris": {"android": "https://dc.lft.to/lastmile_qr_scan", "ios": "https://dc.lft.to/lastmile_qr_scan"}, "fusion_lon": 0.0, "name": "cb77ca8c61e38d6f492a7698962626db", "lon": -76.92740416666666, "is_disabled": 0, "type": "electric_scooter"}, {"bike_id": "fe9d7434d506e46e015ca41fe8515194", "lat": 38.905078333333336, "is_reserved": 0, "fusion_lat": 0.0, "rental_uris": {"android": "https://dc.lft.to/lastmile_qr_scan", "ios": "https://dc.lft.to/lastmile_qr_scan"}, "fusion_lon": 0.0, "name": "fe9d7434d506e46e015ca41fe8515194", "lon": -77.04366133333333, "is_disabled": 0, "type": "electric_scooter"}, {"bike_id": "09b6566ab9b0a30218bad91d6631f89c", "lat": 38.906141833333336, "is_reserved": 0, "fusion_lat": 0.0, "rental_uris": {"android": "https://dc.lft.to/lastmile_qr_scan", "ios": "https://dc.lft.to/lastmile_qr_scan"}, "fusion_lon": 0.0, "name": "09b6566ab9b0a30218bad91d6631f89c", "lon": -77.076362, "is_disabled": 0, "type": "electric_bike"}, {"bike_id": "67bb036766e665d952364865bfb62ffc", "lat": 38.88654783333333, "is_reserved": 0, "fusion_lat": 0.0, "rental_uris": {"android": "https://dc.lft.to/lastmile_qr_scan", "ios": "https://dc.lft.to/lastmile_qr_scan"}, "fusion_lon": 0.0, "name": "67bb036766e665d952364865bfb62ffc", "lon": -77.02834566666667, "is_disabled": 0, "type": "electric_scooter"}, {"bike_id": "75ffa64e10db421aa434bc29b88a3ccb", "lat": 38.932441, "is_reserved": 0, "fusion_lat": 0.0, "rental_uris": {"android": "https://dc.lft.to/lastmile_qr_scan", "ios": "https://dc.lft.to/lastmile_qr_scan"}, "fusion_lon": 0.0, "name": "75ffa64e10db421aa434bc29b88a3ccb", "lon": -76.9950895, "is_disabled": 0, "type": "electric_scooter"}, {"bike_id": "491b33033a6036efe757d62de5f619aa", "lat": 38.948303333333335, "is_reserved": 0, "fusion_lat": 0.0, "rental_uris": {"android": "https://dc.lft.to/lastmile_qr_scan", "ios": "https://dc.lft.to/lastmile_qr_scan"}, "fusion_lon": 0.0, "name": "491b33033a6036efe757d62de5f619aa", "lon": -77.02546516666666, "is_disabled": 0, "type": "electric_scooter"}, {"bike_id": "72c75949b468b7ac70e281d75a53c8bc", "lat": 38.915554166666666, "is_reserved": 0, "fusion_lat": 0.0, "rental_uris": {"android": "https://dc.lft.to/lastmile_qr_scan", "ios": "https://dc.lft.to/lastmile_qr_scan"}, "fusion_lon": 0.0, "name": "72c75949b468b7ac70e281d75a53c8bc", "lon": -77.02431916666667, "is_disabled": 0, "type": "electric_scooter"}, {"bike_id": "529e842cf411c93bfe447b3a219b867b", "lat": 38.906499, "is_reserved": 0, "fusion_lat": 0.0, "rental_uris": {"android": "https://dc.lft.to/lastmile_qr_scan", "ios": "https://dc.lft.to/lastmile_qr_scan"}, "fusion_lon": 0.0, "name": "529e842cf411c93bfe447b3a219b867b", "lon": -77.03866233333333, "is_disabled": 0, "type": "electric_scooter"}, {"bike_id": "51522a393872bee635c38de47eb8a1a0", "lat": 38.887257166666664, "is_reserved": 0, "fusion_lat": 0.0, "rental_uris": {"android": "https://dc.lft.to/lastmile_qr_scan", "ios": "https://dc.lft.to/lastmile_qr_scan"}, "fusion_lon": 0.0, "name": "51522a393872bee635c38de47eb8a1a0", "lon": -77.02214016666667, "is_disabled": 0, "type": "electric_scooter"}, {"bike_id": "cc2cf021231b1f97e1217b8960be5fd7", "lat": 38.925769, "is_reserved": 0, "fusion_lat": 0.0, "rental_uris": {"android": "https://dc.lft.to/lastmile_qr_scan", "ios": "https://dc.lft.to/lastmile_qr_scan"}, "fusion_lon": 0.0, "name": "cc2cf021231b1f97e1217b8960be5fd7", "lon": -77.02882183333334, "is_disabled": 0, "type": "electric_scooter"}, {"bike_id": "5b549319d01c3eb74248b48f23140247", "lat": 38.9182825, "is_reserved": 0, "fusion_lat": 0.0, "rental_uris": {"android": "https://dc.lft.to/lastmile_qr_scan", "ios": "https://dc.lft.to/lastmile_qr_scan"}, "fusion_lon": 0.0, "name": "5b549319d01c3eb74248b48f23140247", "lon": -77.0322975, "is_disabled": 0, "type": "electric_scooter"}, {"bike_id": "2facd7a30bd6aac4f86147058aeefaf3", "lat": 38.886906333333336, "is_reserved": 0, "fusion_lat": 0.0, "rental_uris": {"android": "https://dc.lft.to/lastmile_qr_scan", "ios": "https://dc.lft.to/lastmile_qr_scan"}, "fusion_lon": 0.0, "name": "2facd7a30bd6aac4f86147058aeefaf3", "lon": -76.9763465, "is_disabled": 0, "type": "electric_scooter"}, {"bike_id": "8a21a81d4c244a87869fab568bcd20e1", "lat": 38.9203135, "is_reserved": 0, "fusion_lat": 0.0, "rental_uris": {"android": "https://dc.lft.to/lastmile_qr_scan", "ios": "https://dc.lft.to/lastmile_qr_scan"}, "fusion_lon": 0.0, "name": "8a21a81d4c244a87869fab568bcd20e1", "lon": -77.07150183333333, "is_disabled": 0, "type": "electric_scooter"}, {"bike_id": "1bf294f34234736b0b77bc5fa61257aa", "lat": 38.9373605, "is_reserved": 0, "fusion_lat": 0.0, "rental_uris": {"android": "https://dc.lft.to/lastmile_qr_scan", "ios": "https://dc.lft.to/lastmile_qr_scan"}, "fusion_lon": 0.0, "name": "1bf294f34234736b0b77bc5fa61257aa", "lon": -77.03259216666666, "is_disabled": 0, "type": "electric_scooter"}, {"bike_id": "821d0af630d96b71a3e5cdcf6233affe", "lat": 38.899444, "is_reserved": 0, "fusion_lat": 0.0, "rental_uris": {"android": "https://dc.lft.to/lastmile_qr_scan", "ios": "https://dc.lft.to/lastmile_qr_scan"}, "fusion_lon": 0.0, "name": "821d0af630d96b71a3e5cdcf6233affe", "lon": -77.01444416666666, "is_disabled": 0, "type": "electric_scooter"}, {"bike_id": "aa8bf4389dc7780d0e4ac956c48d8778", "lat": 38.898414333333335, "is_reserved": 0, "fusion_lat": 0.0, "rental_uris": {"android": "https://dc.lft.to/lastmile_qr_scan", "ios": "https://dc.lft.to/lastmile_qr_scan"}, "fusion_lon": 0.0, "name": "aa8bf4389dc7780d0e4ac956c48d8778", "lon": -77.02877483333333, "is_disabled": 0, "type": "electric_scooter"}, {"bike_id": "58c2d5b0ece34186d16fcf30a71c502d", "lat": 38.9869565, "is_reserved": 0, "fusion_lat": 0.0, "rental_uris": {"android": "https://dc.lft.to/lastmile_qr_scan", "ios": "https://dc.lft.to/lastmile_qr_scan"}, "fusion_lon": 0.0, "name": "58c2d5b0ece34186d16fcf30a71c502d", "lon": -77.02979383333333, "is_disabled": 0, "type": "electric_scooter"}, {"bike_id": "f49f0dc34ecbda31baaef8e38c703a90", "lat": 38.9101405, "is_reserved": 0, "fusion_lat": 0.0, "rental_uris": {"android": "https://dc.lft.to/lastmile_qr_scan", "ios": "https://dc.lft.to/lastmile_qr_scan"}, "fusion_lon": 0.0, "name": "f49f0dc34ecbda31baaef8e38c703a90", "lon": -77.0284805, "is_disabled": 0, "type": "electric_scooter"}, {"bike_id": "f30b0b201a28077afdafa444ecb09e93", "lat": 38.906661666666665, "is_reserved": 0, "fusion_lat": 0.0, "rental_uris": {"android": "https://dc.lft.to/lastmile_qr_scan", "ios": "https://dc.lft.to/lastmile_qr_scan"}, "fusion_lon": 0.0, "name": "f30b0b201a28077afdafa444ecb09e93", "lon": -77.009582, "is_disabled": 0, "type": "electric_scooter"}, {"bike_id": "77e9b9a84ca75931e215067cab072b46", "lat": 38.8988665, "is_reserved": 0, "fusion_lat": 0.0, "rental_uris": {"android": "https://dc.lft.to/lastmile_qr_scan", "ios": "https://dc.lft.to/lastmile_qr_scan"}, "fusion_lon": 0.0, "name": "77e9b9a84ca75931e215067cab072b46", "lon": -76.93176633333333, "is_disabled": 0, "type": "electric_scooter"}, {"bike_id": "46779cd04eafe7042fa406b35dd67dbb", "lat": 38.91561083333333, "is_reserved": 0, "fusion_lat": 0.0, "rental_uris": {"android": "https://dc.lft.to/lastmile_qr_scan", "ios": "https://dc.lft.to/lastmile_qr_scan"}, "fusion_lon": 0.0, "name": "46779cd04eafe7042fa406b35dd67dbb", "lon": -77.04001016666666, "is_disabled": 0, "type": "electric_scooter"}, {"bike_id": "cb62d6134171b2f941803d6b07aff51d", "lat": 38.887480333333336, "is_reserved": 0, "fusion_lat": 0.0, "rental_uris": {"android": "https://dc.lft.to/lastmile_qr_scan", "ios": "https://dc.lft.to/lastmile_qr_scan"}, "fusion_lon": 0.0, "name": "cb62d6134171b2f941803d6b07aff51d", "lon": -77.031628, "is_disabled": 0, "type": "electric_scooter"}, {"bike_id": "9e392071046173c2fd597c059d8a0212", "lat": 38.8924295, "is_reserved": 0, "fusion_lat": 0.0, "rental_uris": {"android": "https://dc.lft.to/lastmile_qr_scan", "ios": "https://dc.lft.to/lastmile_qr_scan"}, "fusion_lon": 0.0, "name": "9e392071046173c2fd597c059d8a0212", "lon": -77.04498483333333, "is_disabled": 0, "type": "electric_scooter"}, {"bike_id": "4f1f5b3052fbc616b0ebcaacd478c13e", "lat": 38.91466583333333, "is_reserved": 0, "fusion_lat": 0.0, "rental_uris": {"android": "https://dc.lft.to/lastmile_qr_scan", "ios": "https://dc.lft.to/lastmile_qr_scan"}, "fusion_lon": 0.0, "name": "4f1f5b3052fbc616b0ebcaacd478c13e", "lon": -77.04588983333333, "is_disabled": 0, "type": "electric_scooter"}, {"bike_id": "c7e7036a19ff9fb36d19336926ac1c41", "lat": 38.89523966666667, "is_reserved": 0, "fusion_lat": 0.0, "rental_uris": {"android": "https://dc.lft.to/lastmile_qr_scan", "ios": "https://dc.lft.to/lastmile_qr_scan"}, "fusion_lon": 0.0, "name": "c7e7036a19ff9fb36d19336926ac1c41", "lon": -77.02287333333334, "is_disabled": 0, "type": "electric_scooter"}, {"bike_id": "733cd668ec2ca667911b576c707f04ee", "lat": 38.900381833333334, "is_reserved": 0, "fusion_lat": 0.0, "rental_uris": {"android": "https://dc.lft.to/lastmile_qr_scan", "ios": "https://dc.lft.to/lastmile_qr_scan"}, "fusion_lon": 0.0, "name": "733cd668ec2ca667911b576c707f04ee", "lon": -76.99152083333334, "is_disabled": 0, "type": "electric_scooter"}, {"bike_id": "d101c4096b9fb91a6659778982377748", "lat": 38.88494, "is_reserved": 0, "fusion_lat": 0.0, "rental_uris": {"android": "https://dc.lft.to/lastmile_qr_scan", "ios": "https://dc.lft.to/lastmile_qr_scan"}, "fusion_lon": 0.0, "name": "d101c4096b9fb91a6659778982377748", "lon": -77.00725166666666, "is_disabled": 0, "type": "electric_scooter"}, {"bike_id": "78f26aa46602638a2499aa0b39bc6b35", "lat": 38.89619733333333, "is_reserved": 0, "fusion_lat": 0.0, "rental_uris": {"android": "https://dc.lft.to/lastmile_qr_scan", "ios": "https://dc.lft.to/lastmile_qr_scan"}, "fusion_lon": 0.0, "name": "78f26aa46602638a2499aa0b39bc6b35", "lon": -77.04478666666667, "is_disabled": 0, "type": "electric_scooter"}, {"bike_id": "4ed0b32f5c99571e33a2d5fe87b0485c", "lat": 38.9231475, "is_reserved": 0, "fusion_lat": 0.0, "rental_uris": {"android": "https://dc.lft.to/lastmile_qr_scan", "ios": "https://dc.lft.to/lastmile_qr_scan"}, "fusion_lon": 0.0, "name": "4ed0b32f5c99571e33a2d5fe87b0485c", "lon": -77.04267583333333, "is_disabled": 0, "type": "electric_scooter"}, {"bike_id": "8064d9ed3649beb1c80c23b4cb9b35ff", "lat": 38.904005833333336, "is_reserved": 0, "fusion_lat": 0.0, "rental_uris": {"android": "https://dc.lft.to/lastmile_qr_scan", "ios": "https://dc.lft.to/lastmile_qr_scan"}, "fusion_lon": 0.0, "name": "8064d9ed3649beb1c80c23b4cb9b35ff", "lon": -77.02207983333334, "is_disabled": 0, "type": "electric_scooter"}, {"bike_id": "1193e73d20f91a9a3d935f22feed2a65", "lat": 38.9111235, "is_reserved": 0, "fusion_lat": 0.0, "rental_uris": {"android": "https://dc.lft.to/lastmile_qr_scan", "ios": "https://dc.lft.to/lastmile_qr_scan"}, "fusion_lon": 0.0, "name": "1193e73d20f91a9a3d935f22feed2a65", "lon": -77.00251783333333, "is_disabled": 0, "type": "electric_bike"}, {"bike_id": "f612b4b14eccd686818f862c28bf7d6c", "lat": 38.9096245, "is_reserved": 0, "fusion_lat": 0.0, "rental_uris": {"android": "https://dc.lft.to/lastmile_qr_scan", "ios": "https://dc.lft.to/lastmile_qr_scan"}, "fusion_lon": 0.0, "name": "f612b4b14eccd686818f862c28bf7d6c", "lon": -77.0328455, "is_disabled": 0, "type": "electric_scooter"}, {"bike_id": "c784cdafbd37d27c22a06e30c810fc89", "lat": 38.966041, "is_reserved": 0, "fusion_lat": 0.0, "rental_uris": {"android": "https://dc.lft.to/lastmile_qr_scan", "ios": "https://dc.lft.to/lastmile_qr_scan"}, "fusion_lon": 0.0, "name": "c784cdafbd37d27c22a06e30c810fc89", "lon": -77.01977983333333, "is_disabled": 0, "type": "electric_scooter"}, {"bike_id": "3e2b3be1d7ef85068f5921b1372c1e39", "lat": 38.91420766666667, "is_reserved": 0, "fusion_lat": 0.0, "rental_uris": {"android": "https://dc.lft.to/lastmile_qr_scan", "ios": "https://dc.lft.to/lastmile_qr_scan"}, "fusion_lon": 0.0, "name": "3e2b3be1d7ef85068f5921b1372c1e39", "lon": -77.0222775, "is_disabled": 0, "type": "electric_scooter"}, {"bike_id": "4557996e1bbf8feb109aefc0e1f03a57", "lat": 38.89960883333333, "is_reserved": 0, "fusion_lat": 0.0, "rental_uris": {"android": "https://dc.lft.to/lastmile_qr_scan", "ios": "https://dc.lft.to/lastmile_qr_scan"}, "fusion_lon": 0.0, "name": "4557996e1bbf8feb109aefc0e1f03a57", "lon": -77.01976566666667, "is_disabled": 0, "type": "electric_scooter"}, {"bike_id": "b91f7b07b37d051b280a694a11e15113", "lat": 38.911931, "is_reserved": 0, "fusion_lat": 0.0, "rental_uris": {"android": "https://dc.lft.to/lastmile_qr_scan", "ios": "https://dc.lft.to/lastmile_qr_scan"}, "fusion_lon": 0.0, "name": "b91f7b07b37d051b280a694a11e15113", "lon": -77.03830183333334, "is_disabled": 0, "type": "electric_scooter"}, {"bike_id": "6cadd6bea8ad21736a3ddaf371f264f3", "lat": 38.92120416666667, "is_reserved": 0, "fusion_lat": 0.0, "rental_uris": {"android": "https://dc.lft.to/lastmile_qr_scan", "ios": "https://dc.lft.to/lastmile_qr_scan"}, "fusion_lon": 0.0, "name": "6cadd6bea8ad21736a3ddaf371f264f3", "lon": -77.03658566666667, "is_disabled": 0, "type": "electric_scooter"}, {"bike_id": "dd3f8826ac1ceea277ca43aebf5d786e", "lat": 38.933302, "is_reserved": 0, "fusion_lat": 0.0, "rental_uris": {"android": "https://dc.lft.to/lastmile_qr_scan", "ios": "https://dc.lft.to/lastmile_qr_scan"}, "fusion_lon": 0.0, "name": "dd3f8826ac1ceea277ca43aebf5d786e", "lon": -77.02855766666667, "is_disabled": 0, "type": "electric_scooter"}, {"bike_id": "d56d824d1506042d48fbb251882b4ce0", "lat": 38.87364866666667, "is_reserved": 0, "fusion_lat": 0.0, "rental_uris": {"android": "https://dc.lft.to/lastmile_qr_scan", "ios": "https://dc.lft.to/lastmile_qr_scan"}, "fusion_lon": 0.0, "name": "d56d824d1506042d48fbb251882b4ce0", "lon": -76.97031716666666, "is_disabled": 0, "type": "electric_scooter"}, {"bike_id": "4cb5e24553c61cc16844d10e52a10629", "lat": 38.8841525, "is_reserved": 0, "fusion_lat": 0.0, "rental_uris": {"android": "https://dc.lft.to/lastmile_qr_scan", "ios": "https://dc.lft.to/lastmile_qr_scan"}, "fusion_lon": 0.0, "name": "4cb5e24553c61cc16844d10e52a10629", "lon": -77.02424666666667, "is_disabled": 0, "type": "electric_bike"}, {"bike_id": "abbc99bafe827bc68013a3443ff7185c", "lat": 38.8801265, "is_reserved": 0, "fusion_lat": 0.0, "rental_uris": {"android": "https://dc.lft.to/lastmile_qr_scan", "ios": "https://dc.lft.to/lastmile_qr_scan"}, "fusion_lon": 0.0, "name": "abbc99bafe827bc68013a3443ff7185c", "lon": -77.00245866666667, "is_disabled": 0, "type": "electric_scooter"}, {"bike_id": "0dda4a487c13d97b13a0cf541d19a58b", "lat": 38.90035683333333, "is_reserved": 0, "fusion_lat": 0.0, "rental_uris": {"android": "https://dc.lft.to/lastmile_qr_scan", "ios": "https://dc.lft.to/lastmile_qr_scan"}, "fusion_lon": 0.0, "name": "0dda4a487c13d97b13a0cf541d19a58b", "lon": -77.02845016666667, "is_disabled": 0, "type": "electric_scooter"}, {"bike_id": "5c6bcf28fac542a309448c5ac5d5cdfc", "lat": 38.91441916666667, "is_reserved": 0, "fusion_lat": 0.0, "rental_uris": {"android": "https://dc.lft.to/lastmile_qr_scan", "ios": "https://dc.lft.to/lastmile_qr_scan"}, "fusion_lon": 0.0, "name": "5c6bcf28fac542a309448c5ac5d5cdfc", "lon": -77.02592583333333, "is_disabled": 0, "type": "electric_scooter"}, {"bike_id": "dd68f301dddec9e7703bafd89736202b", "lat": 38.903817333333336, "is_reserved": 0, "fusion_lat": 0.0, "rental_uris": {"android": "https://dc.lft.to/lastmile_qr_scan", "ios": "https://dc.lft.to/lastmile_qr_scan"}, "fusion_lon": 0.0, "name": "dd68f301dddec9e7703bafd89736202b", "lon": -77.03209183333334, "is_disabled": 0, "type": "electric_scooter"}, {"bike_id": "aaa4ba7fcf03a4e31671648bc16ea4b9", "lat": 38.8998355, "is_reserved": 0, "fusion_lat": 0.0, "rental_uris": {"android": "https://dc.lft.to/lastmile_qr_scan", "ios": "https://dc.lft.to/lastmile_qr_scan"}, "fusion_lon": 0.0, "name": "aaa4ba7fcf03a4e31671648bc16ea4b9", "lon": -77.01575816666667, "is_disabled": 0, "type": "electric_scooter"}, {"bike_id": "92b4a9aeb02f3499fc36c2dc6c3caf89", "lat": 38.897631833333335, "is_reserved": 0, "fusion_lat": 0.0, "rental_uris": {"android": "https://dc.lft.to/lastmile_qr_scan", "ios": "https://dc.lft.to/lastmile_qr_scan"}, "fusion_lon": 0.0, "name": "92b4a9aeb02f3499fc36c2dc6c3caf89", "lon": -76.94706616666667, "is_disabled": 0, "type": "electric_scooter"}, {"bike_id": "ec80935bf57a90868714151295999c01", "lat": 38.92417566666666, "is_reserved": 0, "fusion_lat": 0.0, "rental_uris": {"android": "https://dc.lft.to/lastmile_qr_scan", "ios": "https://dc.lft.to/lastmile_qr_scan"}, "fusion_lon": 0.0, "name": "ec80935bf57a90868714151295999c01", "lon": -77.03900366666667, "is_disabled": 0, "type": "electric_scooter"}, {"bike_id": "ea6c76dbe7274c8ad74ff097a5ceb6f2", "lat": 38.884293, "is_reserved": 0, "fusion_lat": 0.0, "rental_uris": {"android": "https://dc.lft.to/lastmile_qr_scan", "ios": "https://dc.lft.to/lastmile_qr_scan"}, "fusion_lon": 0.0, "name": "ea6c76dbe7274c8ad74ff097a5ceb6f2", "lon": -76.95760133333333, "is_disabled": 0, "type": "electric_scooter"}, {"bike_id": "66d37180e43767174c45fbc962fa4f32", "lat": 38.933952833333336, "is_reserved": 0, "fusion_lat": 0.0, "rental_uris": {"android": "https://dc.lft.to/lastmile_qr_scan", "ios": "https://dc.lft.to/lastmile_qr_scan"}, "fusion_lon": 0.0, "name": "66d37180e43767174c45fbc962fa4f32", "lon": -77.0574265, "is_disabled": 0, "type": "electric_scooter"}, {"bike_id": "25b2bc7c31476ac1b5834fb148562b9f", "lat": 38.9035615, "is_reserved": 0, "fusion_lat": 0.0, "rental_uris": {"android": "https://dc.lft.to/lastmile_qr_scan", "ios": "https://dc.lft.to/lastmile_qr_scan"}, "fusion_lon": 0.0, "name": "25b2bc7c31476ac1b5834fb148562b9f", "lon": -77.03196433333333, "is_disabled": 0, "type": "electric_scooter"}, {"bike_id": "e9241c217d444b95bb43761fdfe95f9b", "lat": 38.8973575, "is_reserved": 0, "fusion_lat": 0.0, "rental_uris": {"android": "https://dc.lft.to/lastmile_qr_scan", "ios": "https://dc.lft.to/lastmile_qr_scan"}, "fusion_lon": 0.0, "name": "e9241c217d444b95bb43761fdfe95f9b", "lon": -77.02464716666667, "is_disabled": 0, "type": "electric_scooter"}, {"bike_id": "7ca0ddb9d79f698a6c538b95e7e9d9bd", "lat": 38.90875066666667, "is_reserved": 0, "fusion_lat": 0.0, "rental_uris": {"android": "https://dc.lft.to/lastmile_qr_scan", "ios": "https://dc.lft.to/lastmile_qr_scan"}, "fusion_lon": 0.0, "name": "7ca0ddb9d79f698a6c538b95e7e9d9bd", "lon": -77.040574, "is_disabled": 0, "type": "electric_scooter"}, {"bike_id": "3c667a7510d26fe8fbe4e34be1288df0", "lat": 38.94925833333333, "is_reserved": 0, "fusion_lat": 0.0, "rental_uris": {"android": "https://dc.lft.to/lastmile_qr_scan", "ios": "https://dc.lft.to/lastmile_qr_scan"}, "fusion_lon": 0.0, "name": "3c667a7510d26fe8fbe4e34be1288df0", "lon": -77.01858583333333, "is_disabled": 0, "type": "electric_scooter"}, {"bike_id": "9ac1e58f2680edef819cfb84e4e453fa", "lat": 38.892429, "is_reserved": 0, "fusion_lat": 0.0, "rental_uris": {"android": "https://dc.lft.to/lastmile_qr_scan", "ios": "https://dc.lft.to/lastmile_qr_scan"}, "fusion_lon": 0.0, "name": "9ac1e58f2680edef819cfb84e4e453fa", "lon": -77.045015, "is_disabled": 0, "type": "electric_scooter"},