{"data": {"bikes": [{"is_disabled": 0, "is_reserved": 0, "fusion_lat": 0.0, "lat": 38.9563735, "fusion_lon": 0.0, "rental_uris": {"ios": "https://dc.lft.to/lastmile_qr_scan", "android": "https://dc.lft.to/lastmile_qr_scan"}, "lon": -77.03629466666666, "bike_id": "b02ee2985707e11654a144a97f43b3d2", "type": "electric_scooter", "name": "b02ee2985707e11654a144a97f43b3d2"}, {"is_disabled": 0, "is_reserved": 0, "fusion_lat": 0.0, "lat": 38.927335666666664, "fusion_lon": 0.0, "rental_uris": {"ios": "https://dc.lft.to/lastmile_qr_scan", "android": "https://dc.lft.to/lastmile_qr_scan"}, "lon": -77.02278183333334, "bike_id": "00f97d76e210645e2090647e8a40928b", "type": "electric_scooter", "name": "00f97d76e210645e2090647e8a40928b"}, {"is_disabled": 0, "is_reserved": 0, "fusion_lat": 0.0, "lat": 38.917335666666666, "fusion_lon": 0.0, "rental_uris": {"ios": "https://dc.lft.to/lastmile_qr_scan", "android": "https://dc.lft.to/lastmile_qr_scan"}, "lon": -77.02596366666667, "bike_id": "1accaf260ffbe97063f9dc9659d07b39", "type": "electric_scooter", "name": "1accaf260ffbe97063f9dc9659d07b39"}, {"is_disabled": 0, "is_reserved": 0, "fusion_lat": 0.0, "lat": 38.93350733333333, "fusion_lon": 0.0, "rental_uris": {"ios": "https://dc.lft.to/lastmile_qr_scan", "android": "https://dc.lft.to/lastmile_qr_scan"}, "lon": -77.0194075, "bike_id": "0f1132d236f54d82c18748d7489c5ecf", "type": "electric_scooter", "name": "0f1132d236f54d82c18748d7489c5ecf"}, {"is_disabled": 0, "is_reserved": 0, "fusion_lat": 0.0, "lat": 38.8909045, "fusion_lon": 0.0, "rental_uris": {"ios": "https://dc.lft.to/lastmile_qr_scan", "android": "https://dc.lft.to/lastmile_qr_scan"}, "lon": -76.954635, "bike_id": "6bf1ef8ae7eec381b9264715603b2446", "type": "electric_bike", "name": "6bf1ef8ae7eec381b9264715603b2446"}, {"is_disabled": 0, "is_reserved": 0, "fusion_lat": 0.0, "lat": 38.9192925, "fusion_lon": 0.0, "rental_uris": {"ios": "https://dc.lft.to/lastmile_qr_scan", "android": "https://dc.lft.to/lastmile_qr_scan"}, "lon": -77.02972483333333, "bike_id": "f86cf8b47af8bc8ac72d174abfd7a371", "type": "electric_scooter", "name": "f86cf8b47af8bc8ac72d174abfd7a371"}, {"is_disabled": 0, "is_reserved": 0, "fusion_lat": 0.0, "lat": 38.9127885, "fusion_lon": 0.0, "rental_uris": {"ios": "https://dc.lft.to/lastmile_qr_scan", "android": "https://dc.lft.to/lastmile_qr_scan"}, "lon": -77.0021065, "bike_id": "52a6b23a25cfe6219b6c94e10f0052f9", "type": "electric_scooter", "name": "52a6b23a25cfe6219b6c94e10f0052f9"}, {"is_disabled": 0, "is_reserved": 0, "fusion_lat": 0.0, "lat": 38.930635333333335, "fusion_lon": 0.0, "rental_uris": {"ios": "https://dc.lft.to/lastmile_qr_scan", "android": "https://dc.lft.to/lastmile_qr_scan"}, "lon": -76.97322333333334, "bike_id": "2e6fdfc473d774ac341e6baf6d8cafaf", "type": "electric_scooter", "name": "2e6fdfc473d774ac341e6baf6d8cafaf"}, {"is_disabled": 0, "is_reserved": 0, "fusion_lat": 0.0, "lat": 38.912780833333336, "fusion_lon": 0.0, "rental_uris": {"ios": "https://dc.lft.to/lastmile_qr_scan", "android": "https://dc.lft.to/lastmile_qr_scan"}, "lon": -77.03667733333333, "bike_id": "5c277c177403fd1262af36d17382af57", "type": "electric_scooter", "name": "5c277c177403fd1262af36d17382af57"}, {"is_disabled": 0, "is_reserved": 0, "fusion_lat": 0.0, "lat": 38.89639, "fusion_lon": 0.0, "rental_uris": {"ios": "https://dc.lft.to/lastmile_qr_scan", "android": "https://dc.lft.to/lastmile_qr_scan"}, "lon": -77.02165516666666, "bike_id": "a53e92bd968e9b891c06d994fdb51e02", "type": "electric_scooter", "name": "a53e92bd968e9b891c06d994fdb51e02"}, {"is_disabled": 0, "is_reserved": 0, "fusion_lat": 0.0, "lat": 38.92816033333333, "fusion_lon": 0.0, "rental_uris": {"ios": "https://dc.lft.to/lastmile_qr_scan", "android": "https://dc.lft.to/lastmile_qr_scan"}, "lon": -77.04358816666667, "bike_id": "829ae71af42b2d100b17f5bba532f95d", "type": "electric_scooter", "name": "829ae71af42b2d100b17f5bba532f95d"}, {"is_disabled": 0, "is_reserved": 0, "fusion_lat": 0.0, "lat": 38.903716333333335, "fusion_lon": 0.0, "rental_uris": {"ios": "https://dc.lft.to/lastmile_qr_scan", "android": "https://dc.lft.to/lastmile_qr_scan"}, "lon": -76.98017033333333, "bike_id": "52e93886f16db642d88f8067bd2e1a9e", "type": "electric_bike", "name": "52e93886f16db642d88f8067bd2e1a9e"}, {"is_disabled": 0, "is_reserved": 0, "fusion_lat": 0.0, "lat": 38.908123, "fusion_lon": 0.0, "rental_uris": {"ios": "https://dc.lft.to/lastmile_qr_scan", "android": "https://dc.lft.to/lastmile_qr_scan"}, "lon": -77.03042666666667, "bike_id": "397539807dfd1adf43bd1fb04ad3649d", "type": "electric_scooter", "name": "397539807dfd1adf43bd1fb04ad3649d"}, {"is_disabled": 0, "is_reserved": 0, "fusion_lat": 0.0, "lat": 38.94146116666667, "fusion_lon": 0.0, "rental_uris": {"ios": "https://dc.lft.to/lastmile_qr_scan", "android": "https://dc.lft.to/lastmile_qr_scan"}, "lon": -77.023288, "bike_id": "354bfc2f3541f2ed290b9a541f921d1a", "type": "electric_scooter", "name": "354bfc2f3541f2ed290b9a541f921d1a"}, {"is_disabled": 0, "is_reserved": 0, "fusion_lat": 0.0, "lat": 38.9160885, "fusion_lon": 0.0, "rental_uris": {"ios": "https://dc.lft.to/lastmile_qr_scan", "android": "https://dc.lft.to/lastmile_qr_scan"}, "lon": -77.02117983333333, "bike_id": "bcb4475d34296cf70bc12175dc762bb7", "type": "electric_scooter", "name": "bcb4475d34296cf70bc12175dc762bb7"}, {"is_disabled": 0, "is_reserved": 0, "fusion_lat": 0.0, "lat": 38.92232716666667, "fusion_lon": 0.0, "rental_uris": {"ios": "https://dc.lft.to/lastmile_qr_scan", "android": "https://dc.lft.to/lastmile_qr_scan"}, "lon": -76.97532966666667, "bike_id": "68b52565100770a6fce30b2b41fe73e8", "type": "electric_scooter", "name": "68b52565100770a6fce30b2b41fe73e8"}, {"is_disabled": 0, "is_reserved": 0, "fusion_lat": 0.0, "lat": 38.93413833333334, "fusion_lon": 0.0, "rental_uris": {"ios": "https://dc.lft.to/lastmile_qr_scan", "android": "https://dc.lft.to/lastmile_qr_scan"}, "lon": -77.02049716666667, "bike_id": "84e45d15a7af45f7a6fd7fb3926303c8", "type": "electric_scooter", "name": "84e45d15a7af45f7a6fd7fb3926303c8"}, {"is_disabled": 0, "is_reserved": 0, "fusion_lat": 0.0, "lat": 38.900699, "fusion_lon": 0.0, "rental_uris": {"ios": "https://dc.lft.to/lastmile_qr_scan", "android": "https://dc.lft.to/lastmile_qr_scan"}, "lon": -77.04344166666667, "bike_id": "0a4ae551eab8dd353a7c0800280b0413", "type": "electric_scooter", "name": "0a4ae551eab8dd353a7c0800280b0413"}, {"is_disabled": 0, "is_reserved": 0, "fusion_lat": 0.0, "lat": 38.9324745, "fusion_lon": 0.0, "rental_uris": {"ios": "https://dc.lft.to/lastmile_qr_scan", "android": "https://dc.lft.to/lastmile_qr_scan"}, "lon": -76.99710383333333, "bike_id": "33ff7e2eed0faa186f86cf40fb0bc2e3", "type": "electric_scooter", "name": "33ff7e2eed0faa186f86cf40fb0bc2e3"}, {"is_disabled": 0, "is_reserved": 0, "fusion_lat": 0.0, "lat": 38.891101166666665, "fusion_lon": 0.0, "rental_uris": {"ios": "https://dc.lft.to/lastmile_qr_scan", "android": "https://dc.lft.to/lastmile_qr_scan"}, "lon": -77.01434733333333, "bike_id": "ea1924c757cee2ef0531f4cd88c43252", "type": "electric_scooter", "name": "ea1924c757cee2ef0531f4cd88c43252"}, {"is_disabled": 0, "is_reserved": 0, "fusion_lat": 0.0, "lat": 38.92028, "fusion_lon": 0.0, "rental_uris": {"ios": "https://dc.lft.to/lastmile_qr_scan", "android": "https://dc.lft.to/lastmile_qr_scan"}, "lon": -77.03124416666667, "bike_id": "e2894a371fd6ed5d729aea3ef9a41f18", "type": "electric_scooter", "name": "e2894a371fd6ed5d729aea3ef9a41f18"}, {"is_disabled": 0, "is_reserved": 0, "fusion_lat": 0.0, "lat": 38.85061866666667, "fusion_lon": 0.0, "rental_uris": {"ios": "https://dc.lft.to/lastmile_qr_scan", "android": "https://dc.lft.to/lastmile_qr_scan"}, "lon": -76.958286, "bike_id": "4915a82c9a6e374c2d29d91daa83b5ec", "type": "electric_bike", "name": "4915a82c9a6e374c2d29d91daa83b5ec"}, {"is_disabled": 0, "is_reserved": 0, "fusion_lat": 0.0, "lat": 38.91674666666667, "fusion_lon": 0.0, "rental_uris": {"ios": "https://dc.lft.to/lastmile_qr_scan", "android": "https://dc.lft.to/lastmile_qr_scan"}, "lon": -77.0237955, "bike_id": "4ff6bdab076fbd9cf6479cafe970fb1b", "type": "electric_scooter", "name": "4ff6bdab076fbd9cf6479cafe970fb1b"}, {"is_disabled": 0, "is_reserved": 0, "fusion_lat": 0.0, "lat": 38.928164833333334, "fusion_lon": 0.0, "rental_uris": {"ios": "https://dc.lft.to/lastmile_qr_scan", "android": "https://dc.lft.to/lastmile_qr_scan"}, "lon": -77.04351383333334, "bike_id": "32017d24559caebe8c37189492be4710", "type": "electric_scooter", "name": "32017d24559caebe8c37189492be4710"}, {"is_disabled": 0, "is_reserved": 0, "fusion_lat": 0.0, "lat": 38.90250016666667, "fusion_lon": 0.0, "rental_uris": {"ios": "https://dc.lft.to/lastmile_qr_scan", "android": "https://dc.lft.to/lastmile_qr_scan"}, "lon": -77.0077135, "bike_id": "6a679ae10c0a20abfdfd82347b4f18c4", "type": "electric_scooter", "name": "6a679ae10c0a20abfdfd82347b4f18c4"}, {"is_disabled": 0, "is_reserved": 0, "fusion_lat": 0.0, "lat": 38.860833166666666, "fusion_lon": 0.0, "rental_uris": {"ios": "https://dc.lft.to/lastmile_qr_scan", "android": "https://dc.lft.to/lastmile_qr_scan"}, "lon": -76.9837315, "bike_id": "e8240223e12be4e5e51758b1614d9d5d", "type": "electric_scooter", "name": "e8240223e12be4e5e51758b1614d9d5d"}, {"is_disabled": 0, "is_reserved": 0, "fusion_lat": 0.0, "lat": 38.8857735, "fusion_lon": 0.0, "rental_uris": {"ios": "https://dc.lft.to/lastmile_qr_scan", "android": "https://dc.lft.to/lastmile_qr_scan"}, "lon": -77.01212966666667, "bike_id": "a245efd08fb13747d0f9b4de2e720cae", "type": "electric_scooter", "name": "a245efd08fb13747d0f9b4de2e720cae"}, {"is_disabled": 0, "is_reserved": 0, "fusion_lat": 0.0, "lat": 38.91805333333333, "fusion_lon": 0.0, "rental_uris": {"ios": "https://dc.lft.to/lastmile_qr_scan", "android": "https://dc.lft.to/lastmile_qr_scan"}, "lon": -77.02490933333333, "bike_id": "10fb6ba485770912d2cd4cda5c141154", "type": "electric_scooter", "name": "10fb6ba485770912d2cd4cda5c141154"}, {"is_disabled": 0, "is_reserved": 0, "fusion_lat": 0.0, "lat": 38.910608, "fusion_lon": 0.0, "rental_uris": {"ios": "https://dc.lft.to/lastmile_qr_scan", "android": "https://dc.lft.to/lastmile_qr_scan"}, "lon": -77.02300433333333, "bike_id": "719df1362ed03df140fb4c8fab4ad368", "type": "electric_scooter", "name": "719df1362ed03df140fb4c8fab4ad368"}, {"is_disabled": 0, "is_reserved": 0, "fusion_lat": 0.0, "lat": 38.912583, "fusion_lon": 0.0, "rental_uris": {"ios": "https://dc.lft.to/lastmile_qr_scan", "android": "https://dc.lft.to/lastmile_qr_scan"}, "lon": -77.0048905, "bike_id": "acdce2fa6ab783c6620932fd066e7661", "type": "electric_scooter", "name": "acdce2fa6ab783c6620932fd066e7661"}, {"is_disabled": 0, "is_reserved": 0, "fusion_lat": 0.0, "lat": 38.92093666666667, "fusion_lon": 0.0, "rental_uris": {"ios": "https://dc.lft.to/lastmile_qr_scan", "android": "https://dc.lft.to/lastmile_qr_scan"}, "lon": -77.025182, "bike_id": "4441c6af6e112144a76bb919bad1cb00", "type": "electric_scooter", "name": "4441c6af6e112144a76bb919bad1cb00"}, {"is_disabled": 0, "is_reserved": 0, "fusion_lat": 0.0, "lat": 38.90567766666667, "fusion_lon": 0.0, "rental_uris": {"ios": "https://dc.lft.to/lastmile_qr_scan", "android": "https://dc.lft.to/lastmile_qr_scan"}, "lon": -77.0331115, "bike_id": "48c76952815ba29f507054bdd2ac42de", "type": "electric_scooter", "name": "48c76952815ba29f507054bdd2ac42de"}, {"is_disabled": 0, "is_reserved": 0, "fusion_lat": 0.0, "lat": 38.90556333333333, "fusion_lon": 0.0, "rental_uris": {"ios": "https://dc.lft.to/lastmile_qr_scan", "android": "https://dc.lft.to/lastmile_qr_scan"}, "lon": -77.041536, "bike_id": "85d4e843e80f75aeee24765de451e686", "type": "electric_scooter", "name": "85d4e843e80f75aeee24765de451e686"}, {"is_disabled": 0, "is_reserved": 0, "fusion_lat": 0.0, "lat": 38.902721, "fusion_lon": 0.0, "rental_uris": {"ios": "https://dc.lft.to/lastmile_qr_scan", "android": "https://dc.lft.to/lastmile_qr_scan"}, "lon": -77.00888833333333, "bike_id": "1b5655063c3072f4ef6872de1bd2b36d", "type": "electric_scooter", "name": "1b5655063c3072f4ef6872de1bd2b36d"}, {"is_disabled": 0, "is_reserved": 0, "fusion_lat": 0.0, "lat": 38.902055, "fusion_lon": 0.0, "rental_uris": {"ios": "https://dc.lft.to/lastmile_qr_scan", "android": "https://dc.lft.to/lastmile_qr_scan"}, "lon": -77.00053333333334, "bike_id": "f993277a13f6f09ad234873a6988d7f0", "type": "electric_scooter", "name": "f993277a13f6f09ad234873a6988d7f0"}, {"is_disabled": 0, "is_reserved": 0, "fusion_lat": 0.0, "lat": 38.888754666666664, "fusion_lon": 0.0, "rental_uris": {"ios": "https://dc.lft.to/lastmile_qr_scan", "android": "https://dc.lft.to/lastmile_qr_scan"}, "lon": -76.95705516666666, "bike_id": "b7f291e077d0a30c0724f2f780bf8118", "type": "electric_bike", "name": "b7f291e077d0a30c0724f2f780bf8118"}, {"is_disabled": 0, "is_reserved": 0, "fusion_lat": 0.0, "lat": 38.932462666666666, "fusion_lon": 0.0, "rental_uris": {"ios": "https://dc.lft.to/lastmile_qr_scan", "android": "https://dc.lft.to/lastmile_qr_scan"}, "lon": -77.02848666666667, "bike_id": "1567bb6e6676fb927abafd9191f74453", "type": "electric_scooter", "name": "1567bb6e6676fb927abafd9191f74453"}, {"is_disabled": 0, "is_reserved": 0, "fusion_lat": 0.0, "lat": 38.879610666666665, "fusion_lon": 0.0, "rental_uris": {"ios": "https://dc.lft.to/lastmile_qr_scan", "android": "https://dc.lft.to/lastmile_qr_scan"}, "lon": -76.93184933333333, "bike_id": "263e5ed156db8158021c8e9336f6d23e", "type": "electric_bike", "name": "263e5ed156db8158021c8e9336f6d23e"}, {"is_disabled": 0, "is_reserved": 0, "fusion_lat": 0.0, "lat": 38.90189516666667, "fusion_lon": 0.0, "rental_uris": {"ios": "https://dc.lft.to/lastmile_qr_scan", "android": "https://dc.lft.to/lastmile_qr_scan"}, "lon": -77.00208366666666, "bike_id": "3329a5f937e726a983e84953117c0515", "type": "electric_scooter", "name": "3329a5f937e726a983e84953117c0515"}, {"is_disabled": 0, "is_reserved": 0, "fusion_lat": 0.0, "lat": 38.87358616666667, "fusion_lon": 0.0, "rental_uris": {"ios": "https://dc.lft.to/lastmile_qr_scan", "android": "https://dc.lft.to/lastmile_qr_scan"}, "lon": -77.1187055, "bike_id": "a2db202b9a439dfc7b08708017138d15", "type": "electric_bike", "name": "a2db202b9a439dfc7b08708017138d15"}, {"is_disabled": 0, "is_reserved": 0, "fusion_lat": 0.0, "lat": 38.918376333333335, "fusion_lon": 0.0, "rental_uris": {"ios": "https://dc.lft.to/lastmile_qr_scan", "android": "https://dc.lft.to/lastmile_qr_scan"}, "lon": -77.02294883333333, "bike_id": "5d1d7184745183e44aa45ffa5a048ca1", "type": "electric_scooter", "name": "5d1d7184745183e44aa45ffa5a048ca1"}, {"is_disabled": 0, "is_reserved": 0, "fusion_lat": 0.0, "lat": 38.90296033333333, "fusion_lon": 0.0, "rental_uris": {"ios": "https://dc.lft.to/lastmile_qr_scan", "android": "https://dc.lft.to/lastmile_qr_scan"}, "lon": -76.99626433333333, "bike_id": "128c4967825422ee53af0cc3403be36b", "type": "electric_scooter", "name": "128c4967825422ee53af0cc3403be36b"}, {"is_disabled": 0, "is_reserved": 0, "fusion_lat": 0.0, "lat": 38.9207615, "fusion_lon": 0.0, "rental_uris": {"ios": "https://dc.lft.to/lastmile_qr_scan", "android": "https://dc.lft.to/lastmile_qr_scan"}, "lon": -77.023154, "bike_id": "50dcf665c1443f7961597fa930407ca6", "type": "electric_scooter", "name": "50dcf665c1443f7961597fa930407ca6"}, {"is_disabled": 0, "is_reserved": 0, "fusion_lat": 0.0, "lat": 38.901755333333334, "fusion_lon": 0.0, "rental_uris": {"ios": "https://dc.lft.to/lastmile_qr_scan", "android": "https://dc.lft.to/lastmile_qr_scan"}, "lon": -77.001898, "bike_id": "dbe6da770c6cf835b7e74be13aafccd2", "type": "electric_scooter", "name": "dbe6da770c6cf835b7e74be13aafccd2"}, {"is_disabled": 0, "is_reserved": 0, "fusion_lat": 0.0, "lat": 38.908444, "fusion_lon": 0.0, "rental_uris": {"ios": "https://dc.lft.to/lastmile_qr_scan", "android": "https://dc.lft.to/lastmile_qr_scan"}, "lon": -77.0007325, "bike_id": "5113288f003b775dcfe5fd50d7007c88", "type": "electric_scooter", "name": "5113288f003b775dcfe5fd50d7007c88"}, {"is_disabled": 0, "is_reserved": 0, "fusion_lat": 0.0, "lat": 38.84814, "fusion_lon": 0.0, "rental_uris": {"ios": "https://dc.lft.to/lastmile_qr_scan", "android": "https://dc.lft.to/lastmile_qr_scan"}, "lon": -77.08413583333333, "bike_id": "fa49068a4fe85230a32c40e29277b370", "type": "electric_bike", "name": "fa49068a4fe85230a32c40e29277b370"}, {"is_disabled": 0, "is_reserved": 0, "fusion_lat": 0.0, "lat": 38.937541, "fusion_lon": 0.0, "rental_uris": {"ios": "https://dc.lft.to/lastmile_qr_scan", "android": "https://dc.lft.to/lastmile_qr_scan"}, "lon": -77.03439433333334, "bike_id": "3a6a233a0a526e537f5716da85ce3785", "type": "electric_scooter", "name": "3a6a233a0a526e537f5716da85ce3785"}, {"is_disabled": 0, "is_reserved": 0, "fusion_lat": 0.0, "lat": 38.887136166666664, "fusion_lon": 0.0, "rental_uris": {"ios": "https://dc.lft.to/lastmile_qr_scan", "android": "https://dc.lft.to/lastmile_qr_scan"}, "lon": -76.98384833333333, "bike_id": "791d61897336d16fd7b0496c3862d0df", "type": "electric_scooter", "name": "791d61897336d16fd7b0496c3862d0df"}, {"is_disabled": 0, "is_reserved": 0, "fusion_lat": 0.0, "lat": 38.901836333333335, "fusion_lon": 0.0, "rental_uris": {"ios": "https://dc.lft.to/lastmile_qr_scan", "android": "https://dc.lft.to/lastmile_qr_scan"}, "lon": -76.976693, "bike_id": "837a1df0c4de60d733829e06892612dd", "type": "electric_scooter", "name": "837a1df0c4de60d733829e06892612dd"}, {"is_disabled": 0, "is_reserved": 0, "fusion_lat": 0.0, "lat": 38.907022833333336, "fusion_lon": 0.0, "rental_uris": {"ios": "https://dc.lft.to/lastmile_qr_scan", "android": "https://dc.lft.to/lastmile_qr_scan"}, "lon": -77.03185583333334, "bike_id": "a9c873dad3cc17323267f8db82bbd13b", "type": "electric_scooter", "name": "a9c873dad3cc17323267f8db82bbd13b"}, {"is_disabled": 0, "is_reserved": 0, "fusion_lat": 0.0, "lat": 38.923445666666666, "fusion_lon": 0.0, "rental_uris": {"ios": "https://dc.lft.to/lastmile_qr_scan", "android": "https://dc.lft.to/lastmile_qr_scan"}, "lon": -77.04142216666666, "bike_id": "e5b6f95bede9214b057ed7259ad6cdd9", "type": "electric_scooter", "name": "e5b6f95bede9214b057ed7259ad6cdd9"}, {"is_disabled": 0, "is_reserved": 0, "fusion_lat": 0.0, "lat": 38.87896166666667, "fusion_lon": 0.0, "rental_uris": {"ios": "https://dc.lft.to/lastmile_qr_scan", "android": "https://dc.lft.to/lastmile_qr_scan"}, "lon": -76.93530816666667, "bike_id": "7b9ef6de3ea970c7e35962c066a31d45", "type": "electric_scooter", "name": "7b9ef6de3ea970c7e35962c066a31d45"}, {"is_disabled": 0, "is_reserved": 0, "fusion_lat": 0.0, "lat": 38.917098, "fusion_lon": 0.0, "rental_uris": {"ios": "https://dc.lft.to/lastmile_qr_scan", "android": "https://dc.lft.to/lastmile_qr_scan"}, "lon": -77.03853466666666, "bike_id": "95fe545af335babffdd51409b5fae9e2", "type": "electric_scooter", "name": "95fe545af335babffdd51409b5fae9e2"}, {"is_disabled": 0, "is_reserved": 0, "fusion_lat": 0.0, "lat": 38.92412566666667, "fusion_lon": 0.0, "rental_uris": {"ios": "https://dc.lft.to/lastmile_qr_scan", "android": "https://dc.lft.to/lastmile_qr_scan"}, "lon": -77.051679, "bike_id": "ad8877bb1e8c9f5070b9d9010ee5c586", "type": "electric_scooter", "name": "ad8877bb1e8c9f5070b9d9010ee5c586"}, {"is_disabled": 0, "is_reserved": 0, "fusion_lat": 0.0, "lat": 38.80525766666667, "fusion_lon": 0.0, "rental_uris": {"ios": "https://dc.lft.to/lastmile_qr_scan", "android": "https://dc.lft.to/lastmile_qr_scan"}, "lon": -77.04339833333333, "bike_id": "494314df8e7a3b674ec664d6dc678baf", "type": "electric_bike", "name": "494314df8e7a3b674ec664d6dc678baf"}, {"is_disabled": 0, "is_reserved": 0, "fusion_lat": 0.0, "lat": 38.88075216666667, "fusion_lon": 0.0, "rental_uris": {"ios": "https://dc.lft.to/lastmile_qr_scan", "android": "https://dc.lft.to/lastmile_qr_scan"}, "lon": -77.02572066666667, "bike_id": "98d5ca192d30a2ef8874a7d877f77a9d", "type": "electric_scooter", "name": "98d5ca192d30a2ef8874a7d877f77a9d"}, {"is_disabled": 0, "is_reserved": 0, "fusion_lat": 0.0, "lat": 38.864924333333335, "fusion_lon": 0.0, "rental_uris": {"ios": "https://dc.lft.to/lastmile_qr_scan", "android": "https://dc.lft.to/lastmile_qr_scan"}, "lon": -76.96978483333334, "bike_id": "4fa1b7282563a769959684d423490b11", "type": "electric_bike", "name": "4fa1b7282563a769959684d423490b11"}, {"is_disabled": 0, "is_reserved": 0, "fusion_lat": 0.0, "lat": 38.93678633333333, "fusion_lon": 0.0, "rental_uris": {"ios": "https://dc.lft.to/lastmile_qr_scan", "android": "https://dc.lft.to/lastmile_qr_scan"}, "lon": -77.03590966666667, "bike_id": "128aefcd690ec6c7e194bf627ce677e1", "type": "electric_scooter", "name": "128aefcd690ec6c7e194bf627ce677e1"}, {"is_disabled": 0, "is_reserved": 0, "fusion_lat": 0.0, "lat": 38.897542333333334, "fusion_lon": 0.0, "rental_uris": {"ios": "https://dc.lft.to/lastmile_qr_scan", "android": "https://dc.lft.to/lastmile_qr_scan"}, "lon": -77.054885, "bike_id": "4bd9f2b2af1eb02904105023bd3fe85d", "type": "electric_scooter", "name": "4bd9f2b2af1eb02904105023bd3fe85d"}, {"is_disabled": 0, "is_reserved": 0, "fusion_lat": 0.0, "lat": 38.911201166666665, "fusion_lon": 0.0, "rental_uris": {"ios": "https://dc.lft.to/lastmile_qr_scan", "android": "https://dc.lft.to/lastmile_qr_scan"}, "lon": -77.03257533333333, "bike_id": "4c7b9bc7116ff39eb7ff0a4ec1358fa6", "type": "electric_scooter", "name": "4c7b9bc7116ff39eb7ff0a4ec1358fa6"}, {"is_disabled": 0, "is_reserved": 0, "fusion_lat": 0.0, "lat": 38.89507033333334, "fusion_lon": 0.0, "rental_uris": {"ios": "https://dc.lft.to/lastmile_qr_scan", "android": "https://dc.lft.to/lastmile_qr_scan"}, "lon": -77.02293966666667, "bike_id": "d9f549992bf723f3a7e02adcbc24ccbd", "type": "electric_scooter", "name": "d9f549992bf723f3a7e02adcbc24ccbd"}, {"is_disabled": 0, "is_reserved": 0, "fusion_lat": 0.0, "lat": 38.8940285, "fusion_lon": 0.0, "rental_uris": {"ios": "https://dc.lft.to/lastmile_qr_scan", "android": "https://dc.lft.to/lastmile_qr_scan"}, "lon": -77.02199783333333, "bike_id": "2c74e176ed525ad315499f130e1d64cd", "type": "electric_scooter", "name": "2c74e176ed525ad315499f130e1d64cd"}, {"is_disabled": 0, "is_reserved": 0, "fusion_lat": 0.0, "lat": 38.897433666666664, "fusion_lon": 0.0, "rental_uris": {"ios": "https://dc.lft.to/lastmile_qr_scan", "android": "https://dc.lft.to/lastmile_qr_scan"}, "lon": -77.0175835, "bike_id": "ffd491f752f816c6196fde918c69c231", "type": "electric_scooter", "name": "ffd491f752f816c6196fde918c69c231"}, {"is_disabled": 0, "is_reserved": 0, "fusion_lat": 0.0, "lat": 38.91707133333333, "fusion_lon": 0.0, "rental_uris": {"ios": "https://dc.lft.to/lastmile_qr_scan", "android": "https://dc.lft.to/lastmile_qr_scan"}, "lon": -77.02862033333334, "bike_id": "103d6ca6238b6c688e6aae63cacffc61", "type": "electric_scooter", "name": "103d6ca6238b6c688e6aae63cacffc61"}, {"is_disabled": 0, "is_reserved": 0, "fusion_lat": 0.0, "lat": 38.89505416666667, "fusion_lon": 0.0, "rental_uris": {"ios": "https://dc.lft.to/lastmile_qr_scan", "android": "https://dc.lft.to/lastmile_qr_scan"}, "lon": -77.02290216666667, "bike_id": "ee0d1b6687607cdb48468c111d29d8f9", "type": "electric_scooter", "name": "ee0d1b6687607cdb48468c111d29d8f9"}, {"is_disabled": 0, "is_reserved": 0, "fusion_lat": 0.0, "lat": 38.89566766666667, "fusion_lon": 0.0, "rental_uris": {"ios": "https://dc.lft.to/lastmile_qr_scan", "android": "https://dc.lft.to/lastmile_qr_scan"}, "lon": -77.029517, "bike_id": "5a9b4497add3af8be4c6b52c8e7a4840", "type": "electric_scooter", "name": "5a9b4497add3af8be4c6b52c8e7a4840"}, {"is_disabled": 0, "is_reserved": 0, "fusion_lat": 0.0, "lat": 38.936628166666665, "fusion_lon": 0.0, "rental_uris": {"ios": "https://dc.lft.to/lastmile_qr_scan", "android": "https://dc.lft.to/lastmile_qr_scan"}, "lon": -77.06614716666667, "bike_id": "00dfa9d661f19a99106c04066d759e0a", "type": "electric_scooter", "name": "00dfa9d661f19a99106c04066d759e0a"}, {"is_disabled": 0, "is_reserved": 0, "fusion_lat": 0.0, "lat": 38.92896366666667, "fusion_lon": 0.0, "rental_uris": {"ios": "https://dc.lft.to/lastmile_qr_scan", "android": "https://dc.lft.to/lastmile_qr_scan"}, "lon": -77.01933966666667, "bike_id": "e64236837b0adfcb6faea1ab956bdff3", "type": "electric_scooter", "name": "e64236837b0adfcb6faea1ab956bdff3"}, {"is_disabled": 0, "is_reserved": 0, "fusion_lat": 0.0, "lat": 38.92855766666667, "fusion_lon": 0.0, "rental_uris": {"ios": "https://dc.lft.to/lastmile_qr_scan", "android": "https://dc.lft.to/lastmile_qr_scan"}, "lon": -77.03731983333333, "bike_id": "83edcd724c977eb4a99329ca669b1a86", "type": "electric_scooter", "name": "83edcd724c977eb4a99329ca669b1a86"}, {"is_disabled": 0, "is_reserved": 0, "fusion_lat": 0.0, "lat": 38.95344266666667, "fusion_lon": 0.0, "rental_uris": {"ios": "https://dc.lft.to/lastmile_qr_scan", "android": "https://dc.lft.to/lastmile_qr_scan"}, "lon": -77.0094715, "bike_id": "3194801cc4775f595a9e07dcb1296a43", "type": "electric_bike", "name": "3194801cc4775f595a9e07dcb1296a43"}, {"is_disabled": 0, "is_reserved": 0, "fusion_lat": 0.0, "lat": 38.905626, "fusion_lon": 0.0, "rental_uris": {"ios": "https://dc.lft.to/lastmile_qr_scan", "android": "https://dc.lft.to/lastmile_qr_scan"}, "lon": -77.0485745, "bike_id": "9f924bc4df7f7fb6be77a34836c4e3ea", "type": "electric_scooter", "name": "9f924bc4df7f7fb6be77a34836c4e3ea"}, {"is_disabled": 0, "is_reserved": 0, "fusion_lat": 0.0, "lat": 38.94197616666666, "fusion_lon": 0.0, "rental_uris": {"ios": "https://dc.lft.to/lastmile_qr_scan", "android": "https://dc.lft.to/lastmile_qr_scan"}, "lon": -77.0882505, "bike_id": "1f42782add2fe11d9fd4ed3214a1b21c", "type": "electric_scooter", "name": "1f42782add2fe11d9fd4ed3214a1b21c"}, {"is_disabled": 0, "is_reserved": 0, "fusion_lat": 0.0, "lat": 38.898443, "fusion_lon": 0.0, "rental_uris": {"ios": "https://dc.lft.to/lastmile_qr_scan", "android": "https://dc.lft.to/lastmile_qr_scan"}, "lon": -77.02278883333334, "bike_id": "6aff3ec84b9be91294386e922874853e", "type": "electric_scooter", "name": "6aff3ec84b9be91294386e922874853e"}, {"is_disabled": 0, "is_reserved": 0, "fusion_lat": 0.0, "lat": 38.91727366666667, "fusion_lon": 0.0, "rental_uris": {"ios": "https://dc.lft.to/lastmile_qr_scan", "android": "https://dc.lft.to/lastmile_qr_scan"}, "lon": -77.025027, "bike_id": "a4d9c219bb9fd40b206bec0395a7821d", "type": "electric_scooter", "name": "a4d9c219bb9fd40b206bec0395a7821d"}, {"is_disabled": 0, "is_reserved": 0, "fusion_lat": 0.0, "lat": 38.8862465, "fusion_lon": 0.0, "rental_uris": {"ios": "https://dc.lft.to/lastmile_qr_scan", "android": "https://dc.lft.to/lastmile_qr_scan"}, "lon": -76.98705066666666, "bike_id": "045e753d70ec53fc113d2f1b430fcd4d", "type": "electric_scooter", "name": "045e753d70ec53fc113d2f1b430fcd4d"}, {"is_disabled": 0, "is_reserved": 0, "fusion_lat": 0.0, "lat": 38.8973935, "fusion_lon": 0.0, "rental_uris": {"ios": "https://dc.lft.to/lastmile_qr_scan", "android": "https://dc.lft.to/lastmile_qr_scan"}, "lon": -77.0480755, "bike_id": "51e09f0bb0caf86cb88c2712ce9c266b", "type": "electric_scooter", "name": "51e09f0bb0caf86cb88c2712ce9c266b"}, {"is_disabled": 0, "is_reserved": 0, "fusion_lat": 0.0, "lat": 38.8955405, "fusion_lon": 0.0, "rental_uris": {"ios": "https://dc.lft.to/lastmile_qr_scan", "android": "https://dc.lft.to/lastmile_qr_scan"}, "lon": -77.01666333333333, "bike_id": "8cc8171200dd8a3a1b5168154b6f6cfb", "type": "electric_scooter", "name": "8cc8171200dd8a3a1b5168154b6f6cfb"}, {"is_disabled": 0, "is_reserved": 0, "fusion_lat": 0.0, "lat": 38.869663333333335, "fusion_lon": 0.0, "rental_uris": {"ios": "https://dc.lft.to/lastmile_qr_scan", "android": "https://dc.lft.to/lastmile_qr_scan"}, "lon": -77.01377883333333, "bike_id": "6d2348a057a51f0f09a9b767e02a61bb", "type": "electric_scooter", "name": "6d2348a057a51f0f09a9b767e02a61bb"}, {"is_disabled": 0, "is_reserved": 0, "fusion_lat": 0.0, "lat": 38.925666666666665, "fusion_lon": 0.0, "rental_uris": {"ios": "https://dc.lft.to/lastmile_qr_scan", "android": "https://dc.lft.to/lastmile_qr_scan"}, "lon": -77.02284616666667, "bike_id": "7372e7edee03d1a86836d9c1ccc9de88", "type": "electric_scooter", "name": "7372e7edee03d1a86836d9c1ccc9de88"}, {"is_disabled": 0, "is_reserved": 0, "fusion_lat": 0.0, "lat": 38.93409166666667, "fusion_lon": 0.0, "rental_uris": {"ios": "https://dc.lft.to/lastmile_qr_scan", "android": "https://dc.lft.to/lastmile_qr_scan"}, "lon": -77.03522016666666, "bike_id": "a396e5df7842ad51623f120f0d936133", "type": "electric_scooter", "name": "a396e5df7842ad51623f120f0d936133"}, {"is_disabled": 0, "is_reserved": 0, "fusion_lat": 0.0, "lat": 38.912585166666666, "fusion_lon": 0.0, "rental_uris": {"ios": "https://dc.lft.to/lastmile_qr_scan", "android": "https://dc.lft.to/lastmile_qr_scan"}, "lon": -77.00932833333333, "bike_id": "0429811f0f1b410f89ff560827d2eada", "type": "electric_scooter", "name": "0429811f0f1b410f89ff560827d2eada"}, {"is_disabled": 0, "is_reserved": 0, "fusion_lat": 0.0, "lat": 38.91678, "fusion_lon": 0.0, "rental_uris": {"ios": "https://dc.lft.to/lastmile_qr_scan", "android": "https://dc.lft.to/lastmile_qr_scan"}, "lon": -77.02289133333333, "bike_id": "976a591d59bbedca2e22f917c59ac94b", "type": "electric_scooter", "name": "976a591d59bbedca2e22f917c59ac94b"}, {"is_disabled": 0, "is_reserved": 0, "fusion_lat": 0.0, "lat": 38.910413, "fusion_lon": 0.0, "rental_uris": {"ios": "https://dc.lft.to/lastmile_qr_scan", "android": "https://dc.lft.to/lastmile_qr_scan"}, "lon": -77.01304466666667, "bike_id": "d166de94ee801a2aa34f99b412adc583", "type": "electric_scooter", "name": "d166de94ee801a2aa34f99b412adc583"}, {"is_disabled": 0, "is_reserved": 0, "fusion_lat": 0.0, "lat": 38.91698266666667, "fusion_lon": 0.0, "rental_uris": {"ios": "https://dc.lft.to/lastmile_qr_scan", "android": "https://dc.lft.to/lastmile_qr_scan"}, "lon": -77.04108833333333, "bike_id": "e200ba1206b9243176df2e6c16f42dcd", "type": "electric_scooter", "name": "e200ba1206b9243176df2e6c16f42dcd"}, {"is_disabled": 0, "is_reserved": 0, "fusion_lat": 0.0, "lat": 38.90554266666667, "fusion_lon": 0.0, "rental_uris": {"ios": "https://dc.lft.to/lastmile_qr_scan", "android": "https://dc.lft.to/lastmile_qr_scan"}, "lon": -77.02603483333333, "bike_id": "f969ef313b603fce2cfba3f70280ace5", "type": "electric_scooter", "name": "f969ef313b603fce2cfba3f70280ace5"}, {"is_disabled": 0, "is_reserved": 0, "fusion_lat": 0.0, "lat": 38.903462, "fusion_lon": 0.0, "rental_uris": {"ios": "https://dc.lft.to/lastmile_qr_scan", "android": "https://dc.lft.to/lastmile_qr_scan"}, "lon": -77.01653383333333, "bike_id": "53ab6a08ec2bc9fe9710fee189d148b2", "type": "electric_scooter", "name": "53ab6a08ec2bc9fe9710fee189d148b2"}, {"is_disabled": 0, "is_reserved": 0, "fusion_lat": 0.0, "lat": 38.896713, "fusion_lon": 0.0, "rental_uris": {"ios": "https://dc.lft.to/lastmile_qr_scan", "android": "https://dc.lft.to/lastmile_qr_scan"}, "lon": -76.94908983333333, "bike_id": "9c358a7f0c64e5b32aa821610c7ddfba", "type": "electric_scooter", "name": "9c358a7f0c64e5b32aa821610c7ddfba"}, {"is_disabled": 0, "is_reserved": 0, "fusion_lat": 0.0, "lat": 38.919061666666664, "fusion_lon": 0.0, "rental_uris": {"ios": "https://dc.lft.to/lastmile_qr_scan", "android": "https://dc.lft.to/lastmile_qr_scan"}, "lon": -77.02473566666667, "bike_id": "26fffa2d64f23ce51b2cd42e346f1ee4", "type": "electric_scooter", "name": "26fffa2d64f23ce51b2cd42e346f1ee4"}, {"is_disabled": 0, "is_reserved": 0, "fusion_lat": 0.0, "lat": 38.914138333333334, "fusion_lon": 0.0, "rental_uris": {"ios": "https://dc.lft.to/lastmile_qr_scan", "android": "https://dc.lft.to/lastmile_qr_scan"}, "lon": -77.01648866666666, "bike_id": "e780d20b8a5021ed680b127f23bcf6af", "type": "electric_scooter", "name": "e780d20b8a5021ed680b127f23bcf6af"}, {"is_disabled": 0, "is_reserved": 0, "fusion_lat": 0.0, "lat": 38.920526833333334, "fusion_lon": 0.0, "rental_uris": {"ios": "https://dc.lft.to/lastmile_qr_scan", "android": "https://dc.lft.to/lastmile_qr_scan"}, "lon": -77.0337395, "bike_id": "f974fffa09350624ce6dc5f1390737b5", "type": "electric_scooter", "name": "f974fffa09350624ce6dc5f1390737b5"}, {"is_disabled": 0, "is_reserved": 0, "fusion_lat": 0.0, "lat": 38.909618333333334, "fusion_lon": 0.0, "rental_uris": {"ios": "https://dc.lft.to/lastmile_qr_scan", "android": "https://dc.lft.to/lastmile_qr_scan"}, "lon": -77.03469083333333, "bike_id": "2192666f1e8763ce838ec1c14a73bdc8", "type": "electric_scooter", "name": "2192666f1e8763ce838ec1c14a73bdc8"}, {"is_disabled": 0, "is_reserved": 0, "fusion_lat": 0.0, "lat": 38.903972, "fusion_lon": 0.0, "rental_uris": {"ios": "https://dc.lft.to/lastmile_qr_scan", "android": "https://dc.lft.to/lastmile_qr_scan"}, "lon": -77.0247435, "bike_id": "8c3ffd3f285f120024f9d655e1cdd76b", "type": "electric_scooter", "name": "8c3ffd3f285f120024f9d655e1cdd76b"}, {"is_disabled": 0, "is_reserved": 0, "fusion_lat": 0.0, "lat": 38.924274833333335, "fusion_lon": 0.0, "rental_uris": {"ios": "https://dc.lft.to/lastmile_qr_scan", "android": "https://dc.lft.to/lastmile_qr_scan"}, "lon": -77.02041033333333, "bike_id": "6af638d564476fb3f4479ab0a0397327", "type": "electric_scooter", "name": "6af638d564476fb3f4479ab0a0397327"}, {"is_disabled": 0, "is_reserved": 0, "fusion_lat": 0.0, "lat": 38.926551, "fusion_lon": 0.0, "rental_uris": {"ios": "https://dc.lft.to/lastmile_qr_scan", "android": "https://dc.lft.to/lastmile_qr_scan"}, "lon": -77.02431783333333, "bike_id": "78ef7eb836ca0bcb4f697f8c60c481e5", "type": "electric_scooter", "name": "78ef7eb836ca0bcb4f697f8c60c481e5"}, {"is_disabled": 0, "is_reserved": 0, "fusion_lat": 0.0, "lat": 38.90610216666666, "fusion_lon": 0.0, "rental_uris": {"ios": "https://dc.lft.to/lastmile_qr_scan", "android": "https://dc.lft.to/lastmile_qr_scan"}, "lon": -77.025871, "bike_id": "b172f4a104cca21b6a13cfbca5940ca4", "type": "electric_scooter", "name": "b172f4a104cca21b6a13cfbca5940ca4"}, {"is_disabled": 0, "is_reserved": 0, "fusion_lat": 0.0, "lat": 38.917016333333336, "fusion_lon": 0.0, "rental_uris": {"ios": "https://dc.lft.to/lastmile_qr_scan", "android": "https://dc.lft.to/lastmile_qr_scan"}, "lon": -77.02943466666666, "bike_id": "c5be1053e1b45670b05176001fd0d896", "type": "electric_scooter", "name": "c5be1053e1b45670b05176001fd0d896"}, {"is_disabled": 0, "is_reserved": 0, "fusion_lat": 0.0, "lat": 38.913340833333336, "fusion_lon": 0.0, "rental_uris": {"ios": "https://dc.lft.to/lastmile_qr_scan", "android": "https://dc.lft.to/lastmile_qr_scan"}, "lon": -77.031277, "bike_id": "cc357eca9045feaa03e661f880cc4133", "type": "electric_scooter", "name": "cc357eca9045feaa03e661f880cc4133"}, {"is_disabled": 0, "is_reserved": 0, "fusion_lat": 0.0, "lat": 38.899082666666665, "fusion_lon": 0.0, "rental_uris": {"ios": "https://dc.lft.to/lastmile_qr_scan", "android": "https://dc.lft.to/lastmile_qr_scan"}, "lon": -76.98037683333334, "bike_id": "226438618fe988da215c7922c162385c", "type": "electric_scooter", "name": "226438618fe988da215c7922c162385c"}, {"is_disabled": 0, "is_reserved": 0, "fusion_lat": 0.0, "lat": 38.91608266666667, "fusion_lon": 0.0, "rental_uris": {"ios": "https://dc.lft.to/lastmile_qr_scan", "android": "https://dc.lft.to/lastmile_qr_scan"}, "lon": -77.0210525, "bike_id": "7d6c01b520407af05b3c34ad33f0811c", "type": "electric_scooter", "name": "7d6c01b520407af05b3c34ad33f0811c"}, {"is_disabled": 0, "is_reserved": 0, "fusion_lat": 0.0, "lat": 38.901384, "fusion_lon": 0.0, "rental_uris": {"ios": "https://dc.lft.to/lastmile_qr_scan", "android": "https://dc.lft.to/lastmile_qr_scan"}, "lon": -77.03638466666666, "bike_id": "ce07d58367b997e9e6eda972095d7aa8", "type": "electric_scooter", "name": "ce07d58367b997e9e6eda972095d7aa8"}, {"is_disabled": 0, "is_reserved": 0, "fusion_lat": 0.0, "lat": 38.880053, "fusion_lon": 0.0, "rental_uris": {"ios": "https://dc.lft.to/lastmile_qr_scan", "android": "https://dc.lft.to/lastmile_qr_scan"}, "lon": -76.9983275, "bike_id": "7e4e05153ed908d54629b2779e0cc708", "type": "electric_scooter", "name": "7e4e05153ed908d54629b2779e0cc708"}, {"is_disabled": 0, "is_reserved": 0, "fusion_lat": 0.0, "lat": 38.95598066666667, "fusion_lon": 0.0, "rental_uris": {"ios": "https://dc.lft.to/lastmile_qr_scan", "android": "https://dc.lft.to/lastmile_qr_scan"}, "lon": -77.01014533333333, "bike_id": "908066e3cdb15d92913127b04a7a6b7d", "type": "electric_bike", "name": "908066e3cdb15d92913127b04a7a6b7d"}, {"is_disabled": 0, "is_reserved": 0, "fusion_lat": 0.0, "lat": 38.899375166666665, "fusion_lon": 0.0, "rental_uris": {"ios": "https://dc.lft.to/lastmile_qr_scan", "android": "https://dc.lft.to/lastmile_qr_scan"}, "lon": -76.937667, "bike_id": "9fc9122e9a3f80e1b1f704e6beebabf5", "type": "electric_scooter", "name": "9fc9122e9a3f80e1b1f704e6beebabf5"}, {"is_disabled": 0, "is_reserved": 0, "fusion_lat": 0.0, "lat": 39.0347855, "fusion_lon": 0.0, "rental_uris": {"ios": "https://dc.lft.to/lastmile_qr_scan", "android": "https://dc.lft.to/lastmile_qr_scan"}, "lon": -77.04107566666667, "bike_id": "2cf8883a37f56945123f4595e96d7cdd", "type": "electric_bike", "name": "2cf8883a37f56945123f4595e96d7cdd"}, {"is_disabled": 0, "is_reserved": 0, "fusion_lat": 0.0, "lat": 38.910418, "fusion_lon": 0.0, "rental_uris": {"ios": "https://dc.lft.to/lastmile_qr_scan", "android": "https://dc.lft.to/lastmile_qr_scan"}, "lon": -76.93839883333334, "bike_id": "956e83f66616ead46567760b742466ba", "type": "electric_scooter", "name": "956e83f66616ead46567760b742466ba"}, {"is_disabled": 0, "is_reserved": 0, "fusion_lat": 0.0, "lat": 38.90181533333333, "fusion_lon": 0.0, "rental_uris": {"ios": "https://dc.lft.to/lastmile_qr_scan", "android": "https://dc.lft.to/lastmile_qr_scan"}, "lon": -76.97664983333334, "bike_id": "04426d219e308e3bed317af60a569aa0", "type": "electric_scooter", "name": "04426d219e308e3bed317af60a569aa0"}, {"is_disabled": 0, "is_reserved": 0, "fusion_lat": 0.0, "lat": 38.9303295, "fusion_lon": 0.0, "rental_uris": {"ios": "https://dc.lft.to/lastmile_qr_scan", "android": "https://dc.lft.to/lastmile_qr_scan"}, "lon": -77.0199495, "bike_id": "9e0b81bee9cc60f042e9b6d47676fb9b", "type": "electric_scooter", "name": "9e0b81bee9cc60f042e9b6d47676fb9b"}, {"is_disabled": 0, "is_reserved": 0, "fusion_lat": 0.0, "lat": 38.864745666666664, "fusion_lon": 0.0, "rental_uris": {"ios": "https://dc.lft.to/lastmile_qr_scan", "android": "https://dc.lft.to/lastmile_qr_scan"}, "lon": -76.97762616666667, "bike_id": "683b1a49b1a53dec583da692d201fd38", "type": "electric_scooter", "name": "683b1a49b1a53dec583da692d201fd38"}, {"is_disabled": 0, "is_reserved": 0, "fusion_lat": 0.0, "lat": 38.92487916666666, "fusion_lon": 0.0, "rental_uris": {"ios": "https://dc.lft.to/lastmile_qr_scan", "android": "https://dc.lft.to/lastmile_qr_scan"}, "lon": -77.03189283333333, "bike_id": "bfa217ed09ff1884d418da12f1320d27", "type": "electric_scooter", "name": "bfa217ed09ff1884d418da12f1320d27"}, {"is_disabled": 0, "is_reserved": 0, "fusion_lat": 0.0, "lat": 38.9018705, "fusion_lon": 0.0, "rental_uris": {"ios": "https://dc.lft.to/lastmile_qr_scan", "android": "https://dc.lft.to/lastmile_qr_scan"}, "lon": -77.00228166666666, "bike_id": "ff5bdd607a19cd540b8f384c34dcb3e1", "type": "electric_scooter", "name": "ff5bdd607a19cd540b8f384c34dcb3e1"}, {"is_disabled": 0, "is_reserved": 0, "fusion_lat": 0.0, "lat": 38.91599216666667, "fusion_lon": 0.0, "rental_uris": {"ios": "https://dc.lft.to/lastmile_qr_scan", "android": "https://dc.lft.to/lastmile_qr_scan"}, "lon": -76.98300933333333, "bike_id": "d98877d292990829db2bc4f0e3d93e2e", "type": "electric_scooter", "name": "d98877d292990829db2bc4f0e3d93e2e"}, {"is_disabled": 0, "is_reserved": 0, "fusion_lat": 0.0, "lat": 38.9155395, "fusion_lon": 0.0, "rental_uris": {"ios": "https://dc.lft.to/lastmile_qr_scan", "android": "https://dc.lft.to/lastmile_qr_scan"}, "lon": -77.03171316666666, "bike_id": "735bab9d9765edd4985b6d736fd282d3", "type": "electric_scooter", "name": "735bab9d9765edd4985b6d736fd282d3"}, {"is_disabled": 0, "is_reserved": 0, "fusion_lat": 0.0, "lat": 38.91547, "fusion_lon": 0.0, "rental_uris": {"ios": "https://dc.lft.to/lastmile_qr_scan", "android": "https://dc.lft.to/lastmile_qr_scan"}, "lon": -77.01222766666666, "bike_id": "609fa131bae5b91050d567fb4f6d873f", "type": "electric_scooter", "name": "609fa131bae5b91050d567fb4f6d873f"}, {"is_disabled": 0, "is_reserved": 0, "fusion_lat": 0.0, "lat": 38.876433, "fusion_lon": 0.0, "rental_uris": {"ios": "https://dc.lft.to/lastmile_qr_scan", "android": "https://dc.lft.to/lastmile_qr_scan"}, "lon": -76.992936, "bike_id": "f929f259ee5a9bac8287539ea952e18a", "type": "electric_scooter", "name": "f929f259ee5a9bac8287539ea952e18a"}, {"is_disabled": 0, "is_reserved": 0, "fusion_lat": 0.0, "lat": 38.909118, "fusion_lon": 0.0, "rental_uris": {"ios": "https://dc.lft.to/lastmile_qr_scan", "android": "https://dc.lft.to/lastmile_qr_scan"}, "lon": -77.03509416666667, "bike_id": "f30320a1181ca3cc224a74a5b9659e9a", "type": "electric_scooter", "name": "f30320a1181ca3cc224a74a5b9659e9a"}, {"is_disabled": 0, "is_reserved": 0, "fusion_lat": 0.0, "lat": 38.913085, "fusion_lon": 0.0, "rental_uris": {"ios": "https://dc.lft.to/lastmile_qr_scan", "android": "https://dc.lft.to/lastmile_qr_scan"}, "lon": -77.04331533333334, "bike_id": "74d878f974826f850b653020d5dc29b3", "type": "electric_scooter", "name": "74d878f974826f850b653020d5dc29b3"}, {"is_disabled": 0, "is_reserved": 0, "fusion_lat": 0.0, "lat": 38.91456866666667, "fusion_lon": 0.0, "rental_uris": {"ios": "https://dc.lft.to/lastmile_qr_scan", "android": "https://dc.lft.to/lastmile_qr_scan"}, "lon": -77.0318945, "bike_id": "4dc3598dc2e2af4ace8089ba69c6ac75", "type": "electric_scooter", "name": "4dc3598dc2e2af4ace8089ba69c6ac75"}, {"is_disabled": 0, "is_reserved": 0, "fusion_lat": 0.0, "lat": 38.83158733333333, "fusion_lon": 0.0, "rental_uris": {"ios": "https://dc.lft.to/lastmile_qr_scan", "android": "https://dc.lft.to/lastmile_qr_scan"}, "lon": -76.99545766666667, "bike_id": "a2dfebf4743bbdc61411c33364944977", "type": "electric_bike", "name": "a2dfebf4743bbdc61411c33364944977"}, {"is_disabled": 0, "is_reserved": 0, "fusion_lat": 0.0, "lat": 38.95342216666667, "fusion_lon": 0.0, "rental_uris": {"ios": "https://dc.lft.to/lastmile_qr_scan", "android": "https://dc.lft.to/lastmile_qr_scan"}, "lon": -77.0815155, "bike_id": "8770a8154fbcb7b06d9a187a96919354", "type": "electric_scooter", "name": "8770a8154fbcb7b06d9a187a96919354"}, {"is_disabled": 0, "is_reserved": 0, "fusion_lat": 0.0, "lat": 38.8996635, "fusion_lon": 0.0, "rental_uris": {"ios": "https://dc.lft.to/lastmile_qr_scan", "android": "https://dc.lft.to/lastmile_qr_scan"}, "lon": -76.9261915, "bike_id": "c23261f3bc59e503585db88da69a4137", "type": "electric_scooter", "name": "c23261f3bc59e503585db88da69a4137"}, {"is_disabled": 0, "is_reserved": 0, "fusion_lat": 0.0, "lat": 38.930013333333335, "fusion_lon": 0.0, "rental_uris": {"ios": "https://dc.lft.to/lastmile_qr_scan", "android": "https://dc.lft.to/lastmile_qr_scan"}, "lon": -77.038017, "bike_id": "adfa623e42d6130239a3cd17674e8ac5", "type": "electric_scooter", "name": "adfa623e42d6130239a3cd17674e8ac5"}, {"is_disabled": 0, "is_reserved": 0, "fusion_lat": 0.0, "lat": 38.9160825, "fusion_lon": 0.0, "rental_uris": {"ios": "https://dc.lft.to/lastmile_qr_scan", "android": "https://dc.lft.to/lastmile_qr_scan"}, "lon": -77.02129216666667, "bike_id": "8b215446d8fd6f82ffa55455fbcca3a1", "type": "electric_scooter", "name": "8b215446d8fd6f82ffa55455fbcca3a1"}, {"is_disabled": 0, "is_reserved": 0, "fusion_lat": 0.0, "lat": 38.9013935, "fusion_lon": 0.0, "rental_uris": {"ios": "https://dc.lft.to/lastmile_qr_scan", "android": "https://dc.lft.to/lastmile_qr_scan"}, "lon": -77.030871, "bike_id": "58de8ac7bea75a30828bdc8aced9cd9c", "type": "electric_scooter", "name": "58de8ac7bea75a30828bdc8aced9cd9c"}, {"is_disabled": 0, "is_reserved": 0, "fusion_lat": 0.0, "lat": 38.88883116666667, "fusion_lon": 0.0, "rental_uris": {"ios": "https://dc.lft.to/lastmile_qr_scan", "android": "https://dc.lft.to/lastmile_qr_scan"}, "lon": -76.9903305, "bike_id": "86f5c44005db2dc88eefa43aa2522c3e", "type": "electric_scooter", "name": "86f5c44005db2dc88eefa43aa2522c3e"}, {"is_disabled": 0, "is_reserved": 0, "fusion_lat": 0.0, "lat": 38.91050166666667, "fusion_lon": 0.0, "rental_uris": {"ios": "https://dc.lft.to/lastmile_qr_scan", "android": "https://dc.lft.to/lastmile_qr_scan"}, "lon": -77.01509433333334, "bike_id": "544f08924edeb1eb29f2a2314e6aa031", "type": "electric_scooter", "name": "544f08924edeb1eb29f2a2314e6aa031"}, {"is_disabled": 0, "is_reserved": 0, "fusion_lat": 0.0, "lat": 38.932806666666664, "fusion_lon": 0.0, "rental_uris": {"ios": "https://dc.lft.to/lastmile_qr_scan", "android": "https://dc.lft.to/lastmile_qr_scan"}, "lon": -77.0413855, "bike_id": "ad3dc678ca66dad35a779353dcc7b816", "type": "electric_scooter", "name": "ad3dc678ca66dad35a779353dcc7b816"}, {"is_disabled": 0, "is_reserved": 0, "fusion_lat": 0.0, "lat": 38.897503, "fusion_lon": 0.0, "rental_uris": {"ios": "https://dc.lft.to/lastmile_qr_scan", "android": "https://dc.lft.to/lastmile_qr_scan"}, "lon": -77.00337616666667, "bike_id": "f2852b95debf1b30665c22347d231aba", "type": "electric_scooter", "name": "f2852b95debf1b30665c22347d231aba"}, {"is_disabled": 0, "is_reserved": 0, "fusion_lat": 0.0, "lat": 39.084759166666664, "fusion_lon": 0.0, "rental_uris": {"ios": "https://dc.lft.to/lastmile_qr_scan", "android": "https://dc.lft.to/lastmile_qr_scan"}, "lon": -76.95071366666667, "bike_id": "71821dc4d2272efb81fb9e96a7b84598", "type": "electric_bike", "name": "71821dc4d2272efb81fb9e96a7b84598"}, {"is_disabled": 0, "is_reserved": 0, "fusion_lat": 0.0, "lat": 38.923527666666665, "fusion_lon": 0.0, "rental_uris": {"ios": "https://dc.lft.to/lastmile_qr_scan", "android": "https://dc.lft.to/lastmile_qr_scan"}, "lon": -76.9720515, "bike_id": "f35bd3cbf5329724472c5a4a3d0be4b7", "type": "electric_scooter", "name": "f35bd3cbf5329724472c5a4a3d0be4b7"}, {"is_disabled": 0, "is_reserved": 0, "fusion_lat": 0.0, "lat": 38.8984525, "fusion_lon": 0.0, "rental_uris": {"ios": "https://dc.lft.to/lastmile_qr_scan", "android": "https://dc.lft.to/lastmile_qr_scan"}, "lon": -77.0222235, "bike_id": "533ebe433c950372e996a0be253bfc2e", "type": "electric_scooter", "name": "533ebe433c950372e996a0be253bfc2e"}, {"is_disabled": 0, "is_reserved": 0, "fusion_lat": 0.0, "lat": 38.915545333333334, "fusion_lon": 0.0, "rental_uris": {"ios": "https://dc.lft.to/lastmile_qr_scan", "android": "https://dc.lft.to/lastmile_qr_scan"}, "lon": -77.0214575, "bike_id": "8af3d066b4c74c57cb734fcfc42496b7", "type": "electric_scooter", "name": "8af3d066b4c74c57cb734fcfc42496b7"}, {"is_disabled": 0, "is_reserved": 0, "fusion_lat": 0.0, "lat": 39.02521466666666, "fusion_lon": 0.0, "rental_uris": {"ios": "https://dc.lft.to/lastmile_qr_scan", "android": "https://dc.lft.to/lastmile_qr_scan"}, "lon": -77.019679, "bike_id": "cd800d3713628db0376057685a6f6903", "type": "electric_bike", "name": "cd800d3713628db0376057685a6f6903"}, {"is_disabled": 0, "is_reserved": 0, "fusion_lat": 0.0, "lat": 38.9005975, "fusion_lon": 0.0, "rental_uris": {"ios": "https://dc.lft.to/lastmile_qr_scan", "android": "https://dc.lft.to/lastmile_qr_scan"}, "lon": -77.05062566666666, "bike_id": "c90c67840e53f503c5e0a95c97d7a70f", "type": "electric_scooter", "name": "c90c67840e53f503c5e0a95c97d7a70f"}, {"is_disabled": 0, "is_reserved": 0, "fusion_lat": 0.0, "lat": 38.9009255, "fusion_lon": 0.0, "rental_uris": {"ios": "https://dc.lft.to/lastmile_qr_scan", "android": "https://dc.lft.to/lastmile_qr_scan"}, "lon": -77.049988, "bike_id": "4dc4dc211aacfe1fe90fe747e1c10a24", "type": "electric_scooter", "name": "4dc4dc211aacfe1fe90fe747e1c10a24"}, {"is_disabled": 0, "is_reserved": 0, "fusion_lat": 0.0, "lat": 38.8855795, "fusion_lon": 0.0, "rental_uris": {"ios": "https://dc.lft.to/lastmile_qr_scan", "android": "https://dc.lft.to/lastmile_qr_scan"}, "lon": -77.01986133333334, "bike_id": "0439213140090f67166b4c5e91286177", "type": "electric_scooter", "name": "0439213140090f67166b4c5e91286177"}, {"is_disabled": 0, "is_reserved": 0, "fusion_lat": 0.0, "lat": 38.87685883333333, "fusion_lon": 0.0, "rental_uris": {"ios": "https://dc.lft.to/lastmile_qr_scan", "android": "https://dc.lft.to/lastmile_qr_scan"}, "lon": -77.008925, "bike_id": "de2eb33c295fd8dcc68267da138de8f5", "type": "electric_scooter", "name": "de2eb33c295fd8dcc68267da138de8f5"}, {"is_disabled": 0, "is_reserved": 0, "fusion_lat": 0.0, "lat": 38.91269783333333, "fusion_lon": 0.0, "rental_uris": {"ios": "https://dc.lft.to/lastmile_qr_scan", "android": "https://dc.lft.to/lastmile_qr_scan"}, "lon": -77.0471055, "bike_id": "451de4616bc805e838e8e90efa5221e9", "type": "electric_scooter", "name": "451de4616bc805e838e8e90efa5221e9"}, {"is_disabled": 0, "is_reserved": 0, "fusion_lat": 0.0, "lat": 38.920614, "fusion_lon": 0.0, "rental_uris": {"ios": "https://dc.lft.to/lastmile_qr_scan", "android": "https://dc.lft.to/lastmile_qr_scan"}, "lon": -77.02564516666666, "bike_id": "00ce6d0dc4a60826bf72a2a1387611e0", "type": "electric_scooter", "name": "00ce6d0dc4a60826bf72a2a1387611e0"}, {"is_disabled": 0, "is_reserved": 0, "fusion_lat": 0.0, "lat": 38.89609333333333, "fusion_lon": 0.0, "rental_uris": {"ios": "https://dc.lft.to/lastmile_qr_scan", "android": "https://dc.lft.to/lastmile_qr_scan"}, "lon": -76.98316416666667, "bike_id": "11b54f8219fecf7526db33268cf017d0", "type": "electric_scooter", "name": "11b54f8219fecf7526db33268cf017d0"}, {"is_disabled": 0, "is_reserved": 0, "fusion_lat": 0.0, "lat": 38.92251383333333, "fusion_lon": 0.0, "rental_uris": {"ios": "https://dc.lft.to/lastmile_qr_scan", "android": "https://dc.lft.to/lastmile_qr_scan"}, "lon": -77.02825316666667, "bike_id": "7d7090ad0208a04d95ce61f6c67f0661", "type": "electric_scooter", "name": "7d7090ad0208a04d95ce61f6c67f0661"}, {"is_disabled": 0, "is_reserved": 0, "fusion_lat": 0.0, "lat": 38.868911, "fusion_lon": 0.0, "rental_uris": {"ios": "https://dc.lft.to/lastmile_qr_scan", "android": "https://dc.lft.to/lastmile_qr_scan"}, "lon": -76.99002733333333, "bike_id": "046a79e54a8c59e7721f8dd9c88def9c", "type": "electric_scooter", "name": "046a79e54a8c59e7721f8dd9c88def9c"}, {"is_disabled": 0, "is_reserved": 0, "fusion_lat": 0.0, "lat": 38.8656175, "fusion_lon": 0.0, "rental_uris": {"ios": "https://dc.lft.to/lastmile_qr_scan", "android": "https://dc.lft.to/lastmile_qr_scan"}, "lon": -76.97474483333333, "bike_id": "85bbcc33ef3b28761b7ad33b469e3d29", "type": "electric_bike", "name": "85bbcc33ef3b28761b7ad33b469e3d29"}, {"is_disabled": 0, "is_reserved": 0, "fusion_lat": 0.0, "lat": 38.85640183333334, "fusion_lon": 0.0, "rental_uris": {"ios": "https://dc.lft.to/lastmile_qr_scan", "android": "https://dc.lft.to/lastmile_qr_scan"}, "lon": -77.06832083333333, "bike_id": "bfaf36605a6062640cc47b28e1175567", "type": "electric_bike", "name": "bfaf36605a6062640cc47b28e1175567"}, {"is_disabled": 0, "is_reserved": 0, "fusion_lat": 0.0, "lat": 38.88582983333333, "fusion_lon": 0.0, "rental_uris": {"ios": "https://dc.lft.to/lastmile_qr_scan", "android": "https://dc.lft.to/lastmile_qr_scan"}, "lon": -77.0122355, "bike_id": "a290fc58cb0f51a8a864fc47cf14260d", "type": "electric_scooter", "name": "a290fc58cb0f51a8a864fc47cf14260d"}, {"is_disabled": 0, "is_reserved": 0, "fusion_lat": 0.0, "lat": 38.824318833333336, "fusion_lon": 0.0, "rental_uris": {"ios": "https://dc.lft.to/lastmile_qr_scan", "android": "https://dc.lft.to/lastmile_qr_scan"}, "lon": -77.12042233333334, "bike_id": "cb36361fd11594b71b8cb31bd8829425", "type": "electric_bike", "name": "cb36361fd11594b71b8cb31bd8829425"}, {"is_disabled": 0, "is_reserved": 0, "fusion_lat": 0.0, "lat": 38.87606233333333, "fusion_lon": 0.0, "rental_uris": {"ios": "https://dc.lft.to/lastmile_qr_scan", "android": "https://dc.lft.to/lastmile_qr_scan"}, "lon": -77.0050285, "bike_id": "b7c1242a82936e0e3f5a6d010ac7cb16", "type": "electric_scooter", "name": "b7c1242a82936e0e3f5a6d010ac7cb16"}, {"is_disabled": 0, "is_reserved": 0, "fusion_lat": 0.0, "lat": 38.94604416666667, "fusion_lon": 0.0, "rental_uris": {"ios": "https://dc.lft.to/lastmile_qr_scan", "android": "https://dc.lft.to/lastmile_qr_scan"}, "lon": -77.02671066666667, "bike_id": "8312696a5cd13615b638cfb7d8609e7d", "type": "electric_scooter", "name": "8312696a5cd13615b638cfb7d8609e7d"}, {"is_disabled": 0, "is_reserved": 0, "fusion_lat": 0.0, "lat": 38.90241433333333, "fusion_lon": 0.0, "rental_uris": {"ios": "https://dc.lft.to/lastmile_qr_scan", "android": "https://dc.lft.to/lastmile_qr_scan"}, "lon": -77.01845916666667, "bike_id": "9abdcad83b642a736fa5339d6ad22211", "type": "electric_scooter", "name": "9abdcad83b642a736fa5339d6ad22211"}, {"is_disabled": 0, "is_reserved": 0, "fusion_lat": 0.0, "lat": 38.9294685, "fusion_lon": 0.0, "rental_uris": {"ios": "https://dc.lft.to/lastmile_qr_scan", "android": "https://dc.lft.to/lastmile_qr_scan"}, "lon": -77.05474083333333, "bike_id": "a4975e1504e730bf95fba57dc77ea94a", "type": "electric_scooter", "name": "a4975e1504e730bf95fba57dc77ea94a"}, {"is_disabled": 0, "is_reserved": 0, "fusion_lat": 0.0, "lat": 38.89903233333333, "fusion_lon": 0.0, "rental_uris": {"ios": "https://dc.lft.to/lastmile_qr_scan", "android": "https://dc.lft.to/lastmile_qr_scan"}, "lon": -77.02305633333333, "bike_id": "fe7618c77d820a1ca02089aacab4d5bc", "type": "electric_scooter", "name": "fe7618c77d820a1ca02089aacab4d5bc"}, {"is_disabled": 0, "is_reserved": 0, "fusion_lat": 0.0, "lat": 38.93366733333333, "fusion_lon": 0.0, "rental_uris": {"ios": "https://dc.lft.to/lastmile_qr_scan", "android": "https://dc.lft.to/lastmile_qr_scan"}, "lon": -77.0572885, "bike_id": "0443d2b821153742f7f070734dd4575f", "type": "electric_scooter", "name": "0443d2b821153742f7f070734dd4575f"}, {"is_disabled": 0, "is_reserved": 0, "fusion_lat": 0.0, "lat": 38.922625, "fusion_lon": 0.0, "rental_uris": {"ios": "https://dc.lft.to/lastmile_qr_scan", "android": "https://dc.lft.to/lastmile_qr_scan"}, "lon": -77.07277183333333, "bike_id": "093d48c973a6d844505fe29aba821321", "type": "electric_scooter", "name": "093d48c973a6d844505fe29aba821321"}, {"is_disabled": 0, "is_reserved": 0, "fusion_lat": 0.0, "lat": 38.89615366666666, "fusion_lon": 0.0, "rental_uris": {"ios": "https://dc.lft.to/lastmile_qr_scan", "android": "https://dc.lft.to/lastmile_qr_scan"}, "lon": -77.00340166666666, "bike_id": "2b1c4245faccf59e6e03b6c950cf8a63", "type": "electric_scooter", "name": "2b1c4245faccf59e6e03b6c950cf8a63"}, {"is_disabled": 0, "is_reserved": 0, "fusion_lat": 0.0, "lat": 38.82922883333333, "fusion_lon": 0.0, "rental_uris": {"ios": "https://dc.lft.to/lastmile_qr_scan", "android": "https://dc.lft.to/lastmile_qr_scan"}, "lon": -77.06876683333333, "bike_id": "09337614ca16f5a0e3e5d39eb8a46ab3", "type": "electric_bike", "name": "09337614ca16f5a0e3e5d39eb8a46ab3"}, {"is_disabled": 0, "is_reserved": 0, "fusion_lat": 0.0, "lat": 38.880380833333334, "fusion_lon": 0.0, "rental_uris": {"ios": "https://dc.lft.to/lastmile_qr_scan", "android": "https://dc.lft.to/lastmile_qr_scan"}, "lon": -76.92724083333333, "bike_id": "b6012b3b614897ae0302b98b131bdfd7", "type": "electric_scooter", "name": "b6012b3b614897ae0302b98b131bdfd7"}, {"is_disabled": 0, "is_reserved": 0, "fusion_lat": 0.0, "lat": 38.925806666666666, "fusion_lon": 0.0, "rental_uris": {"ios": "https://dc.lft.to/lastmile_qr_scan", "android": "https://dc.lft.to/lastmile_qr_scan"}, "lon": -77.02758683333333, "bike_id": "808dbe67261d5083cb21b801f4f54b9e", "type": "electric_scooter", "name": "808dbe67261d5083cb21b801f4f54b9e"}, {"is_disabled": 0, "is_reserved": 0, "fusion_lat": 0.0, "lat": 38.899137833333334, "fusion_lon": 0.0, "rental_uris": {"ios": "https://dc.lft.to/lastmile_qr_scan", "android": "https://dc.lft.to/lastmile_qr_scan"}, "lon": -76.93377183333334, "bike_id": "282dad3be54947a5530f0a3ff909623f", "type": "electric_scooter", "name": "282dad3be54947a5530f0a3ff909623f"}, {"is_disabled": 0, "is_reserved": 0, "fusion_lat": 0.0, "lat": 38.911906, "fusion_lon": 0.0, "rental_uris": {"ios": "https://dc.lft.to/lastmile_qr_scan", "android": "https://dc.lft.to/lastmile_qr_scan"}, "lon": -77.03181133333334, "bike_id": "33af19209a31c4d51a11f32320df21ac", "type": "electric_scooter", "name": "33af19209a31c4d51a11f32320df21ac"}, {"is_disabled": 0, "is_reserved": 0, "fusion_lat": 0.0, "lat": 38.916649666666665, "fusion_lon": 0.0, "rental_uris": {"ios": "https://dc.lft.to/lastmile_qr_scan", "android": "https://dc.lft.to/lastmile_qr_scan"}, "lon": -77.02387933333333, "bike_id": "ea09821a8469e7740233caf9814ff811", "type": "electric_scooter", "name": "ea09821a8469e7740233caf9814ff811"}, {"is_disabled": 0, "is_reserved": 0, "fusion_lat": 0.0, "lat": 38.894845, "fusion_lon": 0.0, "rental_uris": {"ios": "https://dc.lft.to/lastmile_qr_scan", "android": "https://dc.lft.to/lastmile_qr_scan"}, "lon": -77.00155783333334, "bike_id": "9d34fa0ec43ec620778f162fa50f9839", "type": "electric_scooter", "name": "9d34fa0ec43ec620778f162fa50f9839"}, {"is_disabled": 0, "is_reserved": 0, "fusion_lat": 0.0, "lat": 38.92651983333333, "fusion_lon": 0.0, "rental_uris": {"ios": "https://dc.lft.to/lastmile_qr_scan", "android": "https://dc.lft.to/lastmile_qr_scan"}, "lon": -77.09023483333333, "bike_id": "2b6b0c5fe9a5db589f5553a1032bedc5", "type": "electric_bike", "name": "2b6b0c5fe9a5db589f5553a1032bedc5"}, {"is_disabled": 0, "is_reserved": 0, "fusion_lat": 0.0, "lat": 38.93931416666667, "fusion_lon": 0.0, "rental_uris": {"ios": "https://dc.lft.to/lastmile_qr_scan", "android": "https://dc.lft.to/lastmile_qr_scan"}, "lon": -77.02585483333333, "bike_id": "9884bb8c86bd377f414cb39c2ca60c46", "type": "electric_scooter", "name": "9884bb8c86bd377f414cb39c2ca60c46"}, {"is_disabled": 0, "is_reserved": 0, "fusion_lat": 0.0, "lat": 38.97154716666667, "fusion_lon": 0.0, "rental_uris": {"ios": "https://dc.lft.to/lastmile_qr_scan", "android": "https://dc.lft.to/lastmile_qr_scan"}, "lon": -76.98363016666667, "bike_id": "b8cf9ae875c3e95f974a11fe38141286", "type": "electric_bike", "name": "b8cf9ae875c3e95f974a11fe38141286"}, {"is_disabled": 0, "is_reserved": 0, "fusion_lat": 0.0, "lat": 38.91522416666667, "fusion_lon": 0.0, "rental_uris": {"ios": "https://dc.lft.to/lastmile_qr_scan", "android": "https://dc.lft.to/lastmile_qr_scan"}, "lon": -77.012182, "bike_id": "60299912d3bc1b3e228af72849180c4a", "type": "electric_scooter", "name": "60299912d3bc1b3e228af72849180c4a"}, {"is_disabled": 0, "is_reserved": 0, "fusion_lat": 0.0, "lat": 38.903464, "fusion_lon": 0.0, "rental_uris": {"ios": "https://dc.lft.to/lastmile_qr_scan", "android": "https://dc.lft.to/lastmile_qr_scan"}, "lon": -76.974946, "bike_id": "906dca681132b4066a1d13993bd0406b", "type": "electric_scooter", "name": "906dca681132b4066a1d13993bd0406b"}, {"is_disabled": 0, "is_reserved": 0, "fusion_lat": 0.0, "lat": 38.91643166666667, "fusion_lon": 0.0, "rental_uris": {"ios": "https://dc.lft.to/lastmile_qr_scan", "android": "https://dc.lft.to/lastmile_qr_scan"}, "lon": -77.02288233333333, "bike_id": "de830806e4a426e78419b2f0e933a223", "type": "electric_scooter", "name": "de830806e4a426e78419b2f0e933a223"}, {"is_disabled": 0, "is_reserved": 0, "fusion_lat": 0.0, "lat": 38.9276415, "fusion_lon": 0.0, "rental_uris": {"ios": "https://dc.lft.to/lastmile_qr_scan", "android": "https://dc.lft.to/lastmile_qr_scan"}, "lon": -77.05265866666667, "bike_id": "c6e13b26901a9b38181b49d5b88c425f", "type": "electric_scooter", "name": "c6e13b26901a9b38181b49d5b88c425f"}, {"is_disabled": 0, "is_reserved": 0, "fusion_lat": 0.0, "lat": 38.9141795, "fusion_lon": 0.0, "rental_uris": {"ios": "https://dc.lft.to/lastmile_qr_scan", "android": "https://dc.lft.to/lastmile_qr_scan"}, "lon": -77.05205116666667, "bike_id": "3112549ab2484d3661804c2749f01ef6", "type": "electric_scooter", "name": "3112549ab2484d3661804c2749f01ef6"}, {"is_disabled": 0, "is_reserved": 0, "fusion_lat": 0.0, "lat": 38.905102166666666, "fusion_lon": 0.0, "rental_uris": {"ios": "https://dc.lft.to/lastmile_qr_scan", "android": "https://dc.lft.to/lastmile_qr_scan"}, "lon": -76.9519975, "bike_id": "fb7c432d403f01ac2b17b8689b159e35", "type": "electric_scooter", "name": "fb7c432d403f01ac2b17b8689b159e35"}, {"is_disabled": 0, "is_reserved": 0, "fusion_lat": 0.0, "lat": 38.9206185, "fusion_lon": 0.0, "rental_uris": {"ios": "https://dc.lft.to/lastmile_qr_scan", "android": "https://dc.lft.to/lastmile_qr_scan"}, "lon": -77.03197683333333, "bike_id": "b7a439a7a1853d5653754635231cd69e", "type": "electric_scooter", "name": "b7a439a7a1853d5653754635231cd69e"}, {"is_disabled": 0, "is_reserved": 0, "fusion_lat": 0.0, "lat": 38.880678333333336, "fusion_lon": 0.0, "rental_uris": {"ios": "https://dc.lft.to/lastmile_qr_scan", "android": "https://dc.lft.to/lastmile_qr_scan"}, "lon": -77.02574866666667, "bike_id": "41a2e5fbf5931065fb451229a6e90d8c", "type": "electric_scooter", "name": "41a2e5fbf5931065fb451229a6e90d8c"}, {"is_disabled": 0, "is_reserved": 0, "fusion_lat": 0.0, "lat": 38.92199566666667, "fusion_lon": 0.0, "rental_uris": {"ios": "https://dc.lft.to/lastmile_qr_scan", "android": "https://dc.lft.to/lastmile_qr_scan"}, "lon": -77.02041416666667, "bike_id": "8e1e5f9b8b05d440a4e9b7ebb661035b", "type": "electric_scooter", "name": "8e1e5f9b8b05d440a4e9b7ebb661035b"}, {"is_disabled": 0, "is_reserved": 0, "fusion_lat": 0.0, "lat": 38.915366166666665, "fusion_lon": 0.0, "rental_uris": {"ios": "https://dc.lft.to/lastmile_qr_scan", "android": "https://dc.lft.to/lastmile_qr_scan"}, "lon": -77.02637016666667, "bike_id": "c7cf22687d16b40ee63db440114adb0c", "type": "electric_scooter", "name": "c7cf22687d16b40ee63db440114adb0c"}, {"is_disabled": 0, "is_reserved": 0, "fusion_lat": 0.0, "lat": 38.88863533333333, "fusion_lon": 0.0, "rental_uris": {"ios": "https://dc.lft.to/lastmile_qr_scan", "android": "https://dc.lft.to/lastmile_qr_scan"}, "lon": -76.97739116666666, "bike_id": "12f40943028a45de453cbaf0a32af71c", "type": "electric_scooter", "name": "12f40943028a45de453cbaf0a32af71c"}, {"is_disabled": 0, "is_reserved": 0, "fusion_lat": 0.0, "lat": 38.955928, "fusion_lon": 0.0, "rental_uris": {"ios": "https://dc.lft.to/lastmile_qr_scan", "android": "https://dc.lft.to/lastmile_qr_scan"}, "lon": -77.01782783333333, "bike_id": "2d2ebb260112ea4e93db4d16db3037a9", "type": "electric_scooter", "name": "2d2ebb260112ea4e93db4d16db3037a9"}, {"is_disabled": 0, "is_reserved": 0, "fusion_lat": 0.0, "lat": 38.943304, "fusion_lon": 0.0, "rental_uris": {"ios": "https://dc.lft.to/lastmile_qr_scan", "android": "https://dc.lft.to/lastmile_qr_scan"}, "lon": -77.02691183333333, "bike_id": "c0cd437264b9413ebe306679b3ce213f", "type": "electric_scooter", "name": "c0cd437264b9413ebe306679b3ce213f"}, {"is_disabled": 0, "is_reserved": 0, "fusion_lat": 0.0, "lat": 39.02648516666667, "fusion_lon": 0.0, "rental_uris": {"ios": "https://dc.lft.to/lastmile_qr_scan", "android": "https://dc.lft.to/lastmile_qr_scan"}, "lon": -77.03682833333333, "bike_id": "b4f596a1a7e6926200aa39c312870ef9", "type": "electric_bike", "name": "b4f596a1a7e6926200aa39c312870ef9"}, {"is_disabled": 0, "is_reserved": 0, "fusion_lat": 0.0, "lat": 38.88620516666667, "fusion_lon": 0.0, "rental_uris": {"ios": "https://dc.lft.to/lastmile_qr_scan", "android": "https://dc.lft.to/lastmile_qr_scan"}, "lon": -76.926309, "bike_id": "b313c5cfa8daf9051bc3ee6e060761e0", "type": "electric_scooter", "name": "b313c5cfa8daf9051bc3ee6e060761e0"}, {"is_disabled": 0, "is_reserved": 0, "fusion_lat": 0.0, "lat": 38.91684866666667, "fusion_lon": 0.0, "rental_uris": {"ios": "https://dc.lft.to/lastmile_qr_scan", "android": "https://dc.lft.to/lastmile_qr_scan"}, "lon": -77.02284783333333, "bike_id": "4b0ef9880138e93e0a57c033005211af", "type": "electric_scooter", "name": "4b0ef9880138e93e0a57c033005211af"}, {"is_disabled": 0, "is_reserved": 0, "fusion_lat": 0.0, "lat": 38.91611566666667, "fusion_lon": 0.0, "rental_uris": {"ios": "https://dc.lft.to/lastmile_qr_scan", "android": "https://dc.lft.to/lastmile_qr_scan"}, "lon": -77.02173033333334, "bike_id": "ea1324b80e9ec99eb8c0eb0ea634299d", "type": "electric_scooter", "name": "ea1324b80e9ec99eb8c0eb0ea634299d"}, {"is_disabled": 0, "is_reserved": 0, "fusion_lat": 0.0, "lat": 38.90040066666667, "fusion_lon": 0.0, "rental_uris": {"ios": "https://dc.lft.to/lastmile_qr_scan", "android": "https://dc.lft.to/lastmile_qr_scan"}, "lon": -77.003711, "bike_id": "f21631774dc42c2b64ee0ccf0d24eb49", "type": "electric_scooter", "name": "f21631774dc42c2b64ee0ccf0d24eb49"}, {"is_disabled": 0, "is_reserved": 0, "fusion_lat": 0.0, "lat": 38.91861566666667, "fusion_lon": 0.0, "rental_uris": {"ios": "https://dc.lft.to/lastmile_qr_scan", "android": "https://dc.lft.to/lastmile_qr_scan"}, "lon": -77.03641983333333, "bike_id": "65ce4cdbf992e790cfd4836ee0a49ae0", "type": "electric_scooter", "name": "65ce4cdbf992e790cfd4836ee0a49ae0"}, {"is_disabled": 0, "is_reserved": 0, "fusion_lat": 0.0, "lat": 38.902648166666665, "fusion_lon": 0.0, "rental_uris": {"ios": "https://dc.lft.to/lastmile_qr_scan", "android": "https://dc.lft.to/lastmile_qr_scan"}, "lon": -77.0115635, "bike_id": "cdfa2931f9aa01d8eb3aa306e5ff9750", "type": "electric_scooter", "name": "cdfa2931f9aa01d8eb3aa306e5ff9750"}, {"is_disabled": 0, "is_reserved": 0, "fusion_lat": 0.0, "lat": 38.937616166666665, "fusion_lon": 0.0, "rental_uris": {"ios": "https://dc.lft.to/lastmile_qr_scan", "android": "https://dc.lft.to/lastmile_qr_scan"}, "lon": -77.03255033333333, "bike_id": "5858310baf2bc09ecbe62f04dfcc45c1", "type": "electric_scooter", "name": "5858310baf2bc09ecbe62f04dfcc45c1"}, {"is_disabled": 0, "is_reserved": 0, "fusion_lat": 0.0, "lat": 38.90615533333333, "fusion_lon": 0.0, "rental_uris": {"ios": "https://dc.lft.to/lastmile_qr_scan", "android": "https://dc.lft.to/lastmile_qr_scan"}, "lon": -77.12872266666666, "bike_id": "cc36585e024a0cf69009a0ca9260f7f9", "type": "electric_bike", "name": "cc36585e024a0cf69009a0ca9260f7f9"}, {"is_disabled": 0, "is_reserved": 0, "fusion_lat": 0.0, "lat": 38.90063833333333, "fusion_lon": 0.0, "rental_uris": {"ios": "https://dc.lft.to/lastmile_qr_scan", "android": "https://dc.lft.to/lastmile_qr_scan"}, "lon": -77.02192533333333, "bike_id": "57ab6fc1dac84780a828f6697edeaeb1", "type": "electric_scooter", "name": "57ab6fc1dac84780a828f6697edeaeb1"}, {"is_disabled": 0, "is_reserved": 0, "fusion_lat": 0.0, "lat": 38.911294, "fusion_lon": 0.0, "rental_uris": {"ios": "https://dc.lft.to/lastmile_qr_scan", "android": "https://dc.lft.to/lastmile_qr_scan"}, "lon": -77.03575916666667, "bike_id": "01cc965e1c353ddc85a7d4d72dc89bcc", "type": "electric_scooter", "name": "01cc965e1c353ddc85a7d4d72dc89bcc"}, {"is_disabled": 0, "is_reserved": 0, "fusion_lat": 0.0, "lat": 38.94087916666667, "fusion_lon": 0.0, "rental_uris": {"ios": "https://dc.lft.to/lastmile_qr_scan", "android": "https://dc.lft.to/lastmile_qr_scan"}, "lon": -77.00155733333334, "bike_id": "722fc96a949063cb708e2cb739d0bbb6", "type": "electric_bike", "name": "722fc96a949063cb708e2cb739d0bbb6"}, {"is_disabled": 0, "is_reserved": 0, "fusion_lat": 0.0, "lat": 38.92247233333333, "fusion_lon": 0.0, "rental_uris": {"ios": "https://dc.lft.to/lastmile_qr_scan", "android": "https://dc.lft.to/lastmile_qr_scan"}, "lon": -77.04011683333333, "bike_id": "89528276dd210de4381b91eac2c01726", "type": "electric_scooter", "name": "89528276dd210de4381b91eac2c01726"}, {"is_disabled": 0, "is_reserved": 0, "fusion_lat": 0.0, "lat": 38.906144833333336, "fusion_lon": 0.0, "rental_uris": {"ios": "https://dc.lft.to/lastmile_qr_scan", "android": "https://dc.lft.to/lastmile_qr_scan"}, "lon": -77.0565475, "bike_id": "247960fd2a55b27da41865e61070f394", "type": "electric_scooter", "name": "247960fd2a55b27da41865e61070f394"}, {"is_disabled": 0, "is_reserved": 0, "fusion_lat": 0.0, "lat": 38.878364, "fusion_lon": 0.0, "rental_uris": {"ios": "https://dc.lft.to/lastmile_qr_scan", "android": "https://dc.lft.to/lastmile_qr_scan"}, "lon": -77.0227775, "bike_id": "2a08cee57a5b3d2937688f272fc22bf2", "type": "electric_scooter", "name": "2a08cee57a5b3d2937688f272fc22bf2"}, {"is_disabled": 0, "is_reserved": 0, "fusion_lat": 0.0, "lat": 38.92293733333333, "fusion_lon": 0.0, "rental_uris": {"ios": "https://dc.lft.to/lastmile_qr_scan", "android": "https://dc.lft.to/lastmile_qr_scan"}, "lon": -77.0182605, "bike_id": "e5899da2806b0ee8b63fc57398ecdbb3", "type": "electric_scooter", "name": "e5899da2806b0ee8b63fc57398ecdbb3"}, {"is_disabled": 0, "is_reserved": 0, "fusion_lat": 0.0, "lat": 38.912727333333336, "fusion_lon": 0.0, "rental_uris": {"ios": "https://dc.lft.to/lastmile_qr_scan", "android": "https://dc.lft.to/lastmile_qr_scan"}, "lon": -77.04658616666667, "bike_id": "8e98440e23dd75916359a3374402b5f3", "type": "electric_scooter", "name": "8e98440e23dd75916359a3374402b5f3"}, {"is_disabled": 0, "is_reserved": 0, "fusion_lat": 0.0, "lat": 38.875690666666664, "fusion_lon": 0.0, "rental_uris": {"ios": "https://dc.lft.to/lastmile_qr_scan", "android": "https://dc.lft.to/lastmile_qr_scan"}, "lon": -77.04706466666667, "bike_id": "7a21b04145e21fdbf4df74ea1212117d", "type": "electric_bike", "name": "7a21b04145e21fdbf4df74ea1212117d"}, {"is_disabled": 0, "is_reserved": 0, "fusion_lat": 0.0, "lat": 38.9289265, "fusion_lon": 0.0, "rental_uris": {"ios": "https://dc.lft.to/lastmile_qr_scan", "android": "https://dc.lft.to/lastmile_qr_scan"}, "lon": -77.0387345, "bike_id": "89f8a5b42c466692583d427553aaf721", "type": "electric_scooter", "name": "89f8a5b42c466692583d427553aaf721"}, {"is_disabled": 0, "is_reserved": 0, "fusion_lat": 0.0, "lat": 38.90893583333333, "fusion_lon": 0.0, "rental_uris": {"ios": "https://dc.lft.to/lastmile_qr_scan", "android": "https://dc.lft.to/lastmile_qr_scan"}, "lon": -77.0467005, "bike_id": "615b1af823b1b2238f420c45f9dc0fd0", "type": "electric_scooter", "name": "615b1af823b1b2238f420c45f9dc0fd0"}, {"is_disabled": 0, "is_reserved": 0, "fusion_lat": 0.0, "lat": 38.90689783333333, "fusion_lon": 0.0, "rental_uris": {"ios": "https://dc.lft.to/lastmile_qr_scan", "android": "https://dc.lft.to/lastmile_qr_scan"}, "lon": -77.063009, "bike_id": "2686f540a96ee316971b24266297d2e0", "type": "electric_scooter", "name": "2686f540a96ee316971b24266297d2e0"}, {"is_disabled": 0, "is_reserved": 0, "fusion_lat": 0.0, "lat": 38.892384666666665, "fusion_lon": 0.0, "rental_uris": {"ios": "https://dc.lft.to/lastmile_qr_scan", "android": "https://dc.lft.to/lastmile_qr_scan"}, "lon": -77.0466065, "bike_id": "f77d95e2f6ef401d0c47bd7c97289312", "type": "electric_scooter", "name": "f77d95e2f6ef401d0c47bd7c97289312"}, {"is_disabled": 0, "is_reserved": 0, "fusion_lat": 0.0, "lat": 39.042361666666665, "fusion_lon": 0.0, "rental_uris": {"ios": "https://dc.lft.to/lastmile_qr_scan", "android": "https://dc.lft.to/lastmile_qr_scan"}, "lon": -76.99737933333333, "bike_id": "7a21042f47fbb87cfbc9976d0b870608", "type": "electric_bike", "name": "7a21042f47fbb87cfbc9976d0b870608"}, {"is_disabled": 0, "is_reserved": 0, "fusion_lat": 0.0, "lat": 38.998525666666666, "fusion_lon": 0.0, "rental_uris": {"ios": "https://dc.lft.to/lastmile_qr_scan", "android": "https://dc.lft.to/lastmile_qr_scan"}, "lon": -77.00251766666666, "bike_id": "534f693cdd72886e89ad911ab890edf3", "type": "electric_bike", "name": "534f693cdd72886e89ad911ab890edf3"}, {"is_disabled": 0, "is_reserved": 0, "fusion_lat": 0.0, "lat": 38.95697033333333, "fusion_lon": 0.0, "rental_uris": {"ios": "https://dc.lft.to/lastmile_qr_scan", "android": "https://dc.lft.to/lastmile_qr_scan"}, "lon": -77.022287, "bike_id": "dbc317e05922b9b62b5ce27817a1b0b3", "type": "electric_scooter", "name": "dbc317e05922b9b62b5ce27817a1b0b3"}, {"is_disabled": 0, "is_reserved": 0, "fusion_lat": 0.0, "lat": 38.885342333333334, "fusion_lon": 0.0, "rental_uris": {"ios": "https://dc.lft.to/lastmile_qr_scan", "android": "https://dc.lft.to/lastmile_qr_scan"}, "lon": -76.98054616666667, "bike_id": "d065481b640ab6a479691ca471abfe44", "type": "electric_scooter", "name": "d065481b640ab6a479691ca471abfe44"}, {"is_disabled": 0, "is_reserved": 0, "fusion_lat": 0.0, "lat": 38.8771735, "fusion_lon": 0.0, "rental_uris": {"ios": "https://dc.lft.to/lastmile_qr_scan", "android": "https://dc.lft.to/lastmile_qr_scan"}, "lon": -77.01675116666667, "bike_id": "9ad7512d73f31711404cc88584b4229c", "type": "electric_scooter", "name": "9ad7512d73f31711404cc88584b4229c"}, {"is_disabled": 0, "is_reserved": 0, "fusion_lat": 0.0, "lat": 38.95755716666667, "fusion_lon": 0.0, "rental_uris": {"ios": "https://dc.lft.to/lastmile_qr_scan", "android": "https://dc.lft.to/lastmile_qr_scan"}, "lon": -77.02209966666666, "bike_id": "f2c18f6801ceb4e170768c832b489286", "type": "electric_scooter", "name": "f2c18f6801ceb4e170768c832b489286"}, {"is_disabled": 0, "is_reserved": 0, "fusion_lat": 0.0, "lat": 38.896239333333334, "fusion_lon": 0.0, "rental_uris": {"ios": "https://dc.lft.to/lastmile_qr_scan", "android": "https://dc.lft.to/lastmile_qr_scan"}, "lon": -76.90754866666667, "bike_id": "e69c0a516c4088d265829848a90511d9", "type": "electric_bike", "name": "e69c0a516c4088d265829848a90511d9"}, {"is_disabled": 0, "is_reserved": 0, "fusion_lat": 0.0, "lat": 38.91574633333333, "fusion_lon": 0.0, "rental_uris": {"ios": "https://dc.lft.to/lastmile_qr_scan", "android": "https://dc.lft.to/lastmile_qr_scan"}, "lon": -77.03186416666667, "bike_id": "bc9f5fe7bbe37ccc4a66b027917624af", "type": "electric_scooter", "name": "bc9f5fe7bbe37ccc4a66b027917624af"}, {"is_disabled": 0, "is_reserved": 0, "fusion_lat": 0.0, "lat": 38.92413616666666, "fusion_lon": 0.0, "rental_uris": {"ios": "https://dc.lft.to/lastmile_qr_scan", "android": "https://dc.lft.to/lastmile_qr_scan"}, "lon": -77.02009733333334, "bike_id": "7cd35cc692e410c99bc53fa34bb6b880", "type": "electric_scooter", "name": "7cd35cc692e410c99bc53fa34bb6b880"}, {"is_disabled": 0, "is_reserved": 0, "fusion_lat": 0.0, "lat": 38.901989, "fusion_lon": 0.0, "rental_uris": {"ios": "https://dc.lft.to/lastmile_qr_scan", "android": "https://dc.lft.to/lastmile_qr_scan"}, "lon": -77.002073, "bike_id": "4ba8882b6ef4c9ab982b5f8b9ab8e0f2", "type": "electric_scooter", "name": "4ba8882b6ef4c9ab982b5f8b9ab8e0f2"}, {"is_disabled": 0, "is_reserved": 0, "fusion_lat": 0.0, "lat": 38.92211066666667, "fusion_lon": 0.0, "rental_uris": {"ios": "https://dc.lft.to/lastmile_qr_scan", "android": "https://dc.lft.to/lastmile_qr_scan"}, "lon": -77.08190166666667, "bike_id": "baa238361b0992e93f1a69b6fd106ad9", "type": "electric_bike", "name": "baa238361b0992e93f1a69b6fd106ad9"}, {"is_disabled": 0, "is_reserved": 0, "fusion_lat": 0.0, "lat": 38.8854475, "fusion_lon": 0.0, "rental_uris": {"ios": "https://dc.lft.to/lastmile_qr_scan", "android": "https://dc.lft.to/lastmile_qr_scan"}, "lon": -76.92371766666666, "bike_id": "55199e0892301d60fb2f998faf4dacde", "type": "electric_scooter", "name": "55199e0892301d60fb2f998faf4dacde"}, {"is_disabled": 0, "is_reserved": 0, "fusion_lat": 0.0, "lat": 38.9210275, "fusion_lon": 0.0, "rental_uris": {"ios": "https://dc.lft.to/lastmile_qr_scan", "android": "https://dc.lft.to/lastmile_qr_scan"}, "lon": -77.03654733333333, "bike_id": "a70bab96f57aa8934478c4ccc2743755", "type": "electric_scooter", "name": "a70bab96f57aa8934478c4ccc2743755"}, {"is_disabled": 0, "is_reserved": 0, "fusion_lat": 0.0, "lat": 38.89431966666667, "fusion_lon": 0.0, "rental_uris": {"ios": "https://dc.lft.to/lastmile_qr_scan", "android": "https://dc.lft.to/lastmile_qr_scan"}, "lon": -77.010894, "bike_id": "cc60116c513a9bcbe199f0d5bba3386f", "type": "electric_scooter", "name": "cc60116c513a9bcbe199f0d5bba3386f"}, {"is_disabled": 0, "is_reserved": 0, "fusion_lat": 0.0, "lat": 39.000044833333334, "fusion_lon": 0.0, "rental_uris": {"ios": "https://dc.lft.to/lastmile_qr_scan", "android": "https://dc.lft.to/lastmile_qr_scan"}, "lon": -76.91807533333333, "bike_id": "30bc3a2fc43b70acf462e51ddee23295", "type": "electric_bike", "name": "30bc3a2fc43b70acf462e51ddee23295"}, {"is_disabled": 0, "is_reserved": 0, "fusion_lat": 0.0, "lat": 38.87104933333333, "fusion_lon": 0.0, "rental_uris": {"ios": "https://dc.lft.to/lastmile_qr_scan", "android": "https://dc.lft.to/lastmile_qr_scan"}, "lon": -77.00795283333333, "bike_id": "012ff404874b715b26fd2291a6a8456a", "type": "electric_scooter", "name": "012ff404874b715b26fd2291a6a8456a"}, {"is_disabled": 0, "is_reserved": 0, "fusion_lat": 0.0, "lat": 38.965332, "fusion_lon": 0.0, "rental_uris": {"ios": "https://dc.lft.to/lastmile_qr_scan", "android": "https://dc.lft.to/lastmile_qr_scan"}, "lon": -77.03418433333333, "bike_id": "eb4b54b5962366c16012be3586450032", "type": "electric_bike", "name": "eb4b54b5962366c16012be3586450032"}, {"is_disabled": 0, "is_reserved": 0, "fusion_lat": 0.0, "lat": 38.897344833333335, "fusion_lon": 0.0, "rental_uris": {"ios": "https://dc.lft.to/lastmile_qr_scan", "android": "https://dc.lft.to/lastmile_qr_scan"}, "lon": -77.04994166666667, "bike_id": "bb5f9f0630623aa72c10b0bd5cecdffb", "type": "electric_scooter", "name": "bb5f9f0630623aa72c10b0bd5cecdffb"}, {"is_disabled": 0, "is_reserved": 0, "fusion_lat": 0.0, "lat": 38.9420345, "fusion_lon": 0.0, "rental_uris": {"ios": "https://dc.lft.to/lastmile_qr_scan", "android": "https://dc.lft.to/lastmile_qr_scan"}, "lon": -77.02568316666667, "bike_id": "3d23ebc80f8d160efa92dc889c5f5311", "type": "electric_scooter", "name": "3d23ebc80f8d160efa92dc889c5f5311"}, {"is_disabled": 0, "is_reserved": 0, "fusion_lat": 0.0, "lat": 38.90353783333333, "fusion_lon": 0.0, "rental_uris": {"ios": "https://dc.lft.to/lastmile_qr_scan", "android": "https://dc.lft.to/lastmile_qr_scan"}, "lon": -77.02952983333333, "bike_id": "d0bb90a493f347c966232438b29b3b27", "type": "electric_scooter", "name": "d0bb90a493f347c966232438b29b3b27"}, {"is_disabled": 0, "is_reserved": 0, "fusion_lat": 0.0, "lat": 38.91604066666667, "fusion_lon": 0.0, "rental_uris": {"ios": "https://dc.lft.to/lastmile_qr_scan", "android": "https://dc.lft.to/lastmile_qr_scan"}, "lon": -77.02399866666667, "bike_id": "ab00feffd8938017cf6a81a396293dd7", "type": "electric_scooter", "name": "ab00feffd8938017cf6a81a396293dd7"}, {"is_disabled": 0, "is_reserved": 0, "fusion_lat": 0.0, "lat": 38.871744166666666, "fusion_lon": 0.0, "rental_uris": {"ios": "https://dc.lft.to/lastmile_qr_scan", "android": "https://dc.lft.to/lastmile_qr_scan"}, "lon": -77.233918, "bike_id": "27c73e5f98c0729e2b8543a1bc018a09", "type": "electric_bike", "name": "27c73e5f98c0729e2b8543a1bc018a09"}, {"is_disabled": 0, "is_reserved": 0, "fusion_lat": 0.0, "lat": 38.916577, "fusion_lon": 0.0, "rental_uris": {"ios": "https://dc.lft.to/lastmile_qr_scan", "android": "https://dc.lft.to/lastmile_qr_scan"}, "lon": -77.023836, "bike_id": "885d38c95fc7c0248bd482f25b14b2db", "type": "electric_scooter", "name": "885d38c95fc7c0248bd482f25b14b2db"}, {"is_disabled": 0, "is_reserved": 0, "fusion_lat": 0.0, "lat": 38.893678333333334, "fusion_lon": 0.0, "rental_uris": {"ios": "https://dc.lft.to/lastmile_qr_scan", "android": "https://dc.lft.to/lastmile_qr_scan"}, "lon": -76.94110116666667, "bike_id": "756078487ab3e45dc9e2265e42d20964", "type": "electric_scooter", "name": "756078487ab3e45dc9e2265e42d20964"}, {"is_disabled": 0, "is_reserved": 0, "fusion_lat": 0.0, "lat": 38.915403, "fusion_lon": 0.0, "rental_uris": {"ios": "https://dc.lft.to/lastmile_qr_scan", "android": "https://dc.lft.to/lastmile_qr_scan"}, "lon": -77.066588, "bike_id": "c724cbcbfca1eedd1af9a202e100ba58", "type": "electric_bike", "name": "c724cbcbfca1eedd1af9a202e100ba58"}, {"is_disabled": 0, "is_reserved": 0, "fusion_lat": 0.0, "lat": 38.807410833333336, "fusion_lon": 0.0, "rental_uris": {"ios": "https://dc.lft.to/lastmile_qr_scan", "android": "https://dc.lft.to/lastmile_qr_scan"}, "lon": -77.09689066666667, "bike_id": "27186fea2d702e25a8f425801dd3111d", "type": "electric_bike", "name": "27186fea2d702e25a8f425801dd3111d"}, {"is_disabled": 0, "is_reserved": 0, "fusion_lat": 0.0, "lat": 38.90756416666667, "fusion_lon": 0.0, "rental_uris": {"ios": "https://dc.lft.to/lastmile_qr_scan", "android": "https://dc.lft.to/lastmile_qr_scan"}, "lon": -76.99874733333333, "bike_id": "80eddcf3031da670cf1f87b44545469c", "type": "electric_scooter", "name": "80eddcf3031da670cf1f87b44545469c"}, {"is_disabled": 0, "is_reserved": 0, "fusion_lat": 0.0, "lat": 38.91526, "fusion_lon": 0.0, "rental_uris": {"ios": "https://dc.lft.to/lastmile_qr_scan", "android": "https://dc.lft.to/lastmile_qr_scan"}, "lon": -77.0366205, "bike_id": "e7872e0e5c257db279256d2046463b31", "type": "electric_scooter", "name": "e7872e0e5c257db279256d2046463b31"}, {"is_disabled": 0, "is_reserved": 0, "fusion_lat": 0.0, "lat": 38.885268833333335, "fusion_lon": 0.0, "rental_uris": {"ios": "https://dc.lft.to/lastmile_qr_scan", "android": "https://dc.lft.to/lastmile_qr_scan"}, "lon": -76.99796066666667, "bike_id": "a2aa735aaa29a5d1b444c26737ccd5ee", "type": "electric_scooter", "name": "a2aa735aaa29a5d1b444c26737ccd5ee"}, {"is_disabled": 0, "is_reserved": 0, "fusion_lat": 0.0, "lat": 38.8947755, "fusion_lon": 0.0, "rental_uris": {"ios": "https://dc.lft.to/lastmile_qr_scan", "android": "https://dc.lft.to/lastmile_qr_scan"}, "lon": -77.01104216666667, "bike_id": "2cb40656a6cf9b45825126e4b58f6b68", "type": "electric_scooter", "name": "2cb40656a6cf9b45825126e4b58f6b68"}, {"is_disabled": 0, "is_reserved": 0, "fusion_lat": 0.0, "lat": 38.91364566666667, "fusion_lon": 0.0, "rental_uris": {"ios": "https://dc.lft.to/lastmile_qr_scan", "android": "https://dc.lft.to/lastmile_qr_scan"}, "lon": -77.04651916666667, "bike_id": "50a642b00719ac5ca9e4c3ef56483f94", "type": "electric_scooter", "name": "50a642b00719ac5ca9e4c3ef56483f94"}, {"is_disabled": 0, "is_reserved": 0, "fusion_lat": 0.0, "lat": 38.917203666666666, "fusion_lon": 0.0, "rental_uris": {"ios": "https://dc.lft.to/lastmile_qr_scan", "android": "https://dc.lft.to/lastmile_qr_scan"}, "lon": -77.032082, "bike_id": "a030c5aa6f3c4f4d282b5d79bf31ae9a", "type": "electric_scooter", "name": "a030c5aa6f3c4f4d282b5d79bf31ae9a"}, {"is_disabled": 0, "is_reserved": 0, "fusion_lat": 0.0, "lat": 38.935324333333334, "fusion_lon": 0.0, "rental_uris": {"ios": "https://dc.lft.to/lastmile_qr_scan", "android": "https://dc.lft.to/lastmile_qr_scan"}, "lon": -77.05449616666667, "bike_id": "2806a3bb523e3d530ca96cfb48f5a7f1", "type": "electric_scooter", "name": "2806a3bb523e3d530ca96cfb48f5a7f1"}, {"is_disabled": 0, "is_reserved": 0, "fusion_lat": 0.0, "lat": 38.913341333333335, "fusion_lon": 0.0, "rental_uris": {"ios": "https://dc.lft.to/lastmile_qr_scan", "android": "https://dc.lft.to/lastmile_qr_scan"}, "lon": -77.04527166666666, "bike_id": "3b575368f5cb8ce6095249f34d4adc58", "type": "electric_scooter", "name": "3b575368f5cb8ce6095249f34d4adc58"}, {"is_disabled": 0, "is_reserved": 0, "fusion_lat": 0.0, "lat": 38.900015833333335, "fusion_lon": 0.0, "rental_uris": {"ios": "https://dc.lft.to/lastmile_qr_scan", "android": "https://dc.lft.to/lastmile_qr_scan"}, "lon": -77.02084033333334, "bike_id": "135d81ef739970853b012229ca018373", "type": "electric_scooter", "name": "135d81ef739970853b012229ca018373"}, {"is_disabled": 0, "is_reserved": 0, "fusion_lat": 0.0, "lat": 38.90132233333333, "fusion_lon": 0.0, "rental_uris": {"ios": "https://dc.lft.to/lastmile_qr_scan", "android": "https://dc.lft.to/lastmile_qr_scan"}, "lon": -77.03377583333334, "bike_id": "5fd5414ecd81d99ef5b804facc9593d4", "type": "electric_scooter", "name": "5fd5414ecd81d99ef5b804facc9593d4"}, {"is_disabled": 0, "is_reserved": 0, "fusion_lat": 0.0, "lat": 38.905449, "fusion_lon": 0.0, "rental_uris": {"ios": "https://dc.lft.to/lastmile_qr_scan", "android": "https://dc.lft.to/lastmile_qr_scan"}, "lon": -77.056875, "bike_id": "05412b5a54d2b65dc1c523a2ab48d620", "type": "electric_scooter", "name": "05412b5a54d2b65dc1c523a2ab48d620"}, {"is_disabled": 0, "is_reserved": 0, "fusion_lat": 0.0, "lat": 38.90785616666667, "fusion_lon": 0.0, "rental_uris": {"ios": "https://dc.lft.to/lastmile_qr_scan", "android": "https://dc.lft.to/lastmile_qr_scan"}, "lon": -77.0684035, "bike_id": "f2a0adedefb53d6f88ca2a3168539e79", "type": "electric_scooter", "name": "f2a0adedefb53d6f88ca2a3168539e79"}, {"is_disabled": 0, "is_reserved": 0, "fusion_lat": 0.0, "lat": 38.91353433333333, "fusion_lon": 0.0, "rental_uris": {"ios": "https://dc.lft.to/lastmile_qr_scan", "android": "https://dc.lft.to/lastmile_qr_scan"}, "lon": -77.04416283333333, "bike_id": "d8891f15e27dc9b34c48dbaea7478aaf", "type": "electric_scooter", "name": "d8891f15e27dc9b34c48dbaea7478aaf"}, {"is_disabled": 0, "is_reserved": 0, "fusion_lat": 0.0, "lat": 38.920002833333335, "fusion_lon": 0.0, "rental_uris": {"ios": "https://dc.lft.to/lastmile_qr_scan", "android": "https://dc.lft.to/lastmile_qr_scan"}, "lon": -77.03218283333334, "bike_id": "3e12978a4c99aa7304f298ef4f4834aa", "type": "electric_scooter", "name": "3e12978a4c99aa7304f298ef4f4834aa"}, {"is_disabled": 0, "is_reserved": 0, "fusion_lat": 0.0, "lat": 38.917117833333336, "fusion_lon": 0.0, "rental_uris": {"ios": "https://dc.lft.to/lastmile_qr_scan", "android": "https://dc.lft.to/lastmile_qr_scan"}, "lon": -77.03854916666667, "bike_id": "a79a404c02ea4dd660839e2c593fb6f0", "type": "electric_scooter", "name": "a79a404c02ea4dd660839e2c593fb6f0"}, {"is_disabled": 0, "is_reserved": 0, "fusion_lat": 0.0, "lat": 38.9510495, "fusion_lon": 0.0, "rental_uris": {"ios": "https://dc.lft.to/lastmile_qr_scan", "android": "https://dc.lft.to/lastmile_qr_scan"}, "lon": -77.01908883333333, "bike_id": "c5e85f43731f67f8f9e7ec239a6eff85", "type": "electric_scooter", "name": "c5e85f43731f67f8f9e7ec239a6eff85"}, {"is_disabled": 0, "is_reserved": 0, "fusion_lat": 0.0, "lat": 38.91562616666667, "fusion_lon": 0.0, "rental_uris": {"ios": "https://dc.lft.to/lastmile_qr_scan", "android": "https://dc.lft.to/lastmile_qr_scan"}, "lon": -77.03140216666667, "bike_id": "42115d3247c0cbf07b02fa711653c70e", "type": "electric_scooter", "name": "42115d3247c0cbf07b02fa711653c70e"}, {"is_disabled": 0, "is_reserved": 0, "fusion_lat": 0.0, "lat": 38.908279666666665, "fusion_lon": 0.0, "rental_uris": {"ios": "https://dc.lft.to/lastmile_qr_scan", "android": "https://dc.lft.to/lastmile_qr_scan"}, "lon": -77.03188466666667, "bike_id": "df7d1c366e3086c2b542b0984542b82c", "type": "electric_scooter", "name": "df7d1c366e3086c2b542b0984542b82c"}, {"is_disabled": 0, "is_reserved": 0, "fusion_lat": 0.0, "lat": 38.92380933333333, "fusion_lon": 0.0, "rental_uris": {"ios": "https://dc.lft.to/lastmile_qr_scan", "android": "https://dc.lft.to/lastmile_qr_scan"}, "lon": -77.02030266666667, "bike_id": "c31dbe6771412e5704504c212cb22221", "type": "electric_scooter", "name": "c31dbe6771412e5704504c212cb22221"}, {"is_disabled": 0, "is_reserved": 0, "fusion_lat": 0.0, "lat": 38.90663633333333, "fusion_lon": 0.0, "rental_uris": {"ios": "https://dc.lft.to/lastmile_qr_scan", "android": "https://dc.lft.to/lastmile_qr_scan"}, "lon": -76.98598683333333, "bike_id": "eb7ae2a3e8db8ec98311cae42763673f", "type": "electric_scooter", "name": "eb7ae2a3e8db8ec98311cae42763673f"}, {"is_disabled": 0, "is_reserved": 0, "fusion_lat": 0.0, "lat": 38.9127755, "fusion_lon": 0.0, "rental_uris": {"ios": "https://dc.lft.to/lastmile_qr_scan", "android": "https://dc.lft.to/lastmile_qr_scan"}, "lon": -77.04505583333334, "bike_id": "7f6fef92164948b1f218137f42a209d4", "type": "electric_scooter", "name": "7f6fef92164948b1f218137f42a209d4"}, {"is_disabled": 0, "is_reserved": 0, "fusion_lat": 0.0, "lat": 38.89546816666667, "fusion_lon": 0.0, "rental_uris": {"ios": "https://dc.lft.to/lastmile_qr_scan", "android": "https://dc.lft.to/lastmile_qr_scan"}, "lon": -77.039736, "bike_id": "7208d0f65c0af136d62e3a0fb66f7558", "type": "electric_scooter", "name": "7208d0f65c0af136d62e3a0fb66f7558"}, {"is_disabled": 0, "is_reserved": 0, "fusion_lat": 0.0, "lat": 38.919275, "fusion_lon": 0.0, "rental_uris": {"ios": "https://dc.lft.to/lastmile_qr_scan", "android": "https://dc.lft.to/lastmile_qr_scan"}, "lon": -77.00975266666667, "bike_id": "dc361a808ac578b61d4e6cc25d90a3a1", "type": "electric_scooter", "name": "dc361a808ac578b61d4e6cc25d90a3a1"}, {"is_disabled": 0, "is_reserved": 0, "fusion_lat": 0.0, "lat": 38.92215483333333, "fusion_lon": 0.0, "rental_uris": {"ios": "https://dc.lft.to/lastmile_qr_scan", "android": "https://dc.lft.to/lastmile_qr_scan"}, "lon": -77.04258, "bike_id": "af614f4023c5972fa76dd0e317df9174", "type": "electric_scooter", "name": "af614f4023c5972fa76dd0e317df9174"}, {"is_disabled": 0, "is_reserved": 0, "fusion_lat": 0.0, "lat": 38.9217755, "fusion_lon": 0.0, "rental_uris": {"ios": "https://dc.lft.to/lastmile_qr_scan", "android": "https://dc.lft.to/lastmile_qr_scan"}, "lon": -77.0422085, "bike_id": "70e8686034bca22396a30aab27f0dd01", "type": "electric_scooter", "name": "70e8686034bca22396a30aab27f0dd01"}, {"is_disabled": 0, "is_reserved": 0, "fusion_lat": 0.0, "lat": 38.910668, "fusion_lon": 0.0, "rental_uris": {"ios": "https://dc.lft.to/lastmile_qr_scan", "android": "https://dc.lft.to/lastmile_qr_scan"}, "lon": -77.00344233333334, "bike_id": "3ad293f788867011663048f4daea41c0", "type": "electric_scooter", "name": "3ad293f788867011663048f4daea41c0"}, {"is_disabled": 0, "is_reserved": 0, "fusion_lat": 0.0, "lat": 38.924388666666665, "fusion_lon": 0.0, "rental_uris": {"ios": "https://dc.lft.to/lastmile_qr_scan", "android": "https://dc.lft.to/lastmile_qr_scan"}, "lon": -77.02977416666667, "bike_id": "60f497deb9299dc9f7957faf0a747888", "type": "electric_scooter", "name": "60f497deb9299dc9f7957faf0a747888"}, {"is_disabled": 0, "is_reserved": 0, "fusion_lat": 0.0, "lat": 38.90251583333333, "fusion_lon": 0.0, "rental_uris": {"ios": "https://dc.lft.to/lastmile_qr_scan", "android": "https://dc.lft.to/lastmile_qr_scan"}, "lon": -77.01513166666666, "bike_id": "97501ca9817dc76b81cfe5b8d30cfd87", "type": "electric_scooter", "name": "97501ca9817dc76b81cfe5b8d30cfd87"}, {"is_disabled": 0, "is_reserved": 0, "fusion_lat": 0.0, "lat": 38.91862033333334, "fusion_lon": 0.0, "rental_uris": {"ios": "https://dc.lft.to/lastmile_qr_scan", "android": "https://dc.lft.to/lastmile_qr_scan"}, "lon": -77.02808483333334, "bike_id": "a537d0f11644e3647ef1a148bebccb1b", "type": "electric_scooter", "name": "a537d0f11644e3647ef1a148bebccb1b"}, {"is_disabled": 0, "is_reserved": 0, "fusion_lat": 0.0, "lat": 38.91131016666667, "fusion_lon": 0.0, "rental_uris": {"ios": "https://dc.lft.to/lastmile_qr_scan", "android": "https://dc.lft.to/lastmile_qr_scan"}, "lon": -77.03200433333333, "bike_id": "e2a97c13b40ec762d5f31ada1afb0a1d", "type": "electric_scooter", "name": "e2a97c13b40ec762d5f31ada1afb0a1d"}, {"is_disabled": 0, "is_reserved": 0, "fusion_lat": 0.0, "lat": 38.9427455, "fusion_lon": 0.0, "rental_uris": {"ios": "https://dc.lft.to/lastmile_qr_scan", "android": "https://dc.lft.to/lastmile_qr_scan"}, "lon": -77.029343, "bike_id": "bb6a3be8ef2628b487be3a4cc9790cd7", "type": "electric_scooter", "name": "bb6a3be8ef2628b487be3a4cc9790cd7"}, {"is_disabled": 0, "is_reserved": 0, "fusion_lat": 0.0, "lat": 38.89839383333333, "fusion_lon": 0.0, "rental_uris": {"ios": "https://dc.lft.to/lastmile_qr_scan", "android": "https://dc.lft.to/lastmile_qr_scan"}, "lon": -77.02709716666666, "bike_id": "34e13a3c59e07be1aed2b7ba064df1ca", "type": "electric_scooter", "name": "34e13a3c59e07be1aed2b7ba064df1ca"}, {"is_disabled": 0, "is_reserved": 0, "fusion_lat": 0.0, "lat": 38.82763883333333, "fusion_lon": 0.0, "rental_uris": {"ios": "https://dc.lft.to/lastmile_qr_scan", "android": "https://dc.lft.to/lastmile_qr_scan"}, "lon": -77.05027816666667, "bike_id": "637f1df6c646b57b104a55e202b52b10", "type": "electric_bike", "name": "637f1df6c646b57b104a55e202b52b10"}, {"is_disabled": 0, "is_reserved": 0, "fusion_lat": 0.0, "lat": 38.91804, "fusion_lon": 0.0, "rental_uris": {"ios": "https://dc.lft.to/lastmile_qr_scan", "android": "https://dc.lft.to/lastmile_qr_scan"}, "lon": -77.02490816666666, "bike_id": "20bb7ac6dd8fec83901b7a6a19da28be", "type": "electric_scooter", "name": "20bb7ac6dd8fec83901b7a6a19da28be"}, {"is_disabled": 0, "is_reserved": 0, "fusion_lat": 0.0, "lat": 38.924218833333335, "fusion_lon": 0.0, "rental_uris": {"ios": "https://dc.lft.to/lastmile_qr_scan", "android": "https://dc.lft.to/lastmile_qr_scan"}, "lon": -77.0506585, "bike_id": "bedf76185a377d623c7552b94f1ed715", "type": "electric_scooter", "name": "bedf76185a377d623c7552b94f1ed715"}, {"is_disabled": 0, "is_reserved": 0, "fusion_lat": 0.0, "lat": 38.92818716666667, "fusion_lon": 0.0, "rental_uris": {"ios": "https://dc.lft.to/lastmile_qr_scan", "android": "https://dc.lft.to/lastmile_qr_scan"}, "lon": -76.97608866666667, "bike_id": "896298363fb14f281aedf719c2ef96ea", "type": "electric_scooter", "name": "896298363fb14f281aedf719c2ef96ea"}, {"is_disabled": 0, "is_reserved": 0, "fusion_lat": 0.0, "lat": 38.911099166666666, "fusion_lon": 0.0, "rental_uris": {"ios": "https://dc.lft.to/lastmile_qr_scan", "android": "https://dc.lft.to/lastmile_qr_scan"}, "lon": -77.02797883333334, "bike_id": "7ef9b845110da4eac3e8d62803dfe210", "type": "electric_bike", "name": "7ef9b845110da4eac3e8d62803dfe210"}, {"is_disabled": 0, "is_reserved": 0, "fusion_lat": 0.0, "lat": 38.90962583333334, "fusion_lon": 0.0, "rental_uris": {"ios": "https://dc.lft.to/lastmile_qr_scan", "android": "https://dc.lft.to/lastmile_qr_scan"}, "lon": -77.03282666666667, "bike_id": "8acc456e6684a6106c91f790f4ecc112", "type": "electric_scooter", "name": "8acc456e6684a6106c91f790f4ecc112"}, {"is_disabled": 0, "is_reserved": 0, "fusion_lat": 0.0, "lat": 38.909727, "fusion_lon": 0.0, "rental_uris": {"ios": "https://dc.lft.to/lastmile_qr_scan", "android": "https://dc.lft.to/lastmile_qr_scan"}, "lon": -77.04829966666667, "bike_id": "45bea7e86927d79f58d596e88b3b4faa", "type": "electric_scooter", "name": "45bea7e86927d79f58d596e88b3b4faa"}, {"is_disabled": 0, "is_reserved": 0, "fusion_lat": 0.0, "lat": 38.916850333333336, "fusion_lon": 0.0, "rental_uris": {"ios": "https://dc.lft.to/lastmile_qr_scan", "android": "https://dc.lft.to/lastmile_qr_scan"}, "lon": -77.02284133333333, "bike_id": "4d9be6e99f9aa702eeb3ea80337366e8", "type": "electric_scooter", "name": "4d9be6e99f9aa702eeb3ea80337366e8"}, {"is_disabled": 0, "is_reserved": 0, "fusion_lat": 0.0, "lat": 38.90626833333334, "fusion_lon": 0.0, "rental_uris": {"ios": "https://dc.lft.to/lastmile_qr_scan", "android": "https://dc.lft.to/lastmile_qr_scan"}, "lon": -77.04124216666666, "bike_id": "6fab83339600b8bed9e299688d832529", "type": "electric_scooter", "name": "6fab83339600b8bed9e299688d832529"}, {"is_disabled": 0, "is_reserved": 0, "fusion_lat": 0.0, "lat": 38.822095, "fusion_lon": 0.0, "rental_uris": {"ios": "https://dc.lft.to/lastmile_qr_scan", "android": "https://dc.lft.to/lastmile_qr_scan"}, "lon": -76.97702866666667, "bike_id": "4591979398a059ad8df2fd4f8d2f064e", "type": "electric_bike", "name": "4591979398a059ad8df2fd4f8d2f064e"}, {"is_disabled": 0, "is_reserved": 0, "fusion_lat": 0.0, "lat": 38.916452666666665, "fusion_lon": 0.0, "rental_uris": {"ios": "https://dc.lft.to/lastmile_qr_scan", "android": "https://dc.lft.to/lastmile_qr_scan"}, "lon": -77.003489, "bike_id": "3be98d1d79180bfcc83b3223537d968b", "type": "electric_scooter", "name": "3be98d1d79180bfcc83b3223537d968b"}, {"is_disabled": 0, "is_reserved": 0, "fusion_lat": 0.0, "lat": 38.90617, "fusion_lon": 0.0, "rental_uris": {"ios": "https://dc.lft.to/lastmile_qr_scan", "android": "https://dc.lft.to/lastmile_qr_scan"}, "lon": -77.04127066666666, "bike_id": "409a62fa19cd61091964731a0d890b4a", "type": "electric_scooter", "name": "409a62fa19cd61091964731a0d890b4a"}, {"is_disabled": 0, "is_reserved": 0, "fusion_lat": 0.0, "lat": 38.941026, "fusion_lon": 0.0, "rental_uris": {"ios": "https://dc.lft.to/lastmile_qr_scan", "android": "https://dc.lft.to/lastmile_qr_scan"}, "lon": -76.95627983333333, "bike_id": "44fde5e11ccf28e4c81f64622ffd73cb", "type": "electric_bike", "name": "44fde5e11ccf28e4c81f64622ffd73cb"}, {"is_disabled": 0, "is_reserved": 0, "fusion_lat": 0.0, "lat": 38.900794166666664, "fusion_lon": 0.0, "rental_uris": {"ios": "https://dc.lft.to/lastmile_qr_scan", "android": "https://dc.lft.to/lastmile_qr_scan"}, "lon": -77.05055416666667, "bike_id": "8bae251c74cd7334246aec1d59511a25", "type": "electric_scooter", "name": "8bae251c74cd7334246aec1d59511a25"}, {"is_disabled": 0, "is_reserved": 0, "fusion_lat": 0.0, "lat": 38.905056333333334, "fusion_lon": 0.0, "rental_uris": {"ios": "https://dc.lft.to/lastmile_qr_scan", "android": "https://dc.lft.to/lastmile_qr_scan"}, "lon": -77.02516466666667, "bike_id": "fedb7cd6a2155266a918e3c4f35d64f3", "type": "electric_scooter", "name": "fedb7cd6a2155266a918e3c4f35d64f3"}, {"is_disabled": 0, "is_reserved": 0, "fusion_lat": 0.0, "lat": 38.915851333333336, "fusion_lon": 0.0, "rental_uris": {"ios": "https://dc.lft.to/lastmile_qr_scan", "android": "https://dc.lft.to/lastmile_qr_scan"}, "lon": -76.9772315, "bike_id": "87baa7313d8c1f11629e5896e75e4e61", "type": "electric_scooter", "name": "87baa7313d8c1f11629e5896e75e4e61"}, {"is_disabled": 0, "is_reserved": 0, "fusion_lat": 0.0, "lat": 38.88664716666667, "fusion_lon": 0.0, "rental_uris": {"ios": "https://dc.lft.to/lastmile_qr_scan", "android": "https://dc.lft.to/lastmile_qr_scan"}, "lon": -77.16234933333334, "bike_id": "e8cc9596b2f687848927519055f2c99f", "type": "electric_bike", "name": "e8cc9596b2f687848927519055f2c99f"}, {"is_disabled": 0, "is_reserved": 0, "fusion_lat": 0.0, "lat": 38.91845166666667, "fusion_lon": 0.0, "rental_uris": {"ios": "https://dc.lft.to/lastmile_qr_scan", "android": "https://dc.lft.to/lastmile_qr_scan"}, "lon": -77.03177, "bike_id": "a5e99ad9ab036d34e3d626ef4a64e04c", "type": "electric_scooter", "name": "a5e99ad9ab036d34e3d626ef4a64e04c"}, {"is_disabled": 0, "is_reserved": 0, "fusion_lat": 0.0, "lat": 38.96765466666667, "fusion_lon": 0.0, "rental_uris": {"ios": "https://dc.lft.to/lastmile_qr_scan", "android": "https://dc.lft.to/lastmile_qr_scan"}, "lon": -77.03424233333334, "bike_id": "d33a5c4e900908ae889b991cb1bad286", "type": "electric_scooter", "name": "d33a5c4e900908ae889b991cb1bad286"}, {"is_disabled": 0, "is_reserved": 0, "fusion_lat": 0.0, "lat": 38.9275035, "fusion_lon": 0.0, "rental_uris": {"ios": "https://dc.lft.to/lastmile_qr_scan", "android": "https://dc.lft.to/lastmile_qr_scan"}, "lon": -77.02365, "bike_id": "c54f2512e1fb710a238e742413db4bda", "type": "electric_scooter", "name": "c54f2512e1fb710a238e742413db4bda"}, {"is_disabled": 0, "is_reserved": 0, "fusion_lat": 0.0, "lat": 38.8765955, "fusion_lon": 0.0, "rental_uris": {"ios": "https://dc.lft.to/lastmile_qr_scan", "android": "https://dc.lft.to/lastmile_qr_scan"}, "lon": -77.00882833333333, "bike_id": "13c59129721b2aa710abf66d31e89532", "type": "electric_scooter", "name": "13c59129721b2aa710abf66d31e89532"}, {"is_disabled": 0, "is_reserved": 0, "fusion_lat": 0.0, "lat": 38.863705833333334, "fusion_lon": 0.0, "rental_uris": {"ios": "https://dc.lft.to/lastmile_qr_scan", "android": "https://dc.lft.to/lastmile_qr_scan"}, "lon": -76.97009566666667, "bike_id": "71d03e7e6f4429d681a4f550854f2f6b", "type": "electric_bike", "name": "71d03e7e6f4429d681a4f550854f2f6b"}, {"is_disabled": 0, "is_reserved": 0, "fusion_lat": 0.0, "lat": 38.90581683333333, "fusion_lon": 0.0, "rental_uris": {"ios": "https://dc.lft.to/lastmile_qr_scan", "android": "https://dc.lft.to/lastmile_qr_scan"}, "lon": -77.04661283333333, "bike_id": "a8ab84f2b316ddb9b1cfb91b05552042", "type": "electric_scooter", "name": "a8ab84f2b316ddb9b1cfb91b05552042"}, {"is_disabled": 0, "is_reserved": 0, "fusion_lat": 0.0, "lat": 38.883643666666664, "fusion_lon": 0.0, "rental_uris": {"ios": "https://dc.lft.to/lastmile_qr_scan", "android": "https://dc.lft.to/lastmile_qr_scan"}, "lon": -76.9278905, "bike_id": "01f376e0e4fe66de28c1054505ca6143", "type": "electric_scooter", "name": "01f376e0e4fe66de28c1054505ca6143"}, {"is_disabled": 0, "is_reserved": 0, "fusion_lat": 0.0, "lat": 38.89316266666667, "fusion_lon": 0.0, "rental_uris": {"ios": "https://dc.lft.to/lastmile_qr_scan", "android": "https://dc.lft.to/lastmile_qr_scan"}, "lon": -77.04482566666667, "bike_id": "c863d5cfd5efdb6390d7a14f3bb9e3c0", "type": "electric_scooter", "name": "c863d5cfd5efdb6390d7a14f3bb9e3c0"}, {"is_disabled": 0, "is_reserved": 0, "fusion_lat": 0.0, "lat": 38.907355833333334, "fusion_lon": 0.0, "rental_uris": {"ios": "https://dc.lft.to/lastmile_qr_scan", "android": "https://dc.lft.to/lastmile_qr_scan"}, "lon": -77.02953383333333, "bike_id": "a180fc22addd28f78901e75ce8d32eef", "type": "electric_scooter", "name": "a180fc22addd28f78901e75ce8d32eef"},