{"data": {"bikes": [{"is_disabled": 0, "is_reserved": 0, "fusion_lat": 0.0, "lat": 38.875703333333334, "fusion_lon": 0.0, "rental_uris": {"ios": "https://dc.lft.to/lastmile_qr_scan", "android": "https://dc.lft.to/lastmile_qr_scan"}, "lon": -77.00593783333333, "bike_id": "ed0f8d74afa2c6a0ad7a3992ffe9d321", "type": "electric_scooter", "name": "ed0f8d74afa2c6a0ad7a3992ffe9d321"}, {"is_disabled": 0, "is_reserved": 0, "fusion_lat": 0.0, "lat": 38.93711533333333, "fusion_lon": 0.0, "rental_uris": {"ios": "https://dc.lft.to/lastmile_qr_scan", "android": "https://dc.lft.to/lastmile_qr_scan"}, "lon": -77.02385016666666, "bike_id": "b93289c3b315695147e6fa2de124f94b", "type": "electric_scooter", "name": "b93289c3b315695147e6fa2de124f94b"}, {"is_disabled": 0, "is_reserved": 0, "fusion_lat": 0.0, "lat": 38.91833233333333, "fusion_lon": 0.0, "rental_uris": {"ios": "https://dc.lft.to/lastmile_qr_scan", "android": "https://dc.lft.to/lastmile_qr_scan"}, "lon": -77.04507583333333, "bike_id": "b759b988f45041bb78ca20f27ebf3537", "type": "electric_scooter", "name": "b759b988f45041bb78ca20f27ebf3537"}, {"is_disabled": 0, "is_reserved": 0, "fusion_lat": 0.0, "lat": 38.89251266666667, "fusion_lon": 0.0, "rental_uris": {"ios": "https://dc.lft.to/lastmile_qr_scan", "android": "https://dc.lft.to/lastmile_qr_scan"}, "lon": -77.04659483333333, "bike_id": "3575bce729e1f26bc9bc5c77eb22d2b0", "type": "electric_scooter", "name": "3575bce729e1f26bc9bc5c77eb22d2b0"}, {"is_disabled": 0, "is_reserved": 0, "fusion_lat": 0.0, "lat": 38.92984516666667, "fusion_lon": 0.0, "rental_uris": {"ios": "https://dc.lft.to/lastmile_qr_scan", "android": "https://dc.lft.to/lastmile_qr_scan"}, "lon": -77.014677, "bike_id": "6c34828d525ff88255d9033260614e90", "type": "electric_scooter", "name": "6c34828d525ff88255d9033260614e90"}, {"is_disabled": 0, "is_reserved": 0, "fusion_lat": 0.0, "lat": 38.936057166666664, "fusion_lon": 0.0, "rental_uris": {"ios": "https://dc.lft.to/lastmile_qr_scan", "android": "https://dc.lft.to/lastmile_qr_scan"}, "lon": -77.03804966666667, "bike_id": "d634e3b4f3a6bb64c9d2e3bc15800721", "type": "electric_scooter", "name": "d634e3b4f3a6bb64c9d2e3bc15800721"}, {"is_disabled": 0, "is_reserved": 0, "fusion_lat": 0.0, "lat": 38.905341166666666, "fusion_lon": 0.0, "rental_uris": {"ios": "https://dc.lft.to/lastmile_qr_scan", "android": "https://dc.lft.to/lastmile_qr_scan"}, "lon": -77.06275133333334, "bike_id": "60c099c3159b9d9c7ccb2f6cc8fce36c", "type": "electric_bike", "name": "60c099c3159b9d9c7ccb2f6cc8fce36c"}, {"is_disabled": 0, "is_reserved": 0, "fusion_lat": 0.0, "lat": 38.90525066666667, "fusion_lon": 0.0, "rental_uris": {"ios": "https://dc.lft.to/lastmile_qr_scan", "android": "https://dc.lft.to/lastmile_qr_scan"}, "lon": -77.02950483333333, "bike_id": "48bff64f25f16a0041309b16ebf706bb", "type": "electric_scooter", "name": "48bff64f25f16a0041309b16ebf706bb"}, {"is_disabled": 0, "is_reserved": 0, "fusion_lat": 0.0, "lat": 38.89294316666667, "fusion_lon": 0.0, "rental_uris": {"ios": "https://dc.lft.to/lastmile_qr_scan", "android": "https://dc.lft.to/lastmile_qr_scan"}, "lon": -76.97617216666667, "bike_id": "27ddeeace6aa507a62698b9ddfd374e9", "type": "electric_bike", "name": "27ddeeace6aa507a62698b9ddfd374e9"}, {"is_disabled": 0, "is_reserved": 0, "fusion_lat": 0.0, "lat": 38.937024666666666, "fusion_lon": 0.0, "rental_uris": {"ios": "https://dc.lft.to/lastmile_qr_scan", "android": "https://dc.lft.to/lastmile_qr_scan"}, "lon": -77.056004, "bike_id": "6481a7cbe5d5190a4196d888606c1222", "type": "electric_scooter", "name": "6481a7cbe5d5190a4196d888606c1222"}, {"is_disabled": 0, "is_reserved": 0, "fusion_lat": 0.0, "lat": 38.924029833333336, "fusion_lon": 0.0, "rental_uris": {"ios": "https://dc.lft.to/lastmile_qr_scan", "android": "https://dc.lft.to/lastmile_qr_scan"}, "lon": -76.993825, "bike_id": "3558f6649d7508b21bc73e986f8b64ab", "type": "electric_scooter", "name": "3558f6649d7508b21bc73e986f8b64ab"}, {"is_disabled": 0, "is_reserved": 0, "fusion_lat": 0.0, "lat": 38.8920885, "fusion_lon": 0.0, "rental_uris": {"ios": "https://dc.lft.to/lastmile_qr_scan", "android": "https://dc.lft.to/lastmile_qr_scan"}, "lon": -76.99843583333333, "bike_id": "af14da461ee9c6e5eeafde613f4fb5fe", "type": "electric_scooter", "name": "af14da461ee9c6e5eeafde613f4fb5fe"}, {"is_disabled": 0, "is_reserved": 0, "fusion_lat": 0.0, "lat": 38.9326075, "fusion_lon": 0.0, "rental_uris": {"ios": "https://dc.lft.to/lastmile_qr_scan", "android": "https://dc.lft.to/lastmile_qr_scan"}, "lon": -77.03282916666667, "bike_id": "1f22c95b8f068866f59987997492319b", "type": "electric_scooter", "name": "1f22c95b8f068866f59987997492319b"}, {"is_disabled": 0, "is_reserved": 0, "fusion_lat": 0.0, "lat": 38.9312055, "fusion_lon": 0.0, "rental_uris": {"ios": "https://dc.lft.to/lastmile_qr_scan", "android": "https://dc.lft.to/lastmile_qr_scan"}, "lon": -77.02065966666666, "bike_id": "e4cfebdd56b6e708c7b8337089944dc8", "type": "electric_scooter", "name": "e4cfebdd56b6e708c7b8337089944dc8"}, {"is_disabled": 0, "is_reserved": 0, "fusion_lat": 0.0, "lat": 38.90797766666667, "fusion_lon": 0.0, "rental_uris": {"ios": "https://dc.lft.to/lastmile_qr_scan", "android": "https://dc.lft.to/lastmile_qr_scan"}, "lon": -77.0498785, "bike_id": "622b8d168530252729237857f03310d7", "type": "electric_scooter", "name": "622b8d168530252729237857f03310d7"}, {"is_disabled": 0, "is_reserved": 0, "fusion_lat": 0.0, "lat": 38.91856116666666, "fusion_lon": 0.0, "rental_uris": {"ios": "https://dc.lft.to/lastmile_qr_scan", "android": "https://dc.lft.to/lastmile_qr_scan"}, "lon": -77.04473433333334, "bike_id": "31667be93367fd98b4ebaa1834e5e064", "type": "electric_scooter", "name": "31667be93367fd98b4ebaa1834e5e064"}, {"is_disabled": 0, "is_reserved": 0, "fusion_lat": 0.0, "lat": 38.907371833333336, "fusion_lon": 0.0, "rental_uris": {"ios": "https://dc.lft.to/lastmile_qr_scan", "android": "https://dc.lft.to/lastmile_qr_scan"}, "lon": -77.0280095, "bike_id": "e8830ecb15c59e3ecf3e67b8cf90ed65", "type": "electric_scooter", "name": "e8830ecb15c59e3ecf3e67b8cf90ed65"}, {"is_disabled": 0, "is_reserved": 0, "fusion_lat": 0.0, "lat": 38.9199805, "fusion_lon": 0.0, "rental_uris": {"ios": "https://dc.lft.to/lastmile_qr_scan", "android": "https://dc.lft.to/lastmile_qr_scan"}, "lon": -77.041696, "bike_id": "ff864c77317bc6f8294b9f2d3331d8cf", "type": "electric_scooter", "name": "ff864c77317bc6f8294b9f2d3331d8cf"}, {"is_disabled": 0, "is_reserved": 0, "fusion_lat": 0.0, "lat": 38.92356133333333, "fusion_lon": 0.0, "rental_uris": {"ios": "https://dc.lft.to/lastmile_qr_scan", "android": "https://dc.lft.to/lastmile_qr_scan"}, "lon": -77.07311683333333, "bike_id": "c38236c92020215a6e4cd62d5561b289", "type": "electric_scooter", "name": "c38236c92020215a6e4cd62d5561b289"}, {"is_disabled": 0, "is_reserved": 0, "fusion_lat": 0.0, "lat": 38.93866633333333, "fusion_lon": 0.0, "rental_uris": {"ios": "https://dc.lft.to/lastmile_qr_scan", "android": "https://dc.lft.to/lastmile_qr_scan"}, "lon": -77.02591833333334, "bike_id": "420118d2917b2a891c5d0d92d7598d88", "type": "electric_scooter", "name": "420118d2917b2a891c5d0d92d7598d88"}, {"is_disabled": 0, "is_reserved": 0, "fusion_lat": 0.0, "lat": 38.892234, "fusion_lon": 0.0, "rental_uris": {"ios": "https://dc.lft.to/lastmile_qr_scan", "android": "https://dc.lft.to/lastmile_qr_scan"}, "lon": -77.046851, "bike_id": "c074072c52f6d43546ee1c0a00f7c115", "type": "electric_scooter", "name": "c074072c52f6d43546ee1c0a00f7c115"}, {"is_disabled": 0, "is_reserved": 0, "fusion_lat": 0.0, "lat": 38.90273066666666, "fusion_lon": 0.0, "rental_uris": {"ios": "https://dc.lft.to/lastmile_qr_scan", "android": "https://dc.lft.to/lastmile_qr_scan"}, "lon": -77.0275775, "bike_id": "420841c9be035e674ecd50cfd2f959bc", "type": "electric_scooter", "name": "420841c9be035e674ecd50cfd2f959bc"}, {"is_disabled": 0, "is_reserved": 0, "fusion_lat": 0.0, "lat": 38.907552833333334, "fusion_lon": 0.0, "rental_uris": {"ios": "https://dc.lft.to/lastmile_qr_scan", "android": "https://dc.lft.to/lastmile_qr_scan"}, "lon": -77.036612, "bike_id": "67d032badaf5518b73c2f06d8e45792f", "type": "electric_scooter", "name": "67d032badaf5518b73c2f06d8e45792f"}, {"is_disabled": 0, "is_reserved": 0, "fusion_lat": 0.0, "lat": 38.93904583333333, "fusion_lon": 0.0, "rental_uris": {"ios": "https://dc.lft.to/lastmile_qr_scan", "android": "https://dc.lft.to/lastmile_qr_scan"}, "lon": -77.03284416666666, "bike_id": "ba453ebcf49e34ecf3ae858a8888168a", "type": "electric_scooter", "name": "ba453ebcf49e34ecf3ae858a8888168a"}, {"is_disabled": 0, "is_reserved": 0, "fusion_lat": 0.0, "lat": 38.967764833333334, "fusion_lon": 0.0, "rental_uris": {"ios": "https://dc.lft.to/lastmile_qr_scan", "android": "https://dc.lft.to/lastmile_qr_scan"}, "lon": -76.99653933333333, "bike_id": "04fae0a2b670ebedcb26129e1d207875", "type": "electric_bike", "name": "04fae0a2b670ebedcb26129e1d207875"}, {"is_disabled": 0, "is_reserved": 0, "fusion_lat": 0.0, "lat": 38.911311, "fusion_lon": 0.0, "rental_uris": {"ios": "https://dc.lft.to/lastmile_qr_scan", "android": "https://dc.lft.to/lastmile_qr_scan"}, "lon": -76.9974485, "bike_id": "18e86a32795306bb6280da0670a12737", "type": "electric_scooter", "name": "18e86a32795306bb6280da0670a12737"}, {"is_disabled": 0, "is_reserved": 0, "fusion_lat": 0.0, "lat": 38.87894283333333, "fusion_lon": 0.0, "rental_uris": {"ios": "https://dc.lft.to/lastmile_qr_scan", "android": "https://dc.lft.to/lastmile_qr_scan"}, "lon": -76.9352895, "bike_id": "314943649942f82a6d300a18b66442a6", "type": "electric_scooter", "name": "314943649942f82a6d300a18b66442a6"}, {"is_disabled": 0, "is_reserved": 0, "fusion_lat": 0.0, "lat": 38.895003, "fusion_lon": 0.0, "rental_uris": {"ios": "https://dc.lft.to/lastmile_qr_scan", "android": "https://dc.lft.to/lastmile_qr_scan"}, "lon": -77.02813183333333, "bike_id": "2651af0852d9f9cb7b9ee717493528e5", "type": "electric_scooter", "name": "2651af0852d9f9cb7b9ee717493528e5"}, {"is_disabled": 0, "is_reserved": 0, "fusion_lat": 0.0, "lat": 38.862160833333334, "fusion_lon": 0.0, "rental_uris": {"ios": "https://dc.lft.to/lastmile_qr_scan", "android": "https://dc.lft.to/lastmile_qr_scan"}, "lon": -76.99480116666666, "bike_id": "7eef5cf138596ab3895f644f8ad7a21e", "type": "electric_scooter", "name": "7eef5cf138596ab3895f644f8ad7a21e"}, {"is_disabled": 0, "is_reserved": 0, "fusion_lat": 0.0, "lat": 38.949797833333335, "fusion_lon": 0.0, "rental_uris": {"ios": "https://dc.lft.to/lastmile_qr_scan", "android": "https://dc.lft.to/lastmile_qr_scan"}, "lon": -77.0243795, "bike_id": "8ae3d5a0e5e6d8441365618f2ebebdce", "type": "electric_scooter", "name": "8ae3d5a0e5e6d8441365618f2ebebdce"}, {"is_disabled": 0, "is_reserved": 0, "fusion_lat": 0.0, "lat": 38.919668, "fusion_lon": 0.0, "rental_uris": {"ios": "https://dc.lft.to/lastmile_qr_scan", "android": "https://dc.lft.to/lastmile_qr_scan"}, "lon": -77.019046, "bike_id": "eeccd1d61339298488c1140994fe2138", "type": "electric_scooter", "name": "eeccd1d61339298488c1140994fe2138"}, {"is_disabled": 0, "is_reserved": 0, "fusion_lat": 0.0, "lat": 38.92220533333333, "fusion_lon": 0.0, "rental_uris": {"ios": "https://dc.lft.to/lastmile_qr_scan", "android": "https://dc.lft.to/lastmile_qr_scan"}, "lon": -77.03900933333334, "bike_id": "3f3587fdd795b8ee0eeaad36c5cf9876", "type": "electric_scooter", "name": "3f3587fdd795b8ee0eeaad36c5cf9876"}, {"is_disabled": 0, "is_reserved": 0, "fusion_lat": 0.0, "lat": 38.92340133333333, "fusion_lon": 0.0, "rental_uris": {"ios": "https://dc.lft.to/lastmile_qr_scan", "android": "https://dc.lft.to/lastmile_qr_scan"}, "lon": -77.035174, "bike_id": "11a26a46ded0b40c5cfc7556c8ee257b", "type": "electric_scooter", "name": "11a26a46ded0b40c5cfc7556c8ee257b"}, {"is_disabled": 0, "is_reserved": 0, "fusion_lat": 0.0, "lat": 38.93658, "fusion_lon": 0.0, "rental_uris": {"ios": "https://dc.lft.to/lastmile_qr_scan", "android": "https://dc.lft.to/lastmile_qr_scan"}, "lon": -77.03651516666666, "bike_id": "7bba58c2d3ce507b690695f81c9c7c9f", "type": "electric_scooter", "name": "7bba58c2d3ce507b690695f81c9c7c9f"}, {"is_disabled": 0, "is_reserved": 0, "fusion_lat": 0.0, "lat": 38.895307833333334, "fusion_lon": 0.0, "rental_uris": {"ios": "https://dc.lft.to/lastmile_qr_scan", "android": "https://dc.lft.to/lastmile_qr_scan"}, "lon": -77.03209683333333, "bike_id": "226c8e8f2fbcd7100d5207cefa62e2af", "type": "electric_scooter", "name": "226c8e8f2fbcd7100d5207cefa62e2af"}, {"is_disabled": 0, "is_reserved": 0, "fusion_lat": 0.0, "lat": 38.892017833333334, "fusion_lon": 0.0, "rental_uris": {"ios": "https://dc.lft.to/lastmile_qr_scan", "android": "https://dc.lft.to/lastmile_qr_scan"}, "lon": -76.99854383333333, "bike_id": "318624ec6ed711c0f63ea5dd9294510c", "type": "electric_scooter", "name": "318624ec6ed711c0f63ea5dd9294510c"}, {"is_disabled": 0, "is_reserved": 0, "fusion_lat": 0.0, "lat": 38.929692, "fusion_lon": 0.0, "rental_uris": {"ios": "https://dc.lft.to/lastmile_qr_scan", "android": "https://dc.lft.to/lastmile_qr_scan"}, "lon": -77.03276216666667, "bike_id": "9943acd3cdc842163565e1a8312c3391", "type": "electric_scooter", "name": "9943acd3cdc842163565e1a8312c3391"}, {"is_disabled": 0, "is_reserved": 0, "fusion_lat": 0.0, "lat": 38.9208895, "fusion_lon": 0.0, "rental_uris": {"ios": "https://dc.lft.to/lastmile_qr_scan", "android": "https://dc.lft.to/lastmile_qr_scan"}, "lon": -77.02251133333333, "bike_id": "f47b00d30c3ac90a7c1bb62d69b72257", "type": "electric_scooter", "name": "f47b00d30c3ac90a7c1bb62d69b72257"}, {"is_disabled": 0, "is_reserved": 0, "fusion_lat": 0.0, "lat": 38.950848666666666, "fusion_lon": 0.0, "rental_uris": {"ios": "https://dc.lft.to/lastmile_qr_scan", "android": "https://dc.lft.to/lastmile_qr_scan"}, "lon": -76.997936, "bike_id": "b0b03cec78183e1f8f69e7da946ae50e", "type": "electric_bike", "name": "b0b03cec78183e1f8f69e7da946ae50e"}, {"is_disabled": 0, "is_reserved": 0, "fusion_lat": 0.0, "lat": 39.042428, "fusion_lon": 0.0, "rental_uris": {"ios": "https://dc.lft.to/lastmile_qr_scan", "android": "https://dc.lft.to/lastmile_qr_scan"}, "lon": -76.99735466666667, "bike_id": "07f480fe07098adc2c13cea328078de4", "type": "electric_bike", "name": "07f480fe07098adc2c13cea328078de4"}, {"is_disabled": 0, "is_reserved": 0, "fusion_lat": 0.0, "lat": 38.92011766666667, "fusion_lon": 0.0, "rental_uris": {"ios": "https://dc.lft.to/lastmile_qr_scan", "android": "https://dc.lft.to/lastmile_qr_scan"}, "lon": -76.98501683333333, "bike_id": "16893eb4bcf693249088739d7ee37143", "type": "electric_scooter", "name": "16893eb4bcf693249088739d7ee37143"}, {"is_disabled": 0, "is_reserved": 0, "fusion_lat": 0.0, "lat": 38.925757, "fusion_lon": 0.0, "rental_uris": {"ios": "https://dc.lft.to/lastmile_qr_scan", "android": "https://dc.lft.to/lastmile_qr_scan"}, "lon": -76.99492033333334, "bike_id": "ea22b2291e155125e2ce15b5b3127291", "type": "electric_scooter", "name": "ea22b2291e155125e2ce15b5b3127291"}, {"is_disabled": 0, "is_reserved": 0, "fusion_lat": 0.0, "lat": 38.9984875, "fusion_lon": 0.0, "rental_uris": {"ios": "https://dc.lft.to/lastmile_qr_scan", "android": "https://dc.lft.to/lastmile_qr_scan"}, "lon": -77.0024965, "bike_id": "101b4e47849f3dc6618ac80de4691a5d", "type": "electric_bike", "name": "101b4e47849f3dc6618ac80de4691a5d"}, {"is_disabled": 0, "is_reserved": 0, "fusion_lat": 0.0, "lat": 38.90508233333333, "fusion_lon": 0.0, "rental_uris": {"ios": "https://dc.lft.to/lastmile_qr_scan", "android": "https://dc.lft.to/lastmile_qr_scan"}, "lon": -77.067415, "bike_id": "04e78ad8313a593939c5388f475211f2", "type": "electric_scooter", "name": "04e78ad8313a593939c5388f475211f2"}, {"is_disabled": 0, "is_reserved": 0, "fusion_lat": 0.0, "lat": 38.89843033333333, "fusion_lon": 0.0, "rental_uris": {"ios": "https://dc.lft.to/lastmile_qr_scan", "android": "https://dc.lft.to/lastmile_qr_scan"}, "lon": -77.007549, "bike_id": "ff538e53bf14f393c792331092625842", "type": "electric_scooter", "name": "ff538e53bf14f393c792331092625842"}, {"is_disabled": 0, "is_reserved": 0, "fusion_lat": 0.0, "lat": 38.89541066666666, "fusion_lon": 0.0, "rental_uris": {"ios": "https://dc.lft.to/lastmile_qr_scan", "android": "https://dc.lft.to/lastmile_qr_scan"}, "lon": -76.98375183333333, "bike_id": "6f57747e502d1d4fead0226256b847c1", "type": "electric_scooter", "name": "6f57747e502d1d4fead0226256b847c1"}, {"is_disabled": 0, "is_reserved": 0, "fusion_lat": 0.0, "lat": 38.90347666666667, "fusion_lon": 0.0, "rental_uris": {"ios": "https://dc.lft.to/lastmile_qr_scan", "android": "https://dc.lft.to/lastmile_qr_scan"}, "lon": -76.98272733333333, "bike_id": "371cd96911b3e1cfb8c69f2e7fa2bf69", "type": "electric_scooter", "name": "371cd96911b3e1cfb8c69f2e7fa2bf69"}, {"is_disabled": 0, "is_reserved": 0, "fusion_lat": 0.0, "lat": 38.842906666666664, "fusion_lon": 0.0, "rental_uris": {"ios": "https://dc.lft.to/lastmile_qr_scan", "android": "https://dc.lft.to/lastmile_qr_scan"}, "lon": -77.06383716666667, "bike_id": "d630cba9566d406bc6967aa04936aead", "type": "electric_bike", "name": "d630cba9566d406bc6967aa04936aead"}, {"is_disabled": 0, "is_reserved": 0, "fusion_lat": 0.0, "lat": 38.91418733333333, "fusion_lon": 0.0, "rental_uris": {"ios": "https://dc.lft.to/lastmile_qr_scan", "android": "https://dc.lft.to/lastmile_qr_scan"}, "lon": -77.03173816666667, "bike_id": "e0bcfea554fb52556e94dd488758fcc7", "type": "electric_scooter", "name": "e0bcfea554fb52556e94dd488758fcc7"}, {"is_disabled": 0, "is_reserved": 0, "fusion_lat": 0.0, "lat": 38.987241166666664, "fusion_lon": 0.0, "rental_uris": {"ios": "https://dc.lft.to/lastmile_qr_scan", "android": "https://dc.lft.to/lastmile_qr_scan"}, "lon": -77.0375425, "bike_id": "565d8870d32687f0df10432390df3596", "type": "electric_bike", "name": "565d8870d32687f0df10432390df3596"}, {"is_disabled": 0, "is_reserved": 0, "fusion_lat": 0.0, "lat": 38.898446, "fusion_lon": 0.0, "rental_uris": {"ios": "https://dc.lft.to/lastmile_qr_scan", "android": "https://dc.lft.to/lastmile_qr_scan"}, "lon": -77.02239633333333, "bike_id": "1f588559448f6a3809ca07d54963e189", "type": "electric_scooter", "name": "1f588559448f6a3809ca07d54963e189"}, {"is_disabled": 0, "is_reserved": 0, "fusion_lat": 0.0, "lat": 38.888863666666666, "fusion_lon": 0.0, "rental_uris": {"ios": "https://dc.lft.to/lastmile_qr_scan", "android": "https://dc.lft.to/lastmile_qr_scan"}, "lon": -77.033215, "bike_id": "95dd66b11997a1ee3969ea7ae3e21f1a", "type": "electric_scooter", "name": "95dd66b11997a1ee3969ea7ae3e21f1a"}, {"is_disabled": 0, "is_reserved": 0, "fusion_lat": 0.0, "lat": 38.881317, "fusion_lon": 0.0, "rental_uris": {"ios": "https://dc.lft.to/lastmile_qr_scan", "android": "https://dc.lft.to/lastmile_qr_scan"}, "lon": -77.02707633333333, "bike_id": "7c733819cfad8ca9ef33fa33026c2c6a", "type": "electric_scooter", "name": "7c733819cfad8ca9ef33fa33026c2c6a"}, {"is_disabled": 0, "is_reserved": 0, "fusion_lat": 0.0, "lat": 38.975971666666666, "fusion_lon": 0.0, "rental_uris": {"ios": "https://dc.lft.to/lastmile_qr_scan", "android": "https://dc.lft.to/lastmile_qr_scan"}, "lon": -77.01869216666667, "bike_id": "b38966ba4e2274cb4d8e3ca7c9255e57", "type": "electric_scooter", "name": "b38966ba4e2274cb4d8e3ca7c9255e57"}, {"is_disabled": 0, "is_reserved": 0, "fusion_lat": 0.0, "lat": 38.933974, "fusion_lon": 0.0, "rental_uris": {"ios": "https://dc.lft.to/lastmile_qr_scan", "android": "https://dc.lft.to/lastmile_qr_scan"}, "lon": -77.05741233333333, "bike_id": "a34134b66bc2190462e18aa46c539005", "type": "electric_scooter", "name": "a34134b66bc2190462e18aa46c539005"}, {"is_disabled": 0, "is_reserved": 0, "fusion_lat": 0.0, "lat": 38.867806333333334, "fusion_lon": 0.0, "rental_uris": {"ios": "https://dc.lft.to/lastmile_qr_scan", "android": "https://dc.lft.to/lastmile_qr_scan"}, "lon": -77.06627366666666, "bike_id": "ac9699b1bb1ce59f047ee4f281fdcd7f", "type": "electric_bike", "name": "ac9699b1bb1ce59f047ee4f281fdcd7f"}, {"is_disabled": 0, "is_reserved": 0, "fusion_lat": 0.0, "lat": 38.8997535, "fusion_lon": 0.0, "rental_uris": {"ios": "https://dc.lft.to/lastmile_qr_scan", "android": "https://dc.lft.to/lastmile_qr_scan"}, "lon": -76.99484183333334, "bike_id": "508595984bb34add69b44fd031802959", "type": "electric_scooter", "name": "508595984bb34add69b44fd031802959"}, {"is_disabled": 0, "is_reserved": 0, "fusion_lat": 0.0, "lat": 38.930642, "fusion_lon": 0.0, "rental_uris": {"ios": "https://dc.lft.to/lastmile_qr_scan", "android": "https://dc.lft.to/lastmile_qr_scan"}, "lon": -77.0405105, "bike_id": "c5031d1df23e1954d76b6d5a379d3777", "type": "electric_scooter", "name": "c5031d1df23e1954d76b6d5a379d3777"}, {"is_disabled": 0, "is_reserved": 0, "fusion_lat": 0.0, "lat": 38.92521583333333, "fusion_lon": 0.0, "rental_uris": {"ios": "https://dc.lft.to/lastmile_qr_scan", "android": "https://dc.lft.to/lastmile_qr_scan"}, "lon": -77.03878466666667, "bike_id": "ddffc4602c8efbdcaf30dfd561d2b098", "type": "electric_scooter", "name": "ddffc4602c8efbdcaf30dfd561d2b098"}, {"is_disabled": 0, "is_reserved": 0, "fusion_lat": 0.0, "lat": 38.936017166666666, "fusion_lon": 0.0, "rental_uris": {"ios": "https://dc.lft.to/lastmile_qr_scan", "android": "https://dc.lft.to/lastmile_qr_scan"}, "lon": -77.05605333333334, "bike_id": "5fd7603c39a0e40acedf62373cb6a304", "type": "electric_scooter", "name": "5fd7603c39a0e40acedf62373cb6a304"}, {"is_disabled": 0, "is_reserved": 0, "fusion_lat": 0.0, "lat": 38.92150433333333, "fusion_lon": 0.0, "rental_uris": {"ios": "https://dc.lft.to/lastmile_qr_scan", "android": "https://dc.lft.to/lastmile_qr_scan"}, "lon": -77.0364845, "bike_id": "6cca4e61bd41ab809cbd4b293ea850c6", "type": "electric_scooter", "name": "6cca4e61bd41ab809cbd4b293ea850c6"}, {"is_disabled": 0, "is_reserved": 0, "fusion_lat": 0.0, "lat": 38.91270266666667, "fusion_lon": 0.0, "rental_uris": {"ios": "https://dc.lft.to/lastmile_qr_scan", "android": "https://dc.lft.to/lastmile_qr_scan"}, "lon": -77.02229883333334, "bike_id": "6b39018b37bb50af109e530e15264f19", "type": "electric_scooter", "name": "6b39018b37bb50af109e530e15264f19"}, {"is_disabled": 0, "is_reserved": 0, "fusion_lat": 0.0, "lat": 38.8710565, "fusion_lon": 0.0, "rental_uris": {"ios": "https://dc.lft.to/lastmile_qr_scan", "android": "https://dc.lft.to/lastmile_qr_scan"}, "lon": -77.00795216666667, "bike_id": "84ab35f9e85b80ae91a8b9aceda44786", "type": "electric_scooter", "name": "84ab35f9e85b80ae91a8b9aceda44786"}, {"is_disabled": 0, "is_reserved": 0, "fusion_lat": 0.0, "lat": 38.9820795, "fusion_lon": 0.0, "rental_uris": {"ios": "https://dc.lft.to/lastmile_qr_scan", "android": "https://dc.lft.to/lastmile_qr_scan"}, "lon": -76.97817416666666, "bike_id": "63dd76ad30f1f1b5f0e0be9379e3eac6", "type": "electric_bike", "name": "63dd76ad30f1f1b5f0e0be9379e3eac6"}, {"is_disabled": 0, "is_reserved": 0, "fusion_lat": 0.0, "lat": 38.927795833333334, "fusion_lon": 0.0, "rental_uris": {"ios": "https://dc.lft.to/lastmile_qr_scan", "android": "https://dc.lft.to/lastmile_qr_scan"}, "lon": -77.05259516666666, "bike_id": "5f25d67fd4cca35fa243bf3661d3ee8f", "type": "electric_scooter", "name": "5f25d67fd4cca35fa243bf3661d3ee8f"}, {"is_disabled": 0, "is_reserved": 0, "fusion_lat": 0.0, "lat": 38.90697083333333, "fusion_lon": 0.0, "rental_uris": {"ios": "https://dc.lft.to/lastmile_qr_scan", "android": "https://dc.lft.to/lastmile_qr_scan"}, "lon": -76.95255833333333, "bike_id": "128b14e2f8228dc6e10106c35154781a", "type": "electric_bike", "name": "128b14e2f8228dc6e10106c35154781a"}, {"is_disabled": 0, "is_reserved": 0, "fusion_lat": 0.0, "lat": 38.91569166666667, "fusion_lon": 0.0, "rental_uris": {"ios": "https://dc.lft.to/lastmile_qr_scan", "android": "https://dc.lft.to/lastmile_qr_scan"}, "lon": -77.00076083333333, "bike_id": "19617a01558c754ed38f38f36ab8803c", "type": "electric_scooter", "name": "19617a01558c754ed38f38f36ab8803c"}, {"is_disabled": 0, "is_reserved": 0, "fusion_lat": 0.0, "lat": 38.822072166666665, "fusion_lon": 0.0, "rental_uris": {"ios": "https://dc.lft.to/lastmile_qr_scan", "android": "https://dc.lft.to/lastmile_qr_scan"}, "lon": -76.9770605, "bike_id": "4242f32da842d500f45a1f238e340b64", "type": "electric_bike", "name": "4242f32da842d500f45a1f238e340b64"}, {"is_disabled": 0, "is_reserved": 0, "fusion_lat": 0.0, "lat": 38.89200833333334, "fusion_lon": 0.0, "rental_uris": {"ios": "https://dc.lft.to/lastmile_qr_scan", "android": "https://dc.lft.to/lastmile_qr_scan"}, "lon": -77.0438875, "bike_id": "14003d2d34d2ad66b0f9094a4286c6cc", "type": "electric_scooter", "name": "14003d2d34d2ad66b0f9094a4286c6cc"}, {"is_disabled": 0, "is_reserved": 0, "fusion_lat": 0.0, "lat": 38.911229, "fusion_lon": 0.0, "rental_uris": {"ios": "https://dc.lft.to/lastmile_qr_scan", "android": "https://dc.lft.to/lastmile_qr_scan"}, "lon": -77.038656, "bike_id": "d7aed19200a51f1cb5e5205b8a9ab1c5", "type": "electric_scooter", "name": "d7aed19200a51f1cb5e5205b8a9ab1c5"}, {"is_disabled": 0, "is_reserved": 0, "fusion_lat": 0.0, "lat": 38.911089, "fusion_lon": 0.0, "rental_uris": {"ios": "https://dc.lft.to/lastmile_qr_scan", "android": "https://dc.lft.to/lastmile_qr_scan"}, "lon": -77.038332, "bike_id": "f0082452e3f6bdbdd3e3160f61894111", "type": "electric_scooter", "name": "f0082452e3f6bdbdd3e3160f61894111"}, {"is_disabled": 0, "is_reserved": 0, "fusion_lat": 0.0, "lat": 38.90890916666667, "fusion_lon": 0.0, "rental_uris": {"ios": "https://dc.lft.to/lastmile_qr_scan", "android": "https://dc.lft.to/lastmile_qr_scan"}, "lon": -77.04347683333333, "bike_id": "6fa19b8725ed0674b5fc88c45c2e9496", "type": "electric_scooter", "name": "6fa19b8725ed0674b5fc88c45c2e9496"}, {"is_disabled": 0, "is_reserved": 0, "fusion_lat": 0.0, "lat": 38.862656666666666, "fusion_lon": 0.0, "rental_uris": {"ios": "https://dc.lft.to/lastmile_qr_scan", "android": "https://dc.lft.to/lastmile_qr_scan"}, "lon": -77.0893065, "bike_id": "3c65a08d13d566b15ef77e2db7ab1c61", "type": "electric_bike", "name": "3c65a08d13d566b15ef77e2db7ab1c61"}, {"is_disabled": 0, "is_reserved": 0, "fusion_lat": 0.0, "lat": 38.918227333333334, "fusion_lon": 0.0, "rental_uris": {"ios": "https://dc.lft.to/lastmile_qr_scan", "android": "https://dc.lft.to/lastmile_qr_scan"}, "lon": -77.03439866666666, "bike_id": "d46396558fa1d5c765a3f1abe20ce373", "type": "electric_scooter", "name": "d46396558fa1d5c765a3f1abe20ce373"}, {"is_disabled": 0, "is_reserved": 0, "fusion_lat": 0.0, "lat": 38.91317566666667, "fusion_lon": 0.0, "rental_uris": {"ios": "https://dc.lft.to/lastmile_qr_scan", "android": "https://dc.lft.to/lastmile_qr_scan"}, "lon": -77.014358, "bike_id": "8312393f4d3c96c86a86df9b59c2556f", "type": "electric_scooter", "name": "8312393f4d3c96c86a86df9b59c2556f"}, {"is_disabled": 0, "is_reserved": 0, "fusion_lat": 0.0, "lat": 38.905767833333336, "fusion_lon": 0.0, "rental_uris": {"ios": "https://dc.lft.to/lastmile_qr_scan", "android": "https://dc.lft.to/lastmile_qr_scan"}, "lon": -77.00559683333333, "bike_id": "509aa6a9a7068afb604600b9633d3b95", "type": "electric_scooter", "name": "509aa6a9a7068afb604600b9633d3b95"}, {"is_disabled": 0, "is_reserved": 0, "fusion_lat": 0.0, "lat": 38.89925433333333, "fusion_lon": 0.0, "rental_uris": {"ios": "https://dc.lft.to/lastmile_qr_scan", "android": "https://dc.lft.to/lastmile_qr_scan"}, "lon": -77.03215083333333, "bike_id": "416b13928597b9bfa593b9c676857de2", "type": "electric_scooter", "name": "416b13928597b9bfa593b9c676857de2"}, {"is_disabled": 0, "is_reserved": 0, "fusion_lat": 0.0, "lat": 38.80018066666667, "fusion_lon": 0.0, "rental_uris": {"ios": "https://dc.lft.to/lastmile_qr_scan", "android": "https://dc.lft.to/lastmile_qr_scan"}, "lon": -77.13, "bike_id": "3b3cdb31340277884ed1db2792c407ab", "type": "electric_bike", "name": "3b3cdb31340277884ed1db2792c407ab"}, {"is_disabled": 0, "is_reserved": 0, "fusion_lat": 0.0, "lat": 38.900589, "fusion_lon": 0.0, "rental_uris": {"ios": "https://dc.lft.to/lastmile_qr_scan", "android": "https://dc.lft.to/lastmile_qr_scan"}, "lon": -76.98701283333334, "bike_id": "7af9a2b34784adf1c4cb942f745d3721", "type": "electric_scooter", "name": "7af9a2b34784adf1c4cb942f745d3721"}, {"is_disabled": 0, "is_reserved": 0, "fusion_lat": 0.0, "lat": 38.92330233333333, "fusion_lon": 0.0, "rental_uris": {"ios": "https://dc.lft.to/lastmile_qr_scan", "android": "https://dc.lft.to/lastmile_qr_scan"}, "lon": -77.07309283333333, "bike_id": "168af44d88c9264cc0373077c33d2ee5", "type": "electric_scooter", "name": "168af44d88c9264cc0373077c33d2ee5"}, {"is_disabled": 0, "is_reserved": 0, "fusion_lat": 0.0, "lat": 38.914047833333335, "fusion_lon": 0.0, "rental_uris": {"ios": "https://dc.lft.to/lastmile_qr_scan", "android": "https://dc.lft.to/lastmile_qr_scan"}, "lon": -77.048852, "bike_id": "b966d1dfd9cbb5706927a695ff40cf6a", "type": "electric_scooter", "name": "b966d1dfd9cbb5706927a695ff40cf6a"}, {"is_disabled": 0, "is_reserved": 0, "fusion_lat": 0.0, "lat": 38.917049666666664, "fusion_lon": 0.0, "rental_uris": {"ios": "https://dc.lft.to/lastmile_qr_scan", "android": "https://dc.lft.to/lastmile_qr_scan"}, "lon": -77.0331355, "bike_id": "f2b00308e6838d3a5df962257d8d3a5d", "type": "electric_scooter", "name": "f2b00308e6838d3a5df962257d8d3a5d"}, {"is_disabled": 0, "is_reserved": 0, "fusion_lat": 0.0, "lat": 38.92273983333333, "fusion_lon": 0.0, "rental_uris": {"ios": "https://dc.lft.to/lastmile_qr_scan", "android": "https://dc.lft.to/lastmile_qr_scan"}, "lon": -77.042863, "bike_id": "a80cd3c47c2076fbd083e187dcd06687", "type": "electric_scooter", "name": "a80cd3c47c2076fbd083e187dcd06687"}, {"is_disabled": 0, "is_reserved": 0, "fusion_lat": 0.0, "lat": 38.925244666666664, "fusion_lon": 0.0, "rental_uris": {"ios": "https://dc.lft.to/lastmile_qr_scan", "android": "https://dc.lft.to/lastmile_qr_scan"}, "lon": -77.03849766666667, "bike_id": "0cd35d4f16c711a29dbf14cd1b9a9f1c", "type": "electric_scooter", "name": "0cd35d4f16c711a29dbf14cd1b9a9f1c"}, {"is_disabled": 0, "is_reserved": 0, "fusion_lat": 0.0, "lat": 38.974813, "fusion_lon": 0.0, "rental_uris": {"ios": "https://dc.lft.to/lastmile_qr_scan", "android": "https://dc.lft.to/lastmile_qr_scan"}, "lon": -77.01488116666667, "bike_id": "2047e01357a445091217eaa11f350e6b", "type": "electric_scooter", "name": "2047e01357a445091217eaa11f350e6b"}, {"is_disabled": 0, "is_reserved": 0, "fusion_lat": 0.0, "lat": 38.91624933333333, "fusion_lon": 0.0, "rental_uris": {"ios": "https://dc.lft.to/lastmile_qr_scan", "android": "https://dc.lft.to/lastmile_qr_scan"}, "lon": -77.05066316666667, "bike_id": "bc52d70181175b49983fbc8e37cab5dc", "type": "electric_scooter", "name": "bc52d70181175b49983fbc8e37cab5dc"}, {"is_disabled": 0, "is_reserved": 0, "fusion_lat": 0.0, "lat": 38.906819166666665, "fusion_lon": 0.0, "rental_uris": {"ios": "https://dc.lft.to/lastmile_qr_scan", "android": "https://dc.lft.to/lastmile_qr_scan"}, "lon": -77.02714016666667, "bike_id": "4a9eb35cf56330e4d1fb9f6cfb2dcd5d", "type": "electric_scooter", "name": "4a9eb35cf56330e4d1fb9f6cfb2dcd5d"}, {"is_disabled": 0, "is_reserved": 0, "fusion_lat": 0.0, "lat": 38.8737675, "fusion_lon": 0.0, "rental_uris": {"ios": "https://dc.lft.to/lastmile_qr_scan", "android": "https://dc.lft.to/lastmile_qr_scan"}, "lon": -77.00096933333333, "bike_id": "9dc719f54f3ed0d63c88481a4a2b8ecd", "type": "electric_scooter", "name": "9dc719f54f3ed0d63c88481a4a2b8ecd"}, {"is_disabled": 0, "is_reserved": 0, "fusion_lat": 0.0, "lat": 38.894845833333335, "fusion_lon": 0.0, "rental_uris": {"ios": "https://dc.lft.to/lastmile_qr_scan", "android": "https://dc.lft.to/lastmile_qr_scan"}, "lon": -76.97879266666666, "bike_id": "7f427760a7cd36c762860a7dd85cf794", "type": "electric_scooter", "name": "7f427760a7cd36c762860a7dd85cf794"}, {"is_disabled": 0, "is_reserved": 0, "fusion_lat": 0.0, "lat": 38.94100316666667, "fusion_lon": 0.0, "rental_uris": {"ios": "https://dc.lft.to/lastmile_qr_scan", "android": "https://dc.lft.to/lastmile_qr_scan"}, "lon": -77.03282216666666, "bike_id": "49fcc9e51f83129f3076e31feb354994", "type": "electric_scooter", "name": "49fcc9e51f83129f3076e31feb354994"}, {"is_disabled": 0, "is_reserved": 0, "fusion_lat": 0.0, "lat": 38.91171933333333, "fusion_lon": 0.0, "rental_uris": {"ios": "https://dc.lft.to/lastmile_qr_scan", "android": "https://dc.lft.to/lastmile_qr_scan"}, "lon": -77.00267933333333, "bike_id": "609885cc4664afb3be586d2b70cd5490", "type": "electric_bike", "name": "609885cc4664afb3be586d2b70cd5490"}, {"is_disabled": 0, "is_reserved": 0, "fusion_lat": 0.0, "lat": 38.91815866666666, "fusion_lon": 0.0, "rental_uris": {"ios": "https://dc.lft.to/lastmile_qr_scan", "android": "https://dc.lft.to/lastmile_qr_scan"}, "lon": -77.04003083333333, "bike_id": "f68905954494390828a8cf5d2d04e65a", "type": "electric_scooter", "name": "f68905954494390828a8cf5d2d04e65a"}, {"is_disabled": 0, "is_reserved": 0, "fusion_lat": 0.0, "lat": 38.8799545, "fusion_lon": 0.0, "rental_uris": {"ios": "https://dc.lft.to/lastmile_qr_scan", "android": "https://dc.lft.to/lastmile_qr_scan"}, "lon": -77.03741083333334, "bike_id": "12cc2b82c4936a9663476932a2912285", "type": "electric_scooter", "name": "12cc2b82c4936a9663476932a2912285"}, {"is_disabled": 0, "is_reserved": 0, "fusion_lat": 0.0, "lat": 38.9022245, "fusion_lon": 0.0, "rental_uris": {"ios": "https://dc.lft.to/lastmile_qr_scan", "android": "https://dc.lft.to/lastmile_qr_scan"}, "lon": -76.93174966666666, "bike_id": "5149c91d60d56bfe20a22f89fafbebc4", "type": "electric_bike", "name": "5149c91d60d56bfe20a22f89fafbebc4"}, {"is_disabled": 0, "is_reserved": 0, "fusion_lat": 0.0, "lat": 38.918072333333335, "fusion_lon": 0.0, "rental_uris": {"ios": "https://dc.lft.to/lastmile_qr_scan", "android": "https://dc.lft.to/lastmile_qr_scan"}, "lon": -77.031884, "bike_id": "30b380516deeba6c71362dc95b1538eb", "type": "electric_scooter", "name": "30b380516deeba6c71362dc95b1538eb"}, {"is_disabled": 0, "is_reserved": 0, "fusion_lat": 0.0, "lat": 38.90680233333333, "fusion_lon": 0.0, "rental_uris": {"ios": "https://dc.lft.to/lastmile_qr_scan", "android": "https://dc.lft.to/lastmile_qr_scan"}, "lon": -76.979362, "bike_id": "e9370ac0bdeb5de7a849e4471c0d0bef", "type": "electric_scooter", "name": "e9370ac0bdeb5de7a849e4471c0d0bef"}, {"is_disabled": 0, "is_reserved": 0, "fusion_lat": 0.0, "lat": 38.92321066666667, "fusion_lon": 0.0, "rental_uris": {"ios": "https://dc.lft.to/lastmile_qr_scan", "android": "https://dc.lft.to/lastmile_qr_scan"}, "lon": -77.03918966666667, "bike_id": "f3a3521facdb7b98d6600ec505574532", "type": "electric_scooter", "name": "f3a3521facdb7b98d6600ec505574532"}, {"is_disabled": 0, "is_reserved": 0, "fusion_lat": 0.0, "lat": 38.90799883333333, "fusion_lon": 0.0, "rental_uris": {"ios": "https://dc.lft.to/lastmile_qr_scan", "android": "https://dc.lft.to/lastmile_qr_scan"}, "lon": -77.00239183333333, "bike_id": "0a3fcfdad04ddc3d0f12dc51881464e7", "type": "electric_scooter", "name": "0a3fcfdad04ddc3d0f12dc51881464e7"}, {"is_disabled": 0, "is_reserved": 0, "fusion_lat": 0.0, "lat": 38.83870266666667, "fusion_lon": 0.0, "rental_uris": {"ios": "https://dc.lft.to/lastmile_qr_scan", "android": "https://dc.lft.to/lastmile_qr_scan"}, "lon": -76.996979, "bike_id": "8da7e5e3423a03be84420a7f1802e99b", "type": "electric_bike", "name": "8da7e5e3423a03be84420a7f1802e99b"}, {"is_disabled": 0, "is_reserved": 0, "fusion_lat": 0.0, "lat": 38.91817233333333, "fusion_lon": 0.0, "rental_uris": {"ios": "https://dc.lft.to/lastmile_qr_scan", "android": "https://dc.lft.to/lastmile_qr_scan"}, "lon": -77.0400185, "bike_id": "527fba4f9b8044ed529d644e930789da", "type": "electric_scooter", "name": "527fba4f9b8044ed529d644e930789da"}, {"is_disabled": 0, "is_reserved": 0, "fusion_lat": 0.0, "lat": 38.914559833333335, "fusion_lon": 0.0, "rental_uris": {"ios": "https://dc.lft.to/lastmile_qr_scan", "android": "https://dc.lft.to/lastmile_qr_scan"}, "lon": -76.97278683333333, "bike_id": "3cb25ed4db602b5010593e940857cfb1", "type": "electric_bike", "name": "3cb25ed4db602b5010593e940857cfb1"}, {"is_disabled": 0, "is_reserved": 0, "fusion_lat": 0.0, "lat": 38.92437733333333, "fusion_lon": 0.0, "rental_uris": {"ios": "https://dc.lft.to/lastmile_qr_scan", "android": "https://dc.lft.to/lastmile_qr_scan"}, "lon": -77.020241, "bike_id": "16cc232cec85baa1b3438c59eaf9caa5", "type": "electric_scooter", "name": "16cc232cec85baa1b3438c59eaf9caa5"}, {"is_disabled": 0, "is_reserved": 0, "fusion_lat": 0.0, "lat": 38.892472166666664, "fusion_lon": 0.0, "rental_uris": {"ios": "https://dc.lft.to/lastmile_qr_scan", "android": "https://dc.lft.to/lastmile_qr_scan"}, "lon": -77.04651266666667, "bike_id": "95b95e85dc0f3d5bae000a9a80ddf716", "type": "electric_scooter", "name": "95b95e85dc0f3d5bae000a9a80ddf716"}, {"is_disabled": 0, "is_reserved": 0, "fusion_lat": 0.0, "lat": 38.88299933333333, "fusion_lon": 0.0, "rental_uris": {"ios": "https://dc.lft.to/lastmile_qr_scan", "android": "https://dc.lft.to/lastmile_qr_scan"}, "lon": -76.93495083333333, "bike_id": "a1e84ee6f6fd05e1889de5375bca5954", "type": "electric_scooter", "name": "a1e84ee6f6fd05e1889de5375bca5954"}, {"is_disabled": 0, "is_reserved": 0, "fusion_lat": 0.0, "lat": 38.91349366666667, "fusion_lon": 0.0, "rental_uris": {"ios": "https://dc.lft.to/lastmile_qr_scan", "android": "https://dc.lft.to/lastmile_qr_scan"}, "lon": -77.06400133333334, "bike_id": "1068378ac1db8a82e0d6b208593ccec2", "type": "electric_scooter", "name": "1068378ac1db8a82e0d6b208593ccec2"}, {"is_disabled": 0, "is_reserved": 0, "fusion_lat": 0.0, "lat": 38.901732, "fusion_lon": 0.0, "rental_uris": {"ios": "https://dc.lft.to/lastmile_qr_scan", "android": "https://dc.lft.to/lastmile_qr_scan"}, "lon": -76.98077933333333, "bike_id": "29a5edfec8ea0b4be8968d9e6a266de4", "type": "electric_scooter", "name": "29a5edfec8ea0b4be8968d9e6a266de4"}, {"is_disabled": 0, "is_reserved": 0, "fusion_lat": 0.0, "lat": 38.910182166666665, "fusion_lon": 0.0, "rental_uris": {"ios": "https://dc.lft.to/lastmile_qr_scan", "android": "https://dc.lft.to/lastmile_qr_scan"}, "lon": -77.03641916666666, "bike_id": "16b2bd0bef32c1b0ced21df46477ec0d", "type": "electric_scooter", "name": "16b2bd0bef32c1b0ced21df46477ec0d"}, {"is_disabled": 0, "is_reserved": 0, "fusion_lat": 0.0, "lat": 38.9366665, "fusion_lon": 0.0, "rental_uris": {"ios": "https://dc.lft.to/lastmile_qr_scan", "android": "https://dc.lft.to/lastmile_qr_scan"}, "lon": -77.06604966666667, "bike_id": "4c70c830323152f41bfcd5480e5c6426", "type": "electric_scooter", "name": "4c70c830323152f41bfcd5480e5c6426"}, {"is_disabled": 0, "is_reserved": 0, "fusion_lat": 0.0, "lat": 38.92970733333333, "fusion_lon": 0.0, "rental_uris": {"ios": "https://dc.lft.to/lastmile_qr_scan", "android": "https://dc.lft.to/lastmile_qr_scan"}, "lon": -77.02341533333333, "bike_id": "9d250fec9d4beeb8f4bf941b8631f357", "type": "electric_scooter", "name": "9d250fec9d4beeb8f4bf941b8631f357"}, {"is_disabled": 0, "is_reserved": 0, "fusion_lat": 0.0, "lat": 38.901280166666666, "fusion_lon": 0.0, "rental_uris": {"ios": "https://dc.lft.to/lastmile_qr_scan", "android": "https://dc.lft.to/lastmile_qr_scan"}, "lon": -76.99722283333334, "bike_id": "9f133b775b8632530d7cc1df2baefb54", "type": "electric_scooter", "name": "9f133b775b8632530d7cc1df2baefb54"}, {"is_disabled": 0, "is_reserved": 0, "fusion_lat": 0.0, "lat": 38.93682116666667, "fusion_lon": 0.0, "rental_uris": {"ios": "https://dc.lft.to/lastmile_qr_scan", "android": "https://dc.lft.to/lastmile_qr_scan"}, "lon": -77.03628483333334, "bike_id": "8096d62ac9e96cf34786cbca7beda654", "type": "electric_scooter", "name": "8096d62ac9e96cf34786cbca7beda654"}, {"is_disabled": 0, "is_reserved": 0, "fusion_lat": 0.0, "lat": 38.926661, "fusion_lon": 0.0, "rental_uris": {"ios": "https://dc.lft.to/lastmile_qr_scan", "android": "https://dc.lft.to/lastmile_qr_scan"}, "lon": -76.99555616666666, "bike_id": "280b98a12fb87152c79dc3ede2ecf2ae", "type": "electric_scooter", "name": "280b98a12fb87152c79dc3ede2ecf2ae"}, {"is_disabled": 0, "is_reserved": 0, "fusion_lat": 0.0, "lat": 38.90779916666666, "fusion_lon": 0.0, "rental_uris": {"ios": "https://dc.lft.to/lastmile_qr_scan", "android": "https://dc.lft.to/lastmile_qr_scan"}, "lon": -76.99716883333333, "bike_id": "cbe690d89053a5e3d55fa6f9a4be7820", "type": "electric_scooter", "name": "cbe690d89053a5e3d55fa6f9a4be7820"}, {"is_disabled": 0, "is_reserved": 0, "fusion_lat": 0.0, "lat": 38.89527233333333, "fusion_lon": 0.0, "rental_uris": {"ios": "https://dc.lft.to/lastmile_qr_scan", "android": "https://dc.lft.to/lastmile_qr_scan"}, "lon": -77.0294125, "bike_id": "4379861dcb5640d97cab75e5cef251a7", "type": "electric_scooter", "name": "4379861dcb5640d97cab75e5cef251a7"}, {"is_disabled": 0, "is_reserved": 0, "fusion_lat": 0.0, "lat": 38.882824666666664, "fusion_lon": 0.0, "rental_uris": {"ios": "https://dc.lft.to/lastmile_qr_scan", "android": "https://dc.lft.to/lastmile_qr_scan"}, "lon": -76.93245183333333, "bike_id": "5f20c0b8037749edadea87339827c5ec", "type": "electric_bike", "name": "5f20c0b8037749edadea87339827c5ec"}, {"is_disabled": 0, "is_reserved": 0, "fusion_lat": 0.0, "lat": 38.85222683333333, "fusion_lon": 0.0, "rental_uris": {"ios": "https://dc.lft.to/lastmile_qr_scan", "android": "https://dc.lft.to/lastmile_qr_scan"}, "lon": -76.9937425, "bike_id": "811a73816b4ff4ec7354e05d6bfb39c4", "type": "electric_bike", "name": "811a73816b4ff4ec7354e05d6bfb39c4"}, {"is_disabled": 0, "is_reserved": 0, "fusion_lat": 0.0, "lat": 38.90187916666667, "fusion_lon": 0.0, "rental_uris": {"ios": "https://dc.lft.to/lastmile_qr_scan", "android": "https://dc.lft.to/lastmile_qr_scan"}, "lon": -77.05018533333333, "bike_id": "2c8d21c03adce1a297a329f24dae6b37", "type": "electric_scooter", "name": "2c8d21c03adce1a297a329f24dae6b37"}, {"is_disabled": 0, "is_reserved": 0, "fusion_lat": 0.0, "lat": 38.948255, "fusion_lon": 0.0, "rental_uris": {"ios": "https://dc.lft.to/lastmile_qr_scan", "android": "https://dc.lft.to/lastmile_qr_scan"}, "lon": -77.02543216666666, "bike_id": "00d070155619b8a93e9dae16db28975f", "type": "electric_scooter", "name": "00d070155619b8a93e9dae16db28975f"}, {"is_disabled": 0, "is_reserved": 0, "fusion_lat": 0.0, "lat": 38.93862716666667, "fusion_lon": 0.0, "rental_uris": {"ios": "https://dc.lft.to/lastmile_qr_scan", "android": "https://dc.lft.to/lastmile_qr_scan"}, "lon": -77.0304595, "bike_id": "1be04928c6ea4981f6a084e0183ecba5", "type": "electric_scooter", "name": "1be04928c6ea4981f6a084e0183ecba5"}, {"is_disabled": 0, "is_reserved": 0, "fusion_lat": 0.0, "lat": 38.90680066666667, "fusion_lon": 0.0, "rental_uris": {"ios": "https://dc.lft.to/lastmile_qr_scan", "android": "https://dc.lft.to/lastmile_qr_scan"}, "lon": -77.05324933333333, "bike_id": "5614fd18cab70bcfa2d47e6932a99d25", "type": "electric_scooter", "name": "5614fd18cab70bcfa2d47e6932a99d25"}, {"is_disabled": 0, "is_reserved": 0, "fusion_lat": 0.0, "lat": 38.902726333333334, "fusion_lon": 0.0, "rental_uris": {"ios": "https://dc.lft.to/lastmile_qr_scan", "android": "https://dc.lft.to/lastmile_qr_scan"}, "lon": -77.05911766666667, "bike_id": "df1084c860adf4d39f8a09e52b15da3d", "type": "electric_scooter", "name": "df1084c860adf4d39f8a09e52b15da3d"}, {"is_disabled": 0, "is_reserved": 0, "fusion_lat": 0.0, "lat": 38.9051335, "fusion_lon": 0.0, "rental_uris": {"ios": "https://dc.lft.to/lastmile_qr_scan", "android": "https://dc.lft.to/lastmile_qr_scan"}, "lon": -77.00700766666667, "bike_id": "b2514f132497533a23cfd82c52603cff", "type": "electric_scooter", "name": "b2514f132497533a23cfd82c52603cff"}, {"is_disabled": 0, "is_reserved": 0, "fusion_lat": 0.0, "lat": 38.90114783333333, "fusion_lon": 0.0, "rental_uris": {"ios": "https://dc.lft.to/lastmile_qr_scan", "android": "https://dc.lft.to/lastmile_qr_scan"}, "lon": -77.05000416666667, "bike_id": "2cd5c66adc3e36495b159c08eff31493", "type": "electric_scooter", "name": "2cd5c66adc3e36495b159c08eff31493"}, {"is_disabled": 0, "is_reserved": 0, "fusion_lat": 0.0, "lat": 38.905294, "fusion_lon": 0.0, "rental_uris": {"ios": "https://dc.lft.to/lastmile_qr_scan", "android": "https://dc.lft.to/lastmile_qr_scan"}, "lon": -77.06145316666667, "bike_id": "83270760ebacc104921b7dedd6a10885", "type": "electric_scooter", "name": "83270760ebacc104921b7dedd6a10885"}, {"is_disabled": 0, "is_reserved": 0, "fusion_lat": 0.0, "lat": 38.92469283333333, "fusion_lon": 0.0, "rental_uris": {"ios": "https://dc.lft.to/lastmile_qr_scan", "android": "https://dc.lft.to/lastmile_qr_scan"}, "lon": -77.03536983333333, "bike_id": "8bb74ecaf4dd27280bd02954dcf4c397", "type": "electric_scooter", "name": "8bb74ecaf4dd27280bd02954dcf4c397"}, {"is_disabled": 0, "is_reserved": 0, "fusion_lat": 0.0, "lat": 38.929103166666664, "fusion_lon": 0.0, "rental_uris": {"ios": "https://dc.lft.to/lastmile_qr_scan", "android": "https://dc.lft.to/lastmile_qr_scan"}, "lon": -77.05985866666667, "bike_id": "a5d6a3302c2f9a5a6ee46e972ca96963", "type": "electric_scooter", "name": "a5d6a3302c2f9a5a6ee46e972ca96963"}, {"is_disabled": 0, "is_reserved": 0, "fusion_lat": 0.0, "lat": 38.91916616666666, "fusion_lon": 0.0, "rental_uris": {"ios": "https://dc.lft.to/lastmile_qr_scan", "android": "https://dc.lft.to/lastmile_qr_scan"}, "lon": -77.025349, "bike_id": "d138b9c6c42bdf8efd97b91c96409bcf", "type": "electric_scooter", "name": "d138b9c6c42bdf8efd97b91c96409bcf"}, {"is_disabled": 0, "is_reserved": 0, "fusion_lat": 0.0, "lat": 38.915629833333334, "fusion_lon": 0.0, "rental_uris": {"ios": "https://dc.lft.to/lastmile_qr_scan", "android": "https://dc.lft.to/lastmile_qr_scan"}, "lon": -77.02158416666667, "bike_id": "96412fdc2b274254c2ea9085d9b55af4", "type": "electric_scooter", "name": "96412fdc2b274254c2ea9085d9b55af4"}, {"is_disabled": 0, "is_reserved": 0, "fusion_lat": 0.0, "lat": 38.926873, "fusion_lon": 0.0, "rental_uris": {"ios": "https://dc.lft.to/lastmile_qr_scan", "android": "https://dc.lft.to/lastmile_qr_scan"}, "lon": -77.0228785, "bike_id": "b88093653547f8f81d4a767fe73d9742", "type": "electric_scooter", "name": "b88093653547f8f81d4a767fe73d9742"}, {"is_disabled": 0, "is_reserved": 0, "fusion_lat": 0.0, "lat": 38.903782166666666, "fusion_lon": 0.0, "rental_uris": {"ios": "https://dc.lft.to/lastmile_qr_scan", "android": "https://dc.lft.to/lastmile_qr_scan"}, "lon": -77.02007316666666, "bike_id": "f25791ad3031e4fe99a5a325a5707367", "type": "electric_scooter", "name": "f25791ad3031e4fe99a5a325a5707367"}, {"is_disabled": 0, "is_reserved": 0, "fusion_lat": 0.0, "lat": 38.91068816666667, "fusion_lon": 0.0, "rental_uris": {"ios": "https://dc.lft.to/lastmile_qr_scan", "android": "https://dc.lft.to/lastmile_qr_scan"}, "lon": -77.01998266666666, "bike_id": "c079c901a9b750544ebe3c9689f2447a", "type": "electric_scooter", "name": "c079c901a9b750544ebe3c9689f2447a"}, {"is_disabled": 0, "is_reserved": 0, "fusion_lat": 0.0, "lat": 38.89743216666667, "fusion_lon": 0.0, "rental_uris": {"ios": "https://dc.lft.to/lastmile_qr_scan", "android": "https://dc.lft.to/lastmile_qr_scan"}, "lon": -77.0316585, "bike_id": "a211b7dcb677c90d646621dff1e1f860", "type": "electric_scooter", "name": "a211b7dcb677c90d646621dff1e1f860"}, {"is_disabled": 0, "is_reserved": 0, "fusion_lat": 0.0, "lat": 38.89195633333333, "fusion_lon": 0.0, "rental_uris": {"ios": "https://dc.lft.to/lastmile_qr_scan", "android": "https://dc.lft.to/lastmile_qr_scan"}, "lon": -77.02229566666666, "bike_id": "d1c757479eda5a2ec27ac07c06090d4f", "type": "electric_scooter", "name": "d1c757479eda5a2ec27ac07c06090d4f"}, {"is_disabled": 0, "is_reserved": 0, "fusion_lat": 0.0, "lat": 38.91910433333334, "fusion_lon": 0.0, "rental_uris": {"ios": "https://dc.lft.to/lastmile_qr_scan", "android": "https://dc.lft.to/lastmile_qr_scan"}, "lon": -77.03179366666667, "bike_id": "ae3d4db9d62cd0304108fb8b5ec80e94", "type": "electric_scooter", "name": "ae3d4db9d62cd0304108fb8b5ec80e94"}, {"is_disabled": 0, "is_reserved": 0, "fusion_lat": 0.0, "lat": 38.93203366666667, "fusion_lon": 0.0, "rental_uris": {"ios": "https://dc.lft.to/lastmile_qr_scan", "android": "https://dc.lft.to/lastmile_qr_scan"}, "lon": -77.02385733333334, "bike_id": "37bb817d3fc6d56b7b60084adf6521f5", "type": "electric_scooter", "name": "37bb817d3fc6d56b7b60084adf6521f5"}, {"is_disabled": 0, "is_reserved": 0, "fusion_lat": 0.0, "lat": 38.9202125, "fusion_lon": 0.0, "rental_uris": {"ios": "https://dc.lft.to/lastmile_qr_scan", "android": "https://dc.lft.to/lastmile_qr_scan"}, "lon": -77.01728666666666, "bike_id": "9f8d65095549fa42bea7d2d822340530", "type": "electric_scooter", "name": "9f8d65095549fa42bea7d2d822340530"}, {"is_disabled": 0, "is_reserved": 0, "fusion_lat": 0.0, "lat": 38.902415, "fusion_lon": 0.0, "rental_uris": {"ios": "https://dc.lft.to/lastmile_qr_scan", "android": "https://dc.lft.to/lastmile_qr_scan"}, "lon": -77.03258916666667, "bike_id": "c9b1368d5bd311516bb87c08c3c4bf8a", "type": "electric_scooter", "name": "c9b1368d5bd311516bb87c08c3c4bf8a"}, {"is_disabled": 0, "is_reserved": 0, "fusion_lat": 0.0, "lat": 38.916815166666666, "fusion_lon": 0.0, "rental_uris": {"ios": "https://dc.lft.to/lastmile_qr_scan", "android": "https://dc.lft.to/lastmile_qr_scan"}, "lon": -77.0297225, "bike_id": "0686848498c0525b88036c718d23ccb8", "type": "electric_scooter", "name": "0686848498c0525b88036c718d23ccb8"}, {"is_disabled": 0, "is_reserved": 0, "fusion_lat": 0.0, "lat": 38.88304733333333, "fusion_lon": 0.0, "rental_uris": {"ios": "https://dc.lft.to/lastmile_qr_scan", "android": "https://dc.lft.to/lastmile_qr_scan"}, "lon": -76.93503116666666, "bike_id": "f592761b7dc58bd08afafb6a2cb7c5cd", "type": "electric_scooter", "name": "f592761b7dc58bd08afafb6a2cb7c5cd"}, {"is_disabled": 0, "is_reserved": 0, "fusion_lat": 0.0, "lat": 38.8923975, "fusion_lon": 0.0, "rental_uris": {"ios": "https://dc.lft.to/lastmile_qr_scan", "android": "https://dc.lft.to/lastmile_qr_scan"}, "lon": -77.04874966666667, "bike_id": "5c559a6b883d870eaab865dab084b0b1", "type": "electric_scooter", "name": "5c559a6b883d870eaab865dab084b0b1"}, {"is_disabled": 0, "is_reserved": 0, "fusion_lat": 0.0, "lat": 38.9126475, "fusion_lon": 0.0, "rental_uris": {"ios": "https://dc.lft.to/lastmile_qr_scan", "android": "https://dc.lft.to/lastmile_qr_scan"}, "lon": -77.03861383333333, "bike_id": "770076a3f798849b48cfdd6fcf1b4973", "type": "electric_scooter", "name": "770076a3f798849b48cfdd6fcf1b4973"}, {"is_disabled": 0, "is_reserved": 0, "fusion_lat": 0.0, "lat": 38.915744833333335, "fusion_lon": 0.0, "rental_uris": {"ios": "https://dc.lft.to/lastmile_qr_scan", "android": "https://dc.lft.to/lastmile_qr_scan"}, "lon": -77.03661283333334, "bike_id": "37ff1eb8644e168f481786e9eebb4efc", "type": "electric_scooter", "name": "37ff1eb8644e168f481786e9eebb4efc"}, {"is_disabled": 0, "is_reserved": 0, "fusion_lat": 0.0, "lat": 38.852481833333336, "fusion_lon": 0.0, "rental_uris": {"ios": "https://dc.lft.to/lastmile_qr_scan", "android": "https://dc.lft.to/lastmile_qr_scan"}, "lon": -77.11411283333334, "bike_id": "bcfcf56f85b124cbb3434e5079616912", "type": "electric_bike", "name": "bcfcf56f85b124cbb3434e5079616912"}, {"is_disabled": 0, "is_reserved": 0, "fusion_lat": 0.0, "lat": 38.9465035, "fusion_lon": 0.0, "rental_uris": {"ios": "https://dc.lft.to/lastmile_qr_scan", "android": "https://dc.lft.to/lastmile_qr_scan"}, "lon": -77.06476383333333, "bike_id": "24e76b8cc477735f146500f14024464e", "type": "electric_scooter", "name": "24e76b8cc477735f146500f14024464e"}, {"is_disabled": 0, "is_reserved": 0, "fusion_lat": 0.0, "lat": 38.9047165, "fusion_lon": 0.0, "rental_uris": {"ios": "https://dc.lft.to/lastmile_qr_scan", "android": "https://dc.lft.to/lastmile_qr_scan"}, "lon": -77.0660095, "bike_id": "c66462bf27ebbefe8825a4c8034211f1", "type": "electric_scooter", "name": "c66462bf27ebbefe8825a4c8034211f1"}, {"is_disabled": 0, "is_reserved": 0, "fusion_lat": 0.0, "lat": 38.9046295, "fusion_lon": 0.0, "rental_uris": {"ios": "https://dc.lft.to/lastmile_qr_scan", "android": "https://dc.lft.to/lastmile_qr_scan"}, "lon": -77.0432905, "bike_id": "9e689fec5aa9c1669b9376ba3d6d0af0", "type": "electric_scooter", "name": "9e689fec5aa9c1669b9376ba3d6d0af0"}, {"is_disabled": 0, "is_reserved": 0, "fusion_lat": 0.0, "lat": 38.89213866666667, "fusion_lon": 0.0, "rental_uris": {"ios": "https://dc.lft.to/lastmile_qr_scan", "android": "https://dc.lft.to/lastmile_qr_scan"}, "lon": -76.99929983333334, "bike_id": "bb366f1b7cfda95cf593b4a685ddd31d", "type": "electric_scooter", "name": "bb366f1b7cfda95cf593b4a685ddd31d"}, {"is_disabled": 0, "is_reserved": 0, "fusion_lat": 0.0, "lat": 38.923354, "fusion_lon": 0.0, "rental_uris": {"ios": "https://dc.lft.to/lastmile_qr_scan", "android": "https://dc.lft.to/lastmile_qr_scan"}, "lon": -77.056862, "bike_id": "bee12408543e7ddac8daa83e7e01e251", "type": "electric_scooter", "name": "bee12408543e7ddac8daa83e7e01e251"}, {"is_disabled": 0, "is_reserved": 0, "fusion_lat": 0.0, "lat": 38.923186, "fusion_lon": 0.0, "rental_uris": {"ios": "https://dc.lft.to/lastmile_qr_scan", "android": "https://dc.lft.to/lastmile_qr_scan"}, "lon": -77.029012, "bike_id": "019a1708f2ac1f958e108f2a32f83fe3", "type": "electric_scooter", "name": "019a1708f2ac1f958e108f2a32f83fe3"}, {"is_disabled": 0, "is_reserved": 0, "fusion_lat": 0.0, "lat": 38.9158035, "fusion_lon": 0.0, "rental_uris": {"ios": "https://dc.lft.to/lastmile_qr_scan", "android": "https://dc.lft.to/lastmile_qr_scan"}, "lon": -77.05035333333333, "bike_id": "840dbf15f0d386e375076e53cf43c818", "type": "electric_scooter", "name": "840dbf15f0d386e375076e53cf43c818"}, {"is_disabled": 0, "is_reserved": 0, "fusion_lat": 0.0, "lat": 38.8756615, "fusion_lon": 0.0, "rental_uris": {"ios": "https://dc.lft.to/lastmile_qr_scan", "android": "https://dc.lft.to/lastmile_qr_scan"}, "lon": -77.0059875, "bike_id": "5879adf1c91efc7e581d7b2a00145d91", "type": "electric_scooter", "name": "5879adf1c91efc7e581d7b2a00145d91"}, {"is_disabled": 0, "is_reserved": 0, "fusion_lat": 0.0, "lat": 38.868923833333334, "fusion_lon": 0.0, "rental_uris": {"ios": "https://dc.lft.to/lastmile_qr_scan", "android": "https://dc.lft.to/lastmile_qr_scan"}, "lon": -76.99005, "bike_id": "90c7f0c14411a6f630f2294b595bbbd7", "type": "electric_scooter", "name": "90c7f0c14411a6f630f2294b595bbbd7"}, {"is_disabled": 0, "is_reserved": 0, "fusion_lat": 0.0, "lat": 38.886572666666666, "fusion_lon": 0.0, "rental_uris": {"ios": "https://dc.lft.to/lastmile_qr_scan", "android": "https://dc.lft.to/lastmile_qr_scan"}, "lon": -77.028185, "bike_id": "095f4f9387550e085d07f412d3acf30c", "type": "electric_scooter", "name": "095f4f9387550e085d07f412d3acf30c"}, {"is_disabled": 0, "is_reserved": 0, "fusion_lat": 0.0, "lat": 38.89600083333333, "fusion_lon": 0.0, "rental_uris": {"ios": "https://dc.lft.to/lastmile_qr_scan", "android": "https://dc.lft.to/lastmile_qr_scan"}, "lon": -76.9832375, "bike_id": "d66603bb6b60757e8604c2f082f5930c", "type": "electric_scooter", "name": "d66603bb6b60757e8604c2f082f5930c"}, {"is_disabled": 0, "is_reserved": 0, "fusion_lat": 0.0, "lat": 38.91630283333333, "fusion_lon": 0.0, "rental_uris": {"ios": "https://dc.lft.to/lastmile_qr_scan", "android": "https://dc.lft.to/lastmile_qr_scan"}, "lon": -77.03143416666667, "bike_id": "906af838ead982450db4b0565fa94d93", "type": "electric_scooter", "name": "906af838ead982450db4b0565fa94d93"}, {"is_disabled": 0, "is_reserved": 0, "fusion_lat": 0.0, "lat": 38.90450716666667, "fusion_lon": 0.0, "rental_uris": {"ios": "https://dc.lft.to/lastmile_qr_scan", "android": "https://dc.lft.to/lastmile_qr_scan"}, "lon": -77.02684466666666, "bike_id": "869b5e317c77b94d71d0e3d0a6369ff8", "type": "electric_scooter", "name": "869b5e317c77b94d71d0e3d0a6369ff8"}, {"is_disabled": 0, "is_reserved": 0, "fusion_lat": 0.0, "lat": 38.96359116666667, "fusion_lon": 0.0, "rental_uris": {"ios": "https://dc.lft.to/lastmile_qr_scan", "android": "https://dc.lft.to/lastmile_qr_scan"}, "lon": -77.03443316666667, "bike_id": "08ee923f36b46d22120c955f819d6366", "type": "electric_scooter", "name": "08ee923f36b46d22120c955f819d6366"}, {"is_disabled": 0, "is_reserved": 0, "fusion_lat": 0.0, "lat": 38.903600833333336, "fusion_lon": 0.0, "rental_uris": {"ios": "https://dc.lft.to/lastmile_qr_scan", "android": "https://dc.lft.to/lastmile_qr_scan"}, "lon": -77.06013383333334, "bike_id": "40cfc30c28a87499e54668b888c28739", "type": "electric_scooter", "name": "40cfc30c28a87499e54668b888c28739"}, {"is_disabled": 0, "is_reserved": 0, "fusion_lat": 0.0, "lat": 38.8426035, "fusion_lon": 0.0, "rental_uris": {"ios": "https://dc.lft.to/lastmile_qr_scan", "android": "https://dc.lft.to/lastmile_qr_scan"}, "lon": -76.98845933333334, "bike_id": "ea0e2c759619b436a67c4bcbea1eabca", "type": "electric_scooter", "name": "ea0e2c759619b436a67c4bcbea1eabca"}, {"is_disabled": 0, "is_reserved": 0, "fusion_lat": 0.0, "lat": 38.90444266666667, "fusion_lon": 0.0, "rental_uris": {"ios": "https://dc.lft.to/lastmile_qr_scan", "android": "https://dc.lft.to/lastmile_qr_scan"}, "lon": -76.9730855, "bike_id": "649644c78065b0be17bc74306207cf09", "type": "electric_scooter", "name": "649644c78065b0be17bc74306207cf09"}, {"is_disabled": 0, "is_reserved": 0, "fusion_lat": 0.0, "lat": 38.8764265, "fusion_lon": 0.0, "rental_uris": {"ios": "https://dc.lft.to/lastmile_qr_scan", "android": "https://dc.lft.to/lastmile_qr_scan"}, "lon": -77.015736, "bike_id": "e41c90865bb9884857f6bfa65d1d331d", "type": "electric_scooter", "name": "e41c90865bb9884857f6bfa65d1d331d"}, {"is_disabled": 0, "is_reserved": 0, "fusion_lat": 0.0, "lat": 38.9191435, "fusion_lon": 0.0, "rental_uris": {"ios": "https://dc.lft.to/lastmile_qr_scan", "android": "https://dc.lft.to/lastmile_qr_scan"}, "lon": -77.02319316666667, "bike_id": "504fc8ecdb85663fe41b98343c701aa3", "type": "electric_scooter", "name": "504fc8ecdb85663fe41b98343c701aa3"}, {"is_disabled": 0, "is_reserved": 0, "fusion_lat": 0.0, "lat": 38.939840833333335, "fusion_lon": 0.0, "rental_uris": {"ios": "https://dc.lft.to/lastmile_qr_scan", "android": "https://dc.lft.to/lastmile_qr_scan"}, "lon": -77.03071466666667, "bike_id": "a111bf735da603fea70f37509aae6ad8", "type": "electric_scooter", "name": "a111bf735da603fea70f37509aae6ad8"}, {"is_disabled": 0, "is_reserved": 0, "fusion_lat": 0.0, "lat": 38.923502, "fusion_lon": 0.0, "rental_uris": {"ios": "https://dc.lft.to/lastmile_qr_scan", "android": "https://dc.lft.to/lastmile_qr_scan"}, "lon": -77.03396466666666, "bike_id": "0d23bdba6c804b56168f5c05aad216f8", "type": "electric_scooter", "name": "0d23bdba6c804b56168f5c05aad216f8"}, {"is_disabled": 0, "is_reserved": 0, "fusion_lat": 0.0, "lat": 38.902215166666664, "fusion_lon": 0.0, "rental_uris": {"ios": "https://dc.lft.to/lastmile_qr_scan", "android": "https://dc.lft.to/lastmile_qr_scan"}, "lon": -77.02370316666666, "bike_id": "933fb8e07ef28d19c5ca2bf192d5569f", "type": "electric_scooter", "name": "933fb8e07ef28d19c5ca2bf192d5569f"}, {"is_disabled": 0, "is_reserved": 0, "fusion_lat": 0.0, "lat": 38.862845, "fusion_lon": 0.0, "rental_uris": {"ios": "https://dc.lft.to/lastmile_qr_scan", "android": "https://dc.lft.to/lastmile_qr_scan"}, "lon": -76.94525033333333, "bike_id": "ef377e2f1221b16c68dcea067c8ffa46", "type": "electric_bike", "name": "ef377e2f1221b16c68dcea067c8ffa46"}, {"is_disabled": 0, "is_reserved": 0, "fusion_lat": 0.0, "lat": 38.916823666666666, "fusion_lon": 0.0, "rental_uris": {"ios": "https://dc.lft.to/lastmile_qr_scan", "android": "https://dc.lft.to/lastmile_qr_scan"}, "lon": -77.02970016666667, "bike_id": "0af1580788805b71120b3b4e8bf9a5c6", "type": "electric_scooter", "name": "0af1580788805b71120b3b4e8bf9a5c6"}, {"is_disabled": 0, "is_reserved": 0, "fusion_lat": 0.0, "lat": 38.91716666666667, "fusion_lon": 0.0, "rental_uris": {"ios": "https://dc.lft.to/lastmile_qr_scan", "android": "https://dc.lft.to/lastmile_qr_scan"}, "lon": -77.0315975, "bike_id": "1839dad87d51ffbc29b2a7da98cad5d4", "type": "electric_scooter", "name": "1839dad87d51ffbc29b2a7da98cad5d4"}, {"is_disabled": 0, "is_reserved": 0, "fusion_lat": 0.0, "lat": 38.87291966666667, "fusion_lon": 0.0, "rental_uris": {"ios": "https://dc.lft.to/lastmile_qr_scan", "android": "https://dc.lft.to/lastmile_qr_scan"}, "lon": -77.00985183333333, "bike_id": "cb44a965fb6e736912d95ab923b993e3", "type": "electric_scooter", "name": "cb44a965fb6e736912d95ab923b993e3"}, {"is_disabled": 0, "is_reserved": 0, "fusion_lat": 0.0, "lat": 38.895943333333335, "fusion_lon": 0.0, "rental_uris": {"ios": "https://dc.lft.to/lastmile_qr_scan", "android": "https://dc.lft.to/lastmile_qr_scan"}, "lon": -77.02525633333333, "bike_id": "ca7307c167a962ceef785049787bd575", "type": "electric_scooter", "name": "ca7307c167a962ceef785049787bd575"}, {"is_disabled": 0, "is_reserved": 0, "fusion_lat": 0.0, "lat": 38.920887, "fusion_lon": 0.0, "rental_uris": {"ios": "https://dc.lft.to/lastmile_qr_scan", "android": "https://dc.lft.to/lastmile_qr_scan"}, "lon": -77.02251883333334, "bike_id": "1a1014d9d74bde9c1ef3c583a1464902", "type": "electric_scooter", "name": "1a1014d9d74bde9c1ef3c583a1464902"}, {"is_disabled": 0, "is_reserved": 0, "fusion_lat": 0.0, "lat": 38.90864166666667, "fusion_lon": 0.0, "rental_uris": {"ios": "https://dc.lft.to/lastmile_qr_scan", "android": "https://dc.lft.to/lastmile_qr_scan"}, "lon": -77.048287, "bike_id": "41ef4f4b8d081c067fbe76ab9e62ff7e", "type": "electric_scooter", "name": "41ef4f4b8d081c067fbe76ab9e62ff7e"}, {"is_disabled": 0, "is_reserved": 0, "fusion_lat": 0.0, "lat": 38.90194666666667, "fusion_lon": 0.0, "rental_uris": {"ios": "https://dc.lft.to/lastmile_qr_scan", "android": "https://dc.lft.to/lastmile_qr_scan"}, "lon": -77.05089016666666, "bike_id": "bc346ae4b3f157096871beded75d1165", "type": "electric_scooter", "name": "bc346ae4b3f157096871beded75d1165"}, {"is_disabled": 0, "is_reserved": 0, "fusion_lat": 0.0, "lat": 38.908691166666664, "fusion_lon": 0.0, "rental_uris": {"ios": "https://dc.lft.to/lastmile_qr_scan", "android": "https://dc.lft.to/lastmile_qr_scan"}, "lon": -77.0859295, "bike_id": "ef2af586a831ec56245b2322fb469833", "type": "electric_scooter", "name": "ef2af586a831ec56245b2322fb469833"}, {"is_disabled": 0, "is_reserved": 0, "fusion_lat": 0.0, "lat": 38.913542, "fusion_lon": 0.0, "rental_uris": {"ios": "https://dc.lft.to/lastmile_qr_scan", "android": "https://dc.lft.to/lastmile_qr_scan"}, "lon": -77.0321015, "bike_id": "2eadd4cc1186f96b083c094d482513ce", "type": "electric_scooter", "name": "2eadd4cc1186f96b083c094d482513ce"}, {"is_disabled": 0, "is_reserved": 0, "fusion_lat": 0.0, "lat": 38.947231333333335, "fusion_lon": 0.0, "rental_uris": {"ios": "https://dc.lft.to/lastmile_qr_scan", "android": "https://dc.lft.to/lastmile_qr_scan"}, "lon": -77.02354666666666, "bike_id": "04d3a0564929f20c3ee817ad2fe7ba22", "type": "electric_scooter", "name": "04d3a0564929f20c3ee817ad2fe7ba22"}, {"is_disabled": 0, "is_reserved": 0, "fusion_lat": 0.0, "lat": 38.92964883333333, "fusion_lon": 0.0, "rental_uris": {"ios": "https://dc.lft.to/lastmile_qr_scan", "android": "https://dc.lft.to/lastmile_qr_scan"}, "lon": -77.04198466666666, "bike_id": "269ef5113fc09709397be97699120c2d", "type": "electric_scooter", "name": "269ef5113fc09709397be97699120c2d"}, {"is_disabled": 0, "is_reserved": 0, "fusion_lat": 0.0, "lat": 38.91787, "fusion_lon": 0.0, "rental_uris": {"ios": "https://dc.lft.to/lastmile_qr_scan", "android": "https://dc.lft.to/lastmile_qr_scan"}, "lon": -77.02474133333334, "bike_id": "16efbdf9063c54e83b7acaa39d60443a", "type": "electric_scooter", "name": "16efbdf9063c54e83b7acaa39d60443a"}, {"is_disabled": 0, "is_reserved": 0, "fusion_lat": 0.0, "lat": 38.934122, "fusion_lon": 0.0, "rental_uris": {"ios": "https://dc.lft.to/lastmile_qr_scan", "android": "https://dc.lft.to/lastmile_qr_scan"}, "lon": -77.07242683333334, "bike_id": "d63280ac53ddffb64d9720b6bfe83cfc", "type": "electric_scooter", "name": "d63280ac53ddffb64d9720b6bfe83cfc"}, {"is_disabled": 0, "is_reserved": 0, "fusion_lat": 0.0, "lat": 38.91764583333333, "fusion_lon": 0.0, "rental_uris": {"ios": "https://dc.lft.to/lastmile_qr_scan", "android": "https://dc.lft.to/lastmile_qr_scan"}, "lon": -77.029605, "bike_id": "b14b9244a8fe3047ef26d32a9f9ec8c6", "type": "electric_scooter", "name": "b14b9244a8fe3047ef26d32a9f9ec8c6"}, {"is_disabled": 0, "is_reserved": 0, "fusion_lat": 0.0, "lat": 38.974414333333335, "fusion_lon": 0.0, "rental_uris": {"ios": "https://dc.lft.to/lastmile_qr_scan", "android": "https://dc.lft.to/lastmile_qr_scan"}, "lon": -77.095902, "bike_id": "98c42ed7adcf537a2936bb6d55f6e951", "type": "electric_bike", "name": "98c42ed7adcf537a2936bb6d55f6e951"}, {"is_disabled": 0, "is_reserved": 0, "fusion_lat": 0.0, "lat": 38.92311866666667, "fusion_lon": 0.0, "rental_uris": {"ios": "https://dc.lft.to/lastmile_qr_scan", "android": "https://dc.lft.to/lastmile_qr_scan"}, "lon": -77.03409133333334, "bike_id": "17b495571bbb44bf44c254ba230d303e", "type": "electric_scooter", "name": "17b495571bbb44bf44c254ba230d303e"}, {"is_disabled": 0, "is_reserved": 0, "fusion_lat": 0.0, "lat": 38.90977866666667, "fusion_lon": 0.0, "rental_uris": {"ios": "https://dc.lft.to/lastmile_qr_scan", "android": "https://dc.lft.to/lastmile_qr_scan"}, "lon": -77.03340466666667, "bike_id": "90bbeef160745c14dc4be6d63b311c3c", "type": "electric_scooter", "name": "90bbeef160745c14dc4be6d63b311c3c"}, {"is_disabled": 0, "is_reserved": 0, "fusion_lat": 0.0, "lat": 38.876606, "fusion_lon": 0.0, "rental_uris": {"ios": "https://dc.lft.to/lastmile_qr_scan", "android": "https://dc.lft.to/lastmile_qr_scan"}, "lon": -77.00879616666667, "bike_id": "f12e0a9dfb694a3422b2a61470ed3103", "type": "electric_scooter", "name": "f12e0a9dfb694a3422b2a61470ed3103"}, {"is_disabled": 0, "is_reserved": 0, "fusion_lat": 0.0, "lat": 38.9222125, "fusion_lon": 0.0, "rental_uris": {"ios": "https://dc.lft.to/lastmile_qr_scan", "android": "https://dc.lft.to/lastmile_qr_scan"}, "lon": -77.04245866666666, "bike_id": "3ec9d12a4344e06d9012a281ecbc2fcb", "type": "electric_scooter", "name": "3ec9d12a4344e06d9012a281ecbc2fcb"}, {"is_disabled": 0, "is_reserved": 0, "fusion_lat": 0.0, "lat": 38.928482, "fusion_lon": 0.0, "rental_uris": {"ios": "https://dc.lft.to/lastmile_qr_scan", "android": "https://dc.lft.to/lastmile_qr_scan"}, "lon": -77.029667, "bike_id": "a1ac961854950fb9b72c853edda53c0e", "type": "electric_scooter", "name": "a1ac961854950fb9b72c853edda53c0e"}, {"is_disabled": 0, "is_reserved": 0, "fusion_lat": 0.0, "lat": 38.89669816666667, "fusion_lon": 0.0, "rental_uris": {"ios": "https://dc.lft.to/lastmile_qr_scan", "android": "https://dc.lft.to/lastmile_qr_scan"}, "lon": -76.932124, "bike_id": "5e9942ff20a351609077c3f3d56bae6a", "type": "electric_bike", "name": "5e9942ff20a351609077c3f3d56bae6a"}, {"is_disabled": 0, "is_reserved": 0, "fusion_lat": 0.0, "lat": 38.91782383333333, "fusion_lon": 0.0, "rental_uris": {"ios": "https://dc.lft.to/lastmile_qr_scan", "android": "https://dc.lft.to/lastmile_qr_scan"}, "lon": -77.04548116666666, "bike_id": "47f23112e72f80413619550c69fd1167", "type": "electric_scooter", "name": "47f23112e72f80413619550c69fd1167"}, {"is_disabled": 0, "is_reserved": 0, "fusion_lat": 0.0, "lat": 38.8292405, "fusion_lon": 0.0, "rental_uris": {"ios": "https://dc.lft.to/lastmile_qr_scan", "android": "https://dc.lft.to/lastmile_qr_scan"}, "lon": -77.06878716666667, "bike_id": "095dcbdbdf564c9bc666bbfbcca2c28b", "type": "electric_bike", "name": "095dcbdbdf564c9bc666bbfbcca2c28b"}, {"is_disabled": 0, "is_reserved": 0, "fusion_lat": 0.0, "lat": 38.90587383333333, "fusion_lon": 0.0, "rental_uris": {"ios": "https://dc.lft.to/lastmile_qr_scan", "android": "https://dc.lft.to/lastmile_qr_scan"}, "lon": -77.04878916666667, "bike_id": "f5dffdfdeae8cecd3833d02ef97450e0", "type": "electric_scooter", "name": "f5dffdfdeae8cecd3833d02ef97450e0"}, {"is_disabled": 0, "is_reserved": 0, "fusion_lat": 0.0, "lat": 38.92374, "fusion_lon": 0.0, "rental_uris": {"ios": "https://dc.lft.to/lastmile_qr_scan", "android": "https://dc.lft.to/lastmile_qr_scan"}, "lon": -77.0433005, "bike_id": "9d9a489f39d6113cbd9f51e3b469215f", "type": "electric_scooter", "name": "9d9a489f39d6113cbd9f51e3b469215f"}, {"is_disabled": 0, "is_reserved": 0, "fusion_lat": 0.0, "lat": 38.901520166666664, "fusion_lon": 0.0, "rental_uris": {"ios": "https://dc.lft.to/lastmile_qr_scan", "android": "https://dc.lft.to/lastmile_qr_scan"}, "lon": -76.9742395, "bike_id": "da7870178dc0859e48d1e974a3f4e243", "type": "electric_scooter", "name": "da7870178dc0859e48d1e974a3f4e243"}, {"is_disabled": 0, "is_reserved": 0, "fusion_lat": 0.0, "lat": 38.92872333333333, "fusion_lon": 0.0, "rental_uris": {"ios": "https://dc.lft.to/lastmile_qr_scan", "android": "https://dc.lft.to/lastmile_qr_scan"}, "lon": -77.05650583333333, "bike_id": "ea3c2aedb8ec181497be49a005c90f8f", "type": "electric_scooter", "name": "ea3c2aedb8ec181497be49a005c90f8f"}, {"is_disabled": 0, "is_reserved": 0, "fusion_lat": 0.0, "lat": 38.92261666666667, "fusion_lon": 0.0, "rental_uris": {"ios": "https://dc.lft.to/lastmile_qr_scan", "android": "https://dc.lft.to/lastmile_qr_scan"}, "lon": -77.072762, "bike_id": "6958564c62cbc0070b2564aa5169fbb9", "type": "electric_scooter", "name": "6958564c62cbc0070b2564aa5169fbb9"}, {"is_disabled": 0, "is_reserved": 0, "fusion_lat": 0.0, "lat": 38.880397333333335, "fusion_lon": 0.0, "rental_uris": {"ios": "https://dc.lft.to/lastmile_qr_scan", "android": "https://dc.lft.to/lastmile_qr_scan"}, "lon": -76.92722083333334, "bike_id": "9d26bdae4e0432cbeede7c57ee7bbc96", "type": "electric_scooter", "name": "9d26bdae4e0432cbeede7c57ee7bbc96"}, {"is_disabled": 0, "is_reserved": 0, "fusion_lat": 0.0, "lat": 38.915828166666664, "fusion_lon": 0.0, "rental_uris": {"ios": "https://dc.lft.to/lastmile_qr_scan", "android": "https://dc.lft.to/lastmile_qr_scan"}, "lon": -77.02001683333333, "bike_id": "1fd87e546ad4a9effd8578f372a37508", "type": "electric_scooter", "name": "1fd87e546ad4a9effd8578f372a37508"}, {"is_disabled": 0, "is_reserved": 0, "fusion_lat": 0.0, "lat": 38.89235333333333, "fusion_lon": 0.0, "rental_uris": {"ios": "https://dc.lft.to/lastmile_qr_scan", "android": "https://dc.lft.to/lastmile_qr_scan"}, "lon": -77.03166033333333, "bike_id": "86f7ce3fc03b225d8801b17264bf3e02", "type": "electric_scooter", "name": "86f7ce3fc03b225d8801b17264bf3e02"}, {"is_disabled": 0, "is_reserved": 0, "fusion_lat": 0.0, "lat": 38.90197333333333, "fusion_lon": 0.0, "rental_uris": {"ios": "https://dc.lft.to/lastmile_qr_scan", "android": "https://dc.lft.to/lastmile_qr_scan"}, "lon": -77.0219645, "bike_id": "fb571629ba72ed8c92a6b67c01278aa9", "type": "electric_scooter", "name": "fb571629ba72ed8c92a6b67c01278aa9"}, {"is_disabled": 0, "is_reserved": 0, "fusion_lat": 0.0, "lat": 38.899164666666664, "fusion_lon": 0.0, "rental_uris": {"ios": "https://dc.lft.to/lastmile_qr_scan", "android": "https://dc.lft.to/lastmile_qr_scan"}, "lon": -76.9339605, "bike_id": "dd47adc49debbc2ce1389195b40f906d", "type": "electric_scooter", "name": "dd47adc49debbc2ce1389195b40f906d"}, {"is_disabled": 0, "is_reserved": 0, "fusion_lat": 0.0, "lat": 38.92842516666666, "fusion_lon": 0.0, "rental_uris": {"ios": "https://dc.lft.to/lastmile_qr_scan", "android": "https://dc.lft.to/lastmile_qr_scan"}, "lon": -77.03731, "bike_id": "210b76f4b840ebb7c85006176b69df0c", "type": "electric_scooter", "name": "210b76f4b840ebb7c85006176b69df0c"}, {"is_disabled": 0, "is_reserved": 0, "fusion_lat": 0.0, "lat": 38.920958, "fusion_lon": 0.0, "rental_uris": {"ios": "https://dc.lft.to/lastmile_qr_scan", "android": "https://dc.lft.to/lastmile_qr_scan"}, "lon": -77.01803383333333, "bike_id": "94c8f668ce846316ddcb4219df183389", "type": "electric_scooter", "name": "94c8f668ce846316ddcb4219df183389"}, {"is_disabled": 0, "is_reserved": 0, "fusion_lat": 0.0, "lat": 38.907589, "fusion_lon": 0.0, "rental_uris": {"ios": "https://dc.lft.to/lastmile_qr_scan", "android": "https://dc.lft.to/lastmile_qr_scan"}, "lon": -77.00117416666667, "bike_id": "a13d0eb8ee08eb1056065301d92d0176", "type": "electric_scooter", "name": "a13d0eb8ee08eb1056065301d92d0176"}, {"is_disabled": 0, "is_reserved": 0, "fusion_lat": 0.0, "lat": 38.950795166666666, "fusion_lon": 0.0, "rental_uris": {"ios": "https://dc.lft.to/lastmile_qr_scan", "android": "https://dc.lft.to/lastmile_qr_scan"}, "lon": -77.01201716666667, "bike_id": "57605a5e09090be28aba97a6484e8fee", "type": "electric_bike", "name": "57605a5e09090be28aba97a6484e8fee"}, {"is_disabled": 0, "is_reserved": 0, "fusion_lat": 0.0, "lat": 38.876675666666664, "fusion_lon": 0.0, "rental_uris": {"ios": "https://dc.lft.to/lastmile_qr_scan", "android": "https://dc.lft.to/lastmile_qr_scan"}, "lon": -77.014475, "bike_id": "2cecb0826f9cb4d766e1a6e77f7cbdb5", "type": "electric_bike", "name": "2cecb0826f9cb4d766e1a6e77f7cbdb5"}, {"is_disabled": 0, "is_reserved": 0, "fusion_lat": 0.0, "lat": 38.84862016666666, "fusion_lon": 0.0, "rental_uris": {"ios": "https://dc.lft.to/lastmile_qr_scan", "android": "https://dc.lft.to/lastmile_qr_scan"}, "lon": -77.06830666666667, "bike_id": "5a618d83a66b107733ca0de220152298", "type": "electric_bike", "name": "5a618d83a66b107733ca0de220152298"}, {"is_disabled": 0, "is_reserved": 0, "fusion_lat": 0.0, "lat": 38.89743433333334, "fusion_lon": 0.0, "rental_uris": {"ios": "https://dc.lft.to/lastmile_qr_scan", "android": "https://dc.lft.to/lastmile_qr_scan"}, "lon": -76.99219466666666, "bike_id": "a7e9537906f412c92e28a88d2b519118", "type": "electric_bike", "name": "a7e9537906f412c92e28a88d2b519118"}, {"is_disabled": 0, "is_reserved": 0, "fusion_lat": 0.0, "lat": 38.89746783333333, "fusion_lon": 0.0, "rental_uris": {"ios": "https://dc.lft.to/lastmile_qr_scan", "android": "https://dc.lft.to/lastmile_qr_scan"}, "lon": -77.02785583333333, "bike_id": "34abf500d2a500bbaf664c1a5a234a00", "type": "electric_scooter", "name": "34abf500d2a500bbaf664c1a5a234a00"}, {"is_disabled": 0, "is_reserved": 0, "fusion_lat": 0.0, "lat": 38.919596, "fusion_lon": 0.0, "rental_uris": {"ios": "https://dc.lft.to/lastmile_qr_scan", "android": "https://dc.lft.to/lastmile_qr_scan"}, "lon": -77.07870066666666, "bike_id": "6eb0ea46d3c059263249dcce0c1a4b10", "type": "electric_scooter", "name": "6eb0ea46d3c059263249dcce0c1a4b10"}, {"is_disabled": 0, "is_reserved": 0, "fusion_lat": 0.0, "lat": 38.92105516666667, "fusion_lon": 0.0, "rental_uris": {"ios": "https://dc.lft.to/lastmile_qr_scan", "android": "https://dc.lft.to/lastmile_qr_scan"}, "lon": -77.03241716666666, "bike_id": "c7950f905a64ed1436f84c106735d7a7", "type": "electric_scooter", "name": "c7950f905a64ed1436f84c106735d7a7"}, {"is_disabled": 0, "is_reserved": 0, "fusion_lat": 0.0, "lat": 38.929091, "fusion_lon": 0.0, "rental_uris": {"ios": "https://dc.lft.to/lastmile_qr_scan", "android": "https://dc.lft.to/lastmile_qr_scan"}, "lon": -77.0325785, "bike_id": "4d19d15791d4b527b63968c3b433c01b", "type": "electric_scooter", "name": "4d19d15791d4b527b63968c3b433c01b"}, {"is_disabled": 0, "is_reserved": 0, "fusion_lat": 0.0, "lat": 38.920486833333335, "fusion_lon": 0.0, "rental_uris": {"ios": "https://dc.lft.to/lastmile_qr_scan", "android": "https://dc.lft.to/lastmile_qr_scan"}, "lon": -77.034688, "bike_id": "56b6cfe953e3d1392429e47629d06fbe", "type": "electric_scooter", "name": "56b6cfe953e3d1392429e47629d06fbe"}, {"is_disabled": 0, "is_reserved": 0, "fusion_lat": 0.0, "lat": 38.87930216666667, "fusion_lon": 0.0, "rental_uris": {"ios": "https://dc.lft.to/lastmile_qr_scan", "android": "https://dc.lft.to/lastmile_qr_scan"}, "lon": -77.0077855, "bike_id": "ba7d84b3c0e90335d8e7eea71b547645", "type": "electric_scooter", "name": "ba7d84b3c0e90335d8e7eea71b547645"}, {"is_disabled": 0, "is_reserved": 0, "fusion_lat": 0.0, "lat": 38.914177, "fusion_lon": 0.0, "rental_uris": {"ios": "https://dc.lft.to/lastmile_qr_scan", "android": "https://dc.lft.to/lastmile_qr_scan"}, "lon": -77.02217083333333, "bike_id": "545e3ee3698641a6826a46b72c49416d", "type": "electric_scooter", "name": "545e3ee3698641a6826a46b72c49416d"}, {"is_disabled": 0, "is_reserved": 0, "fusion_lat": 0.0, "lat": 38.916815, "fusion_lon": 0.0, "rental_uris": {"ios": "https://dc.lft.to/lastmile_qr_scan", "android": "https://dc.lft.to/lastmile_qr_scan"}, "lon": -77.02970166666667, "bike_id": "53d18e8a9d1b89a02de859b69ba9ca37", "type": "electric_scooter", "name": "53d18e8a9d1b89a02de859b69ba9ca37"}, {"is_disabled": 0, "is_reserved": 0, "fusion_lat": 0.0, "lat": 38.933557, "fusion_lon": 0.0, "rental_uris": {"ios": "https://dc.lft.to/lastmile_qr_scan", "android": "https://dc.lft.to/lastmile_qr_scan"}, "lon": -77.034225, "bike_id": "f69379bff6309259e184cd705e7fca93", "type": "electric_scooter", "name": "f69379bff6309259e184cd705e7fca93"}, {"is_disabled": 0, "is_reserved": 0, "fusion_lat": 0.0, "lat": 38.81586316666667, "fusion_lon": 0.0, "rental_uris": {"ios": "https://dc.lft.to/lastmile_qr_scan", "android": "https://dc.lft.to/lastmile_qr_scan"}, "lon": -77.04942983333333, "bike_id": "cfce8a4aa64734e7cf47944a95251ad5", "type": "electric_bike", "name": "cfce8a4aa64734e7cf47944a95251ad5"}, {"is_disabled": 0, "is_reserved": 0, "fusion_lat": 0.0, "lat": 38.8991845, "fusion_lon": 0.0, "rental_uris": {"ios": "https://dc.lft.to/lastmile_qr_scan", "android": "https://dc.lft.to/lastmile_qr_scan"}, "lon": -77.04882583333334, "bike_id": "00f93ce77bbbe666b5f4f51a892c163f", "type": "electric_scooter", "name": "00f93ce77bbbe666b5f4f51a892c163f"}, {"is_disabled": 0, "is_reserved": 0, "fusion_lat": 0.0, "lat": 38.956476, "fusion_lon": 0.0, "rental_uris": {"ios": "https://dc.lft.to/lastmile_qr_scan", "android": "https://dc.lft.to/lastmile_qr_scan"}, "lon": -77.02440466666667, "bike_id": "e946bc414c2c3b01d334eb17bbb23e92", "type": "electric_scooter", "name": "e946bc414c2c3b01d334eb17bbb23e92"}, {"is_disabled": 0, "is_reserved": 0, "fusion_lat": 0.0, "lat": 38.90040883333333, "fusion_lon": 0.0, "rental_uris": {"ios": "https://dc.lft.to/lastmile_qr_scan", "android": "https://dc.lft.to/lastmile_qr_scan"}, "lon": -76.985578, "bike_id": "3c73b70d2e417282d034753159031433", "type": "electric_scooter", "name": "3c73b70d2e417282d034753159031433"}, {"is_disabled": 0, "is_reserved": 0, "fusion_lat": 0.0, "lat": 38.937944333333334, "fusion_lon": 0.0, "rental_uris": {"ios": "https://dc.lft.to/lastmile_qr_scan", "android": "https://dc.lft.to/lastmile_qr_scan"}, "lon": -77.02981616666666, "bike_id": "b4171639de58e7c18c263fe83a299f04", "type": "electric_scooter", "name": "b4171639de58e7c18c263fe83a299f04"}, {"is_disabled": 0, "is_reserved": 0, "fusion_lat": 0.0, "lat": 38.929314166666664, "fusion_lon": 0.0, "rental_uris": {"ios": "https://dc.lft.to/lastmile_qr_scan", "android": "https://dc.lft.to/lastmile_qr_scan"}, "lon": -77.00673483333334, "bike_id": "7b5e3c60341e7585289a9d0a39f49de3", "type": "electric_scooter", "name": "7b5e3c60341e7585289a9d0a39f49de3"}, {"is_disabled": 0, "is_reserved": 0, "fusion_lat": 0.0, "lat": 38.92093116666667, "fusion_lon": 0.0, "rental_uris": {"ios": "https://dc.lft.to/lastmile_qr_scan", "android": "https://dc.lft.to/lastmile_qr_scan"}, "lon": -77.02518683333334, "bike_id": "df9d9775b4cead6940c50a420603e3f3", "type": "electric_scooter", "name": "df9d9775b4cead6940c50a420603e3f3"}, {"is_disabled": 0, "is_reserved": 0, "fusion_lat": 0.0, "lat": 38.908615166666664, "fusion_lon": 0.0, "rental_uris": {"ios": "https://dc.lft.to/lastmile_qr_scan", "android": "https://dc.lft.to/lastmile_qr_scan"}, "lon": -77.0241915, "bike_id": "3a383d4cae195bc14f4c7775d9ea48a8", "type": "electric_scooter", "name": "3a383d4cae195bc14f4c7775d9ea48a8"}, {"is_disabled": 0, "is_reserved": 0, "fusion_lat": 0.0, "lat": 38.9002865, "fusion_lon": 0.0, "rental_uris": {"ios": "https://dc.lft.to/lastmile_qr_scan", "android": "https://dc.lft.to/lastmile_qr_scan"}, "lon": -77.00199816666667, "bike_id": "fba14d61e7d23366adca9a14cb3da518", "type": "electric_scooter", "name": "fba14d61e7d23366adca9a14cb3da518"}, {"is_disabled": 0, "is_reserved": 0, "fusion_lat": 0.0, "lat": 38.91474733333333, "fusion_lon": 0.0, "rental_uris": {"ios": "https://dc.lft.to/lastmile_qr_scan", "android": "https://dc.lft.to/lastmile_qr_scan"}, "lon": -77.0092105, "bike_id": "d036e51aaffd677803a68644dde6b8ed", "type": "electric_scooter", "name": "d036e51aaffd677803a68644dde6b8ed"}, {"is_disabled": 0, "is_reserved": 0, "fusion_lat": 0.0, "lat": 38.91460166666667, "fusion_lon": 0.0, "rental_uris": {"ios": "https://dc.lft.to/lastmile_qr_scan", "android": "https://dc.lft.to/lastmile_qr_scan"}, "lon": -77.03203266666667, "bike_id": "94aabc8ea642536bf4fff46ddf475437", "type": "electric_scooter", "name": "94aabc8ea642536bf4fff46ddf475437"}, {"is_disabled": 0, "is_reserved": 0, "fusion_lat": 0.0, "lat": 39.026483, "fusion_lon": 0.0, "rental_uris": {"ios": "https://dc.lft.to/lastmile_qr_scan", "android": "https://dc.lft.to/lastmile_qr_scan"}, "lon": -77.036869, "bike_id": "318987437f4eb6435eeb291fe3bc9a44", "type": "electric_bike", "name": "318987437f4eb6435eeb291fe3bc9a44"}, {"is_disabled": 0, "is_reserved": 0, "fusion_lat": 0.0, "lat": 38.9433365, "fusion_lon": 0.0, "rental_uris": {"ios": "https://dc.lft.to/lastmile_qr_scan", "android": "https://dc.lft.to/lastmile_qr_scan"}, "lon": -77.026899, "bike_id": "5a50824d436b86d21f52856342acfb9e", "type": "electric_scooter", "name": "5a50824d436b86d21f52856342acfb9e"}, {"is_disabled": 0, "is_reserved": 0, "fusion_lat": 0.0, "lat": 38.9051365, "fusion_lon": 0.0, "rental_uris": {"ios": "https://dc.lft.to/lastmile_qr_scan", "android": "https://dc.lft.to/lastmile_qr_scan"}, "lon": -76.95201583333333, "bike_id": "86a9ea2093c464f74422fe893bd5ee40", "type": "electric_scooter", "name": "86a9ea2093c464f74422fe893bd5ee40"}, {"is_disabled": 0, "is_reserved": 0, "fusion_lat": 0.0, "lat": 38.93026233333333, "fusion_lon": 0.0, "rental_uris": {"ios": "https://dc.lft.to/lastmile_qr_scan", "android": "https://dc.lft.to/lastmile_qr_scan"}, "lon": -77.02339766666667, "bike_id": "f9691f040f1c384a1f55096887418413", "type": "electric_scooter", "name": "f9691f040f1c384a1f55096887418413"}, {"is_disabled": 0, "is_reserved": 0, "fusion_lat": 0.0, "lat": 38.9142155, "fusion_lon": 0.0, "rental_uris": {"ios": "https://dc.lft.to/lastmile_qr_scan", "android": "https://dc.lft.to/lastmile_qr_scan"}, "lon": -77.05207233333333, "bike_id": "f17371d92b121a5cd766bef29c11525e", "type": "electric_scooter", "name": "f17371d92b121a5cd766bef29c11525e"}, {"is_disabled": 0, "is_reserved": 0, "fusion_lat": 0.0, "lat": 38.886222333333336, "fusion_lon": 0.0, "rental_uris": {"ios": "https://dc.lft.to/lastmile_qr_scan", "android": "https://dc.lft.to/lastmile_qr_scan"}, "lon": -76.92633666666667, "bike_id": "b55d5fada1fb24626d2db6327a08b23d", "type": "electric_scooter", "name": "b55d5fada1fb24626d2db6327a08b23d"}, {"is_disabled": 0, "is_reserved": 0, "fusion_lat": 0.0, "lat": 38.92363483333333, "fusion_lon": 0.0, "rental_uris": {"ios": "https://dc.lft.to/lastmile_qr_scan", "android": "https://dc.lft.to/lastmile_qr_scan"}, "lon": -77.02137966666666, "bike_id": "c479effc99c55555fb36f5f6d174b687", "type": "electric_scooter", "name": "c479effc99c55555fb36f5f6d174b687"}, {"is_disabled": 0, "is_reserved": 0, "fusion_lat": 0.0, "lat": 38.900078, "fusion_lon": 0.0, "rental_uris": {"ios": "https://dc.lft.to/lastmile_qr_scan", "android": "https://dc.lft.to/lastmile_qr_scan"}, "lon": -77.02713883333334, "bike_id": "fd45b1c27e765321e86fd03697dab117", "type": "electric_scooter", "name": "fd45b1c27e765321e86fd03697dab117"}, {"is_disabled": 0, "is_reserved": 0, "fusion_lat": 0.0, "lat": 38.9306775, "fusion_lon": 0.0, "rental_uris": {"ios": "https://dc.lft.to/lastmile_qr_scan", "android": "https://dc.lft.to/lastmile_qr_scan"}, "lon": -77.04046966666667, "bike_id": "7e4e2256391647aea526c5bbd534f2b9", "type": "electric_scooter", "name": "7e4e2256391647aea526c5bbd534f2b9"}, {"is_disabled": 0, "is_reserved": 0, "fusion_lat": 0.0, "lat": 38.926050000000004, "fusion_lon": 0.0, "rental_uris": {"ios": "https://dc.lft.to/lastmile_qr_scan", "android": "https://dc.lft.to/lastmile_qr_scan"}, "lon": -77.0529465, "bike_id": "b34be739c8db20ff47567db626039cd7", "type": "electric_scooter", "name": "b34be739c8db20ff47567db626039cd7"}, {"is_disabled": 0, "is_reserved": 0, "fusion_lat": 0.0, "lat": 38.906088, "fusion_lon": 0.0, "rental_uris": {"ios": "https://dc.lft.to/lastmile_qr_scan", "android": "https://dc.lft.to/lastmile_qr_scan"}, "lon": -76.9842465, "bike_id": "203fe4900778657556309719a3aead03", "type": "electric_scooter", "name": "203fe4900778657556309719a3aead03"}, {"is_disabled": 0, "is_reserved": 0, "fusion_lat": 0.0, "lat": 38.934482833333334, "fusion_lon": 0.0, "rental_uris": {"ios": "https://dc.lft.to/lastmile_qr_scan", "android": "https://dc.lft.to/lastmile_qr_scan"}, "lon": -77.029825, "bike_id": "275a098a87b5b40f63aca62b21feecc8", "type": "electric_scooter", "name": "275a098a87b5b40f63aca62b21feecc8"}, {"is_disabled": 0, "is_reserved": 0, "fusion_lat": 0.0, "lat": 38.9042875, "fusion_lon": 0.0, "rental_uris": {"ios": "https://dc.lft.to/lastmile_qr_scan", "android": "https://dc.lft.to/lastmile_qr_scan"}, "lon": -77.02593616666667, "bike_id": "7fd3586e3903a960a8f7261dc255e683", "type": "electric_scooter", "name": "7fd3586e3903a960a8f7261dc255e683"}, {"is_disabled": 0, "is_reserved": 0, "fusion_lat": 0.0, "lat": 38.9188705, "fusion_lon": 0.0, "rental_uris": {"ios": "https://dc.lft.to/lastmile_qr_scan", "android": "https://dc.lft.to/lastmile_qr_scan"}, "lon": -77.03490116666667, "bike_id": "4dcacfcc962c3ae279b1c952daed7783", "type": "electric_scooter", "name": "4dcacfcc962c3ae279b1c952daed7783"}, {"is_disabled": 0, "is_reserved": 0, "fusion_lat": 0.0, "lat": 38.918047, "fusion_lon": 0.0, "rental_uris": {"ios": "https://dc.lft.to/lastmile_qr_scan", "android": "https://dc.lft.to/lastmile_qr_scan"}, "lon": -77.0318915, "bike_id": "d2798ae4c61735988ba6c6936f373b25", "type": "electric_scooter", "name": "d2798ae4c61735988ba6c6936f373b25"}, {"is_disabled": 0, "is_reserved": 0, "fusion_lat": 0.0, "lat": 38.892221, "fusion_lon": 0.0, "rental_uris": {"ios": "https://dc.lft.to/lastmile_qr_scan", "android": "https://dc.lft.to/lastmile_qr_scan"}, "lon": -77.02422983333334, "bike_id": "8fa53e93592026d2cec74407ffdce228", "type": "electric_scooter", "name": "8fa53e93592026d2cec74407ffdce228"}, {"is_disabled": 0, "is_reserved": 0, "fusion_lat": 0.0, "lat": 38.90608866666667, "fusion_lon": 0.0, "rental_uris": {"ios": "https://dc.lft.to/lastmile_qr_scan", "android": "https://dc.lft.to/lastmile_qr_scan"}, "lon": -77.128917, "bike_id": "5649f548d09ae59938834c9c01a2f968", "type": "electric_bike", "name": "5649f548d09ae59938834c9c01a2f968"}, {"is_disabled": 0, "is_reserved": 0, "fusion_lat": 0.0, "lat": 38.9492805, "fusion_lon": 0.0, "rental_uris": {"ios": "https://dc.lft.to/lastmile_qr_scan", "android": "https://dc.lft.to/lastmile_qr_scan"}, "lon": -77.0193635, "bike_id": "abec5b5edd03e5dbee3afa48361afdc7", "type": "electric_scooter", "name": "abec5b5edd03e5dbee3afa48361afdc7"}, {"is_disabled": 0, "is_reserved": 0, "fusion_lat": 0.0, "lat": 38.92242666666667, "fusion_lon": 0.0, "rental_uris": {"ios": "https://dc.lft.to/lastmile_qr_scan", "android": "https://dc.lft.to/lastmile_qr_scan"}, "lon": -77.03905333333333, "bike_id": "53387798f7a8c8fa95616d94e0be3fa4", "type": "electric_scooter", "name": "53387798f7a8c8fa95616d94e0be3fa4"}, {"is_disabled": 0, "is_reserved": 0, "fusion_lat": 0.0, "lat": 38.9004675, "fusion_lon": 0.0, "rental_uris": {"ios": "https://dc.lft.to/lastmile_qr_scan", "android": "https://dc.lft.to/lastmile_qr_scan"}, "lon": -77.01788116666667, "bike_id": "b0e6ea1a40e59e0045e203cd800369db", "type": "electric_scooter", "name": "b0e6ea1a40e59e0045e203cd800369db"}, {"is_disabled": 0, "is_reserved": 0, "fusion_lat": 0.0, "lat": 38.9026515, "fusion_lon": 0.0, "rental_uris": {"ios": "https://dc.lft.to/lastmile_qr_scan", "android": "https://dc.lft.to/lastmile_qr_scan"}, "lon": -77.00168683333334, "bike_id": "aa8510cf945bd1df5aeec49ca305b7f2", "type": "electric_scooter", "name": "aa8510cf945bd1df5aeec49ca305b7f2"}, {"is_disabled": 0, "is_reserved": 0, "fusion_lat": 0.0, "lat": 38.908258833333335, "fusion_lon": 0.0, "rental_uris": {"ios": "https://dc.lft.to/lastmile_qr_scan", "android": "https://dc.lft.to/lastmile_qr_scan"}, "lon": -76.9826235, "bike_id": "9fd240a57cf0961713c3ae20c7797e69", "type": "electric_scooter", "name": "9fd240a57cf0961713c3ae20c7797e69"}, {"is_disabled": 0, "is_reserved": 0, "fusion_lat": 0.0, "lat": 38.92526766666667, "fusion_lon": 0.0, "rental_uris": {"ios": "https://dc.lft.to/lastmile_qr_scan", "android": "https://dc.lft.to/lastmile_qr_scan"}, "lon": -77.03852766666667, "bike_id": "b3a78a4d211cad71db39e900d7331949", "type": "electric_scooter", "name": "b3a78a4d211cad71db39e900d7331949"}, {"is_disabled": 0, "is_reserved": 0, "fusion_lat": 0.0, "lat": 38.90785133333333, "fusion_lon": 0.0, "rental_uris": {"ios": "https://dc.lft.to/lastmile_qr_scan", "android": "https://dc.lft.to/lastmile_qr_scan"}, "lon": -77.04509666666667, "bike_id": "1ad0091dec671327957ee2f306308ce1", "type": "electric_scooter", "name": "1ad0091dec671327957ee2f306308ce1"}, {"is_disabled": 0, "is_reserved": 0, "fusion_lat": 0.0, "lat": 38.902011333333334, "fusion_lon": 0.0, "rental_uris": {"ios": "https://dc.lft.to/lastmile_qr_scan", "android": "https://dc.lft.to/lastmile_qr_scan"}, "lon": -77.03395133333333, "bike_id": "910f0aa88733e2571fc5e4e449d88655", "type": "electric_scooter", "name": "910f0aa88733e2571fc5e4e449d88655"}, {"is_disabled": 0, "is_reserved": 0, "fusion_lat": 0.0, "lat": 38.901159166666666, "fusion_lon": 0.0, "rental_uris": {"ios": "https://dc.lft.to/lastmile_qr_scan", "android": "https://dc.lft.to/lastmile_qr_scan"}, "lon": -77.05002816666666, "bike_id": "aae4748a9a7f87463c3c77223e5bccc7", "type": "electric_scooter", "name": "aae4748a9a7f87463c3c77223e5bccc7"}, {"is_disabled": 0, "is_reserved": 0, "fusion_lat": 0.0, "lat": 38.9136725, "fusion_lon": 0.0, "rental_uris": {"ios": "https://dc.lft.to/lastmile_qr_scan", "android": "https://dc.lft.to/lastmile_qr_scan"}, "lon": -77.02051666666667, "bike_id": "2342adb589a7624ff9b523fe0be95e9e", "type": "electric_scooter", "name": "2342adb589a7624ff9b523fe0be95e9e"}, {"is_disabled": 0, "is_reserved": 0, "fusion_lat": 0.0, "lat": 38.87085316666667, "fusion_lon": 0.0, "rental_uris": {"ios": "https://dc.lft.to/lastmile_qr_scan", "android": "https://dc.lft.to/lastmile_qr_scan"}, "lon": -77.133329, "bike_id": "6d7e10792d61fe6110a55aacd159a366", "type": "electric_bike", "name": "6d7e10792d61fe6110a55aacd159a366"}, {"is_disabled": 0, "is_reserved": 0, "fusion_lat": 0.0, "lat": 38.913203, "fusion_lon": 0.0, "rental_uris": {"ios": "https://dc.lft.to/lastmile_qr_scan", "android": "https://dc.lft.to/lastmile_qr_scan"}, "lon": -77.0320115, "bike_id": "2154c2474e6d90b2e15e44a4ee21f0ad", "type": "electric_scooter", "name": "2154c2474e6d90b2e15e44a4ee21f0ad"}, {"is_disabled": 0, "is_reserved": 0, "fusion_lat": 0.0, "lat": 38.88024766666667, "fusion_lon": 0.0, "rental_uris": {"ios": "https://dc.lft.to/lastmile_qr_scan", "android": "https://dc.lft.to/lastmile_qr_scan"}, "lon": -76.94320566666667, "bike_id": "d322812d11eb2aee570329bdeff1390d", "type": "electric_scooter", "name": "d322812d11eb2aee570329bdeff1390d"}, {"is_disabled": 0, "is_reserved": 0, "fusion_lat": 0.0, "lat": 38.887116666666664, "fusion_lon": 0.0, "rental_uris": {"ios": "https://dc.lft.to/lastmile_qr_scan", "android": "https://dc.lft.to/lastmile_qr_scan"}, "lon": -76.983428, "bike_id": "edfa27209b0dabe3c14406f48818ea7f", "type": "electric_scooter", "name": "edfa27209b0dabe3c14406f48818ea7f"}, {"is_disabled": 0, "is_reserved": 0, "fusion_lat": 0.0, "lat": 38.91917433333333, "fusion_lon": 0.0, "rental_uris": {"ios": "https://dc.lft.to/lastmile_qr_scan", "android": "https://dc.lft.to/lastmile_qr_scan"}, "lon": -77.0318095, "bike_id": "9a7ed9e29e1068711205a8ffb81ba41c", "type": "electric_scooter", "name": "9a7ed9e29e1068711205a8ffb81ba41c"}, {"is_disabled": 0, "is_reserved": 0, "fusion_lat": 0.0, "lat": 38.83159, "fusion_lon": 0.0, "rental_uris": {"ios": "https://dc.lft.to/lastmile_qr_scan", "android": "https://dc.lft.to/lastmile_qr_scan"}, "lon": -76.9957445, "bike_id": "defd405d0d1dac1310f384061966084c", "type": "electric_bike", "name": "defd405d0d1dac1310f384061966084c"}, {"is_disabled": 0, "is_reserved": 0, "fusion_lat": 0.0, "lat": 38.846503, "fusion_lon": 0.0, "rental_uris": {"ios": "https://dc.lft.to/lastmile_qr_scan", "android": "https://dc.lft.to/lastmile_qr_scan"}, "lon": -77.00371633333333, "bike_id": "fcef61e0f4178c74079ded2f268849d9", "type": "electric_scooter", "name": "fcef61e0f4178c74079ded2f268849d9"}, {"is_disabled": 0, "is_reserved": 0, "fusion_lat": 0.0, "lat": 38.928749333333336, "fusion_lon": 0.0, "rental_uris": {"ios": "https://dc.lft.to/lastmile_qr_scan", "android": "https://dc.lft.to/lastmile_qr_scan"}, "lon": -77.03440583333334, "bike_id": "3480451215d10058530b4d458b55e281", "type": "electric_scooter", "name": "3480451215d10058530b4d458b55e281"}, {"is_disabled": 0, "is_reserved": 0, "fusion_lat": 0.0, "lat": 38.913242833333335, "fusion_lon": 0.0, "rental_uris": {"ios": "https://dc.lft.to/lastmile_qr_scan", "android": "https://dc.lft.to/lastmile_qr_scan"}, "lon": -77.0319075, "bike_id": "b7d72b1903b40bc6ae5def0b619b24ce", "type": "electric_scooter", "name": "b7d72b1903b40bc6ae5def0b619b24ce"}, {"is_disabled": 0, "is_reserved": 0, "fusion_lat": 0.0, "lat": 38.879270166666664, "fusion_lon": 0.0, "rental_uris": {"ios": "https://dc.lft.to/lastmile_qr_scan", "android": "https://dc.lft.to/lastmile_qr_scan"}, "lon": -77.02371433333333, "bike_id": "13799e7db704da19bd1a8c35403d849a", "type": "electric_scooter", "name": "13799e7db704da19bd1a8c35403d849a"}, {"is_disabled": 0, "is_reserved": 0, "fusion_lat": 0.0, "lat": 38.913122333333334, "fusion_lon": 0.0, "rental_uris": {"ios": "https://dc.lft.to/lastmile_qr_scan", "android": "https://dc.lft.to/lastmile_qr_scan"}, "lon": -77.00846166666666, "bike_id": "1d49d0b853987f31815f13af09cfdbea", "type": "electric_scooter", "name": "1d49d0b853987f31815f13af09cfdbea"}, {"is_disabled": 0, "is_reserved": 0, "fusion_lat": 0.0, "lat": 38.910070833333336, "fusion_lon": 0.0, "rental_uris": {"ios": "https://dc.lft.to/lastmile_qr_scan", "android": "https://dc.lft.to/lastmile_qr_scan"}, "lon": -76.99409466666667, "bike_id": "cafee6a382a9dc30804b75f75dd2b947", "type": "electric_scooter", "name": "cafee6a382a9dc30804b75f75dd2b947"}, {"is_disabled": 0, "is_reserved": 0, "fusion_lat": 0.0, "lat": 38.89643983333333, "fusion_lon": 0.0, "rental_uris": {"ios": "https://dc.lft.to/lastmile_qr_scan", "android": "https://dc.lft.to/lastmile_qr_scan"}, "lon": -76.928012, "bike_id": "a14b78f4bbcb92de6192fdc827ea8470", "type": "electric_scooter", "name": "a14b78f4bbcb92de6192fdc827ea8470"}, {"is_disabled": 0, "is_reserved": 0, "fusion_lat": 0.0, "lat": 38.8988725, "fusion_lon": 0.0, "rental_uris": {"ios": "https://dc.lft.to/lastmile_qr_scan", "android": "https://dc.lft.to/lastmile_qr_scan"}, "lon": -76.98682, "bike_id": "e4b450e86015e8ea6d3f68df15812dda", "type": "electric_scooter", "name": "e4b450e86015e8ea6d3f68df15812dda"}, {"is_disabled": 0, "is_reserved": 0, "fusion_lat": 0.0, "lat": 38.911796833333334, "fusion_lon": 0.0, "rental_uris": {"ios": "https://dc.lft.to/lastmile_qr_scan", "android": "https://dc.lft.to/lastmile_qr_scan"}, "lon": -77.01211833333333, "bike_id": "618e991680beb5020549bf3e09697c48", "type": "electric_scooter", "name": "618e991680beb5020549bf3e09697c48"}, {"is_disabled": 0, "is_reserved": 0, "fusion_lat": 0.0, "lat": 38.912153833333335, "fusion_lon": 0.0, "rental_uris": {"ios": "https://dc.lft.to/lastmile_qr_scan", "android": "https://dc.lft.to/lastmile_qr_scan"}, "lon": -77.03194033333334, "bike_id": "6f38e684d5e53d2e0f817cb4389e1583", "type": "electric_scooter", "name": "6f38e684d5e53d2e0f817cb4389e1583"}, {"is_disabled": 0, "is_reserved": 0, "fusion_lat": 0.0, "lat": 38.9345805, "fusion_lon": 0.0, "rental_uris": {"ios": "https://dc.lft.to/lastmile_qr_scan", "android": "https://dc.lft.to/lastmile_qr_scan"}, "lon": -77.02912666666667, "bike_id": "ad79b92bc2412eb35fb5532107095ab7", "type": "electric_scooter", "name": "ad79b92bc2412eb35fb5532107095ab7"}, {"is_disabled": 0, "is_reserved": 0, "fusion_lat": 0.0, "lat": 38.928273833333336, "fusion_lon": 0.0, "rental_uris": {"ios": "https://dc.lft.to/lastmile_qr_scan", "android": "https://dc.lft.to/lastmile_qr_scan"}, "lon": -77.059708, "bike_id": "09a1de49a0d64e0b456d42be27e09b83", "type": "electric_bike", "name": "09a1de49a0d64e0b456d42be27e09b83"}, {"is_disabled": 0, "is_reserved": 0, "fusion_lat": 0.0, "lat": 38.920484333333334, "fusion_lon": 0.0, "rental_uris": {"ios": "https://dc.lft.to/lastmile_qr_scan", "android": "https://dc.lft.to/lastmile_qr_scan"}, "lon": -77.02424266666667, "bike_id": "bd949446dd941b38f33b729ff4382df3", "type": "electric_bike", "name": "bd949446dd941b38f33b729ff4382df3"}, {"is_disabled": 0, "is_reserved": 0, "fusion_lat": 0.0, "lat": 38.8897405, "fusion_lon": 0.0, "rental_uris": {"ios": "https://dc.lft.to/lastmile_qr_scan", "android": "https://dc.lft.to/lastmile_qr_scan"}, "lon": -76.9817995, "bike_id": "042d27bb6e212ce55ab4f8963bb15fe4", "type": "electric_scooter", "name": "042d27bb6e212ce55ab4f8963bb15fe4"}, {"is_disabled": 0, "is_reserved": 0, "fusion_lat": 0.0, "lat": 38.91649683333333, "fusion_lon": 0.0, "rental_uris": {"ios": "https://dc.lft.to/lastmile_qr_scan", "android": "https://dc.lft.to/lastmile_qr_scan"}, "lon": -77.04655883333334, "bike_id": "3cf46e5aee788f66d27c60587b1eec88", "type": "electric_scooter", "name": "3cf46e5aee788f66d27c60587b1eec88"}, {"is_disabled": 0, "is_reserved": 0, "fusion_lat": 0.0, "lat": 38.901800333333334, "fusion_lon": 0.0, "rental_uris": {"ios": "https://dc.lft.to/lastmile_qr_scan", "android": "https://dc.lft.to/lastmile_qr_scan"}, "lon": -77.02487933333333, "bike_id": "69f75a7e5cb40d12456a97fffc5dc3ae", "type": "electric_scooter", "name": "69f75a7e5cb40d12456a97fffc5dc3ae"}, {"is_disabled": 0, "is_reserved": 0, "fusion_lat": 0.0, "lat": 38.89630666666667, "fusion_lon": 0.0, "rental_uris": {"ios": "https://dc.lft.to/lastmile_qr_scan", "android": "https://dc.lft.to/lastmile_qr_scan"}, "lon": -77.0285545, "bike_id": "c1b9d82d1b9960d2093709df5444ab6e", "type": "electric_scooter", "name": "c1b9d82d1b9960d2093709df5444ab6e"}, {"is_disabled": 0, "is_reserved": 0, "fusion_lat": 0.0, "lat": 38.923375166666666, "fusion_lon": 0.0, "rental_uris": {"ios": "https://dc.lft.to/lastmile_qr_scan", "android": "https://dc.lft.to/lastmile_qr_scan"}, "lon": -77.0352655, "bike_id": "4be7b303fc2fea7ee4ac0ebc712f53cc", "type": "electric_scooter", "name": "4be7b303fc2fea7ee4ac0ebc712f53cc"}, {"is_disabled": 0, "is_reserved": 0, "fusion_lat": 0.0, "lat": 38.925221666666665, "fusion_lon": 0.0, "rental_uris": {"ios": "https://dc.lft.to/lastmile_qr_scan", "android": "https://dc.lft.to/lastmile_qr_scan"}, "lon": -77.03886283333334, "bike_id": "ddf39ef85d393496f67fa57bc5a946a2", "type": "electric_scooter", "name": "ddf39ef85d393496f67fa57bc5a946a2"}, {"is_disabled": 0, "is_reserved": 0, "fusion_lat": 0.0, "lat": 38.90543683333333, "fusion_lon": 0.0, "rental_uris": {"ios": "https://dc.lft.to/lastmile_qr_scan", "android": "https://dc.lft.to/lastmile_qr_scan"}, "lon": -77.0426875, "bike_id": "6913bb7cda6b05493f11f2fef4abe2cc", "type": "electric_scooter", "name": "6913bb7cda6b05493f11f2fef4abe2cc"}, {"is_disabled": 0, "is_reserved": 0, "fusion_lat": 0.0, "lat": 38.872893, "fusion_lon": 0.0, "rental_uris": {"ios": "https://dc.lft.to/lastmile_qr_scan", "android": "https://dc.lft.to/lastmile_qr_scan"}, "lon": -76.96786183333333, "bike_id": "3d647822ef80dde1d4c3ac87918a888e", "type": "electric_scooter", "name": "3d647822ef80dde1d4c3ac87918a888e"}, {"is_disabled": 0, "is_reserved": 0, "fusion_lat": 0.0, "lat": 38.920809, "fusion_lon": 0.0, "rental_uris": {"ios": "https://dc.lft.to/lastmile_qr_scan", "android": "https://dc.lft.to/lastmile_qr_scan"}, "lon": -77.00455666666667, "bike_id": "a5b693e3b8ecc3f5a9d4f9a6394029c8", "type": "electric_scooter", "name": "a5b693e3b8ecc3f5a9d4f9a6394029c8"}, {"is_disabled": 0, "is_reserved": 0, "fusion_lat": 0.0, "lat": 38.93195983333333, "fusion_lon": 0.0, "rental_uris": {"ios": "https://dc.lft.to/lastmile_qr_scan", "android": "https://dc.lft.to/lastmile_qr_scan"}, "lon": -77.0245115, "bike_id": "7ca3b482f863e0b746ae9503351f6df4", "type": "electric_scooter", "name": "7ca3b482f863e0b746ae9503351f6df4"}, {"is_disabled": 0, "is_reserved": 0, "fusion_lat": 0.0, "lat": 38.920846, "fusion_lon": 0.0, "rental_uris": {"ios": "https://dc.lft.to/lastmile_qr_scan", "android": "https://dc.lft.to/lastmile_qr_scan"},