{"data": {"bikes": [{"is_disabled": 0, "fusion_lon": 0.0, "fusion_lat": 0.0, "lat": 38.93023983333333, "type": "electric_scooter", "lon": -77.03805716666666, "bike_id": "2ea4e957b6a76ef3c6c0f5af2a4e792a", "rental_uris": {"android": "https://dc.lft.to/lastmile_qr_scan", "ios": "https://dc.lft.to/lastmile_qr_scan"}, "name": "2ea4e957b6a76ef3c6c0f5af2a4e792a", "is_reserved": 0}, {"is_disabled": 0, "fusion_lon": 0.0, "fusion_lat": 0.0, "lat": 38.854301166666666, "type": "electric_bike", "lon": -76.90942816666667, "bike_id": "ee7512bbf6d45524a11e4c0cfe6556b0", "rental_uris": {"android": "https://dc.lft.to/lastmile_qr_scan", "ios": "https://dc.lft.to/lastmile_qr_scan"}, "name": "ee7512bbf6d45524a11e4c0cfe6556b0", "is_reserved": 0}, {"is_disabled": 0, "fusion_lon": 0.0, "fusion_lat": 0.0, "lat": 38.86133233333334, "type": "electric_scooter", "lon": -76.9856565, "bike_id": "e9c83855d0c3a3647000a24e6e288fde", "rental_uris": {"android": "https://dc.lft.to/lastmile_qr_scan", "ios": "https://dc.lft.to/lastmile_qr_scan"}, "name": "e9c83855d0c3a3647000a24e6e288fde", "is_reserved": 0}, {"is_disabled": 0, "fusion_lon": 0.0, "fusion_lat": 0.0, "lat": 38.893761, "type": "electric_scooter", "lon": -76.94989833333334, "bike_id": "fc461d86af358f0436c1d0e2d44771e2", "rental_uris": {"android": "https://dc.lft.to/lastmile_qr_scan", "ios": "https://dc.lft.to/lastmile_qr_scan"}, "name": "fc461d86af358f0436c1d0e2d44771e2", "is_reserved": 0}, {"is_disabled": 0, "fusion_lon": 0.0, "fusion_lat": 0.0, "lat": 38.927334, "type": "electric_scooter", "lon": -77.022491, "bike_id": "b7f2e7b1a18e9741675b625338a7f84b", "rental_uris": {"android": "https://dc.lft.to/lastmile_qr_scan", "ios": "https://dc.lft.to/lastmile_qr_scan"}, "name": "b7f2e7b1a18e9741675b625338a7f84b", "is_reserved": 0}, {"is_disabled": 0, "fusion_lon": 0.0, "fusion_lat": 0.0, "lat": 38.9330865, "type": "electric_scooter", "lon": -77.03263683333333, "bike_id": "b0bb8eff345ea5b112d5349687274545", "rental_uris": {"android": "https://dc.lft.to/lastmile_qr_scan", "ios": "https://dc.lft.to/lastmile_qr_scan"}, "name": "b0bb8eff345ea5b112d5349687274545", "is_reserved": 0}, {"is_disabled": 0, "fusion_lon": 0.0, "fusion_lat": 0.0, "lat": 38.91848533333334, "type": "electric_scooter", "lon": -77.02518083333334, "bike_id": "c7b9ee24ee37e66870ee01914ab39eb0", "rental_uris": {"android": "https://dc.lft.to/lastmile_qr_scan", "ios": "https://dc.lft.to/lastmile_qr_scan"}, "name": "c7b9ee24ee37e66870ee01914ab39eb0", "is_reserved": 0}, {"is_disabled": 0, "fusion_lon": 0.0, "fusion_lat": 0.0, "lat": 38.9057435, "type": "electric_scooter", "lon": -77.024928, "bike_id": "41063fbb39aab1620694e9fd5871bd70", "rental_uris": {"android": "https://dc.lft.to/lastmile_qr_scan", "ios": "https://dc.lft.to/lastmile_qr_scan"}, "name": "41063fbb39aab1620694e9fd5871bd70", "is_reserved": 0}, {"is_disabled": 0, "fusion_lon": 0.0, "fusion_lat": 0.0, "lat": 38.92852166666667, "type": "electric_scooter", "lon": -77.01399533333333, "bike_id": "11e51176a6900babba3ca71c15cd1ac8", "rental_uris": {"android": "https://dc.lft.to/lastmile_qr_scan", "ios": "https://dc.lft.to/lastmile_qr_scan"}, "name": "11e51176a6900babba3ca71c15cd1ac8", "is_reserved": 0}, {"is_disabled": 0, "fusion_lon": 0.0, "fusion_lat": 0.0, "lat": 38.901538333333335, "type": "electric_scooter", "lon": -77.0304025, "bike_id": "f2c80974836de61431b1a9b173f5a894", "rental_uris": {"android": "https://dc.lft.to/lastmile_qr_scan", "ios": "https://dc.lft.to/lastmile_qr_scan"}, "name": "f2c80974836de61431b1a9b173f5a894", "is_reserved": 0}, {"is_disabled": 0, "fusion_lon": 0.0, "fusion_lat": 0.0, "lat": 38.833504166666664, "type": "electric_bike", "lon": -76.965549, "bike_id": "4ee6bf38434b48e41d566f8b132d21c6", "rental_uris": {"android": "https://dc.lft.to/lastmile_qr_scan", "ios": "https://dc.lft.to/lastmile_qr_scan"}, "name": "4ee6bf38434b48e41d566f8b132d21c6", "is_reserved": 0}, {"is_disabled": 0, "fusion_lon": 0.0, "fusion_lat": 0.0, "lat": 38.87929533333333, "type": "electric_scooter", "lon": -77.00049866666667, "bike_id": "2a8d77acad3969a1c774714b20b98de9", "rental_uris": {"android": "https://dc.lft.to/lastmile_qr_scan", "ios": "https://dc.lft.to/lastmile_qr_scan"}, "name": "2a8d77acad3969a1c774714b20b98de9", "is_reserved": 0}, {"is_disabled": 0, "fusion_lon": 0.0, "fusion_lat": 0.0, "lat": 38.922490333333336, "type": "electric_scooter", "lon": -77.03074016666666, "bike_id": "60bbace76b52e73cfdaa03d071ff10db", "rental_uris": {"android": "https://dc.lft.to/lastmile_qr_scan", "ios": "https://dc.lft.to/lastmile_qr_scan"}, "name": "60bbace76b52e73cfdaa03d071ff10db", "is_reserved": 0}, {"is_disabled": 0, "fusion_lon": 0.0, "fusion_lat": 0.0, "lat": 38.90490633333334, "type": "electric_scooter", "lon": -77.02950983333334, "bike_id": "51f5529bfcc8f88134f21426ab573107", "rental_uris": {"android": "https://dc.lft.to/lastmile_qr_scan", "ios": "https://dc.lft.to/lastmile_qr_scan"}, "name": "51f5529bfcc8f88134f21426ab573107", "is_reserved": 0}, {"is_disabled": 0, "fusion_lon": 0.0, "fusion_lat": 0.0, "lat": 38.945521166666666, "type": "electric_scooter", "lon": -77.04240433333334, "bike_id": "1d3a9df304ab3bfc0b26219342f15402", "rental_uris": {"android": "https://dc.lft.to/lastmile_qr_scan", "ios": "https://dc.lft.to/lastmile_qr_scan"}, "name": "1d3a9df304ab3bfc0b26219342f15402", "is_reserved": 0}, {"is_disabled": 0, "fusion_lon": 0.0, "fusion_lat": 0.0, "lat": 38.918557, "type": "electric_bike", "lon": -76.96089383333333, "bike_id": "31298c8c04f5129b4237d735ffba5853", "rental_uris": {"android": "https://dc.lft.to/lastmile_qr_scan", "ios": "https://dc.lft.to/lastmile_qr_scan"}, "name": "31298c8c04f5129b4237d735ffba5853", "is_reserved": 0}, {"is_disabled": 0, "fusion_lon": 0.0, "fusion_lat": 0.0, "lat": 38.950610166666664, "type": "electric_bike", "lon": -76.96736183333333, "bike_id": "732d908c6e65a04f464adcf07f39be00", "rental_uris": {"android": "https://dc.lft.to/lastmile_qr_scan", "ios": "https://dc.lft.to/lastmile_qr_scan"}, "name": "732d908c6e65a04f464adcf07f39be00", "is_reserved": 0}, {"is_disabled": 0, "fusion_lon": 0.0, "fusion_lat": 0.0, "lat": 38.873870333333336, "type": "electric_scooter", "lon": -77.00196966666667, "bike_id": "96ee44fc5a6cff885961a8d505def33a", "rental_uris": {"android": "https://dc.lft.to/lastmile_qr_scan", "ios": "https://dc.lft.to/lastmile_qr_scan"}, "name": "96ee44fc5a6cff885961a8d505def33a", "is_reserved": 0}, {"is_disabled": 0, "fusion_lon": 0.0, "fusion_lat": 0.0, "lat": 38.89238683333333, "type": "electric_scooter", "lon": -77.03179033333333, "bike_id": "e7b425bb56c2f3e6d4a7b4f30d61661f", "rental_uris": {"android": "https://dc.lft.to/lastmile_qr_scan", "ios": "https://dc.lft.to/lastmile_qr_scan"}, "name": "e7b425bb56c2f3e6d4a7b4f30d61661f", "is_reserved": 0}, {"is_disabled": 0, "fusion_lon": 0.0, "fusion_lat": 0.0, "lat": 38.9631295, "type": "electric_bike", "lon": -77.057613, "bike_id": "6e32318a862850c4d8ccf7a0eb8b05f2", "rental_uris": {"android": "https://dc.lft.to/lastmile_qr_scan", "ios": "https://dc.lft.to/lastmile_qr_scan"}, "name": "6e32318a862850c4d8ccf7a0eb8b05f2", "is_reserved": 0}, {"is_disabled": 0, "fusion_lon": 0.0, "fusion_lat": 0.0, "lat": 38.9055865, "type": "electric_scooter", "lon": -77.02966933333333, "bike_id": "552eae2b94d018afb6c57436df919afd", "rental_uris": {"android": "https://dc.lft.to/lastmile_qr_scan", "ios": "https://dc.lft.to/lastmile_qr_scan"}, "name": "552eae2b94d018afb6c57436df919afd", "is_reserved": 0}, {"is_disabled": 0, "fusion_lon": 0.0, "fusion_lat": 0.0, "lat": 38.868445, "type": "electric_bike", "lon": -77.09731866666667, "bike_id": "5d5d6ae37115125db4bc5175683f9c08", "rental_uris": {"android": "https://dc.lft.to/lastmile_qr_scan", "ios": "https://dc.lft.to/lastmile_qr_scan"}, "name": "5d5d6ae37115125db4bc5175683f9c08", "is_reserved": 0}, {"is_disabled": 0, "fusion_lon": 0.0, "fusion_lat": 0.0, "lat": 38.88254, "type": "electric_scooter", "lon": -77.00344533333333, "bike_id": "5600d53620eef66fcb00fba9344d0f92", "rental_uris": {"android": "https://dc.lft.to/lastmile_qr_scan", "ios": "https://dc.lft.to/lastmile_qr_scan"}, "name": "5600d53620eef66fcb00fba9344d0f92", "is_reserved": 0}, {"is_disabled": 0, "fusion_lon": 0.0, "fusion_lat": 0.0, "lat": 38.879214, "type": "electric_scooter", "lon": -77.00810616666666, "bike_id": "94432c5755191a872524c67c583ea1f7", "rental_uris": {"android": "https://dc.lft.to/lastmile_qr_scan", "ios": "https://dc.lft.to/lastmile_qr_scan"}, "name": "94432c5755191a872524c67c583ea1f7", "is_reserved": 0}, {"is_disabled": 0, "fusion_lon": 0.0, "fusion_lat": 0.0, "lat": 38.901305666666666, "type": "electric_scooter", "lon": -77.01198983333333, "bike_id": "044c60deb3e2cb2adbdfd20ea8582071", "rental_uris": {"android": "https://dc.lft.to/lastmile_qr_scan", "ios": "https://dc.lft.to/lastmile_qr_scan"}, "name": "044c60deb3e2cb2adbdfd20ea8582071", "is_reserved": 0}, {"is_disabled": 0, "fusion_lon": 0.0, "fusion_lat": 0.0, "lat": 38.92824066666667, "type": "electric_scooter", "lon": -77.02259716666667, "bike_id": "26488660224c224f30f4a285fdae1b3e", "rental_uris": {"android": "https://dc.lft.to/lastmile_qr_scan", "ios": "https://dc.lft.to/lastmile_qr_scan"}, "name": "26488660224c224f30f4a285fdae1b3e", "is_reserved": 0}, {"is_disabled": 0, "fusion_lon": 0.0, "fusion_lat": 0.0, "lat": 38.912640333333336, "type": "electric_scooter", "lon": -77.01697366666667, "bike_id": "98169d7154800dee4ce642a1645ab831", "rental_uris": {"android": "https://dc.lft.to/lastmile_qr_scan", "ios": "https://dc.lft.to/lastmile_qr_scan"}, "name": "98169d7154800dee4ce642a1645ab831", "is_reserved": 0}, {"is_disabled": 0, "fusion_lon": 0.0, "fusion_lat": 0.0, "lat": 38.895434333333334, "type": "electric_scooter", "lon": -77.02946616666667, "bike_id": "8a947ff272b4108f263201cc505df1cb", "rental_uris": {"android": "https://dc.lft.to/lastmile_qr_scan", "ios": "https://dc.lft.to/lastmile_qr_scan"}, "name": "8a947ff272b4108f263201cc505df1cb", "is_reserved": 0}, {"is_disabled": 0, "fusion_lon": 0.0, "fusion_lat": 0.0, "lat": 38.90722866666667, "type": "electric_scooter", "lon": -77.04679266666666, "bike_id": "516cbbd637305b8aa882ef4380560ff3", "rental_uris": {"android": "https://dc.lft.to/lastmile_qr_scan", "ios": "https://dc.lft.to/lastmile_qr_scan"}, "name": "516cbbd637305b8aa882ef4380560ff3", "is_reserved": 0}, {"is_disabled": 0, "fusion_lon": 0.0, "fusion_lat": 0.0, "lat": 38.99883833333333, "type": "electric_bike", "lon": -77.0288705, "bike_id": "05d73c4bf0a5672e8b58c91a5d5978c1", "rental_uris": {"android": "https://dc.lft.to/lastmile_qr_scan", "ios": "https://dc.lft.to/lastmile_qr_scan"}, "name": "05d73c4bf0a5672e8b58c91a5d5978c1", "is_reserved": 0}, {"is_disabled": 0, "fusion_lon": 0.0, "fusion_lat": 0.0, "lat": 38.96763716666667, "type": "electric_bike", "lon": -77.091643, "bike_id": "12ba931d72be12fb4851bcd4497838c3", "rental_uris": {"android": "https://dc.lft.to/lastmile_qr_scan", "ios": "https://dc.lft.to/lastmile_qr_scan"}, "name": "12ba931d72be12fb4851bcd4497838c3", "is_reserved": 0}, {"is_disabled": 0, "fusion_lon": 0.0, "fusion_lat": 0.0, "lat": 38.8889375, "type": "electric_scooter", "lon": -77.01552333333333, "bike_id": "60dd67d0d70029f25fa4e9334be90a66", "rental_uris": {"android": "https://dc.lft.to/lastmile_qr_scan", "ios": "https://dc.lft.to/lastmile_qr_scan"}, "name": "60dd67d0d70029f25fa4e9334be90a66", "is_reserved": 0}, {"is_disabled": 0, "fusion_lon": 0.0, "fusion_lat": 0.0, "lat": 38.928384333333334, "type": "electric_scooter", "lon": -77.0140675, "bike_id": "b24cb1573a5f7869b0497e9366244ee9", "rental_uris": {"android": "https://dc.lft.to/lastmile_qr_scan", "ios": "https://dc.lft.to/lastmile_qr_scan"}, "name": "b24cb1573a5f7869b0497e9366244ee9", "is_reserved": 0}, {"is_disabled": 0, "fusion_lon": 0.0, "fusion_lat": 0.0, "lat": 38.897547333333335, "type": "electric_scooter", "lon": -77.02599683333334, "bike_id": "948d8047bc9b2846993b15941be53480", "rental_uris": {"android": "https://dc.lft.to/lastmile_qr_scan", "ios": "https://dc.lft.to/lastmile_qr_scan"}, "name": "948d8047bc9b2846993b15941be53480", "is_reserved": 0}, {"is_disabled": 0, "fusion_lon": 0.0, "fusion_lat": 0.0, "lat": 38.89229666666667, "type": "electric_scooter", "lon": -77.046616, "bike_id": "8e2f33305691fcf42db5fa792cb362ad", "rental_uris": {"android": "https://dc.lft.to/lastmile_qr_scan", "ios": "https://dc.lft.to/lastmile_qr_scan"}, "name": "8e2f33305691fcf42db5fa792cb362ad", "is_reserved": 0}, {"is_disabled": 0, "fusion_lon": 0.0, "fusion_lat": 0.0, "lat": 38.93136283333333, "type": "electric_scooter", "lon": -77.0280445, "bike_id": "87a27fdf665330747902f4086e510dd0", "rental_uris": {"android": "https://dc.lft.to/lastmile_qr_scan", "ios": "https://dc.lft.to/lastmile_qr_scan"}, "name": "87a27fdf665330747902f4086e510dd0", "is_reserved": 0}, {"is_disabled": 0, "fusion_lon": 0.0, "fusion_lat": 0.0, "lat": 38.8420375, "type": "electric_bike", "lon": -77.106857, "bike_id": "27cb145b2986677d7e4da603e74327ee", "rental_uris": {"android": "https://dc.lft.to/lastmile_qr_scan", "ios": "https://dc.lft.to/lastmile_qr_scan"}, "name": "27cb145b2986677d7e4da603e74327ee", "is_reserved": 0}, {"is_disabled": 0, "fusion_lon": 0.0, "fusion_lat": 0.0, "lat": 38.912636166666665, "type": "electric_scooter", "lon": -77.04774683333333, "bike_id": "b37a1778ddfb30ac344589375658a57f", "rental_uris": {"android": "https://dc.lft.to/lastmile_qr_scan", "ios": "https://dc.lft.to/lastmile_qr_scan"}, "name": "b37a1778ddfb30ac344589375658a57f", "is_reserved": 0}, {"is_disabled": 0, "fusion_lon": 0.0, "fusion_lat": 0.0, "lat": 38.85807833333333, "type": "electric_scooter", "lon": -76.98656283333334, "bike_id": "fee0cb011f2a0396307a997807387861", "rental_uris": {"android": "https://dc.lft.to/lastmile_qr_scan", "ios": "https://dc.lft.to/lastmile_qr_scan"}, "name": "fee0cb011f2a0396307a997807387861", "is_reserved": 0}, {"is_disabled": 0, "fusion_lon": 0.0, "fusion_lat": 0.0, "lat": 38.9249285, "type": "electric_scooter", "lon": -77.039373, "bike_id": "6bfcedc1ea4b773a65a75b689169a035", "rental_uris": {"android": "https://dc.lft.to/lastmile_qr_scan", "ios": "https://dc.lft.to/lastmile_qr_scan"}, "name": "6bfcedc1ea4b773a65a75b689169a035", "is_reserved": 0}, {"is_disabled": 0, "fusion_lon": 0.0, "fusion_lat": 0.0, "lat": 38.911305666666664, "type": "electric_scooter", "lon": -77.03875316666667, "bike_id": "347a045a797dfaae92b50a4e8a7b8697", "rental_uris": {"android": "https://dc.lft.to/lastmile_qr_scan", "ios": "https://dc.lft.to/lastmile_qr_scan"}, "name": "347a045a797dfaae92b50a4e8a7b8697", "is_reserved": 0}, {"is_disabled": 0, "fusion_lon": 0.0, "fusion_lat": 0.0, "lat": 38.9084755, "type": "electric_scooter", "lon": -77.03445766666667, "bike_id": "84904b5a6706a546e75e2a6b1d9760da", "rental_uris": {"android": "https://dc.lft.to/lastmile_qr_scan", "ios": "https://dc.lft.to/lastmile_qr_scan"}, "name": "84904b5a6706a546e75e2a6b1d9760da", "is_reserved": 0}, {"is_disabled": 0, "fusion_lon": 0.0, "fusion_lat": 0.0, "lat": 38.94080183333333, "type": "electric_scooter", "lon": -77.06137816666667, "bike_id": "e94284fcc5996aed370bc18153d08941", "rental_uris": {"android": "https://dc.lft.to/lastmile_qr_scan", "ios": "https://dc.lft.to/lastmile_qr_scan"}, "name": "e94284fcc5996aed370bc18153d08941", "is_reserved": 0}, {"is_disabled": 0, "fusion_lon": 0.0, "fusion_lat": 0.0, "lat": 38.885853166666664, "type": "electric_scooter", "lon": -77.01225033333333, "bike_id": "0a583f465c01b8de9398c498edde2fec", "rental_uris": {"android": "https://dc.lft.to/lastmile_qr_scan", "ios": "https://dc.lft.to/lastmile_qr_scan"}, "name": "0a583f465c01b8de9398c498edde2fec", "is_reserved": 0}, {"is_disabled": 0, "fusion_lon": 0.0, "fusion_lat": 0.0, "lat": 38.898195333333334, "type": "electric_scooter", "lon": -77.0316285, "bike_id": "14c9f690324ef7ac20a568b6c9798f8f", "rental_uris": {"android": "https://dc.lft.to/lastmile_qr_scan", "ios": "https://dc.lft.to/lastmile_qr_scan"}, "name": "14c9f690324ef7ac20a568b6c9798f8f", "is_reserved": 0}, {"is_disabled": 0, "fusion_lon": 0.0, "fusion_lat": 0.0, "lat": 38.90954883333333, "type": "electric_scooter", "lon": -77.027173, "bike_id": "22b5e61f96a98bc055735a3e9bc33f47", "rental_uris": {"android": "https://dc.lft.to/lastmile_qr_scan", "ios": "https://dc.lft.to/lastmile_qr_scan"}, "name": "22b5e61f96a98bc055735a3e9bc33f47", "is_reserved": 0}, {"is_disabled": 0, "fusion_lon": 0.0, "fusion_lat": 0.0, "lat": 38.88492266666667, "type": "electric_scooter", "lon": -77.02076016666666, "bike_id": "9cdc497bc94513477c5cf695e075cdc8", "rental_uris": {"android": "https://dc.lft.to/lastmile_qr_scan", "ios": "https://dc.lft.to/lastmile_qr_scan"}, "name": "9cdc497bc94513477c5cf695e075cdc8", "is_reserved": 0}, {"is_disabled": 0, "fusion_lon": 0.0, "fusion_lat": 0.0, "lat": 38.89615033333333, "type": "electric_scooter", "lon": -77.02683666666667, "bike_id": "9373dea8480a069662c898c9d32628d8", "rental_uris": {"android": "https://dc.lft.to/lastmile_qr_scan", "ios": "https://dc.lft.to/lastmile_qr_scan"}, "name": "9373dea8480a069662c898c9d32628d8", "is_reserved": 0}, {"is_disabled": 0, "fusion_lon": 0.0, "fusion_lat": 0.0, "lat": 38.889887333333334, "type": "electric_scooter", "lon": -77.00337083333334, "bike_id": "2e9687ab380032c240557081778d1454", "rental_uris": {"android": "https://dc.lft.to/lastmile_qr_scan", "ios": "https://dc.lft.to/lastmile_qr_scan"}, "name": "2e9687ab380032c240557081778d1454", "is_reserved": 0}, {"is_disabled": 0, "fusion_lon": 0.0, "fusion_lat": 0.0, "lat": 38.86469916666667, "type": "electric_scooter", "lon": -76.99610283333334, "bike_id": "c12dd52101cf83ce79f0959347b3a55b", "rental_uris": {"android": "https://dc.lft.to/lastmile_qr_scan", "ios": "https://dc.lft.to/lastmile_qr_scan"}, "name": "c12dd52101cf83ce79f0959347b3a55b", "is_reserved": 0}, {"is_disabled": 0, "fusion_lon": 0.0, "fusion_lat": 0.0, "lat": 38.90473933333333, "type": "electric_scooter", "lon": -77.00606933333333, "bike_id": "03b04a6bce2592f3edb0738cabf68462", "rental_uris": {"android": "https://dc.lft.to/lastmile_qr_scan", "ios": "https://dc.lft.to/lastmile_qr_scan"}, "name": "03b04a6bce2592f3edb0738cabf68462", "is_reserved": 0}, {"is_disabled": 0, "fusion_lon": 0.0, "fusion_lat": 0.0, "lat": 38.91810616666667, "type": "electric_scooter", "lon": -77.03568383333334, "bike_id": "acaba9681bec7cf88af3c11a2908a461", "rental_uris": {"android": "https://dc.lft.to/lastmile_qr_scan", "ios": "https://dc.lft.to/lastmile_qr_scan"}, "name": "acaba9681bec7cf88af3c11a2908a461", "is_reserved": 0}, {"is_disabled": 0, "fusion_lon": 0.0, "fusion_lat": 0.0, "lat": 38.910018, "type": "electric_scooter", "lon": -77.021685, "bike_id": "1985c74ce8719c751b0c3233093fb6a4", "rental_uris": {"android": "https://dc.lft.to/lastmile_qr_scan", "ios": "https://dc.lft.to/lastmile_qr_scan"}, "name": "1985c74ce8719c751b0c3233093fb6a4", "is_reserved": 0}, {"is_disabled": 0, "fusion_lon": 0.0, "fusion_lat": 0.0, "lat": 38.90146883333333, "type": "electric_scooter", "lon": -77.01510233333333, "bike_id": "1512f49d22dcebedd00434ab5ec17cc6", "rental_uris": {"android": "https://dc.lft.to/lastmile_qr_scan", "ios": "https://dc.lft.to/lastmile_qr_scan"}, "name": "1512f49d22dcebedd00434ab5ec17cc6", "is_reserved": 0}, {"is_disabled": 0, "fusion_lon": 0.0, "fusion_lat": 0.0, "lat": 38.93718466666667, "type": "electric_scooter", "lon": -77.03270533333334, "bike_id": "3aab6d52741223d7cbcfee52bdcbf403", "rental_uris": {"android": "https://dc.lft.to/lastmile_qr_scan", "ios": "https://dc.lft.to/lastmile_qr_scan"}, "name": "3aab6d52741223d7cbcfee52bdcbf403", "is_reserved": 0}, {"is_disabled": 0, "fusion_lon": 0.0, "fusion_lat": 0.0, "lat": 39.00384, "type": "electric_bike", "lon": -77.01302116666666, "bike_id": "8b24aaf3f5d230f184f9f2e9046412d5", "rental_uris": {"android": "https://dc.lft.to/lastmile_qr_scan", "ios": "https://dc.lft.to/lastmile_qr_scan"}, "name": "8b24aaf3f5d230f184f9f2e9046412d5", "is_reserved": 0}, {"is_disabled": 0, "fusion_lon": 0.0, "fusion_lat": 0.0, "lat": 38.9168155, "type": "electric_scooter", "lon": -77.0414145, "bike_id": "1188a2d5c9d0cbce32b5bc7e41165617", "rental_uris": {"android": "https://dc.lft.to/lastmile_qr_scan", "ios": "https://dc.lft.to/lastmile_qr_scan"}, "name": "1188a2d5c9d0cbce32b5bc7e41165617", "is_reserved": 0}, {"is_disabled": 0, "fusion_lon": 0.0, "fusion_lat": 0.0, "lat": 38.96557033333333, "type": "electric_bike", "lon": -77.02305833333334, "bike_id": "9552a65a35806ac72061ddb57827175d", "rental_uris": {"android": "https://dc.lft.to/lastmile_qr_scan", "ios": "https://dc.lft.to/lastmile_qr_scan"}, "name": "9552a65a35806ac72061ddb57827175d", "is_reserved": 0}, {"is_disabled": 0, "fusion_lon": 0.0, "fusion_lat": 0.0, "lat": 38.93922883333333, "type": "electric_scooter", "lon": -77.02482583333334, "bike_id": "8666c0684b63e393b124366ef744477d", "rental_uris": {"android": "https://dc.lft.to/lastmile_qr_scan", "ios": "https://dc.lft.to/lastmile_qr_scan"}, "name": "8666c0684b63e393b124366ef744477d", "is_reserved": 0}, {"is_disabled": 0, "fusion_lon": 0.0, "fusion_lat": 0.0, "lat": 38.9245705, "type": "electric_scooter", "lon": -76.99899183333333, "bike_id": "be16ef0810ec2873264bb71cca9bc45e", "rental_uris": {"android": "https://dc.lft.to/lastmile_qr_scan", "ios": "https://dc.lft.to/lastmile_qr_scan"}, "name": "be16ef0810ec2873264bb71cca9bc45e", "is_reserved": 0}, {"is_disabled": 0, "fusion_lon": 0.0, "fusion_lat": 0.0, "lat": 38.8982525, "type": "electric_scooter", "lon": -77.03354616666667, "bike_id": "f41611736ba0849afd3ec479c1c41e7f", "rental_uris": {"android": "https://dc.lft.to/lastmile_qr_scan", "ios": "https://dc.lft.to/lastmile_qr_scan"}, "name": "f41611736ba0849afd3ec479c1c41e7f", "is_reserved": 0}, {"is_disabled": 0, "fusion_lon": 0.0, "fusion_lat": 0.0, "lat": 38.89819216666667, "type": "electric_scooter", "lon": -77.00207533333334, "bike_id": "e91397d529f4b2a78b16dc4049b9b4f7", "rental_uris": {"android": "https://dc.lft.to/lastmile_qr_scan", "ios": "https://dc.lft.to/lastmile_qr_scan"}, "name": "e91397d529f4b2a78b16dc4049b9b4f7", "is_reserved": 0}, {"is_disabled": 0, "fusion_lon": 0.0, "fusion_lat": 0.0, "lat": 38.912692, "type": "electric_scooter", "lon": -77.02223816666667, "bike_id": "071e9bcbb457bd66d7969fdc7b65ece2", "rental_uris": {"android": "https://dc.lft.to/lastmile_qr_scan", "ios": "https://dc.lft.to/lastmile_qr_scan"}, "name": "071e9bcbb457bd66d7969fdc7b65ece2", "is_reserved": 0}, {"is_disabled": 0, "fusion_lon": 0.0, "fusion_lat": 0.0, "lat": 38.91709383333333, "type": "electric_scooter", "lon": -77.0261715, "bike_id": "4154af35ef285c31a8f9a07589fcd0b6", "rental_uris": {"android": "https://dc.lft.to/lastmile_qr_scan", "ios": "https://dc.lft.to/lastmile_qr_scan"}, "name": "4154af35ef285c31a8f9a07589fcd0b6", "is_reserved": 0}, {"is_disabled": 0, "fusion_lon": 0.0, "fusion_lat": 0.0, "lat": 38.90245633333333, "type": "electric_scooter", "lon": -77.03098383333334, "bike_id": "2afaa3e57e53e4d0988c78b1dcf65d6e", "rental_uris": {"android": "https://dc.lft.to/lastmile_qr_scan", "ios": "https://dc.lft.to/lastmile_qr_scan"}, "name": "2afaa3e57e53e4d0988c78b1dcf65d6e", "is_reserved": 0}, {"is_disabled": 0, "fusion_lon": 0.0, "fusion_lat": 0.0, "lat": 38.9182085, "type": "electric_scooter", "lon": -77.03194633333334, "bike_id": "a7df080682c06b9f79673beda523e4ba", "rental_uris": {"android": "https://dc.lft.to/lastmile_qr_scan", "ios": "https://dc.lft.to/lastmile_qr_scan"}, "name": "a7df080682c06b9f79673beda523e4ba", "is_reserved": 0}, {"is_disabled": 0, "fusion_lon": 0.0, "fusion_lat": 0.0, "lat": 38.905754333333334, "type": "electric_scooter", "lon": -77.0237485, "bike_id": "c0770ff645cb6b5b244cd649519ad63a", "rental_uris": {"android": "https://dc.lft.to/lastmile_qr_scan", "ios": "https://dc.lft.to/lastmile_qr_scan"}, "name": "c0770ff645cb6b5b244cd649519ad63a", "is_reserved": 0}, {"is_disabled": 0, "fusion_lon": 0.0, "fusion_lat": 0.0, "lat": 38.8989275, "type": "electric_scooter", "lon": -77.04165016666667, "bike_id": "9db4f004d89a96cc2cd51609acdecf05", "rental_uris": {"android": "https://dc.lft.to/lastmile_qr_scan", "ios": "https://dc.lft.to/lastmile_qr_scan"}, "name": "9db4f004d89a96cc2cd51609acdecf05", "is_reserved": 0}, {"is_disabled": 0, "fusion_lon": 0.0, "fusion_lat": 0.0, "lat": 38.91044133333333, "type": "electric_scooter", "lon": -77.01380666666667, "bike_id": "afb89524c867242cd1fc9509c59fa12c", "rental_uris": {"android": "https://dc.lft.to/lastmile_qr_scan", "ios": "https://dc.lft.to/lastmile_qr_scan"}, "name": "afb89524c867242cd1fc9509c59fa12c", "is_reserved": 0}, {"is_disabled": 0, "fusion_lon": 0.0, "fusion_lat": 0.0, "lat": 38.89224266666667, "type": "electric_scooter", "lon": -77.022636, "bike_id": "b35730c0bc70dfe4f62986b7c468257d", "rental_uris": {"android": "https://dc.lft.to/lastmile_qr_scan", "ios": "https://dc.lft.to/lastmile_qr_scan"}, "name": "b35730c0bc70dfe4f62986b7c468257d", "is_reserved": 0}, {"is_disabled": 0, "fusion_lon": 0.0, "fusion_lat": 0.0, "lat": 38.91914716666667, "type": "electric_scooter", "lon": -77.03026383333334, "bike_id": "a0b4deaf4dba0d9b994c24dd00b466c1", "rental_uris": {"android": "https://dc.lft.to/lastmile_qr_scan", "ios": "https://dc.lft.to/lastmile_qr_scan"}, "name": "a0b4deaf4dba0d9b994c24dd00b466c1", "is_reserved": 0}, {"is_disabled": 0, "fusion_lon": 0.0, "fusion_lat": 0.0, "lat": 38.949829666666666, "type": "electric_scooter", "lon": -77.02705516666667, "bike_id": "c985eeea13ee0f1115301ed3689383e5", "rental_uris": {"android": "https://dc.lft.to/lastmile_qr_scan", "ios": "https://dc.lft.to/lastmile_qr_scan"}, "name": "c985eeea13ee0f1115301ed3689383e5", "is_reserved": 0}, {"is_disabled": 0, "fusion_lon": 0.0, "fusion_lat": 0.0, "lat": 38.8951925, "type": "electric_scooter", "lon": -77.01078933333334, "bike_id": "25a1bdc1f4844f3a79adebd786f5c08b", "rental_uris": {"android": "https://dc.lft.to/lastmile_qr_scan", "ios": "https://dc.lft.to/lastmile_qr_scan"}, "name": "25a1bdc1f4844f3a79adebd786f5c08b", "is_reserved": 0}, {"is_disabled": 0, "fusion_lon": 0.0, "fusion_lat": 0.0, "lat": 38.891677666666666, "type": "electric_scooter", "lon": -77.01547233333334, "bike_id": "284e14f02f45c1cf475b157f37a313ab", "rental_uris": {"android": "https://dc.lft.to/lastmile_qr_scan", "ios": "https://dc.lft.to/lastmile_qr_scan"}, "name": "284e14f02f45c1cf475b157f37a313ab", "is_reserved": 0}, {"is_disabled": 0, "fusion_lon": 0.0, "fusion_lat": 0.0, "lat": 38.931057333333335, "type": "electric_scooter", "lon": -77.04127466666667, "bike_id": "b69b755c6f7c818b46c32b296443e3d5", "rental_uris": {"android": "https://dc.lft.to/lastmile_qr_scan", "ios": "https://dc.lft.to/lastmile_qr_scan"}, "name": "b69b755c6f7c818b46c32b296443e3d5", "is_reserved": 0}, {"is_disabled": 0, "fusion_lon": 0.0, "fusion_lat": 0.0, "lat": 38.91127433333333, "type": "electric_scooter", "lon": -77.031898, "bike_id": "b952217e6f2f4fa8472ecc8d5bec72c0", "rental_uris": {"android": "https://dc.lft.to/lastmile_qr_scan", "ios": "https://dc.lft.to/lastmile_qr_scan"}, "name": "b952217e6f2f4fa8472ecc8d5bec72c0", "is_reserved": 0}, {"is_disabled": 0, "fusion_lon": 0.0, "fusion_lat": 0.0, "lat": 38.9057275, "type": "electric_scooter", "lon": -77.0057065, "bike_id": "b0ecc6d7ffd19e0d379c86df4ba39616", "rental_uris": {"android": "https://dc.lft.to/lastmile_qr_scan", "ios": "https://dc.lft.to/lastmile_qr_scan"}, "name": "b0ecc6d7ffd19e0d379c86df4ba39616", "is_reserved": 0}, {"is_disabled": 0, "fusion_lon": 0.0, "fusion_lat": 0.0, "lat": 38.92287783333333, "type": "electric_scooter", "lon": -77.032013, "bike_id": "9262025e1ae55f878a5bcc441a046c2f", "rental_uris": {"android": "https://dc.lft.to/lastmile_qr_scan", "ios": "https://dc.lft.to/lastmile_qr_scan"}, "name": "9262025e1ae55f878a5bcc441a046c2f", "is_reserved": 0}, {"is_disabled": 0, "fusion_lon": 0.0, "fusion_lat": 0.0, "lat": 38.9190695, "type": "electric_scooter", "lon": -77.01735033333334, "bike_id": "c0957b1a00fe8134379b623a6c50c51a", "rental_uris": {"android": "https://dc.lft.to/lastmile_qr_scan", "ios": "https://dc.lft.to/lastmile_qr_scan"}, "name": "c0957b1a00fe8134379b623a6c50c51a", "is_reserved": 0}, {"is_disabled": 0, "fusion_lon": 0.0, "fusion_lat": 0.0, "lat": 38.91296216666667, "type": "electric_scooter", "lon": -77.038461, "bike_id": "e1095f3744f4e077e7b76fe965964cbc", "rental_uris": {"android": "https://dc.lft.to/lastmile_qr_scan", "ios": "https://dc.lft.to/lastmile_qr_scan"}, "name": "e1095f3744f4e077e7b76fe965964cbc", "is_reserved": 0}, {"is_disabled": 0, "fusion_lon": 0.0, "fusion_lat": 0.0, "lat": 38.918713, "type": "electric_scooter", "lon": -77.03671716666666, "bike_id": "c8888e4537ad81cd5932edf0c4241372", "rental_uris": {"android": "https://dc.lft.to/lastmile_qr_scan", "ios": "https://dc.lft.to/lastmile_qr_scan"}, "name": "c8888e4537ad81cd5932edf0c4241372", "is_reserved": 0}, {"is_disabled": 0, "fusion_lon": 0.0, "fusion_lat": 0.0, "lat": 38.92610216666667, "type": "electric_scooter", "lon": -77.02415783333333, "bike_id": "fc2c35d25aa4d4e8bf1224e97266d7ba", "rental_uris": {"android": "https://dc.lft.to/lastmile_qr_scan", "ios": "https://dc.lft.to/lastmile_qr_scan"}, "name": "fc2c35d25aa4d4e8bf1224e97266d7ba", "is_reserved": 0}, {"is_disabled": 0, "fusion_lon": 0.0, "fusion_lat": 0.0, "lat": 38.913155, "type": "electric_scooter", "lon": -77.03847866666666, "bike_id": "0fbf3bb85fa1c1816de110f6e21bd43f", "rental_uris": {"android": "https://dc.lft.to/lastmile_qr_scan", "ios": "https://dc.lft.to/lastmile_qr_scan"}, "name": "0fbf3bb85fa1c1816de110f6e21bd43f", "is_reserved": 0}, {"is_disabled": 0, "fusion_lon": 0.0, "fusion_lat": 0.0, "lat": 38.91694566666666, "type": "electric_scooter", "lon": -77.03584883333333, "bike_id": "ff97a967914253f03c08be02e884a975", "rental_uris": {"android": "https://dc.lft.to/lastmile_qr_scan", "ios": "https://dc.lft.to/lastmile_qr_scan"}, "name": "ff97a967914253f03c08be02e884a975", "is_reserved": 0}, {"is_disabled": 0, "fusion_lon": 0.0, "fusion_lat": 0.0, "lat": 38.8973625, "type": "electric_scooter", "lon": -77.00750966666666, "bike_id": "16938491660bd9bc6a01623140b949c3", "rental_uris": {"android": "https://dc.lft.to/lastmile_qr_scan", "ios": "https://dc.lft.to/lastmile_qr_scan"}, "name": "16938491660bd9bc6a01623140b949c3", "is_reserved": 0}, {"is_disabled": 0, "fusion_lon": 0.0, "fusion_lat": 0.0, "lat": 38.91264266666667, "type": "electric_scooter", "lon": -77.04160983333334, "bike_id": "1cd347a7b251b8ca65bdb541c99ae343", "rental_uris": {"android": "https://dc.lft.to/lastmile_qr_scan", "ios": "https://dc.lft.to/lastmile_qr_scan"}, "name": "1cd347a7b251b8ca65bdb541c99ae343", "is_reserved": 0}, {"is_disabled": 0, "fusion_lon": 0.0, "fusion_lat": 0.0, "lat": 38.91620966666667, "type": "electric_scooter", "lon": -77.04861283333334, "bike_id": "9eaaf6d80c0132209932b86309925857", "rental_uris": {"android": "https://dc.lft.to/lastmile_qr_scan", "ios": "https://dc.lft.to/lastmile_qr_scan"}, "name": "9eaaf6d80c0132209932b86309925857", "is_reserved": 0}, {"is_disabled": 0, "fusion_lon": 0.0, "fusion_lat": 0.0, "lat": 38.83378183333333, "type": "electric_scooter", "lon": -76.993114, "bike_id": "51acf92f029fba2a847c9e2cc7be8a9f", "rental_uris": {"android": "https://dc.lft.to/lastmile_qr_scan", "ios": "https://dc.lft.to/lastmile_qr_scan"}, "name": "51acf92f029fba2a847c9e2cc7be8a9f", "is_reserved": 0}, {"is_disabled": 0, "fusion_lon": 0.0, "fusion_lat": 0.0, "lat": 38.93192, "type": "electric_bike", "lon": -77.22939483333333, "bike_id": "baf27bcb59c79dcc5f9e2523635e324f", "rental_uris": {"android": "https://dc.lft.to/lastmile_qr_scan", "ios": "https://dc.lft.to/lastmile_qr_scan"}, "name": "baf27bcb59c79dcc5f9e2523635e324f", "is_reserved": 0}, {"is_disabled": 0, "fusion_lon": 0.0, "fusion_lat": 0.0, "lat": 38.9175145, "type": "electric_scooter", "lon": -77.0249325, "bike_id": "1ac9d60155c9c71dae7e3687180c7763", "rental_uris": {"android": "https://dc.lft.to/lastmile_qr_scan", "ios": "https://dc.lft.to/lastmile_qr_scan"}, "name": "1ac9d60155c9c71dae7e3687180c7763", "is_reserved": 0}, {"is_disabled": 0, "fusion_lon": 0.0, "fusion_lat": 0.0, "lat": 38.95275016666667, "type": "electric_bike", "lon": -77.06971783333333, "bike_id": "30451e5d882657246a0bab48f0555fd5", "rental_uris": {"android": "https://dc.lft.to/lastmile_qr_scan", "ios": "https://dc.lft.to/lastmile_qr_scan"}, "name": "30451e5d882657246a0bab48f0555fd5", "is_reserved": 0}, {"is_disabled": 0, "fusion_lon": 0.0, "fusion_lat": 0.0, "lat": 38.992583, "type": "electric_bike", "lon": -77.0499825, "bike_id": "760271617b5c39745573e6e44403f884", "rental_uris": {"android": "https://dc.lft.to/lastmile_qr_scan", "ios": "https://dc.lft.to/lastmile_qr_scan"}, "name": "760271617b5c39745573e6e44403f884", "is_reserved": 0}, {"is_disabled": 0, "fusion_lon": 0.0, "fusion_lat": 0.0, "lat": 38.9097175, "type": "electric_scooter", "lon": -77.02177016666667, "bike_id": "085395ae1300c86645737646afc3ae37", "rental_uris": {"android": "https://dc.lft.to/lastmile_qr_scan", "ios": "https://dc.lft.to/lastmile_qr_scan"}, "name": "085395ae1300c86645737646afc3ae37", "is_reserved": 0}, {"is_disabled": 0, "fusion_lon": 0.0, "fusion_lat": 0.0, "lat": 38.950814, "type": "electric_scooter", "lon": -77.02880666666667, "bike_id": "624c8041f8d0d118a63d147dd05511bf", "rental_uris": {"android": "https://dc.lft.to/lastmile_qr_scan", "ios": "https://dc.lft.to/lastmile_qr_scan"}, "name": "624c8041f8d0d118a63d147dd05511bf", "is_reserved": 0}, {"is_disabled": 0, "fusion_lon": 0.0, "fusion_lat": 0.0, "lat": 38.8686055, "type": "electric_bike", "lon": -76.91658433333333, "bike_id": "da7a6e336ae3135e08389cd9254cdb5c", "rental_uris": {"android": "https://dc.lft.to/lastmile_qr_scan", "ios": "https://dc.lft.to/lastmile_qr_scan"}, "name": "da7a6e336ae3135e08389cd9254cdb5c", "is_reserved": 0}, {"is_disabled": 0, "fusion_lon": 0.0, "fusion_lat": 0.0, "lat": 38.884186666666665, "type": "electric_scooter", "lon": -77.03304433333334, "bike_id": "89f41bf0711ca14fae2b995688e5ab5a", "rental_uris": {"android": "https://dc.lft.to/lastmile_qr_scan", "ios": "https://dc.lft.to/lastmile_qr_scan"}, "name": "89f41bf0711ca14fae2b995688e5ab5a", "is_reserved": 0}, {"is_disabled": 0, "fusion_lon": 0.0, "fusion_lat": 0.0, "lat": 38.906484, "type": "electric_scooter", "lon": -77.02698533333333, "bike_id": "3c1033142d7ff3ea52ef3130e9a0697c", "rental_uris": {"android": "https://dc.lft.to/lastmile_qr_scan", "ios": "https://dc.lft.to/lastmile_qr_scan"}, "name": "3c1033142d7ff3ea52ef3130e9a0697c", "is_reserved": 0}, {"is_disabled": 0, "fusion_lon": 0.0, "fusion_lat": 0.0, "lat": 38.92347933333333, "type": "electric_bike", "lon": -76.9924915, "bike_id": "b1f4648d5cf7924efeeb16848662b65e", "rental_uris": {"android": "https://dc.lft.to/lastmile_qr_scan", "ios": "https://dc.lft.to/lastmile_qr_scan"}, "name": "b1f4648d5cf7924efeeb16848662b65e", "is_reserved": 0}, {"is_disabled": 0, "fusion_lon": 0.0, "fusion_lat": 0.0, "lat": 38.897583, "type": "electric_scooter", "lon": -77.02657183333334, "bike_id": "b04eb8e2bd6998a2b9a72d8c04530a6d", "rental_uris": {"android": "https://dc.lft.to/lastmile_qr_scan", "ios": "https://dc.lft.to/lastmile_qr_scan"}, "name": "b04eb8e2bd6998a2b9a72d8c04530a6d", "is_reserved": 0}, {"is_disabled": 0, "fusion_lon": 0.0, "fusion_lat": 0.0, "lat": 38.9907645, "type": "electric_bike", "lon": -77.02382883333334, "bike_id": "d71eb6d4591151ff6fe95de7689409fb", "rental_uris": {"android": "https://dc.lft.to/lastmile_qr_scan", "ios": "https://dc.lft.to/lastmile_qr_scan"}, "name": "d71eb6d4591151ff6fe95de7689409fb", "is_reserved": 0}, {"is_disabled": 0, "fusion_lon": 0.0, "fusion_lat": 0.0, "lat": 38.86664183333333, "type": "electric_scooter", "lon": -76.988901, "bike_id": "ea92634b7be6e28007dee5a133993c08", "rental_uris": {"android": "https://dc.lft.to/lastmile_qr_scan", "ios": "https://dc.lft.to/lastmile_qr_scan"}, "name": "ea92634b7be6e28007dee5a133993c08", "is_reserved": 0}, {"is_disabled": 0, "fusion_lon": 0.0, "fusion_lat": 0.0, "lat": 38.90365933333333, "type": "electric_scooter", "lon": -77.02207916666667, "bike_id": "4e3d982b95333b05251a377693e1416d", "rental_uris": {"android": "https://dc.lft.to/lastmile_qr_scan", "ios": "https://dc.lft.to/lastmile_qr_scan"}, "name": "4e3d982b95333b05251a377693e1416d", "is_reserved": 0}, {"is_disabled": 0, "fusion_lon": 0.0, "fusion_lat": 0.0, "lat": 38.909806333333336, "type": "electric_bike", "lon": -77.08832216666667, "bike_id": "f14e779f802ede46bafa4d4d7dbd1df3", "rental_uris": {"android": "https://dc.lft.to/lastmile_qr_scan", "ios": "https://dc.lft.to/lastmile_qr_scan"}, "name": "f14e779f802ede46bafa4d4d7dbd1df3", "is_reserved": 0}, {"is_disabled": 0, "fusion_lon": 0.0, "fusion_lat": 0.0, "lat": 38.9204335, "type": "electric_scooter", "lon": -77.04817666666666, "bike_id": "31d1af6fc7c99479bd0e55f6d431ad71", "rental_uris": {"android": "https://dc.lft.to/lastmile_qr_scan", "ios": "https://dc.lft.to/lastmile_qr_scan"}, "name": "31d1af6fc7c99479bd0e55f6d431ad71", "is_reserved": 0}, {"is_disabled": 0, "fusion_lon": 0.0, "fusion_lat": 0.0, "lat": 38.917806, "type": "electric_scooter", "lon": -77.04356, "bike_id": "25c1fb376948f3557e0ff1becda182dd", "rental_uris": {"android": "https://dc.lft.to/lastmile_qr_scan", "ios": "https://dc.lft.to/lastmile_qr_scan"}, "name": "25c1fb376948f3557e0ff1becda182dd", "is_reserved": 0}, {"is_disabled": 0, "fusion_lon": 0.0, "fusion_lat": 0.0, "lat": 38.881308, "type": "electric_scooter", "lon": -77.02079066666667, "bike_id": "aed034e28c8dc93e75ad4c5d48283c4b", "rental_uris": {"android": "https://dc.lft.to/lastmile_qr_scan", "ios": "https://dc.lft.to/lastmile_qr_scan"}, "name": "aed034e28c8dc93e75ad4c5d48283c4b", "is_reserved": 0}, {"is_disabled": 0, "fusion_lon": 0.0, "fusion_lat": 0.0, "lat": 38.88326983333333, "type": "electric_scooter", "lon": -77.01644016666667, "bike_id": "d3ac58c152651ac968fb71ce4f8988e5", "rental_uris": {"android": "https://dc.lft.to/lastmile_qr_scan", "ios": "https://dc.lft.to/lastmile_qr_scan"}, "name": "d3ac58c152651ac968fb71ce4f8988e5", "is_reserved": 0}, {"is_disabled": 0, "fusion_lon": 0.0, "fusion_lat": 0.0, "lat": 38.91742816666667, "type": "electric_scooter", "lon": -77.04169616666667, "bike_id": "3898661aa5a1c024be4759eb1361498b", "rental_uris": {"android": "https://dc.lft.to/lastmile_qr_scan", "ios": "https://dc.lft.to/lastmile_qr_scan"}, "name": "3898661aa5a1c024be4759eb1361498b", "is_reserved": 0}, {"is_disabled": 0, "fusion_lon": 0.0, "fusion_lat": 0.0, "lat": 38.9430725, "type": "electric_scooter", "lon": -77.02759433333334, "bike_id": "5b9a2cc3f158fd1c39873b010156647a", "rental_uris": {"android": "https://dc.lft.to/lastmile_qr_scan", "ios": "https://dc.lft.to/lastmile_qr_scan"}, "name": "5b9a2cc3f158fd1c39873b010156647a", "is_reserved": 0}, {"is_disabled": 0, "fusion_lon": 0.0, "fusion_lat": 0.0, "lat": 38.9048805, "type": "electric_scooter", "lon": -77.051447, "bike_id": "4c2e86f4a82681622daa2a72eea0bd0a", "rental_uris": {"android": "https://dc.lft.to/lastmile_qr_scan", "ios": "https://dc.lft.to/lastmile_qr_scan"}, "name": "4c2e86f4a82681622daa2a72eea0bd0a", "is_reserved": 0}, {"is_disabled": 0, "fusion_lon": 0.0, "fusion_lat": 0.0, "lat": 38.915623, "type": "electric_scooter", "lon": -77.03153183333333, "bike_id": "8841a70ed6d2ae55ffa1006cc9851059", "rental_uris": {"android": "https://dc.lft.to/lastmile_qr_scan", "ios": "https://dc.lft.to/lastmile_qr_scan"}, "name": "8841a70ed6d2ae55ffa1006cc9851059", "is_reserved": 0}, {"is_disabled": 0, "fusion_lon": 0.0, "fusion_lat": 0.0, "lat": 38.9010895, "type": "electric_scooter", "lon": -77.05982683333333, "bike_id": "ba0313e1c1549ba604fccd372c0c1cc6", "rental_uris": {"android": "https://dc.lft.to/lastmile_qr_scan", "ios": "https://dc.lft.to/lastmile_qr_scan"}, "name": "ba0313e1c1549ba604fccd372c0c1cc6", "is_reserved": 0}, {"is_disabled": 0, "fusion_lon": 0.0, "fusion_lat": 0.0, "lat": 38.91938116666667, "type": "electric_bike", "lon": -76.97504766666667, "bike_id": "39596d817b73eb7e7194d99f5c95d4ad", "rental_uris": {"android": "https://dc.lft.to/lastmile_qr_scan", "ios": "https://dc.lft.to/lastmile_qr_scan"}, "name": "39596d817b73eb7e7194d99f5c95d4ad", "is_reserved": 0}, {"is_disabled": 0, "fusion_lon": 0.0, "fusion_lat": 0.0, "lat": 38.81028466666667, "type": "electric_bike", "lon": -77.0843895, "bike_id": "2d5181b196236eca4b10fb4e9cee7757", "rental_uris": {"android": "https://dc.lft.to/lastmile_qr_scan", "ios": "https://dc.lft.to/lastmile_qr_scan"}, "name": "2d5181b196236eca4b10fb4e9cee7757", "is_reserved": 0}, {"is_disabled": 0, "fusion_lon": 0.0, "fusion_lat": 0.0, "lat": 38.895436, "type": "electric_scooter", "lon": -77.015422, "bike_id": "e2b8c7d1f4a4135e52a3769bc7dcdaef", "rental_uris": {"android": "https://dc.lft.to/lastmile_qr_scan", "ios": "https://dc.lft.to/lastmile_qr_scan"}, "name": "e2b8c7d1f4a4135e52a3769bc7dcdaef", "is_reserved": 0}, {"is_disabled": 0, "fusion_lon": 0.0, "fusion_lat": 0.0, "lat": 38.852853, "type": "electric_bike", "lon": -76.981579, "bike_id": "25663c1377d0d94c5d13f419539cbf20", "rental_uris": {"android": "https://dc.lft.to/lastmile_qr_scan", "ios": "https://dc.lft.to/lastmile_qr_scan"}, "name": "25663c1377d0d94c5d13f419539cbf20", "is_reserved": 0}, {"is_disabled": 0, "fusion_lon": 0.0, "fusion_lat": 0.0, "lat": 38.921096166666665, "type": "electric_scooter", "lon": -77.04221883333334, "bike_id": "1dd93265421648d8415b2e7b3f6c004f", "rental_uris": {"android": "https://dc.lft.to/lastmile_qr_scan", "ios": "https://dc.lft.to/lastmile_qr_scan"}, "name": "1dd93265421648d8415b2e7b3f6c004f", "is_reserved": 0}, {"is_disabled": 0, "fusion_lon": 0.0, "fusion_lat": 0.0, "lat": 38.8583585, "type": "electric_bike", "lon": -76.99284633333333, "bike_id": "907ec58b5a969386f331126ff7d085ad", "rental_uris": {"android": "https://dc.lft.to/lastmile_qr_scan", "ios": "https://dc.lft.to/lastmile_qr_scan"}, "name": "907ec58b5a969386f331126ff7d085ad", "is_reserved": 0}, {"is_disabled": 0, "fusion_lon": 0.0, "fusion_lat": 0.0, "lat": 38.883224166666665, "type": "electric_scooter", "lon": -76.94945266666667, "bike_id": "a799d3c98a15d833380844f0a2bad343", "rental_uris": {"android": "https://dc.lft.to/lastmile_qr_scan", "ios": "https://dc.lft.to/lastmile_qr_scan"}, "name": "a799d3c98a15d833380844f0a2bad343", "is_reserved": 0}, {"is_disabled": 0, "fusion_lon": 0.0, "fusion_lat": 0.0, "lat": 38.884271166666664, "type": "electric_scooter", "lon": -77.02478483333333, "bike_id": "0f9e0f9c3cc620d0f3b2815a2493fdce", "rental_uris": {"android": "https://dc.lft.to/lastmile_qr_scan", "ios": "https://dc.lft.to/lastmile_qr_scan"}, "name": "0f9e0f9c3cc620d0f3b2815a2493fdce", "is_reserved": 0}, {"is_disabled": 0, "fusion_lon": 0.0, "fusion_lat": 0.0, "lat": 38.92380433333334, "type": "electric_scooter", "lon": -77.030245, "bike_id": "8c26db508e2b5a4cc0f27e6c6d968762", "rental_uris": {"android": "https://dc.lft.to/lastmile_qr_scan", "ios": "https://dc.lft.to/lastmile_qr_scan"}, "name": "8c26db508e2b5a4cc0f27e6c6d968762", "is_reserved": 0}, {"is_disabled": 0, "fusion_lon": 0.0, "fusion_lat": 0.0, "lat": 38.9181735, "type": "electric_scooter", "lon": -77.02690566666666, "bike_id": "dd54bc0f806bd4633bebceecda6b78cd", "rental_uris": {"android": "https://dc.lft.to/lastmile_qr_scan", "ios": "https://dc.lft.to/lastmile_qr_scan"}, "name": "dd54bc0f806bd4633bebceecda6b78cd", "is_reserved": 0}, {"is_disabled": 0, "fusion_lon": 0.0, "fusion_lat": 0.0, "lat": 38.943314666666666, "type": "electric_bike", "lon": -77.014728, "bike_id": "ddf622a04ff34d0761316692e5ca1f78", "rental_uris": {"android": "https://dc.lft.to/lastmile_qr_scan", "ios": "https://dc.lft.to/lastmile_qr_scan"}, "name": "ddf622a04ff34d0761316692e5ca1f78", "is_reserved": 0}, {"is_disabled": 0, "fusion_lon": 0.0, "fusion_lat": 0.0, "lat": 38.914667666666666, "type": "electric_scooter", "lon": -77.019865, "bike_id": "5565079a223727bae4150f4a9bc7865c", "rental_uris": {"android": "https://dc.lft.to/lastmile_qr_scan", "ios": "https://dc.lft.to/lastmile_qr_scan"}, "name": "5565079a223727bae4150f4a9bc7865c", "is_reserved": 0}, {"is_disabled": 0, "fusion_lon": 0.0, "fusion_lat": 0.0, "lat": 38.90363466666667, "type": "electric_scooter", "lon": -77.00348833333334, "bike_id": "6b7d4200ae519fc395930d4c94e27279", "rental_uris": {"android": "https://dc.lft.to/lastmile_qr_scan", "ios": "https://dc.lft.to/lastmile_qr_scan"}, "name": "6b7d4200ae519fc395930d4c94e27279", "is_reserved": 0}, {"is_disabled": 0, "fusion_lon": 0.0, "fusion_lat": 0.0, "lat": 38.9236325, "type": "electric_bike", "lon": -77.05134633333333, "bike_id": "115913ca8a578d27b4db0f650f8cc7d9", "rental_uris": {"android": "https://dc.lft.to/lastmile_qr_scan", "ios": "https://dc.lft.to/lastmile_qr_scan"}, "name": "115913ca8a578d27b4db0f650f8cc7d9", "is_reserved": 0}, {"is_disabled": 0, "fusion_lon": 0.0, "fusion_lat": 0.0, "lat": 38.917096, "type": "electric_scooter", "lon": -77.03351616666667, "bike_id": "db1f5570671ecd0ce8c5640471360922", "rental_uris": {"android": "https://dc.lft.to/lastmile_qr_scan", "ios": "https://dc.lft.to/lastmile_qr_scan"}, "name": "db1f5570671ecd0ce8c5640471360922", "is_reserved": 0}, {"is_disabled": 0, "fusion_lon": 0.0, "fusion_lat": 0.0, "lat": 38.93067083333333, "type": "electric_scooter", "lon": -77.02982983333334, "bike_id": "b8cbd938e4139662e568efb9db9c5988", "rental_uris": {"android": "https://dc.lft.to/lastmile_qr_scan", "ios": "https://dc.lft.to/lastmile_qr_scan"}, "name": "b8cbd938e4139662e568efb9db9c5988", "is_reserved": 0}, {"is_disabled": 0, "fusion_lon": 0.0, "fusion_lat": 0.0, "lat": 38.92318516666667, "type": "electric_scooter", "lon": -77.03923383333333, "bike_id": "97bfa9d579e3e19884aee81b44bcfd01", "rental_uris": {"android": "https://dc.lft.to/lastmile_qr_scan", "ios": "https://dc.lft.to/lastmile_qr_scan"}, "name": "97bfa9d579e3e19884aee81b44bcfd01", "is_reserved": 0}, {"is_disabled": 0, "fusion_lon": 0.0, "fusion_lat": 0.0, "lat": 38.911753, "type": "electric_scooter", "lon": -77.02694216666667, "bike_id": "235717dcae14df2f53796b94d75f5276", "rental_uris": {"android": "https://dc.lft.to/lastmile_qr_scan", "ios": "https://dc.lft.to/lastmile_qr_scan"}, "name": "235717dcae14df2f53796b94d75f5276", "is_reserved": 0}, {"is_disabled": 0, "fusion_lon": 0.0, "fusion_lat": 0.0, "lat": 38.903776, "type": "electric_scooter", "lon": -76.98970466666667, "bike_id": "2e9314b7edc75ca32d860e3171822f90", "rental_uris": {"android": "https://dc.lft.to/lastmile_qr_scan", "ios": "https://dc.lft.to/lastmile_qr_scan"}, "name": "2e9314b7edc75ca32d860e3171822f90", "is_reserved": 0}, {"is_disabled": 0, "fusion_lon": 0.0, "fusion_lat": 0.0, "lat": 38.895027, "type": "electric_scooter", "lon": -76.948827, "bike_id": "6a85ba25783dcd722b6b78c5e2f318ee", "rental_uris": {"android": "https://dc.lft.to/lastmile_qr_scan", "ios": "https://dc.lft.to/lastmile_qr_scan"}, "name": "6a85ba25783dcd722b6b78c5e2f318ee", "is_reserved": 0}, {"is_disabled": 0, "fusion_lon": 0.0, "fusion_lat": 0.0, "lat": 38.90665033333333, "type": "electric_scooter", "lon": -77.00893833333333, "bike_id": "34fda1de13a310717d6560d789814a53", "rental_uris": {"android": "https://dc.lft.to/lastmile_qr_scan", "ios": "https://dc.lft.to/lastmile_qr_scan"}, "name": "34fda1de13a310717d6560d789814a53", "is_reserved": 0}, {"is_disabled": 0, "fusion_lon": 0.0, "fusion_lat": 0.0, "lat": 38.90874766666666, "type": "electric_scooter", "lon": -77.02700283333333, "bike_id": "0fdf7efa737a7b578ce20332dbb32c24", "rental_uris": {"android": "https://dc.lft.to/lastmile_qr_scan", "ios": "https://dc.lft.to/lastmile_qr_scan"}, "name": "0fdf7efa737a7b578ce20332dbb32c24", "is_reserved": 0}, {"is_disabled": 0, "fusion_lon": 0.0, "fusion_lat": 0.0, "lat": 38.942032, "type": "electric_scooter", "lon": -77.018288, "bike_id": "61ca61a9a8284bc47695001536324e34", "rental_uris": {"android": "https://dc.lft.to/lastmile_qr_scan", "ios": "https://dc.lft.to/lastmile_qr_scan"}, "name": "61ca61a9a8284bc47695001536324e34", "is_reserved": 0}, {"is_disabled": 0, "fusion_lon": 0.0, "fusion_lat": 0.0, "lat": 38.8947875, "type": "electric_scooter", "lon": -77.02656933333333, "bike_id": "1273cecfb622874b0eaa1daaf91e5ca7", "rental_uris": {"android": "https://dc.lft.to/lastmile_qr_scan", "ios": "https://dc.lft.to/lastmile_qr_scan"}, "name": "1273cecfb622874b0eaa1daaf91e5ca7", "is_reserved": 0}, {"is_disabled": 0, "fusion_lon": 0.0, "fusion_lat": 0.0, "lat": 38.8741875, "type": "electric_bike", "lon": -77.085723, "bike_id": "46bfca68a4f33ebcede167b2a997b8f1", "rental_uris": {"android": "https://dc.lft.to/lastmile_qr_scan", "ios": "https://dc.lft.to/lastmile_qr_scan"}, "name": "46bfca68a4f33ebcede167b2a997b8f1", "is_reserved": 0}, {"is_disabled": 0, "fusion_lon": 0.0, "fusion_lat": 0.0, "lat": 38.931427, "type": "electric_scooter", "lon": -77.042511, "bike_id": "ececb4e85aa1dbbe73b49ff0cb4ee3ad", "rental_uris": {"android": "https://dc.lft.to/lastmile_qr_scan", "ios": "https://dc.lft.to/lastmile_qr_scan"}, "name": "ececb4e85aa1dbbe73b49ff0cb4ee3ad", "is_reserved": 0}, {"is_disabled": 0, "fusion_lon": 0.0, "fusion_lat": 0.0, "lat": 38.88509166666667, "type": "electric_scooter", "lon": -77.02489983333334, "bike_id": "895108775fa5fc49fa3934b7374aecb8", "rental_uris": {"android": "https://dc.lft.to/lastmile_qr_scan", "ios": "https://dc.lft.to/lastmile_qr_scan"}, "name": "895108775fa5fc49fa3934b7374aecb8", "is_reserved": 0}, {"is_disabled": 0, "fusion_lon": 0.0, "fusion_lat": 0.0, "lat": 38.940555833333335, "type": "electric_scooter", "lon": -77.0249475, "bike_id": "7aa8295c4617ba750a123b891a9b818d", "rental_uris": {"android": "https://dc.lft.to/lastmile_qr_scan", "ios": "https://dc.lft.to/lastmile_qr_scan"}, "name": "7aa8295c4617ba750a123b891a9b818d", "is_reserved": 0}, {"is_disabled": 0, "fusion_lon": 0.0, "fusion_lat": 0.0, "lat": 38.908530999999996, "type": "electric_scooter", "lon": -77.02344483333333, "bike_id": "6dd504b0b933e983971e1f7d85ee700a", "rental_uris": {"android": "https://dc.lft.to/lastmile_qr_scan", "ios": "https://dc.lft.to/lastmile_qr_scan"}, "name": "6dd504b0b933e983971e1f7d85ee700a", "is_reserved": 0}, {"is_disabled": 0, "fusion_lon": 0.0, "fusion_lat": 0.0, "lat": 38.90034416666667, "type": "electric_scooter", "lon": -76.99830816666666, "bike_id": "b1b0cfa0ba0a2db85e50bed1e3780e18", "rental_uris": {"android": "https://dc.lft.to/lastmile_qr_scan", "ios": "https://dc.lft.to/lastmile_qr_scan"}, "name": "b1b0cfa0ba0a2db85e50bed1e3780e18", "is_reserved": 0}, {"is_disabled": 0, "fusion_lon": 0.0, "fusion_lat": 0.0, "lat": 38.91709816666667, "type": "electric_scooter", "lon": -77.029883, "bike_id": "0c6eb9094ccb3be4c400313a0c866c93", "rental_uris": {"android": "https://dc.lft.to/lastmile_qr_scan", "ios": "https://dc.lft.to/lastmile_qr_scan"}, "name": "0c6eb9094ccb3be4c400313a0c866c93", "is_reserved": 0}, {"is_disabled": 0, "fusion_lon": 0.0, "fusion_lat": 0.0, "lat": 38.908555166666666, "type": "electric_scooter", "lon": -76.99800866666666, "bike_id": "71069dd84d43fac062806b8cd293a74f", "rental_uris": {"android": "https://dc.lft.to/lastmile_qr_scan", "ios": "https://dc.lft.to/lastmile_qr_scan"}, "name": "71069dd84d43fac062806b8cd293a74f", "is_reserved": 0}, {"is_disabled": 0, "fusion_lon": 0.0, "fusion_lat": 0.0, "lat": 38.916331166666666, "type": "electric_scooter", "lon": -77.03312283333334, "bike_id": "d433f604966f4372207d49efc90b750a", "rental_uris": {"android": "https://dc.lft.to/lastmile_qr_scan", "ios": "https://dc.lft.to/lastmile_qr_scan"}, "name": "d433f604966f4372207d49efc90b750a", "is_reserved": 0}, {"is_disabled": 0, "fusion_lon": 0.0, "fusion_lat": 0.0, "lat": 38.932302, "type": "electric_scooter", "lon": -76.999327, "bike_id": "61e213195769db3fd0cfa7c481a05552", "rental_uris": {"android": "https://dc.lft.to/lastmile_qr_scan", "ios": "https://dc.lft.to/lastmile_qr_scan"}, "name": "61e213195769db3fd0cfa7c481a05552", "is_reserved": 0}, {"is_disabled": 0, "fusion_lon": 0.0, "fusion_lat": 0.0, "lat": 38.912600833333336, "type": "electric_scooter", "lon": -77.03674283333334, "bike_id": "4f7ccafd9965f134008768bd82a869df", "rental_uris": {"android": "https://dc.lft.to/lastmile_qr_scan", "ios": "https://dc.lft.to/lastmile_qr_scan"}, "name": "4f7ccafd9965f134008768bd82a869df", "is_reserved": 0}, {"is_disabled": 0, "fusion_lon": 0.0, "fusion_lat": 0.0, "lat": 38.92074783333333, "type": "electric_scooter", "lon": -77.00073166666667, "bike_id": "c61d4c1429f73f65ac80281e34193b07", "rental_uris": {"android": "https://dc.lft.to/lastmile_qr_scan", "ios": "https://dc.lft.to/lastmile_qr_scan"}, "name": "c61d4c1429f73f65ac80281e34193b07", "is_reserved": 0}, {"is_disabled": 0, "fusion_lon": 0.0, "fusion_lat": 0.0, "lat": 38.90960716666667, "type": "electric_scooter", "lon": -77.02378, "bike_id": "01cb0cdba05a40f9978d2ee527d15ca6", "rental_uris": {"android": "https://dc.lft.to/lastmile_qr_scan", "ios": "https://dc.lft.to/lastmile_qr_scan"}, "name": "01cb0cdba05a40f9978d2ee527d15ca6", "is_reserved": 0}, {"is_disabled": 0, "fusion_lon": 0.0, "fusion_lat": 0.0, "lat": 38.90351966666667, "type": "electric_scooter", "lon": -77.0110895, "bike_id": "3765c3e9ec1b09eef6b6cbbc25bde1af", "rental_uris": {"android": "https://dc.lft.to/lastmile_qr_scan", "ios": "https://dc.lft.to/lastmile_qr_scan"}, "name": "3765c3e9ec1b09eef6b6cbbc25bde1af", "is_reserved": 0}, {"is_disabled": 0, "fusion_lon": 0.0, "fusion_lat": 0.0, "lat": 38.90594433333333, "type": "electric_scooter", "lon": -77.02389933333333, "bike_id": "db966a241c0761e21c9b723be3fd8208", "rental_uris": {"android": "https://dc.lft.to/lastmile_qr_scan", "ios": "https://dc.lft.to/lastmile_qr_scan"}, "name": "db966a241c0761e21c9b723be3fd8208", "is_reserved": 0}, {"is_disabled": 0, "fusion_lon": 0.0, "fusion_lat": 0.0, "lat": 38.91676483333333, "type": "electric_scooter", "lon": -77.01574816666667, "bike_id": "520abca050f30a885d6da5045985e7be", "rental_uris": {"android": "https://dc.lft.to/lastmile_qr_scan", "ios": "https://dc.lft.to/lastmile_qr_scan"}, "name": "520abca050f30a885d6da5045985e7be", "is_reserved": 0}, {"is_disabled": 0, "fusion_lon": 0.0, "fusion_lat": 0.0, "lat": 38.89833183333333, "type": "electric_scooter", "lon": -77.02196966666666, "bike_id": "e02a0a7718960f4e976ff38894dab5ac", "rental_uris": {"android": "https://dc.lft.to/lastmile_qr_scan", "ios": "https://dc.lft.to/lastmile_qr_scan"}, "name": "e02a0a7718960f4e976ff38894dab5ac", "is_reserved": 0}, {"is_disabled": 0, "fusion_lon": 0.0, "fusion_lat": 0.0, "lat": 38.9966985, "type": "electric_bike", "lon": -76.99144433333333, "bike_id": "d570e09dd8c1ed189ce862cd80cca301", "rental_uris": {"android": "https://dc.lft.to/lastmile_qr_scan", "ios": "https://dc.lft.to/lastmile_qr_scan"}, "name": "d570e09dd8c1ed189ce862cd80cca301", "is_reserved": 0}, {"is_disabled": 0, "fusion_lon": 0.0, "fusion_lat": 0.0, "lat": 38.926614666666666, "type": "electric_scooter", "lon": -77.02270466666667, "bike_id": "a338ef0b74562f37f88030386a5de676", "rental_uris": {"android": "https://dc.lft.to/lastmile_qr_scan", "ios": "https://dc.lft.to/lastmile_qr_scan"}, "name": "a338ef0b74562f37f88030386a5de676", "is_reserved": 0}, {"is_disabled": 0, "fusion_lon": 0.0, "fusion_lat": 0.0, "lat": 38.90953583333334, "type": "electric_scooter", "lon": -77.02715183333333, "bike_id": "a50a3898d18ecfdc4c8c7636eba48e2e", "rental_uris": {"android": "https://dc.lft.to/lastmile_qr_scan", "ios": "https://dc.lft.to/lastmile_qr_scan"}, "name": "a50a3898d18ecfdc4c8c7636eba48e2e", "is_reserved": 0}, {"is_disabled": 0, "fusion_lon": 0.0, "fusion_lat": 0.0, "lat": 38.9020725, "type": "electric_scooter", "lon": -77.048062, "bike_id": "56194072dd18a72bc965ec44ec7559cb", "rental_uris": {"android": "https://dc.lft.to/lastmile_qr_scan", "ios": "https://dc.lft.to/lastmile_qr_scan"}, "name": "56194072dd18a72bc965ec44ec7559cb", "is_reserved": 0}, {"is_disabled": 0, "fusion_lon": 0.0, "fusion_lat": 0.0, "lat": 38.91700783333334, "type": "electric_scooter", "lon": -77.02898283333333, "bike_id": "168d7a1603ba81b846675d124205c84f", "rental_uris": {"android": "https://dc.lft.to/lastmile_qr_scan", "ios": "https://dc.lft.to/lastmile_qr_scan"}, "name": "168d7a1603ba81b846675d124205c84f", "is_reserved": 0}, {"is_disabled": 0, "fusion_lon": 0.0, "fusion_lat": 0.0, "lat": 38.87572866666667, "type": "electric_scooter", "lon": -77.02088216666667, "bike_id": "8bfa4c2e600f444f0505cae0fd176af7", "rental_uris": {"android": "https://dc.lft.to/lastmile_qr_scan", "ios": "https://dc.lft.to/lastmile_qr_scan"}, "name": "8bfa4c2e600f444f0505cae0fd176af7", "is_reserved": 0}, {"is_disabled": 0, "fusion_lon": 0.0, "fusion_lat": 0.0, "lat": 38.887322, "type": "electric_scooter", "lon": -77.0283225, "bike_id": "4b0591f1931650c9efe7c08d71283527", "rental_uris": {"android": "https://dc.lft.to/lastmile_qr_scan", "ios": "https://dc.lft.to/lastmile_qr_scan"}, "name": "4b0591f1931650c9efe7c08d71283527", "is_reserved": 0}, {"is_disabled": 0, "fusion_lon": 0.0, "fusion_lat": 0.0, "lat": 38.887675333333334, "type": "electric_scooter", "lon": -76.95674333333334, "bike_id": "a3304b9633cc89781334bc1c8244de09", "rental_uris": {"android": "https://dc.lft.to/lastmile_qr_scan", "ios": "https://dc.lft.to/lastmile_qr_scan"}, "name": "a3304b9633cc89781334bc1c8244de09", "is_reserved": 0}, {"is_disabled": 0, "fusion_lon": 0.0, "fusion_lat": 0.0, "lat": 38.95287366666667, "type": "electric_scooter", "lon": -77.0685795, "bike_id": "9bfa0f21ae9d2a63281482fe22bb3257", "rental_uris": {"android": "https://dc.lft.to/lastmile_qr_scan", "ios": "https://dc.lft.to/lastmile_qr_scan"}, "name": "9bfa0f21ae9d2a63281482fe22bb3257", "is_reserved": 0}, {"is_disabled": 0, "fusion_lon": 0.0, "fusion_lat": 0.0, "lat": 38.904207666666665, "type": "electric_scooter", "lon": -76.98514866666666, "bike_id": "07844f5f01763a851a3b10d23da3b6dd", "rental_uris": {"android": "https://dc.lft.to/lastmile_qr_scan", "ios": "https://dc.lft.to/lastmile_qr_scan"}, "name": "07844f5f01763a851a3b10d23da3b6dd", "is_reserved": 0}, {"is_disabled": 0, "fusion_lon": 0.0, "fusion_lat": 0.0, "lat": 38.9003395, "type": "electric_scooter", "lon": -76.99829633333333, "bike_id": "34eeb4d6763481d761e27aca9cb4b9ae", "rental_uris": {"android": "https://dc.lft.to/lastmile_qr_scan", "ios": "https://dc.lft.to/lastmile_qr_scan"}, "name": "34eeb4d6763481d761e27aca9cb4b9ae", "is_reserved": 0}, {"is_disabled": 0, "fusion_lon": 0.0, "fusion_lat": 0.0, "lat": 38.910341, "type": "electric_scooter", "lon": -77.04063216666667, "bike_id": "97426156853a6253eb64c6fe73e09819", "rental_uris": {"android": "https://dc.lft.to/lastmile_qr_scan", "ios": "https://dc.lft.to/lastmile_qr_scan"}, "name": "97426156853a6253eb64c6fe73e09819", "is_reserved": 0}, {"is_disabled": 0, "fusion_lon": 0.0, "fusion_lat": 0.0, "lat": 38.825970833333336, "type": "electric_bike", "lon": -77.00750866666667, "bike_id": "f19c7f4bce19ce9c447defedc13cb293", "rental_uris": {"android": "https://dc.lft.to/lastmile_qr_scan", "ios": "https://dc.lft.to/lastmile_qr_scan"}, "name": "f19c7f4bce19ce9c447defedc13cb293", "is_reserved": 0}, {"is_disabled": 0, "fusion_lon": 0.0, "fusion_lat": 0.0, "lat": 38.89879166666667, "type": "electric_scooter", "lon": -76.93188116666667, "bike_id": "9dce232dcff1ed488a59c42c79ca1aaa", "rental_uris": {"android": "https://dc.lft.to/lastmile_qr_scan", "ios": "https://dc.lft.to/lastmile_qr_scan"}, "name": "9dce232dcff1ed488a59c42c79ca1aaa", "is_reserved": 0}, {"is_disabled": 0, "fusion_lon": 0.0, "fusion_lat": 0.0, "lat": 38.905062666666666, "type": "electric_scooter", "lon": -76.98849516666667, "bike_id": "acb37b4414864e7a57f023c2f7cfd9cb", "rental_uris": {"android": "https://dc.lft.to/lastmile_qr_scan", "ios": "https://dc.lft.to/lastmile_qr_scan"}, "name": "acb37b4414864e7a57f023c2f7cfd9cb", "is_reserved": 0}, {"is_disabled": 0, "fusion_lon": 0.0, "fusion_lat": 0.0, "lat": 38.926247000000004, "type": "electric_scooter", "lon": -77.057114, "bike_id": "add0a0d084951daad3bb5d3cddc7f213", "rental_uris": {"android": "https://dc.lft.to/lastmile_qr_scan", "ios": "https://dc.lft.to/lastmile_qr_scan"}, "name": "add0a0d084951daad3bb5d3cddc7f213", "is_reserved": 0}, {"is_disabled": 0, "fusion_lon": 0.0, "fusion_lat": 0.0, "lat": 38.91878033333333, "type": "electric_scooter", "lon": -77.041805, "bike_id": "ad192c60446cc12c49ac0da8194f8574", "rental_uris": {"android": "https://dc.lft.to/lastmile_qr_scan", "ios": "https://dc.lft.to/lastmile_qr_scan"}, "name": "ad192c60446cc12c49ac0da8194f8574", "is_reserved": 0}, {"is_disabled": 0, "fusion_lon": 0.0, "fusion_lat": 0.0, "lat": 38.90948566666667, "type": "electric_scooter", "lon": -77.01530416666667, "bike_id": "741849823f622340580fb734954cb2a4", "rental_uris": {"android": "https://dc.lft.to/lastmile_qr_scan", "ios": "https://dc.lft.to/lastmile_qr_scan"}, "name": "741849823f622340580fb734954cb2a4", "is_reserved": 0}, {"is_disabled": 0, "fusion_lon": 0.0, "fusion_lat": 0.0, "lat": 38.937177, "type": "electric_scooter", "lon": -77.03270933333333, "bike_id": "9ae7a2f84892cae1196324605e278427", "rental_uris": {"android": "https://dc.lft.to/lastmile_qr_scan", "ios": "https://dc.lft.to/lastmile_qr_scan"}, "name": "9ae7a2f84892cae1196324605e278427", "is_reserved": 0}, {"is_disabled": 0, "fusion_lon": 0.0, "fusion_lat": 0.0, "lat": 38.92163983333333, "type": "electric_scooter", "lon": -77.0326045, "bike_id": "6113bc3c964888e3b9a9dd27b9d63610", "rental_uris": {"android": "https://dc.lft.to/lastmile_qr_scan", "ios": "https://dc.lft.to/lastmile_qr_scan"}, "name": "6113bc3c964888e3b9a9dd27b9d63610", "is_reserved": 0}, {"is_disabled": 0, "fusion_lon": 0.0, "fusion_lat": 0.0, "lat": 38.886403, "type": "electric_scooter", "lon": -77.022544, "bike_id": "0e083c4207ae41ebbb2671a42c66777a", "rental_uris": {"android": "https://dc.lft.to/lastmile_qr_scan", "ios": "https://dc.lft.to/lastmile_qr_scan"}, "name": "0e083c4207ae41ebbb2671a42c66777a", "is_reserved": 0}, {"is_disabled": 0, "fusion_lon": 0.0, "fusion_lat": 0.0, "lat": 38.917444, "type": "electric_scooter", "lon": -77.03663316666666, "bike_id": "21b173fa0a044fb5be70db3e10c18781", "rental_uris": {"android": "https://dc.lft.to/lastmile_qr_scan", "ios": "https://dc.lft.to/lastmile_qr_scan"}, "name": "21b173fa0a044fb5be70db3e10c18781", "is_reserved": 0}, {"is_disabled": 0, "fusion_lon": 0.0, "fusion_lat": 0.0, "lat": 38.892610166666664, "type": "electric_scooter", "lon": -76.9416175, "bike_id": "161f53e7fa15ff6f11c1a3f69660669a", "rental_uris": {"android": "https://dc.lft.to/lastmile_qr_scan", "ios": "https://dc.lft.to/lastmile_qr_scan"}, "name": "161f53e7fa15ff6f11c1a3f69660669a", "is_reserved": 0}, {"is_disabled": 0, "fusion_lon": 0.0, "fusion_lat": 0.0, "lat": 38.86506833333333, "type": "electric_scooter", "lon": -76.99003, "bike_id": "b3ae153e38ce969253787dd135237074", "rental_uris": {"android": "https://dc.lft.to/lastmile_qr_scan", "ios": "https://dc.lft.to/lastmile_qr_scan"}, "name": "b3ae153e38ce969253787dd135237074", "is_reserved": 0}, {"is_disabled": 0, "fusion_lon": 0.0, "fusion_lat": 0.0, "lat": 38.89219766666667, "type": "electric_scooter", "lon": -77.0155685, "bike_id": "7f0a5177ddce931b3a04c830e866d32d", "rental_uris": {"android": "https://dc.lft.to/lastmile_qr_scan", "ios": "https://dc.lft.to/lastmile_qr_scan"}, "name": "7f0a5177ddce931b3a04c830e866d32d", "is_reserved": 0}, {"is_disabled": 0, "fusion_lon": 0.0, "fusion_lat": 0.0, "lat": 38.924185666666666, "type": "electric_scooter", "lon": -77.035349, "bike_id": "4806e8f92e39c2f5895acbde3dfa0b68", "rental_uris": {"android": "https://dc.lft.to/lastmile_qr_scan", "ios": "https://dc.lft.to/lastmile_qr_scan"}, "name": "4806e8f92e39c2f5895acbde3dfa0b68", "is_reserved": 0}, {"is_disabled": 0, "fusion_lon": 0.0, "fusion_lat": 0.0, "lat": 38.952729166666664, "type": "electric_bike", "lon": -77.06985133333333, "bike_id": "f690864d07a8918cff8c2602b805b528", "rental_uris": {"android": "https://dc.lft.to/lastmile_qr_scan", "ios": "https://dc.lft.to/lastmile_qr_scan"}, "name": "f690864d07a8918cff8c2602b805b528", "is_reserved": 0}, {"is_disabled": 0, "fusion_lon": 0.0, "fusion_lat": 0.0, "lat": 38.89924466666667, "type": "electric_scooter", "lon": -77.01496083333333, "bike_id": "0861a4542bf7fa6d0ee3d6b283c4ad7a", "rental_uris": {"android": "https://dc.lft.to/lastmile_qr_scan", "ios": "https://dc.lft.to/lastmile_qr_scan"}, "name": "0861a4542bf7fa6d0ee3d6b283c4ad7a", "is_reserved": 0}, {"is_disabled": 0, "fusion_lon": 0.0, "fusion_lat": 0.0, "lat": 38.892470833333334, "type": "electric_scooter", "lon": -77.04660166666666, "bike_id": "c034cc36549c106be9ae3332dd527f32", "rental_uris": {"android": "https://dc.lft.to/lastmile_qr_scan", "ios": "https://dc.lft.to/lastmile_qr_scan"}, "name": "c034cc36549c106be9ae3332dd527f32", "is_reserved": 0}, {"is_disabled": 0, "fusion_lon": 0.0, "fusion_lat": 0.0, "lat": 38.9248165, "type": "electric_scooter", "lon": -77.02728666666667, "bike_id": "5df408b92402b7645c542d0d46d841b3", "rental_uris": {"android": "https://dc.lft.to/lastmile_qr_scan", "ios": "https://dc.lft.to/lastmile_qr_scan"}, "name": "5df408b92402b7645c542d0d46d841b3", "is_reserved": 0}, {"is_disabled": 0, "fusion_lon": 0.0, "fusion_lat": 0.0, "lat": 38.95314316666666, "type": "electric_scooter", "lon": -77.036005, "bike_id": "656335063f95ee1adac2445b261cd65b", "rental_uris": {"android": "https://dc.lft.to/lastmile_qr_scan", "ios": "https://dc.lft.to/lastmile_qr_scan"}, "name": "656335063f95ee1adac2445b261cd65b", "is_reserved": 0}, {"is_disabled": 0, "fusion_lon": 0.0, "fusion_lat": 0.0, "lat": 38.9095695, "type": "electric_scooter", "lon": -77.02385166666667, "bike_id": "846d809765fedabfaca71c34da875d36", "rental_uris": {"android": "https://dc.lft.to/lastmile_qr_scan", "ios": "https://dc.lft.to/lastmile_qr_scan"}, "name": "846d809765fedabfaca71c34da875d36", "is_reserved": 0}, {"is_disabled": 0, "fusion_lon": 0.0, "fusion_lat": 0.0, "lat": 38.831602333333336, "type": "electric_bike", "lon": -76.99688366666666, "bike_id": "52d626c099d1721689df8c7c230b0238", "rental_uris": {"android": "https://dc.lft.to/lastmile_qr_scan", "ios": "https://dc.lft.to/lastmile_qr_scan"}, "name": "52d626c099d1721689df8c7c230b0238", "is_reserved": 0}, {"is_disabled": 0, "fusion_lon": 0.0, "fusion_lat": 0.0, "lat": 38.987213833333335, "type": "electric_bike", "lon": -77.027095, "bike_id": "a3eb78fb4c6d41c19eefb9c5fbe3dec0", "rental_uris": {"android": "https://dc.lft.to/lastmile_qr_scan", "ios": "https://dc.lft.to/lastmile_qr_scan"}, "name": "a3eb78fb4c6d41c19eefb9c5fbe3dec0", "is_reserved": 0}, {"is_disabled": 0, "fusion_lon": 0.0, "fusion_lat": 0.0, "lat": 38.94981833333333, "type": "electric_scooter", "lon": -77.02703516666666, "bike_id": "f15f0d57dbd5c57b6ff52e8aecaff40b", "rental_uris": {"android": "https://dc.lft.to/lastmile_qr_scan", "ios": "https://dc.lft.to/lastmile_qr_scan"}, "name": "f15f0d57dbd5c57b6ff52e8aecaff40b", "is_reserved": 0}, {"is_disabled": 0, "fusion_lon": 0.0, "fusion_lat": 0.0, "lat": 38.8956845, "type": "electric_bike", "lon": -77.12742766666666, "bike_id": "08cb4bf86d07ca2dd3dca2ad0e75e44f", "rental_uris": {"android": "https://dc.lft.to/lastmile_qr_scan", "ios": "https://dc.lft.to/lastmile_qr_scan"}, "name": "08cb4bf86d07ca2dd3dca2ad0e75e44f", "is_reserved": 0}, {"is_disabled": 0, "fusion_lon": 0.0, "fusion_lat": 0.0, "lat": 38.918472666666666, "type": "electric_scooter", "lon": -77.0321945, "bike_id": "45ec1559b2e0efbe24422b33c1558c92", "rental_uris": {"android": "https://dc.lft.to/lastmile_qr_scan", "ios": "https://dc.lft.to/lastmile_qr_scan"}, "name": "45ec1559b2e0efbe24422b33c1558c92", "is_reserved": 0}, {"is_disabled": 0, "fusion_lon": 0.0, "fusion_lat": 0.0, "lat": 38.8979785, "type": "electric_scooter", "lon": -76.93053483333334, "bike_id": "6a133acb31294110b91fdec4c8d1fb7a", "rental_uris": {"android": "https://dc.lft.to/lastmile_qr_scan", "ios": "https://dc.lft.to/lastmile_qr_scan"}, "name": "6a133acb31294110b91fdec4c8d1fb7a", "is_reserved": 0}, {"is_disabled": 0, "fusion_lon": 0.0, "fusion_lat": 0.0, "lat": 38.957583, "type": "electric_bike", "lon": -77.0205875, "bike_id": "79e8920a13e90ee87692d03ca4a4072c", "rental_uris": {"android": "https://dc.lft.to/lastmile_qr_scan", "ios": "https://dc.lft.to/lastmile_qr_scan"}, "name": "79e8920a13e90ee87692d03ca4a4072c", "is_reserved": 0}, {"is_disabled": 0, "fusion_lon": 0.0, "fusion_lat": 0.0, "lat": 38.89578683333333, "type": "electric_bike", "lon": -76.976183, "bike_id": "c81768427342d32f7ad353346716f210", "rental_uris": {"android": "https://dc.lft.to/lastmile_qr_scan", "ios": "https://dc.lft.to/lastmile_qr_scan"}, "name": "c81768427342d32f7ad353346716f210", "is_reserved": 0}, {"is_disabled": 0, "fusion_lon": 0.0, "fusion_lat": 0.0, "lat": 38.884516833333336, "type": "electric_scooter", "lon": -76.95099433333333, "bike_id": "24d45d04ce38be5a4959763a71054f85", "rental_uris": {"android": "https://dc.lft.to/lastmile_qr_scan", "ios": "https://dc.lft.to/lastmile_qr_scan"}, "name": "24d45d04ce38be5a4959763a71054f85", "is_reserved": 0}, {"is_disabled": 0, "fusion_lon": 0.0, "fusion_lat": 0.0, "lat": 38.906783, "type": "electric_scooter", "lon": -77.03763666666667, "bike_id": "0afbd9f106e8a1397b07a6851d8bbf81", "rental_uris": {"android": "https://dc.lft.to/lastmile_qr_scan", "ios": "https://dc.lft.to/lastmile_qr_scan"}, "name": "0afbd9f106e8a1397b07a6851d8bbf81", "is_reserved": 0}, {"is_disabled": 0, "fusion_lon": 0.0, "fusion_lat": 0.0, "lat": 38.9235415, "type": "electric_scooter", "lon": -77.03906866666667, "bike_id": "c15add5bd1c18d622c564a88a304d360", "rental_uris": {"android": "https://dc.lft.to/lastmile_qr_scan", "ios": "https://dc.lft.to/lastmile_qr_scan"}, "name": "c15add5bd1c18d622c564a88a304d360", "is_reserved": 0}, {"is_disabled": 0, "fusion_lon": 0.0, "fusion_lat": 0.0, "lat": 38.900582666666665, "type": "electric_scooter", "lon": -77.04773033333333, "bike_id": "7f405870cd07ea9422e8626520cf0574", "rental_uris": {"android": "https://dc.lft.to/lastmile_qr_scan", "ios": "https://dc.lft.to/lastmile_qr_scan"}, "name": "7f405870cd07ea9422e8626520cf0574", "is_reserved": 0}, {"is_disabled": 0, "fusion_lon": 0.0, "fusion_lat": 0.0, "lat": 38.9086045, "type": "electric_scooter", "lon": -77.04345633333334, "bike_id": "fb0d9417314f3e8d479ecbe75b052912", "rental_uris": {"android": "https://dc.lft.to/lastmile_qr_scan", "ios": "https://dc.lft.to/lastmile_qr_scan"}, "name": "fb0d9417314f3e8d479ecbe75b052912", "is_reserved": 0}, {"is_disabled": 0, "fusion_lon": 0.0, "fusion_lat": 0.0, "lat": 38.8771455, "type": "electric_scooter", "lon": -77.01770366666666, "bike_id": "846cdb93c795fe7bcaebfd61c52f430d", "rental_uris": {"android": "https://dc.lft.to/lastmile_qr_scan", "ios": "https://dc.lft.to/lastmile_qr_scan"}, "name": "846cdb93c795fe7bcaebfd61c52f430d", "is_reserved": 0}, {"is_disabled": 0, "fusion_lon": 0.0, "fusion_lat": 0.0, "lat": 38.9341555, "type": "electric_scooter", "lon": -77.04266116666666, "bike_id": "a92b64dc1662cf5b6ba1ef84bbf094ec", "rental_uris": {"android": "https://dc.lft.to/lastmile_qr_scan", "ios": "https://dc.lft.to/lastmile_qr_scan"}, "name": "a92b64dc1662cf5b6ba1ef84bbf094ec", "is_reserved": 0}, {"is_disabled": 0, "fusion_lon": 0.0, "fusion_lat": 0.0, "lat": 38.9223965, "type": "electric_scooter", "lon": -77.03665616666666, "bike_id": "410eddce8ec8de504453499374bb1b55", "rental_uris": {"android": "https://dc.lft.to/lastmile_qr_scan", "ios": "https://dc.lft.to/lastmile_qr_scan"}, "name": "410eddce8ec8de504453499374bb1b55", "is_reserved": 0}, {"is_disabled": 0, "fusion_lon": 0.0, "fusion_lat": 0.0, "lat": 38.935632, "type": "electric_scooter", "lon": -77.024977, "bike_id": "4caa389d880be941e67665ce47251c1e", "rental_uris": {"android": "https://dc.lft.to/lastmile_qr_scan", "ios": "https://dc.lft.to/lastmile_qr_scan"}, "name": "4caa389d880be941e67665ce47251c1e", "is_reserved": 0}, {"is_disabled": 0, "fusion_lon": 0.0, "fusion_lat": 0.0, "lat": 38.90052583333333, "type": "electric_scooter", "lon": -77.00196616666666, "bike_id": "f171c442cd264e38944d569303b8091e", "rental_uris": {"android": "https://dc.lft.to/lastmile_qr_scan", "ios": "https://dc.lft.to/lastmile_qr_scan"}, "name": "f171c442cd264e38944d569303b8091e", "is_reserved": 0}, {"is_disabled": 0, "fusion_lon": 0.0, "fusion_lat": 0.0, "lat": 38.906970333333334, "type": "electric_bike", "lon": -76.95197983333334, "bike_id": "ad38969489a6057b101887ce959be151", "rental_uris": {"android": "https://dc.lft.to/lastmile_qr_scan", "ios": "https://dc.lft.to/lastmile_qr_scan"}, "name": "ad38969489a6057b101887ce959be151", "is_reserved": 0}, {"is_disabled": 0, "fusion_lon": 0.0, "fusion_lat": 0.0, "lat": 38.920923, "type": "electric_scooter", "lon": -77.02596816666667, "bike_id": "a535757364f9f9986d8ccd973d189d5f", "rental_uris": {"android": "https://dc.lft.to/lastmile_qr_scan", "ios": "https://dc.lft.to/lastmile_qr_scan"}, "name": "a535757364f9f9986d8ccd973d189d5f", "is_reserved": 0}, {"is_disabled": 0, "fusion_lon": 0.0, "fusion_lat": 0.0, "lat": 38.91985566666666, "type": "electric_scooter", "lon": -77.04163766666667, "bike_id": "eede4814d14fc210fef475a986faaa73", "rental_uris": {"android": "https://dc.lft.to/lastmile_qr_scan", "ios": "https://dc.lft.to/lastmile_qr_scan"}, "name": "eede4814d14fc210fef475a986faaa73", "is_reserved": 0}, {"is_disabled": 0, "fusion_lon": 0.0, "fusion_lat": 0.0, "lat": 38.908418, "type": "electric_scooter", "lon": -77.03465666666666, "bike_id": "7bdbed9242620797e83ce79d1386eb5a", "rental_uris": {"android": "https://dc.lft.to/lastmile_qr_scan", "ios": "https://dc.lft.to/lastmile_qr_scan"}, "name": "7bdbed9242620797e83ce79d1386eb5a", "is_reserved": 0}, {"is_disabled": 0, "fusion_lon": 0.0, "fusion_lat": 0.0, "lat": 38.928064, "type": "electric_scooter", "lon": -77.054343, "bike_id": "773c4058f5ae27f68a8b92b596b68d69", "rental_uris": {"android": "https://dc.lft.to/lastmile_qr_scan", "ios": "https://dc.lft.to/lastmile_qr_scan"}, "name": "773c4058f5ae27f68a8b92b596b68d69", "is_reserved": 0}, {"is_disabled": 0, "fusion_lon": 0.0, "fusion_lat": 0.0, "lat": 38.91599466666667, "type": "electric_scooter", "lon": -77.02355433333334, "bike_id": "cf3b3479ccd89e2413571a4491850b2b", "rental_uris": {"android": "https://dc.lft.to/lastmile_qr_scan", "ios": "https://dc.lft.to/lastmile_qr_scan"}, "name": "cf3b3479ccd89e2413571a4491850b2b", "is_reserved": 0}, {"is_disabled": 0, "fusion_lon": 0.0, "fusion_lat": 0.0, "lat": 38.903358, "type": "electric_bike", "lon": -76.975308, "bike_id": "2e93f02782af01bdb23fb5587feeb75c", "rental_uris": {"android": "https://dc.lft.to/lastmile_qr_scan", "ios": "https://dc.lft.to/lastmile_qr_scan"}, "name": "2e93f02782af01bdb23fb5587feeb75c", "is_reserved": 0}, {"is_disabled": 0, "fusion_lon": 0.0, "fusion_lat": 0.0, "lat": 38.88584016666667, "type": "electric_scooter", "lon": -77.01223933333333, "bike_id": "b3a1ee7dff18de660576d2073d0976c5", "rental_uris": {"android": "https://dc.lft.to/lastmile_qr_scan", "ios": "https://dc.lft.to/lastmile_qr_scan"}, "name": "b3a1ee7dff18de660576d2073d0976c5", "is_reserved": 0}, {"is_disabled": 0, "fusion_lon": 0.0, "fusion_lat": 0.0, "lat": 38.932509, "type": "electric_scooter", "lon": -77.02969383333334, "bike_id": "f8ecdb48a66109d7976cb69fd91ac9bf", "rental_uris": {"android": "https://dc.lft.to/lastmile_qr_scan", "ios": "https://dc.lft.to/lastmile_qr_scan"}, "name": "f8ecdb48a66109d7976cb69fd91ac9bf", "is_reserved": 0}, {"is_disabled": 0, "fusion_lon": 0.0, "fusion_lat": 0.0, "lat": 38.91566533333334, "type": "electric_scooter", "lon": -77.04105283333334, "bike_id": "dd6d554de0b67f75549508fc35234c68", "rental_uris": {"android": "https://dc.lft.to/lastmile_qr_scan", "ios": "https://dc.lft.to/lastmile_qr_scan"}, "name": "dd6d554de0b67f75549508fc35234c68", "is_reserved": 0}, {"is_disabled": 0, "fusion_lon": 0.0, "fusion_lat": 0.0, "lat": 38.920540333333335, "type": "electric_scooter", "lon": -76.99887916666667, "bike_id": "c86243015294c23c366386018f274a56", "rental_uris": {"android": "https://dc.lft.to/lastmile_qr_scan", "ios": "https://dc.lft.to/lastmile_qr_scan"}, "name": "c86243015294c23c366386018f274a56", "is_reserved": 0}, {"is_disabled": 0, "fusion_lon": 0.0, "fusion_lat": 0.0, "lat": 38.935023666666666, "type": "electric_scooter", "lon": -77.027223, "bike_id": "e01ef0cc8301e78090daa3ff084ac4cd", "rental_uris": {"android": "https://dc.lft.to/lastmile_qr_scan", "ios": "https://dc.lft.to/lastmile_qr_scan"}, "name": "e01ef0cc8301e78090daa3ff084ac4cd", "is_reserved": 0}, {"is_disabled": 0, "fusion_lon": 0.0, "fusion_lat": 0.0, "lat": 38.9006265, "type": "electric_scooter", "lon": -77.04881733333333, "bike_id": "134f72d1bffcbb18f67f4f8d1f0c026b", "rental_uris": {"android": "https://dc.lft.to/lastmile_qr_scan", "ios": "https://dc.lft.to/lastmile_qr_scan"}, "name": "134f72d1bffcbb18f67f4f8d1f0c026b", "is_reserved": 0}, {"is_disabled": 0, "fusion_lon": 0.0, "fusion_lat": 0.0, "lat": 38.93230466666667, "type": "electric_scooter", "lon": -76.99490483333334, "bike_id": "06b963f8a1c180796ec4ddead47b3d45", "rental_uris": {"android": "https://dc.lft.to/lastmile_qr_scan", "ios": "https://dc.lft.to/lastmile_qr_scan"}, "name": "06b963f8a1c180796ec4ddead47b3d45", "is_reserved": 0}, {"is_disabled": 0, "fusion_lon": 0.0, "fusion_lat": 0.0, "lat": 38.9726125, "type": "electric_bike", "lon": -76.99172316666667, "bike_id": "31f8582b4492185cb612fae8f8e2f62a", "rental_uris": {"android": "https://dc.lft.to/lastmile_qr_scan", "ios": "https://dc.lft.to/lastmile_qr_scan"}, "name": "31f8582b4492185cb612fae8f8e2f62a", "is_reserved": 0}, {"is_disabled": 0, "fusion_lon": 0.0, "fusion_lat": 0.0, "lat": 38.93471016666667, "type": "electric_scooter", "lon": -77.0687985, "bike_id": "81a3ac4625bc72a9da6d926167f84670", "rental_uris": {"android": "https://dc.lft.to/lastmile_qr_scan", "ios": "https://dc.lft.to/lastmile_qr_scan"}, "name": "81a3ac4625bc72a9da6d926167f84670", "is_reserved": 0}, {"is_disabled": 0, "fusion_lon": 0.0, "fusion_lat": 0.0, "lat": 38.897535, "type": "electric_scooter", "lon": -77.0100585, "bike_id": "e97c9e4f2829d2a90c7a0f11c11e2707", "rental_uris": {"android": "https://dc.lft.to/lastmile_qr_scan", "ios": "https://dc.lft.to/lastmile_qr_scan"}, "name": "e97c9e4f2829d2a90c7a0f11c11e2707", "is_reserved": 0}, {"is_disabled": 0, "fusion_lon": 0.0, "fusion_lat": 0.0, "lat": 38.81272716666667, "type": "electric_bike", "lon": -77.06176133333334, "bike_id": "d456deb96f52cb9f55b1f53a957a6929", "rental_uris": {"android": "https://dc.lft.to/lastmile_qr_scan", "ios": "https://dc.lft.to/lastmile_qr_scan"}, "name": "d456deb96f52cb9f55b1f53a957a6929", "is_reserved": 0}, {"is_disabled": 0, "fusion_lon": 0.0, "fusion_lat": 0.0, "lat": 38.91794266666667, "type": "electric_scooter", "lon": -77.03456633333333, "bike_id": "81e7b319391425948ed13df4abd70b0a", "rental_uris": {"android": "https://dc.lft.to/lastmile_qr_scan", "ios": "https://dc.lft.to/lastmile_qr_scan"}, "name": "81e7b319391425948ed13df4abd70b0a", "is_reserved": 0}, {"is_disabled": 0, "fusion_lon": 0.0, "fusion_lat": 0.0, "lat": 38.839358833333335, "type": "electric_bike", "lon": -77.07904833333333, "bike_id": "aa25f3b3b233d429c682e3efbeab2632", "rental_uris": {"android": "https://dc.lft.to/lastmile_qr_scan", "ios": "https://dc.lft.to/lastmile_qr_scan"}, "name": "aa25f3b3b233d429c682e3efbeab2632", "is_reserved": 0}, {"is_disabled": 0, "fusion_lon": 0.0, "fusion_lat": 0.0, "lat": 38.918195833333336, "type": "electric_scooter", "lon": -77.03179016666667, "bike_id": "4f0db9d7a6e84fc527d1837baae9940d", "rental_uris": {"android": "https://dc.lft.to/lastmile_qr_scan", "ios": "https://dc.lft.to/lastmile_qr_scan"}, "name": "4f0db9d7a6e84fc527d1837baae9940d", "is_reserved": 0}, {"is_disabled": 0, "fusion_lon": 0.0, "fusion_lat": 0.0, "lat": 38.90401083333333, "type": "electric_scooter", "lon": -77.04043633333333, "bike_id": "4853c97e56abd4bd3038e8b761e9b19f", "rental_uris": {"android": "https://dc.lft.to/lastmile_qr_scan", "ios": "https://dc.lft.to/lastmile_qr_scan"}, "name": "4853c97e56abd4bd3038e8b761e9b19f", "is_reserved": 0}, {"is_disabled": 0, "fusion_lon": 0.0, "fusion_lat": 0.0, "lat": 38.91757533333333, "type": "electric_scooter", "lon": -77.02813333333333, "bike_id": "645beab6dbef62fffbc2f1870ac4f3cd", "rental_uris": {"android": "https://dc.lft.to/lastmile_qr_scan", "ios": "https://dc.lft.to/lastmile_qr_scan"}, "name": "645beab6dbef62fffbc2f1870ac4f3cd", "is_reserved": 0}, {"is_disabled": 0, "fusion_lon": 0.0, "fusion_lat": 0.0, "lat": 38.873878166666664, "type": "electric_scooter", "lon": -77.00194433333333, "bike_id": "ca2e6524e16daddd2d64a17fb1bfdfcc", "rental_uris": {"android": "https://dc.lft.to/lastmile_qr_scan", "ios": "https://dc.lft.to/lastmile_qr_scan"}, "name": "ca2e6524e16daddd2d64a17fb1bfdfcc", "is_reserved": 0}, {"is_disabled": 0, "fusion_lon": 0.0, "fusion_lat": 0.0, "lat": 39.00785466666667, "type": "electric_bike", "lon": -76.99573466666666, "bike_id": "f3bf0daae5a816907e513bf44a1cc063", "rental_uris": {"android": "https://dc.lft.to/lastmile_qr_scan", "ios": "https://dc.lft.to/lastmile_qr_scan"}, "name": "f3bf0daae5a816907e513bf44a1cc063", "is_reserved": 0}, {"is_disabled": 0, "fusion_lon": 0.0, "fusion_lat": 0.0, "lat": 38.9064855, "type": "electric_scooter", "lon": -77.045314, "bike_id": "635910696bce1904b4b8adf954897b9e", "rental_uris": {"android": "https://dc.lft.to/lastmile_qr_scan", "ios": "https://dc.lft.to/lastmile_qr_scan"}, "name": "635910696bce1904b4b8adf954897b9e", "is_reserved": 0}, {"is_disabled": 0, "fusion_lon": 0.0, "fusion_lat": 0.0, "lat": 38.86701766666667, "type": "electric_scooter", "lon": -76.987158, "bike_id": "1c75cf1a77d8dca6afaf6ff5981b2d06", "rental_uris": {"android": "https://dc.lft.to/lastmile_qr_scan", "ios": "https://dc.lft.to/lastmile_qr_scan"}, "name": "1c75cf1a77d8dca6afaf6ff5981b2d06", "is_reserved": 0}, {"is_disabled": 0, "fusion_lon": 0.0, "fusion_lat": 0.0, "lat": 38.9031245, "type": "electric_scooter", "lon": -77.02365416666666, "bike_id": "b7a4da125e4f7f621bec722024773827", "rental_uris": {"android": "https://dc.lft.to/lastmile_qr_scan", "ios": "https://dc.lft.to/lastmile_qr_scan"}, "name": "b7a4da125e4f7f621bec722024773827", "is_reserved": 0}, {"is_disabled": 0, "fusion_lon": 0.0, "fusion_lat": 0.0, "lat": 38.938995, "type": "electric_scooter", "lon": -77.03322333333334, "bike_id": "8797eccceefed85921bfa70babde2030", "rental_uris": {"android": "https://dc.lft.to/lastmile_qr_scan", "ios": "https://dc.lft.to/lastmile_qr_scan"}, "name": "8797eccceefed85921bfa70babde2030", "is_reserved": 0}, {"is_disabled": 0, "fusion_lon": 0.0, "fusion_lat": 0.0, "lat": 38.942860333333336, "type": "electric_bike", "lon": -77.06923316666666, "bike_id": "61e5a1522140fa550daf558457ed7e5a", "rental_uris": {"android": "https://dc.lft.to/lastmile_qr_scan", "ios": "https://dc.lft.to/lastmile_qr_scan"}, "name": "61e5a1522140fa550daf558457ed7e5a", "is_reserved": 0}, {"is_disabled": 0, "fusion_lon": 0.0, "fusion_lat": 0.0, "lat": 38.91777366666667, "type": "electric_scooter", "lon": -77.0295655, "bike_id": "00c2642546231b6e77d72d8cbfa23a51", "rental_uris": {"android": "https://dc.lft.to/lastmile_qr_scan", "ios": "https://dc.lft.to/lastmile_qr_scan"}, "name": "00c2642546231b6e77d72d8cbfa23a51", "is_reserved": 0}, {"is_disabled": 0, "fusion_lon": 0.0, "fusion_lat": 0.0, "lat": 38.9173235, "type": "electric_scooter", "lon": -77.00506933333334, "bike_id": "4355e920f3a11d7c66ea7a7b7a86b5e8", "rental_uris": {"android": "https://dc.lft.to/lastmile_qr_scan", "ios": "https://dc.lft.to/lastmile_qr_scan"}, "name": "4355e920f3a11d7c66ea7a7b7a86b5e8", "is_reserved": 0}, {"is_disabled": 0, "fusion_lon": 0.0, "fusion_lat": 0.0, "lat": 38.89617716666667, "type": "electric_scooter", "lon": -77.02676033333333, "bike_id": "d502b989d22b2c48fefaa5f7ae0e2149", "rental_uris": {"android": "https://dc.lft.to/lastmile_qr_scan", "ios": "https://dc.lft.to/lastmile_qr_scan"}, "name": "d502b989d22b2c48fefaa5f7ae0e2149", "is_reserved": 0}, {"is_disabled": 0, "fusion_lon": 0.0, "fusion_lat": 0.0, "lat": 38.919884833333334, "type": "electric_scooter", "lon": -77.0318065, "bike_id": "e1a2ca84422215ea57a9e924e5351b65", "rental_uris": {"android": "https://dc.lft.to/lastmile_qr_scan", "ios": "https://dc.lft.to/lastmile_qr_scan"}, "name": "e1a2ca84422215ea57a9e924e5351b65", "is_reserved": 0}, {"is_disabled": 0, "fusion_lon": 0.0, "fusion_lat": 0.0, "lat": 38.93559466666667, "type": "electric_bike", "lon": -77.08194883333333, "bike_id": "008c0fd664bec1a891a429ea2111665d", "rental_uris": {"android": "https://dc.lft.to/lastmile_qr_scan", "ios": "https://dc.lft.to/lastmile_qr_scan"}, "name": "008c0fd664bec1a891a429ea2111665d", "is_reserved": 0}, {"is_disabled": 0, "fusion_lon": 0.0, "fusion_lat": 0.0, "lat": 38.91939633333333, "type": "electric_scooter", "lon": -77.0706215, "bike_id": "b297742531692650033494406ef1a132", "rental_uris": {"android": "https://dc.lft.to/lastmile_qr_scan", "ios": "https://dc.lft.to/lastmile_qr_scan"}, "name": "b297742531692650033494406ef1a132", "is_reserved": 0}, {"is_disabled": 0, "fusion_lon": 0.0, "fusion_lat": 0.0, "lat": 38.92582133333333, "type": "electric_scooter", "lon": -77.0321305, "bike_id": "e3a89b41cd3c8090d8e05ea3a8555675", "rental_uris": {"android": "https://dc.lft.to/lastmile_qr_scan", "ios": "https://dc.lft.to/lastmile_qr_scan"}, "name": "e3a89b41cd3c8090d8e05ea3a8555675", "is_reserved": 0}, {"is_disabled": 0, "fusion_lon": 0.0, "fusion_lat": 0.0, "lat": 38.8976065, "type": "electric_scooter", "lon": -77.05159083333334, "bike_id": "7dfd64a39ae1adedd76a21f4587ab0e3", "rental_uris": {"android": "https://dc.lft.to/lastmile_qr_scan", "ios": "https://dc.lft.to/lastmile_qr_scan"}, "name": "7dfd64a39ae1adedd76a21f4587ab0e3", "is_reserved": 0}, {"is_disabled": 0, "fusion_lon": 0.0, "fusion_lat": 0.0, "lat": 38.9419125, "type": "electric_scooter", "lon": -77.04261566666666, "bike_id": "04d8b60f348abb0545b1508b8ba14c65", "rental_uris": {"android": "https://dc.lft.to/lastmile_qr_scan", "ios": "https://dc.lft.to/lastmile_qr_scan"}, "name": "04d8b60f348abb0545b1508b8ba14c65", "is_reserved": 0}, {"is_disabled": 0, "fusion_lon": 0.0, "fusion_lat": 0.0, "lat": 38.93542683333333, "type": "electric_scooter", "lon": -77.03419766666667, "bike_id": "0783087296db17d706582196a23b94e5", "rental_uris": {"android": "https://dc.lft.to/lastmile_qr_scan", "ios": "https://dc.lft.to/lastmile_qr_scan"}, "name": "0783087296db17d706582196a23b94e5", "is_reserved": 0}, {"is_disabled": 0, "fusion_lon": 0.0, "fusion_lat": 0.0, "lat": 38.89842733333333, "type": "electric_scooter", "lon": -76.9449055, "bike_id": "9917c32b2c38e50ae1967a89d6c303ec", "rental_uris": {"android": "https://dc.lft.to/lastmile_qr_scan", "ios": "https://dc.lft.to/lastmile_qr_scan"}, "name": "9917c32b2c38e50ae1967a89d6c303ec", "is_reserved": 0}, {"is_disabled": 0, "fusion_lon": 0.0, "fusion_lat": 0.0, "lat": 38.89331416666667, "type": "electric_scooter", "lon": -77.02127866666666, "bike_id": "a18e4e1815ecd06b1dd6ddad1b09ff0c", "rental_uris": {"android": "https://dc.lft.to/lastmile_qr_scan", "ios": "https://dc.lft.to/lastmile_qr_scan"}, "name": "a18e4e1815ecd06b1dd6ddad1b09ff0c", "is_reserved": 0}, {"is_disabled": 0, "fusion_lon": 0.0, "fusion_lat": 0.0, "lat": 38.932301833333334, "type": "electric_scooter", "lon": -77.0388655, "bike_id": "047f5b76b65beffd06f8d19359f56e6d", "rental_uris": {"android": "https://dc.lft.to/lastmile_qr_scan", "ios": "https://dc.lft.to/lastmile_qr_scan"}, "name": "047f5b76b65beffd06f8d19359f56e6d", "is_reserved": 0}, {"is_disabled": 0, "fusion_lon": 0.0, "fusion_lat": 0.0, "lat": 38.890454, "type": "electric_scooter", "lon": -76.9376125, "bike_id": "ac9359931add45f844697a16fd96b079", "rental_uris": {"android": "https://dc.lft.to/lastmile_qr_scan", "ios": "https://dc.lft.to/lastmile_qr_scan"}, "name": "ac9359931add45f844697a16fd96b079", "is_reserved": 0}, {"is_disabled": 0, "fusion_lon": 0.0, "fusion_lat": 0.0, "lat": 38.9007995, "type": "electric_scooter", "lon": -77.0131125, "bike_id": "5aa0e9da1639032dc592cb94512cd0e0", "rental_uris": {"android": "https://dc.lft.to/lastmile_qr_scan", "ios": "https://dc.lft.to/lastmile_qr_scan"}, "name": "5aa0e9da1639032dc592cb94512cd0e0", "is_reserved": 0}, {"is_disabled": 0, "fusion_lon": 0.0, "fusion_lat": 0.0, "lat": 38.96051216666667, "type": "electric_scooter", "lon": -77.0857675, "bike_id": "adfdb8814e64b2415cd3337d5364f2ef", "rental_uris": {"android": "https://dc.lft.to/lastmile_qr_scan", "ios": "https://dc.lft.to/lastmile_qr_scan"}, "name": "adfdb8814e64b2415cd3337d5364f2ef", "is_reserved": 0}, {"is_disabled": 0, "fusion_lon": 0.0, "fusion_lat": 0.0, "lat": 38.93127, "type": "electric_scooter", "lon": -77.02197683333333, "bike_id": "34d2ab879cefaff9b41d09cabdc4896f", "rental_uris": {"android": "https://dc.lft.to/lastmile_qr_scan", "ios": "https://dc.lft.to/lastmile_qr_scan"}, "name": "34d2ab879cefaff9b41d09cabdc4896f", "is_reserved": 0}, {"is_disabled": 0, "fusion_lon": 0.0, "fusion_lat": 0.0, "lat": 38.906039166666666, "type": "electric_scooter", "lon": -77.01629316666667, "bike_id": "5700fd11a0811fdd53d6a23aed653873", "rental_uris": {"android": "https://dc.lft.to/lastmile_qr_scan", "ios": "https://dc.lft.to/lastmile_qr_scan"}, "name": "5700fd11a0811fdd53d6a23aed653873", "is_reserved": 0}, {"is_disabled": 0, "fusion_lon": 0.0, "fusion_lat": 0.0, "lat": 39.022983, "type": "electric_bike", "lon": -77.02107916666667, "bike_id": "ef9dc87219c1b95b17657570733f7724", "rental_uris": {"android": "https://dc.lft.to/lastmile_qr_scan", "ios": "https://dc.lft.to/lastmile_qr_scan"}, "name": "ef9dc87219c1b95b17657570733f7724", "is_reserved": 0}, {"is_disabled": 0, "fusion_lon": 0.0, "fusion_lat": 0.0, "lat": 38.92319716666667, "type": "electric_scooter", "lon": -77.03927433333334, "bike_id": "d6721832afa6ddae48dea3001421a784", "rental_uris": {"android": "https://dc.lft.to/lastmile_qr_scan", "ios": "https://dc.lft.to/lastmile_qr_scan"}, "name": "d6721832afa6ddae48dea3001421a784", "is_reserved": 0}, {"is_disabled": 0, "fusion_lon": 0.0, "fusion_lat": 0.0, "lat": 38.919743833333335, "type": "electric_scooter", "lon": -77.0415425, "bike_id": "941757cd76b851db271cab5e2d5fcfa1", "rental_uris": {"android": "https://dc.lft.to/lastmile_qr_scan", "ios": "https://dc.lft.to/lastmile_qr_scan"}, "name": "941757cd76b851db271cab5e2d5fcfa1", "is_reserved": 0}, {"is_disabled": 0, "fusion_lon": 0.0, "fusion_lat": 0.0, "lat": 38.914427333333336, "type": "electric_scooter", "lon": -77.0088715, "bike_id": "65c7d229c54ca0225e3272b0d70b30a3", "rental_uris": {"android": "https://dc.lft.to/lastmile_qr_scan", "ios": "https://dc.lft.to/lastmile_qr_scan"}, "name": "65c7d229c54ca0225e3272b0d70b30a3", "is_reserved": 0}, {"is_disabled": 0, "fusion_lon": 0.0, "fusion_lat": 0.0, "lat": 38.89838733333333, "type": "electric_scooter", "lon": -77.02223416666666, "bike_id": "2c8701c73641e76be75b242bf042f279", "rental_uris": {"android": "https://dc.lft.to/lastmile_qr_scan", "ios": "https://dc.lft.to/lastmile_qr_scan"}, "name": "2c8701c73641e76be75b242bf042f279", "is_reserved": 0}, {"is_disabled": 0, "fusion_lon": 0.0, "fusion_lat": 0.0, "lat": 38.956133666666666, "type": "electric_scooter", "lon": -77.02760966666666, "bike_id": "eeef3c3b21753618b289aae08d152bce", "rental_uris": {"android": "https://dc.lft.to/lastmile_qr_scan", "ios": "https://dc.lft.to/lastmile_qr_scan"}, "name": "eeef3c3b21753618b289aae08d152bce", "is_reserved": 0}, {"is_disabled": 0, "fusion_lon": 0.0, "fusion_lat": 0.0, "lat": 38.91542233333333, "type": "electric_scooter", "lon": -77.03212333333333, "bike_id": "0518ea346fb43f892fd0f93a79371c79", "rental_uris": {"android": "https://dc.lft.to/lastmile_qr_scan", "ios": "https://dc.lft.to/lastmile_qr_scan"}, "name": "0518ea346fb43f892fd0f93a79371c79", "is_reserved": 0}, {"is_disabled": 0, "fusion_lon": 0.0, "fusion_lat": 0.0, "lat": 38.906991833333336, "type": "electric_scooter", "lon": -77.06302083333334, "bike_id": "10fe8793438091d42e6179d1cd22e648", "rental_uris": {"android": "https://dc.lft.to/lastmile_qr_scan", "ios": "https://dc.lft.to/lastmile_qr_scan"}, "name": "10fe8793438091d42e6179d1cd22e648", "is_reserved": 0}, {"is_disabled": 0, "fusion_lon": 0.0, "fusion_lat": 0.0, "lat": 38.924423, "type": "electric_bike", "lon": -76.90760416666667, "bike_id": "392dc6a7b97c0c817ec25da9a5010aaa", "rental_uris": {"android": "https://dc.lft.to/lastmile_qr_scan", "ios": "https://dc.lft.to/lastmile_qr_scan"}, "name": "392dc6a7b97c0c817ec25da9a5010aaa", "is_reserved": 0}, {"is_disabled": 0, "fusion_lon": 0.0, "fusion_lat": 0.0, "lat": 38.928723166666664, "type": "electric_scooter", "lon": -77.02733616666667, "bike_id": "49879714cd3a05d24ebf34d79791abd7", "rental_uris": {"android": "https://dc.lft.to/lastmile_qr_scan", "ios": "https://dc.lft.to/lastmile_qr_scan"}, "name": "49879714cd3a05d24ebf34d79791abd7", "is_reserved": 0}, {"is_disabled": 0, "fusion_lon": 0.0, "fusion_lat": 0.0, "lat": 38.91804316666666, "type": "electric_scooter", "lon": -77.03208866666667, "bike_id": "81697c22b7501654e5133a4c800eff27", "rental_uris": {"android": "https://dc.lft.to/lastmile_qr_scan", "ios": "https://dc.lft.to/lastmile_qr_scan"}, "name": "81697c22b7501654e5133a4c800eff27", "is_reserved": 0}, {"is_disabled": 0, "fusion_lon": 0.0, "fusion_lat": 0.0, "lat": 38.91703033333334, "type": "electric_scooter", "lon": -77.02611416666667, "bike_id": "df5544c474a2ba29d1dccc153a9b5633", "rental_uris": {"android": "https://dc.lft.to/lastmile_qr_scan", "ios": "https://dc.lft.to/lastmile_qr_scan"}, "name": "df5544c474a2ba29d1dccc153a9b5633", "is_reserved": 0}, {"is_disabled": 0, "fusion_lon": 0.0, "fusion_lat": 0.0, "lat": 38.91586916666667, "type": "electric_scooter", "lon": -77.04671533333334, "bike_id": "d6adfc06b2fb050cf7073bcce5857960", "rental_uris": {"android": "https://dc.lft.to/lastmile_qr_scan", "ios": "https://dc.lft.to/lastmile_qr_scan"}, "name": "d6adfc06b2fb050cf7073bcce5857960", "is_reserved": 0}, {"is_disabled": 0, "fusion_lon": 0.0, "fusion_lat": 0.0, "lat": 38.827835, "type": "electric_bike", "lon": -77.110901, "bike_id": "033b57ddd5bfd2020ec88d5db1dda2bb", "rental_uris": {"android": "https://dc.lft.to/lastmile_qr_scan", "ios": "https://dc.lft.to/lastmile_qr_scan"}, "name": "033b57ddd5bfd2020ec88d5db1dda2bb", "is_reserved": 0}, {"is_disabled": 0, "fusion_lon": 0.0, "fusion_lat": 0.0, "lat": 38.901693333333334, "type": "electric_scooter", "lon": -77.02224166666667, "bike_id": "a3cd26ebd69d7a49275ec1aef0ddf094", "rental_uris": {"android": "https://dc.lft.to/lastmile_qr_scan", "ios": "https://dc.lft.to/lastmile_qr_scan"}, "name": "a3cd26ebd69d7a49275ec1aef0ddf094", "is_reserved": 0}, {"is_disabled": 0, "fusion_lon": 0.0, "fusion_lat": 0.0, "lat": 38.92263916666667, "type": "electric_scooter", "lon": -77.0421005, "bike_id": "96c0a180288586f64bea4d5b9ab0b54c", "rental_uris": {"android": "https://dc.lft.to/lastmile_qr_scan", "ios": "https://dc.lft.to/lastmile_qr_scan"}, "name": "96c0a180288586f64bea4d5b9ab0b54c", "is_reserved": 0}, {"is_disabled": 0, "fusion_lon": 0.0, "fusion_lat": 0.0, "lat": 38.9215835, "type": "electric_scooter", "lon": -77.03438283333334, "bike_id": "db20beeca4ffe0ba2e77701a9798e713", "rental_uris": {"android": "https://dc.lft.to/lastmile_qr_scan", "ios": "https://dc.lft.to/lastmile_qr_scan"}, "name": "db20beeca4ffe0ba2e77701a9798e713", "is_reserved": 0}, {"is_disabled": 0, "fusion_lon": 0.0, "fusion_lat": 0.0, "lat": 38.92285733333333, "type": "electric_scooter", "lon": -77.04471533333333, "bike_id": "0b9eaddb085085b9442af992b8509bd0", "rental_uris": {"android": "https://dc.lft.to/lastmile_qr_scan", "ios": "https://dc.lft.to/lastmile_qr_scan"}, "name": "0b9eaddb085085b9442af992b8509bd0", "is_reserved": 0}, {"is_disabled": 0, "fusion_lon": 0.0, "fusion_lat": 0.0, "lat": 38.82447833333333, "type": "electric_bike", "lon": -77.07048966666666, "bike_id": "c666b9b7ad7e11ecefb5adf5e2cad746", "rental_uris": {"android": "https://dc.lft.to/lastmile_qr_scan", "ios": "https://dc.lft.to/lastmile_qr_scan"}, "name": "c666b9b7ad7e11ecefb5adf5e2cad746", "is_reserved": 0}, {"is_disabled": 0, "fusion_lon": 0.0, "fusion_lat": 0.0, "lat": 38.8653365, "type": "electric_bike", "lon": -77.12817666666666, "bike_id": "873fecb190e431fb184fa33a8db16660", "rental_uris": {"android": "https://dc.lft.to/lastmile_qr_scan", "ios": "https://dc.lft.to/lastmile_qr_scan"}, "name": "873fecb190e431fb184fa33a8db16660", "is_reserved": 0}, {"is_disabled": 0, "fusion_lon": 0.0, "fusion_lat": 0.0, "lat": 38.8996735, "type": "electric_scooter", "lon": -76.93981516666666, "bike_id": "807e355850a6b8f2618a8853c70a9984", "rental_uris": {"android": "https://dc.lft.to/lastmile_qr_scan", "ios": "https://dc.lft.to/lastmile_qr_scan"}, "name": "807e355850a6b8f2618a8853c70a9984", "is_reserved": 0}, {"is_disabled": 0, "fusion_lon": 0.0, "fusion_lat": 0.0, "lat": 38.892233833333336, "type": "electric_scooter", "lon": -77.0226585, "bike_id": "83d6c5874878c77ab5f5d8839fdec71c", "rental_uris": {"android": "https://dc.lft.to/lastmile_qr_scan", "ios": "https://dc.lft.to/lastmile_qr_scan"}, "name": "83d6c5874878c77ab5f5d8839fdec71c", "is_reserved": 0}, {"is_disabled": 0, "fusion_lon": 0.0, "fusion_lat": 0.0, "lat": 38.9367515, "type": "electric_scooter", "lon": -77.03625666666667, "bike_id": "5a80a1178428bd5b384c60d661cc0a29", "rental_uris": {"android": "https://dc.lft.to/lastmile_qr_scan", "ios": "https://dc.lft.to/lastmile_qr_scan"}, "name": "5a80a1178428bd5b384c60d661cc0a29", "is_reserved": 0}, {"is_disabled": 0, "fusion_lon": 0.0, "fusion_lat": 0.0, "lat": 38.91599133333333, "type": "electric_scooter", "lon": -77.02303833333333, "bike_id": "9595af7556ea306263f22a04cfaeffa5", "rental_uris": {"android": "https://dc.lft.to/lastmile_qr_scan", "ios": "https://dc.lft.to/lastmile_qr_scan"}, "name": "9595af7556ea306263f22a04cfaeffa5", "is_reserved": 0}, {"is_disabled": 0, "fusion_lon": 0.0, "fusion_lat": 0.0, "lat": 38.863625166666665, "type": "electric_scooter", "lon": -76.9906455, "bike_id": "191618f2669d5187916baaea541596dc", "rental_uris": {"android": "https://dc.lft.to/lastmile_qr_scan", "ios": "https://dc.lft.to/lastmile_qr_scan"}, "name": "191618f2669d5187916baaea541596dc", "is_reserved": 0}, {"is_disabled": 0, "fusion_lon": 0.0, "fusion_lat": 0.0, "lat": 38.9205835, "type": "electric_scooter", "lon": -77.0329305, "bike_id": "a966488ba105c1ac5d0c41d5b4660f5b", "rental_uris": {"android": "https://dc.lft.to/lastmile_qr_scan", "ios": "https://dc.lft.to/lastmile_qr_scan"}, "name": "a966488ba105c1ac5d0c41d5b4660f5b", "is_reserved": 0}, {"is_disabled": 0, "fusion_lon": 0.0, "fusion_lat": 0.0, "lat": 38.90592266666667, "type": "electric_scooter", "lon": -77.024083, "bike_id": "36d2f4e717ad108fb150087f82b4a457", "rental_uris": {"android": "https://dc.lft.to/lastmile_qr_scan", "ios": "https://dc.lft.to/lastmile_qr_scan"}, "name": "36d2f4e717ad108fb150087f82b4a457", "is_reserved": 0}, {"is_disabled": 0, "fusion_lon": 0.0, "fusion_lat": 0.0, "lat": 38.909767, "type": "electric_scooter", "lon": -77.0344615, "bike_id": "0e0b3415954a53544b9f19ef3c7f311e", "rental_uris": {"android": "https://dc.lft.to/lastmile_qr_scan", "ios": "https://dc.lft.to/lastmile_qr_scan"}, "name": "0e0b3415954a53544b9f19ef3c7f311e", "is_reserved": 0}, {"is_disabled": 0, "fusion_lon": 0.0, "fusion_lat": 0.0, "lat": 38.85067333333333, "type": "electric_bike", "lon": -76.97334416666666, "bike_id": "0a2b03ec0c99a0bd513950b981bceda7", "rental_uris": {"android": "https://dc.lft.to/lastmile_qr_scan", "ios": "https://dc.lft.to/lastmile_qr_scan"}, "name": "0a2b03ec0c99a0bd513950b981bceda7", "is_reserved": 0}, {"is_disabled": 0, "fusion_lon": 0.0, "fusion_lat": 0.0, "lat": 38.92847016666666, "type": "electric_bike", "lon": -77.02061516666667, "bike_id": "60a328588f98f261f8d5918020695148", "rental_uris": {"android": "https://dc.lft.to/lastmile_qr_scan", "ios": "https://dc.lft.to/lastmile_qr_scan"}, "name": "60a328588f98f261f8d5918020695148", "is_reserved": 0}, {"is_disabled": 0, "fusion_lon": 0.0, "fusion_lat": 0.0, "lat": 38.91390533333333, "type": "electric_scooter", "lon": -77.03857866666667, "bike_id": "10fe9c6c9251749c14c19c9dc5ff8ab8", "rental_uris": {"android": "https://dc.lft.to/lastmile_qr_scan", "ios": "https://dc.lft.to/lastmile_qr_scan"}, "name": "10fe9c6c9251749c14c19c9dc5ff8ab8", "is_reserved": 0},