{"data": {"bikes": [{"fusion_lon": 0.0, "bike_id": "9195424a6fe9ba98724e049d4b50b02e", "name": "9195424a6fe9ba98724e049d4b50b02e", "type": "electric_scooter", "lon": -77.02101216666667, "rental_uris": {"android": "https://dc.lft.to/lastmile_qr_scan", "ios": "https://dc.lft.to/lastmile_qr_scan"}, "lat": 38.897585166666666, "is_reserved": 0, "is_disabled": 0, "fusion_lat": 0.0}, {"fusion_lon": 0.0, "bike_id": "9b29b0eda824800b2837fdad59a278a9", "name": "9b29b0eda824800b2837fdad59a278a9", "type": "electric_bike", "lon": -77.12746133333333, "rental_uris": {"android": "https://dc.lft.to/lastmile_qr_scan", "ios": "https://dc.lft.to/lastmile_qr_scan"}, "lat": 38.8882745, "is_reserved": 0, "is_disabled": 0, "fusion_lat": 0.0}, {"fusion_lon": 0.0, "bike_id": "8faeeb4d9d187382166c496e3a4c3d7c", "name": "8faeeb4d9d187382166c496e3a4c3d7c", "type": "electric_scooter", "lon": -77.015244, "rental_uris": {"android": "https://dc.lft.to/lastmile_qr_scan", "ios": "https://dc.lft.to/lastmile_qr_scan"}, "lat": 38.884911333333335, "is_reserved": 0, "is_disabled": 0, "fusion_lat": 0.0}, {"fusion_lon": 0.0, "bike_id": "46b9f66ccc53e9d373a106ea16b82a41", "name": "46b9f66ccc53e9d373a106ea16b82a41", "type": "electric_scooter", "lon": -76.98767633333334, "rental_uris": {"android": "https://dc.lft.to/lastmile_qr_scan", "ios": "https://dc.lft.to/lastmile_qr_scan"}, "lat": 38.912046833333335, "is_reserved": 0, "is_disabled": 0, "fusion_lat": 0.0}, {"fusion_lon": 0.0, "bike_id": "c43426bd354fae386bd33a74e0271428", "name": "c43426bd354fae386bd33a74e0271428", "type": "electric_scooter", "lon": -77.00749883333333, "rental_uris": {"android": "https://dc.lft.to/lastmile_qr_scan", "ios": "https://dc.lft.to/lastmile_qr_scan"}, "lat": 38.900595833333334, "is_reserved": 0, "is_disabled": 0, "fusion_lat": 0.0}, {"fusion_lon": 0.0, "bike_id": "8228e6837faf8911ab0df827b809b501", "name": "8228e6837faf8911ab0df827b809b501", "type": "electric_scooter", "lon": -77.015867, "rental_uris": {"android": "https://dc.lft.to/lastmile_qr_scan", "ios": "https://dc.lft.to/lastmile_qr_scan"}, "lat": 38.89728183333333, "is_reserved": 0, "is_disabled": 0, "fusion_lat": 0.0}, {"fusion_lon": 0.0, "bike_id": "d6a5e72c5530ee9f92f4b2877d927805", "name": "d6a5e72c5530ee9f92f4b2877d927805", "type": "electric_scooter", "lon": -77.02716266666667, "rental_uris": {"android": "https://dc.lft.to/lastmile_qr_scan", "ios": "https://dc.lft.to/lastmile_qr_scan"}, "lat": 38.906757166666665, "is_reserved": 0, "is_disabled": 0, "fusion_lat": 0.0}, {"fusion_lon": 0.0, "bike_id": "548879351274a699fc757cbfd2e23a84", "name": "548879351274a699fc757cbfd2e23a84", "type": "electric_scooter", "lon": -77.061653, "rental_uris": {"android": "https://dc.lft.to/lastmile_qr_scan", "ios": "https://dc.lft.to/lastmile_qr_scan"}, "lat": 38.94221, "is_reserved": 0, "is_disabled": 0, "fusion_lat": 0.0}, {"fusion_lon": 0.0, "bike_id": "d69c799ce62066565ab1eb123dfdd015", "name": "d69c799ce62066565ab1eb123dfdd015", "type": "electric_scooter", "lon": -77.00481683333334, "rental_uris": {"android": "https://dc.lft.to/lastmile_qr_scan", "ios": "https://dc.lft.to/lastmile_qr_scan"}, "lat": 38.92594233333333, "is_reserved": 0, "is_disabled": 0, "fusion_lat": 0.0}, {"fusion_lon": 0.0, "bike_id": "4605c07771f2953430410b93ebd9a3bc", "name": "4605c07771f2953430410b93ebd9a3bc", "type": "electric_scooter", "lon": -76.94119116666667, "rental_uris": {"android": "https://dc.lft.to/lastmile_qr_scan", "ios": "https://dc.lft.to/lastmile_qr_scan"}, "lat": 38.907951, "is_reserved": 0, "is_disabled": 0, "fusion_lat": 0.0}, {"fusion_lon": 0.0, "bike_id": "37ea366a12a9941c27e700b5047925d8", "name": "37ea366a12a9941c27e700b5047925d8", "type": "electric_scooter", "lon": -76.93158833333334, "rental_uris": {"android": "https://dc.lft.to/lastmile_qr_scan", "ios": "https://dc.lft.to/lastmile_qr_scan"}, "lat": 38.89881866666666, "is_reserved": 0, "is_disabled": 0, "fusion_lat": 0.0}, {"fusion_lon": 0.0, "bike_id": "cabfbe90d1a8dbf6c120781456fae467", "name": "cabfbe90d1a8dbf6c120781456fae467", "type": "electric_scooter", "lon": -76.98673333333333, "rental_uris": {"android": "https://dc.lft.to/lastmile_qr_scan", "ios": "https://dc.lft.to/lastmile_qr_scan"}, "lat": 38.855701333333336, "is_reserved": 0, "is_disabled": 0, "fusion_lat": 0.0}, {"fusion_lon": 0.0, "bike_id": "46bc420780fb679c62b6cce422bd566b", "name": "46bc420780fb679c62b6cce422bd566b", "type": "electric_scooter", "lon": -77.01258016666667, "rental_uris": {"android": "https://dc.lft.to/lastmile_qr_scan", "ios": "https://dc.lft.to/lastmile_qr_scan"}, "lat": 38.874822, "is_reserved": 0, "is_disabled": 0, "fusion_lat": 0.0}, {"fusion_lon": 0.0, "bike_id": "8f1d2adec512ee7a94c40be3b57d667a", "name": "8f1d2adec512ee7a94c40be3b57d667a", "type": "electric_scooter", "lon": -77.02641716666666, "rental_uris": {"android": "https://dc.lft.to/lastmile_qr_scan", "ios": "https://dc.lft.to/lastmile_qr_scan"}, "lat": 38.902655833333334, "is_reserved": 0, "is_disabled": 0, "fusion_lat": 0.0}, {"fusion_lon": 0.0, "bike_id": "7de13acd6e0c12d78bd1b4895746f225", "name": "7de13acd6e0c12d78bd1b4895746f225", "type": "electric_scooter", "lon": -77.02342833333333, "rental_uris": {"android": "https://dc.lft.to/lastmile_qr_scan", "ios": "https://dc.lft.to/lastmile_qr_scan"}, "lat": 38.92969866666667, "is_reserved": 0, "is_disabled": 0, "fusion_lat": 0.0}, {"fusion_lon": 0.0, "bike_id": "ac45585db30b228e065806c3d64311f5", "name": "ac45585db30b228e065806c3d64311f5", "type": "electric_scooter", "lon": -76.98558583333333, "rental_uris": {"android": "https://dc.lft.to/lastmile_qr_scan", "ios": "https://dc.lft.to/lastmile_qr_scan"}, "lat": 38.92004816666667, "is_reserved": 0, "is_disabled": 0, "fusion_lat": 0.0}, {"fusion_lon": 0.0, "bike_id": "fead01fff6af0a3020364a3e8d97b2b1", "name": "fead01fff6af0a3020364a3e8d97b2b1", "type": "electric_bike", "lon": -76.91125133333334, "rental_uris": {"android": "https://dc.lft.to/lastmile_qr_scan", "ios": "https://dc.lft.to/lastmile_qr_scan"}, "lat": 39.01037133333333, "is_reserved": 0, "is_disabled": 0, "fusion_lat": 0.0}, {"fusion_lon": 0.0, "bike_id": "5f2a25cd2a0ca77dabe68595d9cedd19", "name": "5f2a25cd2a0ca77dabe68595d9cedd19", "type": "electric_scooter", "lon": -77.03930933333334, "rental_uris": {"android": "https://dc.lft.to/lastmile_qr_scan", "ios": "https://dc.lft.to/lastmile_qr_scan"}, "lat": 38.90367483333333, "is_reserved": 0, "is_disabled": 0, "fusion_lat": 0.0}, {"fusion_lon": 0.0, "bike_id": "7aed911db5b86157a0bb913398d695ee", "name": "7aed911db5b86157a0bb913398d695ee", "type": "electric_scooter", "lon": -77.01746416666667, "rental_uris": {"android": "https://dc.lft.to/lastmile_qr_scan", "ios": "https://dc.lft.to/lastmile_qr_scan"}, "lat": 38.918376333333335, "is_reserved": 0, "is_disabled": 0, "fusion_lat": 0.0}, {"fusion_lon": 0.0, "bike_id": "3a63d1e414d95328a04b771fb8dfe683", "name": "3a63d1e414d95328a04b771fb8dfe683", "type": "electric_scooter", "lon": -76.93741233333333, "rental_uris": {"android": "https://dc.lft.to/lastmile_qr_scan", "ios": "https://dc.lft.to/lastmile_qr_scan"}, "lat": 38.890057, "is_reserved": 0, "is_disabled": 0, "fusion_lat": 0.0}, {"fusion_lon": 0.0, "bike_id": "5630444a5e2748cb8f68bce4f3ba0747", "name": "5630444a5e2748cb8f68bce4f3ba0747", "type": "electric_scooter", "lon": -77.01039466666667, "rental_uris": {"android": "https://dc.lft.to/lastmile_qr_scan", "ios": "https://dc.lft.to/lastmile_qr_scan"}, "lat": 38.88452083333333, "is_reserved": 0, "is_disabled": 0, "fusion_lat": 0.0}, {"fusion_lon": 0.0, "bike_id": "2c7e74e0f46e684b00a7f1c5d9b55e73", "name": "2c7e74e0f46e684b00a7f1c5d9b55e73", "type": "electric_scooter", "lon": -77.052672, "rental_uris": {"android": "https://dc.lft.to/lastmile_qr_scan", "ios": "https://dc.lft.to/lastmile_qr_scan"}, "lat": 38.927613, "is_reserved": 0, "is_disabled": 0, "fusion_lat": 0.0}, {"fusion_lon": 0.0, "bike_id": "e00f56c1ea2ec70cd88ba2b5ab15a243", "name": "e00f56c1ea2ec70cd88ba2b5ab15a243", "type": "electric_scooter", "lon": -76.98595266666666, "rental_uris": {"android": "https://dc.lft.to/lastmile_qr_scan", "ios": "https://dc.lft.to/lastmile_qr_scan"}, "lat": 38.889724666666666, "is_reserved": 0, "is_disabled": 0, "fusion_lat": 0.0}, {"fusion_lon": 0.0, "bike_id": "6d8c34fbb5490ec2078a2195f0ff0378", "name": "6d8c34fbb5490ec2078a2195f0ff0378", "type": "electric_scooter", "lon": -77.04795183333333, "rental_uris": {"android": "https://dc.lft.to/lastmile_qr_scan", "ios": "https://dc.lft.to/lastmile_qr_scan"}, "lat": 38.89374266666667, "is_reserved": 0, "is_disabled": 0, "fusion_lat": 0.0}, {"fusion_lon": 0.0, "bike_id": "5ea93492e0a3b8215ba32698ba7f2a80", "name": "5ea93492e0a3b8215ba32698ba7f2a80", "type": "electric_scooter", "lon": -77.01356166666666, "rental_uris": {"android": "https://dc.lft.to/lastmile_qr_scan", "ios": "https://dc.lft.to/lastmile_qr_scan"}, "lat": 38.903809, "is_reserved": 0, "is_disabled": 0, "fusion_lat": 0.0}, {"fusion_lon": 0.0, "bike_id": "87422f050ec5f4a7562481e90356440f", "name": "87422f050ec5f4a7562481e90356440f", "type": "electric_bike", "lon": -77.04042966666667, "rental_uris": {"android": "https://dc.lft.to/lastmile_qr_scan", "ios": "https://dc.lft.to/lastmile_qr_scan"}, "lat": 38.90876216666667, "is_reserved": 0, "is_disabled": 0, "fusion_lat": 0.0}, {"fusion_lon": 0.0, "bike_id": "fbea04ef14f828a38dfcae9897dd07b5", "name": "fbea04ef14f828a38dfcae9897dd07b5", "type": "electric_scooter", "lon": -77.03204583333333, "rental_uris": {"android": "https://dc.lft.to/lastmile_qr_scan", "ios": "https://dc.lft.to/lastmile_qr_scan"}, "lat": 38.90771316666667, "is_reserved": 0, "is_disabled": 0, "fusion_lat": 0.0}, {"fusion_lon": 0.0, "bike_id": "6e087ef6f150e5da8a8e513559c9da55", "name": "6e087ef6f150e5da8a8e513559c9da55", "type": "electric_scooter", "lon": -77.02335333333333, "rental_uris": {"android": "https://dc.lft.to/lastmile_qr_scan", "ios": "https://dc.lft.to/lastmile_qr_scan"}, "lat": 38.915545333333334, "is_reserved": 0, "is_disabled": 0, "fusion_lat": 0.0}, {"fusion_lon": 0.0, "bike_id": "235f7ee1bb2f73427996df349da00e48", "name": "235f7ee1bb2f73427996df349da00e48", "type": "electric_scooter", "lon": -77.03839566666667, "rental_uris": {"android": "https://dc.lft.to/lastmile_qr_scan", "ios": "https://dc.lft.to/lastmile_qr_scan"}, "lat": 38.902807833333334, "is_reserved": 0, "is_disabled": 0, "fusion_lat": 0.0}, {"fusion_lon": 0.0, "bike_id": "14ba0aa98bce7de7ad9f2b8fb0d1382e", "name": "14ba0aa98bce7de7ad9f2b8fb0d1382e", "type": "electric_scooter", "lon": -77.01141233333334, "rental_uris": {"android": "https://dc.lft.to/lastmile_qr_scan", "ios": "https://dc.lft.to/lastmile_qr_scan"}, "lat": 38.896073, "is_reserved": 0, "is_disabled": 0, "fusion_lat": 0.0}, {"fusion_lon": 0.0, "bike_id": "e26eb5def8aca4b2be26c593246834cb", "name": "e26eb5def8aca4b2be26c593246834cb", "type": "electric_scooter", "lon": -76.95754166666667, "rental_uris": {"android": "https://dc.lft.to/lastmile_qr_scan", "ios": "https://dc.lft.to/lastmile_qr_scan"}, "lat": 38.884353, "is_reserved": 0, "is_disabled": 0, "fusion_lat": 0.0}, {"fusion_lon": 0.0, "bike_id": "ce7f1f997dd19977153cbe3d673ea456", "name": "ce7f1f997dd19977153cbe3d673ea456", "type": "electric_scooter", "lon": -77.06295533333333, "rental_uris": {"android": "https://dc.lft.to/lastmile_qr_scan", "ios": "https://dc.lft.to/lastmile_qr_scan"}, "lat": 38.9046115, "is_reserved": 0, "is_disabled": 0, "fusion_lat": 0.0}, {"fusion_lon": 0.0, "bike_id": "7de0d90aca0c13698cdca392db958147", "name": "7de0d90aca0c13698cdca392db958147", "type": "electric_scooter", "lon": -76.99633033333333, "rental_uris": {"android": "https://dc.lft.to/lastmile_qr_scan", "ios": "https://dc.lft.to/lastmile_qr_scan"}, "lat": 38.846251333333335, "is_reserved": 0, "is_disabled": 0, "fusion_lat": 0.0}, {"fusion_lon": 0.0, "bike_id": "364927334631c5911a5b506502e52b9a", "name": "364927334631c5911a5b506502e52b9a", "type": "electric_scooter", "lon": -77.02491583333334, "rental_uris": {"android": "https://dc.lft.to/lastmile_qr_scan", "ios": "https://dc.lft.to/lastmile_qr_scan"}, "lat": 38.941857, "is_reserved": 0, "is_disabled": 0, "fusion_lat": 0.0}, {"fusion_lon": 0.0, "bike_id": "c2d19bbb804d28360bb2a8c16570e927", "name": "c2d19bbb804d28360bb2a8c16570e927", "type": "electric_scooter", "lon": -76.9901275, "rental_uris": {"android": "https://dc.lft.to/lastmile_qr_scan", "ios": "https://dc.lft.to/lastmile_qr_scan"}, "lat": 38.861185, "is_reserved": 0, "is_disabled": 0, "fusion_lat": 0.0}, {"fusion_lon": 0.0, "bike_id": "029c94463ffb430c43f8c6df080e6095", "name": "029c94463ffb430c43f8c6df080e6095", "type": "electric_scooter", "lon": -77.0709745, "rental_uris": {"android": "https://dc.lft.to/lastmile_qr_scan", "ios": "https://dc.lft.to/lastmile_qr_scan"}, "lat": 38.919806333333334, "is_reserved": 0, "is_disabled": 0, "fusion_lat": 0.0}, {"fusion_lon": 0.0, "bike_id": "1f1ab8eda5898c04582110c1221785a9", "name": "1f1ab8eda5898c04582110c1221785a9", "type": "electric_scooter", "lon": -77.0139365, "rental_uris": {"android": "https://dc.lft.to/lastmile_qr_scan", "ios": "https://dc.lft.to/lastmile_qr_scan"}, "lat": 38.919508666666665, "is_reserved": 0, "is_disabled": 0, "fusion_lat": 0.0}, {"fusion_lon": 0.0, "bike_id": "420db2df31b9d7cb2328dc02251656b7", "name": "420db2df31b9d7cb2328dc02251656b7", "type": "electric_bike", "lon": -77.0248945, "rental_uris": {"android": "https://dc.lft.to/lastmile_qr_scan", "ios": "https://dc.lft.to/lastmile_qr_scan"}, "lat": 38.973703666666665, "is_reserved": 0, "is_disabled": 0, "fusion_lat": 0.0}, {"fusion_lon": 0.0, "bike_id": "a6344f339de7009c70d5f175ada0fede", "name": "a6344f339de7009c70d5f175ada0fede", "type": "electric_scooter", "lon": -77.0239515, "rental_uris": {"android": "https://dc.lft.to/lastmile_qr_scan", "ios": "https://dc.lft.to/lastmile_qr_scan"}, "lat": 38.919634, "is_reserved": 0, "is_disabled": 0, "fusion_lat": 0.0}, {"fusion_lon": 0.0, "bike_id": "2bf45474b706cc20527e865d3a427bb5", "name": "2bf45474b706cc20527e865d3a427bb5", "type": "electric_scooter", "lon": -76.96714816666666, "rental_uris": {"android": "https://dc.lft.to/lastmile_qr_scan", "ios": "https://dc.lft.to/lastmile_qr_scan"}, "lat": 38.86953966666667, "is_reserved": 0, "is_disabled": 0, "fusion_lat": 0.0}, {"fusion_lon": 0.0, "bike_id": "6604071dc5e7ea0a6b1dd88dda479c0e", "name": "6604071dc5e7ea0a6b1dd88dda479c0e", "type": "electric_scooter", "lon": -76.99443733333334, "rental_uris": {"android": "https://dc.lft.to/lastmile_qr_scan", "ios": "https://dc.lft.to/lastmile_qr_scan"}, "lat": 38.92281283333333, "is_reserved": 0, "is_disabled": 0, "fusion_lat": 0.0}, {"fusion_lon": 0.0, "bike_id": "14e247ea4db098934849d3e363c2db33", "name": "14e247ea4db098934849d3e363c2db33", "type": "electric_scooter", "lon": -77.041049, "rental_uris": {"android": "https://dc.lft.to/lastmile_qr_scan", "ios": "https://dc.lft.to/lastmile_qr_scan"}, "lat": 38.917873666666665, "is_reserved": 0, "is_disabled": 0, "fusion_lat": 0.0}, {"fusion_lon": 0.0, "bike_id": "340e902ff9948b767660bc8fe1b27ed2", "name": "340e902ff9948b767660bc8fe1b27ed2", "type": "electric_scooter", "lon": -77.046754, "rental_uris": {"android": "https://dc.lft.to/lastmile_qr_scan", "ios": "https://dc.lft.to/lastmile_qr_scan"}, "lat": 38.907269166666666, "is_reserved": 0, "is_disabled": 0, "fusion_lat": 0.0}, {"fusion_lon": 0.0, "bike_id": "854df2219e247c319a7e72f894658b76", "name": "854df2219e247c319a7e72f894658b76", "type": "electric_bike", "lon": -76.94615666666667, "rental_uris": {"android": "https://dc.lft.to/lastmile_qr_scan", "ios": "https://dc.lft.to/lastmile_qr_scan"}, "lat": 38.83236816666667, "is_reserved": 0, "is_disabled": 0, "fusion_lat": 0.0}, {"fusion_lon": 0.0, "bike_id": "6c527a4c5a70782fe2b8e64ce7863c9d", "name": "6c527a4c5a70782fe2b8e64ce7863c9d", "type": "electric_scooter", "lon": -77.03785533333334, "rental_uris": {"android": "https://dc.lft.to/lastmile_qr_scan", "ios": "https://dc.lft.to/lastmile_qr_scan"}, "lat": 38.93322533333333, "is_reserved": 0, "is_disabled": 0, "fusion_lat": 0.0}, {"fusion_lon": 0.0, "bike_id": "3b8dd4f13bc7b44ff29a454d1582ae4e", "name": "3b8dd4f13bc7b44ff29a454d1582ae4e", "type": "electric_scooter", "lon": -77.00029016666667, "rental_uris": {"android": "https://dc.lft.to/lastmile_qr_scan", "ios": "https://dc.lft.to/lastmile_qr_scan"}, "lat": 38.87398483333333, "is_reserved": 0, "is_disabled": 0, "fusion_lat": 0.0}, {"fusion_lon": 0.0, "bike_id": "e162626b3049e02413401b7d0b571d57", "name": "e162626b3049e02413401b7d0b571d57", "type": "electric_scooter", "lon": -77.02580283333333, "rental_uris": {"android": "https://dc.lft.to/lastmile_qr_scan", "ios": "https://dc.lft.to/lastmile_qr_scan"}, "lat": 38.925097666666666, "is_reserved": 0, "is_disabled": 0, "fusion_lat": 0.0}, {"fusion_lon": 0.0, "bike_id": "b45d0e16690b5fa75e88ffb37fa43b8f", "name": "b45d0e16690b5fa75e88ffb37fa43b8f", "type": "electric_scooter", "lon": -76.98776533333333, "rental_uris": {"android": "https://dc.lft.to/lastmile_qr_scan", "ios": "https://dc.lft.to/lastmile_qr_scan"}, "lat": 38.88315016666667, "is_reserved": 0, "is_disabled": 0, "fusion_lat": 0.0}, {"fusion_lon": 0.0, "bike_id": "db4e624205b7a391f4919cb000238f3f", "name": "db4e624205b7a391f4919cb000238f3f", "type": "electric_scooter", "lon": -77.07266616666666, "rental_uris": {"android": "https://dc.lft.to/lastmile_qr_scan", "ios": "https://dc.lft.to/lastmile_qr_scan"}, "lat": 38.91301083333333, "is_reserved": 0, "is_disabled": 0, "fusion_lat": 0.0}, {"fusion_lon": 0.0, "bike_id": "6d64b93ce8b5f89a36df64d903c1b00c", "name": "6d64b93ce8b5f89a36df64d903c1b00c", "type": "electric_scooter", "lon": -77.03516733333333, "rental_uris": {"android": "https://dc.lft.to/lastmile_qr_scan", "ios": "https://dc.lft.to/lastmile_qr_scan"}, "lat": 38.92160116666667, "is_reserved": 0, "is_disabled": 0, "fusion_lat": 0.0}, {"fusion_lon": 0.0, "bike_id": "12a95a9007ea0b0e6ae6f371b83c4078", "name": "12a95a9007ea0b0e6ae6f371b83c4078", "type": "electric_scooter", "lon": -77.05411, "rental_uris": {"android": "https://dc.lft.to/lastmile_qr_scan", "ios": "https://dc.lft.to/lastmile_qr_scan"}, "lat": 38.928293333333336, "is_reserved": 0, "is_disabled": 0, "fusion_lat": 0.0}, {"fusion_lon": 0.0, "bike_id": "4756d4f1c30f5c2679cdc059db65be54", "name": "4756d4f1c30f5c2679cdc059db65be54", "type": "electric_scooter", "lon": -77.031882, "rental_uris": {"android": "https://dc.lft.to/lastmile_qr_scan", "ios": "https://dc.lft.to/lastmile_qr_scan"}, "lat": 38.90517766666667, "is_reserved": 0, "is_disabled": 0, "fusion_lat": 0.0}, {"fusion_lon": 0.0, "bike_id": "8b0f5a6e8ad4354c0ba83c04dcb36a25", "name": "8b0f5a6e8ad4354c0ba83c04dcb36a25", "type": "electric_scooter", "lon": -77.00114916666666, "rental_uris": {"android": "https://dc.lft.to/lastmile_qr_scan", "ios": "https://dc.lft.to/lastmile_qr_scan"}, "lat": 38.917190166666664, "is_reserved": 0, "is_disabled": 0, "fusion_lat": 0.0}, {"fusion_lon": 0.0, "bike_id": "4556d75f650b6166a5382b04999a6f30", "name": "4556d75f650b6166a5382b04999a6f30", "type": "electric_scooter", "lon": -77.02416433333333, "rental_uris": {"android": "https://dc.lft.to/lastmile_qr_scan", "ios": "https://dc.lft.to/lastmile_qr_scan"}, "lat": 38.957498333333334, "is_reserved": 0, "is_disabled": 0, "fusion_lat": 0.0}, {"fusion_lon": 0.0, "bike_id": "dbe36002baca45a1b3bf963ced8b237f", "name": "dbe36002baca45a1b3bf963ced8b237f", "type": "electric_scooter", "lon": -77.00600233333333, "rental_uris": {"android": "https://dc.lft.to/lastmile_qr_scan", "ios": "https://dc.lft.to/lastmile_qr_scan"}, "lat": 38.90358366666667, "is_reserved": 0, "is_disabled": 0, "fusion_lat": 0.0}, {"fusion_lon": 0.0, "bike_id": "49e11a9e00efdceb04671b9219187b35", "name": "49e11a9e00efdceb04671b9219187b35", "type": "electric_scooter", "lon": -77.05285016666667, "rental_uris": {"android": "https://dc.lft.to/lastmile_qr_scan", "ios": "https://dc.lft.to/lastmile_qr_scan"}, "lat": 38.92264266666667, "is_reserved": 0, "is_disabled": 0, "fusion_lat": 0.0}, {"fusion_lon": 0.0, "bike_id": "72812e3a2525f5a08790a7d77e3b15e0", "name": "72812e3a2525f5a08790a7d77e3b15e0", "type": "electric_scooter", "lon": -77.04229716666667, "rental_uris": {"android": "https://dc.lft.to/lastmile_qr_scan", "ios": "https://dc.lft.to/lastmile_qr_scan"}, "lat": 38.90934383333333, "is_reserved": 0, "is_disabled": 0, "fusion_lat": 0.0}, {"fusion_lon": 0.0, "bike_id": "d7650836ae2c410a405b3ef0fef77c82", "name": "d7650836ae2c410a405b3ef0fef77c82", "type": "electric_scooter", "lon": -76.98732366666667, "rental_uris": {"android": "https://dc.lft.to/lastmile_qr_scan", "ios": "https://dc.lft.to/lastmile_qr_scan"}, "lat": 38.86714683333334, "is_reserved": 0, "is_disabled": 0, "fusion_lat": 0.0}, {"fusion_lon": 0.0, "bike_id": "ef0feed81d38cacc1e071adafa01d4bb", "name": "ef0feed81d38cacc1e071adafa01d4bb", "type": "electric_scooter", "lon": -77.02326216666667, "rental_uris": {"android": "https://dc.lft.to/lastmile_qr_scan", "ios": "https://dc.lft.to/lastmile_qr_scan"}, "lat": 38.9240815, "is_reserved": 0, "is_disabled": 0, "fusion_lat": 0.0}, {"fusion_lon": 0.0, "bike_id": "83e56b74a5a200bdfe29c453f9b1c9e0", "name": "83e56b74a5a200bdfe29c453f9b1c9e0", "type": "electric_bike", "lon": -77.032105, "rental_uris": {"android": "https://dc.lft.to/lastmile_qr_scan", "ios": "https://dc.lft.to/lastmile_qr_scan"}, "lat": 38.90926916666667, "is_reserved": 0, "is_disabled": 0, "fusion_lat": 0.0}, {"fusion_lon": 0.0, "bike_id": "d4fe7caeeb5d7ffb0b3063340eee682b", "name": "d4fe7caeeb5d7ffb0b3063340eee682b", "type": "electric_scooter", "lon": -77.0242975, "rental_uris": {"android": "https://dc.lft.to/lastmile_qr_scan", "ios": "https://dc.lft.to/lastmile_qr_scan"}, "lat": 38.89534183333333, "is_reserved": 0, "is_disabled": 0, "fusion_lat": 0.0}, {"fusion_lon": 0.0, "bike_id": "8e7f5f21e3dbc45ebd3af98e3b699c58", "name": "8e7f5f21e3dbc45ebd3af98e3b699c58", "type": "electric_scooter", "lon": -77.02481283333333, "rental_uris": {"android": "https://dc.lft.to/lastmile_qr_scan", "ios": "https://dc.lft.to/lastmile_qr_scan"}, "lat": 38.8801575, "is_reserved": 0, "is_disabled": 0, "fusion_lat": 0.0}, {"fusion_lon": 0.0, "bike_id": "d8c5c3e670dcc8ec0a26d9648f70ac6e", "name": "d8c5c3e670dcc8ec0a26d9648f70ac6e", "type": "electric_scooter", "lon": -77.00726266666666, "rental_uris": {"android": "https://dc.lft.to/lastmile_qr_scan", "ios": "https://dc.lft.to/lastmile_qr_scan"}, "lat": 38.87666133333333, "is_reserved": 0, "is_disabled": 0, "fusion_lat": 0.0}, {"fusion_lon": 0.0, "bike_id": "ef8d9fbdceeba6a4d46c42b2eff9f129", "name": "ef8d9fbdceeba6a4d46c42b2eff9f129", "type": "electric_scooter", "lon": -76.94155766666667, "rental_uris": {"android": "https://dc.lft.to/lastmile_qr_scan", "ios": "https://dc.lft.to/lastmile_qr_scan"}, "lat": 38.88363066666667, "is_reserved": 0, "is_disabled": 0, "fusion_lat": 0.0}, {"fusion_lon": 0.0, "bike_id": "2b1e2cd9df087a1e1aa2474ba0e5e693", "name": "2b1e2cd9df087a1e1aa2474ba0e5e693", "type": "electric_scooter", "lon": -77.03855316666667, "rental_uris": {"android": "https://dc.lft.to/lastmile_qr_scan", "ios": "https://dc.lft.to/lastmile_qr_scan"}, "lat": 38.90384616666667, "is_reserved": 0, "is_disabled": 0, "fusion_lat": 0.0}, {"fusion_lon": 0.0, "bike_id": "31799886b910375589164955e60e21ad", "name": "31799886b910375589164955e60e21ad", "type": "electric_bike", "lon": -76.99431433333334, "rental_uris": {"android": "https://dc.lft.to/lastmile_qr_scan", "ios": "https://dc.lft.to/lastmile_qr_scan"}, "lat": 38.876698, "is_reserved": 0, "is_disabled": 0, "fusion_lat": 0.0}, {"fusion_lon": 0.0, "bike_id": "965e5f1c93ca8e388fc94ee09b2230fc", "name": "965e5f1c93ca8e388fc94ee09b2230fc", "type": "electric_bike", "lon": -77.00607166666667, "rental_uris": {"android": "https://dc.lft.to/lastmile_qr_scan", "ios": "https://dc.lft.to/lastmile_qr_scan"}, "lat": 38.8980745, "is_reserved": 0, "is_disabled": 0, "fusion_lat": 0.0}, {"fusion_lon": 0.0, "bike_id": "70b682bfd50ecefa1cb8346d45f24810", "name": "70b682bfd50ecefa1cb8346d45f24810", "type": "electric_scooter", "lon": -77.0257155, "rental_uris": {"android": "https://dc.lft.to/lastmile_qr_scan", "ios": "https://dc.lft.to/lastmile_qr_scan"}, "lat": 38.89043316666667, "is_reserved": 0, "is_disabled": 0, "fusion_lat": 0.0}, {"fusion_lon": 0.0, "bike_id": "f6a37158a98c20141812cc0756203515", "name": "f6a37158a98c20141812cc0756203515", "type": "electric_scooter", "lon": -77.02445816666666, "rental_uris": {"android": "https://dc.lft.to/lastmile_qr_scan", "ios": "https://dc.lft.to/lastmile_qr_scan"}, "lat": 38.90243533333334, "is_reserved": 0, "is_disabled": 0, "fusion_lat": 0.0}, {"fusion_lon": 0.0, "bike_id": "db727522d44f1d9577b44e5a7e025661", "name": "db727522d44f1d9577b44e5a7e025661", "type": "electric_scooter", "lon": -76.97276116666667, "rental_uris": {"android": "https://dc.lft.to/lastmile_qr_scan", "ios": "https://dc.lft.to/lastmile_qr_scan"}, "lat": 38.930888833333334, "is_reserved": 0, "is_disabled": 0, "fusion_lat": 0.0}, {"fusion_lon": 0.0, "bike_id": "686cad94288de0ff7a802b534220d831", "name": "686cad94288de0ff7a802b534220d831", "type": "electric_scooter", "lon": -77.01102866666666, "rental_uris": {"android": "https://dc.lft.to/lastmile_qr_scan", "ios": "https://dc.lft.to/lastmile_qr_scan"}, "lat": 38.903629, "is_reserved": 0, "is_disabled": 0, "fusion_lat": 0.0}, {"fusion_lon": 0.0, "bike_id": "e79580f0cce0e7af71f0f1483df84355", "name": "e79580f0cce0e7af71f0f1483df84355", "type": "electric_scooter", "lon": -77.01364983333333, "rental_uris": {"android": "https://dc.lft.to/lastmile_qr_scan", "ios": "https://dc.lft.to/lastmile_qr_scan"}, "lat": 38.88707216666667, "is_reserved": 0, "is_disabled": 0, "fusion_lat": 0.0}, {"fusion_lon": 0.0, "bike_id": "2adb3707a75bc209224d086daa57ffd5", "name": "2adb3707a75bc209224d086daa57ffd5", "type": "electric_bike", "lon": -76.9494985, "rental_uris": {"android": "https://dc.lft.to/lastmile_qr_scan", "ios": "https://dc.lft.to/lastmile_qr_scan"}, "lat": 38.9350925, "is_reserved": 0, "is_disabled": 0, "fusion_lat": 0.0}, {"fusion_lon": 0.0, "bike_id": "ae7c6a9f5d99f1753e31fbf90f2326f7", "name": "ae7c6a9f5d99f1753e31fbf90f2326f7", "type": "electric_scooter", "lon": -77.0020145, "rental_uris": {"android": "https://dc.lft.to/lastmile_qr_scan", "ios": "https://dc.lft.to/lastmile_qr_scan"}, "lat": 38.893486833333334, "is_reserved": 0, "is_disabled": 0, "fusion_lat": 0.0}, {"fusion_lon": 0.0, "bike_id": "07597c85eef9904f9288537da8c4d489", "name": "07597c85eef9904f9288537da8c4d489", "type": "electric_scooter", "lon": -77.05116316666667, "rental_uris": {"android": "https://dc.lft.to/lastmile_qr_scan", "ios": "https://dc.lft.to/lastmile_qr_scan"}, "lat": 38.9121945, "is_reserved": 0, "is_disabled": 0, "fusion_lat": 0.0}, {"fusion_lon": 0.0, "bike_id": "9c3c9a787bd64bf7f64c6afa179b4ae4", "name": "9c3c9a787bd64bf7f64c6afa179b4ae4", "type": "electric_scooter", "lon": -77.03253266666667, "rental_uris": {"android": "https://dc.lft.to/lastmile_qr_scan", "ios": "https://dc.lft.to/lastmile_qr_scan"}, "lat": 38.928141333333336, "is_reserved": 0, "is_disabled": 0, "fusion_lat": 0.0}, {"fusion_lon": 0.0, "bike_id": "3cc832f1bd4c48574555e285c79c37ee", "name": "3cc832f1bd4c48574555e285c79c37ee", "type": "electric_scooter", "lon": -77.00750966666666, "rental_uris": {"android": "https://dc.lft.to/lastmile_qr_scan", "ios": "https://dc.lft.to/lastmile_qr_scan"}, "lat": 38.876418, "is_reserved": 0, "is_disabled": 0, "fusion_lat": 0.0}, {"fusion_lon": 0.0, "bike_id": "494a26ac7d78865c034acb53ae84ff0c", "name": "494a26ac7d78865c034acb53ae84ff0c", "type": "electric_scooter", "lon": -77.02594116666667, "rental_uris": {"android": "https://dc.lft.to/lastmile_qr_scan", "ios": "https://dc.lft.to/lastmile_qr_scan"}, "lat": 38.9420475, "is_reserved": 0, "is_disabled": 0, "fusion_lat": 0.0}, {"fusion_lon": 0.0, "bike_id": "84794e688c5a2a4c309c531f8f75b36e", "name": "84794e688c5a2a4c309c531f8f75b36e", "type": "electric_scooter", "lon": -77.03465733333333, "rental_uris": {"android": "https://dc.lft.to/lastmile_qr_scan", "ios": "https://dc.lft.to/lastmile_qr_scan"}, "lat": 38.9172315, "is_reserved": 0, "is_disabled": 0, "fusion_lat": 0.0}, {"fusion_lon": 0.0, "bike_id": "adc9d3c60adf863ce73989e07cb12eb0", "name": "adc9d3c60adf863ce73989e07cb12eb0", "type": "electric_scooter", "lon": -77.03867466666667, "rental_uris": {"android": "https://dc.lft.to/lastmile_qr_scan", "ios": "https://dc.lft.to/lastmile_qr_scan"}, "lat": 38.912686666666666, "is_reserved": 0, "is_disabled": 0, "fusion_lat": 0.0}, {"fusion_lon": 0.0, "bike_id": "aac792b0c6a7811d6b5896cdbef211f4", "name": "aac792b0c6a7811d6b5896cdbef211f4", "type": "electric_scooter", "lon": -76.94285416666666, "rental_uris": {"android": "https://dc.lft.to/lastmile_qr_scan", "ios": "https://dc.lft.to/lastmile_qr_scan"}, "lat": 38.8830385, "is_reserved": 0, "is_disabled": 0, "fusion_lat": 0.0}, {"fusion_lon": 0.0, "bike_id": "71f58d8024ded3370b7ebad5ce496ce7", "name": "71f58d8024ded3370b7ebad5ce496ce7", "type": "electric_scooter", "lon": -76.98337766666667, "rental_uris": {"android": "https://dc.lft.to/lastmile_qr_scan", "ios": "https://dc.lft.to/lastmile_qr_scan"}, "lat": 38.86254316666667, "is_reserved": 0, "is_disabled": 0, "fusion_lat": 0.0}, {"fusion_lon": 0.0, "bike_id": "b1421c9d998ec333093a74c69da468d9", "name": "b1421c9d998ec333093a74c69da468d9", "type": "electric_scooter", "lon": -77.02631666666667, "rental_uris": {"android": "https://dc.lft.to/lastmile_qr_scan", "ios": "https://dc.lft.to/lastmile_qr_scan"}, "lat": 38.930811166666665, "is_reserved": 0, "is_disabled": 0, "fusion_lat": 0.0}, {"fusion_lon": 0.0, "bike_id": "b29e810616693d46f8bf5cfab6497a58", "name": "b29e810616693d46f8bf5cfab6497a58", "type": "electric_bike", "lon": -77.0893935, "rental_uris": {"android": "https://dc.lft.to/lastmile_qr_scan", "ios": "https://dc.lft.to/lastmile_qr_scan"}, "lat": 38.84105783333333, "is_reserved": 0, "is_disabled": 0, "fusion_lat": 0.0}, {"fusion_lon": 0.0, "bike_id": "9f68f10e77fcdccaa2aa900e322bb8e4", "name": "9f68f10e77fcdccaa2aa900e322bb8e4", "type": "electric_scooter", "lon": -77.00261633333334, "rental_uris": {"android": "https://dc.lft.to/lastmile_qr_scan", "ios": "https://dc.lft.to/lastmile_qr_scan"}, "lat": 38.90582533333333, "is_reserved": 0, "is_disabled": 0, "fusion_lat": 0.0}, {"fusion_lon": 0.0, "bike_id": "33c83badbc1a6e4971b486724e3daefc", "name": "33c83badbc1a6e4971b486724e3daefc", "type": "electric_bike", "lon": -76.91595316666667, "rental_uris": {"android": "https://dc.lft.to/lastmile_qr_scan", "ios": "https://dc.lft.to/lastmile_qr_scan"}, "lat": 38.8801, "is_reserved": 0, "is_disabled": 0, "fusion_lat": 0.0}, {"fusion_lon": 0.0, "bike_id": "f0eee54496982121480305c8453db01e", "name": "f0eee54496982121480305c8453db01e", "type": "electric_scooter", "lon": -77.00543666666667, "rental_uris": {"android": "https://dc.lft.to/lastmile_qr_scan", "ios": "https://dc.lft.to/lastmile_qr_scan"}, "lat": 38.8961425, "is_reserved": 0, "is_disabled": 0, "fusion_lat": 0.0}, {"fusion_lon": 0.0, "bike_id": "a3210bb36a587b2848d8bc0b8d347b13", "name": "a3210bb36a587b2848d8bc0b8d347b13", "type": "electric_scooter", "lon": -77.10314566666666, "rental_uris": {"android": "https://dc.lft.to/lastmile_qr_scan", "ios": "https://dc.lft.to/lastmile_qr_scan"}, "lat": 38.9267315, "is_reserved": 0, "is_disabled": 0, "fusion_lat": 0.0}, {"fusion_lon": 0.0, "bike_id": "dfad9585bfc258b97f3e139eacb98b5d", "name": "dfad9585bfc258b97f3e139eacb98b5d", "type": "electric_bike", "lon": -76.90814433333334, "rental_uris": {"android": "https://dc.lft.to/lastmile_qr_scan", "ios": "https://dc.lft.to/lastmile_qr_scan"}, "lat": 38.994595833333335, "is_reserved": 0, "is_disabled": 0, "fusion_lat": 0.0}, {"fusion_lon": 0.0, "bike_id": "a7a0c104ff41cc59dea4ba6098c17f47", "name": "a7a0c104ff41cc59dea4ba6098c17f47", "type": "electric_scooter", "lon": -77.02478166666667, "rental_uris": {"android": "https://dc.lft.to/lastmile_qr_scan", "ios": "https://dc.lft.to/lastmile_qr_scan"}, "lat": 38.938789, "is_reserved": 0, "is_disabled": 0, "fusion_lat": 0.0}, {"fusion_lon": 0.0, "bike_id": "bf50cbf2ee8250db5e748eca0a1115b6", "name": "bf50cbf2ee8250db5e748eca0a1115b6", "type": "electric_scooter", "lon": -76.9553445, "rental_uris": {"android": "https://dc.lft.to/lastmile_qr_scan", "ios": "https://dc.lft.to/lastmile_qr_scan"}, "lat": 38.887642166666666, "is_reserved": 0, "is_disabled": 0, "fusion_lat": 0.0}, {"fusion_lon": 0.0, "bike_id": "8e7ac7ba8af4911631685e42e9da7fa5", "name": "8e7ac7ba8af4911631685e42e9da7fa5", "type": "electric_scooter", "lon": -77.05098233333334, "rental_uris": {"android": "https://dc.lft.to/lastmile_qr_scan", "ios": "https://dc.lft.to/lastmile_qr_scan"}, "lat": 38.92346916666666, "is_reserved": 0, "is_disabled": 0, "fusion_lat": 0.0}, {"fusion_lon": 0.0, "bike_id": "8f22777503c3aa220e2c2138699d63b1", "name": "8f22777503c3aa220e2c2138699d63b1", "type": "electric_scooter", "lon": -77.02715583333334, "rental_uris": {"android": "https://dc.lft.to/lastmile_qr_scan", "ios": "https://dc.lft.to/lastmile_qr_scan"}, "lat": 38.9075175, "is_reserved": 0, "is_disabled": 0, "fusion_lat": 0.0}, {"fusion_lon": 0.0, "bike_id": "e35f6d1f95fbabeba3c5cd1f4d9589dd", "name": "e35f6d1f95fbabeba3c5cd1f4d9589dd", "type": "electric_bike", "lon": -76.9789575, "rental_uris": {"android": "https://dc.lft.to/lastmile_qr_scan", "ios": "https://dc.lft.to/lastmile_qr_scan"}, "lat": 38.85498183333333, "is_reserved": 0, "is_disabled": 0, "fusion_lat": 0.0}, {"fusion_lon": 0.0, "bike_id": "435b3c86f1f13c08075983e3ca524c4a", "name": "435b3c86f1f13c08075983e3ca524c4a", "type": "electric_scooter", "lon": -77.03763266666667, "rental_uris": {"android": "https://dc.lft.to/lastmile_qr_scan", "ios": "https://dc.lft.to/lastmile_qr_scan"}, "lat": 38.91687916666667, "is_reserved": 0, "is_disabled": 0, "fusion_lat": 0.0}, {"fusion_lon": 0.0, "bike_id": "49547f79fc5134e445575e07e39874ec", "name": "49547f79fc5134e445575e07e39874ec", "type": "electric_scooter", "lon": -76.98423916666667, "rental_uris": {"android": "https://dc.lft.to/lastmile_qr_scan", "ios": "https://dc.lft.to/lastmile_qr_scan"}, "lat": 38.85976566666667, "is_reserved": 0, "is_disabled": 0, "fusion_lat": 0.0}, {"fusion_lon": 0.0, "bike_id": "7c923858753cb9f6c984ce257f394032", "name": "7c923858753cb9f6c984ce257f394032", "type": "electric_scooter", "lon": -77.03323366666666, "rental_uris": {"android": "https://dc.lft.to/lastmile_qr_scan", "ios": "https://dc.lft.to/lastmile_qr_scan"}, "lat": 38.960164, "is_reserved": 0, "is_disabled": 0, "fusion_lat": 0.0}, {"fusion_lon": 0.0, "bike_id": "b1c7d08ae91aad3e85a1d58ec2a4ed94", "name": "b1c7d08ae91aad3e85a1d58ec2a4ed94", "type": "electric_scooter", "lon": -77.06240816666667, "rental_uris": {"android": "https://dc.lft.to/lastmile_qr_scan", "ios": "https://dc.lft.to/lastmile_qr_scan"}, "lat": 38.9052875, "is_reserved": 0, "is_disabled": 0, "fusion_lat": 0.0}, {"fusion_lon": 0.0, "bike_id": "7365e65aaf9da9f1f15c614f492d3624", "name": "7365e65aaf9da9f1f15c614f492d3624", "type": "electric_scooter", "lon": -77.03260333333333, "rental_uris": {"android": "https://dc.lft.to/lastmile_qr_scan", "ios": "https://dc.lft.to/lastmile_qr_scan"}, "lat": 38.935266666666664, "is_reserved": 0, "is_disabled": 0, "fusion_lat": 0.0}, {"fusion_lon": 0.0, "bike_id": "a420bb775b51993178c63237d66de3d9", "name": "a420bb775b51993178c63237d66de3d9", "type": "electric_scooter", "lon": -77.046853, "rental_uris": {"android": "https://dc.lft.to/lastmile_qr_scan", "ios": "https://dc.lft.to/lastmile_qr_scan"}, "lat": 38.91579433333333, "is_reserved": 0, "is_disabled": 0, "fusion_lat": 0.0}, {"fusion_lon": 0.0, "bike_id": "7a193c2ebcc8f1aa3b23e6f419bd11de", "name": "7a193c2ebcc8f1aa3b23e6f419bd11de", "type": "electric_scooter", "lon": -77.01312866666666, "rental_uris": {"android": "https://dc.lft.to/lastmile_qr_scan", "ios": "https://dc.lft.to/lastmile_qr_scan"}, "lat": 38.901355333333335, "is_reserved": 0, "is_disabled": 0, "fusion_lat": 0.0}, {"fusion_lon": 0.0, "bike_id": "2ea4747661bcfdbc5e66a21c08c16b35", "name": "2ea4747661bcfdbc5e66a21c08c16b35", "type": "electric_scooter", "lon": -77.03940116666666, "rental_uris": {"android": "https://dc.lft.to/lastmile_qr_scan", "ios": "https://dc.lft.to/lastmile_qr_scan"}, "lat": 38.904227, "is_reserved": 0, "is_disabled": 0, "fusion_lat": 0.0}, {"fusion_lon": 0.0, "bike_id": "f6ce72caea19651d91c7c22b3f2d0238", "name": "f6ce72caea19651d91c7c22b3f2d0238", "type": "electric_scooter", "lon": -77.03186316666667, "rental_uris": {"android": "https://dc.lft.to/lastmile_qr_scan", "ios": "https://dc.lft.to/lastmile_qr_scan"}, "lat": 38.89323783333333, "is_reserved": 0, "is_disabled": 0, "fusion_lat": 0.0}, {"fusion_lon": 0.0, "bike_id": "f0034c9ab0ed0067adbb8cdb7bde18fc", "name": "f0034c9ab0ed0067adbb8cdb7bde18fc", "type": "electric_scooter", "lon": -77.02147483333333, "rental_uris": {"android": "https://dc.lft.to/lastmile_qr_scan", "ios": "https://dc.lft.to/lastmile_qr_scan"}, "lat": 38.89967566666667, "is_reserved": 0, "is_disabled": 0, "fusion_lat": 0.0}, {"fusion_lon": 0.0, "bike_id": "9b3cb299c1fae47eeeb4401d87b3bef4", "name": "9b3cb299c1fae47eeeb4401d87b3bef4", "type": "electric_scooter", "lon": -77.02430583333333, "rental_uris": {"android": "https://dc.lft.to/lastmile_qr_scan", "ios": "https://dc.lft.to/lastmile_qr_scan"}, "lat": 38.927498166666666, "is_reserved": 0, "is_disabled": 0, "fusion_lat": 0.0}, {"fusion_lon": 0.0, "bike_id": "46b09eeb69b9c02dba1087a60aaa74ed", "name": "46b09eeb69b9c02dba1087a60aaa74ed", "type": "electric_scooter", "lon": -77.00580666666667, "rental_uris": {"android": "https://dc.lft.to/lastmile_qr_scan", "ios": "https://dc.lft.to/lastmile_qr_scan"}, "lat": 38.87175166666667, "is_reserved": 0, "is_disabled": 0, "fusion_lat": 0.0}, {"fusion_lon": 0.0, "bike_id": "f8d60d4bdd9bbcb71ef7b59b13c621f5", "name": "f8d60d4bdd9bbcb71ef7b59b13c621f5", "type": "electric_scooter", "lon": -77.02207783333333, "rental_uris": {"android": "https://dc.lft.to/lastmile_qr_scan", "ios": "https://dc.lft.to/lastmile_qr_scan"}, "lat": 38.896101, "is_reserved": 0, "is_disabled": 0, "fusion_lat": 0.0}, {"fusion_lon": 0.0, "bike_id": "db67557faf1e4d0daa0af6a8d007d3da", "name": "db67557faf1e4d0daa0af6a8d007d3da", "type": "electric_scooter", "lon": -77.034278, "rental_uris": {"android": "https://dc.lft.to/lastmile_qr_scan", "ios": "https://dc.lft.to/lastmile_qr_scan"}, "lat": 38.927345833333334, "is_reserved": 0, "is_disabled": 0, "fusion_lat": 0.0}, {"fusion_lon": 0.0, "bike_id": "4b81e28acc41206b73aa1c5e52d74fdb", "name": "4b81e28acc41206b73aa1c5e52d74fdb", "type": "electric_scooter", "lon": -77.0241665, "rental_uris": {"android": "https://dc.lft.to/lastmile_qr_scan", "ios": "https://dc.lft.to/lastmile_qr_scan"}, "lat": 38.894337166666666, "is_reserved": 0, "is_disabled": 0, "fusion_lat": 0.0}, {"fusion_lon": 0.0, "bike_id": "6dcf9f4f6dbb640731620163de5de7a4", "name": "6dcf9f4f6dbb640731620163de5de7a4", "type": "electric_scooter", "lon": -77.0920865, "rental_uris": {"android": "https://dc.lft.to/lastmile_qr_scan", "ios": "https://dc.lft.to/lastmile_qr_scan"}, "lat": 38.91714, "is_reserved": 0, "is_disabled": 0, "fusion_lat": 0.0}, {"fusion_lon": 0.0, "bike_id": "51782c278fdd6b18579d9f66f075aba1", "name": "51782c278fdd6b18579d9f66f075aba1", "type": "electric_scooter", "lon": -77.00452566666667, "rental_uris": {"android": "https://dc.lft.to/lastmile_qr_scan", "ios": "https://dc.lft.to/lastmile_qr_scan"}, "lat": 38.9289665, "is_reserved": 0, "is_disabled": 0, "fusion_lat": 0.0}, {"fusion_lon": 0.0, "bike_id": "4d9e5722bf00f3c0dfefba1936c115f7", "name": "4d9e5722bf00f3c0dfefba1936c115f7", "type": "electric_bike", "lon": -76.9076155, "rental_uris": {"android": "https://dc.lft.to/lastmile_qr_scan", "ios": "https://dc.lft.to/lastmile_qr_scan"}, "lat": 38.924384, "is_reserved": 0, "is_disabled": 0, "fusion_lat": 0.0}, {"fusion_lon": 0.0, "bike_id": "e467f23c81ddb2097f52559c2da926d4", "name": "e467f23c81ddb2097f52559c2da926d4", "type": "electric_scooter", "lon": -77.02448283333334, "rental_uris": {"android": "https://dc.lft.to/lastmile_qr_scan", "ios": "https://dc.lft.to/lastmile_qr_scan"}, "lat": 38.92795533333334, "is_reserved": 0, "is_disabled": 0, "fusion_lat": 0.0}, {"fusion_lon": 0.0, "bike_id": "fb70285450d36fab5acbe0f938442921", "name": "fb70285450d36fab5acbe0f938442921", "type": "electric_scooter", "lon": -77.04699, "rental_uris": {"android": "https://dc.lft.to/lastmile_qr_scan", "ios": "https://dc.lft.to/lastmile_qr_scan"}, "lat": 38.89744233333333, "is_reserved": 0, "is_disabled": 0, "fusion_lat": 0.0}, {"fusion_lon": 0.0, "bike_id": "5f6827dc4e8d66fcef569716e187b019", "name": "5f6827dc4e8d66fcef569716e187b019", "type": "electric_scooter", "lon": -77.02662233333334, "rental_uris": {"android": "https://dc.lft.to/lastmile_qr_scan", "ios": "https://dc.lft.to/lastmile_qr_scan"}, "lat": 38.9794275, "is_reserved": 0, "is_disabled": 0, "fusion_lat": 0.0}, {"fusion_lon": 0.0, "bike_id": "72841cab45c536e5cbcc9fba54a93522", "name": "72841cab45c536e5cbcc9fba54a93522", "type": "electric_scooter", "lon": -77.03266233333333, "rental_uris": {"android": "https://dc.lft.to/lastmile_qr_scan", "ios": "https://dc.lft.to/lastmile_qr_scan"}, "lat": 38.932169333333334, "is_reserved": 0, "is_disabled": 0, "fusion_lat": 0.0}, {"fusion_lon": 0.0, "bike_id": "0fc4001ff40874da16853e5b23e74705", "name": "0fc4001ff40874da16853e5b23e74705", "type": "electric_scooter", "lon": -77.023907, "rental_uris": {"android": "https://dc.lft.to/lastmile_qr_scan", "ios": "https://dc.lft.to/lastmile_qr_scan"}, "lat": 38.95734783333333, "is_reserved": 0, "is_disabled": 0, "fusion_lat": 0.0}, {"fusion_lon": 0.0, "bike_id": "71407f583b6e14b9ab2ba8e4a4d37065", "name": "71407f583b6e14b9ab2ba8e4a4d37065", "type": "electric_scooter", "lon": -77.05254033333334, "rental_uris": {"android": "https://dc.lft.to/lastmile_qr_scan", "ios": "https://dc.lft.to/lastmile_qr_scan"}, "lat": 38.92373516666667, "is_reserved": 0, "is_disabled": 0, "fusion_lat": 0.0}, {"fusion_lon": 0.0, "bike_id": "793cf26b16a045d56d5bb538b11ce44c", "name": "793cf26b16a045d56d5bb538b11ce44c", "type": "electric_bike", "lon": -76.99906116666666, "rental_uris": {"android": "https://dc.lft.to/lastmile_qr_scan", "ios": "https://dc.lft.to/lastmile_qr_scan"}, "lat": 38.92044516666667, "is_reserved": 0, "is_disabled": 0, "fusion_lat": 0.0}, {"fusion_lon": 0.0, "bike_id": "732ec01d02fb31a4ad6f3b82f9339062", "name": "732ec01d02fb31a4ad6f3b82f9339062", "type": "electric_scooter", "lon": -77.03945616666667, "rental_uris": {"android": "https://dc.lft.to/lastmile_qr_scan", "ios": "https://dc.lft.to/lastmile_qr_scan"}, "lat": 38.902694, "is_reserved": 0, "is_disabled": 0, "fusion_lat": 0.0}, {"fusion_lon": 0.0, "bike_id": "fdf90f78cbcdc336b05dcf385f904ed8", "name": "fdf90f78cbcdc336b05dcf385f904ed8", "type": "electric_scooter", "lon": -77.026745, "rental_uris": {"android": "https://dc.lft.to/lastmile_qr_scan", "ios": "https://dc.lft.to/lastmile_qr_scan"}, "lat": 38.9014135, "is_reserved": 0, "is_disabled": 0, "fusion_lat": 0.0}, {"fusion_lon": 0.0, "bike_id": "0326921e7fa70d7ce8757ca921e3a758", "name": "0326921e7fa70d7ce8757ca921e3a758", "type": "electric_scooter", "lon": -77.04157533333333, "rental_uris": {"android": "https://dc.lft.to/lastmile_qr_scan", "ios": "https://dc.lft.to/lastmile_qr_scan"}, "lat": 38.91601983333334, "is_reserved": 0, "is_disabled": 0, "fusion_lat": 0.0}, {"fusion_lon": 0.0, "bike_id": "b278e9bbf19a543d72433ee82baf2014", "name": "b278e9bbf19a543d72433ee82baf2014", "type": "electric_scooter", "lon": -77.03431883333333, "rental_uris": {"android": "https://dc.lft.to/lastmile_qr_scan", "ios": "https://dc.lft.to/lastmile_qr_scan"}, "lat": 38.904893666666666, "is_reserved": 0, "is_disabled": 0, "fusion_lat": 0.0}, {"fusion_lon": 0.0, "bike_id": "a87f9cc59b0ebf2b5dde1b41ee1ea7b2", "name": "a87f9cc59b0ebf2b5dde1b41ee1ea7b2", "type": "electric_scooter", "lon": -77.04787533333334, "rental_uris": {"android": "https://dc.lft.to/lastmile_qr_scan", "ios": "https://dc.lft.to/lastmile_qr_scan"}, "lat": 38.908022, "is_reserved": 0, "is_disabled": 0, "fusion_lat": 0.0}, {"fusion_lon": 0.0, "bike_id": "735598f8d53f0b06ab59181f812de191", "name": "735598f8d53f0b06ab59181f812de191", "type": "electric_scooter", "lon": -77.0020445, "rental_uris": {"android": "https://dc.lft.to/lastmile_qr_scan", "ios": "https://dc.lft.to/lastmile_qr_scan"}, "lat": 38.9000365, "is_reserved": 0, "is_disabled": 0, "fusion_lat": 0.0}, {"fusion_lon": 0.0, "bike_id": "23417f7727114c42e57ffa397803b587", "name": "23417f7727114c42e57ffa397803b587", "type": "electric_bike", "lon": -76.98830916666667, "rental_uris": {"android": "https://dc.lft.to/lastmile_qr_scan", "ios": "https://dc.lft.to/lastmile_qr_scan"}, "lat": 38.985638, "is_reserved": 0, "is_disabled": 0, "fusion_lat": 0.0}, {"fusion_lon": 0.0, "bike_id": "f5789423b80c573ff11618076d9386b6", "name": "f5789423b80c573ff11618076d9386b6", "type": "electric_scooter", "lon": -76.99466116666666, "rental_uris": {"android": "https://dc.lft.to/lastmile_qr_scan", "ios": "https://dc.lft.to/lastmile_qr_scan"}, "lat": 38.840341333333335, "is_reserved": 0, "is_disabled": 0, "fusion_lat": 0.0}, {"fusion_lon": 0.0, "bike_id": "72efc4d8b39db8c2a42678e19cf47044", "name": "72efc4d8b39db8c2a42678e19cf47044", "type": "electric_scooter", "lon": -77.0716845, "rental_uris": {"android": "https://dc.lft.to/lastmile_qr_scan", "ios": "https://dc.lft.to/lastmile_qr_scan"}, "lat": 38.90778233333333, "is_reserved": 0, "is_disabled": 0, "fusion_lat": 0.0}, {"fusion_lon": 0.0, "bike_id": "08a789ecf3b7659a1a7dd2bc6ee06dd2", "name": "08a789ecf3b7659a1a7dd2bc6ee06dd2", "type": "electric_scooter", "lon": -77.04498883333333, "rental_uris": {"android": "https://dc.lft.to/lastmile_qr_scan", "ios": "https://dc.lft.to/lastmile_qr_scan"}, "lat": 38.9141885, "is_reserved": 0, "is_disabled": 0, "fusion_lat": 0.0}, {"fusion_lon": 0.0, "bike_id": "1169fdd1ba35d6585e12065aa91f2eab", "name": "1169fdd1ba35d6585e12065aa91f2eab", "type": "electric_scooter", "lon": -77.00366733333334, "rental_uris": {"android": "https://dc.lft.to/lastmile_qr_scan", "ios": "https://dc.lft.to/lastmile_qr_scan"}, "lat": 38.877547166666666, "is_reserved": 0, "is_disabled": 0, "fusion_lat": 0.0}, {"fusion_lon": 0.0, "bike_id": "d9974d3fcfafab6c8401694c2beafdc6", "name": "d9974d3fcfafab6c8401694c2beafdc6", "type": "electric_scooter", "lon": -77.04658266666667, "rental_uris": {"android": "https://dc.lft.to/lastmile_qr_scan", "ios": "https://dc.lft.to/lastmile_qr_scan"}, "lat": 38.90429433333333, "is_reserved": 0, "is_disabled": 0, "fusion_lat": 0.0}, {"fusion_lon": 0.0, "bike_id": "ce6ea2791802846b8cf1291fb9e620bb", "name": "ce6ea2791802846b8cf1291fb9e620bb", "type": "electric_scooter", "lon": -77.00759366666666, "rental_uris": {"android": "https://dc.lft.to/lastmile_qr_scan", "ios": "https://dc.lft.to/lastmile_qr_scan"}, "lat": 38.876436, "is_reserved": 0, "is_disabled": 0, "fusion_lat": 0.0}, {"fusion_lon": 0.0, "bike_id": "56c60e1e36a5ea9522461a9d60f6af42", "name": "56c60e1e36a5ea9522461a9d60f6af42", "type": "electric_scooter", "lon": -77.033321, "rental_uris": {"android": "https://dc.lft.to/lastmile_qr_scan", "ios": "https://dc.lft.to/lastmile_qr_scan"}, "lat": 38.89821583333333, "is_reserved": 0, "is_disabled": 0, "fusion_lat": 0.0}, {"fusion_lon": 0.0, "bike_id": "4c51131de008c0946e214aca42ea041c", "name": "4c51131de008c0946e214aca42ea041c", "type": "electric_scooter", "lon": -77.0231515, "rental_uris": {"android": "https://dc.lft.to/lastmile_qr_scan", "ios": "https://dc.lft.to/lastmile_qr_scan"}, "lat": 38.91776566666667, "is_reserved": 0, "is_disabled": 0, "fusion_lat": 0.0}, {"fusion_lon": 0.0, "bike_id": "afd09baabefc182af0e002f112c3b098", "name": "afd09baabefc182af0e002f112c3b098", "type": "electric_scooter", "lon": -77.027132, "rental_uris": {"android": "https://dc.lft.to/lastmile_qr_scan", "ios": "https://dc.lft.to/lastmile_qr_scan"}, "lat": 38.90751066666667, "is_reserved": 0, "is_disabled": 0, "fusion_lat": 0.0}, {"fusion_lon": 0.0, "bike_id": "4ce6be748ed623c09ef66fd071514d5b", "name": "4ce6be748ed623c09ef66fd071514d5b", "type": "electric_scooter", "lon": -77.02539616666667, "rental_uris": {"android": "https://dc.lft.to/lastmile_qr_scan", "ios": "https://dc.lft.to/lastmile_qr_scan"}, "lat": 38.900764333333335, "is_reserved": 0, "is_disabled": 0, "fusion_lat": 0.0}, {"fusion_lon": 0.0, "bike_id": "c310cc7fa76d30942ab7d4bef1ec4589", "name": "c310cc7fa76d30942ab7d4bef1ec4589", "type": "electric_scooter", "lon": -77.0217215, "rental_uris": {"android": "https://dc.lft.to/lastmile_qr_scan", "ios": "https://dc.lft.to/lastmile_qr_scan"}, "lat": 38.94297733333333, "is_reserved": 0, "is_disabled": 0, "fusion_lat": 0.0}, {"fusion_lon": 0.0, "bike_id": "171e96878a3fefdeb0097296468b31b5", "name": "171e96878a3fefdeb0097296468b31b5", "type": "electric_scooter", "lon": -77.032118, "rental_uris": {"android": "https://dc.lft.to/lastmile_qr_scan", "ios": "https://dc.lft.to/lastmile_qr_scan"}, "lat": 38.91924733333333, "is_reserved": 0, "is_disabled": 0, "fusion_lat": 0.0}, {"fusion_lon": 0.0, "bike_id": "1f29444f8818f8fcafecc9b8e07cf877", "name": "1f29444f8818f8fcafecc9b8e07cf877", "type": "electric_scooter", "lon": -77.00098666666666, "rental_uris": {"android": "https://dc.lft.to/lastmile_qr_scan", "ios": "https://dc.lft.to/lastmile_qr_scan"}, "lat": 38.89742116666667, "is_reserved": 0, "is_disabled": 0, "fusion_lat": 0.0}, {"fusion_lon": 0.0, "bike_id": "f7ea7628cb6c894c075a823f9f7737b7", "name": "f7ea7628cb6c894c075a823f9f7737b7", "type": "electric_scooter", "lon": -77.00566833333333, "rental_uris": {"android": "https://dc.lft.to/lastmile_qr_scan", "ios": "https://dc.lft.to/lastmile_qr_scan"}, "lat": 38.885042166666665, "is_reserved": 0, "is_disabled": 0, "fusion_lat": 0.0}, {"fusion_lon": 0.0, "bike_id": "879db712608f2c0e500ab321165dc71e", "name": "879db712608f2c0e500ab321165dc71e", "type": "electric_bike", "lon": -77.02388033333334, "rental_uris": {"android": "https://dc.lft.to/lastmile_qr_scan", "ios": "https://dc.lft.to/lastmile_qr_scan"}, "lat": 38.90082116666667, "is_reserved": 0, "is_disabled": 0, "fusion_lat": 0.0}, {"fusion_lon": 0.0, "bike_id": "1cfdde1dc8a41458d6a7ffbdd1df6c46", "name": "1cfdde1dc8a41458d6a7ffbdd1df6c46", "type": "electric_bike", "lon": -77.13231666666667, "rental_uris": {"android": "https://dc.lft.to/lastmile_qr_scan", "ios": "https://dc.lft.to/lastmile_qr_scan"}, "lat": 38.86976966666667, "is_reserved": 0, "is_disabled": 0, "fusion_lat": 0.0}, {"fusion_lon": 0.0, "bike_id": "9c05d75627fa8f37f2bb9e15d12d7cff", "name": "9c05d75627fa8f37f2bb9e15d12d7cff", "type": "electric_scooter", "lon": -77.05094383333333, "rental_uris": {"android": "https://dc.lft.to/lastmile_qr_scan", "ios": "https://dc.lft.to/lastmile_qr_scan"}, "lat": 38.92341483333333, "is_reserved": 0, "is_disabled": 0, "fusion_lat": 0.0}, {"fusion_lon": 0.0, "bike_id": "4c9c38aaab4f3135cc6ef8d8e972b226", "name": "4c9c38aaab4f3135cc6ef8d8e972b226", "type": "electric_scooter", "lon": -77.04651916666667, "rental_uris": {"android": "https://dc.lft.to/lastmile_qr_scan", "ios": "https://dc.lft.to/lastmile_qr_scan"}, "lat": 38.903813166666666, "is_reserved": 0, "is_disabled": 0, "fusion_lat": 0.0}, {"fusion_lon": 0.0, "bike_id": "1b1fe4b75e6627291c1078571431295e", "name": "1b1fe4b75e6627291c1078571431295e", "type": "electric_scooter", "lon": -77.02443166666667, "rental_uris": {"android": "https://dc.lft.to/lastmile_qr_scan", "ios": "https://dc.lft.to/lastmile_qr_scan"}, "lat": 38.923741166666666, "is_reserved": 0, "is_disabled": 0, "fusion_lat": 0.0}, {"fusion_lon": 0.0, "bike_id": "cd39ff8e26e604dc1f8dc9c973d67bfb", "name": "cd39ff8e26e604dc1f8dc9c973d67bfb", "type": "electric_scooter", "lon": -77.04665116666666, "rental_uris": {"android": "https://dc.lft.to/lastmile_qr_scan", "ios": "https://dc.lft.to/lastmile_qr_scan"}, "lat": 38.90508666666667, "is_reserved": 0, "is_disabled": 0, "fusion_lat": 0.0}, {"fusion_lon": 0.0, "bike_id": "f2225d99e56351b48b425d972b3a25cf", "name": "f2225d99e56351b48b425d972b3a25cf", "type": "electric_bike", "lon": -77.01303583333333, "rental_uris": {"android": "https://dc.lft.to/lastmile_qr_scan", "ios": "https://dc.lft.to/lastmile_qr_scan"}, "lat": 38.881416333333334, "is_reserved": 0, "is_disabled": 0, "fusion_lat": 0.0}, {"fusion_lon": 0.0, "bike_id": "97a4990b23178b60427ea89a76b63d2d", "name": "97a4990b23178b60427ea89a76b63d2d", "type": "electric_scooter", "lon": -77.0085275, "rental_uris": {"android": "https://dc.lft.to/lastmile_qr_scan", "ios": "https://dc.lft.to/lastmile_qr_scan"}, "lat": 38.90674633333333, "is_reserved": 0, "is_disabled": 0, "fusion_lat": 0.0}, {"fusion_lon": 0.0, "bike_id": "8217d5de6cd64d5490f90869c4eb09de", "name": "8217d5de6cd64d5490f90869c4eb09de", "type": "electric_bike", "lon": -76.9732845, "rental_uris": {"android": "https://dc.lft.to/lastmile_qr_scan", "ios": "https://dc.lft.to/lastmile_qr_scan"}, "lat": 38.85068116666667, "is_reserved": 0, "is_disabled": 0, "fusion_lat": 0.0}, {"fusion_lon": 0.0, "bike_id": "455ecdf7a896e768867f76bd198ed083", "name": "455ecdf7a896e768867f76bd198ed083", "type": "electric_scooter", "lon": -77.0403195, "rental_uris": {"android": "https://dc.lft.to/lastmile_qr_scan", "ios": "https://dc.lft.to/lastmile_qr_scan"}, "lat": 38.89897766666667, "is_reserved": 0, "is_disabled": 0, "fusion_lat": 0.0}, {"fusion_lon": 0.0, "bike_id": "051ce151ccce6aa115ce97c8a9d71f55", "name": "051ce151ccce6aa115ce97c8a9d71f55", "type": "electric_scooter", "lon": -77.02482566666667, "rental_uris": {"android": "https://dc.lft.to/lastmile_qr_scan", "ios": "https://dc.lft.to/lastmile_qr_scan"}, "lat": 38.916208, "is_reserved": 0, "is_disabled": 0, "fusion_lat": 0.0}, {"fusion_lon": 0.0, "bike_id": "92ba5056ee0a01905b9e190557afa330", "name": "92ba5056ee0a01905b9e190557afa330", "type": "electric_scooter", "lon": -77.03648566666666, "rental_uris": {"android": "https://dc.lft.to/lastmile_qr_scan", "ios": "https://dc.lft.to/lastmile_qr_scan"}, "lat": 38.903766, "is_reserved": 0, "is_disabled": 0, "fusion_lat": 0.0}, {"fusion_lon": 0.0, "bike_id": "376d633b7c524121575c66addd783808", "name": "376d633b7c524121575c66addd783808", "type": "electric_scooter", "lon": -76.994825, "rental_uris": {"android": "https://dc.lft.to/lastmile_qr_scan", "ios": "https://dc.lft.to/lastmile_qr_scan"}, "lat": 38.862189666666666, "is_reserved": 0, "is_disabled": 0, "fusion_lat": 0.0}, {"fusion_lon": 0.0, "bike_id": "450a3ab222206399853544f511e255a0", "name": "450a3ab222206399853544f511e255a0", "type": "electric_scooter", "lon": -77.039569, "rental_uris": {"android": "https://dc.lft.to/lastmile_qr_scan", "ios": "https://dc.lft.to/lastmile_qr_scan"}, "lat": 38.9060825, "is_reserved": 0, "is_disabled": 0, "fusion_lat": 0.0}, {"fusion_lon": 0.0, "bike_id": "9c57da314605d5c04244aa01793b95d1", "name": "9c57da314605d5c04244aa01793b95d1", "type": "electric_scooter", "lon": -77.02633616666667, "rental_uris": {"android": "https://dc.lft.to/lastmile_qr_scan", "ios": "https://dc.lft.to/lastmile_qr_scan"}, "lat": 38.932771833333334, "is_reserved": 0, "is_disabled": 0, "fusion_lat": 0.0}, {"fusion_lon": 0.0, "bike_id": "bd25dcd88c5d5f2d55d5bb6748d13975", "name": "bd25dcd88c5d5f2d55d5bb6748d13975", "type": "electric_scooter", "lon": -77.07992233333333, "rental_uris": {"android": "https://dc.lft.to/lastmile_qr_scan", "ios": "https://dc.lft.to/lastmile_qr_scan"}, "lat": 38.923746, "is_reserved": 0, "is_disabled": 0, "fusion_lat": 0.0}, {"fusion_lon": 0.0, "bike_id": "2eba9d5a4170c30017cd3a8791cc0da6", "name": "2eba9d5a4170c30017cd3a8791cc0da6", "type": "electric_scooter", "lon": -77.03335766666666, "rental_uris": {"android": "https://dc.lft.to/lastmile_qr_scan", "ios": "https://dc.lft.to/lastmile_qr_scan"}, "lat": 38.919095, "is_reserved": 0, "is_disabled": 0, "fusion_lat": 0.0}, {"fusion_lon": 0.0, "bike_id": "4dbdd1dcfa8bc83f47e5aef2da0c612b", "name": "4dbdd1dcfa8bc83f47e5aef2da0c612b", "type": "electric_scooter", "lon": -77.02732816666666, "rental_uris": {"android": "https://dc.lft.to/lastmile_qr_scan", "ios": "https://dc.lft.to/lastmile_qr_scan"}, "lat": 38.901347333333334, "is_reserved": 0, "is_disabled": 0, "fusion_lat": 0.0}, {"fusion_lon": 0.0, "bike_id": "5bd429ad5c063015e5ec6f1ee7bd7025", "name": "5bd429ad5c063015e5ec6f1ee7bd7025", "type": "electric_scooter", "lon": -77.03839816666667, "rental_uris": {"android": "https://dc.lft.to/lastmile_qr_scan", "ios": "https://dc.lft.to/lastmile_qr_scan"}, "lat": 38.91732833333333, "is_reserved": 0, "is_disabled": 0, "fusion_lat": 0.0}, {"fusion_lon": 0.0, "bike_id": "e75abf968c057a48762271a62d3032ea", "name": "e75abf968c057a48762271a62d3032ea", "type": "electric_scooter", "lon": -77.04058583333334, "rental_uris": {"android": "https://dc.lft.to/lastmile_qr_scan", "ios": "https://dc.lft.to/lastmile_qr_scan"}, "lat": 38.90880516666667, "is_reserved": 0, "is_disabled": 0, "fusion_lat": 0.0}, {"fusion_lon": 0.0, "bike_id": "4f7b46eea8683dca6e07f9bca9e68bd5", "name": "4f7b46eea8683dca6e07f9bca9e68bd5", "type": "electric_bike", "lon": -76.87495683333333, "rental_uris": {"android": "https://dc.lft.to/lastmile_qr_scan", "ios": "https://dc.lft.to/lastmile_qr_scan"}, "lat": 38.990915666666666, "is_reserved": 0, "is_disabled": 0, "fusion_lat": 0.0}, {"fusion_lon": 0.0, "bike_id": "7d1d78c457b37e4ba7f2111fee4e1e2a", "name": "7d1d78c457b37e4ba7f2111fee4e1e2a", "type": "electric_bike", "lon": -77.11220316666666, "rental_uris": {"android": "https://dc.lft.to/lastmile_qr_scan", "ios": "https://dc.lft.to/lastmile_qr_scan"}, "lat": 38.82874066666667, "is_reserved": 0, "is_disabled": 0, "fusion_lat": 0.0}, {"fusion_lon": 0.0, "bike_id": "4b077ece03863a4ee1af345c9375c5cc", "name": "4b077ece03863a4ee1af345c9375c5cc", "type": "electric_scooter", "lon": -77.02542933333334, "rental_uris": {"android": "https://dc.lft.to/lastmile_qr_scan", "ios": "https://dc.lft.to/lastmile_qr_scan"}, "lat": 38.905686833333334, "is_reserved": 0, "is_disabled": 0, "fusion_lat": 0.0}, {"fusion_lon": 0.0, "bike_id": "7c2d20277705fa8157f084ab169c83d8", "name": "7c2d20277705fa8157f084ab169c83d8", "type": "electric_scooter", "lon": -76.93156466666667, "rental_uris": {"android": "https://dc.lft.to/lastmile_qr_scan", "ios": "https://dc.lft.to/lastmile_qr_scan"}, "lat": 38.898821833333336, "is_reserved": 0, "is_disabled": 0, "fusion_lat": 0.0}, {"fusion_lon": 0.0, "bike_id": "d224f2862e34c9d9f956451ecc96609f", "name": "d224f2862e34c9d9f956451ecc96609f", "type": "electric_scooter", "lon": -76.98200716666666, "rental_uris": {"android": "https://dc.lft.to/lastmile_qr_scan", "ios": "https://dc.lft.to/lastmile_qr_scan"}, "lat": 38.902036833333334, "is_reserved": 0, "is_disabled": 0, "fusion_lat": 0.0}, {"fusion_lon": 0.0, "bike_id": "0a7bd57ccb8a93a9e57d90cd85579183", "name": "0a7bd57ccb8a93a9e57d90cd85579183", "type": "electric_scooter", "lon": -77.03849016666666, "rental_uris": {"android": "https://dc.lft.to/lastmile_qr_scan", "ios": "https://dc.lft.to/lastmile_qr_scan"}, "lat": 38.91207166666667, "is_reserved": 0, "is_disabled": 0, "fusion_lat": 0.0}, {"fusion_lon": 0.0, "bike_id": "750bf4fd233c660d4dfb096fe59a6039", "name": "750bf4fd233c660d4dfb096fe59a6039", "type": "electric_scooter", "lon": -77.0385865, "rental_uris": {"android": "https://dc.lft.to/lastmile_qr_scan", "ios": "https://dc.lft.to/lastmile_qr_scan"}, "lat": 38.932131166666665, "is_reserved": 0, "is_disabled": 0, "fusion_lat": 0.0}, {"fusion_lon": 0.0, "bike_id": "31b7962a1c37f6fc15a3c798218eff51", "name": "31b7962a1c37f6fc15a3c798218eff51", "type": "electric_scooter", "lon": -76.99372033333333, "rental_uris": {"android": "https://dc.lft.to/lastmile_qr_scan", "ios": "https://dc.lft.to/lastmile_qr_scan"}, "lat": 38.91018283333333, "is_reserved": 0, "is_disabled": 0, "fusion_lat": 0.0}, {"fusion_lon": 0.0, "bike_id": "6132b2d656f84f8f939fc10c1c25f080", "name": "6132b2d656f84f8f939fc10c1c25f080", "type": "electric_scooter", "lon": -77.002542, "rental_uris": {"android": "https://dc.lft.to/lastmile_qr_scan", "ios": "https://dc.lft.to/lastmile_qr_scan"}, "lat": 38.9073695, "is_reserved": 0, "is_disabled": 0, "fusion_lat": 0.0}, {"fusion_lon": 0.0, "bike_id": "b44cca0f40c7bdcd2f34f9ef36ab5c94", "name": "b44cca0f40c7bdcd2f34f9ef36ab5c94", "type": "electric_scooter", "lon": -77.02660016666667, "rental_uris": {"android": "https://dc.lft.to/lastmile_qr_scan", "ios": "https://dc.lft.to/lastmile_qr_scan"}, "lat": 38.902523333333335, "is_reserved": 0, "is_disabled": 0, "fusion_lat": 0.0}, {"fusion_lon": 0.0, "bike_id": "1f979143f58deb3ad78c5cf7b3519429", "name": "1f979143f58deb3ad78c5cf7b3519429", "type": "electric_scooter", "lon": -76.937461, "rental_uris": {"android": "https://dc.lft.to/lastmile_qr_scan", "ios": "https://dc.lft.to/lastmile_qr_scan"}, "lat": 38.89018433333333, "is_reserved": 0, "is_disabled": 0, "fusion_lat": 0.0}, {"fusion_lon": 0.0, "bike_id": "82bdce5bbe632dba6f806c8578cd2415", "name": "82bdce5bbe632dba6f806c8578cd2415", "type": "electric_scooter", "lon": -77.02840566666667, "rental_uris": {"android": "https://dc.lft.to/lastmile_qr_scan", "ios": "https://dc.lft.to/lastmile_qr_scan"}, "lat": 38.90570566666667, "is_reserved": 0, "is_disabled": 0, "fusion_lat": 0.0}, {"fusion_lon": 0.0, "bike_id": "d8d3648ede1668b29f6252aaeec1977a", "name": "d8d3648ede1668b29f6252aaeec1977a", "type": "electric_scooter", "lon": -76.94842766666666, "rental_uris": {"android": "https://dc.lft.to/lastmile_qr_scan", "ios": "https://dc.lft.to/lastmile_qr_scan"}, "lat": 38.894878166666665, "is_reserved": 0, "is_disabled": 0, "fusion_lat": 0.0}, {"fusion_lon": 0.0, "bike_id": "6443a590a2a2cca01a53f64e9540c961", "name": "6443a590a2a2cca01a53f64e9540c961", "type": "electric_scooter", "lon": -77.06379516666667, "rental_uris": {"android": "https://dc.lft.to/lastmile_qr_scan", "ios": "https://dc.lft.to/lastmile_qr_scan"}, "lat": 38.9052565, "is_reserved": 0, "is_disabled": 0, "fusion_lat": 0.0}, {"fusion_lon": 0.0, "bike_id": "1fbc6b49bf0bd42bd019cdbdd7465502", "name": "1fbc6b49bf0bd42bd019cdbdd7465502", "type": "electric_scooter", "lon": -77.03266633333334, "rental_uris": {"android": "https://dc.lft.to/lastmile_qr_scan", "ios": "https://dc.lft.to/lastmile_qr_scan"}, "lat": 38.93338266666667, "is_reserved": 0, "is_disabled": 0, "fusion_lat": 0.0}, {"fusion_lon": 0.0, "bike_id": "b381013caa15a7b3bd61353e230ffc1c", "name": "b381013caa15a7b3bd61353e230ffc1c", "type": "electric_scooter", "lon": -77.04158566666666, "rental_uris": {"android": "https://dc.lft.to/lastmile_qr_scan", "ios": "https://dc.lft.to/lastmile_qr_scan"}, "lat": 38.91717766666667, "is_reserved": 0, "is_disabled": 0, "fusion_lat": 0.0}, {"fusion_lon": 0.0, "bike_id": "48826fbed5aec1ff8813c594c1619971", "name": "48826fbed5aec1ff8813c594c1619971", "type": "electric_scooter", "lon": -77.00315683333334, "rental_uris": {"android": "https://dc.lft.to/lastmile_qr_scan", "ios": "https://dc.lft.to/lastmile_qr_scan"}, "lat": 38.88990483333333, "is_reserved": 0, "is_disabled": 0, "fusion_lat": 0.0}, {"fusion_lon": 0.0, "bike_id": "66eb3759137d88f3b3c2583b9c83f463", "name": "66eb3759137d88f3b3c2583b9c83f463", "type": "electric_scooter", "lon": -77.05698416666667, "rental_uris": {"android": "https://dc.lft.to/lastmile_qr_scan", "ios": "https://dc.lft.to/lastmile_qr_scan"}, "lat": 38.910596166666664, "is_reserved": 0, "is_disabled": 0, "fusion_lat": 0.0}, {"fusion_lon": 0.0, "bike_id": "5cc8d73cf9dc5f0f3b2dc2592cb6f11e", "name": "5cc8d73cf9dc5f0f3b2dc2592cb6f11e", "type": "electric_scooter", "lon": -77.00541733333333, "rental_uris": {"android": "https://dc.lft.to/lastmile_qr_scan", "ios": "https://dc.lft.to/lastmile_qr_scan"}, "lat": 38.874618166666664, "is_reserved": 0, "is_disabled": 0, "fusion_lat": 0.0}, {"fusion_lon": 0.0, "bike_id": "6c45a613a200bd2155f1077b9fa2ea9b", "name": "6c45a613a200bd2155f1077b9fa2ea9b", "type": "electric_scooter", "lon": -77.082118, "rental_uris": {"android": "https://dc.lft.to/lastmile_qr_scan", "ios": "https://dc.lft.to/lastmile_qr_scan"}, "lat": 38.93557716666667, "is_reserved": 0, "is_disabled": 0, "fusion_lat": 0.0}, {"fusion_lon": 0.0, "bike_id": "88fe4f56c18ceb549826b10669452a3a", "name": "88fe4f56c18ceb549826b10669452a3a", "type": "electric_scooter", "lon": -76.98885133333333, "rental_uris": {"android": "https://dc.lft.to/lastmile_qr_scan", "ios": "https://dc.lft.to/lastmile_qr_scan"}, "lat": 38.86671583333333, "is_reserved": 0, "is_disabled": 0, "fusion_lat": 0.0}, {"fusion_lon": 0.0, "bike_id": "5d10ceef4ce493787517868f30441f9c", "name": "5d10ceef4ce493787517868f30441f9c", "type": "electric_scooter", "lon": -76.94853966666666, "rental_uris": {"android": "https://dc.lft.to/lastmile_qr_scan", "ios": "https://dc.lft.to/lastmile_qr_scan"}, "lat": 38.883022833333335, "is_reserved": 0, "is_disabled": 0, "fusion_lat": 0.0}, {"fusion_lon": 0.0, "bike_id": "eedba77381f93762b1efb26eb9dd1a9a", "name": "eedba77381f93762b1efb26eb9dd1a9a", "type": "electric_scooter", "lon": -77.0618785, "rental_uris": {"android": "https://dc.lft.to/lastmile_qr_scan", "ios": "https://dc.lft.to/lastmile_qr_scan"}, "lat": 38.930126666666666, "is_reserved": 0, "is_disabled": 0, "fusion_lat": 0.0}, {"fusion_lon": 0.0, "bike_id": "27995c0ce143cb78781cec0f1ef3f5d5", "name": "27995c0ce143cb78781cec0f1ef3f5d5", "type": "electric_scooter", "lon": -76.9902605, "rental_uris": {"android": "https://dc.lft.to/lastmile_qr_scan", "ios": "https://dc.lft.to/lastmile_qr_scan"}, "lat": 38.860785, "is_reserved": 0, "is_disabled": 0, "fusion_lat": 0.0}, {"fusion_lon": 0.0, "bike_id": "80e390a7ed56b17b8b24655c2b38e350", "name": "80e390a7ed56b17b8b24655c2b38e350", "type": "electric_scooter", "lon": -77.04346666666666, "rental_uris": {"android": "https://dc.lft.to/lastmile_qr_scan", "ios": "https://dc.lft.to/lastmile_qr_scan"}, "lat": 38.906018833333334, "is_reserved": 0, "is_disabled": 0, "fusion_lat": 0.0}, {"fusion_lon": 0.0, "bike_id": "53b2d251043d64cc637b39d35dbfffc6", "name": "53b2d251043d64cc637b39d35dbfffc6", "type": "electric_bike", "lon": -77.34406766666666, "rental_uris": {"android": "https://dc.lft.to/lastmile_qr_scan", "ios": "https://dc.lft.to/lastmile_qr_scan"}, "lat": 38.94595983333333, "is_reserved": 0, "is_disabled": 0, "fusion_lat": 0.0}, {"fusion_lon": 0.0, "bike_id": "cb36c524d52216d0abaf3d1340e28df0", "name": "cb36c524d52216d0abaf3d1340e28df0", "type": "electric_scooter", "lon": -77.0137825, "rental_uris": {"android": "https://dc.lft.to/lastmile_qr_scan", "ios": "https://dc.lft.to/lastmile_qr_scan"}, "lat": 38.8864625, "is_reserved": 0, "is_disabled": 0, "fusion_lat": 0.0}, {"fusion_lon": 0.0, "bike_id": "e812d04ad25ea6f5818675ea9713a007", "name": "e812d04ad25ea6f5818675ea9713a007", "type": "electric_scooter", "lon": -77.005464, "rental_uris": {"android": "https://dc.lft.to/lastmile_qr_scan", "ios": "https://dc.lft.to/lastmile_qr_scan"}, "lat": 38.9118925, "is_reserved": 0, "is_disabled": 0, "fusion_lat": 0.0}, {"fusion_lon": 0.0, "bike_id": "4a3bf0d7788a4fa9cb070aa452b5bc5b", "name": "4a3bf0d7788a4fa9cb070aa452b5bc5b", "type": "electric_scooter", "lon": -77.02252733333333, "rental_uris": {"android": "https://dc.lft.to/lastmile_qr_scan", "ios": "https://dc.lft.to/lastmile_qr_scan"}, "lat": 38.92080283333333, "is_reserved": 0, "is_disabled": 0, "fusion_lat": 0.0}, {"fusion_lon": 0.0, "bike_id": "368c9374c6847b3b18b7ce32aa3e5fe9", "name": "368c9374c6847b3b18b7ce32aa3e5fe9", "type": "electric_scooter", "lon": -77.00204783333334, "rental_uris": {"android": "https://dc.lft.to/lastmile_qr_scan", "ios": "https://dc.lft.to/lastmile_qr_scan"}, "lat": 38.90032433333333, "is_reserved": 0, "is_disabled": 0, "fusion_lat": 0.0}, {"fusion_lon": 0.0, "bike_id": "b94ff48e7c27ff65ad9d10cab3f5c2bc", "name": "b94ff48e7c27ff65ad9d10cab3f5c2bc", "type": "electric_scooter", "lon": -77.0280595, "rental_uris": {"android": "https://dc.lft.to/lastmile_qr_scan", "ios": "https://dc.lft.to/lastmile_qr_scan"}, "lat": 38.89939483333333, "is_reserved": 0, "is_disabled": 0, "fusion_lat": 0.0}, {"fusion_lon": 0.0, "bike_id": "0b7251fffde4116dfb71a56ad8c9509e", "name": "0b7251fffde4116dfb71a56ad8c9509e", "type": "electric_scooter", "lon": -77.02842633333333, "rental_uris": {"android": "https://dc.lft.to/lastmile_qr_scan", "ios": "https://dc.lft.to/lastmile_qr_scan"}, "lat": 38.923848666666665, "is_reserved": 0, "is_disabled": 0, "fusion_lat": 0.0}, {"fusion_lon": 0.0, "bike_id": "5d8d29583708b76e4773fa20cc8601ab", "name": "5d8d29583708b76e4773fa20cc8601ab", "type": "electric_bike", "lon": -77.1432605, "rental_uris": {"android": "https://dc.lft.to/lastmile_qr_scan", "ios": "https://dc.lft.to/lastmile_qr_scan"}, "lat": 39.054616, "is_reserved": 0, "is_disabled": 0, "fusion_lat": 0.0}, {"fusion_lon": 0.0, "bike_id": "f54626a2eab20a107848947983604b63", "name": "f54626a2eab20a107848947983604b63", "type": "electric_scooter", "lon": -77.04537666666667, "rental_uris": {"android": "https://dc.lft.to/lastmile_qr_scan", "ios": "https://dc.lft.to/lastmile_qr_scan"}, "lat": 38.914130166666666, "is_reserved": 0, "is_disabled": 0, "fusion_lat": 0.0}, {"fusion_lon": 0.0, "bike_id": "0d9892d3452ac30af58ba0bbf0a2861a", "name": "0d9892d3452ac30af58ba0bbf0a2861a", "type": "electric_scooter", "lon": -77.052142, "rental_uris": {"android": "https://dc.lft.to/lastmile_qr_scan", "ios": "https://dc.lft.to/lastmile_qr_scan"}, "lat": 38.924373, "is_reserved": 0, "is_disabled": 0, "fusion_lat": 0.0}, {"fusion_lon": 0.0, "bike_id": "64f0a6fd78a31240d5154c17fa8b9fec", "name": "64f0a6fd78a31240d5154c17fa8b9fec", "type": "electric_scooter", "lon": -77.00745783333333, "rental_uris": {"android": "https://dc.lft.to/lastmile_qr_scan", "ios": "https://dc.lft.to/lastmile_qr_scan"}, "lat": 38.87686183333334, "is_reserved": 0, "is_disabled": 0, "fusion_lat": 0.0}, {"fusion_lon": 0.0, "bike_id": "6d94f4050cbc2b6fa0b9b57e684c30f1", "name": "6d94f4050cbc2b6fa0b9b57e684c30f1", "type": "electric_scooter", "lon": -77.0471245, "rental_uris": {"android": "https://dc.lft.to/lastmile_qr_scan", "ios": "https://dc.lft.to/lastmile_qr_scan"}, "lat": 38.89971533333333, "is_reserved": 0, "is_disabled": 0, "fusion_lat": 0.0}, {"fusion_lon": 0.0, "bike_id": "e4c195ce5881780b5766d07a9177a0a7", "name": "e4c195ce5881780b5766d07a9177a0a7", "type": "electric_scooter", "lon": -77.0153285, "rental_uris": {"android": "https://dc.lft.to/lastmile_qr_scan", "ios": "https://dc.lft.to/lastmile_qr_scan"}, "lat": 38.88488566666667, "is_reserved": 0, "is_disabled": 0, "fusion_lat": 0.0}, {"fusion_lon": 0.0, "bike_id": "c672961f1504cf84158976bbe60021b1", "name": "c672961f1504cf84158976bbe60021b1", "type": "electric_scooter", "lon": -76.96506533333333, "rental_uris": {"android": "https://dc.lft.to/lastmile_qr_scan", "ios": "https://dc.lft.to/lastmile_qr_scan"}, "lat": 38.87649316666667, "is_reserved": 0, "is_disabled": 0, "fusion_lat": 0.0}, {"fusion_lon": 0.0, "bike_id": "1b0415e3e14d5645bafd4269b428ccac", "name": "1b0415e3e14d5645bafd4269b428ccac", "type": "electric_bike", "lon": -76.96835366666667, "rental_uris": {"android": "https://dc.lft.to/lastmile_qr_scan", "ios": "https://dc.lft.to/lastmile_qr_scan"}, "lat": 38.924467166666666, "is_reserved": 0, "is_disabled": 0, "fusion_lat": 0.0}, {"fusion_lon": 0.0, "bike_id": "6ec1427df404ff01b1e806677010e494", "name": "6ec1427df404ff01b1e806677010e494", "type": "electric_scooter", "lon": -76.96491133333333, "rental_uris": {"android": "https://dc.lft.to/lastmile_qr_scan", "ios": "https://dc.lft.to/lastmile_qr_scan"}, "lat": 38.87552433333333, "is_reserved": 0, "is_disabled": 0, "fusion_lat": 0.0}, {"fusion_lon": 0.0, "bike_id": "2b00da261042d19a3f53a12ac0c978cc", "name": "2b00da261042d19a3f53a12ac0c978cc", "type": "electric_scooter", "lon": -77.041859, "rental_uris": {"android": "https://dc.lft.to/lastmile_qr_scan", "ios": "https://dc.lft.to/lastmile_qr_scan"}, "lat": 38.912682833333335, "is_reserved": 0, "is_disabled": 0, "fusion_lat": 0.0}, {"fusion_lon": 0.0, "bike_id": "b2d0432c2059fc62bdf42ecec79af570", "name": "b2d0432c2059fc62bdf42ecec79af570", "type": "electric_bike", "lon": -77.1526615, "rental_uris": {"android": "https://dc.lft.to/lastmile_qr_scan", "ios": "https://dc.lft.to/lastmile_qr_scan"}, "lat": 39.10564816666667, "is_reserved": 0, "is_disabled": 0, "fusion_lat": 0.0}, {"fusion_lon": 0.0, "bike_id": "ba304a8d6434ee4f393bd34bc1584e24", "name": "ba304a8d6434ee4f393bd34bc1584e24", "type": "electric_scooter", "lon": -76.98326116666667, "rental_uris": {"android": "https://dc.lft.to/lastmile_qr_scan", "ios": "https://dc.lft.to/lastmile_qr_scan"}, "lat": 38.8617545, "is_reserved": 0, "is_disabled": 0, "fusion_lat": 0.0}, {"fusion_lon": 0.0, "bike_id": "232b66aeb82f8b09052b5455a2828e9c", "name": "232b66aeb82f8b09052b5455a2828e9c", "type": "electric_scooter", "lon": -77.03454633333334, "rental_uris": {"android": "https://dc.lft.to/lastmile_qr_scan", "ios": "https://dc.lft.to/lastmile_qr_scan"}, "lat": 38.96429966666667, "is_reserved": 0, "is_disabled": 0, "fusion_lat": 0.0}, {"fusion_lon": 0.0, "bike_id": "4ed3abd5d0174c522d7b185161c09015", "name": "4ed3abd5d0174c522d7b185161c09015", "type": "electric_bike", "lon": -76.92915066666667, "rental_uris": {"android": "https://dc.lft.to/lastmile_qr_scan", "ios": "https://dc.lft.to/lastmile_qr_scan"}, "lat": 38.980289166666665, "is_reserved": 0, "is_disabled": 0, "fusion_lat": 0.0}, {"fusion_lon": 0.0, "bike_id": "9a34069ca366441f3dad1fcfe1ce3398", "name": "9a34069ca366441f3dad1fcfe1ce3398", "type": "electric_scooter", "lon": -77.02607966666666, "rental_uris": {"android": "https://dc.lft.to/lastmile_qr_scan", "ios": "https://dc.lft.to/lastmile_qr_scan"}, "lat": 38.91429016666667, "is_reserved": 0, "is_disabled": 0, "fusion_lat": 0.0}, {"fusion_lon": 0.0, "bike_id": "f565737f02d079a01c6d0bdf1b0567f5", "name": "f565737f02d079a01c6d0bdf1b0567f5", "type": "electric_scooter", "lon": -77.02952166666667, "rental_uris": {"android": "https://dc.lft.to/lastmile_qr_scan", "ios": "https://dc.lft.to/lastmile_qr_scan"}, "lat": 38.91671316666667, "is_reserved": 0, "is_disabled": 0, "fusion_lat": 0.0}, {"fusion_lon": 0.0, "bike_id": "b19428fe29756f460990d98930e6ade6", "name": "b19428fe29756f460990d98930e6ade6", "type": "electric_scooter", "lon": -77.034432, "rental_uris": {"android": "https://dc.lft.to/lastmile_qr_scan", "ios": "https://dc.lft.to/lastmile_qr_scan"}, "lat": 38.904379, "is_reserved": 0, "is_disabled": 0, "fusion_lat": 0.0}, {"fusion_lon": 0.0, "bike_id": "7eb82bbcd068c11f883cb7f343327555", "name": "7eb82bbcd068c11f883cb7f343327555", "type": "electric_scooter", "lon": -77.04140216666667, "rental_uris": {"android": "https://dc.lft.to/lastmile_qr_scan", "ios": "https://dc.lft.to/lastmile_qr_scan"}, "lat": 38.9168415, "is_reserved": 0, "is_disabled": 0, "fusion_lat": 0.0}, {"fusion_lon": 0.0, "bike_id": "ff148d7160e19f8583713cf45b07c992", "name": "ff148d7160e19f8583713cf45b07c992", "type": "electric_scooter", "lon": -77.03186466666666, "rental_uris": {"android": "https://dc.lft.to/lastmile_qr_scan", "ios": "https://dc.lft.to/lastmile_qr_scan"}, "lat": 38.921124666666664, "is_reserved": 0, "is_disabled": 0, "fusion_lat": 0.0}, {"fusion_lon": 0.0, "bike_id": "5fb21456a9469383c2a3306e2ab5be33", "name": "5fb21456a9469383c2a3306e2ab5be33", "type": "electric_scooter", "lon": -76.9941315, "rental_uris": {"android": "https://dc.lft.to/lastmile_qr_scan", "ios": "https://dc.lft.to/lastmile_qr_scan"}, "lat": 38.9330765, "is_reserved": 0, "is_disabled": 0, "fusion_lat": 0.0}, {"fusion_lon": 0.0, "bike_id": "08472ae91152e3b91c0f3834cb0c2b78", "name": "08472ae91152e3b91c0f3834cb0c2b78", "type": "electric_scooter", "lon": -77.04750983333334, "rental_uris": {"android": "https://dc.lft.to/lastmile_qr_scan", "ios": "https://dc.lft.to/lastmile_qr_scan"}, "lat": 38.901375, "is_reserved": 0, "is_disabled": 0, "fusion_lat": 0.0}, {"fusion_lon": 0.0, "bike_id": "7064ad601eb7b42dae8c6f01dcb32990", "name": "7064ad601eb7b42dae8c6f01dcb32990", "type": "electric_scooter", "lon": -77.019564, "rental_uris": {"android": "https://dc.lft.to/lastmile_qr_scan", "ios": "https://dc.lft.to/lastmile_qr_scan"}, "lat": 38.92255766666667, "is_reserved": 0, "is_disabled": 0, "fusion_lat": 0.0}, {"fusion_lon": 0.0, "bike_id": "e167dc04ef36e6c2b21a8426311732a5", "name": "e167dc04ef36e6c2b21a8426311732a5", "type": "electric_scooter", "lon": -77.05054, "rental_uris": {"android": "https://dc.lft.to/lastmile_qr_scan", "ios": "https://dc.lft.to/lastmile_qr_scan"}, "lat": 38.90104516666667, "is_reserved": 0, "is_disabled": 0, "fusion_lat": 0.0}, {"fusion_lon": 0.0, "bike_id": "afb0fd1f356eee9dc39cb9b4ceed250d", "name": "afb0fd1f356eee9dc39cb9b4ceed250d", "type": "electric_scooter", "lon": -77.02715916666666, "rental_uris": {"android": "https://dc.lft.to/lastmile_qr_scan", "ios": "https://dc.lft.to/lastmile_qr_scan"}, "lat": 38.90669916666667, "is_reserved": 0, "is_disabled": 0, "fusion_lat": 0.0}, {"fusion_lon": 0.0, "bike_id": "3d76bd5e2f4e5e973af4893d14b2fb97", "name": "3d76bd5e2f4e5e973af4893d14b2fb97", "type": "electric_scooter", "lon": -77.002951, "rental_uris": {"android": "https://dc.lft.to/lastmile_qr_scan", "ios": "https://dc.lft.to/lastmile_qr_scan"}, "lat": 38.908919, "is_reserved": 0, "is_disabled": 0, "fusion_lat": 0.0}, {"fusion_lon": 0.0, "bike_id": "48a8599fb3d2501e9053fa6d694b322d", "name": "48a8599fb3d2501e9053fa6d694b322d", "type": "electric_scooter", "lon": -76.9980665, "rental_uris": {"android": "https://dc.lft.to/lastmile_qr_scan", "ios": "https://dc.lft.to/lastmile_qr_scan"}, "lat": 38.876680666666665, "is_reserved": 0, "is_disabled": 0, "fusion_lat": 0.0}, {"fusion_lon": 0.0, "bike_id": "acc46d188fb069f9dbd23a63b5fa0f60", "name": "acc46d188fb069f9dbd23a63b5fa0f60", "type": "electric_scooter", "lon": -77.057926, "rental_uris": {"android": "https://dc.lft.to/lastmile_qr_scan", "ios": "https://dc.lft.to/lastmile_qr_scan"}, "lat": 38.9347815, "is_reserved": 0, "is_disabled": 0, "fusion_lat": 0.0}, {"fusion_lon": 0.0, "bike_id": "e0b4c7088235f8ceb5bd96fb50ca4981", "name": "e0b4c7088235f8ceb5bd96fb50ca4981", "type": "electric_scooter", "lon": -76.94638683333334, "rental_uris": {"android": "https://dc.lft.to/lastmile_qr_scan", "ios": "https://dc.lft.to/lastmile_qr_scan"}, "lat": 38.89848833333333, "is_reserved": 0, "is_disabled": 0, "fusion_lat": 0.0}, {"fusion_lon": 0.0, "bike_id": "111df6ce98fc9d793c66ec83d73d1e31", "name": "111df6ce98fc9d793c66ec83d73d1e31", "type": "electric_scooter", "lon": -77.04169383333333, "rental_uris": {"android": "https://dc.lft.to/lastmile_qr_scan", "ios": "https://dc.lft.to/lastmile_qr_scan"}, "lat": 38.91342616666667, "is_reserved": 0, "is_disabled": 0, "fusion_lat": 0.0}, {"fusion_lon": 0.0, "bike_id": "c9a529e239e2ca357325cbb6e1074d03", "name": "c9a529e239e2ca357325cbb6e1074d03", "type": "electric_scooter", "lon": -77.045564, "rental_uris": {"android": "https://dc.lft.to/lastmile_qr_scan", "ios": "https://dc.lft.to/lastmile_qr_scan"}, "lat": 38.90756, "is_reserved": 0, "is_disabled": 0, "fusion_lat": 0.0}, {"fusion_lon": 0.0, "bike_id": "92c9d553f3830dcd49bb956c3911cab6", "name": "92c9d553f3830dcd49bb956c3911cab6", "type": "electric_scooter", "lon": -77.02490666666667, "rental_uris": {"android": "https://dc.lft.to/lastmile_qr_scan", "ios": "https://dc.lft.to/lastmile_qr_scan"}, "lat": 38.941874166666665, "is_reserved": 0, "is_disabled": 0, "fusion_lat": 0.0}, {"fusion_lon": 0.0, "bike_id": "3b79cf7a96a86d5cf4addcd5ca10a9f5", "name": "3b79cf7a96a86d5cf4addcd5ca10a9f5", "type": "electric_scooter", "lon": -76.994455, "rental_uris": {"android": "https://dc.lft.to/lastmile_qr_scan", "ios": "https://dc.lft.to/lastmile_qr_scan"}, "lat": 38.9050525, "is_reserved": 0, "is_disabled": 0, "fusion_lat": 0.0}, {"fusion_lon": 0.0, "bike_id": "ed2739b2b8b198b318d01831dc7d8fd0", "name": "ed2739b2b8b198b318d01831dc7d8fd0", "type": "electric_scooter", "lon": -77.02307116666667, "rental_uris": {"android": "https://dc.lft.to/lastmile_qr_scan", "ios": "https://dc.lft.to/lastmile_qr_scan"}, "lat": 38.901459833333334, "is_reserved": 0, "is_disabled": 0, "fusion_lat": 0.0}, {"fusion_lon": 0.0, "bike_id": "407d944da7fcb73391eb8f08269b194c", "name": "407d944da7fcb73391eb8f08269b194c", "type": "electric_scooter", "lon": -76.955141, "rental_uris": {"android": "https://dc.lft.to/lastmile_qr_scan", "ios": "https://dc.lft.to/lastmile_qr_scan"}, "lat": 38.890553, "is_reserved": 0, "is_disabled": 0, "fusion_lat": 0.0}, {"fusion_lon": 0.0, "bike_id": "98e8d6580c97a1394f7e006e7d609f9b", "name": "98e8d6580c97a1394f7e006e7d609f9b", "type": "electric_scooter", "lon": -76.9447255, "rental_uris": {"android": "https://dc.lft.to/lastmile_qr_scan", "ios": "https://dc.lft.to/lastmile_qr_scan"}, "lat": 38.90281066666667, "is_reserved": 0, "is_disabled": 0, "fusion_lat": 0.0}, {"fusion_lon": 0.0, "bike_id": "9ecb03b0dc700d691b630210ff97e792", "name": "9ecb03b0dc700d691b630210ff97e792", "type": "electric_scooter", "lon": -77.0105975, "rental_uris": {"android": "https://dc.lft.to/lastmile_qr_scan", "ios": "https://dc.lft.to/lastmile_qr_scan"}, "lat": 38.87241916666667, "is_reserved": 0, "is_disabled": 0, "fusion_lat": 0.0}, {"fusion_lon": 0.0, "bike_id": "82cb39ed801891f356b61c371fd82f46", "name": "82cb39ed801891f356b61c371fd82f46", "type": "electric_scooter", "lon": -77.03183183333333, "rental_uris": {"android": "https://dc.lft.to/lastmile_qr_scan", "ios": "https://dc.lft.to/lastmile_qr_scan"}, "lat": 38.8917865, "is_reserved": 0, "is_disabled": 0, "fusion_lat": 0.0}, {"fusion_lon": 0.0, "bike_id": "1f8e901e48cbac1eef6427524b17258b", "name": "1f8e901e48cbac1eef6427524b17258b", "type": "electric_scooter", "lon": -77.01590716666666, "rental_uris": {"android": "https://dc.lft.to/lastmile_qr_scan", "ios": "https://dc.lft.to/lastmile_qr_scan"}, "lat": 38.92843083333333, "is_reserved": 0, "is_disabled": 0, "fusion_lat": 0.0}, {"fusion_lon": 0.0, "bike_id": "a5db6f60fbe634b42fa382ea5b5e5e3b", "name": "a5db6f60fbe634b42fa382ea5b5e5e3b", "type": "electric_scooter", "lon": -77.024691, "rental_uris": {"android": "https://dc.lft.to/lastmile_qr_scan", "ios": "https://dc.lft.to/lastmile_qr_scan"}, "lat": 38.897461666666665, "is_reserved": 0, "is_disabled": 0, "fusion_lat": 0.0}, {"fusion_lon": 0.0, "bike_id": "58b17097130c62139bbee7127c61225a", "name": "58b17097130c62139bbee7127c61225a", "type": "electric_scooter", "lon": -76.9892585, "rental_uris": {"android": "https://dc.lft.to/lastmile_qr_scan", "ios": "https://dc.lft.to/lastmile_qr_scan"}, "lat": 38.882106, "is_reserved": 0, "is_disabled": 0, "fusion_lat": 0.0}, {"fusion_lon": 0.0, "bike_id": "2fa522f25b37790c9349ba6191657d80", "name": "2fa522f25b37790c9349ba6191657d80", "type": "electric_scooter", "lon": -77.04978383333334, "rental_uris": {"android": "https://dc.lft.to/lastmile_qr_scan", "ios": "https://dc.lft.to/lastmile_qr_scan"}, "lat": 38.8961125, "is_reserved": 0, "is_disabled": 0, "fusion_lat": 0.0}, {"fusion_lon": 0.0, "bike_id": "02f393696177d7d7dcee65ece6b1b7d0", "name": "02f393696177d7d7dcee65ece6b1b7d0", "type": "electric_scooter", "lon": -77.01766583333334, "rental_uris": {"android": "https://dc.lft.to/lastmile_qr_scan", "ios": "https://dc.lft.to/lastmile_qr_scan"}, "lat": 38.92112066666667, "is_reserved": 0, "is_disabled": 0, "fusion_lat": 0.0}, {"fusion_lon": 0.0, "bike_id": "b223e40d6de0ca1376c5da41e586feb5", "name": "b223e40d6de0ca1376c5da41e586feb5", "type": "electric_scooter", "lon": -77.02713016666667, "rental_uris": {"android": "https://dc.lft.to/lastmile_qr_scan", "ios": "https://dc.lft.to/lastmile_qr_scan"}, "lat": 38.919661833333336, "is_reserved": 0, "is_disabled": 0, "fusion_lat": 0.0}, {"fusion_lon": 0.0, "bike_id": "82ddb78128f3604e6fc1c723b6e9b812", "name": "82ddb78128f3604e6fc1c723b6e9b812", "type": "electric_scooter", "lon": -77.02481, "rental_uris": {"android": "https://dc.lft.to/lastmile_qr_scan", "ios": "https://dc.lft.to/lastmile_qr_scan"}, "lat": 38.93880083333333, "is_reserved": 0, "is_disabled": 0, "fusion_lat": 0.0}, {"fusion_lon": 0.0, "bike_id": "485bc89bc81ff417155eff22dbb2c41c", "name": "485bc89bc81ff417155eff22dbb2c41c", "type": "electric_scooter", "lon": -77.03338883333333, "rental_uris": {"android": "https://dc.lft.to/lastmile_qr_scan", "ios": "https://dc.lft.to/lastmile_qr_scan"}, "lat": 38.9288455, "is_reserved": 0, "is_disabled": 0, "fusion_lat": 0.0}, {"fusion_lon": 0.0, "bike_id": "cf1652ab4aae4b4c75e5cd087bccbb86", "name": "cf1652ab4aae4b4c75e5cd087bccbb86", "type": "electric_scooter", "lon": -77.03075733333333, "rental_uris": {"android": "https://dc.lft.to/lastmile_qr_scan", "ios": "https://dc.lft.to/lastmile_qr_scan"}, "lat": 38.902584166666664, "is_reserved": 0, "is_disabled": 0, "fusion_lat": 0.0}, {"fusion_lon": 0.0, "bike_id": "2810f4109f541aaf408ab7914c1d1fc0", "name": "2810f4109f541aaf408ab7914c1d1fc0", "type": "electric_scooter", "lon": -77.02497333333334, "rental_uris": {"android": "https://dc.lft.to/lastmile_qr_scan", "ios": "https://dc.lft.to/lastmile_qr_scan"}, "lat": 38.9206935, "is_reserved": 0, "is_disabled": 0, "fusion_lat": 0.0}, {"fusion_lon": 0.0, "bike_id": "43a09431e883825a6c7c51f1b122eeef", "name": "43a09431e883825a6c7c51f1b122eeef", "type": "electric_scooter", "lon": -77.02790216666666, "rental_uris": {"android": "https://dc.lft.to/lastmile_qr_scan", "ios": "https://dc.lft.to/lastmile_qr_scan"}, "lat": 38.926828, "is_reserved": 0, "is_disabled": 0, "fusion_lat": 0.0}, {"fusion_lon": 0.0, "bike_id": "84180036b700502e325bd797f818771a", "name": "84180036b700502e325bd797f818771a", "type": "electric_scooter", "lon": -77.023806, "rental_uris": {"android": "https://dc.lft.to/lastmile_qr_scan", "ios": "https://dc.lft.to/lastmile_qr_scan"}, "lat": 38.892333, "is_reserved": 0, "is_disabled": 0, "fusion_lat": 0.0}, {"fusion_lon": 0.0, "bike_id": "907d6b7c726ab16d617ae71f1fcd2f40", "name": "907d6b7c726ab16d617ae71f1fcd2f40", "type": "electric_bike", "lon": -77.12738266666666, "rental_uris": {"android": "https://dc.lft.to/lastmile_qr_scan", "ios": "https://dc.lft.to/lastmile_qr_scan"}, "lat": 38.895662333333334, "is_reserved": 0, "is_disabled": 0, "fusion_lat": 0.0}, {"fusion_lon": 0.0, "bike_id": "1a86483a3b61793cdadc1b16cea7807d", "name": "1a86483a3b61793cdadc1b16cea7807d", "type": "electric_scooter", "lon": -77.0448205, "rental_uris": {"android": "https://dc.lft.to/lastmile_qr_scan", "ios": "https://dc.lft.to/lastmile_qr_scan"}, "lat": 38.90538, "is_reserved": 0, "is_disabled": 0, "fusion_lat": 0.0}, {"fusion_lon": 0.0, "bike_id": "6c7a9fa9728f3e249a308a199be1a60c", "name": "6c7a9fa9728f3e249a308a199be1a60c", "type": "electric_scooter", "lon": -77.04999816666667, "rental_uris": {"android": "https://dc.lft.to/lastmile_qr_scan", "ios": "https://dc.lft.to/lastmile_qr_scan"}, "lat": 38.901522666666665, "is_reserved": 0, "is_disabled": 0, "fusion_lat": 0.0}, {"fusion_lon": 0.0, "bike_id": "2ddbebed1df2c5196a5898aba2759cce", "name": "2ddbebed1df2c5196a5898aba2759cce", "type": "electric_scooter", "lon": -77.02032783333334, "rental_uris": {"android": "https://dc.lft.to/lastmile_qr_scan", "ios": "https://dc.lft.to/lastmile_qr_scan"}, "lat": 38.91309533333333, "is_reserved": 0, "is_disabled": 0, "fusion_lat": 0.0}, {"fusion_lon": 0.0, "bike_id": "48fbf05b9b97122760275a1c41caef92", "name": "48fbf05b9b97122760275a1c41caef92", "type": "electric_scooter", "lon": -77.04178216666666, "rental_uris": {"android": "https://dc.lft.to/lastmile_qr_scan", "ios": "https://dc.lft.to/lastmile_qr_scan"}, "lat": 38.91273016666667, "is_reserved": 0, "is_disabled": 0, "fusion_lat": 0.0}, {"fusion_lon": 0.0, "bike_id": "bff3d51170834635b1beb0a97a5cedd0", "name": "bff3d51170834635b1beb0a97a5cedd0", "type": "electric_scooter", "lon": -77.03214916666667, "rental_uris": {"android": "https://dc.lft.to/lastmile_qr_scan", "ios": "https://dc.lft.to/lastmile_qr_scan"}, "lat": 38.903766166666664, "is_reserved": 0, "is_disabled": 0, "fusion_lat": 0.0}, {"fusion_lon": 0.0, "bike_id": "61d067930966fff8146a6ca3abed3437", "name": "61d067930966fff8146a6ca3abed3437", "type": "electric_scooter", "lon": -77.03831883333334, "rental_uris": {"android": "https://dc.lft.to/lastmile_qr_scan", "ios": "https://dc.lft.to/lastmile_qr_scan"}, "lat": 38.90411, "is_reserved": 0, "is_disabled": 0, "fusion_lat": 0.0}, {"fusion_lon": 0.0, "bike_id": "c4ed3734080281f0ab3dba026f705d36", "name": "c4ed3734080281f0ab3dba026f705d36", "type": "electric_scooter", "lon": -76.965273, "rental_uris": {"android": "https://dc.lft.to/lastmile_qr_scan", "ios": "https://dc.lft.to/lastmile_qr_scan"}, "lat": 38.87485916666667, "is_reserved": 0, "is_disabled": 0, "fusion_lat": 0.0}, {"fusion_lon": 0.0, "bike_id": "a9a4694c1ca137d3212b7e40defa96dc", "name": "a9a4694c1ca137d3212b7e40defa96dc", "type": "electric_scooter", "lon": -77.04523766666667, "rental_uris": {"android": "https://dc.lft.to/lastmile_qr_scan", "ios": "https://dc.lft.to/lastmile_qr_scan"}, "lat": 38.9037355, "is_reserved": 0, "is_disabled": 0, "fusion_lat": 0.0}, {"fusion_lon": 0.0, "bike_id": "8277944a93d1340de6fad794cd743295", "name": "8277944a93d1340de6fad794cd743295", "type": "electric_scooter", "lon": -77.03830333333333, "rental_uris": {"android": "https://dc.lft.to/lastmile_qr_scan", "ios": "https://dc.lft.to/lastmile_qr_scan"}, "lat": 38.911165833333335, "is_reserved": 0, "is_disabled": 0, "fusion_lat": 0.0}, {"fusion_lon": 0.0, "bike_id": "0317f6700a11885c535fcf3e79aad1ae", "name": "0317f6700a11885c535fcf3e79aad1ae", "type": "electric_scooter", "lon": -77.02232883333333, "rental_uris": {"android": "https://dc.lft.to/lastmile_qr_scan", "ios": "https://dc.lft.to/lastmile_qr_scan"}, "lat": 38.911156166666665, "is_reserved": 0, "is_disabled": 0, "fusion_lat": 0.0}, {"fusion_lon": 0.0, "bike_id": "d5bcbd2515eb8d918821ba6e095978e0", "name": "d5bcbd2515eb8d918821ba6e095978e0", "type": "electric_scooter", "lon": -77.05788616666666, "rental_uris": {"android": "https://dc.lft.to/lastmile_qr_scan", "ios": "https://dc.lft.to/lastmile_qr_scan"}, "lat": 38.93480233333333, "is_reserved": 0, "is_disabled": 0, "fusion_lat": 0.0}, {"fusion_lon": 0.0, "bike_id": "8900869085e98d3fffed48034ebdc061", "name": "8900869085e98d3fffed48034ebdc061", "type": "electric_scooter", "lon": -77.01789066666667, "rental_uris": {"android": "https://dc.lft.to/lastmile_qr_scan", "ios": "https://dc.lft.to/lastmile_qr_scan"}, "lat": 38.906419, "is_reserved": 0, "is_disabled": 0, "fusion_lat": 0.0}, {"fusion_lon": 0.0, "bike_id": "76afa691eee2dbaee42f24f5c35390c1", "name": "76afa691eee2dbaee42f24f5c35390c1", "type": "electric_scooter", "lon": -77.03105833333333, "rental_uris": {"android": "https://dc.lft.to/lastmile_qr_scan", "ios": "https://dc.lft.to/lastmile_qr_scan"}, "lat": 38.919236833333336, "is_reserved": 0, "is_disabled": 0, "fusion_lat": 0.0}, {"fusion_lon": 0.0, "bike_id": "37366c36e33e3d511cb8165837425dc4", "name": "37366c36e33e3d511cb8165837425dc4", "type": "electric_scooter", "lon": -77.00816533333334, "rental_uris": {"android": "https://dc.lft.to/lastmile_qr_scan", "ios": "https://dc.lft.to/lastmile_qr_scan"}, "lat": 38.915694, "is_reserved": 0, "is_disabled": 0, "fusion_lat": 0.0}, {"fusion_lon": 0.0, "bike_id": "e317533f6bd6eac6388ea3cddd4f783e", "name": "e317533f6bd6eac6388ea3cddd4f783e", "type": "electric_scooter", "lon": -77.06101533333333, "rental_uris": {"android": "https://dc.lft.to/lastmile_qr_scan", "ios": "https://dc.lft.to/lastmile_qr_scan"}, "lat": 38.943707833333335, "is_reserved": 0, "is_disabled": 0, "fusion_lat": 0.0}, {"fusion_lon": 0.0, "bike_id": "e50c7bc3e3bf605cf940a3997849f327", "name": "e50c7bc3e3bf605cf940a3997849f327", "type": "electric_scooter", "lon": -77.04168616666666, "rental_uris": {"android": "https://dc.lft.to/lastmile_qr_scan", "ios": "https://dc.lft.to/lastmile_qr_scan"}, "lat": 38.913601, "is_reserved": 0, "is_disabled": 0, "fusion_lat": 0.0}, {"fusion_lon": 0.0, "bike_id": "649b455edadf2f6043ec1957fb717985", "name": "649b455edadf2f6043ec1957fb717985", "type": "electric_scooter", "lon": -77.04681, "rental_uris": {"android": "https://dc.lft.to/lastmile_qr_scan", "ios": "https://dc.lft.to/lastmile_qr_scan"}, "lat": 38.895064, "is_reserved": 0, "is_disabled": 0, "fusion_lat": 0.0}, {"fusion_lon": 0.0, "bike_id": "427d9731073c8aa02e77b817669b7db8", "name": "427d9731073c8aa02e77b817669b7db8", "type": "electric_scooter", "lon": -77.04358866666666, "rental_uris": {"android": "https://dc.lft.to/lastmile_qr_scan", "ios": "https://dc.lft.to/lastmile_qr_scan"}, "lat": 38.90717016666667, "is_reserved": 0, "is_disabled": 0, "fusion_lat": 0.0}, {"fusion_lon": 0.0, "bike_id": "888e86d0fbeb577f3b431401dd5147eb", "name": "888e86d0fbeb577f3b431401dd5147eb", "type": "electric_scooter", "lon": -77.01109716666667, "rental_uris": {"android": "https://dc.lft.to/lastmile_qr_scan", "ios": "https://dc.lft.to/lastmile_qr_scan"}, "lat": 38.8949585, "is_reserved": 0, "is_disabled": 0, "fusion_lat": 0.0}, {"fusion_lon": 0.0, "bike_id": "eca6fed865f1a4d44d0c27061794179d", "name": "eca6fed865f1a4d44d0c27061794179d", "type": "electric_scooter", "lon": -77.0449335, "rental_uris": {"android": "https://dc.lft.to/lastmile_qr_scan", "ios": "https://dc.lft.to/lastmile_qr_scan"}, "lat": 38.909114, "is_reserved": 0, "is_disabled": 0, "fusion_lat": 0.0}, {"fusion_lon": 0.0, "bike_id": "ddd8429d20462e2fedac80ec67a20df8", "name": "ddd8429d20462e2fedac80ec67a20df8", "type": "electric_scooter", "lon": -77.030544, "rental_uris": {"android": "https://dc.lft.to/lastmile_qr_scan", "ios": "https://dc.lft.to/lastmile_qr_scan"}, "lat": 38.88414016666667, "is_reserved": 0, "is_disabled": 0, "fusion_lat": 0.0}, {"fusion_lon": 0.0, "bike_id": "8a97c8aa0b9c9ca589076ae478ba7d5c", "name": "8a97c8aa0b9c9ca589076ae478ba7d5c", "type": "electric_scooter", "lon": -77.02022833333334, "rental_uris": {"android": "https://dc.lft.to/lastmile_qr_scan", "ios": "https://dc.lft.to/lastmile_qr_scan"}, "lat": 38.92421183333333, "is_reserved": 0, "is_disabled": 0, "fusion_lat": 0.0}, {"fusion_lon": 0.0, "bike_id": "2330178faba61df657b041ae03dfcd9f", "name": "2330178faba61df657b041ae03dfcd9f", "type": "electric_scooter", "lon": -77.03189933333333, "rental_uris": {"android": "https://dc.lft.to/lastmile_qr_scan", "ios": "https://dc.lft.to/lastmile_qr_scan"}, "lat": 38.911770833333335, "is_reserved": 0, "is_disabled": 0, "fusion_lat": 0.0}, {"fusion_lon": 0.0, "bike_id": "2d1ba57bad31d31855d63df2fb86ef15", "name": "2d1ba57bad31d31855d63df2fb86ef15", "type": "electric_scooter", "lon": -77.0275405, "rental_uris": {"android": "https://dc.lft.to/lastmile_qr_scan", "ios": "https://dc.lft.to/lastmile_qr_scan"}, "lat": 38.954143, "is_reserved": 0, "is_disabled": 0, "fusion_lat": 0.0}, {"fusion_lon": 0.0, "bike_id": "02458400410bcea29ca8f42b3c39d6f5", "name": "02458400410bcea29ca8f42b3c39d6f5", "type": "electric_scooter", "lon": -77.03289216666667, "rental_uris": {"android": "https://dc.lft.to/lastmile_qr_scan", "ios": "https://dc.lft.to/lastmile_qr_scan"}, "lat": 38.89914, "is_reserved": 0, "is_disabled": 0, "fusion_lat": 0.0}, {"fusion_lon": 0.0, "bike_id": "a501197f188f1ba630f0753233a5b676", "name": "a501197f188f1ba630f0753233a5b676", "type": "electric_scooter", "lon": -77.063895, "rental_uris": {"android": "https://dc.lft.to/lastmile_qr_scan", "ios": "https://dc.lft.to/lastmile_qr_scan"}, "lat": 38.929097166666665, "is_reserved": 0, "is_disabled": 0, "fusion_lat": 0.0}, {"fusion_lon": 0.0, "bike_id": "82cfe9127bb9189e7041b011cb6aa491", "name": "82cfe9127bb9189e7041b011cb6aa491", "type": "electric_scooter", "lon": -77.04506866666667, "rental_uris": {"android": "https://dc.lft.to/lastmile_qr_scan", "ios": "https://dc.lft.to/lastmile_qr_scan"}, "lat": 38.91276466666667, "is_reserved": 0, "is_disabled": 0, "fusion_lat": 0.0}, {"fusion_lon": 0.0, "bike_id": "c7bdafd1fa1eb585abdd832ddfd902c2", "name": "c7bdafd1fa1eb585abdd832ddfd902c2", "type": "electric_scooter", "lon": -77.060362, "rental_uris": {"android": "https://dc.lft.to/lastmile_qr_scan", "ios": "https://dc.lft.to/lastmile_qr_scan"}, "lat": 38.939158, "is_reserved": 0, "is_disabled": 0, "fusion_lat": 0.0}, {"fusion_lon": 0.0, "bike_id": "dd83cbc961b85f9b6e718571788e890f", "name": "dd83cbc961b85f9b6e718571788e890f", "type": "electric_scooter", "lon": -77.03257216666667, "rental_uris": {"android": "https://dc.lft.to/lastmile_qr_scan", "ios": "https://dc.lft.to/lastmile_qr_scan"}, "lat": 38.937464, "is_reserved": 0, "is_disabled": 0, "fusion_lat": 0.0}, {"fusion_lon": 0.0, "bike_id": "a3f1543ad2fde80b96487398868f3149", "name": "a3f1543ad2fde80b96487398868f3149", "type": "electric_scooter", "lon": -76.94122666666667, "rental_uris": {"android": "https://dc.lft.to/lastmile_qr_scan", "ios": "https://dc.lft.to/lastmile_qr_scan"}, "lat": 38.9079115, "is_reserved": 0, "is_disabled": 0, "fusion_lat": 0.0}, {"fusion_lon": 0.0, "bike_id": "f16cadc085eec76d209a10cecb2de6d5", "name": "f16cadc085eec76d209a10cecb2de6d5", "type": "electric_scooter", "lon": -77.04247266666667, "rental_uris": {"android": "https://dc.lft.to/lastmile_qr_scan", "ios": "https://dc.lft.to/lastmile_qr_scan"}, "lat": 38.945563666666665, "is_reserved": 0, "is_disabled": 0, "fusion_lat": 0.0}, {"fusion_lon": 0.0, "bike_id": "b17ce80b5e37f10a0ca9a22d3b6ff711", "name": "b17ce80b5e37f10a0ca9a22d3b6ff711", "type": "electric_scooter", "lon": -77.0231685, "rental_uris": {"android": "https://dc.lft.to/lastmile_qr_scan", "ios": "https://dc.lft.to/lastmile_qr_scan"}, "lat": 38.91618733333333, "is_reserved": 0, "is_disabled": 0, "fusion_lat": 0.0}, {"fusion_lon": 0.0, "bike_id": "2c6d6add2f90a37ac185c8444720e30f", "name": "2c6d6add2f90a37ac185c8444720e30f", "type": "electric_scooter", "lon": -77.00704, "rental_uris": {"android": "https://dc.lft.to/lastmile_qr_scan", "ios": "https://dc.lft.to/lastmile_qr_scan"}, "lat": 38.8967415, "is_reserved": 0, "is_disabled": 0, "fusion_lat": 0.0}, {"fusion_lon": 0.0, "bike_id": "63ad6fa5384def60354a351cb6c2fe27", "name": "63ad6fa5384def60354a351cb6c2fe27", "type": "electric_scooter", "lon": -77.02638066666667, "rental_uris": {"android": "https://dc.lft.to/lastmile_qr_scan", "ios": "https://dc.lft.to/lastmile_qr_scan"}, "lat": 38.98057816666667, "is_reserved": 0, "is_disabled": 0, "fusion_lat": 0.0}, {"fusion_lon": 0.0, "bike_id": "e92e147f670c1ce944e5b4dfce2ab83a", "name": "e92e147f670c1ce944e5b4dfce2ab83a", "type": "electric_bike", "lon": -76.94569833333334, "rental_uris": {"android": "https://dc.lft.to/lastmile_qr_scan", "ios": "https://dc.lft.to/lastmile_qr_scan"}, "lat": 38.866248, "is_reserved": 0, "is_disabled": 0, "fusion_lat": 0.0}, {"fusion_lon": 0.0, "bike_id": "456f18e18195b432955b33c1b9352376", "name": "456f18e18195b432955b33c1b9352376", "type": "electric_scooter", "lon": -77.01561383333333, "rental_uris": {"android": "https://dc.lft.to/lastmile_qr_scan", "ios": "https://dc.lft.to/lastmile_qr_scan"}, "lat": 38.89176616666666, "is_reserved": 0, "is_disabled": 0, "fusion_lat": 0.0}, {"fusion_lon": 0.0, "bike_id": "4486d69a7ada43a3e48edf469c04fe0d", "name": "4486d69a7ada43a3e48edf469c04fe0d", "type": "electric_scooter", "lon": -77.00054316666667, "rental_uris": {"android": "https://dc.lft.to/lastmile_qr_scan", "ios": "https://dc.lft.to/lastmile_qr_scan"}, "lat": 38.889005, "is_reserved": 0, "is_disabled": 0, "fusion_lat": 0.0}, {"fusion_lon": 0.0, "bike_id": "5daa4bb86a205ee0776fffeed1d14cae", "name": "5daa4bb86a205ee0776fffeed1d14cae", "type": "electric_scooter", "lon": -76.99683483333334, "rental_uris": {"android": "https://dc.lft.to/lastmile_qr_scan", "ios": "https://dc.lft.to/lastmile_qr_scan"}, "lat": 38.886986, "is_reserved": 0, "is_disabled": 0, "fusion_lat": 0.0}, {"fusion_lon": 0.0, "bike_id": "8d8563d5e30b2e3197a8ad9f1e840f65", "name": "8d8563d5e30b2e3197a8ad9f1e840f65", "type": "electric_scooter", "lon": -77.02607366666666, "rental_uris": {"android": "https://dc.lft.to/lastmile_qr_scan", "ios": "https://dc.lft.to/lastmile_qr_scan"}, "lat": 38.924447, "is_reserved": 0, "is_disabled": 0, "fusion_lat": 0.0}, {"fusion_lon": 0.0, "bike_id": "8cc68e39b1d9ebe58b5060d778ee7382", "name": "8cc68e39b1d9ebe58b5060d778ee7382", "type": "electric_scooter", "lon": -77.062137, "rental_uris": {"android": "https://dc.lft.to/lastmile_qr_scan", "ios": "https://dc.lft.to/lastmile_qr_scan"}, "lat": 38.905289833333335, "is_reserved": 0, "is_disabled": 0, "fusion_lat": 0.0},