{"data": {"bikes": [{"is_disabled": 0, "is_reserved": 0, "type": "electric_scooter", "lon": -77.0341745, "fusion_lon": 0.0, "lat": 38.90721933333333, "rental_uris": {"android": "https://dc.lft.to/lastmile_qr_scan", "ios": "https://dc.lft.to/lastmile_qr_scan"}, "fusion_lat": 0.0, "name": "9e41329cb505438ae97a4272143998a7", "bike_id": "9e41329cb505438ae97a4272143998a7"}, {"is_disabled": 0, "is_reserved": 0, "type": "electric_scooter", "lon": -77.04239583333333, "fusion_lon": 0.0, "lat": 38.919215, "rental_uris": {"android": "https://dc.lft.to/lastmile_qr_scan", "ios": "https://dc.lft.to/lastmile_qr_scan"}, "fusion_lat": 0.0, "name": "1c1a613871de5ee0338a82c385aa06dc", "bike_id": "1c1a613871de5ee0338a82c385aa06dc"}, {"is_disabled": 0, "is_reserved": 0, "type": "electric_scooter", "lon": -77.04031733333333, "fusion_lon": 0.0, "lat": 38.9057805, "rental_uris": {"android": "https://dc.lft.to/lastmile_qr_scan", "ios": "https://dc.lft.to/lastmile_qr_scan"}, "fusion_lat": 0.0, "name": "7bb1e64f51d28898e1a8383594723f1e", "bike_id": "7bb1e64f51d28898e1a8383594723f1e"}, {"is_disabled": 0, "is_reserved": 0, "type": "electric_scooter", "lon": -77.0429405, "fusion_lon": 0.0, "lat": 38.913383833333334, "rental_uris": {"android": "https://dc.lft.to/lastmile_qr_scan", "ios": "https://dc.lft.to/lastmile_qr_scan"}, "fusion_lat": 0.0, "name": "78c99a538dda75c4e0876b18a67ad06d", "bike_id": "78c99a538dda75c4e0876b18a67ad06d"}, {"is_disabled": 0, "is_reserved": 0, "type": "electric_scooter", "lon": -77.01975183333333, "fusion_lon": 0.0, "lat": 38.8935815, "rental_uris": {"android": "https://dc.lft.to/lastmile_qr_scan", "ios": "https://dc.lft.to/lastmile_qr_scan"}, "fusion_lat": 0.0, "name": "5ba22e28ef56210eef7e97e5ca763553", "bike_id": "5ba22e28ef56210eef7e97e5ca763553"}, {"is_disabled": 0, "is_reserved": 0, "type": "electric_scooter", "lon": -77.01609416666666, "fusion_lon": 0.0, "lat": 38.887472833333334, "rental_uris": {"android": "https://dc.lft.to/lastmile_qr_scan", "ios": "https://dc.lft.to/lastmile_qr_scan"}, "fusion_lat": 0.0, "name": "f87ba7d9ab6b200ae52d650b3cb30d69", "bike_id": "f87ba7d9ab6b200ae52d650b3cb30d69"}, {"is_disabled": 0, "is_reserved": 0, "type": "electric_scooter", "lon": -77.0857225, "fusion_lon": 0.0, "lat": 38.933547833333336, "rental_uris": {"android": "https://dc.lft.to/lastmile_qr_scan", "ios": "https://dc.lft.to/lastmile_qr_scan"}, "fusion_lat": 0.0, "name": "0f76384b0774ca5b604a42e943988461", "bike_id": "0f76384b0774ca5b604a42e943988461"}, {"is_disabled": 0, "is_reserved": 0, "type": "electric_scooter", "lon": -77.011707, "fusion_lon": 0.0, "lat": 38.915653166666665, "rental_uris": {"android": "https://dc.lft.to/lastmile_qr_scan", "ios": "https://dc.lft.to/lastmile_qr_scan"}, "fusion_lat": 0.0, "name": "80fa89e128034be623129f51b4e318c6", "bike_id": "80fa89e128034be623129f51b4e318c6"}, {"is_disabled": 0, "is_reserved": 0, "type": "electric_scooter", "lon": -77.0325385, "fusion_lon": 0.0, "lat": 38.9046765, "rental_uris": {"android": "https://dc.lft.to/lastmile_qr_scan", "ios": "https://dc.lft.to/lastmile_qr_scan"}, "fusion_lat": 0.0, "name": "1ffdd907190c4097a456ed65d0f809aa", "bike_id": "1ffdd907190c4097a456ed65d0f809aa"}, {"is_disabled": 0, "is_reserved": 0, "type": "electric_scooter", "lon": -77.0314265, "fusion_lon": 0.0, "lat": 38.90364733333333, "rental_uris": {"android": "https://dc.lft.to/lastmile_qr_scan", "ios": "https://dc.lft.to/lastmile_qr_scan"}, "fusion_lat": 0.0, "name": "65d842f84f757b9fc8fcfbfeaead7092", "bike_id": "65d842f84f757b9fc8fcfbfeaead7092"}, {"is_disabled": 0, "is_reserved": 0, "type": "electric_scooter", "lon": -76.99647216666666, "fusion_lon": 0.0, "lat": 38.887201, "rental_uris": {"android": "https://dc.lft.to/lastmile_qr_scan", "ios": "https://dc.lft.to/lastmile_qr_scan"}, "fusion_lat": 0.0, "name": "5a7727058ed5f85cf41d068b0657457d", "bike_id": "5a7727058ed5f85cf41d068b0657457d"}, {"is_disabled": 0, "is_reserved": 0, "type": "electric_bike", "lon": -77.002152, "fusion_lon": 0.0, "lat": 38.904835166666665, "rental_uris": {"android": "https://dc.lft.to/lastmile_qr_scan", "ios": "https://dc.lft.to/lastmile_qr_scan"}, "fusion_lat": 0.0, "name": "e520d317676264ff428c9cc5e67f1d6b", "bike_id": "e520d317676264ff428c9cc5e67f1d6b"}, {"is_disabled": 0, "is_reserved": 0, "type": "electric_scooter", "lon": -77.05789433333334, "fusion_lon": 0.0, "lat": 38.905082, "rental_uris": {"android": "https://dc.lft.to/lastmile_qr_scan", "ios": "https://dc.lft.to/lastmile_qr_scan"}, "fusion_lat": 0.0, "name": "1c6c5920cf71255f8b27557ee19086b8", "bike_id": "1c6c5920cf71255f8b27557ee19086b8"}, {"is_disabled": 0, "is_reserved": 0, "type": "electric_scooter", "lon": -77.04537466666666, "fusion_lon": 0.0, "lat": 38.903847999999996, "rental_uris": {"android": "https://dc.lft.to/lastmile_qr_scan", "ios": "https://dc.lft.to/lastmile_qr_scan"}, "fusion_lat": 0.0, "name": "5da5da6a8e1179de788682aa59c78e7a", "bike_id": "5da5da6a8e1179de788682aa59c78e7a"}, {"is_disabled": 0, "is_reserved": 0, "type": "electric_scooter", "lon": -77.0345875, "fusion_lon": 0.0, "lat": 38.90270733333333, "rental_uris": {"android": "https://dc.lft.to/lastmile_qr_scan", "ios": "https://dc.lft.to/lastmile_qr_scan"}, "fusion_lat": 0.0, "name": "42572dabddd38572a49404939448c8bd", "bike_id": "42572dabddd38572a49404939448c8bd"}, {"is_disabled": 0, "is_reserved": 0, "type": "electric_scooter", "lon": -77.02983916666666, "fusion_lon": 0.0, "lat": 38.907252166666666, "rental_uris": {"android": "https://dc.lft.to/lastmile_qr_scan", "ios": "https://dc.lft.to/lastmile_qr_scan"}, "fusion_lat": 0.0, "name": "c0c4f50838252a0662dea619e949f504", "bike_id": "c0c4f50838252a0662dea619e949f504"}, {"is_disabled": 0, "is_reserved": 0, "type": "electric_scooter", "lon": -76.97948766666667, "fusion_lon": 0.0, "lat": 38.905004, "rental_uris": {"android": "https://dc.lft.to/lastmile_qr_scan", "ios": "https://dc.lft.to/lastmile_qr_scan"}, "fusion_lat": 0.0, "name": "1eac832bc45b64b0d87da6cc34a583b0", "bike_id": "1eac832bc45b64b0d87da6cc34a583b0"}, {"is_disabled": 0, "is_reserved": 0, "type": "electric_scooter", "lon": -77.02005516666667, "fusion_lon": 0.0, "lat": 38.924128333333336, "rental_uris": {"android": "https://dc.lft.to/lastmile_qr_scan", "ios": "https://dc.lft.to/lastmile_qr_scan"}, "fusion_lat": 0.0, "name": "6b4db846ad9c6a40ca45ebb503f2af20", "bike_id": "6b4db846ad9c6a40ca45ebb503f2af20"}, {"is_disabled": 0, "is_reserved": 0, "type": "electric_scooter", "lon": -77.021596, "fusion_lon": 0.0, "lat": 38.89416533333333, "rental_uris": {"android": "https://dc.lft.to/lastmile_qr_scan", "ios": "https://dc.lft.to/lastmile_qr_scan"}, "fusion_lat": 0.0, "name": "d686b1d1853973309ef856ca1cd677bb", "bike_id": "d686b1d1853973309ef856ca1cd677bb"}, {"is_disabled": 0, "is_reserved": 0, "type": "electric_scooter", "lon": -77.028079, "fusion_lon": 0.0, "lat": 38.89620216666667, "rental_uris": {"android": "https://dc.lft.to/lastmile_qr_scan", "ios": "https://dc.lft.to/lastmile_qr_scan"}, "fusion_lat": 0.0, "name": "ea2171b616ad7f5994723009020fc3d4", "bike_id": "ea2171b616ad7f5994723009020fc3d4"}, {"is_disabled": 0, "is_reserved": 0, "type": "electric_scooter", "lon": -77.00571683333334, "fusion_lon": 0.0, "lat": 38.885041666666666, "rental_uris": {"android": "https://dc.lft.to/lastmile_qr_scan", "ios": "https://dc.lft.to/lastmile_qr_scan"}, "fusion_lat": 0.0, "name": "33212d68b8b2a2e20410df72352110ba", "bike_id": "33212d68b8b2a2e20410df72352110ba"}, {"is_disabled": 0, "is_reserved": 0, "type": "electric_scooter", "lon": -77.04413283333334, "fusion_lon": 0.0, "lat": 38.909039666666665, "rental_uris": {"android": "https://dc.lft.to/lastmile_qr_scan", "ios": "https://dc.lft.to/lastmile_qr_scan"}, "fusion_lat": 0.0, "name": "abeee57063c344e065e075e9b7ad09c7", "bike_id": "abeee57063c344e065e075e9b7ad09c7"}, {"is_disabled": 0, "is_reserved": 0, "type": "electric_bike", "lon": -76.96844366666667, "fusion_lon": 0.0, "lat": 38.92444883333334, "rental_uris": {"android": "https://dc.lft.to/lastmile_qr_scan", "ios": "https://dc.lft.to/lastmile_qr_scan"}, "fusion_lat": 0.0, "name": "3640728bac33c47308e07d8db17f6b61", "bike_id": "3640728bac33c47308e07d8db17f6b61"}, {"is_disabled": 0, "is_reserved": 0, "type": "electric_scooter", "lon": -77.0345145, "fusion_lon": 0.0, "lat": 38.96428483333333, "rental_uris": {"android": "https://dc.lft.to/lastmile_qr_scan", "ios": "https://dc.lft.to/lastmile_qr_scan"}, "fusion_lat": 0.0, "name": "ec9372c2a4ad41a38bc6899c2d08db06", "bike_id": "ec9372c2a4ad41a38bc6899c2d08db06"}, {"is_disabled": 0, "is_reserved": 0, "type": "electric_scooter", "lon": -77.02249483333334, "fusion_lon": 0.0, "lat": 38.89222933333333, "rental_uris": {"android": "https://dc.lft.to/lastmile_qr_scan", "ios": "https://dc.lft.to/lastmile_qr_scan"}, "fusion_lat": 0.0, "name": "cc6f13792b2618e6addc64f873b56b7b", "bike_id": "cc6f13792b2618e6addc64f873b56b7b"}, {"is_disabled": 0, "is_reserved": 0, "type": "electric_scooter", "lon": -77.04716833333333, "fusion_lon": 0.0, "lat": 38.8996105, "rental_uris": {"android": "https://dc.lft.to/lastmile_qr_scan", "ios": "https://dc.lft.to/lastmile_qr_scan"}, "fusion_lat": 0.0, "name": "d09ec4384777b1cccb4ca6142db3a830", "bike_id": "d09ec4384777b1cccb4ca6142db3a830"}, {"is_disabled": 0, "is_reserved": 0, "type": "electric_scooter", "lon": -77.03184433333334, "fusion_lon": 0.0, "lat": 38.90376766666667, "rental_uris": {"android": "https://dc.lft.to/lastmile_qr_scan", "ios": "https://dc.lft.to/lastmile_qr_scan"}, "fusion_lat": 0.0, "name": "f2444c1f4b2ced231567b8791efa1048", "bike_id": "f2444c1f4b2ced231567b8791efa1048"}, {"is_disabled": 0, "is_reserved": 0, "type": "electric_bike", "lon": -77.15270316666667, "fusion_lon": 0.0, "lat": 39.105653, "rental_uris": {"android": "https://dc.lft.to/lastmile_qr_scan", "ios": "https://dc.lft.to/lastmile_qr_scan"}, "fusion_lat": 0.0, "name": "dbea4004b03103ee5666607b817fd262", "bike_id": "dbea4004b03103ee5666607b817fd262"}, {"is_disabled": 0, "is_reserved": 0, "type": "electric_scooter", "lon": -76.9832715, "fusion_lon": 0.0, "lat": 38.86171266666667, "rental_uris": {"android": "https://dc.lft.to/lastmile_qr_scan", "ios": "https://dc.lft.to/lastmile_qr_scan"}, "fusion_lat": 0.0, "name": "7222a990e6c309bd9756bb60b51a8289", "bike_id": "7222a990e6c309bd9756bb60b51a8289"}, {"is_disabled": 0, "is_reserved": 0, "type": "electric_scooter", "lon": -77.04499166666666, "fusion_lon": 0.0, "lat": 38.89614016666667, "rental_uris": {"android": "https://dc.lft.to/lastmile_qr_scan", "ios": "https://dc.lft.to/lastmile_qr_scan"}, "fusion_lat": 0.0, "name": "c2c8d08b7393c5747b5b0d616be042c7", "bike_id": "c2c8d08b7393c5747b5b0d616be042c7"}, {"is_disabled": 0, "is_reserved": 0, "type": "electric_scooter", "lon": -77.05726016666667, "fusion_lon": 0.0, "lat": 38.933683, "rental_uris": {"android": "https://dc.lft.to/lastmile_qr_scan", "ios": "https://dc.lft.to/lastmile_qr_scan"}, "fusion_lat": 0.0, "name": "0a0a18ca3b3fc2573eb1af951e702cf2", "bike_id": "0a0a18ca3b3fc2573eb1af951e702cf2"}, {"is_disabled": 0, "is_reserved": 0, "type": "electric_scooter", "lon": -77.03682866666666, "fusion_lon": 0.0, "lat": 38.916833, "rental_uris": {"android": "https://dc.lft.to/lastmile_qr_scan", "ios": "https://dc.lft.to/lastmile_qr_scan"}, "fusion_lat": 0.0, "name": "fcdca3fa6f370c909d5061e20a1c8916", "bike_id": "fcdca3fa6f370c909d5061e20a1c8916"}, {"is_disabled": 0, "is_reserved": 0, "type": "electric_bike", "lon": -76.96090733333334, "fusion_lon": 0.0, "lat": 38.91868566666667, "rental_uris": {"android": "https://dc.lft.to/lastmile_qr_scan", "ios": "https://dc.lft.to/lastmile_qr_scan"}, "fusion_lat": 0.0, "name": "d522344813a8aff6743f81159eca9e0d", "bike_id": "d522344813a8aff6743f81159eca9e0d"}, {"is_disabled": 0, "is_reserved": 0, "type": "electric_scooter", "lon": -76.98886083333333, "fusion_lon": 0.0, "lat": 38.86671416666667, "rental_uris": {"android": "https://dc.lft.to/lastmile_qr_scan", "ios": "https://dc.lft.to/lastmile_qr_scan"}, "fusion_lat": 0.0, "name": "fdd863f4339f88a85f828267f91248f2", "bike_id": "fdd863f4339f88a85f828267f91248f2"}, {"is_disabled": 0, "is_reserved": 0, "type": "electric_bike", "lon": -77.00214, "fusion_lon": 0.0, "lat": 38.8194235, "rental_uris": {"android": "https://dc.lft.to/lastmile_qr_scan", "ios": "https://dc.lft.to/lastmile_qr_scan"}, "fusion_lat": 0.0, "name": "39cb0e3dfcd8bd170980053f5a3563fd", "bike_id": "39cb0e3dfcd8bd170980053f5a3563fd"}, {"is_disabled": 0, "is_reserved": 0, "type": "electric_scooter", "lon": -77.02402966666666, "fusion_lon": 0.0, "lat": 38.93099433333333, "rental_uris": {"android": "https://dc.lft.to/lastmile_qr_scan", "ios": "https://dc.lft.to/lastmile_qr_scan"}, "fusion_lat": 0.0, "name": "87989d6dabe7289dd03a5f0edd122641", "bike_id": "87989d6dabe7289dd03a5f0edd122641"}, {"is_disabled": 0, "is_reserved": 0, "type": "electric_scooter", "lon": -77.01064116666667, "fusion_lon": 0.0, "lat": 38.866708833333334, "rental_uris": {"android": "https://dc.lft.to/lastmile_qr_scan", "ios": "https://dc.lft.to/lastmile_qr_scan"}, "fusion_lat": 0.0, "name": "7247224f30d785b7cb524477c4ef36d1", "bike_id": "7247224f30d785b7cb524477c4ef36d1"}, {"is_disabled": 0, "is_reserved": 0, "type": "electric_scooter", "lon": -77.052234, "fusion_lon": 0.0, "lat": 38.8981395, "rental_uris": {"android": "https://dc.lft.to/lastmile_qr_scan", "ios": "https://dc.lft.to/lastmile_qr_scan"}, "fusion_lat": 0.0, "name": "66a7c8e2325a4a70adf0dc22286d5a31", "bike_id": "66a7c8e2325a4a70adf0dc22286d5a31"}, {"is_disabled": 0, "is_reserved": 0, "type": "electric_bike", "lon": -76.92764233333334, "fusion_lon": 0.0, "lat": 38.960334333333336, "rental_uris": {"android": "https://dc.lft.to/lastmile_qr_scan", "ios": "https://dc.lft.to/lastmile_qr_scan"}, "fusion_lat": 0.0, "name": "e30dd4220add4b8a45145f3503c4bff8", "bike_id": "e30dd4220add4b8a45145f3503c4bff8"}, {"is_disabled": 0, "is_reserved": 0, "type": "electric_scooter", "lon": -77.02671333333333, "fusion_lon": 0.0, "lat": 38.91266616666667, "rental_uris": {"android": "https://dc.lft.to/lastmile_qr_scan", "ios": "https://dc.lft.to/lastmile_qr_scan"}, "fusion_lat": 0.0, "name": "fd4debc19617a1a3e8c7107dfb81e81a", "bike_id": "fd4debc19617a1a3e8c7107dfb81e81a"}, {"is_disabled": 0, "is_reserved": 0, "type": "electric_bike", "lon": -77.0637795, "fusion_lon": 0.0, "lat": 39.01734616666667, "rental_uris": {"android": "https://dc.lft.to/lastmile_qr_scan", "ios": "https://dc.lft.to/lastmile_qr_scan"}, "fusion_lat": 0.0, "name": "8a10d8c34128d8942b68fff82a696a58", "bike_id": "8a10d8c34128d8942b68fff82a696a58"}, {"is_disabled": 0, "is_reserved": 0, "type": "electric_scooter", "lon": -77.00847566666667, "fusion_lon": 0.0, "lat": 38.88501766666667, "rental_uris": {"android": "https://dc.lft.to/lastmile_qr_scan", "ios": "https://dc.lft.to/lastmile_qr_scan"}, "fusion_lat": 0.0, "name": "47a91cc011dba49543467ea528c47f51", "bike_id": "47a91cc011dba49543467ea528c47f51"}, {"is_disabled": 0, "is_reserved": 0, "type": "electric_scooter", "lon": -77.000681, "fusion_lon": 0.0, "lat": 38.8743915, "rental_uris": {"android": "https://dc.lft.to/lastmile_qr_scan", "ios": "https://dc.lft.to/lastmile_qr_scan"}, "fusion_lat": 0.0, "name": "b88a4b83ef90cff753cb962ba5f6347c", "bike_id": "b88a4b83ef90cff753cb962ba5f6347c"}, {"is_disabled": 0, "is_reserved": 0, "type": "electric_scooter", "lon": -76.94943566666667, "fusion_lon": 0.0, "lat": 38.88318616666667, "rental_uris": {"android": "https://dc.lft.to/lastmile_qr_scan", "ios": "https://dc.lft.to/lastmile_qr_scan"}, "fusion_lat": 0.0, "name": "3a214622a2a6e3a99cb309f39f9efc15", "bike_id": "3a214622a2a6e3a99cb309f39f9efc15"}, {"is_disabled": 0, "is_reserved": 0, "type": "electric_scooter", "lon": -77.0390725, "fusion_lon": 0.0, "lat": 38.922578333333334, "rental_uris": {"android": "https://dc.lft.to/lastmile_qr_scan", "ios": "https://dc.lft.to/lastmile_qr_scan"}, "fusion_lat": 0.0, "name": "f49c24a23346b38560ae7b7c62185e4b", "bike_id": "f49c24a23346b38560ae7b7c62185e4b"}, {"is_disabled": 0, "is_reserved": 0, "type": "electric_scooter", "lon": -77.03223466666667, "fusion_lon": 0.0, "lat": 38.9074615, "rental_uris": {"android": "https://dc.lft.to/lastmile_qr_scan", "ios": "https://dc.lft.to/lastmile_qr_scan"}, "fusion_lat": 0.0, "name": "d85b64ee4ed2b0247cfd1df767f7ca0a", "bike_id": "d85b64ee4ed2b0247cfd1df767f7ca0a"}, {"is_disabled": 0, "is_reserved": 0, "type": "electric_scooter", "lon": -77.04053533333334, "fusion_lon": 0.0, "lat": 38.90439666666666, "rental_uris": {"android": "https://dc.lft.to/lastmile_qr_scan", "ios": "https://dc.lft.to/lastmile_qr_scan"}, "fusion_lat": 0.0, "name": "9774aee6e5902b5a7b8cb7b9bf20d721", "bike_id": "9774aee6e5902b5a7b8cb7b9bf20d721"}, {"is_disabled": 0, "is_reserved": 0, "type": "electric_scooter", "lon": -77.02189316666667, "fusion_lon": 0.0, "lat": 38.898623666666666, "rental_uris": {"android": "https://dc.lft.to/lastmile_qr_scan", "ios": "https://dc.lft.to/lastmile_qr_scan"}, "fusion_lat": 0.0, "name": "d93bf6e9e44def0e8c7de1302ea0c4f8", "bike_id": "d93bf6e9e44def0e8c7de1302ea0c4f8"}, {"is_disabled": 0, "is_reserved": 0, "type": "electric_scooter", "lon": -77.0242065, "fusion_lon": 0.0, "lat": 38.89362583333333, "rental_uris": {"android": "https://dc.lft.to/lastmile_qr_scan", "ios": "https://dc.lft.to/lastmile_qr_scan"}, "fusion_lat": 0.0, "name": "d471fe151abedeba41d98159af1fe35e", "bike_id": "d471fe151abedeba41d98159af1fe35e"}, {"is_disabled": 0, "is_reserved": 0, "type": "electric_scooter", "lon": -77.094444, "fusion_lon": 0.0, "lat": 38.91781366666667, "rental_uris": {"android": "https://dc.lft.to/lastmile_qr_scan", "ios": "https://dc.lft.to/lastmile_qr_scan"}, "fusion_lat": 0.0, "name": "2fd32cd27eb3c0a47a350a50ac60b4f3", "bike_id": "2fd32cd27eb3c0a47a350a50ac60b4f3"}, {"is_disabled": 0, "is_reserved": 0, "type": "electric_scooter", "lon": -77.00305233333333, "fusion_lon": 0.0, "lat": 38.892222833333335, "rental_uris": {"android": "https://dc.lft.to/lastmile_qr_scan", "ios": "https://dc.lft.to/lastmile_qr_scan"}, "fusion_lat": 0.0, "name": "827858210b4fda5c0d5c9f96e6d9ebee", "bike_id": "827858210b4fda5c0d5c9f96e6d9ebee"}, {"is_disabled": 0, "is_reserved": 0, "type": "electric_bike", "lon": -77.0185045, "fusion_lon": 0.0, "lat": 38.931057833333334, "rental_uris": {"android": "https://dc.lft.to/lastmile_qr_scan", "ios": "https://dc.lft.to/lastmile_qr_scan"}, "fusion_lat": 0.0, "name": "053b9b4529093238c091e963c51b27f9", "bike_id": "053b9b4529093238c091e963c51b27f9"}, {"is_disabled": 0, "is_reserved": 0, "type": "electric_scooter", "lon": -77.04158, "fusion_lon": 0.0, "lat": 38.923324666666666, "rental_uris": {"android": "https://dc.lft.to/lastmile_qr_scan", "ios": "https://dc.lft.to/lastmile_qr_scan"}, "fusion_lat": 0.0, "name": "9a34f8557ebb98d4527f2a1a3b479a83", "bike_id": "9a34f8557ebb98d4527f2a1a3b479a83"}, {"is_disabled": 0, "is_reserved": 0, "type": "electric_scooter", "lon": -77.00444883333333, "fusion_lon": 0.0, "lat": 38.9072545, "rental_uris": {"android": "https://dc.lft.to/lastmile_qr_scan", "ios": "https://dc.lft.to/lastmile_qr_scan"}, "fusion_lat": 0.0, "name": "a5eb1b0dae7b046590980d622fe5e946", "bike_id": "a5eb1b0dae7b046590980d622fe5e946"}, {"is_disabled": 0, "is_reserved": 0, "type": "electric_scooter", "lon": -76.93108, "fusion_lon": 0.0, "lat": 38.88013333333333, "rental_uris": {"android": "https://dc.lft.to/lastmile_qr_scan", "ios": "https://dc.lft.to/lastmile_qr_scan"}, "fusion_lat": 0.0, "name": "19343fdc939d128b01d08caa9617b53c", "bike_id": "19343fdc939d128b01d08caa9617b53c"}, {"is_disabled": 0, "is_reserved": 0, "type": "electric_scooter", "lon": -77.05924966666667, "fusion_lon": 0.0, "lat": 38.936667, "rental_uris": {"android": "https://dc.lft.to/lastmile_qr_scan", "ios": "https://dc.lft.to/lastmile_qr_scan"}, "fusion_lat": 0.0, "name": "1bfd5710f1dc905882ad2dd9f24aed92", "bike_id": "1bfd5710f1dc905882ad2dd9f24aed92"}, {"is_disabled": 0, "is_reserved": 0, "type": "electric_scooter", "lon": -77.02838016666666, "fusion_lon": 0.0, "lat": 38.8952605, "rental_uris": {"android": "https://dc.lft.to/lastmile_qr_scan", "ios": "https://dc.lft.to/lastmile_qr_scan"}, "fusion_lat": 0.0, "name": "f955207fdf6c945a9ee0d64295aa0053", "bike_id": "f955207fdf6c945a9ee0d64295aa0053"}, {"is_disabled": 0, "is_reserved": 0, "type": "electric_bike", "lon": -77.01584166666666, "fusion_lon": 0.0, "lat": 39.046359333333335, "rental_uris": {"android": "https://dc.lft.to/lastmile_qr_scan", "ios": "https://dc.lft.to/lastmile_qr_scan"}, "fusion_lat": 0.0, "name": "8b1842fd94c555e14c0facb1a5037e81", "bike_id": "8b1842fd94c555e14c0facb1a5037e81"}, {"is_disabled": 0, "is_reserved": 0, "type": "electric_scooter", "lon": -76.98910516666666, "fusion_lon": 0.0, "lat": 38.86659683333333, "rental_uris": {"android": "https://dc.lft.to/lastmile_qr_scan", "ios": "https://dc.lft.to/lastmile_qr_scan"}, "fusion_lat": 0.0, "name": "73e5368ccbed467b0eadfcc7c4542a34", "bike_id": "73e5368ccbed467b0eadfcc7c4542a34"}, {"is_disabled": 0, "is_reserved": 0, "type": "electric_scooter", "lon": -76.98094116666667, "fusion_lon": 0.0, "lat": 38.85719816666667, "rental_uris": {"android": "https://dc.lft.to/lastmile_qr_scan", "ios": "https://dc.lft.to/lastmile_qr_scan"}, "fusion_lat": 0.0, "name": "9082c533695c4bd9073ed0351dee37bc", "bike_id": "9082c533695c4bd9073ed0351dee37bc"}, {"is_disabled": 0, "is_reserved": 0, "type": "electric_scooter", "lon": -77.0454575, "fusion_lon": 0.0, "lat": 38.90134283333333, "rental_uris": {"android": "https://dc.lft.to/lastmile_qr_scan", "ios": "https://dc.lft.to/lastmile_qr_scan"}, "fusion_lat": 0.0, "name": "b822df883556d798e81222b9e36491ac", "bike_id": "b822df883556d798e81222b9e36491ac"}, {"is_disabled": 0, "is_reserved": 0, "type": "electric_scooter", "lon": -76.9691735, "fusion_lon": 0.0, "lat": 38.85525616666666, "rental_uris": {"android": "https://dc.lft.to/lastmile_qr_scan", "ios": "https://dc.lft.to/lastmile_qr_scan"}, "fusion_lat": 0.0, "name": "a185260cc311c4d0aafc5d0a7a5f2628", "bike_id": "a185260cc311c4d0aafc5d0a7a5f2628"}, {"is_disabled": 0, "is_reserved": 0, "type": "electric_scooter", "lon": -77.05097133333334, "fusion_lon": 0.0, "lat": 38.92344283333333, "rental_uris": {"android": "https://dc.lft.to/lastmile_qr_scan", "ios": "https://dc.lft.to/lastmile_qr_scan"}, "fusion_lat": 0.0, "name": "e366e3b2a288282ea363ecb8003a4e2f", "bike_id": "e366e3b2a288282ea363ecb8003a4e2f"}, {"is_disabled": 0, "is_reserved": 0, "type": "electric_scooter", "lon": -77.04216316666667, "fusion_lon": 0.0, "lat": 38.90744566666667, "rental_uris": {"android": "https://dc.lft.to/lastmile_qr_scan", "ios": "https://dc.lft.to/lastmile_qr_scan"}, "fusion_lat": 0.0, "name": "b0128f7a4c1ec3590d011d54628f40f6", "bike_id": "b0128f7a4c1ec3590d011d54628f40f6"}, {"is_disabled": 0, "is_reserved": 0, "type": "electric_scooter", "lon": -77.04284366666667, "fusion_lon": 0.0, "lat": 38.91111316666667, "rental_uris": {"android": "https://dc.lft.to/lastmile_qr_scan", "ios": "https://dc.lft.to/lastmile_qr_scan"}, "fusion_lat": 0.0, "name": "6fe9ec762c214fd728d1f434f9eeaf07", "bike_id": "6fe9ec762c214fd728d1f434f9eeaf07"}, {"is_disabled": 0, "is_reserved": 0, "type": "electric_scooter", "lon": -77.0330595, "fusion_lon": 0.0, "lat": 38.92879116666667, "rental_uris": {"android": "https://dc.lft.to/lastmile_qr_scan", "ios": "https://dc.lft.to/lastmile_qr_scan"}, "fusion_lat": 0.0, "name": "759d51e3f778abcb1f9ae061d710d0d3", "bike_id": "759d51e3f778abcb1f9ae061d710d0d3"}, {"is_disabled": 0, "is_reserved": 0, "type": "electric_bike", "lon": -77.18295033333334, "fusion_lon": 0.0, "lat": 38.883449166666665, "rental_uris": {"android": "https://dc.lft.to/lastmile_qr_scan", "ios": "https://dc.lft.to/lastmile_qr_scan"}, "fusion_lat": 0.0, "name": "9245f3d29f50f133abd36bf5ed111457", "bike_id": "9245f3d29f50f133abd36bf5ed111457"}, {"is_disabled": 0, "is_reserved": 0, "type": "electric_scooter", "lon": -77.02463883333333, "fusion_lon": 0.0, "lat": 38.93905183333333, "rental_uris": {"android": "https://dc.lft.to/lastmile_qr_scan", "ios": "https://dc.lft.to/lastmile_qr_scan"}, "fusion_lat": 0.0, "name": "5683dba87ab578ad83529febea73def8", "bike_id": "5683dba87ab578ad83529febea73def8"}, {"is_disabled": 0, "is_reserved": 0, "type": "electric_scooter", "lon": -77.03762933333333, "fusion_lon": 0.0, "lat": 38.92900733333333, "rental_uris": {"android": "https://dc.lft.to/lastmile_qr_scan", "ios": "https://dc.lft.to/lastmile_qr_scan"}, "fusion_lat": 0.0, "name": "d39a02037f95b2ce288a414e2d1bbbf5", "bike_id": "d39a02037f95b2ce288a414e2d1bbbf5"}, {"is_disabled": 0, "is_reserved": 0, "type": "electric_scooter", "lon": -77.05788416666667, "fusion_lon": 0.0, "lat": 38.934811833333335, "rental_uris": {"android": "https://dc.lft.to/lastmile_qr_scan", "ios": "https://dc.lft.to/lastmile_qr_scan"}, "fusion_lat": 0.0, "name": "d65872c3cacbcad6b7f4e9e560b0c7af", "bike_id": "d65872c3cacbcad6b7f4e9e560b0c7af"}, {"is_disabled": 0, "is_reserved": 0, "type": "electric_scooter", "lon": -77.01959666666667, "fusion_lon": 0.0, "lat": 38.93037483333333, "rental_uris": {"android": "https://dc.lft.to/lastmile_qr_scan", "ios": "https://dc.lft.to/lastmile_qr_scan"}, "fusion_lat": 0.0, "name": "24cf8dae798f8841ac335b5c5afc8b9d", "bike_id": "24cf8dae798f8841ac335b5c5afc8b9d"}, {"is_disabled": 0, "is_reserved": 0, "type": "electric_scooter", "lon": -76.96528166666667, "fusion_lon": 0.0, "lat": 38.87626983333333, "rental_uris": {"android": "https://dc.lft.to/lastmile_qr_scan", "ios": "https://dc.lft.to/lastmile_qr_scan"}, "fusion_lat": 0.0, "name": "8c9d1a31295c13505ddda124c0cf0da3", "bike_id": "8c9d1a31295c13505ddda124c0cf0da3"}, {"is_disabled": 0, "is_reserved": 0, "type": "electric_scooter", "lon": -77.02229266666667, "fusion_lon": 0.0, "lat": 38.914594, "rental_uris": {"android": "https://dc.lft.to/lastmile_qr_scan", "ios": "https://dc.lft.to/lastmile_qr_scan"}, "fusion_lat": 0.0, "name": "85bf08e71735dda7bc4684be2a0c229f", "bike_id": "85bf08e71735dda7bc4684be2a0c229f"}, {"is_disabled": 0, "is_reserved": 0, "type": "electric_scooter", "lon": -77.03149083333334, "fusion_lon": 0.0, "lat": 38.9202405, "rental_uris": {"android": "https://dc.lft.to/lastmile_qr_scan", "ios": "https://dc.lft.to/lastmile_qr_scan"}, "fusion_lat": 0.0, "name": "58fe29695c33e5afd8ab2083174bb8c8", "bike_id": "58fe29695c33e5afd8ab2083174bb8c8"}, {"is_disabled": 0, "is_reserved": 0, "type": "electric_scooter", "lon": -77.05522416666666, "fusion_lon": 0.0, "lat": 38.93013233333333, "rental_uris": {"android": "https://dc.lft.to/lastmile_qr_scan", "ios": "https://dc.lft.to/lastmile_qr_scan"}, "fusion_lat": 0.0, "name": "add1695a1330963c2758cffe67306277", "bike_id": "add1695a1330963c2758cffe67306277"}, {"is_disabled": 0, "is_reserved": 0, "type": "electric_scooter", "lon": -77.0448875, "fusion_lon": 0.0, "lat": 38.912368, "rental_uris": {"android": "https://dc.lft.to/lastmile_qr_scan", "ios": "https://dc.lft.to/lastmile_qr_scan"}, "fusion_lat": 0.0, "name": "abf7cdc4413c21739e85cd02146fdea8", "bike_id": "abf7cdc4413c21739e85cd02146fdea8"}, {"is_disabled": 0, "is_reserved": 0, "type": "electric_scooter", "lon": -77.01917866666666, "fusion_lon": 0.0, "lat": 38.904029333333334, "rental_uris": {"android": "https://dc.lft.to/lastmile_qr_scan", "ios": "https://dc.lft.to/lastmile_qr_scan"}, "fusion_lat": 0.0, "name": "f9dce91834ebf9ca1c2cc8c68a204d6a", "bike_id": "f9dce91834ebf9ca1c2cc8c68a204d6a"}, {"is_disabled": 0, "is_reserved": 0, "type": "electric_scooter", "lon": -77.0257285, "fusion_lon": 0.0, "lat": 38.892174, "rental_uris": {"android": "https://dc.lft.to/lastmile_qr_scan", "ios": "https://dc.lft.to/lastmile_qr_scan"}, "fusion_lat": 0.0, "name": "37fbcd99ea99dd50530c1e4d29abf17f", "bike_id": "37fbcd99ea99dd50530c1e4d29abf17f"}, {"is_disabled": 0, "is_reserved": 0, "type": "electric_bike", "lon": -76.97083283333333, "fusion_lon": 0.0, "lat": 38.89218183333333, "rental_uris": {"android": "https://dc.lft.to/lastmile_qr_scan", "ios": "https://dc.lft.to/lastmile_qr_scan"}, "fusion_lat": 0.0, "name": "b3a396a0f0a060cb38612d04e5246e26", "bike_id": "b3a396a0f0a060cb38612d04e5246e26"}, {"is_disabled": 0, "is_reserved": 0, "type": "electric_scooter", "lon": -77.016287, "fusion_lon": 0.0, "lat": 38.878782, "rental_uris": {"android": "https://dc.lft.to/lastmile_qr_scan", "ios": "https://dc.lft.to/lastmile_qr_scan"}, "fusion_lat": 0.0, "name": "822083c047c1dcd18c0ff2d7868998d3", "bike_id": "822083c047c1dcd18c0ff2d7868998d3"}, {"is_disabled": 0, "is_reserved": 0, "type": "electric_scooter", "lon": -77.03874883333333, "fusion_lon": 0.0, "lat": 38.9081435, "rental_uris": {"android": "https://dc.lft.to/lastmile_qr_scan", "ios": "https://dc.lft.to/lastmile_qr_scan"}, "fusion_lat": 0.0, "name": "bea28d36c4e7fd376cdd5347d0a0b952", "bike_id": "bea28d36c4e7fd376cdd5347d0a0b952"}, {"is_disabled": 0, "is_reserved": 0, "type": "electric_scooter", "lon": -77.03090383333333, "fusion_lon": 0.0, "lat": 38.946785166666665, "rental_uris": {"android": "https://dc.lft.to/lastmile_qr_scan", "ios": "https://dc.lft.to/lastmile_qr_scan"}, "fusion_lat": 0.0, "name": "574d772fb79a2062ab36f1c2c171241a", "bike_id": "574d772fb79a2062ab36f1c2c171241a"}, {"is_disabled": 0, "is_reserved": 0, "type": "electric_scooter", "lon": -77.04620716666666, "fusion_lon": 0.0, "lat": 38.9232035, "rental_uris": {"android": "https://dc.lft.to/lastmile_qr_scan", "ios": "https://dc.lft.to/lastmile_qr_scan"}, "fusion_lat": 0.0, "name": "abe5c242e71f4c0baae689a80c4487a1", "bike_id": "abe5c242e71f4c0baae689a80c4487a1"}, {"is_disabled": 0, "is_reserved": 0, "type": "electric_scooter", "lon": -77.0475165, "fusion_lon": 0.0, "lat": 38.90540583333333, "rental_uris": {"android": "https://dc.lft.to/lastmile_qr_scan", "ios": "https://dc.lft.to/lastmile_qr_scan"}, "fusion_lat": 0.0, "name": "8c15ec634cb603fc79cdf77f9a917faa", "bike_id": "8c15ec634cb603fc79cdf77f9a917faa"}, {"is_disabled": 0, "is_reserved": 0, "type": "electric_scooter", "lon": -77.02963683333333, "fusion_lon": 0.0, "lat": 38.921466333333335, "rental_uris": {"android": "https://dc.lft.to/lastmile_qr_scan", "ios": "https://dc.lft.to/lastmile_qr_scan"}, "fusion_lat": 0.0, "name": "48812c385c9e7d356f5a86ee2ded9d7b", "bike_id": "48812c385c9e7d356f5a86ee2ded9d7b"}, {"is_disabled": 0, "is_reserved": 0, "type": "electric_bike", "lon": -76.9653545, "fusion_lon": 0.0, "lat": 38.918830166666666, "rental_uris": {"android": "https://dc.lft.to/lastmile_qr_scan", "ios": "https://dc.lft.to/lastmile_qr_scan"}, "fusion_lat": 0.0, "name": "44cbb727ad2dbfd37c7dd852af36d6f2", "bike_id": "44cbb727ad2dbfd37c7dd852af36d6f2"}, {"is_disabled": 0, "is_reserved": 0, "type": "electric_scooter", "lon": -77.02497466666667, "fusion_lon": 0.0, "lat": 38.91807983333333, "rental_uris": {"android": "https://dc.lft.to/lastmile_qr_scan", "ios": "https://dc.lft.to/lastmile_qr_scan"}, "fusion_lat": 0.0, "name": "635d73ad702720e1ec739d578b1bbd0c", "bike_id": "635d73ad702720e1ec739d578b1bbd0c"}, {"is_disabled": 0, "is_reserved": 0, "type": "electric_scooter", "lon": -77.04326266666666, "fusion_lon": 0.0, "lat": 38.900757166666665, "rental_uris": {"android": "https://dc.lft.to/lastmile_qr_scan", "ios": "https://dc.lft.to/lastmile_qr_scan"}, "fusion_lat": 0.0, "name": "707320497d8428d142fc3dfd4f123646", "bike_id": "707320497d8428d142fc3dfd4f123646"}, {"is_disabled": 0, "is_reserved": 0, "type": "electric_scooter", "lon": -77.0380435, "fusion_lon": 0.0, "lat": 38.93226116666666, "rental_uris": {"android": "https://dc.lft.to/lastmile_qr_scan", "ios": "https://dc.lft.to/lastmile_qr_scan"}, "fusion_lat": 0.0, "name": "b065470a09bc586574e13c2120d2553d", "bike_id": "b065470a09bc586574e13c2120d2553d"}, {"is_disabled": 0, "is_reserved": 0, "type": "electric_scooter", "lon": -77.0386515, "fusion_lon": 0.0, "lat": 38.90384, "rental_uris": {"android": "https://dc.lft.to/lastmile_qr_scan", "ios": "https://dc.lft.to/lastmile_qr_scan"}, "fusion_lat": 0.0, "name": "535586dffa7643f24294d2c0c3e8dcd1", "bike_id": "535586dffa7643f24294d2c0c3e8dcd1"}, {"is_disabled": 0, "is_reserved": 0, "type": "electric_scooter", "lon": -77.03206183333333, "fusion_lon": 0.0, "lat": 38.908202833333334, "rental_uris": {"android": "https://dc.lft.to/lastmile_qr_scan", "ios": "https://dc.lft.to/lastmile_qr_scan"}, "fusion_lat": 0.0, "name": "7d60db7861a30e105dd36ada10bee47e", "bike_id": "7d60db7861a30e105dd36ada10bee47e"}, {"is_disabled": 0, "is_reserved": 0, "type": "electric_scooter", "lon": -77.03557533333333, "fusion_lon": 0.0, "lat": 38.925056833333336, "rental_uris": {"android": "https://dc.lft.to/lastmile_qr_scan", "ios": "https://dc.lft.to/lastmile_qr_scan"}, "fusion_lat": 0.0, "name": "c612fd1af74dc122cf9d60b321927c38", "bike_id": "c612fd1af74dc122cf9d60b321927c38"}, {"is_disabled": 0, "is_reserved": 0, "type": "electric_scooter", "lon": -76.98569766666667, "fusion_lon": 0.0, "lat": 38.8605865, "rental_uris": {"android": "https://dc.lft.to/lastmile_qr_scan", "ios": "https://dc.lft.to/lastmile_qr_scan"}, "fusion_lat": 0.0, "name": "dad5d7159552ffca655b7f1bf88fef73", "bike_id": "dad5d7159552ffca655b7f1bf88fef73"}, {"is_disabled": 0, "is_reserved": 0, "type": "electric_scooter", "lon": -77.022638, "fusion_lon": 0.0, "lat": 38.92743083333333, "rental_uris": {"android": "https://dc.lft.to/lastmile_qr_scan", "ios": "https://dc.lft.to/lastmile_qr_scan"}, "fusion_lat": 0.0, "name": "ed7ac39ef11bc63a927d52195ab21154", "bike_id": "ed7ac39ef11bc63a927d52195ab21154"}, {"is_disabled": 0, "is_reserved": 0, "type": "electric_scooter", "lon": -77.064709, "fusion_lon": 0.0, "lat": 38.9050675, "rental_uris": {"android": "https://dc.lft.to/lastmile_qr_scan", "ios": "https://dc.lft.to/lastmile_qr_scan"}, "fusion_lat": 0.0, "name": "bb31ac292f8f2dbb622741c853763762", "bike_id": "bb31ac292f8f2dbb622741c853763762"}, {"is_disabled": 0, "is_reserved": 0, "type": "electric_bike", "lon": -76.984377, "fusion_lon": 0.0, "lat": 38.85512516666667, "rental_uris": {"android": "https://dc.lft.to/lastmile_qr_scan", "ios": "https://dc.lft.to/lastmile_qr_scan"}, "fusion_lat": 0.0, "name": "a065408c6637e26f396f36ec3143daff", "bike_id": "a065408c6637e26f396f36ec3143daff"}, {"is_disabled": 0, "is_reserved": 0, "type": "electric_scooter", "lon": -77.06176366666666, "fusion_lon": 0.0, "lat": 38.90688083333333, "rental_uris": {"android": "https://dc.lft.to/lastmile_qr_scan", "ios": "https://dc.lft.to/lastmile_qr_scan"}, "fusion_lat": 0.0, "name": "ed471418e514e0af036a2321b83c06d4", "bike_id": "ed471418e514e0af036a2321b83c06d4"}, {"is_disabled": 0, "is_reserved": 0, "type": "electric_scooter", "lon": -77.048944, "fusion_lon": 0.0, "lat": 38.892504, "rental_uris": {"android": "https://dc.lft.to/lastmile_qr_scan", "ios": "https://dc.lft.to/lastmile_qr_scan"}, "fusion_lat": 0.0, "name": "270a39fc33ef8ea8a4fab01a72a62de1", "bike_id": "270a39fc33ef8ea8a4fab01a72a62de1"}, {"is_disabled": 0, "is_reserved": 0, "type": "electric_bike", "lon": -77.0022935, "fusion_lon": 0.0, "lat": 38.957469, "rental_uris": {"android": "https://dc.lft.to/lastmile_qr_scan", "ios": "https://dc.lft.to/lastmile_qr_scan"}, "fusion_lat": 0.0, "name": "7ebffba32d9773de323ba14af32a9a81", "bike_id": "7ebffba32d9773de323ba14af32a9a81"}, {"is_disabled": 0, "is_reserved": 0, "type": "electric_scooter", "lon": -77.043956, "fusion_lon": 0.0, "lat": 38.92266516666667, "rental_uris": {"android": "https://dc.lft.to/lastmile_qr_scan", "ios": "https://dc.lft.to/lastmile_qr_scan"}, "fusion_lat": 0.0, "name": "de3502d09d7fb31552ce738696839307", "bike_id": "de3502d09d7fb31552ce738696839307"}, {"is_disabled": 0, "is_reserved": 0, "type": "electric_scooter", "lon": -77.00334166666667, "fusion_lon": 0.0, "lat": 38.893648666666664, "rental_uris": {"android": "https://dc.lft.to/lastmile_qr_scan", "ios": "https://dc.lft.to/lastmile_qr_scan"}, "fusion_lat": 0.0, "name": "b3341c9245e12ffad0ece9fc1d256f68", "bike_id": "b3341c9245e12ffad0ece9fc1d256f68"}, {"is_disabled": 0, "is_reserved": 0, "type": "electric_scooter", "lon": -76.98714466666667, "fusion_lon": 0.0, "lat": 38.866983, "rental_uris": {"android": "https://dc.lft.to/lastmile_qr_scan", "ios": "https://dc.lft.to/lastmile_qr_scan"}, "fusion_lat": 0.0, "name": "e4c145cca75683be30a69799cd6104ec", "bike_id": "e4c145cca75683be30a69799cd6104ec"}, {"is_disabled": 0, "is_reserved": 0, "type": "electric_scooter", "lon": -77.01649916666666, "fusion_lon": 0.0, "lat": 38.883090333333335, "rental_uris": {"android": "https://dc.lft.to/lastmile_qr_scan", "ios": "https://dc.lft.to/lastmile_qr_scan"}, "fusion_lat": 0.0, "name": "4c0b2f8add4ab83e3de147e35d8bd00d", "bike_id": "4c0b2f8add4ab83e3de147e35d8bd00d"}, {"is_disabled": 0, "is_reserved": 0, "type": "electric_scooter", "lon": -77.0280405, "fusion_lon": 0.0, "lat": 38.96177466666666, "rental_uris": {"android": "https://dc.lft.to/lastmile_qr_scan", "ios": "https://dc.lft.to/lastmile_qr_scan"}, "fusion_lat": 0.0, "name": "ce27c9429949fab22af88241855785c1", "bike_id": "ce27c9429949fab22af88241855785c1"}, {"is_disabled": 0, "is_reserved": 0, "type": "electric_scooter", "lon": -77.00833183333333, "fusion_lon": 0.0, "lat": 38.87659933333333, "rental_uris": {"android": "https://dc.lft.to/lastmile_qr_scan", "ios": "https://dc.lft.to/lastmile_qr_scan"}, "fusion_lat": 0.0, "name": "460ae1ca7af9589ad47d7dab0d6c2000", "bike_id": "460ae1ca7af9589ad47d7dab0d6c2000"}, {"is_disabled": 0, "is_reserved": 0, "type": "electric_bike", "lon": -76.908182, "fusion_lon": 0.0, "lat": 38.99454333333333, "rental_uris": {"android": "https://dc.lft.to/lastmile_qr_scan", "ios": "https://dc.lft.to/lastmile_qr_scan"}, "fusion_lat": 0.0, "name": "99e6add1371b004991376b7c895f6e8e", "bike_id": "99e6add1371b004991376b7c895f6e8e"}, {"is_disabled": 0, "is_reserved": 0, "type": "electric_scooter", "lon": -77.05099783333333, "fusion_lon": 0.0, "lat": 38.92349183333333, "rental_uris": {"android": "https://dc.lft.to/lastmile_qr_scan", "ios": "https://dc.lft.to/lastmile_qr_scan"}, "fusion_lat": 0.0, "name": "f22b66559dfb351478e8dae410172f4d", "bike_id": "f22b66559dfb351478e8dae410172f4d"}, {"is_disabled": 0, "is_reserved": 0, "type": "electric_scooter", "lon": -76.94894433333333, "fusion_lon": 0.0, "lat": 38.8952735, "rental_uris": {"android": "https://dc.lft.to/lastmile_qr_scan", "ios": "https://dc.lft.to/lastmile_qr_scan"}, "fusion_lat": 0.0, "name": "23cab62028c3badc8bc8710686b812ab", "bike_id": "23cab62028c3badc8bc8710686b812ab"}, {"is_disabled": 0, "is_reserved": 0, "type": "electric_scooter", "lon": -77.05906766666666, "fusion_lon": 0.0, "lat": 38.90082733333333, "rental_uris": {"android": "https://dc.lft.to/lastmile_qr_scan", "ios": "https://dc.lft.to/lastmile_qr_scan"}, "fusion_lat": 0.0, "name": "b9386fbff8bde83a5482b9fe4aaebf84", "bike_id": "b9386fbff8bde83a5482b9fe4aaebf84"}, {"is_disabled": 0, "is_reserved": 0, "type": "electric_bike", "lon": -76.97898133333334, "fusion_lon": 0.0, "lat": 38.854944333333336, "rental_uris": {"android": "https://dc.lft.to/lastmile_qr_scan", "ios": "https://dc.lft.to/lastmile_qr_scan"}, "fusion_lat": 0.0, "name": "c452a155335c4ab07267bb75377ba3ab", "bike_id": "c452a155335c4ab07267bb75377ba3ab"}, {"is_disabled": 0, "is_reserved": 0, "type": "electric_scooter", "lon": -77.00339933333333, "fusion_lon": 0.0, "lat": 38.883109833333336, "rental_uris": {"android": "https://dc.lft.to/lastmile_qr_scan", "ios": "https://dc.lft.to/lastmile_qr_scan"}, "fusion_lat": 0.0, "name": "ca0b1a49b5840cfdbff184efebc00536", "bike_id": "ca0b1a49b5840cfdbff184efebc00536"}, {"is_disabled": 0, "is_reserved": 0, "type": "electric_scooter", "lon": -76.99866, "fusion_lon": 0.0, "lat": 38.90013233333333, "rental_uris": {"android": "https://dc.lft.to/lastmile_qr_scan", "ios": "https://dc.lft.to/lastmile_qr_scan"}, "fusion_lat": 0.0, "name": "7eebfd679adb7c07d9710b2927237adf", "bike_id": "7eebfd679adb7c07d9710b2927237adf"}, {"is_disabled": 0, "is_reserved": 0, "type": "electric_scooter", "lon": -77.04894583333333, "fusion_lon": 0.0, "lat": 38.90111, "rental_uris": {"android": "https://dc.lft.to/lastmile_qr_scan", "ios": "https://dc.lft.to/lastmile_qr_scan"}, "fusion_lat": 0.0, "name": "102612471165c3ae3260d63d2ff0efd7", "bike_id": "102612471165c3ae3260d63d2ff0efd7"}, {"is_disabled": 0, "is_reserved": 0, "type": "electric_scooter", "lon": -77.0293765, "fusion_lon": 0.0, "lat": 38.89525183333333, "rental_uris": {"android": "https://dc.lft.to/lastmile_qr_scan", "ios": "https://dc.lft.to/lastmile_qr_scan"}, "fusion_lat": 0.0, "name": "2944861ba3f1743209c909c4ea20edee", "bike_id": "2944861ba3f1743209c909c4ea20edee"}, {"is_disabled": 0, "is_reserved": 0, "type": "electric_scooter", "lon": -77.03745283333333, "fusion_lon": 0.0, "lat": 38.911939333333336, "rental_uris": {"android": "https://dc.lft.to/lastmile_qr_scan", "ios": "https://dc.lft.to/lastmile_qr_scan"}, "fusion_lat": 0.0, "name": "5ffad139c4884a59e43e0b16763abd1a", "bike_id": "5ffad139c4884a59e43e0b16763abd1a"}, {"is_disabled": 0, "is_reserved": 0, "type": "electric_scooter", "lon": -76.99536416666666, "fusion_lon": 0.0, "lat": 38.86251566666667, "rental_uris": {"android": "https://dc.lft.to/lastmile_qr_scan", "ios": "https://dc.lft.to/lastmile_qr_scan"}, "fusion_lat": 0.0, "name": "b4c7741d90cffa69a808abea5a3642ac", "bike_id": "b4c7741d90cffa69a808abea5a3642ac"}, {"is_disabled": 0, "is_reserved": 0, "type": "electric_bike", "lon": -76.9159555, "fusion_lon": 0.0, "lat": 38.88010466666667, "rental_uris": {"android": "https://dc.lft.to/lastmile_qr_scan", "ios": "https://dc.lft.to/lastmile_qr_scan"}, "fusion_lat": 0.0, "name": "6492781c437255a0ed166aee2e32c419", "bike_id": "6492781c437255a0ed166aee2e32c419"}, {"is_disabled": 0, "is_reserved": 0, "type": "electric_scooter", "lon": -77.02789083333333, "fusion_lon": 0.0, "lat": 38.930837333333336, "rental_uris": {"android": "https://dc.lft.to/lastmile_qr_scan", "ios": "https://dc.lft.to/lastmile_qr_scan"}, "fusion_lat": 0.0, "name": "afd025c8b26bc286a250ca5b1537b8e8", "bike_id": "afd025c8b26bc286a250ca5b1537b8e8"}, {"is_disabled": 0, "is_reserved": 0, "type": "electric_scooter", "lon": -76.983372, "fusion_lon": 0.0, "lat": 38.91272416666666, "rental_uris": {"android": "https://dc.lft.to/lastmile_qr_scan", "ios": "https://dc.lft.to/lastmile_qr_scan"}, "fusion_lat": 0.0, "name": "6ba364f53d5355a9136782c9cbdd62d8", "bike_id": "6ba364f53d5355a9136782c9cbdd62d8"}, {"is_disabled": 0, "is_reserved": 0, "type": "electric_scooter", "lon": -77.0033895, "fusion_lon": 0.0, "lat": 38.89354816666667, "rental_uris": {"android": "https://dc.lft.to/lastmile_qr_scan", "ios": "https://dc.lft.to/lastmile_qr_scan"}, "fusion_lat": 0.0, "name": "f3455e04fd13b28eeca8324f3aa3858e", "bike_id": "f3455e04fd13b28eeca8324f3aa3858e"}, {"is_disabled": 0, "is_reserved": 0, "type": "electric_scooter", "lon": -77.02348266666667, "fusion_lon": 0.0, "lat": 38.922657, "rental_uris": {"android": "https://dc.lft.to/lastmile_qr_scan", "ios": "https://dc.lft.to/lastmile_qr_scan"}, "fusion_lat": 0.0, "name": "bcb44afdbee2045f8178407446919fac", "bike_id": "bcb44afdbee2045f8178407446919fac"}, {"is_disabled": 0, "is_reserved": 0, "type": "electric_bike", "lon": -76.95207833333333, "fusion_lon": 0.0, "lat": 38.9366805, "rental_uris": {"android": "https://dc.lft.to/lastmile_qr_scan", "ios": "https://dc.lft.to/lastmile_qr_scan"}, "fusion_lat": 0.0, "name": "63873b44192fde7dca30c61e06a8db71", "bike_id": "63873b44192fde7dca30c61e06a8db71"}, {"is_disabled": 0, "is_reserved": 0, "type": "electric_scooter", "lon": -77.01163083333333, "fusion_lon": 0.0, "lat": 38.89743683333333, "rental_uris": {"android": "https://dc.lft.to/lastmile_qr_scan", "ios": "https://dc.lft.to/lastmile_qr_scan"}, "fusion_lat": 0.0, "name": "05490f9f3cbdd1523d3f84fbeb8dee8a", "bike_id": "05490f9f3cbdd1523d3f84fbeb8dee8a"}, {"is_disabled": 0, "is_reserved": 0, "type": "electric_scooter", "lon": -77.04759033333333, "fusion_lon": 0.0, "lat": 38.90720733333333, "rental_uris": {"android": "https://dc.lft.to/lastmile_qr_scan", "ios": "https://dc.lft.to/lastmile_qr_scan"}, "fusion_lat": 0.0, "name": "58dfcd62d72bc2f10ee92b5b9a974a89", "bike_id": "58dfcd62d72bc2f10ee92b5b9a974a89"}, {"is_disabled": 0, "is_reserved": 0, "type": "electric_scooter", "lon": -76.987314, "fusion_lon": 0.0, "lat": 38.8671055, "rental_uris": {"android": "https://dc.lft.to/lastmile_qr_scan", "ios": "https://dc.lft.to/lastmile_qr_scan"}, "fusion_lat": 0.0, "name": "8529aa2d51c0734486cb0554c8386d85", "bike_id": "8529aa2d51c0734486cb0554c8386d85"}, {"is_disabled": 0, "is_reserved": 0, "type": "electric_scooter", "lon": -77.03222933333333, "fusion_lon": 0.0, "lat": 38.907504833333334, "rental_uris": {"android": "https://dc.lft.to/lastmile_qr_scan", "ios": "https://dc.lft.to/lastmile_qr_scan"}, "fusion_lat": 0.0, "name": "74e540c0ec8ec3668e554f39bfadca2d", "bike_id": "74e540c0ec8ec3668e554f39bfadca2d"}, {"is_disabled": 0, "is_reserved": 0, "type": "electric_scooter", "lon": -77.03337066666667, "fusion_lon": 0.0, "lat": 38.91698016666667, "rental_uris": {"android": "https://dc.lft.to/lastmile_qr_scan", "ios": "https://dc.lft.to/lastmile_qr_scan"}, "fusion_lat": 0.0, "name": "2da211ce0979fb64bf4223cfaf727183", "bike_id": "2da211ce0979fb64bf4223cfaf727183"}, {"is_disabled": 0, "is_reserved": 0, "type": "electric_scooter", "lon": -77.04629733333333, "fusion_lon": 0.0, "lat": 38.91810266666667, "rental_uris": {"android": "https://dc.lft.to/lastmile_qr_scan", "ios": "https://dc.lft.to/lastmile_qr_scan"}, "fusion_lat": 0.0, "name": "f121e63ea2225e46b76bfb2c23ed75e8", "bike_id": "f121e63ea2225e46b76bfb2c23ed75e8"}, {"is_disabled": 0, "is_reserved": 0, "type": "electric_scooter", "lon": -77.04330016666667, "fusion_lon": 0.0, "lat": 38.922429666666666, "rental_uris": {"android": "https://dc.lft.to/lastmile_qr_scan", "ios": "https://dc.lft.to/lastmile_qr_scan"}, "fusion_lat": 0.0, "name": "07cde88326d02ec3bfcf0855240dac23", "bike_id": "07cde88326d02ec3bfcf0855240dac23"}, {"is_disabled": 0, "is_reserved": 0, "type": "electric_scooter", "lon": -77.0198695, "fusion_lon": 0.0, "lat": 38.8777955, "rental_uris": {"android": "https://dc.lft.to/lastmile_qr_scan", "ios": "https://dc.lft.to/lastmile_qr_scan"}, "fusion_lat": 0.0, "name": "563a4b785cb3859795f225646b3a1291", "bike_id": "563a4b785cb3859795f225646b3a1291"}, {"is_disabled": 0, "is_reserved": 0, "type": "electric_scooter", "lon": -77.03849266666667, "fusion_lon": 0.0, "lat": 38.92651383333333, "rental_uris": {"android": "https://dc.lft.to/lastmile_qr_scan", "ios": "https://dc.lft.to/lastmile_qr_scan"}, "fusion_lat": 0.0, "name": "b22bf4da9d7d5c8dc80b3cfc52c88e8d", "bike_id": "b22bf4da9d7d5c8dc80b3cfc52c88e8d"}, {"is_disabled": 0, "is_reserved": 0, "type": "electric_scooter", "lon": -77.01018683333334, "fusion_lon": 0.0, "lat": 38.90620366666667, "rental_uris": {"android": "https://dc.lft.to/lastmile_qr_scan", "ios": "https://dc.lft.to/lastmile_qr_scan"}, "fusion_lat": 0.0, "name": "88d347162b595006fb1d324c3f5ed402", "bike_id": "88d347162b595006fb1d324c3f5ed402"}, {"is_disabled": 0, "is_reserved": 0, "type": "electric_scooter", "lon": -77.04342766666667, "fusion_lon": 0.0, "lat": 38.89823233333333, "rental_uris": {"android": "https://dc.lft.to/lastmile_qr_scan", "ios": "https://dc.lft.to/lastmile_qr_scan"}, "fusion_lat": 0.0, "name": "59df577402ffed4666e0ce33c023a3ed", "bike_id": "59df577402ffed4666e0ce33c023a3ed"}, {"is_disabled": 0, "is_reserved": 0, "type": "electric_scooter", "lon": -77.0355975, "fusion_lon": 0.0, "lat": 38.903669666666666, "rental_uris": {"android": "https://dc.lft.to/lastmile_qr_scan", "ios": "https://dc.lft.to/lastmile_qr_scan"}, "fusion_lat": 0.0, "name": "8528aabe704156342e8840bf8e3f3872", "bike_id": "8528aabe704156342e8840bf8e3f3872"}, {"is_disabled": 0, "is_reserved": 0, "type": "electric_scooter", "lon": -77.03847216666666, "fusion_lon": 0.0, "lat": 38.92167416666667, "rental_uris": {"android": "https://dc.lft.to/lastmile_qr_scan", "ios": "https://dc.lft.to/lastmile_qr_scan"}, "fusion_lat": 0.0, "name": "860b97880b2a836ec8b3b6ea53956126", "bike_id": "860b97880b2a836ec8b3b6ea53956126"}, {"is_disabled": 0, "is_reserved": 0, "type": "electric_scooter", "lon": -76.99634466666667, "fusion_lon": 0.0, "lat": 38.846211, "rental_uris": {"android": "https://dc.lft.to/lastmile_qr_scan", "ios": "https://dc.lft.to/lastmile_qr_scan"}, "fusion_lat": 0.0, "name": "e97e3d661270d0f9b47d3bad829f6547", "bike_id": "e97e3d661270d0f9b47d3bad829f6547"}, {"is_disabled": 0, "is_reserved": 0, "type": "electric_scooter", "lon": -77.03651066666667, "fusion_lon": 0.0, "lat": 38.903118, "rental_uris": {"android": "https://dc.lft.to/lastmile_qr_scan", "ios": "https://dc.lft.to/lastmile_qr_scan"}, "fusion_lat": 0.0, "name": "e40469b8b8177fa2ef39e23195d93c7e", "bike_id": "e40469b8b8177fa2ef39e23195d93c7e"}, {"is_disabled": 0, "is_reserved": 0, "type": "electric_scooter", "lon": -77.03395783333333, "fusion_lon": 0.0, "lat": 38.898394, "rental_uris": {"android": "https://dc.lft.to/lastmile_qr_scan", "ios": "https://dc.lft.to/lastmile_qr_scan"}, "fusion_lat": 0.0, "name": "bad95b1a74405293532474914d38c757", "bike_id": "bad95b1a74405293532474914d38c757"}, {"is_disabled": 0, "is_reserved": 0, "type": "electric_scooter", "lon": -77.03925083333333, "fusion_lon": 0.0, "lat": 38.9191125, "rental_uris": {"android": "https://dc.lft.to/lastmile_qr_scan", "ios": "https://dc.lft.to/lastmile_qr_scan"}, "fusion_lat": 0.0, "name": "40810687f85690373a552bb89e8407f1", "bike_id": "40810687f85690373a552bb89e8407f1"}, {"is_disabled": 0, "is_reserved": 0, "type": "electric_bike", "lon": -77.03342983333333, "fusion_lon": 0.0, "lat": 38.8982975, "rental_uris": {"android": "https://dc.lft.to/lastmile_qr_scan", "ios": "https://dc.lft.to/lastmile_qr_scan"}, "fusion_lat": 0.0, "name": "d4e5ac46b54461f73e20edc56da59383", "bike_id": "d4e5ac46b54461f73e20edc56da59383"}, {"is_disabled": 0, "is_reserved": 0, "type": "electric_scooter", "lon": -77.03176183333333, "fusion_lon": 0.0, "lat": 38.914173166666664, "rental_uris": {"android": "https://dc.lft.to/lastmile_qr_scan", "ios": "https://dc.lft.to/lastmile_qr_scan"}, "fusion_lat": 0.0, "name": "a9f03d3c60aa89f4bf1af6060d7cfb65", "bike_id": "a9f03d3c60aa89f4bf1af6060d7cfb65"}, {"is_disabled": 0, "is_reserved": 0, "type": "electric_scooter", "lon": -77.03429483333333, "fusion_lon": 0.0, "lat": 38.92731033333333, "rental_uris": {"android": "https://dc.lft.to/lastmile_qr_scan", "ios": "https://dc.lft.to/lastmile_qr_scan"}, "fusion_lat": 0.0, "name": "4d39b240e3fa1cc73f794dd51c4505a9", "bike_id": "4d39b240e3fa1cc73f794dd51c4505a9"}, {"is_disabled": 0, "is_reserved": 0, "type": "electric_scooter", "lon": -77.02951383333334, "fusion_lon": 0.0, "lat": 38.896309, "rental_uris": {"android": "https://dc.lft.to/lastmile_qr_scan", "ios": "https://dc.lft.to/lastmile_qr_scan"}, "fusion_lat": 0.0, "name": "eff44c8faf4d1b7031ff2e047cd3a1ae", "bike_id": "eff44c8faf4d1b7031ff2e047cd3a1ae"}, {"is_disabled": 0, "is_reserved": 0, "type": "electric_scooter", "lon": -77.0334195, "fusion_lon": 0.0, "lat": 38.918064, "rental_uris": {"android": "https://dc.lft.to/lastmile_qr_scan", "ios": "https://dc.lft.to/lastmile_qr_scan"}, "fusion_lat": 0.0, "name": "3bd1d1570b6391dc6cf868ba1c80be07", "bike_id": "3bd1d1570b6391dc6cf868ba1c80be07"}, {"is_disabled": 0, "is_reserved": 0, "type": "electric_scooter", "lon": -77.02223283333333, "fusion_lon": 0.0, "lat": 38.93552616666667, "rental_uris": {"android": "https://dc.lft.to/lastmile_qr_scan", "ios": "https://dc.lft.to/lastmile_qr_scan"}, "fusion_lat": 0.0, "name": "1885fff29b01ee465fac87f658be1974", "bike_id": "1885fff29b01ee465fac87f658be1974"}, {"is_disabled": 0, "is_reserved": 0, "type": "electric_scooter", "lon": -77.0216405, "fusion_lon": 0.0, "lat": 38.9261335, "rental_uris": {"android": "https://dc.lft.to/lastmile_qr_scan", "ios": "https://dc.lft.to/lastmile_qr_scan"}, "fusion_lat": 0.0, "name": "53987e0bf404b0a5bd1504a4ffdc7e14", "bike_id": "53987e0bf404b0a5bd1504a4ffdc7e14"}, {"is_disabled": 0, "is_reserved": 0, "type": "electric_scooter", "lon": -77.005761, "fusion_lon": 0.0, "lat": 38.87532183333333, "rental_uris": {"android": "https://dc.lft.to/lastmile_qr_scan", "ios": "https://dc.lft.to/lastmile_qr_scan"}, "fusion_lat": 0.0, "name": "88c84587bda9a7df19484355d7177e01", "bike_id": "88c84587bda9a7df19484355d7177e01"}, {"is_disabled": 0, "is_reserved": 0, "type": "electric_scooter", "lon": -77.041584, "fusion_lon": 0.0, "lat": 38.91419416666667, "rental_uris": {"android": "https://dc.lft.to/lastmile_qr_scan", "ios": "https://dc.lft.to/lastmile_qr_scan"}, "fusion_lat": 0.0, "name": "d33f8e9246e025276dd9369d315d17a3", "bike_id": "d33f8e9246e025276dd9369d315d17a3"}, {"is_disabled": 0, "is_reserved": 0, "type": "electric_scooter", "lon": -76.93051366666667, "fusion_lon": 0.0, "lat": 38.897929833333336, "rental_uris": {"android": "https://dc.lft.to/lastmile_qr_scan", "ios": "https://dc.lft.to/lastmile_qr_scan"}, "fusion_lat": 0.0, "name": "32c07bec6678d5d816efc7bfcf85a0de", "bike_id": "32c07bec6678d5d816efc7bfcf85a0de"}, {"is_disabled": 0, "is_reserved": 0, "type": "electric_bike", "lon": -77.1240285, "fusion_lon": 0.0, "lat": 38.89333083333333, "rental_uris": {"android": "https://dc.lft.to/lastmile_qr_scan", "ios": "https://dc.lft.to/lastmile_qr_scan"}, "fusion_lat": 0.0, "name": "016caef86512b3251cd126d81e24a1c5", "bike_id": "016caef86512b3251cd126d81e24a1c5"}, {"is_disabled": 0, "is_reserved": 0, "type": "electric_scooter", "lon": -77.03832616666666, "fusion_lon": 0.0, "lat": 38.92172883333333, "rental_uris": {"android": "https://dc.lft.to/lastmile_qr_scan", "ios": "https://dc.lft.to/lastmile_qr_scan"}, "fusion_lat": 0.0, "name": "63a12dd36efc92408b2937ebcbe35539", "bike_id": "63a12dd36efc92408b2937ebcbe35539"}, {"is_disabled": 0, "is_reserved": 0, "type": "electric_scooter", "lon": -77.04508433333334, "fusion_lon": 0.0, "lat": 38.907884, "rental_uris": {"android": "https://dc.lft.to/lastmile_qr_scan", "ios": "https://dc.lft.to/lastmile_qr_scan"}, "fusion_lat": 0.0, "name": "a5f3f3e403fdfd418259d040b7bae112", "bike_id": "a5f3f3e403fdfd418259d040b7bae112"}, {"is_disabled": 0, "is_reserved": 0, "type": "electric_scooter", "lon": -77.04382366666667, "fusion_lon": 0.0, "lat": 38.910523166666664, "rental_uris": {"android": "https://dc.lft.to/lastmile_qr_scan", "ios": "https://dc.lft.to/lastmile_qr_scan"}, "fusion_lat": 0.0, "name": "0343f1f0b8b7bea2dfaf2d322ab0595b", "bike_id": "0343f1f0b8b7bea2dfaf2d322ab0595b"}, {"is_disabled": 0, "is_reserved": 0, "type": "electric_scooter", "lon": -77.02692766666667, "fusion_lon": 0.0, "lat": 38.900748666666665, "rental_uris": {"android": "https://dc.lft.to/lastmile_qr_scan", "ios": "https://dc.lft.to/lastmile_qr_scan"}, "fusion_lat": 0.0, "name": "584974a06fd3d125d8ff1dd62d0e14ac", "bike_id": "584974a06fd3d125d8ff1dd62d0e14ac"}, {"is_disabled": 0, "is_reserved": 0, "type": "electric_scooter", "lon": -77.02997133333334, "fusion_lon": 0.0, "lat": 38.92252366666666, "rental_uris": {"android": "https://dc.lft.to/lastmile_qr_scan", "ios": "https://dc.lft.to/lastmile_qr_scan"}, "fusion_lat": 0.0, "name": "3c593ec100557358bef1ac4767b54ab0", "bike_id": "3c593ec100557358bef1ac4767b54ab0"}, {"is_disabled": 0, "is_reserved": 0, "type": "electric_scooter", "lon": -77.01479933333333, "fusion_lon": 0.0, "lat": 38.8763265, "rental_uris": {"android": "https://dc.lft.to/lastmile_qr_scan", "ios": "https://dc.lft.to/lastmile_qr_scan"}, "fusion_lat": 0.0, "name": "e1dceee28ba433cae827e747b3172788", "bike_id": "e1dceee28ba433cae827e747b3172788"}, {"is_disabled": 0, "is_reserved": 0, "type": "electric_scooter", "lon": -76.94722116666667, "fusion_lon": 0.0, "lat": 38.89724566666666, "rental_uris": {"android": "https://dc.lft.to/lastmile_qr_scan", "ios": "https://dc.lft.to/lastmile_qr_scan"}, "fusion_lat": 0.0, "name": "2825ec5d3521bea8c3ce73a6faec8328", "bike_id": "2825ec5d3521bea8c3ce73a6faec8328"}, {"is_disabled": 0, "is_reserved": 0, "type": "electric_scooter", "lon": -77.041114, "fusion_lon": 0.0, "lat": 38.923571, "rental_uris": {"android": "https://dc.lft.to/lastmile_qr_scan", "ios": "https://dc.lft.to/lastmile_qr_scan"}, "fusion_lat": 0.0, "name": "81c0c40b1221a89a0145f59611562d60", "bike_id": "81c0c40b1221a89a0145f59611562d60"}, {"is_disabled": 0, "is_reserved": 0, "type": "electric_scooter", "lon": -76.97976183333333, "fusion_lon": 0.0, "lat": 38.887686333333335, "rental_uris": {"android": "https://dc.lft.to/lastmile_qr_scan", "ios": "https://dc.lft.to/lastmile_qr_scan"}, "fusion_lat": 0.0, "name": "3bf34c941d7c94445b587a6572cbbdd1", "bike_id": "3bf34c941d7c94445b587a6572cbbdd1"}, {"is_disabled": 0, "is_reserved": 0, "type": "electric_scooter", "lon": -77.00568083333333, "fusion_lon": 0.0, "lat": 38.8850725, "rental_uris": {"android": "https://dc.lft.to/lastmile_qr_scan", "ios": "https://dc.lft.to/lastmile_qr_scan"}, "fusion_lat": 0.0, "name": "caa4cf6ebe429ea49d7acdc38b18978e", "bike_id": "caa4cf6ebe429ea49d7acdc38b18978e"}, {"is_disabled": 0, "is_reserved": 0, "type": "electric_scooter", "lon": -77.03460616666666, "fusion_lon": 0.0, "lat": 38.921557166666666, "rental_uris": {"android": "https://dc.lft.to/lastmile_qr_scan", "ios": "https://dc.lft.to/lastmile_qr_scan"}, "fusion_lat": 0.0, "name": "15293c5f6683263a1f534d1e3fd496d8", "bike_id": "15293c5f6683263a1f534d1e3fd496d8"}, {"is_disabled": 0, "is_reserved": 0, "type": "electric_scooter", "lon": -77.0211775, "fusion_lon": 0.0, "lat": 38.917365, "rental_uris": {"android": "https://dc.lft.to/lastmile_qr_scan", "ios": "https://dc.lft.to/lastmile_qr_scan"}, "fusion_lat": 0.0, "name": "cb46808bdc1fef21d11e842c035edcae", "bike_id": "cb46808bdc1fef21d11e842c035edcae"}, {"is_disabled": 0, "is_reserved": 0, "type": "electric_scooter", "lon": -77.06825066666667, "fusion_lon": 0.0, "lat": 38.952111, "rental_uris": {"android": "https://dc.lft.to/lastmile_qr_scan", "ios": "https://dc.lft.to/lastmile_qr_scan"}, "fusion_lat": 0.0, "name": "ecc03b10037fefad663e9166d2d5e9b2", "bike_id": "ecc03b10037fefad663e9166d2d5e9b2"}, {"is_disabled": 0, "is_reserved": 0, "type": "electric_scooter", "lon": -77.02559433333333, "fusion_lon": 0.0, "lat": 38.91634583333333, "rental_uris": {"android": "https://dc.lft.to/lastmile_qr_scan", "ios": "https://dc.lft.to/lastmile_qr_scan"}, "fusion_lat": 0.0, "name": "f5331974699b61b4d2f4bc1e80ebf3f6", "bike_id": "f5331974699b61b4d2f4bc1e80ebf3f6"}, {"is_disabled": 0, "is_reserved": 0, "type": "electric_bike", "lon": -77.19550383333333, "fusion_lon": 0.0, "lat": 39.11520016666667, "rental_uris": {"android": "https://dc.lft.to/lastmile_qr_scan", "ios": "https://dc.lft.to/lastmile_qr_scan"}, "fusion_lat": 0.0, "name": "abb578b2037b447ab678ad09c7205be3", "bike_id": "abb578b2037b447ab678ad09c7205be3"}, {"is_disabled": 0, "is_reserved": 0, "type": "electric_scooter", "lon": -77.0235305, "fusion_lon": 0.0, "lat": 38.9429295, "rental_uris": {"android": "https://dc.lft.to/lastmile_qr_scan", "ios": "https://dc.lft.to/lastmile_qr_scan"}, "fusion_lat": 0.0, "name": "2d90dfea71631dae3fe810248062adbf", "bike_id": "2d90dfea71631dae3fe810248062adbf"}, {"is_disabled": 0, "is_reserved": 0, "type": "electric_scooter", "lon": -77.05914516666667, "fusion_lon": 0.0, "lat": 38.90544083333333, "rental_uris": {"android": "https://dc.lft.to/lastmile_qr_scan", "ios": "https://dc.lft.to/lastmile_qr_scan"}, "fusion_lat": 0.0, "name": "36cc6192be820cbd33050bdcd8dbcf2b", "bike_id": "36cc6192be820cbd33050bdcd8dbcf2b"}, {"is_disabled": 0, "is_reserved": 0, "type": "electric_scooter", "lon": -77.01758166666667, "fusion_lon": 0.0, "lat": 38.885869, "rental_uris": {"android": "https://dc.lft.to/lastmile_qr_scan", "ios": "https://dc.lft.to/lastmile_qr_scan"}, "fusion_lat": 0.0, "name": "d9a07e19d27187c710aa82e5c12eb8fb", "bike_id": "d9a07e19d27187c710aa82e5c12eb8fb"}, {"is_disabled": 0, "is_reserved": 0, "type": "electric_bike", "lon": -77.04981083333334, "fusion_lon": 0.0, "lat": 38.992412, "rental_uris": {"android": "https://dc.lft.to/lastmile_qr_scan", "ios": "https://dc.lft.to/lastmile_qr_scan"}, "fusion_lat": 0.0, "name": "da50b9cf7ed148827d6f2c489f621f3a", "bike_id": "da50b9cf7ed148827d6f2c489f621f3a"}, {"is_disabled": 0, "is_reserved": 0, "type": "electric_bike", "lon": -76.98097366666667, "fusion_lon": 0.0, "lat": 38.8571855, "rental_uris": {"android": "https://dc.lft.to/lastmile_qr_scan", "ios": "https://dc.lft.to/lastmile_qr_scan"}, "fusion_lat": 0.0, "name": "c7e8e7a2cb329eb4499bc8fefb9c0992", "bike_id": "c7e8e7a2cb329eb4499bc8fefb9c0992"}, {"is_disabled": 0, "is_reserved": 0, "type": "electric_scooter", "lon": -77.04688116666667, "fusion_lon": 0.0, "lat": 38.91592816666667, "rental_uris": {"android": "https://dc.lft.to/lastmile_qr_scan", "ios": "https://dc.lft.to/lastmile_qr_scan"}, "fusion_lat": 0.0, "name": "322f49280b37640873a3fab9fa5f4ffc", "bike_id": "322f49280b37640873a3fab9fa5f4ffc"}, {"is_disabled": 0, "is_reserved": 0, "type": "electric_scooter", "lon": -76.99078583333333, "fusion_lon": 0.0, "lat": 38.860523, "rental_uris": {"android": "https://dc.lft.to/lastmile_qr_scan", "ios": "https://dc.lft.to/lastmile_qr_scan"}, "fusion_lat": 0.0, "name": "c200f6ebd9ee6fc3f09472a0d8e1b98a", "bike_id": "c200f6ebd9ee6fc3f09472a0d8e1b98a"}, {"is_disabled": 0, "is_reserved": 0, "type": "electric_scooter", "lon": -77.05022733333334, "fusion_lon": 0.0, "lat": 38.905241833333335, "rental_uris": {"android": "https://dc.lft.to/lastmile_qr_scan", "ios": "https://dc.lft.to/lastmile_qr_scan"}, "fusion_lat": 0.0, "name": "004cb4349fd04c682c463908c20bac29", "bike_id": "004cb4349fd04c682c463908c20bac29"}, {"is_disabled": 0, "is_reserved": 0, "type": "electric_scooter", "lon": -77.05397766666667, "fusion_lon": 0.0, "lat": 38.9052575, "rental_uris": {"android": "https://dc.lft.to/lastmile_qr_scan", "ios": "https://dc.lft.to/lastmile_qr_scan"}, "fusion_lat": 0.0, "name": "073038b5e9e8e3d62683a296d51cba3f", "bike_id": "073038b5e9e8e3d62683a296d51cba3f"}, {"is_disabled": 0, "is_reserved": 0, "type": "electric_scooter", "lon": -77.03238233333333, "fusion_lon": 0.0, "lat": 38.90136183333333, "rental_uris": {"android": "https://dc.lft.to/lastmile_qr_scan", "ios": "https://dc.lft.to/lastmile_qr_scan"}, "fusion_lat": 0.0, "name": "76a9d23ee0ce2bbc406ba35319d59d7a", "bike_id": "76a9d23ee0ce2bbc406ba35319d59d7a"}, {"is_disabled": 0, "is_reserved": 0, "type": "electric_scooter", "lon": -77.04676916666666, "fusion_lon": 0.0, "lat": 38.8922325, "rental_uris": {"android": "https://dc.lft.to/lastmile_qr_scan", "ios": "https://dc.lft.to/lastmile_qr_scan"}, "fusion_lat": 0.0, "name": "65b370e3d74f184fb3553b70770648b4", "bike_id": "65b370e3d74f184fb3553b70770648b4"}, {"is_disabled": 0, "is_reserved": 0, "type": "electric_scooter", "lon": -76.98813333333334, "fusion_lon": 0.0, "lat": 38.900151, "rental_uris": {"android": "https://dc.lft.to/lastmile_qr_scan", "ios": "https://dc.lft.to/lastmile_qr_scan"}, "fusion_lat": 0.0, "name": "6c1476f86f675b6ae828f6691376b37a", "bike_id": "6c1476f86f675b6ae828f6691376b37a"}, {"is_disabled": 0, "is_reserved": 0, "type": "electric_bike", "lon": -77.03650833333333, "fusion_lon": 0.0, "lat": 38.907378666666666, "rental_uris": {"android": "https://dc.lft.to/lastmile_qr_scan", "ios": "https://dc.lft.to/lastmile_qr_scan"}, "fusion_lat": 0.0, "name": "1e6e1ec59856d389bca498382186437f", "bike_id": "1e6e1ec59856d389bca498382186437f"}, {"is_disabled": 0, "is_reserved": 0, "type": "electric_scooter", "lon": -76.94917383333333, "fusion_lon": 0.0, "lat": 38.89491266666667, "rental_uris": {"android": "https://dc.lft.to/lastmile_qr_scan", "ios": "https://dc.lft.to/lastmile_qr_scan"}, "fusion_lat": 0.0, "name": "1f89e9cee86987b7d8c51ea404fa5450", "bike_id": "1f89e9cee86987b7d8c51ea404fa5450"}, {"is_disabled": 0, "is_reserved": 0, "type": "electric_scooter", "lon": -76.99006166666666, "fusion_lon": 0.0, "lat": 38.86505483333333, "rental_uris": {"android": "https://dc.lft.to/lastmile_qr_scan", "ios": "https://dc.lft.to/lastmile_qr_scan"}, "fusion_lat": 0.0, "name": "da659db05061a6a81fe094c237b3e14a", "bike_id": "da659db05061a6a81fe094c237b3e14a"}, {"is_disabled": 0, "is_reserved": 0, "type": "electric_scooter", "lon": -77.02577883333333, "fusion_lon": 0.0, "lat": 38.892190666666664, "rental_uris": {"android": "https://dc.lft.to/lastmile_qr_scan", "ios": "https://dc.lft.to/lastmile_qr_scan"}, "fusion_lat": 0.0, "name": "80004a0d6b2ea5e7436af3bb15022930", "bike_id": "80004a0d6b2ea5e7436af3bb15022930"}, {"is_disabled": 0, "is_reserved": 0, "type": "electric_scooter", "lon": -77.01998216666667, "fusion_lon": 0.0, "lat": 38.96641366666667, "rental_uris": {"android": "https://dc.lft.to/lastmile_qr_scan", "ios": "https://dc.lft.to/lastmile_qr_scan"}, "fusion_lat": 0.0, "name": "0ed93917bc9bcdf8faa54cc76f44e28a", "bike_id": "0ed93917bc9bcdf8faa54cc76f44e28a"}, {"is_disabled": 0, "is_reserved": 0, "type": "electric_scooter", "lon": -77.0315615, "fusion_lon": 0.0, "lat": 38.91798383333333, "rental_uris": {"android": "https://dc.lft.to/lastmile_qr_scan", "ios": "https://dc.lft.to/lastmile_qr_scan"}, "fusion_lat": 0.0, "name": "e7e4f4619669e1976b425806f40d2b55", "bike_id": "e7e4f4619669e1976b425806f40d2b55"}, {"is_disabled": 0, "is_reserved": 0, "type": "electric_scooter", "lon": -77.04189216666667, "fusion_lon": 0.0, "lat": 38.90798733333333, "rental_uris": {"android": "https://dc.lft.to/lastmile_qr_scan", "ios": "https://dc.lft.to/lastmile_qr_scan"}, "fusion_lat": 0.0, "name": "788b128dc5f26b68984eff210e798ea8", "bike_id": "788b128dc5f26b68984eff210e798ea8"}, {"is_disabled": 0, "is_reserved": 0, "type": "electric_scooter", "lon": -77.03186733333334, "fusion_lon": 0.0, "lat": 38.933145833333334, "rental_uris": {"android": "https://dc.lft.to/lastmile_qr_scan", "ios": "https://dc.lft.to/lastmile_qr_scan"}, "fusion_lat": 0.0, "name": "1248d28ff58550132daac796d72627cd", "bike_id": "1248d28ff58550132daac796d72627cd"}, {"is_disabled": 0, "is_reserved": 0, "type": "electric_scooter", "lon": -77.050042, "fusion_lon": 0.0, "lat": 38.89225666666667, "rental_uris": {"android": "https://dc.lft.to/lastmile_qr_scan", "ios": "https://dc.lft.to/lastmile_qr_scan"}, "fusion_lat": 0.0, "name": "46e4e6927600ca8542b8abafa46e48de", "bike_id": "46e4e6927600ca8542b8abafa46e48de"}, {"is_disabled": 0, "is_reserved": 0, "type": "electric_scooter", "lon": -77.01115216666666, "fusion_lon": 0.0, "lat": 38.9036045, "rental_uris": {"android": "https://dc.lft.to/lastmile_qr_scan", "ios": "https://dc.lft.to/lastmile_qr_scan"}, "fusion_lat": 0.0, "name": "7380080d9c7721bbc70d04fe918daacc", "bike_id": "7380080d9c7721bbc70d04fe918daacc"}, {"is_disabled": 0, "is_reserved": 0, "type": "electric_bike", "lon": -76.94950933333334, "fusion_lon": 0.0, "lat": 38.935024166666665, "rental_uris": {"android": "https://dc.lft.to/lastmile_qr_scan", "ios": "https://dc.lft.to/lastmile_qr_scan"}, "fusion_lat": 0.0, "name": "c4a03ae1a905c36b4d98f7d77555c13f", "bike_id": "c4a03ae1a905c36b4d98f7d77555c13f"}, {"is_disabled": 0, "is_reserved": 0, "type": "electric_scooter", "lon": -76.99959383333334, "fusion_lon": 0.0, "lat": 38.84282866666667, "rental_uris": {"android": "https://dc.lft.to/lastmile_qr_scan", "ios": "https://dc.lft.to/lastmile_qr_scan"}, "fusion_lat": 0.0, "name": "77cad2c6fd03bdef0ecbd266fe73c9ed", "bike_id": "77cad2c6fd03bdef0ecbd266fe73c9ed"}, {"is_disabled": 0, "is_reserved": 0, "type": "electric_scooter", "lon": -77.02556916666667, "fusion_lon": 0.0, "lat": 38.892204, "rental_uris": {"android": "https://dc.lft.to/lastmile_qr_scan", "ios": "https://dc.lft.to/lastmile_qr_scan"}, "fusion_lat": 0.0, "name": "c3ca1e6fed1ce53a11900bad7089a2e8", "bike_id": "c3ca1e6fed1ce53a11900bad7089a2e8"}, {"is_disabled": 0, "is_reserved": 0, "type": "electric_scooter", "lon": -77.03151866666667, "fusion_lon": 0.0, "lat": 38.91617016666667, "rental_uris": {"android": "https://dc.lft.to/lastmile_qr_scan", "ios": "https://dc.lft.to/lastmile_qr_scan"}, "fusion_lat": 0.0, "name": "bd2bedc5f1a4c2f5602d09384d037e94", "bike_id": "bd2bedc5f1a4c2f5602d09384d037e94"}, {"is_disabled": 0, "is_reserved": 0, "type": "electric_scooter", "lon": -77.027002, "fusion_lon": 0.0, "lat": 38.9260965, "rental_uris": {"android": "https://dc.lft.to/lastmile_qr_scan", "ios": "https://dc.lft.to/lastmile_qr_scan"}, "fusion_lat": 0.0, "name": "8ce45606dcf3e86e543ea28817032358", "bike_id": "8ce45606dcf3e86e543ea28817032358"}, {"is_disabled": 0, "is_reserved": 0, "type": "electric_scooter", "lon": -76.98971566666667, "fusion_lon": 0.0, "lat": 38.902458833333334, "rental_uris": {"android": "https://dc.lft.to/lastmile_qr_scan", "ios": "https://dc.lft.to/lastmile_qr_scan"}, "fusion_lat": 0.0, "name": "5e1b83719e9f7d0100cf6ba76004b4dd", "bike_id": "5e1b83719e9f7d0100cf6ba76004b4dd"}, {"is_disabled": 0, "is_reserved": 0, "type": "electric_scooter", "lon": -77.01615866666667, "fusion_lon": 0.0, "lat": 38.872406, "rental_uris": {"android": "https://dc.lft.to/lastmile_qr_scan", "ios": "https://dc.lft.to/lastmile_qr_scan"}, "fusion_lat": 0.0, "name": "488725bc6dd90fddf7036b1bc2024cf7", "bike_id": "488725bc6dd90fddf7036b1bc2024cf7"}, {"is_disabled": 0, "is_reserved": 0, "type": "electric_scooter", "lon": -77.0365145, "fusion_lon": 0.0, "lat": 38.90282416666667, "rental_uris": {"android": "https://dc.lft.to/lastmile_qr_scan", "ios": "https://dc.lft.to/lastmile_qr_scan"}, "fusion_lat": 0.0, "name": "7d7cbda3a854784806953a2a2e22a5c4", "bike_id": "7d7cbda3a854784806953a2a2e22a5c4"}, {"is_disabled": 0, "is_reserved": 0, "type": "electric_scooter", "lon": -77.04511933333333, "fusion_lon": 0.0, "lat": 38.908329, "rental_uris": {"android": "https://dc.lft.to/lastmile_qr_scan", "ios": "https://dc.lft.to/lastmile_qr_scan"}, "fusion_lat": 0.0, "name": "50135fea23ea3204d1b6fbb38efa3bd0", "bike_id": "50135fea23ea3204d1b6fbb38efa3bd0"}, {"is_disabled": 0, "is_reserved": 0, "type": "electric_scooter", "lon": -77.03306466666666, "fusion_lon": 0.0, "lat": 38.934455166666666, "rental_uris": {"android": "https://dc.lft.to/lastmile_qr_scan", "ios": "https://dc.lft.to/lastmile_qr_scan"}, "fusion_lat": 0.0, "name": "b9cdd799bba085d8b64fd59b67f69dc3", "bike_id": "b9cdd799bba085d8b64fd59b67f69dc3"}, {"is_disabled": 0, "is_reserved": 0, "type": "electric_scooter", "lon": -77.0342365, "fusion_lon": 0.0, "lat": 38.90963583333333, "rental_uris": {"android": "https://dc.lft.to/lastmile_qr_scan", "ios": "https://dc.lft.to/lastmile_qr_scan"}, "fusion_lat": 0.0, "name": "e3f959d7a4fcda7ec4a97dc3051dc759", "bike_id": "e3f959d7a4fcda7ec4a97dc3051dc759"}, {"is_disabled": 0, "is_reserved": 0, "type": "electric_scooter", "lon": -76.93184933333333, "fusion_lon": 0.0, "lat": 38.898757333333336, "rental_uris": {"android": "https://dc.lft.to/lastmile_qr_scan", "ios": "https://dc.lft.to/lastmile_qr_scan"}, "fusion_lat": 0.0, "name": "a60322b9b909afaee2bc0fef68f2270b", "bike_id": "a60322b9b909afaee2bc0fef68f2270b"}, {"is_disabled": 0, "is_reserved": 0, "type": "electric_scooter", "lon": -76.98675983333334, "fusion_lon": 0.0, "lat": 38.901377, "rental_uris": {"android": "https://dc.lft.to/lastmile_qr_scan", "ios": "https://dc.lft.to/lastmile_qr_scan"}, "fusion_lat": 0.0, "name": "725f0cfe9333b4fb189625263d44f6d2", "bike_id": "725f0cfe9333b4fb189625263d44f6d2"}, {"is_disabled": 0, "is_reserved": 0, "type": "electric_bike", "lon": -77.0430555, "fusion_lon": 0.0, "lat": 39.054476, "rental_uris": {"android": "https://dc.lft.to/lastmile_qr_scan", "ios": "https://dc.lft.to/lastmile_qr_scan"}, "fusion_lat": 0.0, "name": "eb3f71aef77b15b036846382b6a9aff2", "bike_id": "eb3f71aef77b15b036846382b6a9aff2"}, {"is_disabled": 0, "is_reserved": 0, "type": "electric_scooter", "lon": -77.018226, "fusion_lon": 0.0, "lat": 38.92202133333333, "rental_uris": {"android": "https://dc.lft.to/lastmile_qr_scan", "ios": "https://dc.lft.to/lastmile_qr_scan"}, "fusion_lat": 0.0, "name": "e7bb9e3eee529b742aceb98206c4a01f", "bike_id": "e7bb9e3eee529b742aceb98206c4a01f"}, {"is_disabled": 0, "is_reserved": 0, "type": "electric_scooter", "lon": -77.03390433333334, "fusion_lon": 0.0, "lat": 38.921556, "rental_uris": {"android": "https://dc.lft.to/lastmile_qr_scan", "ios": "https://dc.lft.to/lastmile_qr_scan"}, "fusion_lat": 0.0, "name": "04c2118a7d9bcc4c1a1d1545f4007ac1", "bike_id": "04c2118a7d9bcc4c1a1d1545f4007ac1"}, {"is_disabled": 0, "is_reserved": 0, "type": "electric_scooter", "lon": -77.00138716666666, "fusion_lon": 0.0, "lat": 38.87369833333333, "rental_uris": {"android": "https://dc.lft.to/lastmile_qr_scan", "ios": "https://dc.lft.to/lastmile_qr_scan"}, "fusion_lat": 0.0, "name": "fd281615df6897151bc7b11c3be8d572", "bike_id": "fd281615df6897151bc7b11c3be8d572"}, {"is_disabled": 0, "is_reserved": 0, "type": "electric_scooter", "lon": -77.02695716666666, "fusion_lon": 0.0, "lat": 38.94982366666667, "rental_uris": {"android": "https://dc.lft.to/lastmile_qr_scan", "ios": "https://dc.lft.to/lastmile_qr_scan"}, "fusion_lat": 0.0, "name": "eecbf2114277d4b68226c32b30125c47", "bike_id": "eecbf2114277d4b68226c32b30125c47"}, {"is_disabled": 0, "is_reserved": 0, "type": "electric_scooter", "lon": -77.02806333333334, "fusion_lon": 0.0, "lat": 38.96216033333333, "rental_uris": {"android": "https://dc.lft.to/lastmile_qr_scan", "ios": "https://dc.lft.to/lastmile_qr_scan"}, "fusion_lat": 0.0, "name": "151f78d16e4b99f8788c46f35abaa13e", "bike_id": "151f78d16e4b99f8788c46f35abaa13e"}, {"is_disabled": 0, "is_reserved": 0, "type": "electric_scooter", "lon": -77.04244783333333, "fusion_lon": 0.0, "lat": 38.922260333333334, "rental_uris": {"android": "https://dc.lft.to/lastmile_qr_scan", "ios": "https://dc.lft.to/lastmile_qr_scan"}, "fusion_lat": 0.0, "name": "741b71eb9d8a012e65187f7b7f1d5b58", "bike_id": "741b71eb9d8a012e65187f7b7f1d5b58"}, {"is_disabled": 0, "is_reserved": 0, "type": "electric_scooter", "lon": -77.0363615, "fusion_lon": 0.0, "lat": 38.9304415, "rental_uris": {"android": "https://dc.lft.to/lastmile_qr_scan", "ios": "https://dc.lft.to/lastmile_qr_scan"}, "fusion_lat": 0.0, "name": "356daaf7649d4dbd1a2f1fc5fb1eb478", "bike_id": "356daaf7649d4dbd1a2f1fc5fb1eb478"}, {"is_disabled": 0, "is_reserved": 0, "type": "electric_scooter", "lon": -77.003369, "fusion_lon": 0.0, "lat": 38.89525483333333, "rental_uris": {"android": "https://dc.lft.to/lastmile_qr_scan", "ios": "https://dc.lft.to/lastmile_qr_scan"}, "fusion_lat": 0.0, "name": "0b976ed1f24ea247041116aec215e23e", "bike_id": "0b976ed1f24ea247041116aec215e23e"}, {"is_disabled": 0, "is_reserved": 0, "type": "electric_scooter", "lon": -76.96527683333333, "fusion_lon": 0.0, "lat": 38.876267166666665, "rental_uris": {"android": "https://dc.lft.to/lastmile_qr_scan", "ios": "https://dc.lft.to/lastmile_qr_scan"}, "fusion_lat": 0.0, "name": "39efc2d7ec08f522070b8f66c93b0c0b", "bike_id": "39efc2d7ec08f522070b8f66c93b0c0b"}, {"is_disabled": 0, "is_reserved": 0, "type": "electric_scooter", "lon": -77.07252983333333, "fusion_lon": 0.0, "lat": 38.9078225, "rental_uris": {"android": "https://dc.lft.to/lastmile_qr_scan", "ios": "https://dc.lft.to/lastmile_qr_scan"}, "fusion_lat": 0.0, "name": "5d880b8edf984256c482bd6b89ff9160", "bike_id": "5d880b8edf984256c482bd6b89ff9160"}, {"is_disabled": 0, "is_reserved": 0, "type": "electric_scooter", "lon": -77.0493285, "fusion_lon": 0.0, "lat": 38.90734783333333, "rental_uris": {"android": "https://dc.lft.to/lastmile_qr_scan", "ios": "https://dc.lft.to/lastmile_qr_scan"}, "fusion_lat": 0.0, "name": "ad4f9cab2019bf5a5f2639e0f2ab8949", "bike_id": "ad4f9cab2019bf5a5f2639e0f2ab8949"}, {"is_disabled": 0, "is_reserved": 0, "type": "electric_bike", "lon": -77.00678966666666, "fusion_lon": 0.0, "lat": 38.945127666666664, "rental_uris": {"android": "https://dc.lft.to/lastmile_qr_scan", "ios": "https://dc.lft.to/lastmile_qr_scan"}, "fusion_lat": 0.0, "name": "d167a4231b755c2b84535bef6eba564c", "bike_id": "d167a4231b755c2b84535bef6eba564c"}, {"is_disabled": 0, "is_reserved": 0, "type": "electric_scooter", "lon": -77.02903333333333, "fusion_lon": 0.0, "lat": 38.90143333333333, "rental_uris": {"android": "https://dc.lft.to/lastmile_qr_scan", "ios": "https://dc.lft.to/lastmile_qr_scan"}, "fusion_lat": 0.0, "name": "51d21476bf48d320136eae8ac0aaa83b", "bike_id": "51d21476bf48d320136eae8ac0aaa83b"}, {"is_disabled": 0, "is_reserved": 0, "type": "electric_scooter", "lon": -77.0554775, "fusion_lon": 0.0, "lat": 38.9300735, "rental_uris": {"android": "https://dc.lft.to/lastmile_qr_scan", "ios": "https://dc.lft.to/lastmile_qr_scan"}, "fusion_lat": 0.0, "name": "dd5063f833f09358ccb0c5052e00374d", "bike_id": "dd5063f833f09358ccb0c5052e00374d"}, {"is_disabled": 0, "is_reserved": 0, "type": "electric_scooter", "lon": -77.02685683333333, "fusion_lon": 0.0, "lat": 38.8962305, "rental_uris": {"android": "https://dc.lft.to/lastmile_qr_scan", "ios": "https://dc.lft.to/lastmile_qr_scan"}, "fusion_lat": 0.0, "name": "a1aa9371a1eac50e22ae23bcf0fdaa8d", "bike_id": "a1aa9371a1eac50e22ae23bcf0fdaa8d"}, {"is_disabled": 0, "is_reserved": 0, "type": "electric_scooter", "lon": -77.032126, "fusion_lon": 0.0, "lat": 38.92583716666667, "rental_uris": {"android": "https://dc.lft.to/lastmile_qr_scan", "ios": "https://dc.lft.to/lastmile_qr_scan"}, "fusion_lat": 0.0, "name": "4939f1e36bfcadff2e9ce92062dc8d60", "bike_id": "4939f1e36bfcadff2e9ce92062dc8d60"}, {"is_disabled": 0, "is_reserved": 0, "type": "electric_scooter", "lon": -77.006218, "fusion_lon": 0.0, "lat": 38.87194483333333, "rental_uris": {"android": "https://dc.lft.to/lastmile_qr_scan", "ios": "https://dc.lft.to/lastmile_qr_scan"}, "fusion_lat": 0.0, "name": "f49f42838a649b3ffe13541c02967dbc", "bike_id": "f49f42838a649b3ffe13541c02967dbc"}, {"is_disabled": 0, "is_reserved": 0, "type": "electric_scooter", "lon": -77.02159533333334, "fusion_lon": 0.0, "lat": 38.926042333333335, "rental_uris": {"android": "https://dc.lft.to/lastmile_qr_scan", "ios": "https://dc.lft.to/lastmile_qr_scan"}, "fusion_lat": 0.0, "name": "facddaf62f882afc625f46e787751c08", "bike_id": "facddaf62f882afc625f46e787751c08"}, {"is_disabled": 0, "is_reserved": 0, "type": "electric_scooter", "lon": -77.041038, "fusion_lon": 0.0, "lat": 38.8984255, "rental_uris": {"android": "https://dc.lft.to/lastmile_qr_scan", "ios": "https://dc.lft.to/lastmile_qr_scan"}, "fusion_lat": 0.0, "name": "ff70f25bd5d21173aebc0e03f9d1d024", "bike_id": "ff70f25bd5d21173aebc0e03f9d1d024"}, {"is_disabled": 0, "is_reserved": 0, "type": "electric_scooter", "lon": -76.98709166666667, "fusion_lon": 0.0, "lat": 38.866983, "rental_uris": {"android": "https://dc.lft.to/lastmile_qr_scan", "ios": "https://dc.lft.to/lastmile_qr_scan"}, "fusion_lat": 0.0, "name": "0663eb584175388bb4b2a70592a327f0", "bike_id": "0663eb584175388bb4b2a70592a327f0"}, {"is_disabled": 0, "is_reserved": 0, "type": "electric_scooter", "lon": -77.0366155, "fusion_lon": 0.0, "lat": 38.91734, "rental_uris": {"android": "https://dc.lft.to/lastmile_qr_scan", "ios": "https://dc.lft.to/lastmile_qr_scan"}, "fusion_lat": 0.0, "name": "befb320aa5855f44b62ccfeeed29d395", "bike_id": "befb320aa5855f44b62ccfeeed29d395"}, {"is_disabled": 0, "is_reserved": 0, "type": "electric_bike", "lon": -77.09560016666667, "fusion_lon": 0.0, "lat": 38.91705733333333, "rental_uris": {"android": "https://dc.lft.to/lastmile_qr_scan", "ios": "https://dc.lft.to/lastmile_qr_scan"}, "fusion_lat": 0.0, "name": "a5f5a5e25ef9a5303755bf26cb38b8ff", "bike_id": "a5f5a5e25ef9a5303755bf26cb38b8ff"}, {"is_disabled": 0, "is_reserved": 0, "type": "electric_bike", "lon": -76.9956685, "fusion_lon": 0.0, "lat": 39.00783533333333, "rental_uris": {"android": "https://dc.lft.to/lastmile_qr_scan", "ios": "https://dc.lft.to/lastmile_qr_scan"}, "fusion_lat": 0.0, "name": "b37c2bcf1bd2ef7ad857e8d7fb66b08d", "bike_id": "b37c2bcf1bd2ef7ad857e8d7fb66b08d"}, {"is_disabled": 0, "is_reserved": 0, "type": "electric_scooter", "lon": -77.04658233333333, "fusion_lon": 0.0, "lat": 38.910169333333336, "rental_uris": {"android": "https://dc.lft.to/lastmile_qr_scan", "ios": "https://dc.lft.to/lastmile_qr_scan"}, "fusion_lat": 0.0, "name": "0f5603c80aae8c516f46e29d42b78aec", "bike_id": "0f5603c80aae8c516f46e29d42b78aec"}, {"is_disabled": 0, "is_reserved": 0, "type": "electric_scooter", "lon": -77.0293705, "fusion_lon": 0.0, "lat": 38.90370266666667, "rental_uris": {"android": "https://dc.lft.to/lastmile_qr_scan", "ios": "https://dc.lft.to/lastmile_qr_scan"}, "fusion_lat": 0.0, "name": "0d793d31a48cb93ee8d539f12336ed98", "bike_id": "0d793d31a48cb93ee8d539f12336ed98"}, {"is_disabled": 0, "is_reserved": 0, "type": "electric_bike", "lon": -77.12504816666667, "fusion_lon": 0.0, "lat": 39.024241, "rental_uris": {"android": "https://dc.lft.to/lastmile_qr_scan", "ios": "https://dc.lft.to/lastmile_qr_scan"}, "fusion_lat": 0.0, "name": "277842ffce53749e2a1ddcdf1c177293", "bike_id": "277842ffce53749e2a1ddcdf1c177293"}, {"is_disabled": 0, "is_reserved": 0, "type": "electric_scooter", "lon": -77.04190783333334, "fusion_lon": 0.0, "lat": 38.902398, "rental_uris": {"android": "https://dc.lft.to/lastmile_qr_scan", "ios": "https://dc.lft.to/lastmile_qr_scan"}, "fusion_lat": 0.0, "name": "51d9b3dad213ea1e861182b66fad7b06", "bike_id": "51d9b3dad213ea1e861182b66fad7b06"}, {"is_disabled": 0, "is_reserved": 0, "type": "electric_scooter", "lon": -76.98874183333334, "fusion_lon": 0.0, "lat": 38.892057333333334, "rental_uris": {"android": "https://dc.lft.to/lastmile_qr_scan", "ios": "https://dc.lft.to/lastmile_qr_scan"}, "fusion_lat": 0.0, "name": "efe0b2a87360f003616e9fd401ea1ca6", "bike_id": "efe0b2a87360f003616e9fd401ea1ca6"}, {"is_disabled": 0, "is_reserved": 0, "type": "electric_scooter", "lon": -77.03210233333333, "fusion_lon": 0.0, "lat": 38.887036, "rental_uris": {"android": "https://dc.lft.to/lastmile_qr_scan", "ios": "https://dc.lft.to/lastmile_qr_scan"}, "fusion_lat": 0.0, "name": "5900e495a78631b55f75749c2d96479f", "bike_id": "5900e495a78631b55f75749c2d96479f"}, {"is_disabled": 0, "is_reserved": 0, "type": "electric_scooter", "lon": -77.0436795, "fusion_lon": 0.0, "lat": 38.90267383333333, "rental_uris": {"android": "https://dc.lft.to/lastmile_qr_scan", "ios": "https://dc.lft.to/lastmile_qr_scan"}, "fusion_lat": 0.0, "name": "1802ed8147e159bbcd7adc540a14caf3", "bike_id": "1802ed8147e159bbcd7adc540a14caf3"}, {"is_disabled": 0, "is_reserved": 0, "type": "electric_scooter", "lon": -77.02280183333333, "fusion_lon": 0.0, "lat": 38.89732133333333, "rental_uris": {"android": "https://dc.lft.to/lastmile_qr_scan", "ios": "https://dc.lft.to/lastmile_qr_scan"}, "fusion_lat": 0.0, "name": "5c4d2e776b18b4b80ef8d72ab8bfd1a4", "bike_id": "5c4d2e776b18b4b80ef8d72ab8bfd1a4"}, {"is_disabled": 0, "is_reserved": 0, "type": "electric_bike", "lon": -76.98195016666666, "fusion_lon": 0.0, "lat": 38.985012166666664, "rental_uris": {"android": "https://dc.lft.to/lastmile_qr_scan", "ios": "https://dc.lft.to/lastmile_qr_scan"}, "fusion_lat": 0.0, "name": "238287c970908e2b9a0e99b414e53730", "bike_id": "238287c970908e2b9a0e99b414e53730"}, {"is_disabled": 0, "is_reserved": 0, "type": "electric_scooter", "lon": -77.03174716666666, "fusion_lon": 0.0, "lat": 38.91911133333333, "rental_uris": {"android": "https://dc.lft.to/lastmile_qr_scan", "ios": "https://dc.lft.to/lastmile_qr_scan"}, "fusion_lat": 0.0, "name": "d21d6084f3a9865afcff0207e1f13ab2", "bike_id": "d21d6084f3a9865afcff0207e1f13ab2"}, {"is_disabled": 0, "is_reserved": 0, "type": "electric_scooter", "lon": -77.04843466666667, "fusion_lon": 0.0, "lat": 38.88833016666667, "rental_uris": {"android": "https://dc.lft.to/lastmile_qr_scan", "ios": "https://dc.lft.to/lastmile_qr_scan"}, "fusion_lat": 0.0, "name": "387220d24f18ea0892f2a336333dcdaa", "bike_id": "387220d24f18ea0892f2a336333dcdaa"}, {"is_disabled": 0, "is_reserved": 0, "type": "electric_scooter", "lon": -77.031553, "fusion_lon": 0.0, "lat": 38.927221333333335, "rental_uris": {"android": "https://dc.lft.to/lastmile_qr_scan", "ios": "https://dc.lft.to/lastmile_qr_scan"}, "fusion_lat": 0.0, "name": "99764456842cb2c60c76f8a874ced3d5", "bike_id": "99764456842cb2c60c76f8a874ced3d5"}, {"is_disabled": 0, "is_reserved": 0, "type": "electric_scooter", "lon": -77.03756916666667, "fusion_lon": 0.0, "lat": 38.929133666666665, "rental_uris": {"android": "https://dc.lft.to/lastmile_qr_scan", "ios": "https://dc.lft.to/lastmile_qr_scan"}, "fusion_lat": 0.0, "name": "db17d72da837423d42434fec5f968a06", "bike_id": "db17d72da837423d42434fec5f968a06"}, {"is_disabled": 0, "is_reserved": 0, "type": "electric_scooter", "lon": -77.025793, "fusion_lon": 0.0, "lat": 38.94212233333333, "rental_uris": {"android": "https://dc.lft.to/lastmile_qr_scan", "ios": "https://dc.lft.to/lastmile_qr_scan"}, "fusion_lat": 0.0, "name": "7af1c105b5db593b377ac6053406b6f5", "bike_id": "7af1c105b5db593b377ac6053406b6f5"}, {"is_disabled": 0, "is_reserved": 0, "type": "electric_scooter", "lon": -77.03351, "fusion_lon": 0.0, "lat": 38.896260833333336, "rental_uris": {"android": "https://dc.lft.to/lastmile_qr_scan", "ios": "https://dc.lft.to/lastmile_qr_scan"}, "fusion_lat": 0.0, "name": "8355c18990ef11d886511cdb2bd45133", "bike_id": "8355c18990ef11d886511cdb2bd45133"}, {"is_disabled": 0, "is_reserved": 0, "type": "electric_scooter", "lon": -77.03862183333334, "fusion_lon": 0.0, "lat": 38.918054, "rental_uris": {"android": "https://dc.lft.to/lastmile_qr_scan", "ios": "https://dc.lft.to/lastmile_qr_scan"}, "fusion_lat": 0.0, "name": "1cd8eff77ff6d13f69735fda863bc1f8", "bike_id": "1cd8eff77ff6d13f69735fda863bc1f8"}, {"is_disabled": 0, "is_reserved": 0, "type": "electric_scooter", "lon": -77.01784266666667, "fusion_lon": 0.0, "lat": 38.87696616666667, "rental_uris": {"android": "https://dc.lft.to/lastmile_qr_scan", "ios": "https://dc.lft.to/lastmile_qr_scan"}, "fusion_lat": 0.0, "name": "39f57874f84813d3879dcd09acc0dbed", "bike_id": "39f57874f84813d3879dcd09acc0dbed"}, {"is_disabled": 0, "is_reserved": 0, "type": "electric_scooter", "lon": -76.9420995, "fusion_lon": 0.0, "lat": 38.889881333333335, "rental_uris": {"android": "https://dc.lft.to/lastmile_qr_scan", "ios": "https://dc.lft.to/lastmile_qr_scan"}, "fusion_lat": 0.0, "name": "6275c3cb4f1e7bafe1e223570f698256", "bike_id": "6275c3cb4f1e7bafe1e223570f698256"}, {"is_disabled": 0, "is_reserved": 0, "type": "electric_scooter", "lon": -77.03058966666667, "fusion_lon": 0.0, "lat": 38.901247, "rental_uris": {"android": "https://dc.lft.to/lastmile_qr_scan", "ios": "https://dc.lft.to/lastmile_qr_scan"}, "fusion_lat": 0.0, "name": "32d1d40482f7a31f88faac30822c6ff9", "bike_id": "32d1d40482f7a31f88faac30822c6ff9"}, {"is_disabled": 0, "is_reserved": 0, "type": "electric_bike", "lon": -76.90979916666667, "fusion_lon": 0.0, "lat": 38.85434983333333, "rental_uris": {"android": "https://dc.lft.to/lastmile_qr_scan", "ios": "https://dc.lft.to/lastmile_qr_scan"}, "fusion_lat": 0.0, "name": "67b6a5588430efe260875cb0ecdbbd05", "bike_id": "67b6a5588430efe260875cb0ecdbbd05"}, {"is_disabled": 0, "is_reserved": 0, "type": "electric_scooter", "lon": -77.05132583333334, "fusion_lon": 0.0, "lat": 38.907119, "rental_uris": {"android": "https://dc.lft.to/lastmile_qr_scan", "ios": "https://dc.lft.to/lastmile_qr_scan"}, "fusion_lat": 0.0, "name": "d14086a3def308484f9c66648b777338", "bike_id": "d14086a3def308484f9c66648b777338"}, {"is_disabled": 0, "is_reserved": 0, "type": "electric_scooter", "lon": -77.0100945, "fusion_lon": 0.0, "lat": 38.86709616666667, "rental_uris": {"android": "https://dc.lft.to/lastmile_qr_scan", "ios": "https://dc.lft.to/lastmile_qr_scan"}, "fusion_lat": 0.0, "name": "35998096a2ad749901b5fb7e8b71ba8d", "bike_id": "35998096a2ad749901b5fb7e8b71ba8d"}, {"is_disabled": 0, "is_reserved": 0, "type": "electric_scooter", "lon": -77.01395066666667, "fusion_lon": 0.0, "lat": 38.928358, "rental_uris": {"android": "https://dc.lft.to/lastmile_qr_scan", "ios": "https://dc.lft.to/lastmile_qr_scan"}, "fusion_lat": 0.0, "name": "b145ee6cf3b4a4369cb39b273ed300ad", "bike_id": "b145ee6cf3b4a4369cb39b273ed300ad"}, {"is_disabled": 0, "is_reserved": 0, "type": "electric_scooter", "lon": -77.03238033333334, "fusion_lon": 0.0, "lat": 38.92493066666667, "rental_uris": {"android": "https://dc.lft.to/lastmile_qr_scan", "ios": "https://dc.lft.to/lastmile_qr_scan"}, "fusion_lat": 0.0, "name": "dee95b91dd62cdaa3ef8c4d8ac66446d", "bike_id": "dee95b91dd62cdaa3ef8c4d8ac66446d"}, {"is_disabled": 0, "is_reserved": 0, "type": "electric_scooter", "lon": -77.02135316666667, "fusion_lon": 0.0, "lat": 38.91601633333333, "rental_uris": {"android": "https://dc.lft.to/lastmile_qr_scan", "ios": "https://dc.lft.to/lastmile_qr_scan"}, "fusion_lat": 0.0, "name": "7729e77de7f0fdc122c21a43666f3d75", "bike_id": "7729e77de7f0fdc122c21a43666f3d75"}, {"is_disabled": 0, "is_reserved": 0, "type": "electric_scooter", "lon": -77.03353733333333, "fusion_lon": 0.0, "lat": 38.89625433333333, "rental_uris": {"android": "https://dc.lft.to/lastmile_qr_scan", "ios": "https://dc.lft.to/lastmile_qr_scan"}, "fusion_lat": 0.0, "name": "992a7f0c97dc73aea8f9cd23b63872ca", "bike_id": "992a7f0c97dc73aea8f9cd23b63872ca"}, {"is_disabled": 0, "is_reserved": 0, "type": "electric_scooter", "lon": -77.06121783333333, "fusion_lon": 0.0, "lat": 38.943683666666665, "rental_uris": {"android": "https://dc.lft.to/lastmile_qr_scan", "ios": "https://dc.lft.to/lastmile_qr_scan"}, "fusion_lat": 0.0, "name": "988719d37d8e4d9eb578e15419d7a4e5", "bike_id": "988719d37d8e4d9eb578e15419d7a4e5"}, {"is_disabled": 0, "is_reserved": 0, "type": "electric_scooter", "lon": -76.93661866666666, "fusion_lon": 0.0, "lat": 38.889611, "rental_uris": {"android": "https://dc.lft.to/lastmile_qr_scan", "ios": "https://dc.lft.to/lastmile_qr_scan"}, "fusion_lat": 0.0, "name": "608b4a5196b07c30078f4c144c011e7d", "bike_id": "608b4a5196b07c30078f4c144c011e7d"}, {"is_disabled": 0, "is_reserved": 0, "type": "electric_scooter", "lon": -77.0482725, "fusion_lon": 0.0, "lat": 38.903833666666664, "rental_uris": {"android": "https://dc.lft.to/lastmile_qr_scan", "ios": "https://dc.lft.to/lastmile_qr_scan"}, "fusion_lat": 0.0, "name": "01d8207f05f781c5da5cda790d460d66", "bike_id": "01d8207f05f781c5da5cda790d460d66"}, {"is_disabled": 0, "is_reserved": 0, "type": "electric_bike", "lon": -77.01229966666666, "fusion_lon": 0.0, "lat": 38.950859666666666, "rental_uris": {"android": "https://dc.lft.to/lastmile_qr_scan", "ios": "https://dc.lft.to/lastmile_qr_scan"}, "fusion_lat": 0.0, "name": "464fdb69147e3a06578df2a18b17f202", "bike_id": "464fdb69147e3a06578df2a18b17f202"}, {"is_disabled": 0, "is_reserved": 0, "type": "electric_scooter", "lon": -77.03776233333333, "fusion_lon": 0.0, "lat": 38.936091, "rental_uris": {"android": "https://dc.lft.to/lastmile_qr_scan", "ios": "https://dc.lft.to/lastmile_qr_scan"}, "fusion_lat": 0.0, "name": "d8773e39815928f1d0fe36b001e786d2", "bike_id": "d8773e39815928f1d0fe36b001e786d2"}, {"is_disabled": 0, "is_reserved": 0, "type": "electric_scooter", "lon": -77.01220366666666, "fusion_lon": 0.0, "lat": 38.89615583333333, "rental_uris": {"android": "https://dc.lft.to/lastmile_qr_scan", "ios": "https://dc.lft.to/lastmile_qr_scan"}, "fusion_lat": 0.0, "name": "65756671408b51ca158172664101e1e8", "bike_id": "65756671408b51ca158172664101e1e8"}, {"is_disabled": 0, "is_reserved": 0, "type": "electric_scooter", "lon": -77.01095333333333, "fusion_lon": 0.0, "lat": 38.90562766666667, "rental_uris": {"android": "https://dc.lft.to/lastmile_qr_scan", "ios": "https://dc.lft.to/lastmile_qr_scan"}, "fusion_lat": 0.0, "name": "5ba53204dcf19be71fab34aa4874a45b", "bike_id": "5ba53204dcf19be71fab34aa4874a45b"}, {"is_disabled": 0, "is_reserved": 0, "type": "electric_bike", "lon": -77.07685216666667, "fusion_lon": 0.0, "lat": 38.8319525, "rental_uris": {"android": "https://dc.lft.to/lastmile_qr_scan", "ios": "https://dc.lft.to/lastmile_qr_scan"}, "fusion_lat": 0.0, "name": "7536df44338ab283ae76fb817c5b0a0c", "bike_id": "7536df44338ab283ae76fb817c5b0a0c"}, {"is_disabled": 0, "is_reserved": 0, "type": "electric_bike", "lon": -76.93529933333333, "fusion_lon": 0.0, "lat": 38.9555375, "rental_uris": {"android": "https://dc.lft.to/lastmile_qr_scan", "ios": "https://dc.lft.to/lastmile_qr_scan"}, "fusion_lat": 0.0, "name": "d02f9c86cfa702e233d881d9bbb85ea2", "bike_id": "d02f9c86cfa702e233d881d9bbb85ea2"}, {"is_disabled": 0, "is_reserved": 0, "type": "electric_bike", "lon": -77.12256233333333, "fusion_lon": 0.0, "lat": 38.88767933333333, "rental_uris": {"android": "https://dc.lft.to/lastmile_qr_scan", "ios": "https://dc.lft.to/lastmile_qr_scan"}, "fusion_lat": 0.0, "name": "aa1b07b58b060e75ef505283e4123ebf", "bike_id": "aa1b07b58b060e75ef505283e4123ebf"}, {"is_disabled": 0, "is_reserved": 0, "type": "electric_bike", "lon": -77.11230266666666, "fusion_lon": 0.0, "lat": 38.828719666666665, "rental_uris": {"android": "https://dc.lft.to/lastmile_qr_scan", "ios": "https://dc.lft.to/lastmile_qr_scan"}, "fusion_lat": 0.0, "name": "7583041a16e8622e751601cec8094cb4", "bike_id": "7583041a16e8622e751601cec8094cb4"}, {"is_disabled": 0, "is_reserved": 0, "type": "electric_scooter", "lon": -77.0334445, "fusion_lon": 0.0, "lat": 38.89248716666667, "rental_uris": {"android": "https://dc.lft.to/lastmile_qr_scan", "ios": "https://dc.lft.to/lastmile_qr_scan"}, "fusion_lat": 0.0, "name": "42e07cbd6669980d35af68214bae825c", "bike_id": "42e07cbd6669980d35af68214bae825c"}, {"is_disabled": 0, "is_reserved": 0, "type": "electric_scooter", "lon": -77.04681083333334, "fusion_lon": 0.0, "lat": 38.89730333333333, "rental_uris": {"android": "https://dc.lft.to/lastmile_qr_scan", "ios": "https://dc.lft.to/lastmile_qr_scan"}, "fusion_lat": 0.0, "name": "8962cfed4f56a1c1966b2c4d19d698e4", "bike_id": "8962cfed4f56a1c1966b2c4d19d698e4"}, {"is_disabled": 0, "is_reserved": 0, "type": "electric_scooter", "lon": -77.0222855, "fusion_lon": 0.0, "lat": 38.91272583333333, "rental_uris": {"android": "https://dc.lft.to/lastmile_qr_scan", "ios": "https://dc.lft.to/lastmile_qr_scan"}, "fusion_lat": 0.0, "name": "3a2bf90465c0ddf1870c0005413c7508", "bike_id": "3a2bf90465c0ddf1870c0005413c7508"}, {"is_disabled": 0, "is_reserved": 0, "type": "electric_scooter", "lon": -77.031999, "fusion_lon": 0.0, "lat": 38.930700333333334, "rental_uris": {"android": "https://dc.lft.to/lastmile_qr_scan", "ios": "https://dc.lft.to/lastmile_qr_scan"}, "fusion_lat": 0.0, "name": "464f7829bb44fa1f74eaaaa1455afc92", "bike_id": "464f7829bb44fa1f74eaaaa1455afc92"}, {"is_disabled": 0, "is_reserved": 0, "type": "electric_scooter", "lon": -77.04861266666667, "fusion_lon": 0.0, "lat": 38.913397333333336, "rental_uris": {"android": "https://dc.lft.to/lastmile_qr_scan", "ios": "https://dc.lft.to/lastmile_qr_scan"}, "fusion_lat": 0.0, "name": "91819e7274435b60cd7e05b1d1776693", "bike_id": "91819e7274435b60cd7e05b1d1776693"}, {"is_disabled": 0, "is_reserved": 0, "type": "electric_scooter", "lon": -77.00621683333334, "fusion_lon": 0.0, "lat": 38.87195416666667, "rental_uris": {"android": "https://dc.lft.to/lastmile_qr_scan", "ios": "https://dc.lft.to/lastmile_qr_scan"}, "fusion_lat": 0.0, "name": "e267203cd65ea8ae4eedfc1d78987bd5", "bike_id": "e267203cd65ea8ae4eedfc1d78987bd5"}, {"is_disabled": 0, "is_reserved": 0, "type": "electric_scooter", "lon": -77.042117, "fusion_lon": 0.0, "lat": 38.91131516666667, "rental_uris": {"android": "https://dc.lft.to/lastmile_qr_scan", "ios": "https://dc.lft.to/lastmile_qr_scan"}, "fusion_lat": 0.0, "name": "0e947340980b29a8ddc59ea8d20df749", "bike_id": "0e947340980b29a8ddc59ea8d20df749"}, {"is_disabled": 0, "is_reserved": 0, "type": "electric_scooter", "lon": -76.99178366666666, "fusion_lon": 0.0, "lat": 38.88912033333333, "rental_uris": {"android": "https://dc.lft.to/lastmile_qr_scan", "ios": "https://dc.lft.to/lastmile_qr_scan"}, "fusion_lat": 0.0, "name": "ee3751bfbc9a14ead34df3b7c393fde5", "bike_id": "ee3751bfbc9a14ead34df3b7c393fde5"}, {"is_disabled": 0, "is_reserved": 0, "type": "electric_scooter", "lon": -77.02021366666666, "fusion_lon": 0.0, "lat": 38.89474416666667, "rental_uris": {"android": "https://dc.lft.to/lastmile_qr_scan", "ios": "https://dc.lft.to/lastmile_qr_scan"}, "fusion_lat": 0.0, "name": "9dfce7e3a69471cace0117f1ff0ebc74", "bike_id": "9dfce7e3a69471cace0117f1ff0ebc74"}, {"is_disabled": 0, "is_reserved": 0, "type": "electric_scooter", "lon": -77.0768595, "fusion_lon": 0.0, "lat": 38.92165983333334, "rental_uris": {"android": "https://dc.lft.to/lastmile_qr_scan", "ios": "https://dc.lft.to/lastmile_qr_scan"}, "fusion_lat": 0.0, "name": "0542fb59d4e5b7ab6358cba480263d39", "bike_id": "0542fb59d4e5b7ab6358cba480263d39"}, {"is_disabled": 0, "is_reserved": 0, "type": "electric_scooter", "lon": -77.038437, "fusion_lon": 0.0, "lat": 38.93113566666667, "rental_uris": {"android": "https://dc.lft.to/lastmile_qr_scan", "ios": "https://dc.lft.to/lastmile_qr_scan"}, "fusion_lat": 0.0, "name": "fa2be33c89a90fedaa7fe3f379b0095b", "bike_id": "fa2be33c89a90fedaa7fe3f379b0095b"}, {"is_disabled": 0, "is_reserved": 0, "type": "electric_scooter", "lon": -77.02178633333334, "fusion_lon": 0.0, "lat": 38.897478, "rental_uris": {"android": "https://dc.lft.to/lastmile_qr_scan", "ios": "https://dc.lft.to/lastmile_qr_scan"}, "fusion_lat": 0.0, "name": "f41acbd94bcd7a9b40f56cab4534a1b3", "bike_id": "f41acbd94bcd7a9b40f56cab4534a1b3"}, {"is_disabled": 0, "is_reserved": 0, "type": "electric_scooter", "lon": -77.02663316666667, "fusion_lon": 0.0, "lat": 38.9309415, "rental_uris": {"android": "https://dc.lft.to/lastmile_qr_scan", "ios": "https://dc.lft.to/lastmile_qr_scan"}, "fusion_lat": 0.0, "name": "abfc3c5bc6dead40994e796f79ef03f1", "bike_id": "abfc3c5bc6dead40994e796f79ef03f1"}, {"is_disabled": 0, "is_reserved": 0, "type": "electric_scooter", "lon": -77.022743, "fusion_lon": 0.0, "lat": 38.8971065, "rental_uris": {"android": "https://dc.lft.to/lastmile_qr_scan", "ios": "https://dc.lft.to/lastmile_qr_scan"}, "fusion_lat": 0.0, "name": "1f70c94d53a5ce54f289b04e28fe871c", "bike_id": "1f70c94d53a5ce54f289b04e28fe871c"}, {"is_disabled": 0, "is_reserved": 0, "type": "electric_scooter", "lon": -77.04502333333333, "fusion_lon": 0.0, "lat": 38.9067255, "rental_uris": {"android": "https://dc.lft.to/lastmile_qr_scan", "ios": "https://dc.lft.to/lastmile_qr_scan"}, "fusion_lat": 0.0, "name": "1636580ba2b488f4e485b109b87bf11c", "bike_id": "1636580ba2b488f4e485b109b87bf11c"}, {"is_disabled": 0, "is_reserved": 0, "type": "electric_scooter", "lon": -77.0211865, "fusion_lon": 0.0, "lat": 38.8921965, "rental_uris": {"android": "https://dc.lft.to/lastmile_qr_scan", "ios": "https://dc.lft.to/lastmile_qr_scan"}, "fusion_lat": 0.0, "name": "60398cf48b9afb2251461161bfd9aaa8", "bike_id": "60398cf48b9afb2251461161bfd9aaa8"}, {"is_disabled": 0, "is_reserved": 0, "type": "electric_scooter", "lon": -77.03524783333333, "fusion_lon": 0.0, "lat": 38.92252633333333, "rental_uris": {"android": "https://dc.lft.to/lastmile_qr_scan", "ios": "https://dc.lft.to/lastmile_qr_scan"}, "fusion_lat": 0.0, "name": "4f9f618d53467668f8df551545f701db", "bike_id": "4f9f618d53467668f8df551545f701db"}, {"is_disabled": 0, "is_reserved": 0, "type": "electric_scooter", "lon": -77.05790533333334, "fusion_lon": 0.0, "lat": 38.93479166666667, "rental_uris": {"android": "https://dc.lft.to/lastmile_qr_scan", "ios": "https://dc.lft.to/lastmile_qr_scan"}, "fusion_lat": 0.0, "name": "9c0d06aec647882be45564126245a787", "bike_id": "9c0d06aec647882be45564126245a787"}, {"is_disabled": 0, "is_reserved": 0, "type": "electric_scooter", "lon": -77.0297275, "fusion_lon": 0.0, "lat": 38.91724966666666, "rental_uris": {"android": "https://dc.lft.to/lastmile_qr_scan", "ios": "https://dc.lft.to/lastmile_qr_scan"}, "fusion_lat": 0.0, "name": "cc8bb67aec2ddb27abeadc8ff23f4da4", "bike_id": "cc8bb67aec2ddb27abeadc8ff23f4da4"}, {"is_disabled": 0, "is_reserved": 0, "type": "electric_bike", "lon": -76.92916866666667, "fusion_lon": 0.0, "lat": 38.98025333333333, "rental_uris": {"android": "https://dc.lft.to/lastmile_qr_scan", "ios": "https://dc.lft.to/lastmile_qr_scan"}, "fusion_lat": 0.0, "name": "3818bb15481a9b6f8343a04bb73db3bf", "bike_id": "3818bb15481a9b6f8343a04bb73db3bf"}, {"is_disabled": 0, "is_reserved": 0, "type": "electric_scooter", "lon": -76.94644333333333, "fusion_lon": 0.0, "lat": 38.898472, "rental_uris": {"android": "https://dc.lft.to/lastmile_qr_scan", "ios": "https://dc.lft.to/lastmile_qr_scan"}, "fusion_lat": 0.0, "name": "1b3fc25673e1e206ee4ad0d78f9ae32f", "bike_id": "1b3fc25673e1e206ee4ad0d78f9ae32f"},