{"data": {"bikes": [{"rental_uris": {"ios": "https://dc.lft.to/lastmile_qr_scan", "android": "https://dc.lft.to/lastmile_qr_scan"}, "fusion_lat": 0.0, "name": "778854b1f4a416557b84cb7c5d50b33f", "bike_id": "778854b1f4a416557b84cb7c5d50b33f", "is_disabled": 0, "type": "electric_scooter", "lat": 38.887303, "lon": -77.0282545, "is_reserved": 0, "fusion_lon": 0.0}, {"rental_uris": {"ios": "https://dc.lft.to/lastmile_qr_scan", "android": "https://dc.lft.to/lastmile_qr_scan"}, "fusion_lat": 0.0, "name": "56015010719726678f07abbece24ff70", "bike_id": "56015010719726678f07abbece24ff70", "is_disabled": 0, "type": "electric_scooter", "lat": 38.90683716666667, "lon": -77.026968, "is_reserved": 0, "fusion_lon": 0.0}, {"rental_uris": {"ios": "https://dc.lft.to/lastmile_qr_scan", "android": "https://dc.lft.to/lastmile_qr_scan"}, "fusion_lat": 0.0, "name": "9d47f5cd6d132a3770e15a101980a24e", "bike_id": "9d47f5cd6d132a3770e15a101980a24e", "is_disabled": 0, "type": "electric_scooter", "lat": 38.930184833333335, "lon": -77.0553045, "is_reserved": 0, "fusion_lon": 0.0}, {"rental_uris": {"ios": "https://dc.lft.to/lastmile_qr_scan", "android": "https://dc.lft.to/lastmile_qr_scan"}, "fusion_lat": 0.0, "name": "0ead062032085f3af43e58442cb6413e", "bike_id": "0ead062032085f3af43e58442cb6413e", "is_disabled": 0, "type": "electric_scooter", "lat": 38.93553, "lon": -77.0222495, "is_reserved": 0, "fusion_lon": 0.0}, {"rental_uris": {"ios": "https://dc.lft.to/lastmile_qr_scan", "android": "https://dc.lft.to/lastmile_qr_scan"}, "fusion_lat": 0.0, "name": "fc75960f9c8f997a838897bb2ac6b73f", "bike_id": "fc75960f9c8f997a838897bb2ac6b73f", "is_disabled": 0, "type": "electric_bike", "lat": 38.86388433333333, "lon": -76.9899455, "is_reserved": 0, "fusion_lon": 0.0}, {"rental_uris": {"ios": "https://dc.lft.to/lastmile_qr_scan", "android": "https://dc.lft.to/lastmile_qr_scan"}, "fusion_lat": 0.0, "name": "f3519ca0daf8533d3c5cb509c51d88e9", "bike_id": "f3519ca0daf8533d3c5cb509c51d88e9", "is_disabled": 0, "type": "electric_scooter", "lat": 38.936055833333334, "lon": -77.05862816666667, "is_reserved": 0, "fusion_lon": 0.0}, {"rental_uris": {"ios": "https://dc.lft.to/lastmile_qr_scan", "android": "https://dc.lft.to/lastmile_qr_scan"}, "fusion_lat": 0.0, "name": "fea9eb7e7b8f29fd9ee76d996b052c43", "bike_id": "fea9eb7e7b8f29fd9ee76d996b052c43", "is_disabled": 0, "type": "electric_bike", "lat": 38.962799, "lon": -76.98299316666666, "is_reserved": 0, "fusion_lon": 0.0}, {"rental_uris": {"ios": "https://dc.lft.to/lastmile_qr_scan", "android": "https://dc.lft.to/lastmile_qr_scan"}, "fusion_lat": 0.0, "name": "a049ead018f3ca709dddeb4a698a66bc", "bike_id": "a049ead018f3ca709dddeb4a698a66bc", "is_disabled": 0, "type": "electric_scooter", "lat": 38.86957533333333, "lon": -76.96678816666666, "is_reserved": 0, "fusion_lon": 0.0}, {"rental_uris": {"ios": "https://dc.lft.to/lastmile_qr_scan", "android": "https://dc.lft.to/lastmile_qr_scan"}, "fusion_lat": 0.0, "name": "299f2d8ef76231b48f3cb6c3fb1184df", "bike_id": "299f2d8ef76231b48f3cb6c3fb1184df", "is_disabled": 0, "type": "electric_scooter", "lat": 38.954227, "lon": -77.02775266666667, "is_reserved": 0, "fusion_lon": 0.0}, {"rental_uris": {"ios": "https://dc.lft.to/lastmile_qr_scan", "android": "https://dc.lft.to/lastmile_qr_scan"}, "fusion_lat": 0.0, "name": "14bd9a9fff107a88d157c30238ad62f8", "bike_id": "14bd9a9fff107a88d157c30238ad62f8", "is_disabled": 0, "type": "electric_scooter", "lat": 38.931896, "lon": -77.03309216666666, "is_reserved": 0, "fusion_lon": 0.0}, {"rental_uris": {"ios": "https://dc.lft.to/lastmile_qr_scan", "android": "https://dc.lft.to/lastmile_qr_scan"}, "fusion_lat": 0.0, "name": "fb1152c06ac5908fbcd7ef583f12c2d5", "bike_id": "fb1152c06ac5908fbcd7ef583f12c2d5", "is_disabled": 0, "type": "electric_scooter", "lat": 38.930749, "lon": -77.02160683333334, "is_reserved": 0, "fusion_lon": 0.0}, {"rental_uris": {"ios": "https://dc.lft.to/lastmile_qr_scan", "android": "https://dc.lft.to/lastmile_qr_scan"}, "fusion_lat": 0.0, "name": "c233b48993583888fefe77d7f231d76b", "bike_id": "c233b48993583888fefe77d7f231d76b", "is_disabled": 0, "type": "electric_scooter", "lat": 38.91913666666667, "lon": -77.02412916666667, "is_reserved": 0, "fusion_lon": 0.0}, {"rental_uris": {"ios": "https://dc.lft.to/lastmile_qr_scan", "android": "https://dc.lft.to/lastmile_qr_scan"}, "fusion_lat": 0.0, "name": "aab370e4c041d76fc5c2192f8d15e23f", "bike_id": "aab370e4c041d76fc5c2192f8d15e23f", "is_disabled": 0, "type": "electric_scooter", "lat": 38.93943183333333, "lon": -77.07527166666667, "is_reserved": 0, "fusion_lon": 0.0}, {"rental_uris": {"ios": "https://dc.lft.to/lastmile_qr_scan", "android": "https://dc.lft.to/lastmile_qr_scan"}, "fusion_lat": 0.0, "name": "310f4fceea761d293dd481cd057ea3ee", "bike_id": "310f4fceea761d293dd481cd057ea3ee", "is_disabled": 0, "type": "electric_scooter", "lat": 38.92853566666667, "lon": -77.03104116666667, "is_reserved": 0, "fusion_lon": 0.0}, {"rental_uris": {"ios": "https://dc.lft.to/lastmile_qr_scan", "android": "https://dc.lft.to/lastmile_qr_scan"}, "fusion_lat": 0.0, "name": "58824ba509cba8c9b12caa34c55206ac", "bike_id": "58824ba509cba8c9b12caa34c55206ac", "is_disabled": 0, "type": "electric_scooter", "lat": 38.866478, "lon": -76.9851035, "is_reserved": 0, "fusion_lon": 0.0}, {"rental_uris": {"ios": "https://dc.lft.to/lastmile_qr_scan", "android": "https://dc.lft.to/lastmile_qr_scan"}, "fusion_lat": 0.0, "name": "d725a4ad668b8bc8fde64350df0ba7d6", "bike_id": "d725a4ad668b8bc8fde64350df0ba7d6", "is_disabled": 0, "type": "electric_scooter", "lat": 38.91422583333333, "lon": -77.0392865, "is_reserved": 0, "fusion_lon": 0.0}, {"rental_uris": {"ios": "https://dc.lft.to/lastmile_qr_scan", "android": "https://dc.lft.to/lastmile_qr_scan"}, "fusion_lat": 0.0, "name": "1ea183da7d0b85e8c16e101dd99e6686", "bike_id": "1ea183da7d0b85e8c16e101dd99e6686", "is_disabled": 0, "type": "electric_scooter", "lat": 38.91508816666666, "lon": -77.02190033333333, "is_reserved": 0, "fusion_lon": 0.0}, {"rental_uris": {"ios": "https://dc.lft.to/lastmile_qr_scan", "android": "https://dc.lft.to/lastmile_qr_scan"}, "fusion_lat": 0.0, "name": "f6683fa44d831ed6b5f781e290792c84", "bike_id": "f6683fa44d831ed6b5f781e290792c84", "is_disabled": 0, "type": "electric_scooter", "lat": 38.923782833333334, "lon": -77.043139, "is_reserved": 0, "fusion_lon": 0.0}, {"rental_uris": {"ios": "https://dc.lft.to/lastmile_qr_scan", "android": "https://dc.lft.to/lastmile_qr_scan"}, "fusion_lat": 0.0, "name": "db97866a0a4126cc966c6b501ba129ff", "bike_id": "db97866a0a4126cc966c6b501ba129ff", "is_disabled": 0, "type": "electric_bike", "lat": 38.87924616666667, "lon": -77.01376933333333, "is_reserved": 0, "fusion_lon": 0.0}, {"rental_uris": {"ios": "https://dc.lft.to/lastmile_qr_scan", "android": "https://dc.lft.to/lastmile_qr_scan"}, "fusion_lat": 0.0, "name": "d9487dd08a3b3e2eb7b953316cad7249", "bike_id": "d9487dd08a3b3e2eb7b953316cad7249", "is_disabled": 0, "type": "electric_scooter", "lat": 38.898817333333334, "lon": -76.9317645, "is_reserved": 0, "fusion_lon": 0.0}, {"rental_uris": {"ios": "https://dc.lft.to/lastmile_qr_scan", "android": "https://dc.lft.to/lastmile_qr_scan"}, "fusion_lat": 0.0, "name": "1f7e27867b65990c2976981202787b29", "bike_id": "1f7e27867b65990c2976981202787b29", "is_disabled": 0, "type": "electric_bike", "lat": 38.862105, "lon": -76.99781083333333, "is_reserved": 0, "fusion_lon": 0.0}, {"rental_uris": {"ios": "https://dc.lft.to/lastmile_qr_scan", "android": "https://dc.lft.to/lastmile_qr_scan"}, "fusion_lat": 0.0, "name": "b4d2fb88908870f3b037a06bc354813e", "bike_id": "b4d2fb88908870f3b037a06bc354813e", "is_disabled": 0, "type": "electric_scooter", "lat": 38.9186385, "lon": -77.03550116666666, "is_reserved": 0, "fusion_lon": 0.0}, {"rental_uris": {"ios": "https://dc.lft.to/lastmile_qr_scan", "android": "https://dc.lft.to/lastmile_qr_scan"}, "fusion_lat": 0.0, "name": "56e2d5d2e2d428e09433973e2880ed97", "bike_id": "56e2d5d2e2d428e09433973e2880ed97", "is_disabled": 0, "type": "electric_scooter", "lat": 38.932943, "lon": -77.02193933333334, "is_reserved": 0, "fusion_lon": 0.0}, {"rental_uris": {"ios": "https://dc.lft.to/lastmile_qr_scan", "android": "https://dc.lft.to/lastmile_qr_scan"}, "fusion_lat": 0.0, "name": "1f7d02d1eb3b093c1d31346e3f9ec8df", "bike_id": "1f7d02d1eb3b093c1d31346e3f9ec8df", "is_disabled": 0, "type": "electric_scooter", "lat": 38.90256383333333, "lon": -77.0342425, "is_reserved": 0, "fusion_lon": 0.0}, {"rental_uris": {"ios": "https://dc.lft.to/lastmile_qr_scan", "android": "https://dc.lft.to/lastmile_qr_scan"}, "fusion_lat": 0.0, "name": "9f3b7c3632a850f91fd4cdba81cb9af7", "bike_id": "9f3b7c3632a850f91fd4cdba81cb9af7", "is_disabled": 0, "type": "electric_scooter", "lat": 38.89521333333333, "lon": -77.02437366666666, "is_reserved": 0, "fusion_lon": 0.0}, {"rental_uris": {"ios": "https://dc.lft.to/lastmile_qr_scan", "android": "https://dc.lft.to/lastmile_qr_scan"}, "fusion_lat": 0.0, "name": "943254db1db59882648910153b7d1a13", "bike_id": "943254db1db59882648910153b7d1a13", "is_disabled": 0, "type": "electric_scooter", "lat": 38.91713033333333, "lon": -77.02573733333334, "is_reserved": 0, "fusion_lon": 0.0}, {"rental_uris": {"ios": "https://dc.lft.to/lastmile_qr_scan", "android": "https://dc.lft.to/lastmile_qr_scan"}, "fusion_lat": 0.0, "name": "e4d9021a9420ac9405ca74a6eeb042b4", "bike_id": "e4d9021a9420ac9405ca74a6eeb042b4", "is_disabled": 0, "type": "electric_scooter", "lat": 38.9282945, "lon": -77.0371785, "is_reserved": 0, "fusion_lon": 0.0}, {"rental_uris": {"ios": "https://dc.lft.to/lastmile_qr_scan", "android": "https://dc.lft.to/lastmile_qr_scan"}, "fusion_lat": 0.0, "name": "33e32c0985dfcc909d369e1ff5f9d933", "bike_id": "33e32c0985dfcc909d369e1ff5f9d933", "is_disabled": 0, "type": "electric_scooter", "lat": 38.89221416666667, "lon": -77.01368183333334, "is_reserved": 0, "fusion_lon": 0.0}, {"rental_uris": {"ios": "https://dc.lft.to/lastmile_qr_scan", "android": "https://dc.lft.to/lastmile_qr_scan"}, "fusion_lat": 0.0, "name": "37253ef224f2a80f2e01946ebd294bf0", "bike_id": "37253ef224f2a80f2e01946ebd294bf0", "is_disabled": 0, "type": "electric_scooter", "lat": 38.864959, "lon": -76.9898745, "is_reserved": 0, "fusion_lon": 0.0}, {"rental_uris": {"ios": "https://dc.lft.to/lastmile_qr_scan", "android": "https://dc.lft.to/lastmile_qr_scan"}, "fusion_lat": 0.0, "name": "f6b36daa4a3c01dbc24e2d8931011811", "bike_id": "f6b36daa4a3c01dbc24e2d8931011811", "is_disabled": 0, "type": "electric_scooter", "lat": 38.9037825, "lon": -77.01753316666667, "is_reserved": 0, "fusion_lon": 0.0}, {"rental_uris": {"ios": "https://dc.lft.to/lastmile_qr_scan", "android": "https://dc.lft.to/lastmile_qr_scan"}, "fusion_lat": 0.0, "name": "4773cc233f00bbdc6b74a772663587ca", "bike_id": "4773cc233f00bbdc6b74a772663587ca", "is_disabled": 0, "type": "electric_scooter", "lat": 38.922886, "lon": -77.0319515, "is_reserved": 0, "fusion_lon": 0.0}, {"rental_uris": {"ios": "https://dc.lft.to/lastmile_qr_scan", "android": "https://dc.lft.to/lastmile_qr_scan"}, "fusion_lat": 0.0, "name": "851f7514a1b729caf285853393663998", "bike_id": "851f7514a1b729caf285853393663998", "is_disabled": 0, "type": "electric_scooter", "lat": 38.93162983333333, "lon": -77.05610366666667, "is_reserved": 0, "fusion_lon": 0.0}, {"rental_uris": {"ios": "https://dc.lft.to/lastmile_qr_scan", "android": "https://dc.lft.to/lastmile_qr_scan"}, "fusion_lat": 0.0, "name": "386b277b6fc295f31389ee0809ced850", "bike_id": "386b277b6fc295f31389ee0809ced850", "is_disabled": 0, "type": "electric_scooter", "lat": 38.91178266666667, "lon": -77.04454766666667, "is_reserved": 0, "fusion_lon": 0.0}, {"rental_uris": {"ios": "https://dc.lft.to/lastmile_qr_scan", "android": "https://dc.lft.to/lastmile_qr_scan"}, "fusion_lat": 0.0, "name": "fd3b2311388ead4363e2689c5165f990", "bike_id": "fd3b2311388ead4363e2689c5165f990", "is_disabled": 0, "type": "electric_scooter", "lat": 38.916897, "lon": -77.0362885, "is_reserved": 0, "fusion_lon": 0.0}, {"rental_uris": {"ios": "https://dc.lft.to/lastmile_qr_scan", "android": "https://dc.lft.to/lastmile_qr_scan"}, "fusion_lat": 0.0, "name": "0e82172ff88bd2a9f100f18395f523ff", "bike_id": "0e82172ff88bd2a9f100f18395f523ff", "is_disabled": 0, "type": "electric_scooter", "lat": 38.89036883333333, "lon": -76.9375545, "is_reserved": 0, "fusion_lon": 0.0}, {"rental_uris": {"ios": "https://dc.lft.to/lastmile_qr_scan", "android": "https://dc.lft.to/lastmile_qr_scan"}, "fusion_lat": 0.0, "name": "68a97e1d7dfa57b0f773599a47821e01", "bike_id": "68a97e1d7dfa57b0f773599a47821e01", "is_disabled": 0, "type": "electric_scooter", "lat": 38.91559316666667, "lon": -77.03876533333333, "is_reserved": 0, "fusion_lon": 0.0}, {"rental_uris": {"ios": "https://dc.lft.to/lastmile_qr_scan", "android": "https://dc.lft.to/lastmile_qr_scan"}, "fusion_lat": 0.0, "name": "1974561f1b2aa87e4675f97a61710287", "bike_id": "1974561f1b2aa87e4675f97a61710287", "is_disabled": 0, "type": "electric_bike", "lat": 38.8381015, "lon": -77.09526583333333, "is_reserved": 0, "fusion_lon": 0.0}, {"rental_uris": {"ios": "https://dc.lft.to/lastmile_qr_scan", "android": "https://dc.lft.to/lastmile_qr_scan"}, "fusion_lat": 0.0, "name": "172383defc0ad77be182fdf0a40446f7", "bike_id": "172383defc0ad77be182fdf0a40446f7", "is_disabled": 0, "type": "electric_scooter", "lat": 38.879631, "lon": -76.98744016666667, "is_reserved": 0, "fusion_lon": 0.0}, {"rental_uris": {"ios": "https://dc.lft.to/lastmile_qr_scan", "android": "https://dc.lft.to/lastmile_qr_scan"}, "fusion_lat": 0.0, "name": "61a213349b16d63037e721a5b37e73e4", "bike_id": "61a213349b16d63037e721a5b37e73e4", "is_disabled": 0, "type": "electric_scooter", "lat": 38.90944183333333, "lon": -77.04478633333333, "is_reserved": 0, "fusion_lon": 0.0}, {"rental_uris": {"ios": "https://dc.lft.to/lastmile_qr_scan", "android": "https://dc.lft.to/lastmile_qr_scan"}, "fusion_lat": 0.0, "name": "db506551e8bbc4d4ac5095c5469dbaf0", "bike_id": "db506551e8bbc4d4ac5095c5469dbaf0", "is_disabled": 0, "type": "electric_scooter", "lat": 38.905360333333334, "lon": -77.0491065, "is_reserved": 0, "fusion_lon": 0.0}, {"rental_uris": {"ios": "https://dc.lft.to/lastmile_qr_scan", "android": "https://dc.lft.to/lastmile_qr_scan"}, "fusion_lat": 0.0, "name": "a47724691c4df983d0450555b3de4344", "bike_id": "a47724691c4df983d0450555b3de4344", "is_disabled": 0, "type": "electric_bike", "lat": 38.918, "lon": -77.223468, "is_reserved": 0, "fusion_lon": 0.0}, {"rental_uris": {"ios": "https://dc.lft.to/lastmile_qr_scan", "android": "https://dc.lft.to/lastmile_qr_scan"}, "fusion_lat": 0.0, "name": "58849ae0ffa99ee0663d99569f3b8730", "bike_id": "58849ae0ffa99ee0663d99569f3b8730", "is_disabled": 0, "type": "electric_scooter", "lat": 38.921331, "lon": -77.0180785, "is_reserved": 0, "fusion_lon": 0.0}, {"rental_uris": {"ios": "https://dc.lft.to/lastmile_qr_scan", "android": "https://dc.lft.to/lastmile_qr_scan"}, "fusion_lat": 0.0, "name": "d458f9e9b1bd0f555b78184600d2287b", "bike_id": "d458f9e9b1bd0f555b78184600d2287b", "is_disabled": 0, "type": "electric_scooter", "lat": 38.91793033333333, "lon": -77.0366535, "is_reserved": 0, "fusion_lon": 0.0}, {"rental_uris": {"ios": "https://dc.lft.to/lastmile_qr_scan", "android": "https://dc.lft.to/lastmile_qr_scan"}, "fusion_lat": 0.0, "name": "03f1d1198a5c2678a7e9a32bcd12a717", "bike_id": "03f1d1198a5c2678a7e9a32bcd12a717", "is_disabled": 0, "type": "electric_scooter", "lat": 38.916920833333336, "lon": -77.02464033333334, "is_reserved": 0, "fusion_lon": 0.0}, {"rental_uris": {"ios": "https://dc.lft.to/lastmile_qr_scan", "android": "https://dc.lft.to/lastmile_qr_scan"}, "fusion_lat": 0.0, "name": "ab5fbf7adfb1b12ce74f31ff3ce25638", "bike_id": "ab5fbf7adfb1b12ce74f31ff3ce25638", "is_disabled": 0, "type": "electric_scooter", "lat": 38.945389, "lon": -77.0178775, "is_reserved": 0, "fusion_lon": 0.0}, {"rental_uris": {"ios": "https://dc.lft.to/lastmile_qr_scan", "android": "https://dc.lft.to/lastmile_qr_scan"}, "fusion_lat": 0.0, "name": "8d418d8abba112a7ca2e12357828669c", "bike_id": "8d418d8abba112a7ca2e12357828669c", "is_disabled": 0, "type": "electric_scooter", "lat": 38.9005125, "lon": -77.0515435, "is_reserved": 0, "fusion_lon": 0.0}, {"rental_uris": {"ios": "https://dc.lft.to/lastmile_qr_scan", "android": "https://dc.lft.to/lastmile_qr_scan"}, "fusion_lat": 0.0, "name": "e85e6a6f2ec66d0957a702affb8d03b8", "bike_id": "e85e6a6f2ec66d0957a702affb8d03b8", "is_disabled": 0, "type": "electric_scooter", "lat": 38.9048685, "lon": -77.04864383333333, "is_reserved": 0, "fusion_lon": 0.0}, {"rental_uris": {"ios": "https://dc.lft.to/lastmile_qr_scan", "android": "https://dc.lft.to/lastmile_qr_scan"}, "fusion_lat": 0.0, "name": "600f7d0f3bfc679d1decde53fd410a37", "bike_id": "600f7d0f3bfc679d1decde53fd410a37", "is_disabled": 0, "type": "electric_scooter", "lat": 38.918502, "lon": -76.9654145, "is_reserved": 0, "fusion_lon": 0.0}, {"rental_uris": {"ios": "https://dc.lft.to/lastmile_qr_scan", "android": "https://dc.lft.to/lastmile_qr_scan"}, "fusion_lat": 0.0, "name": "39b5942fdca660cf8f17ca2266ead5b8", "bike_id": "39b5942fdca660cf8f17ca2266ead5b8", "is_disabled": 0, "type": "electric_scooter", "lat": 38.90380366666667, "lon": -77.045242, "is_reserved": 0, "fusion_lon": 0.0}, {"rental_uris": {"ios": "https://dc.lft.to/lastmile_qr_scan", "android": "https://dc.lft.to/lastmile_qr_scan"}, "fusion_lat": 0.0, "name": "f8d721e795e817722ceee30b4bf2dc5c", "bike_id": "f8d721e795e817722ceee30b4bf2dc5c", "is_disabled": 0, "type": "electric_scooter", "lat": 38.87566233333333, "lon": -77.005877, "is_reserved": 0, "fusion_lon": 0.0}, {"rental_uris": {"ios": "https://dc.lft.to/lastmile_qr_scan", "android": "https://dc.lft.to/lastmile_qr_scan"}, "fusion_lat": 0.0, "name": "92a077bf204c541f8c9a2bc739ba668f", "bike_id": "92a077bf204c541f8c9a2bc739ba668f", "is_disabled": 0, "type": "electric_scooter", "lat": 38.89224016666667, "lon": -77.02368516666667, "is_reserved": 0, "fusion_lon": 0.0}, {"rental_uris": {"ios": "https://dc.lft.to/lastmile_qr_scan", "android": "https://dc.lft.to/lastmile_qr_scan"}, "fusion_lat": 0.0, "name": "176de98f567f715ad1b0015ff82fa574", "bike_id": "176de98f567f715ad1b0015ff82fa574", "is_disabled": 0, "type": "electric_scooter", "lat": 38.9182325, "lon": -77.026942, "is_reserved": 0, "fusion_lon": 0.0}, {"rental_uris": {"ios": "https://dc.lft.to/lastmile_qr_scan", "android": "https://dc.lft.to/lastmile_qr_scan"}, "fusion_lat": 0.0, "name": "3c3c046f45b5efaa34b9c4662160108a", "bike_id": "3c3c046f45b5efaa34b9c4662160108a", "is_disabled": 0, "type": "electric_scooter", "lat": 38.918017166666665, "lon": -77.00934333333333, "is_reserved": 0, "fusion_lon": 0.0}, {"rental_uris": {"ios": "https://dc.lft.to/lastmile_qr_scan", "android": "https://dc.lft.to/lastmile_qr_scan"}, "fusion_lat": 0.0, "name": "4854d5ea9536fcdbc636b0fb69b2a9ea", "bike_id": "4854d5ea9536fcdbc636b0fb69b2a9ea", "is_disabled": 0, "type": "electric_scooter", "lat": 38.90510583333333, "lon": -77.041124, "is_reserved": 0, "fusion_lon": 0.0}, {"rental_uris": {"ios": "https://dc.lft.to/lastmile_qr_scan", "android": "https://dc.lft.to/lastmile_qr_scan"}, "fusion_lat": 0.0, "name": "aae57ff19283d155aa38ec94494535f0", "bike_id": "aae57ff19283d155aa38ec94494535f0", "is_disabled": 0, "type": "electric_scooter", "lat": 38.879176666666666, "lon": -77.03097883333334, "is_reserved": 0, "fusion_lon": 0.0}, {"rental_uris": {"ios": "https://dc.lft.to/lastmile_qr_scan", "android": "https://dc.lft.to/lastmile_qr_scan"}, "fusion_lat": 0.0, "name": "ccaa1dcdc227ed17f7e76b089f3f0d55", "bike_id": "ccaa1dcdc227ed17f7e76b089f3f0d55", "is_disabled": 0, "type": "electric_scooter", "lat": 38.90070566666667, "lon": -77.0271605, "is_reserved": 0, "fusion_lon": 0.0}, {"rental_uris": {"ios": "https://dc.lft.to/lastmile_qr_scan", "android": "https://dc.lft.to/lastmile_qr_scan"}, "fusion_lat": 0.0, "name": "2f1c858f3a71481c8123e3d1c1e1b7bb", "bike_id": "2f1c858f3a71481c8123e3d1c1e1b7bb", "is_disabled": 0, "type": "electric_bike", "lat": 38.8520865, "lon": -77.1013205, "is_reserved": 0, "fusion_lon": 0.0}, {"rental_uris": {"ios": "https://dc.lft.to/lastmile_qr_scan", "android": "https://dc.lft.to/lastmile_qr_scan"}, "fusion_lat": 0.0, "name": "abe1a99e845164d1ea19e8c784b63e56", "bike_id": "abe1a99e845164d1ea19e8c784b63e56", "is_disabled": 0, "type": "electric_scooter", "lat": 38.9014005, "lon": -77.0399205, "is_reserved": 0, "fusion_lon": 0.0}, {"rental_uris": {"ios": "https://dc.lft.to/lastmile_qr_scan", "android": "https://dc.lft.to/lastmile_qr_scan"}, "fusion_lat": 0.0, "name": "c3fa351d26a8dc96a31fcd128da98cbd", "bike_id": "c3fa351d26a8dc96a31fcd128da98cbd", "is_disabled": 0, "type": "electric_scooter", "lat": 38.89222433333333, "lon": -77.04365466666667, "is_reserved": 0, "fusion_lon": 0.0}, {"rental_uris": {"ios": "https://dc.lft.to/lastmile_qr_scan", "android": "https://dc.lft.to/lastmile_qr_scan"}, "fusion_lat": 0.0, "name": "7208e1e622fe0cf0db1ef43b4f5609a0", "bike_id": "7208e1e622fe0cf0db1ef43b4f5609a0", "is_disabled": 0, "type": "electric_scooter", "lat": 38.917096, "lon": -77.025749, "is_reserved": 0, "fusion_lon": 0.0}, {"rental_uris": {"ios": "https://dc.lft.to/lastmile_qr_scan", "android": "https://dc.lft.to/lastmile_qr_scan"}, "fusion_lat": 0.0, "name": "1d6ebfeb91680137ff59b5d7628eee7b", "bike_id": "1d6ebfeb91680137ff59b5d7628eee7b", "is_disabled": 0, "type": "electric_scooter", "lat": 38.90868283333333, "lon": -77.02275733333333, "is_reserved": 0, "fusion_lon": 0.0}, {"rental_uris": {"ios": "https://dc.lft.to/lastmile_qr_scan", "android": "https://dc.lft.to/lastmile_qr_scan"}, "fusion_lat": 0.0, "name": "fc2437bf3c50297a25eaa82eb10b53cd", "bike_id": "fc2437bf3c50297a25eaa82eb10b53cd", "is_disabled": 0, "type": "electric_scooter", "lat": 38.898751, "lon": -76.93183766666667, "is_reserved": 0, "fusion_lon": 0.0}, {"rental_uris": {"ios": "https://dc.lft.to/lastmile_qr_scan", "android": "https://dc.lft.to/lastmile_qr_scan"}, "fusion_lat": 0.0, "name": "5c0d249fa1e5fb038a494b1094ca10d8", "bike_id": "5c0d249fa1e5fb038a494b1094ca10d8", "is_disabled": 0, "type": "electric_scooter", "lat": 38.90711533333333, "lon": -77.03401266666667, "is_reserved": 0, "fusion_lon": 0.0}, {"rental_uris": {"ios": "https://dc.lft.to/lastmile_qr_scan", "android": "https://dc.lft.to/lastmile_qr_scan"}, "fusion_lat": 0.0, "name": "bdfe1fe98657f387f1c9c15c7c3d7d71", "bike_id": "bdfe1fe98657f387f1c9c15c7c3d7d71", "is_disabled": 0, "type": "electric_scooter", "lat": 38.92567366666667, "lon": -77.02910033333333, "is_reserved": 0, "fusion_lon": 0.0}, {"rental_uris": {"ios": "https://dc.lft.to/lastmile_qr_scan", "android": "https://dc.lft.to/lastmile_qr_scan"}, "fusion_lat": 0.0, "name": "1a1574cd115176e46be20a89d88b593c", "bike_id": "1a1574cd115176e46be20a89d88b593c", "is_disabled": 0, "type": "electric_scooter", "lat": 38.91480216666667, "lon": -77.02194283333333, "is_reserved": 0, "fusion_lon": 0.0}, {"rental_uris": {"ios": "https://dc.lft.to/lastmile_qr_scan", "android": "https://dc.lft.to/lastmile_qr_scan"}, "fusion_lat": 0.0, "name": "8eeadedd978956e1cdc864df61edfec6", "bike_id": "8eeadedd978956e1cdc864df61edfec6", "is_disabled": 0, "type": "electric_scooter", "lat": 38.8922835, "lon": -77.05000366666667, "is_reserved": 0, "fusion_lon": 0.0}, {"rental_uris": {"ios": "https://dc.lft.to/lastmile_qr_scan", "android": "https://dc.lft.to/lastmile_qr_scan"}, "fusion_lat": 0.0, "name": "b25cdb8a6386abde5093772c021a9715", "bike_id": "b25cdb8a6386abde5093772c021a9715", "is_disabled": 0, "type": "electric_scooter", "lat": 38.916901, "lon": -76.97947183333333, "is_reserved": 0, "fusion_lon": 0.0}, {"rental_uris": {"ios": "https://dc.lft.to/lastmile_qr_scan", "android": "https://dc.lft.to/lastmile_qr_scan"}, "fusion_lat": 0.0, "name": "eb76e56bf196165dc3ee883e210d7613", "bike_id": "eb76e56bf196165dc3ee883e210d7613", "is_disabled": 0, "type": "electric_scooter", "lat": 38.918555, "lon": -77.03224316666666, "is_reserved": 0, "fusion_lon": 0.0}, {"rental_uris": {"ios": "https://dc.lft.to/lastmile_qr_scan", "android": "https://dc.lft.to/lastmile_qr_scan"}, "fusion_lat": 0.0, "name": "68b9262563bba280b1ee2764f41d9a8e", "bike_id": "68b9262563bba280b1ee2764f41d9a8e", "is_disabled": 0, "type": "electric_scooter", "lat": 38.907319, "lon": -77.03460583333333, "is_reserved": 0, "fusion_lon": 0.0}, {"rental_uris": {"ios": "https://dc.lft.to/lastmile_qr_scan", "android": "https://dc.lft.to/lastmile_qr_scan"}, "fusion_lat": 0.0, "name": "f43d766fad009badd12efa3a84909d2e", "bike_id": "f43d766fad009badd12efa3a84909d2e", "is_disabled": 0, "type": "electric_scooter", "lat": 38.8993635, "lon": -77.02824166666667, "is_reserved": 0, "fusion_lon": 0.0}, {"rental_uris": {"ios": "https://dc.lft.to/lastmile_qr_scan", "android": "https://dc.lft.to/lastmile_qr_scan"}, "fusion_lat": 0.0, "name": "3c7718eecd99f21b25b88b410e6a9d3e", "bike_id": "3c7718eecd99f21b25b88b410e6a9d3e", "is_disabled": 0, "type": "electric_bike", "lat": 38.87068583333333, "lon": -77.11071716666666, "is_reserved": 0, "fusion_lon": 0.0}, {"rental_uris": {"ios": "https://dc.lft.to/lastmile_qr_scan", "android": "https://dc.lft.to/lastmile_qr_scan"}, "fusion_lat": 0.0, "name": "23e5ef3a941b9cc7710fd18f030dba50", "bike_id": "23e5ef3a941b9cc7710fd18f030dba50", "is_disabled": 0, "type": "electric_bike", "lat": 38.92469766666667, "lon": -77.05767716666666, "is_reserved": 0, "fusion_lon": 0.0}, {"rental_uris": {"ios": "https://dc.lft.to/lastmile_qr_scan", "android": "https://dc.lft.to/lastmile_qr_scan"}, "fusion_lat": 0.0, "name": "d3581c3f5ea6097dee816eca81513f18", "bike_id": "d3581c3f5ea6097dee816eca81513f18", "is_disabled": 0, "type": "electric_scooter", "lat": 38.9050715, "lon": -77.02616783333333, "is_reserved": 0, "fusion_lon": 0.0}, {"rental_uris": {"ios": "https://dc.lft.to/lastmile_qr_scan", "android": "https://dc.lft.to/lastmile_qr_scan"}, "fusion_lat": 0.0, "name": "175f7c780634a9f03f688ebacbf41e9f", "bike_id": "175f7c780634a9f03f688ebacbf41e9f", "is_disabled": 0, "type": "electric_bike", "lat": 38.905021166666664, "lon": -77.05701666666667, "is_reserved": 0, "fusion_lon": 0.0}, {"rental_uris": {"ios": "https://dc.lft.to/lastmile_qr_scan", "android": "https://dc.lft.to/lastmile_qr_scan"}, "fusion_lat": 0.0, "name": "bf6626442b1679e8e1b347ed0a8f56d0", "bike_id": "bf6626442b1679e8e1b347ed0a8f56d0", "is_disabled": 0, "type": "electric_scooter", "lat": 38.91557133333333, "lon": -77.02214166666667, "is_reserved": 0, "fusion_lon": 0.0}, {"rental_uris": {"ios": "https://dc.lft.to/lastmile_qr_scan", "android": "https://dc.lft.to/lastmile_qr_scan"}, "fusion_lat": 0.0, "name": "65fd7e34d0151e7bc8b323e5678bb45a", "bike_id": "65fd7e34d0151e7bc8b323e5678bb45a", "is_disabled": 0, "type": "electric_scooter", "lat": 38.948136166666664, "lon": -76.999068, "is_reserved": 0, "fusion_lon": 0.0}, {"rental_uris": {"ios": "https://dc.lft.to/lastmile_qr_scan", "android": "https://dc.lft.to/lastmile_qr_scan"}, "fusion_lat": 0.0, "name": "904beec3d0b87825fc2bc827fec8e3ea", "bike_id": "904beec3d0b87825fc2bc827fec8e3ea", "is_disabled": 0, "type": "electric_scooter", "lat": 38.904438166666665, "lon": -77.05072766666666, "is_reserved": 0, "fusion_lon": 0.0}, {"rental_uris": {"ios": "https://dc.lft.to/lastmile_qr_scan", "android": "https://dc.lft.to/lastmile_qr_scan"}, "fusion_lat": 0.0, "name": "f6e7028d7921530aeede30309a787cbd", "bike_id": "f6e7028d7921530aeede30309a787cbd", "is_disabled": 0, "type": "electric_scooter", "lat": 38.910620333333334, "lon": -77.04484816666667, "is_reserved": 0, "fusion_lon": 0.0}, {"rental_uris": {"ios": "https://dc.lft.to/lastmile_qr_scan", "android": "https://dc.lft.to/lastmile_qr_scan"}, "fusion_lat": 0.0, "name": "69df53947a76c015a6083d844b392b33", "bike_id": "69df53947a76c015a6083d844b392b33", "is_disabled": 0, "type": "electric_scooter", "lat": 38.9086785, "lon": -77.03228666666666, "is_reserved": 0, "fusion_lon": 0.0}, {"rental_uris": {"ios": "https://dc.lft.to/lastmile_qr_scan", "android": "https://dc.lft.to/lastmile_qr_scan"}, "fusion_lat": 0.0, "name": "f8ba8c8bf279f3df3b7d07b453d42a18", "bike_id": "f8ba8c8bf279f3df3b7d07b453d42a18", "is_disabled": 0, "type": "electric_scooter", "lat": 38.89678833333333, "lon": -76.93611733333333, "is_reserved": 0, "fusion_lon": 0.0}, {"rental_uris": {"ios": "https://dc.lft.to/lastmile_qr_scan", "android": "https://dc.lft.to/lastmile_qr_scan"}, "fusion_lat": 0.0, "name": "0b846241d5840a2ac9b0915eee89c9fa", "bike_id": "0b846241d5840a2ac9b0915eee89c9fa", "is_disabled": 0, "type": "electric_bike", "lat": 38.944724666666666, "lon": -76.9869135, "is_reserved": 0, "fusion_lon": 0.0}, {"rental_uris": {"ios": "https://dc.lft.to/lastmile_qr_scan", "android": "https://dc.lft.to/lastmile_qr_scan"}, "fusion_lat": 0.0, "name": "22533c2bc2b2046cee0c7b9f0c091a29", "bike_id": "22533c2bc2b2046cee0c7b9f0c091a29", "is_disabled": 0, "type": "electric_scooter", "lat": 38.89975716666667, "lon": -77.023979, "is_reserved": 0, "fusion_lon": 0.0}, {"rental_uris": {"ios": "https://dc.lft.to/lastmile_qr_scan", "android": "https://dc.lft.to/lastmile_qr_scan"}, "fusion_lat": 0.0, "name": "d7e0e368a12260b6757121f663f8d2ae", "bike_id": "d7e0e368a12260b6757121f663f8d2ae", "is_disabled": 0, "type": "electric_scooter", "lat": 38.9025375, "lon": -77.06380883333334, "is_reserved": 0, "fusion_lon": 0.0}, {"rental_uris": {"ios": "https://dc.lft.to/lastmile_qr_scan", "android": "https://dc.lft.to/lastmile_qr_scan"}, "fusion_lat": 0.0, "name": "95729f39ddb3e36b7f0d4ec88fa73da0", "bike_id": "95729f39ddb3e36b7f0d4ec88fa73da0", "is_disabled": 0, "type": "electric_scooter", "lat": 38.93502066666667, "lon": -77.02401183333333, "is_reserved": 0, "fusion_lon": 0.0}, {"rental_uris": {"ios": "https://dc.lft.to/lastmile_qr_scan", "android": "https://dc.lft.to/lastmile_qr_scan"}, "fusion_lat": 0.0, "name": "a359280e043d114278d39f954f8826ea", "bike_id": "a359280e043d114278d39f954f8826ea", "is_disabled": 0, "type": "electric_scooter", "lat": 38.9096115, "lon": -77.03167116666667, "is_reserved": 0, "fusion_lon": 0.0}, {"rental_uris": {"ios": "https://dc.lft.to/lastmile_qr_scan", "android": "https://dc.lft.to/lastmile_qr_scan"}, "fusion_lat": 0.0, "name": "b22667b49dc3bdc9f972ce23fdcd428b", "bike_id": "b22667b49dc3bdc9f972ce23fdcd428b", "is_disabled": 0, "type": "electric_scooter", "lat": 38.887423, "lon": -77.021299, "is_reserved": 0, "fusion_lon": 0.0}, {"rental_uris": {"ios": "https://dc.lft.to/lastmile_qr_scan", "android": "https://dc.lft.to/lastmile_qr_scan"}, "fusion_lat": 0.0, "name": "3a59ef9f8a20b148cf821c4e3ab422dd", "bike_id": "3a59ef9f8a20b148cf821c4e3ab422dd", "is_disabled": 0, "type": "electric_scooter", "lat": 38.948188, "lon": -76.99926683333334, "is_reserved": 0, "fusion_lon": 0.0}, {"rental_uris": {"ios": "https://dc.lft.to/lastmile_qr_scan", "android": "https://dc.lft.to/lastmile_qr_scan"}, "fusion_lat": 0.0, "name": "09143e0b2896b476015722a36a0a52d9", "bike_id": "09143e0b2896b476015722a36a0a52d9", "is_disabled": 0, "type": "electric_scooter", "lat": 38.902252833333336, "lon": -77.06051366666667, "is_reserved": 0, "fusion_lon": 0.0}, {"rental_uris": {"ios": "https://dc.lft.to/lastmile_qr_scan", "android": "https://dc.lft.to/lastmile_qr_scan"}, "fusion_lat": 0.0, "name": "5fe070cd5b02c363486cc58eead9a1e6", "bike_id": "5fe070cd5b02c363486cc58eead9a1e6", "is_disabled": 0, "type": "electric_scooter", "lat": 38.93003016666667, "lon": -77.05547466666667, "is_reserved": 0, "fusion_lon": 0.0}, {"rental_uris": {"ios": "https://dc.lft.to/lastmile_qr_scan", "android": "https://dc.lft.to/lastmile_qr_scan"}, "fusion_lat": 0.0, "name": "1fe16bcd7a50a2c173178dec6021e793", "bike_id": "1fe16bcd7a50a2c173178dec6021e793", "is_disabled": 0, "type": "electric_scooter", "lat": 38.9279665, "lon": -77.01414133333333, "is_reserved": 0, "fusion_lon": 0.0}, {"rental_uris": {"ios": "https://dc.lft.to/lastmile_qr_scan", "android": "https://dc.lft.to/lastmile_qr_scan"}, "fusion_lat": 0.0, "name": "84f3ecf18ba33664777edddeb04486c4", "bike_id": "84f3ecf18ba33664777edddeb04486c4", "is_disabled": 0, "type": "electric_scooter", "lat": 38.90377266666667, "lon": -76.980262, "is_reserved": 0, "fusion_lon": 0.0}, {"rental_uris": {"ios": "https://dc.lft.to/lastmile_qr_scan", "android": "https://dc.lft.to/lastmile_qr_scan"}, "fusion_lat": 0.0, "name": "eddd941a3f65469635497ce52f091f0e", "bike_id": "eddd941a3f65469635497ce52f091f0e", "is_disabled": 0, "type": "electric_scooter", "lat": 38.9192385, "lon": -77.02530683333333, "is_reserved": 0, "fusion_lon": 0.0}, {"rental_uris": {"ios": "https://dc.lft.to/lastmile_qr_scan", "android": "https://dc.lft.to/lastmile_qr_scan"}, "fusion_lat": 0.0, "name": "f494fb013d068d0015c469846031e917", "bike_id": "f494fb013d068d0015c469846031e917", "is_disabled": 0, "type": "electric_scooter", "lat": 38.908848166666665, "lon": -76.99631466666666, "is_reserved": 0, "fusion_lon": 0.0}, {"rental_uris": {"ios": "https://dc.lft.to/lastmile_qr_scan", "android": "https://dc.lft.to/lastmile_qr_scan"}, "fusion_lat": 0.0, "name": "bcbcd1182877e80429a308b534513c01", "bike_id": "bcbcd1182877e80429a308b534513c01", "is_disabled": 0, "type": "electric_scooter", "lat": 38.91599383333333, "lon": -77.04486933333334, "is_reserved": 0, "fusion_lon": 0.0}, {"rental_uris": {"ios": "https://dc.lft.to/lastmile_qr_scan", "android": "https://dc.lft.to/lastmile_qr_scan"}, "fusion_lat": 0.0, "name": "0c4ee3be261e10ee3dc81565742cb4a9", "bike_id": "0c4ee3be261e10ee3dc81565742cb4a9", "is_disabled": 0, "type": "electric_scooter", "lat": 38.9096175, "lon": -77.04620816666667, "is_reserved": 0, "fusion_lon": 0.0}, {"rental_uris": {"ios": "https://dc.lft.to/lastmile_qr_scan", "android": "https://dc.lft.to/lastmile_qr_scan"}, "fusion_lat": 0.0, "name": "8b4a1476f33ebbd0407b3642e3d0b9bb", "bike_id": "8b4a1476f33ebbd0407b3642e3d0b9bb", "is_disabled": 0, "type": "electric_scooter", "lat": 38.91885533333333, "lon": -77.0246055, "is_reserved": 0, "fusion_lon": 0.0}, {"rental_uris": {"ios": "https://dc.lft.to/lastmile_qr_scan", "android": "https://dc.lft.to/lastmile_qr_scan"}, "fusion_lat": 0.0, "name": "8da6a79f4dbddf1a7df610652a62a2d0", "bike_id": "8da6a79f4dbddf1a7df610652a62a2d0", "is_disabled": 0, "type": "electric_scooter", "lat": 38.893223166666665, "lon": -77.05582066666666, "is_reserved": 0, "fusion_lon": 0.0}, {"rental_uris": {"ios": "https://dc.lft.to/lastmile_qr_scan", "android": "https://dc.lft.to/lastmile_qr_scan"}, "fusion_lat": 0.0, "name": "65ef59943410faa72e1102ebfba1eb32", "bike_id": "65ef59943410faa72e1102ebfba1eb32", "is_disabled": 0, "type": "electric_scooter", "lat": 38.882306, "lon": -76.990933, "is_reserved": 0, "fusion_lon": 0.0}, {"rental_uris": {"ios": "https://dc.lft.to/lastmile_qr_scan", "android": "https://dc.lft.to/lastmile_qr_scan"}, "fusion_lat": 0.0, "name": "1dbf5f26fb7be6c8d08145267a67ef6e", "bike_id": "1dbf5f26fb7be6c8d08145267a67ef6e", "is_disabled": 0, "type": "electric_scooter", "lat": 38.92795783333333, "lon": -77.02598166666667, "is_reserved": 0, "fusion_lon": 0.0}, {"rental_uris": {"ios": "https://dc.lft.to/lastmile_qr_scan", "android": "https://dc.lft.to/lastmile_qr_scan"}, "fusion_lat": 0.0, "name": "edcfe4513f64905db4f2e8beba4af008", "bike_id": "edcfe4513f64905db4f2e8beba4af008", "is_disabled": 0, "type": "electric_scooter", "lat": 38.9053275, "lon": -77.0419055, "is_reserved": 0, "fusion_lon": 0.0}, {"rental_uris": {"ios": "https://dc.lft.to/lastmile_qr_scan", "android": "https://dc.lft.to/lastmile_qr_scan"}, "fusion_lat": 0.0, "name": "a53d883adf7c53c2ea970ae67db8b148", "bike_id": "a53d883adf7c53c2ea970ae67db8b148", "is_disabled": 0, "type": "electric_scooter", "lat": 38.898436333333336, "lon": -76.94633633333333, "is_reserved": 0, "fusion_lon": 0.0}, {"rental_uris": {"ios": "https://dc.lft.to/lastmile_qr_scan", "android": "https://dc.lft.to/lastmile_qr_scan"}, "fusion_lat": 0.0, "name": "361d5fd021033c26ca5bad4ed626e9ef", "bike_id": "361d5fd021033c26ca5bad4ed626e9ef", "is_disabled": 0, "type": "electric_bike", "lat": 38.89351083333333, "lon": -77.1874455, "is_reserved": 0, "fusion_lon": 0.0}, {"rental_uris": {"ios": "https://dc.lft.to/lastmile_qr_scan", "android": "https://dc.lft.to/lastmile_qr_scan"}, "fusion_lat": 0.0, "name": "6ca68e903f94e16a02c863a395d2afbc", "bike_id": "6ca68e903f94e16a02c863a395d2afbc", "is_disabled": 0, "type": "electric_scooter", "lat": 38.90958833333333, "lon": -77.03274916666666, "is_reserved": 0, "fusion_lon": 0.0}, {"rental_uris": {"ios": "https://dc.lft.to/lastmile_qr_scan", "android": "https://dc.lft.to/lastmile_qr_scan"}, "fusion_lat": 0.0, "name": "21516db36114ca9c0d11d7428a274748", "bike_id": "21516db36114ca9c0d11d7428a274748", "is_disabled": 0, "type": "electric_scooter", "lat": 38.9360365, "lon": -77.05858583333334, "is_reserved": 0, "fusion_lon": 0.0}, {"rental_uris": {"ios": "https://dc.lft.to/lastmile_qr_scan", "android": "https://dc.lft.to/lastmile_qr_scan"}, "fusion_lat": 0.0, "name": "93ec919f73751d16b0cfc80927fca76d", "bike_id": "93ec919f73751d16b0cfc80927fca76d", "is_disabled": 0, "type": "electric_scooter", "lat": 38.8992175, "lon": -77.0328725, "is_reserved": 0, "fusion_lon": 0.0}, {"rental_uris": {"ios": "https://dc.lft.to/lastmile_qr_scan", "android": "https://dc.lft.to/lastmile_qr_scan"}, "fusion_lat": 0.0, "name": "77e88d42815d28770f7d3e7aa9f571e8", "bike_id": "77e88d42815d28770f7d3e7aa9f571e8", "is_disabled": 0, "type": "electric_scooter", "lat": 38.8811995, "lon": -77.013078, "is_reserved": 0, "fusion_lon": 0.0}, {"rental_uris": {"ios": "https://dc.lft.to/lastmile_qr_scan", "android": "https://dc.lft.to/lastmile_qr_scan"}, "fusion_lat": 0.0, "name": "b38f2588b2fc20a47ffda5bbab002b61", "bike_id": "b38f2588b2fc20a47ffda5bbab002b61", "is_disabled": 0, "type": "electric_scooter", "lat": 38.90953833333333, "lon": -77.04481933333334, "is_reserved": 0, "fusion_lon": 0.0}, {"rental_uris": {"ios": "https://dc.lft.to/lastmile_qr_scan", "android": "https://dc.lft.to/lastmile_qr_scan"}, "fusion_lat": 0.0, "name": "667f733fc3c72184b4489635e035ab71", "bike_id": "667f733fc3c72184b4489635e035ab71", "is_disabled": 0, "type": "electric_scooter", "lat": 38.93235633333333, "lon": -77.03853516666666, "is_reserved": 0, "fusion_lon": 0.0}, {"rental_uris": {"ios": "https://dc.lft.to/lastmile_qr_scan", "android": "https://dc.lft.to/lastmile_qr_scan"}, "fusion_lat": 0.0, "name": "5df741dcdea05196d1972f66dea87ff9", "bike_id": "5df741dcdea05196d1972f66dea87ff9", "is_disabled": 0, "type": "electric_scooter", "lat": 38.917223166666666, "lon": -77.03665983333333, "is_reserved": 0, "fusion_lon": 0.0}, {"rental_uris": {"ios": "https://dc.lft.to/lastmile_qr_scan", "android": "https://dc.lft.to/lastmile_qr_scan"}, "fusion_lat": 0.0, "name": "4fa0ca473c3bd1cca66f99e153ab87a9", "bike_id": "4fa0ca473c3bd1cca66f99e153ab87a9", "is_disabled": 0, "type": "electric_scooter", "lat": 38.91562116666667, "lon": -77.0387435, "is_reserved": 0, "fusion_lon": 0.0}, {"rental_uris": {"ios": "https://dc.lft.to/lastmile_qr_scan", "android": "https://dc.lft.to/lastmile_qr_scan"}, "fusion_lat": 0.0, "name": "d28a25acf2c5b0b5ab267cf8adb966e9", "bike_id": "d28a25acf2c5b0b5ab267cf8adb966e9", "is_disabled": 0, "type": "electric_scooter", "lat": 38.892216, "lon": -77.04367283333333, "is_reserved": 0, "fusion_lon": 0.0}, {"rental_uris": {"ios": "https://dc.lft.to/lastmile_qr_scan", "android": "https://dc.lft.to/lastmile_qr_scan"}, "fusion_lat": 0.0, "name": "5ec7a9f20b947f38eb18ccd4ce8c12a7", "bike_id": "5ec7a9f20b947f38eb18ccd4ce8c12a7", "is_disabled": 0, "type": "electric_bike", "lat": 39.015672, "lon": -77.04419233333333, "is_reserved": 0, "fusion_lon": 0.0}, {"rental_uris": {"ios": "https://dc.lft.to/lastmile_qr_scan", "android": "https://dc.lft.to/lastmile_qr_scan"}, "fusion_lat": 0.0, "name": "99637d85fa5c8a7b70743faef126ca93", "bike_id": "99637d85fa5c8a7b70743faef126ca93", "is_disabled": 0, "type": "electric_scooter", "lat": 38.900233666666665, "lon": -77.03238466666667, "is_reserved": 0, "fusion_lon": 0.0}, {"rental_uris": {"ios": "https://dc.lft.to/lastmile_qr_scan", "android": "https://dc.lft.to/lastmile_qr_scan"}, "fusion_lat": 0.0, "name": "59867c3c48dd4c33ae907e4b64547abb", "bike_id": "59867c3c48dd4c33ae907e4b64547abb", "is_disabled": 0, "type": "electric_scooter", "lat": 38.917677166666664, "lon": -77.02333066666667, "is_reserved": 0, "fusion_lon": 0.0}, {"rental_uris": {"ios": "https://dc.lft.to/lastmile_qr_scan", "android": "https://dc.lft.to/lastmile_qr_scan"}, "fusion_lat": 0.0, "name": "ec3535509c3fd49a4049a140c9af7187", "bike_id": "ec3535509c3fd49a4049a140c9af7187", "is_disabled": 0, "type": "electric_scooter", "lat": 38.9072735, "lon": -77.0121145, "is_reserved": 0, "fusion_lon": 0.0}, {"rental_uris": {"ios": "https://dc.lft.to/lastmile_qr_scan", "android": "https://dc.lft.to/lastmile_qr_scan"}, "fusion_lat": 0.0, "name": "1b7900ccb90f18acc2e2426263330ed9", "bike_id": "1b7900ccb90f18acc2e2426263330ed9", "is_disabled": 0, "type": "electric_scooter", "lat": 38.9192425, "lon": -77.0317485, "is_reserved": 0, "fusion_lon": 0.0}, {"rental_uris": {"ios": "https://dc.lft.to/lastmile_qr_scan", "android": "https://dc.lft.to/lastmile_qr_scan"}, "fusion_lat": 0.0, "name": "de7d2cd954ce12711c06062c72be532e", "bike_id": "de7d2cd954ce12711c06062c72be532e", "is_disabled": 0, "type": "electric_bike", "lat": 38.95270766666667, "lon": -77.06995066666667, "is_reserved": 0, "fusion_lon": 0.0}, {"rental_uris": {"ios": "https://dc.lft.to/lastmile_qr_scan", "android": "https://dc.lft.to/lastmile_qr_scan"}, "fusion_lat": 0.0, "name": "d909a9bc162fb9ac1a9db2282a5279f9", "bike_id": "d909a9bc162fb9ac1a9db2282a5279f9", "is_disabled": 0, "type": "electric_scooter", "lat": 38.90775933333333, "lon": -77.04267583333333, "is_reserved": 0, "fusion_lon": 0.0}, {"rental_uris": {"ios": "https://dc.lft.to/lastmile_qr_scan", "android": "https://dc.lft.to/lastmile_qr_scan"}, "fusion_lat": 0.0, "name": "aabb07eaead2c124e55a0d5a3e176eae", "bike_id": "aabb07eaead2c124e55a0d5a3e176eae", "is_disabled": 0, "type": "electric_scooter", "lat": 38.909685, "lon": -76.99607616666667, "is_reserved": 0, "fusion_lon": 0.0}, {"rental_uris": {"ios": "https://dc.lft.to/lastmile_qr_scan", "android": "https://dc.lft.to/lastmile_qr_scan"}, "fusion_lat": 0.0, "name": "1bfef2a89a728cba15941134d8209a2a", "bike_id": "1bfef2a89a728cba15941134d8209a2a", "is_disabled": 0, "type": "electric_scooter", "lat": 38.90387166666667, "lon": -77.03450583333333, "is_reserved": 0, "fusion_lon": 0.0}, {"rental_uris": {"ios": "https://dc.lft.to/lastmile_qr_scan", "android": "https://dc.lft.to/lastmile_qr_scan"}, "fusion_lat": 0.0, "name": "731d7cd1bbcb8d518f28f42717bc2133", "bike_id": "731d7cd1bbcb8d518f28f42717bc2133", "is_disabled": 0, "type": "electric_scooter", "lat": 38.920543, "lon": -77.04195883333334, "is_reserved": 0, "fusion_lon": 0.0}, {"rental_uris": {"ios": "https://dc.lft.to/lastmile_qr_scan", "android": "https://dc.lft.to/lastmile_qr_scan"}, "fusion_lat": 0.0, "name": "5447e57b4d76fddddb29d235cec7ad1d", "bike_id": "5447e57b4d76fddddb29d235cec7ad1d", "is_disabled": 0, "type": "electric_scooter", "lat": 38.887187, "lon": -76.99612066666667, "is_reserved": 0, "fusion_lon": 0.0}, {"rental_uris": {"ios": "https://dc.lft.to/lastmile_qr_scan", "android": "https://dc.lft.to/lastmile_qr_scan"}, "fusion_lat": 0.0, "name": "dddbd11d5ce4f85d6b41695119db89cd", "bike_id": "dddbd11d5ce4f85d6b41695119db89cd", "is_disabled": 0, "type": "electric_scooter", "lat": 38.915657833333334, "lon": -77.0117525, "is_reserved": 0, "fusion_lon": 0.0}, {"rental_uris": {"ios": "https://dc.lft.to/lastmile_qr_scan", "android": "https://dc.lft.to/lastmile_qr_scan"}, "fusion_lat": 0.0, "name": "925927a591d2e8d5db9028e91972be37", "bike_id": "925927a591d2e8d5db9028e91972be37", "is_disabled": 0, "type": "electric_scooter", "lat": 38.9295325, "lon": -76.990892, "is_reserved": 0, "fusion_lon": 0.0}, {"rental_uris": {"ios": "https://dc.lft.to/lastmile_qr_scan", "android": "https://dc.lft.to/lastmile_qr_scan"}, "fusion_lat": 0.0, "name": "fc7c6dd24a056b8c4d5859180a4086b9", "bike_id": "fc7c6dd24a056b8c4d5859180a4086b9", "is_disabled": 0, "type": "electric_scooter", "lat": 38.913289166666665, "lon": -77.038437, "is_reserved": 0, "fusion_lon": 0.0}, {"rental_uris": {"ios": "https://dc.lft.to/lastmile_qr_scan", "android": "https://dc.lft.to/lastmile_qr_scan"}, "fusion_lat": 0.0, "name": "ba529ab0ea3e3ab754df3065aecf22c9", "bike_id": "ba529ab0ea3e3ab754df3065aecf22c9", "is_disabled": 0, "type": "electric_scooter", "lat": 38.915968, "lon": -77.01619633333334, "is_reserved": 0, "fusion_lon": 0.0}, {"rental_uris": {"ios": "https://dc.lft.to/lastmile_qr_scan", "android": "https://dc.lft.to/lastmile_qr_scan"}, "fusion_lat": 0.0, "name": "c36f6fd3d5b0ba31b0ece4c240155b72", "bike_id": "c36f6fd3d5b0ba31b0ece4c240155b72", "is_disabled": 0, "type": "electric_scooter", "lat": 38.89219966666667, "lon": -77.03162733333333, "is_reserved": 0, "fusion_lon": 0.0}, {"rental_uris": {"ios": "https://dc.lft.to/lastmile_qr_scan", "android": "https://dc.lft.to/lastmile_qr_scan"}, "fusion_lat": 0.0, "name": "39c5c51e499be671ede4a797f18b4c72", "bike_id": "39c5c51e499be671ede4a797f18b4c72", "is_disabled": 0, "type": "electric_scooter", "lat": 38.88493283333333, "lon": -77.00727416666666, "is_reserved": 0, "fusion_lon": 0.0}, {"rental_uris": {"ios": "https://dc.lft.to/lastmile_qr_scan", "android": "https://dc.lft.to/lastmile_qr_scan"}, "fusion_lat": 0.0, "name": "2614ffae9cbcf8ee27e501f74f30fdbc", "bike_id": "2614ffae9cbcf8ee27e501f74f30fdbc", "is_disabled": 0, "type": "electric_scooter", "lat": 38.90056083333333, "lon": -77.00757, "is_reserved": 0, "fusion_lon": 0.0}, {"rental_uris": {"ios": "https://dc.lft.to/lastmile_qr_scan", "android": "https://dc.lft.to/lastmile_qr_scan"}, "fusion_lat": 0.0, "name": "3311ef4247558ba6115fb8d7ae93c63c", "bike_id": "3311ef4247558ba6115fb8d7ae93c63c", "is_disabled": 0, "type": "electric_scooter", "lat": 38.892219, "lon": -77.043339, "is_reserved": 0, "fusion_lon": 0.0}, {"rental_uris": {"ios": "https://dc.lft.to/lastmile_qr_scan", "android": "https://dc.lft.to/lastmile_qr_scan"}, "fusion_lat": 0.0, "name": "873b96fbcb87c6a84e1e281bae0e42c2", "bike_id": "873b96fbcb87c6a84e1e281bae0e42c2", "is_disabled": 0, "type": "electric_scooter", "lat": 38.910383833333334, "lon": -77.04824716666667, "is_reserved": 0, "fusion_lon": 0.0}, {"rental_uris": {"ios": "https://dc.lft.to/lastmile_qr_scan", "android": "https://dc.lft.to/lastmile_qr_scan"}, "fusion_lat": 0.0, "name": "7fba307ab6a98eeeab81ed2dab28f6cd", "bike_id": "7fba307ab6a98eeeab81ed2dab28f6cd", "is_disabled": 0, "type": "electric_scooter", "lat": 38.966654, "lon": -77.02156316666667, "is_reserved": 0, "fusion_lon": 0.0}, {"rental_uris": {"ios": "https://dc.lft.to/lastmile_qr_scan", "android": "https://dc.lft.to/lastmile_qr_scan"}, "fusion_lat": 0.0, "name": "a913587e78ed3773a52d9eb0b1107f59", "bike_id": "a913587e78ed3773a52d9eb0b1107f59", "is_disabled": 0, "type": "electric_scooter", "lat": 38.90736233333333, "lon": -77.03310283333333, "is_reserved": 0, "fusion_lon": 0.0}, {"rental_uris": {"ios": "https://dc.lft.to/lastmile_qr_scan", "android": "https://dc.lft.to/lastmile_qr_scan"}, "fusion_lat": 0.0, "name": "453ef34bc072f3a0f3e2e500073bdcd8", "bike_id": "453ef34bc072f3a0f3e2e500073bdcd8", "is_disabled": 0, "type": "electric_scooter", "lat": 38.91861983333333, "lon": -77.04157, "is_reserved": 0, "fusion_lon": 0.0}, {"rental_uris": {"ios": "https://dc.lft.to/lastmile_qr_scan", "android": "https://dc.lft.to/lastmile_qr_scan"}, "fusion_lat": 0.0, "name": "5c1e2e7a94bab1b55d920754e18ef69b", "bike_id": "5c1e2e7a94bab1b55d920754e18ef69b", "is_disabled": 0, "type": "electric_scooter", "lat": 38.89353666666667, "lon": -77.0414545, "is_reserved": 0, "fusion_lon": 0.0}, {"rental_uris": {"ios": "https://dc.lft.to/lastmile_qr_scan", "android": "https://dc.lft.to/lastmile_qr_scan"}, "fusion_lat": 0.0, "name": "24513ec0da4ea3c174d51523052c3fa6", "bike_id": "24513ec0da4ea3c174d51523052c3fa6", "is_disabled": 0, "type": "electric_scooter", "lat": 38.933505, "lon": -77.0858495, "is_reserved": 0, "fusion_lon": 0.0}, {"rental_uris": {"ios": "https://dc.lft.to/lastmile_qr_scan", "android": "https://dc.lft.to/lastmile_qr_scan"}, "fusion_lat": 0.0, "name": "f0ad792c014d26622c2dd25e5b4805bd", "bike_id": "f0ad792c014d26622c2dd25e5b4805bd", "is_disabled": 0, "type": "electric_scooter", "lat": 38.900373, "lon": -76.993824, "is_reserved": 0, "fusion_lon": 0.0}, {"rental_uris": {"ios": "https://dc.lft.to/lastmile_qr_scan", "android": "https://dc.lft.to/lastmile_qr_scan"}, "fusion_lat": 0.0, "name": "fa799074be45dc008504ed0cfb5adaab", "bike_id": "fa799074be45dc008504ed0cfb5adaab", "is_disabled": 0, "type": "electric_scooter", "lat": 38.918097833333334, "lon": -77.03185616666667, "is_reserved": 0, "fusion_lon": 0.0}, {"rental_uris": {"ios": "https://dc.lft.to/lastmile_qr_scan", "android": "https://dc.lft.to/lastmile_qr_scan"}, "fusion_lat": 0.0, "name": "1f98d50a4517159a4400d3ce023ac3b1", "bike_id": "1f98d50a4517159a4400d3ce023ac3b1", "is_disabled": 0, "type": "electric_scooter", "lat": 38.9350875, "lon": -77.032694, "is_reserved": 0, "fusion_lon": 0.0}, {"rental_uris": {"ios": "https://dc.lft.to/lastmile_qr_scan", "android": "https://dc.lft.to/lastmile_qr_scan"}, "fusion_lat": 0.0, "name": "b9dbe04606d4bda38ee9701eb4ea0bdf", "bike_id": "b9dbe04606d4bda38ee9701eb4ea0bdf", "is_disabled": 0, "type": "electric_scooter", "lat": 38.9377525, "lon": -77.03264033333333, "is_reserved": 0, "fusion_lon": 0.0}, {"rental_uris": {"ios": "https://dc.lft.to/lastmile_qr_scan", "android": "https://dc.lft.to/lastmile_qr_scan"}, "fusion_lat": 0.0, "name": "e9061d25d5e9781912d3bc1edfff4971", "bike_id": "e9061d25d5e9781912d3bc1edfff4971", "is_disabled": 0, "type": "electric_scooter", "lat": 38.844312, "lon": -76.99707483333333, "is_reserved": 0, "fusion_lon": 0.0}, {"rental_uris": {"ios": "https://dc.lft.to/lastmile_qr_scan", "android": "https://dc.lft.to/lastmile_qr_scan"}, "fusion_lat": 0.0, "name": "b98418f837fe6c7e0175f3df8692cf1a", "bike_id": "b98418f837fe6c7e0175f3df8692cf1a", "is_disabled": 0, "type": "electric_scooter", "lat": 38.925730333333334, "lon": -77.0376715, "is_reserved": 0, "fusion_lon": 0.0}, {"rental_uris": {"ios": "https://dc.lft.to/lastmile_qr_scan", "android": "https://dc.lft.to/lastmile_qr_scan"}, "fusion_lat": 0.0, "name": "3ed11c88dd5f165f2499d668b6dd919a", "bike_id": "3ed11c88dd5f165f2499d668b6dd919a", "is_disabled": 0, "type": "electric_bike", "lat": 38.85788266666667, "lon": -77.09964016666666, "is_reserved": 0, "fusion_lon": 0.0}, {"rental_uris": {"ios": "https://dc.lft.to/lastmile_qr_scan", "android": "https://dc.lft.to/lastmile_qr_scan"}, "fusion_lat": 0.0, "name": "8e108dbd804196b938d3273ae5534fd4", "bike_id": "8e108dbd804196b938d3273ae5534fd4", "is_disabled": 0, "type": "electric_bike", "lat": 38.9644185, "lon": -77.02066283333333, "is_reserved": 0, "fusion_lon": 0.0}, {"rental_uris": {"ios": "https://dc.lft.to/lastmile_qr_scan", "android": "https://dc.lft.to/lastmile_qr_scan"}, "fusion_lat": 0.0, "name": "e10b7785e4019eab32443663a56bf65c", "bike_id": "e10b7785e4019eab32443663a56bf65c", "is_disabled": 0, "type": "electric_scooter", "lat": 38.8924195, "lon": -77.03956633333334, "is_reserved": 0, "fusion_lon": 0.0}, {"rental_uris": {"ios": "https://dc.lft.to/lastmile_qr_scan", "android": "https://dc.lft.to/lastmile_qr_scan"}, "fusion_lat": 0.0, "name": "785554a13af1d0f751efc7a875b66dc1", "bike_id": "785554a13af1d0f751efc7a875b66dc1", "is_disabled": 0, "type": "electric_scooter", "lat": 38.91860833333333, "lon": -77.04041883333333, "is_reserved": 0, "fusion_lon": 0.0}, {"rental_uris": {"ios": "https://dc.lft.to/lastmile_qr_scan", "android": "https://dc.lft.to/lastmile_qr_scan"}, "fusion_lat": 0.0, "name": "825a5fd379004aff97d30d09053249ac", "bike_id": "825a5fd379004aff97d30d09053249ac", "is_disabled": 0, "type": "electric_scooter", "lat": 38.922814, "lon": -77.03536916666667, "is_reserved": 0, "fusion_lon": 0.0}, {"rental_uris": {"ios": "https://dc.lft.to/lastmile_qr_scan", "android": "https://dc.lft.to/lastmile_qr_scan"}, "fusion_lat": 0.0, "name": "822c54bb7f55c00b5a946a449b09f9f4", "bike_id": "822c54bb7f55c00b5a946a449b09f9f4", "is_disabled": 0, "type": "electric_scooter", "lat": 38.909697333333334, "lon": -77.02476483333334, "is_reserved": 0, "fusion_lon": 0.0}, {"rental_uris": {"ios": "https://dc.lft.to/lastmile_qr_scan", "android": "https://dc.lft.to/lastmile_qr_scan"}, "fusion_lat": 0.0, "name": "53df0be2f8a87c34ab0a13142a8c5be4", "bike_id": "53df0be2f8a87c34ab0a13142a8c5be4", "is_disabled": 0, "type": "electric_scooter", "lat": 38.901523, "lon": -77.0417695, "is_reserved": 0, "fusion_lon": 0.0}, {"rental_uris": {"ios": "https://dc.lft.to/lastmile_qr_scan", "android": "https://dc.lft.to/lastmile_qr_scan"}, "fusion_lat": 0.0, "name": "70fac5f265ea86dd06e23647728d80bf", "bike_id": "70fac5f265ea86dd06e23647728d80bf", "is_disabled": 0, "type": "electric_scooter", "lat": 38.9216485, "lon": -76.99398016666666, "is_reserved": 0, "fusion_lon": 0.0}, {"rental_uris": {"ios": "https://dc.lft.to/lastmile_qr_scan", "android": "https://dc.lft.to/lastmile_qr_scan"}, "fusion_lat": 0.0, "name": "d421d592ca59d38362f17f8de32fbc35", "bike_id": "d421d592ca59d38362f17f8de32fbc35", "is_disabled": 0, "type": "electric_scooter", "lat": 38.885239, "lon": -76.92869333333333, "is_reserved": 0, "fusion_lon": 0.0}, {"rental_uris": {"ios": "https://dc.lft.to/lastmile_qr_scan", "android": "https://dc.lft.to/lastmile_qr_scan"}, "fusion_lat": 0.0, "name": "f9cf58ec4470954457971e31d2b9d6d8", "bike_id": "f9cf58ec4470954457971e31d2b9d6d8", "is_disabled": 0, "type": "electric_scooter", "lat": 38.91678566666667, "lon": -77.029707, "is_reserved": 0, "fusion_lon": 0.0}, {"rental_uris": {"ios": "https://dc.lft.to/lastmile_qr_scan", "android": "https://dc.lft.to/lastmile_qr_scan"}, "fusion_lat": 0.0, "name": "b63ab7bc517f70782880b46280ff0403", "bike_id": "b63ab7bc517f70782880b46280ff0403", "is_disabled": 0, "type": "electric_scooter", "lat": 38.91558916666666, "lon": -77.0221405, "is_reserved": 0, "fusion_lon": 0.0}, {"rental_uris": {"ios": "https://dc.lft.to/lastmile_qr_scan", "android": "https://dc.lft.to/lastmile_qr_scan"}, "fusion_lat": 0.0, "name": "d6b008cc28c35148b7cb332524536b04", "bike_id": "d6b008cc28c35148b7cb332524536b04", "is_disabled": 0, "type": "electric_scooter", "lat": 38.93049166666667, "lon": -77.01992066666666, "is_reserved": 0, "fusion_lon": 0.0}, {"rental_uris": {"ios": "https://dc.lft.to/lastmile_qr_scan", "android": "https://dc.lft.to/lastmile_qr_scan"}, "fusion_lat": 0.0, "name": "08cfb231b04505e797aaaa6ece30062e", "bike_id": "08cfb231b04505e797aaaa6ece30062e", "is_disabled": 0, "type": "electric_bike", "lat": 38.8503145, "lon": -77.09799766666667, "is_reserved": 0, "fusion_lon": 0.0}, {"rental_uris": {"ios": "https://dc.lft.to/lastmile_qr_scan", "android": "https://dc.lft.to/lastmile_qr_scan"}, "fusion_lat": 0.0, "name": "07d430931cb1317ac1e61c6e03e51169", "bike_id": "07d430931cb1317ac1e61c6e03e51169", "is_disabled": 0, "type": "electric_scooter", "lat": 38.945188, "lon": -76.97947733333334, "is_reserved": 0, "fusion_lon": 0.0}, {"rental_uris": {"ios": "https://dc.lft.to/lastmile_qr_scan", "android": "https://dc.lft.to/lastmile_qr_scan"}, "fusion_lat": 0.0, "name": "2bc253306e5f2ae747a67fa636f972c8", "bike_id": "2bc253306e5f2ae747a67fa636f972c8", "is_disabled": 0, "type": "electric_scooter", "lat": 38.923711833333336, "lon": -77.05151416666666, "is_reserved": 0, "fusion_lon": 0.0}, {"rental_uris": {"ios": "https://dc.lft.to/lastmile_qr_scan", "android": "https://dc.lft.to/lastmile_qr_scan"}, "fusion_lat": 0.0, "name": "7fc53e4fd79ecbee796795c93cc8477f", "bike_id": "7fc53e4fd79ecbee796795c93cc8477f", "is_disabled": 0, "type": "electric_scooter", "lat": 38.926269833333336, "lon": -77.03540833333334, "is_reserved": 0, "fusion_lon": 0.0}, {"rental_uris": {"ios": "https://dc.lft.to/lastmile_qr_scan", "android": "https://dc.lft.to/lastmile_qr_scan"}, "fusion_lat": 0.0, "name": "925b329ce17bfe337c5458af3c520dce", "bike_id": "925b329ce17bfe337c5458af3c520dce", "is_disabled": 0, "type": "electric_scooter", "lat": 38.89238866666667, "lon": -77.0466, "is_reserved": 0, "fusion_lon": 0.0}, {"rental_uris": {"ios": "https://dc.lft.to/lastmile_qr_scan", "android": "https://dc.lft.to/lastmile_qr_scan"}, "fusion_lat": 0.0, "name": "b98fca5885b8b9487e6a08fb61aa256f", "bike_id": "b98fca5885b8b9487e6a08fb61aa256f", "is_disabled": 0, "type": "electric_scooter", "lat": 38.916870833333334, "lon": -77.02288433333334, "is_reserved": 0, "fusion_lon": 0.0}, {"rental_uris": {"ios": "https://dc.lft.to/lastmile_qr_scan", "android": "https://dc.lft.to/lastmile_qr_scan"}, "fusion_lat": 0.0, "name": "ab26ab0bf99d2c325ec89100d482b5d0", "bike_id": "ab26ab0bf99d2c325ec89100d482b5d0", "is_disabled": 0, "type": "electric_scooter", "lat": 38.9360365, "lon": -77.05856116666666, "is_reserved": 0, "fusion_lon": 0.0}, {"rental_uris": {"ios": "https://dc.lft.to/lastmile_qr_scan", "android": "https://dc.lft.to/lastmile_qr_scan"}, "fusion_lat": 0.0, "name": "75241b8363df54127ada70ef7f4eea3d", "bike_id": "75241b8363df54127ada70ef7f4eea3d", "is_disabled": 0, "type": "electric_scooter", "lat": 38.94957483333334, "lon": -77.02721733333334, "is_reserved": 0, "fusion_lon": 0.0}, {"rental_uris": {"ios": "https://dc.lft.to/lastmile_qr_scan", "android": "https://dc.lft.to/lastmile_qr_scan"}, "fusion_lat": 0.0, "name": "b237efd002b154f8ad7f91af6bc95e47", "bike_id": "b237efd002b154f8ad7f91af6bc95e47", "is_disabled": 0, "type": "electric_scooter", "lat": 38.93704416666667, "lon": -77.0242705, "is_reserved": 0, "fusion_lon": 0.0}, {"rental_uris": {"ios": "https://dc.lft.to/lastmile_qr_scan", "android": "https://dc.lft.to/lastmile_qr_scan"}, "fusion_lat": 0.0, "name": "389ad8c2e1c00b5d273aa97c3c7ab50a", "bike_id": "389ad8c2e1c00b5d273aa97c3c7ab50a", "is_disabled": 0, "type": "electric_bike", "lat": 38.87729016666667, "lon": -76.981082, "is_reserved": 0, "fusion_lon": 0.0}, {"rental_uris": {"ios": "https://dc.lft.to/lastmile_qr_scan", "android": "https://dc.lft.to/lastmile_qr_scan"}, "fusion_lat": 0.0, "name": "64674a1a2bc20ffcc1a7644e10527ad7", "bike_id": "64674a1a2bc20ffcc1a7644e10527ad7", "is_disabled": 0, "type": "electric_scooter", "lat": 38.94954283333333, "lon": -77.027228, "is_reserved": 0, "fusion_lon": 0.0}, {"rental_uris": {"ios": "https://dc.lft.to/lastmile_qr_scan", "android": "https://dc.lft.to/lastmile_qr_scan"}, "fusion_lat": 0.0, "name": "ff5858e38ce41c1d1a710c88c5821027", "bike_id": "ff5858e38ce41c1d1a710c88c5821027", "is_disabled": 0, "type": "electric_scooter", "lat": 38.93015033333333, "lon": -77.05526, "is_reserved": 0, "fusion_lon": 0.0}, {"rental_uris": {"ios": "https://dc.lft.to/lastmile_qr_scan", "android": "https://dc.lft.to/lastmile_qr_scan"}, "fusion_lat": 0.0, "name": "6971ddc83f5eeb750b70a4ec5d93f2a9", "bike_id": "6971ddc83f5eeb750b70a4ec5d93f2a9", "is_disabled": 0, "type": "electric_scooter", "lat": 38.892205833333335, "lon": -77.03161683333333, "is_reserved": 0, "fusion_lon": 0.0}, {"rental_uris": {"ios": "https://dc.lft.to/lastmile_qr_scan", "android": "https://dc.lft.to/lastmile_qr_scan"}, "fusion_lat": 0.0, "name": "29e599488ff043a600b7193e62eda207", "bike_id": "29e599488ff043a600b7193e62eda207", "is_disabled": 0, "type": "electric_scooter", "lat": 38.90965666666666, "lon": -77.03474766666666, "is_reserved": 0, "fusion_lon": 0.0}, {"rental_uris": {"ios": "https://dc.lft.to/lastmile_qr_scan", "android": "https://dc.lft.to/lastmile_qr_scan"}, "fusion_lat": 0.0, "name": "ab99e412086fe5a148bc0aca8cc7cb0e", "bike_id": "ab99e412086fe5a148bc0aca8cc7cb0e", "is_disabled": 0, "type": "electric_scooter", "lat": 38.9146765, "lon": -77.01789033333333, "is_reserved": 0, "fusion_lon": 0.0}, {"rental_uris": {"ios": "https://dc.lft.to/lastmile_qr_scan", "android": "https://dc.lft.to/lastmile_qr_scan"}, "fusion_lat": 0.0, "name": "bcc27473c5e21282f98dd8608ce72b4b", "bike_id": "bcc27473c5e21282f98dd8608ce72b4b", "is_disabled": 0, "type": "electric_scooter", "lat": 38.933552666666664, "lon": -77.027523, "is_reserved": 0, "fusion_lon": 0.0}, {"rental_uris": {"ios": "https://dc.lft.to/lastmile_qr_scan", "android": "https://dc.lft.to/lastmile_qr_scan"}, "fusion_lat": 0.0, "name": "2dad9f4bc60b9ccf352b8918735de452", "bike_id": "2dad9f4bc60b9ccf352b8918735de452", "is_disabled": 0, "type": "electric_scooter", "lat": 38.905797166666666, "lon": -77.00610383333333, "is_reserved": 0, "fusion_lon": 0.0}, {"rental_uris": {"ios": "https://dc.lft.to/lastmile_qr_scan", "android": "https://dc.lft.to/lastmile_qr_scan"}, "fusion_lat": 0.0, "name": "35b21960c6d5df5b4747b24e9fb76ee2", "bike_id": "35b21960c6d5df5b4747b24e9fb76ee2", "is_disabled": 0, "type": "electric_scooter", "lat": 38.912679, "lon": -77.03648416666667, "is_reserved": 0, "fusion_lon": 0.0}, {"rental_uris": {"ios": "https://dc.lft.to/lastmile_qr_scan", "android": "https://dc.lft.to/lastmile_qr_scan"}, "fusion_lat": 0.0, "name": "2d75d12d905e320fa1a80f72b77bdcda", "bike_id": "2d75d12d905e320fa1a80f72b77bdcda", "is_disabled": 0, "type": "electric_scooter", "lat": 38.938255166666664, "lon": -76.98617416666667, "is_reserved": 0, "fusion_lon": 0.0}, {"rental_uris": {"ios": "https://dc.lft.to/lastmile_qr_scan", "android": "https://dc.lft.to/lastmile_qr_scan"}, "fusion_lat": 0.0, "name": "6a9e99e9ad70dc62d20133e336eb457e", "bike_id": "6a9e99e9ad70dc62d20133e336eb457e", "is_disabled": 0, "type": "electric_scooter", "lat": 38.910457666666666, "lon": -77.04355366666667, "is_reserved": 0, "fusion_lon": 0.0}, {"rental_uris": {"ios": "https://dc.lft.to/lastmile_qr_scan", "android": "https://dc.lft.to/lastmile_qr_scan"}, "fusion_lat": 0.0, "name": "cb5db39635349f771263f1b21c515d62", "bike_id": "cb5db39635349f771263f1b21c515d62", "is_disabled": 0, "type": "electric_scooter", "lat": 38.8922185, "lon": -77.04802066666667, "is_reserved": 0, "fusion_lon": 0.0}, {"rental_uris": {"ios": "https://dc.lft.to/lastmile_qr_scan", "android": "https://dc.lft.to/lastmile_qr_scan"}, "fusion_lat": 0.0, "name": "eec4293ab9182d65ff6b35a8a4b50cd2", "bike_id": "eec4293ab9182d65ff6b35a8a4b50cd2", "is_disabled": 0, "type": "electric_scooter", "lat": 38.915222666666665, "lon": -77.01844466666667, "is_reserved": 0, "fusion_lon": 0.0}, {"rental_uris": {"ios": "https://dc.lft.to/lastmile_qr_scan", "android": "https://dc.lft.to/lastmile_qr_scan"}, "fusion_lat": 0.0, "name": "46649edebb6ed7e4ae838924b06355ac", "bike_id": "46649edebb6ed7e4ae838924b06355ac", "is_disabled": 0, "type": "electric_scooter", "lat": 38.90225216666666, "lon": -77.017602, "is_reserved": 0, "fusion_lon": 0.0}, {"rental_uris": {"ios": "https://dc.lft.to/lastmile_qr_scan", "android": "https://dc.lft.to/lastmile_qr_scan"}, "fusion_lat": 0.0, "name": "b26502a4a326e5757d0189a4393668c0", "bike_id": "b26502a4a326e5757d0189a4393668c0", "is_disabled": 0, "type": "electric_scooter", "lat": 38.9091085, "lon": -76.99789966666667, "is_reserved": 0, "fusion_lon": 0.0}, {"rental_uris": {"ios": "https://dc.lft.to/lastmile_qr_scan", "android": "https://dc.lft.to/lastmile_qr_scan"}, "fusion_lat": 0.0, "name": "e610a55f967ab0867d81e8d7daffe797", "bike_id": "e610a55f967ab0867d81e8d7daffe797", "is_disabled": 0, "type": "electric_scooter", "lat": 38.915668, "lon": -77.02512916666667, "is_reserved": 0, "fusion_lon": 0.0}, {"rental_uris": {"ios": "https://dc.lft.to/lastmile_qr_scan", "android": "https://dc.lft.to/lastmile_qr_scan"}, "fusion_lat": 0.0, "name": "7b6cd8837751c3f7064cd0b02410c631", "bike_id": "7b6cd8837751c3f7064cd0b02410c631", "is_disabled": 0, "type": "electric_scooter", "lat": 38.9495445, "lon": -77.0272345, "is_reserved": 0, "fusion_lon": 0.0}, {"rental_uris": {"ios": "https://dc.lft.to/lastmile_qr_scan", "android": "https://dc.lft.to/lastmile_qr_scan"}, "fusion_lat": 0.0, "name": "41cf11593b55c4a31d251597e0e6d79d", "bike_id": "41cf11593b55c4a31d251597e0e6d79d", "is_disabled": 0, "type": "electric_scooter", "lat": 38.91693333333333, "lon": -77.02675716666667, "is_reserved": 0, "fusion_lon": 0.0}, {"rental_uris": {"ios": "https://dc.lft.to/lastmile_qr_scan", "android": "https://dc.lft.to/lastmile_qr_scan"}, "fusion_lat": 0.0, "name": "084ea43e94cf6c780a501852ca395cbb", "bike_id": "084ea43e94cf6c780a501852ca395cbb", "is_disabled": 0, "type": "electric_scooter", "lat": 38.906692166666666, "lon": -77.02701366666666, "is_reserved": 0, "fusion_lon": 0.0}, {"rental_uris": {"ios": "https://dc.lft.to/lastmile_qr_scan", "android": "https://dc.lft.to/lastmile_qr_scan"}, "fusion_lat": 0.0, "name": "1d03cbdcdd1bac02828d83726d798729", "bike_id": "1d03cbdcdd1bac02828d83726d798729", "is_disabled": 0, "type": "electric_scooter", "lat": 38.885727, "lon": -76.91908433333333, "is_reserved": 0, "fusion_lon": 0.0}, {"rental_uris": {"ios": "https://dc.lft.to/lastmile_qr_scan", "android": "https://dc.lft.to/lastmile_qr_scan"}, "fusion_lat": 0.0, "name": "f90a720139b4d00e124ebf675dc25ab2", "bike_id": "f90a720139b4d00e124ebf675dc25ab2", "is_disabled": 0, "type": "electric_scooter", "lat": 38.9067755, "lon": -77.03812516666666, "is_reserved": 0, "fusion_lon": 0.0}, {"rental_uris": {"ios": "https://dc.lft.to/lastmile_qr_scan", "android": "https://dc.lft.to/lastmile_qr_scan"}, "fusion_lat": 0.0, "name": "1ef74c6a61c97b718636026eb5219383", "bike_id": "1ef74c6a61c97b718636026eb5219383", "is_disabled": 0, "type": "electric_scooter", "lat": 38.91678133333333, "lon": -77.02971483333333, "is_reserved": 0, "fusion_lon": 0.0}, {"rental_uris": {"ios": "https://dc.lft.to/lastmile_qr_scan", "android": "https://dc.lft.to/lastmile_qr_scan"}, "fusion_lat": 0.0, "name": "b15eb62903b8a7f98d291a56aab86c7a", "bike_id": "b15eb62903b8a7f98d291a56aab86c7a", "is_disabled": 0, "type": "electric_scooter", "lat": 38.904506166666664, "lon": -77.03260166666666, "is_reserved": 0, "fusion_lon": 0.0}, {"rental_uris": {"ios": "https://dc.lft.to/lastmile_qr_scan", "android": "https://dc.lft.to/lastmile_qr_scan"}, "fusion_lat": 0.0, "name": "d810c9f1d563111600c2515ce22cd3c2", "bike_id": "d810c9f1d563111600c2515ce22cd3c2", "is_disabled": 0, "type": "electric_bike", "lat": 38.84029783333333, "lon": -76.975866, "is_reserved": 0, "fusion_lon": 0.0}, {"rental_uris": {"ios": "https://dc.lft.to/lastmile_qr_scan", "android": "https://dc.lft.to/lastmile_qr_scan"}, "fusion_lat": 0.0, "name": "83b5e41d7dc0fcdc568ff87c8b8fd768", "bike_id": "83b5e41d7dc0fcdc568ff87c8b8fd768", "is_disabled": 0, "type": "electric_scooter", "lat": 38.89195483333334, "lon": -77.003123, "is_reserved": 0, "fusion_lon": 0.0}, {"rental_uris": {"ios": "https://dc.lft.to/lastmile_qr_scan", "android": "https://dc.lft.to/lastmile_qr_scan"}, "fusion_lat": 0.0, "name": "aaa625cc8aa0b5e2c1c640fc8834bb54", "bike_id": "aaa625cc8aa0b5e2c1c640fc8834bb54", "is_disabled": 0, "type": "electric_scooter", "lat": 38.90354266666667, "lon": -77.01097383333334, "is_reserved": 0, "fusion_lon": 0.0}, {"rental_uris": {"ios": "https://dc.lft.to/lastmile_qr_scan", "android": "https://dc.lft.to/lastmile_qr_scan"}, "fusion_lat": 0.0, "name": "c72df0ef8fedb7889626e109e84d8502", "bike_id": "c72df0ef8fedb7889626e109e84d8502", "is_disabled": 0, "type": "electric_scooter", "lat": 38.9168895, "lon": -77.03772866666667, "is_reserved": 0, "fusion_lon": 0.0}, {"rental_uris": {"ios": "https://dc.lft.to/lastmile_qr_scan", "android": "https://dc.lft.to/lastmile_qr_scan"}, "fusion_lat": 0.0, "name": "10ef078d76823c0fe3ba7d5c2223630b", "bike_id": "10ef078d76823c0fe3ba7d5c2223630b", "is_disabled": 0, "type": "electric_scooter", "lat": 38.895171, "lon": -76.93043416666667, "is_reserved": 0, "fusion_lon": 0.0}, {"rental_uris": {"ios": "https://dc.lft.to/lastmile_qr_scan", "android": "https://dc.lft.to/lastmile_qr_scan"}, "fusion_lat": 0.0, "name": "58d68ae3212bdf4a35a7b78a6a55c87d", "bike_id": "58d68ae3212bdf4a35a7b78a6a55c87d", "is_disabled": 0, "type": "electric_scooter", "lat": 38.902866, "lon": -77.05814883333333, "is_reserved": 0, "fusion_lon": 0.0}, {"rental_uris": {"ios": "https://dc.lft.to/lastmile_qr_scan", "android": "https://dc.lft.to/lastmile_qr_scan"}, "fusion_lat": 0.0, "name": "7f858899cb78450f7b98407b2760fef6", "bike_id": "7f858899cb78450f7b98407b2760fef6", "is_disabled": 0, "type": "electric_scooter", "lat": 38.935260666666665, "lon": -77.07272833333333, "is_reserved": 0, "fusion_lon": 0.0}, {"rental_uris": {"ios": "https://dc.lft.to/lastmile_qr_scan", "android": "https://dc.lft.to/lastmile_qr_scan"}, "fusion_lat": 0.0, "name": "2e7a08fa33a54f880f2bf13751c9fd90", "bike_id": "2e7a08fa33a54f880f2bf13751c9fd90", "is_disabled": 0, "type": "electric_scooter", "lat": 38.899476166666666, "lon": -77.04716833333333, "is_reserved": 0, "fusion_lon": 0.0}, {"rental_uris": {"ios": "https://dc.lft.to/lastmile_qr_scan", "android": "https://dc.lft.to/lastmile_qr_scan"}, "fusion_lat": 0.0, "name": "fc5d4cf5db9fb69a17a51b8727651e7b", "bike_id": "fc5d4cf5db9fb69a17a51b8727651e7b", "is_disabled": 0, "type": "electric_scooter", "lat": 38.88585533333333, "lon": -77.03058233333333, "is_reserved": 0, "fusion_lon": 0.0}, {"rental_uris": {"ios": "https://dc.lft.to/lastmile_qr_scan", "android": "https://dc.lft.to/lastmile_qr_scan"}, "fusion_lat": 0.0, "name": "2bfb8a54c276b1060393cbd3fedc39b7", "bike_id": "2bfb8a54c276b1060393cbd3fedc39b7", "is_disabled": 0, "type": "electric_scooter", "lat": 38.90351883333334, "lon": -77.02572, "is_reserved": 0, "fusion_lon": 0.0}, {"rental_uris": {"ios": "https://dc.lft.to/lastmile_qr_scan", "android": "https://dc.lft.to/lastmile_qr_scan"}, "fusion_lat": 0.0, "name": "40efebb30fa88b9f9c2319fc391fc364", "bike_id": "40efebb30fa88b9f9c2319fc391fc364", "is_disabled": 0, "type": "electric_scooter", "lat": 38.90639083333333, "lon": -77.01792216666666, "is_reserved": 0, "fusion_lon": 0.0}, {"rental_uris": {"ios": "https://dc.lft.to/lastmile_qr_scan", "android": "https://dc.lft.to/lastmile_qr_scan"}, "fusion_lat": 0.0, "name": "58e661563b9ef2608209c57cd8476e74", "bike_id": "58e661563b9ef2608209c57cd8476e74", "is_disabled": 0, "type": "electric_scooter", "lat": 38.86363466666667, "lon": -76.9906045, "is_reserved": 0, "fusion_lon": 0.0}, {"rental_uris": {"ios": "https://dc.lft.to/lastmile_qr_scan", "android": "https://dc.lft.to/lastmile_qr_scan"}, "fusion_lat": 0.0, "name": "cb7de05ba46c3a20239aae08185238c7", "bike_id": "cb7de05ba46c3a20239aae08185238c7", "is_disabled": 0, "type": "electric_bike", "lat": 38.934116, "lon": -77.025107, "is_reserved": 0, "fusion_lon": 0.0}, {"rental_uris": {"ios": "https://dc.lft.to/lastmile_qr_scan", "android": "https://dc.lft.to/lastmile_qr_scan"}, "fusion_lat": 0.0, "name": "5c03ad6ec9833846f2f54988d40c3fa6", "bike_id": "5c03ad6ec9833846f2f54988d40c3fa6", "is_disabled": 0, "type": "electric_scooter", "lat": 38.89349083333333, "lon": -77.04143183333333, "is_reserved": 0, "fusion_lon": 0.0}, {"rental_uris": {"ios": "https://dc.lft.to/lastmile_qr_scan", "android": "https://dc.lft.to/lastmile_qr_scan"}, "fusion_lat": 0.0, "name": "63c70ac6bd77c25cfeaf30e112f787b4", "bike_id": "63c70ac6bd77c25cfeaf30e112f787b4", "is_disabled": 0, "type": "electric_scooter", "lat": 38.920605, "lon": -77.04360533333333, "is_reserved": 0, "fusion_lon": 0.0}, {"rental_uris": {"ios": "https://dc.lft.to/lastmile_qr_scan", "android": "https://dc.lft.to/lastmile_qr_scan"}, "fusion_lat": 0.0, "name": "d04433d60cd6b80b9aad9665b33868aa", "bike_id": "d04433d60cd6b80b9aad9665b33868aa", "is_disabled": 0, "type": "electric_bike", "lat": 38.94550483333333, "lon": -76.89540733333334, "is_reserved": 0, "fusion_lon": 0.0}, {"rental_uris": {"ios": "https://dc.lft.to/lastmile_qr_scan", "android": "https://dc.lft.to/lastmile_qr_scan"}, "fusion_lat": 0.0, "name": "70042b7c756acfb1f00ddebfae0cd9e2", "bike_id": "70042b7c756acfb1f00ddebfae0cd9e2", "is_disabled": 0, "type": "electric_scooter", "lat": 38.91263266666667, "lon": -77.0454965, "is_reserved": 0, "fusion_lon": 0.0}, {"rental_uris": {"ios": "https://dc.lft.to/lastmile_qr_scan", "android": "https://dc.lft.to/lastmile_qr_scan"}, "fusion_lat": 0.0, "name": "86b44f568175adae40002fb00f757a93", "bike_id": "86b44f568175adae40002fb00f757a93", "is_disabled": 0, "type": "electric_scooter", "lat": 38.911124666666666, "lon": -77.04463216666667, "is_reserved": 0, "fusion_lon": 0.0}, {"rental_uris": {"ios": "https://dc.lft.to/lastmile_qr_scan", "android": "https://dc.lft.to/lastmile_qr_scan"}, "fusion_lat": 0.0, "name": "bf1402819176c718b6fd62a47fe82208", "bike_id": "bf1402819176c718b6fd62a47fe82208", "is_disabled": 0, "type": "electric_scooter", "lat": 38.88724066666666, "lon": -77.02833766666667, "is_reserved": 0, "fusion_lon": 0.0}, {"rental_uris": {"ios": "https://dc.lft.to/lastmile_qr_scan", "android": "https://dc.lft.to/lastmile_qr_scan"}, "fusion_lat": 0.0, "name": "207cba453303a531f8f0b3ddfd0e8ce2", "bike_id": "207cba453303a531f8f0b3ddfd0e8ce2", "is_disabled": 0, "type": "electric_scooter", "lat": 38.937425833333336, "lon": -77.03455983333333, "is_reserved": 0, "fusion_lon": 0.0}, {"rental_uris": {"ios": "https://dc.lft.to/lastmile_qr_scan", "android": "https://dc.lft.to/lastmile_qr_scan"}, "fusion_lat": 0.0, "name": "ca1564205568397d236a6b110c2ae66a", "bike_id": "ca1564205568397d236a6b110c2ae66a", "is_disabled": 0, "type": "electric_scooter", "lat": 38.9039145, "lon": -77.03218216666667, "is_reserved": 0, "fusion_lon": 0.0}, {"rental_uris": {"ios": "https://dc.lft.to/lastmile_qr_scan", "android": "https://dc.lft.to/lastmile_qr_scan"}, "fusion_lat": 0.0, "name": "d96b284fe648a5f8a707eec8d9cbc9d2", "bike_id": "d96b284fe648a5f8a707eec8d9cbc9d2", "is_disabled": 0, "type": "electric_scooter", "lat": 38.90955233333333, "lon": -77.02289683333333, "is_reserved": 0, "fusion_lon": 0.0}, {"rental_uris": {"ios": "https://dc.lft.to/lastmile_qr_scan", "android": "https://dc.lft.to/lastmile_qr_scan"}, "fusion_lat": 0.0, "name": "3b67f05a9ec4395f86c226015c462b5a", "bike_id": "3b67f05a9ec4395f86c226015c462b5a", "is_disabled": 0, "type": "electric_scooter", "lat": 38.90970333333333, "lon": -77.037923, "is_reserved": 0, "fusion_lon": 0.0}, {"rental_uris": {"ios": "https://dc.lft.to/lastmile_qr_scan", "android": "https://dc.lft.to/lastmile_qr_scan"}, "fusion_lat": 0.0, "name": "e95048081a885f626c8c3200760bd34c", "bike_id": "e95048081a885f626c8c3200760bd34c", "is_disabled": 0, "type": "electric_scooter", "lat": 38.89501933333333, "lon": -77.02300033333333, "is_reserved": 0, "fusion_lon": 0.0}, {"rental_uris": {"ios": "https://dc.lft.to/lastmile_qr_scan", "android": "https://dc.lft.to/lastmile_qr_scan"}, "fusion_lat": 0.0, "name": "9d6f8e59c284604685ca4a7a97d020f2", "bike_id": "9d6f8e59c284604685ca4a7a97d020f2", "is_disabled": 0, "type": "electric_scooter", "lat": 38.896082, "lon": -77.04540266666666, "is_reserved": 0, "fusion_lon": 0.0}, {"rental_uris": {"ios": "https://dc.lft.to/lastmile_qr_scan", "android": "https://dc.lft.to/lastmile_qr_scan"}, "fusion_lat": 0.0, "name": "87bec3ee8eff144787dec9f4e8802eb2", "bike_id": "87bec3ee8eff144787dec9f4e8802eb2", "is_disabled": 0, "type": "electric_scooter", "lat": 38.9180385, "lon": -77.02429366666667, "is_reserved": 0, "fusion_lon": 0.0}, {"rental_uris": {"ios": "https://dc.lft.to/lastmile_qr_scan", "android": "https://dc.lft.to/lastmile_qr_scan"}, "fusion_lat": 0.0, "name": "46b140682a846dc43630166cca03e44c", "bike_id": "46b140682a846dc43630166cca03e44c", "is_disabled": 0, "type": "electric_scooter", "lat": 38.884107166666666, "lon": -77.02996566666667, "is_reserved": 0, "fusion_lon": 0.0}, {"rental_uris": {"ios": "https://dc.lft.to/lastmile_qr_scan", "android": "https://dc.lft.to/lastmile_qr_scan"}, "fusion_lat": 0.0, "name": "b5913ebe2ce29b3d49f9dc1b367d80c8", "bike_id": "b5913ebe2ce29b3d49f9dc1b367d80c8", "is_disabled": 0, "type": "electric_scooter", "lat": 38.88112533333333, "lon": -77.01656583333333, "is_reserved": 0, "fusion_lon": 0.0}, {"rental_uris": {"ios": "https://dc.lft.to/lastmile_qr_scan", "android": "https://dc.lft.to/lastmile_qr_scan"}, "fusion_lat": 0.0, "name": "5ebbe084f3da2d5e5e6a2788bb1b85c0", "bike_id": "5ebbe084f3da2d5e5e6a2788bb1b85c0", "is_disabled": 0, "type": "electric_scooter", "lat": 38.907652166666665, "lon": -77.0013615, "is_reserved": 0, "fusion_lon": 0.0}, {"rental_uris": {"ios": "https://dc.lft.to/lastmile_qr_scan", "android": "https://dc.lft.to/lastmile_qr_scan"}, "fusion_lat": 0.0, "name": "1d3168918a1c7c925a33a151391d4b6d", "bike_id": "1d3168918a1c7c925a33a151391d4b6d", "is_disabled": 0, "type": "electric_scooter", "lat": 38.917062333333334, "lon": -77.03890983333334, "is_reserved": 0, "fusion_lon": 0.0}, {"rental_uris": {"ios": "https://dc.lft.to/lastmile_qr_scan", "android": "https://dc.lft.to/lastmile_qr_scan"}, "fusion_lat": 0.0, "name": "d2761824c5661de2392855b324726993", "bike_id": "d2761824c5661de2392855b324726993", "is_disabled": 0, "type": "electric_scooter", "lat": 38.892210166666665, "lon": -77.02657966666666, "is_reserved": 0, "fusion_lon": 0.0}, {"rental_uris": {"ios": "https://dc.lft.to/lastmile_qr_scan", "android": "https://dc.lft.to/lastmile_qr_scan"}, "fusion_lat": 0.0, "name": "9db9083ab8ee684f283d4281a0a91cb6", "bike_id": "9db9083ab8ee684f283d4281a0a91cb6", "is_disabled": 0, "type": "electric_scooter", "lat": 38.949551666666665, "lon": -77.027229, "is_reserved": 0, "fusion_lon": 0.0}, {"rental_uris": {"ios": "https://dc.lft.to/lastmile_qr_scan", "android": "https://dc.lft.to/lastmile_qr_scan"}, "fusion_lat": 0.0, "name": "08821177935edad02d69eaa6010f1f5f", "bike_id": "08821177935edad02d69eaa6010f1f5f", "is_disabled": 0, "type": "electric_scooter", "lat": 38.91745066666667, "lon": -77.02401233333333, "is_reserved": 0, "fusion_lon": 0.0}, {"rental_uris": {"ios": "https://dc.lft.to/lastmile_qr_scan", "android": "https://dc.lft.to/lastmile_qr_scan"}, "fusion_lat": 0.0, "name": "4e44a4b7f4c6f97ada0cdc2fc88821f7", "bike_id": "4e44a4b7f4c6f97ada0cdc2fc88821f7", "is_disabled": 0, "type": "electric_scooter", "lat": 38.91880833333333, "lon": -77.02473866666666, "is_reserved": 0, "fusion_lon": 0.0}, {"rental_uris": {"ios": "https://dc.lft.to/lastmile_qr_scan", "android": "https://dc.lft.to/lastmile_qr_scan"}, "fusion_lat": 0.0, "name": "58552693ab0de4330a25584dd9610369", "bike_id": "58552693ab0de4330a25584dd9610369", "is_disabled": 0, "type": "electric_scooter", "lat": 38.906399, "lon": -77.00628633333334, "is_reserved": 0, "fusion_lon": 0.0}, {"rental_uris": {"ios": "https://dc.lft.to/lastmile_qr_scan", "android": "https://dc.lft.to/lastmile_qr_scan"}, "fusion_lat": 0.0, "name": "6be65d90f4ca2ba40a52382a1eb7de28", "bike_id": "6be65d90f4ca2ba40a52382a1eb7de28", "is_disabled": 0, "type": "electric_scooter", "lat": 38.91562533333333, "lon": -77.0052835, "is_reserved": 0, "fusion_lon": 0.0}, {"rental_uris": {"ios": "https://dc.lft.to/lastmile_qr_scan", "android": "https://dc.lft.to/lastmile_qr_scan"}, "fusion_lat": 0.0, "name": "e6699a64204c2f9d87dd13c59d3645b0", "bike_id": "e6699a64204c2f9d87dd13c59d3645b0", "is_disabled": 0, "type": "electric_scooter", "lat": 38.917078833333335, "lon": -77.03319516666667, "is_reserved": 0, "fusion_lon": 0.0}, {"rental_uris": {"ios": "https://dc.lft.to/lastmile_qr_scan", "android": "https://dc.lft.to/lastmile_qr_scan"}, "fusion_lat": 0.0, "name": "34df7fab66fe1ab90575d9f8fe05a313", "bike_id": "34df7fab66fe1ab90575d9f8fe05a313", "is_disabled": 0, "type": "electric_scooter", "lat": 38.940876833333334, "lon": -77.02722116666666, "is_reserved": 0, "fusion_lon": 0.0}, {"rental_uris": {"ios": "https://dc.lft.to/lastmile_qr_scan", "android": "https://dc.lft.to/lastmile_qr_scan"}, "fusion_lat": 0.0, "name": "9ab9ecc0aefbeab3f7dcf8652c3cc2ef", "bike_id": "9ab9ecc0aefbeab3f7dcf8652c3cc2ef", "is_disabled": 0, "type": "electric_scooter", "lat": 38.91624316666667, "lon": -77.03274616666667, "is_reserved": 0, "fusion_lon": 0.0}, {"rental_uris": {"ios": "https://dc.lft.to/lastmile_qr_scan", "android": "https://dc.lft.to/lastmile_qr_scan"}, "fusion_lat": 0.0, "name": "1a687b136964a9b8b5bbb90340888d8d", "bike_id": "1a687b136964a9b8b5bbb90340888d8d", "is_disabled": 0, "type": "electric_scooter", "lat": 38.90033483333333, "lon": -76.988389, "is_reserved": 0, "fusion_lon": 0.0}, {"rental_uris": {"ios": "https://dc.lft.to/lastmile_qr_scan", "android": "https://dc.lft.to/lastmile_qr_scan"}, "fusion_lat": 0.0, "name": "8e5cc78adf86c5515b46089eb44684a4", "bike_id": "8e5cc78adf86c5515b46089eb44684a4", "is_disabled": 0, "type": "electric_scooter", "lat": 38.90271966666667, "lon": -77.038425, "is_reserved": 0, "fusion_lon": 0.0}, {"rental_uris": {"ios": "https://dc.lft.to/lastmile_qr_scan", "android": "https://dc.lft.to/lastmile_qr_scan"}, "fusion_lat": 0.0, "name": "bf72410cf744e63ff02d29a05067a6f8", "bike_id": "bf72410cf744e63ff02d29a05067a6f8", "is_disabled": 0, "type": "electric_scooter", "lat": 38.9133425, "lon": -77.03176566666667, "is_reserved": 0, "fusion_lon": 0.0}, {"rental_uris": {"ios": "https://dc.lft.to/lastmile_qr_scan", "android": "https://dc.lft.to/lastmile_qr_scan"}, "fusion_lat": 0.0, "name": "eaa826f59f45c468fd5c7a95754ce3f7", "bike_id": "eaa826f59f45c468fd5c7a95754ce3f7", "is_disabled": 0, "type": "electric_scooter", "lat": 38.956409, "lon": -77.0328635, "is_reserved": 0, "fusion_lon": 0.0}, {"rental_uris": {"ios": "https://dc.lft.to/lastmile_qr_scan", "android": "https://dc.lft.to/lastmile_qr_scan"}, "fusion_lat": 0.0, "name": "5b9e6e5a36becf118e6f5dd3a0cbceb7", "bike_id": "5b9e6e5a36becf118e6f5dd3a0cbceb7", "is_disabled": 0, "type": "electric_scooter", "lat": 38.9047015, "lon": -77.04491966666667, "is_reserved": 0, "fusion_lon": 0.0}, {"rental_uris": {"ios": "https://dc.lft.to/lastmile_qr_scan", "android": "https://dc.lft.to/lastmile_qr_scan"}, "fusion_lat": 0.0, "name": "af4baf2580e367d108c7c19149556728", "bike_id": "af4baf2580e367d108c7c19149556728", "is_disabled": 0, "type": "electric_scooter", "lat": 38.91490733333333, "lon": -77.0321455, "is_reserved": 0, "fusion_lon": 0.0}, {"rental_uris": {"ios": "https://dc.lft.to/lastmile_qr_scan", "android": "https://dc.lft.to/lastmile_qr_scan"}, "fusion_lat": 0.0, "name": "feffa7ace39e5b3b3ccc64af289080a4", "bike_id": "feffa7ace39e5b3b3ccc64af289080a4", "is_disabled": 0, "type": "electric_bike", "lat": 38.9097255, "lon": -77.08826416666666, "is_reserved": 0, "fusion_lon": 0.0}, {"rental_uris": {"ios": "https://dc.lft.to/lastmile_qr_scan", "android": "https://dc.lft.to/lastmile_qr_scan"}, "fusion_lat": 0.0, "name": "2a1b2cab23bdd1228c971ba45732d0d3", "bike_id": "2a1b2cab23bdd1228c971ba45732d0d3", "is_disabled": 0, "type": "electric_scooter", "lat": 38.906469333333334, "lon": -77.04874566666666, "is_reserved": 0, "fusion_lon": 0.0}, {"rental_uris": {"ios": "https://dc.lft.to/lastmile_qr_scan", "android": "https://dc.lft.to/lastmile_qr_scan"}, "fusion_lat": 0.0, "name": "99c937bb2c7efa6c8b2e66caf8c26fb5", "bike_id": "99c937bb2c7efa6c8b2e66caf8c26fb5", "is_disabled": 0, "type": "electric_scooter", "lat": 38.91561633333333, "lon": -77.03152166666666, "is_reserved": 0, "fusion_lon": 0.0}, {"rental_uris": {"ios": "https://dc.lft.to/lastmile_qr_scan", "android": "https://dc.lft.to/lastmile_qr_scan"}, "fusion_lat": 0.0, "name": "57b6cef90df122f057742c7e8c8539e7", "bike_id": "57b6cef90df122f057742c7e8c8539e7", "is_disabled": 0, "type": "electric_scooter", "lat": 38.91212316666667, "lon": -77.0414315, "is_reserved": 0, "fusion_lon": 0.0}, {"rental_uris": {"ios": "https://dc.lft.to/lastmile_qr_scan", "android": "https://dc.lft.to/lastmile_qr_scan"}, "fusion_lat": 0.0, "name": "2a013d53f7236c8359527488d8b5d2dd", "bike_id": "2a013d53f7236c8359527488d8b5d2dd", "is_disabled": 0, "type": "electric_scooter", "lat": 38.901773, "lon": -77.0487205, "is_reserved": 0, "fusion_lon": 0.0}, {"rental_uris": {"ios": "https://dc.lft.to/lastmile_qr_scan", "android": "https://dc.lft.to/lastmile_qr_scan"}, "fusion_lat": 0.0, "name": "9d3e06c1f931caf79dcb188a7f86298f", "bike_id": "9d3e06c1f931caf79dcb188a7f86298f", "is_disabled": 0, "type": "electric_scooter", "lat": 38.9247965, "lon": -77.02721033333333, "is_reserved": 0, "fusion_lon": 0.0}, {"rental_uris": {"ios": "https://dc.lft.to/lastmile_qr_scan", "android": "https://dc.lft.to/lastmile_qr_scan"}, "fusion_lat": 0.0, "name": "dcc3ae04d38b569f054c4cac1432109d", "bike_id": "dcc3ae04d38b569f054c4cac1432109d", "is_disabled": 0, "type": "electric_scooter", "lat": 38.931906, "lon": -77.02835316666666, "is_reserved": 0, "fusion_lon": 0.0}, {"rental_uris": {"ios": "https://dc.lft.to/lastmile_qr_scan", "android": "https://dc.lft.to/lastmile_qr_scan"}, "fusion_lat": 0.0, "name": "992f8f602ea0a7aaed4c0f5730f11551", "bike_id": "992f8f602ea0a7aaed4c0f5730f11551", "is_disabled": 0, "type": "electric_bike", "lat": 38.949183833333336, "lon": -77.00800416666667, "is_reserved": 0, "fusion_lon": 0.0}, {"rental_uris": {"ios": "https://dc.lft.to/lastmile_qr_scan", "android": "https://dc.lft.to/lastmile_qr_scan"}, "fusion_lat": 0.0, "name": "23e72ef5824ecea0846a7ec35fb0e0ae", "bike_id": "23e72ef5824ecea0846a7ec35fb0e0ae", "is_disabled": 0, "type": "electric_scooter", "lat": 38.905303333333336, "lon": -77.04350033333333, "is_reserved": 0, "fusion_lon": 0.0}, {"rental_uris": {"ios": "https://dc.lft.to/lastmile_qr_scan", "android": "https://dc.lft.to/lastmile_qr_scan"}, "fusion_lat": 0.0, "name": "f1aadc6a37d4f86452f8a857488621fc", "bike_id": "f1aadc6a37d4f86452f8a857488621fc", "is_disabled": 0, "type": "electric_scooter", "lat": 38.92171716666667, "lon": -77.04010383333333, "is_reserved": 0, "fusion_lon": 0.0}, {"rental_uris": {"ios": "https://dc.lft.to/lastmile_qr_scan", "android": "https://dc.lft.to/lastmile_qr_scan"}, "fusion_lat": 0.0, "name": "5d98078b25a10126505fe6a7fee79ace", "bike_id": "5d98078b25a10126505fe6a7fee79ace", "is_disabled": 0, "type": "electric_scooter", "lat": 38.92844683333333, "lon": -77.02962583333333, "is_reserved": 0, "fusion_lon": 0.0}, {"rental_uris": {"ios": "https://dc.lft.to/lastmile_qr_scan", "android": "https://dc.lft.to/lastmile_qr_scan"}, "fusion_lat": 0.0, "name": "e2007e4283550a57959d49529acd7383", "bike_id": "e2007e4283550a57959d49529acd7383", "is_disabled": 0, "type": "electric_scooter", "lat": 38.922292, "lon": -77.02979833333333, "is_reserved": 0, "fusion_lon": 0.0}, {"rental_uris": {"ios": "https://dc.lft.to/lastmile_qr_scan", "android": "https://dc.lft.to/lastmile_qr_scan"}, "fusion_lat": 0.0, "name": "cf0ada47501bac8a8409027f02857c07", "bike_id": "cf0ada47501bac8a8409027f02857c07", "is_disabled": 0, "type": "electric_bike", "lat": 38.87067016666666, "lon": -76.97832483333333, "is_reserved": 0, "fusion_lon": 0.0}, {"rental_uris": {"ios": "https://dc.lft.to/lastmile_qr_scan", "android": "https://dc.lft.to/lastmile_qr_scan"}, "fusion_lat": 0.0, "name": "ed77fe5f2f5b97256f40d6c49f252ba1", "bike_id": "ed77fe5f2f5b97256f40d6c49f252ba1", "is_disabled": 0, "type": "electric_scooter", "lat": 38.921493, "lon": -77.03511016666667, "is_reserved": 0, "fusion_lon": 0.0}, {"rental_uris": {"ios": "https://dc.lft.to/lastmile_qr_scan", "android": "https://dc.lft.to/lastmile_qr_scan"}, "fusion_lat": 0.0, "name": "da1d8aa63f672aa2dc3ad2af3655d4e7", "bike_id": "da1d8aa63f672aa2dc3ad2af3655d4e7", "is_disabled": 0, "type": "electric_bike", "lat": 38.95480883333333, "lon": -76.98869666666667, "is_reserved": 0, "fusion_lon": 0.0}, {"rental_uris": {"ios": "https://dc.lft.to/lastmile_qr_scan", "android": "https://dc.lft.to/lastmile_qr_scan"}, "fusion_lat": 0.0, "name": "07c7cf06fd1e42d7a22bdc171c1db34a", "bike_id": "07c7cf06fd1e42d7a22bdc171c1db34a", "is_disabled": 0, "type": "electric_scooter", "lat": 38.902837, "lon": -77.045326, "is_reserved": 0, "fusion_lon": 0.0}, {"rental_uris": {"ios": "https://dc.lft.to/lastmile_qr_scan", "android": "https://dc.lft.to/lastmile_qr_scan"}, "fusion_lat": 0.0, "name": "64d885d235bbb5891ce4688fc7294f32", "bike_id": "64d885d235bbb5891ce4688fc7294f32", "is_disabled": 0, "type": "electric_bike", "lat": 38.894067166666666, "lon": -76.94796633333333, "is_reserved": 0, "fusion_lon": 0.0}, {"rental_uris": {"ios": "https://dc.lft.to/lastmile_qr_scan", "android": "https://dc.lft.to/lastmile_qr_scan"}, "fusion_lat": 0.0, "name": "d7ab7c650ef0088f5e06e4fd932ee051", "bike_id": "d7ab7c650ef0088f5e06e4fd932ee051", "is_disabled": 0, "type": "electric_scooter", "lat": 38.867495166666664, "lon": -77.0385835, "is_reserved": 0, "fusion_lon": 0.0}, {"rental_uris": {"ios": "https://dc.lft.to/lastmile_qr_scan", "android": "https://dc.lft.to/lastmile_qr_scan"}, "fusion_lat": 0.0, "name": "279ba84bb5a07708e76a5492def5974b", "bike_id": "279ba84bb5a07708e76a5492def5974b", "is_disabled": 0, "type": "electric_scooter", "lat": 38.87180433333333, "lon": -77.00610183333333, "is_reserved": 0, "fusion_lon": 0.0}, {"rental_uris": {"ios": "https://dc.lft.to/lastmile_qr_scan", "android": "https://dc.lft.to/lastmile_qr_scan"}, "fusion_lat": 0.0, "name": "e7ef48d16440ce63ce2fa4fd242a5e21", "bike_id": "e7ef48d16440ce63ce2fa4fd242a5e21", "is_disabled": 0, "type": "electric_scooter", "lat": 38.909174666666665, "lon": -77.07379916666666, "is_reserved": 0, "fusion_lon": 0.0}, {"rental_uris": {"ios": "https://dc.lft.to/lastmile_qr_scan", "android": "https://dc.lft.to/lastmile_qr_scan"}, "fusion_lat": 0.0, "name": "85dc30264f443c09f56567607fa115e2", "bike_id": "85dc30264f443c09f56567607fa115e2", "is_disabled": 0, "type": "electric_bike", "lat": 38.899613, "lon": -76.98674866666667, "is_reserved": 0, "fusion_lon": 0.0}, {"rental_uris": {"ios": "https://dc.lft.to/lastmile_qr_scan", "android": "https://dc.lft.to/lastmile_qr_scan"}, "fusion_lat": 0.0, "name": "c36797f10ed5bfffacb846eb3878d7e6", "bike_id": "c36797f10ed5bfffacb846eb3878d7e6", "is_disabled": 0, "type": "electric_scooter", "lat": 38.910722666666665, "lon": -77.0440435, "is_reserved": 0, "fusion_lon": 0.0}, {"rental_uris": {"ios": "https://dc.lft.to/lastmile_qr_scan", "android": "https://dc.lft.to/lastmile_qr_scan"}, "fusion_lat": 0.0, "name": "0b9e4a5fe3f5c92e899c5d385b3342a8", "bike_id": "0b9e4a5fe3f5c92e899c5d385b3342a8", "is_disabled": 0, "type": "electric_scooter", "lat": 38.91705266666666, "lon": -77.0321465, "is_reserved": 0, "fusion_lon": 0.0}, {"rental_uris": {"ios": "https://dc.lft.to/lastmile_qr_scan", "android": "https://dc.lft.to/lastmile_qr_scan"}, "fusion_lat": 0.0, "name": "550df531e876edca296ae8c0e6fbf6e3", "bike_id": "550df531e876edca296ae8c0e6fbf6e3", "is_disabled": 0, "type": "electric_scooter", "lat": 38.90214566666667, "lon": -77.00900416666667, "is_reserved": 0, "fusion_lon": 0.0}, {"rental_uris": {"ios": "https://dc.lft.to/lastmile_qr_scan", "android": "https://dc.lft.to/lastmile_qr_scan"}, "fusion_lat": 0.0, "name": "27583821be2df1130d62a890ef6e8baa", "bike_id": "27583821be2df1130d62a890ef6e8baa", "is_disabled": 0, "type": "electric_scooter", "lat": 38.923053333333336, "lon": -77.03427766666667, "is_reserved": 0, "fusion_lon": 0.0}, {"rental_uris": {"ios": "https://dc.lft.to/lastmile_qr_scan", "android": "https://dc.lft.to/lastmile_qr_scan"}, "fusion_lat": 0.0, "name": "5b9ed073eaeac1c54c52e3da63017727", "bike_id": "5b9ed073eaeac1c54c52e3da63017727", "is_disabled": 0, "type": "electric_scooter", "lat": 38.907503166666665, "lon": -76.98330016666667, "is_reserved": 0, "fusion_lon": 0.0}, {"rental_uris": {"ios": "https://dc.lft.to/lastmile_qr_scan", "android": "https://dc.lft.to/lastmile_qr_scan"}, "fusion_lat": 0.0, "name": "e83424e78f9f2928ec48113cbe3bea71", "bike_id": "e83424e78f9f2928ec48113cbe3bea71", "is_disabled": 0, "type": "electric_scooter", "lat": 38.903168666666666, "lon": -77.039406, "is_reserved": 0, "fusion_lon": 0.0}, {"rental_uris": {"ios": "https://dc.lft.to/lastmile_qr_scan", "android": "https://dc.lft.to/lastmile_qr_scan"}, "fusion_lat": 0.0, "name": "748f36005e0dda52470b1e7aff292398", "bike_id": "748f36005e0dda52470b1e7aff292398", "is_disabled": 0, "type": "electric_scooter", "lat": 38.936071, "lon": -77.05860216666666, "is_reserved": 0, "fusion_lon": 0.0}, {"rental_uris": {"ios": "https://dc.lft.to/lastmile_qr_scan", "android": "https://dc.lft.to/lastmile_qr_scan"}, "fusion_lat": 0.0, "name": "0264f482237ea34a3d36e27128af2c57", "bike_id": "0264f482237ea34a3d36e27128af2c57", "is_disabled": 0, "type": "electric_scooter", "lat": 38.9134495, "lon": -77.00921066666666, "is_reserved": 0, "fusion_lon": 0.0}, {"rental_uris": {"ios": "https://dc.lft.to/lastmile_qr_scan", "android": "https://dc.lft.to/lastmile_qr_scan"}, "fusion_lat": 0.0, "name": "e63d791849df8bd10944197fb52e1741", "bike_id": "e63d791849df8bd10944197fb52e1741", "is_disabled": 0, "type": "electric_scooter", "lat": 38.8787165, "lon": -76.94138133333334, "is_reserved": 0, "fusion_lon": 0.0}, {"rental_uris": {"ios": "https://dc.lft.to/lastmile_qr_scan", "android": "https://dc.lft.to/lastmile_qr_scan"}, "fusion_lat": 0.0, "name": "adfe35f5afaa3b50539a2cd1a5a18cd5", "bike_id": "adfe35f5afaa3b50539a2cd1a5a18cd5", "is_disabled": 0, "type": "electric_scooter", "lat": 38.90226533333333, "lon": -77.04711983333333, "is_reserved": 0, "fusion_lon": 0.0}, {"rental_uris": {"ios": "https://dc.lft.to/lastmile_qr_scan", "android": "https://dc.lft.to/lastmile_qr_scan"}, "fusion_lat": 0.0, "name": "b2891ece0f8e12f0f6042cddddaf9172", "bike_id": "b2891ece0f8e12f0f6042cddddaf9172", "is_disabled": 0, "type": "electric_bike", "lat": 38.958783, "lon": -76.92506716666666, "is_reserved": 0, "fusion_lon": 0.0}, {"rental_uris": {"ios": "https://dc.lft.to/lastmile_qr_scan", "android": "https://dc.lft.to/lastmile_qr_scan"}, "fusion_lat": 0.0, "name": "5bfc48083d66ab475e52965c3cf67a11", "bike_id": "5bfc48083d66ab475e52965c3cf67a11", "is_disabled": 0, "type": "electric_scooter", "lat": 38.92532633333333, "lon": -77.02642383333334, "is_reserved": 0, "fusion_lon": 0.0}, {"rental_uris": {"ios": "https://dc.lft.to/lastmile_qr_scan", "android": "https://dc.lft.to/lastmile_qr_scan"}, "fusion_lat": 0.0, "name": "f2e63e1460330ae35b5b6daeb7ba1d5e", "bike_id": "f2e63e1460330ae35b5b6daeb7ba1d5e", "is_disabled": 0, "type": "electric_scooter", "lat": 38.87625416666667, "lon": -76.965298, "is_reserved": 0, "fusion_lon": 0.0}, {"rental_uris": {"ios": "https://dc.lft.to/lastmile_qr_scan", "android": "https://dc.lft.to/lastmile_qr_scan"}, "fusion_lat": 0.0, "name": "461d59b7bd55fe4f600fc609c24f1e0c", "bike_id": "461d59b7bd55fe4f600fc609c24f1e0c", "is_disabled": 0, "type": "electric_scooter", "lat": 38.9178245, "lon": -77.04340033333334, "is_reserved": 0, "fusion_lon": 0.0}, {"rental_uris": {"ios": "https://dc.lft.to/lastmile_qr_scan", "android": "https://dc.lft.to/lastmile_qr_scan"}, "fusion_lat": 0.0, "name": "26246a00cdef5831fba66abab45a43cd", "bike_id": "26246a00cdef5831fba66abab45a43cd", "is_disabled": 0, "type": "electric_bike", "lat": 38.973414166666664, "lon": -77.01812283333334, "is_reserved": 0, "fusion_lon": 0.0}, {"rental_uris": {"ios": "https://dc.lft.to/lastmile_qr_scan", "android": "https://dc.lft.to/lastmile_qr_scan"}, "fusion_lat": 0.0, "name": "f17610e173d94ed39a8f722ba3cc8090", "bike_id": "f17610e173d94ed39a8f722ba3cc8090", "is_disabled": 0, "type": "electric_scooter", "lat": 38.9156955, "lon": -77.0059625, "is_reserved": 0, "fusion_lon": 0.0}, {"rental_uris": {"ios": "https://dc.lft.to/lastmile_qr_scan", "android": "https://dc.lft.to/lastmile_qr_scan"}, "fusion_lat": 0.0, "name": "fa890d0b87adfc777f7a03c543c10196", "bike_id": "fa890d0b87adfc777f7a03c543c10196", "is_disabled": 0, "type": "electric_scooter", "lat": 38.88363916666667, "lon": -76.99510516666666, "is_reserved": 0, "fusion_lon": 0.0}, {"rental_uris": {"ios": "https://dc.lft.to/lastmile_qr_scan", "android": "https://dc.lft.to/lastmile_qr_scan"}, "fusion_lat": 0.0, "name": "62c2f26b1245312c77fc875db5f697c8", "bike_id": "62c2f26b1245312c77fc875db5f697c8", "is_disabled": 0, "type": "electric_bike", "lat": 38.972275833333335, "lon": -76.99343516666667, "is_reserved": 0, "fusion_lon": 0.0}, {"rental_uris": {"ios": "https://dc.lft.to/lastmile_qr_scan", "android": "https://dc.lft.to/lastmile_qr_scan"}, "fusion_lat": 0.0, "name": "2fe1fdd0dd8fbc877298d5c5adc30a40", "bike_id": "2fe1fdd0dd8fbc877298d5c5adc30a40", "is_disabled": 0, "type": "electric_scooter", "lat": 38.918395333333336, "lon": -77.02193466666667, "is_reserved": 0, "fusion_lon": 0.0}, {"rental_uris": {"ios": "https://dc.lft.to/lastmile_qr_scan", "android": "https://dc.lft.to/lastmile_qr_scan"}, "fusion_lat": 0.0, "name": "576c549c1da8df29a87b961eb73c5f63", "bike_id": "576c549c1da8df29a87b961eb73c5f63", "is_disabled": 0, "type": "electric_scooter", "lat": 38.908319666666664, "lon": -76.9968575, "is_reserved": 0, "fusion_lon": 0.0}, {"rental_uris": {"ios": "https://dc.lft.to/lastmile_qr_scan", "android": "https://dc.lft.to/lastmile_qr_scan"}, "fusion_lat": 0.0, "name": "b7089fd7f8802b51097d415ac26d2a65", "bike_id": "b7089fd7f8802b51097d415ac26d2a65", "is_disabled": 0, "type": "electric_scooter", "lat": 38.85438533333333, "lon": -76.97163583333334, "is_reserved": 0, "fusion_lon": 0.0}, {"rental_uris": {"ios": "https://dc.lft.to/lastmile_qr_scan", "android": "https://dc.lft.to/lastmile_qr_scan"}, "fusion_lat": 0.0, "name": "6cbbde34889d862e15d7260fb499a398", "bike_id": "6cbbde34889d862e15d7260fb499a398", "is_disabled": 0, "type": "electric_scooter", "lat": 38.91706416666667, "lon": -77.03669133333334, "is_reserved": 0, "fusion_lon": 0.0}, {"rental_uris": {"ios": "https://dc.lft.to/lastmile_qr_scan", "android": "https://dc.lft.to/lastmile_qr_scan"}, "fusion_lat": 0.0, "name": "2085e7292e2113b3c3c3cd6be251ef6f", "bike_id": "2085e7292e2113b3c3c3cd6be251ef6f", "is_disabled": 0, "type": "electric_scooter", "lat": 38.93151016666667, "lon": -77.0186615, "is_reserved": 0, "fusion_lon": 0.0}, {"rental_uris": {"ios": "https://dc.lft.to/lastmile_qr_scan", "android": "https://dc.lft.to/lastmile_qr_scan"}, "fusion_lat": 0.0, "name": "f09bf9d434190a0c94e96ec0bd0fe046", "bike_id": "f09bf9d434190a0c94e96ec0bd0fe046", "is_disabled": 0, "type": "electric_scooter", "lat": 38.9025875, "lon": -77.028501, "is_reserved": 0, "fusion_lon": 0.0}, {"rental_uris": {"ios": "https://dc.lft.to/lastmile_qr_scan", "android": "https://dc.lft.to/lastmile_qr_scan"}, "fusion_lat": 0.0, "name": "b09d7c3e0726da7dffb54b602a0dfade", "bike_id": "b09d7c3e0726da7dffb54b602a0dfade", "is_disabled": 0, "type": "electric_scooter", "lat": 38.939694, "lon": -77.03257216666667, "is_reserved": 0, "fusion_lon": 0.0}, {"rental_uris": {"ios": "https://dc.lft.to/lastmile_qr_scan", "android": "https://dc.lft.to/lastmile_qr_scan"}, "fusion_lat": 0.0, "name": "3c29e008fc4fa5c7e74784ffe8cb44c6", "bike_id": "3c29e008fc4fa5c7e74784ffe8cb44c6", "is_disabled": 0, "type": "electric_scooter", "lat": 38.934338333333336, "lon": -77.05765466666666, "is_reserved": 0, "fusion_lon": 0.0}, {"rental_uris": {"ios": "https://dc.lft.to/lastmile_qr_scan", "android": "https://dc.lft.to/lastmile_qr_scan"}, "fusion_lat": 0.0, "name": "a609f9ccdc2b681e2987eaf393037c26", "bike_id": "a609f9ccdc2b681e2987eaf393037c26", "is_disabled": 0, "type": "electric_scooter", "lat": 38.892230166666664, "lon": -77.04802233333334, "is_reserved": 0, "fusion_lon": 0.0}, {"rental_uris": {"ios": "https://dc.lft.to/lastmile_qr_scan", "android": "https://dc.lft.to/lastmile_qr_scan"}, "fusion_lat": 0.0, "name": "cfd55f9375ff2285fdf15d9d31b01378", "bike_id": "cfd55f9375ff2285fdf15d9d31b01378", "is_disabled": 0, "type": "electric_scooter", "lat": 38.8812955, "lon": -76.93305683333334, "is_reserved": 0, "fusion_lon": 0.0}, {"rental_uris": {"ios": "https://dc.lft.to/lastmile_qr_scan", "android": "https://dc.lft.to/lastmile_qr_scan"}, "fusion_lat": 0.0, "name": "35fd1699f86e73b9dca7ff829890da34", "bike_id": "35fd1699f86e73b9dca7ff829890da34", "is_disabled": 0, "type": "electric_bike", "lat": 39.024279166666666, "lon": -77.13101033333334, "is_reserved": 0, "fusion_lon": 0.0}, {"rental_uris": {"ios": "https://dc.lft.to/lastmile_qr_scan", "android": "https://dc.lft.to/lastmile_qr_scan"}, "fusion_lat": 0.0, "name": "6b18d56f2daffd963eb5c88cae46c5b1", "bike_id": "6b18d56f2daffd963eb5c88cae46c5b1", "is_disabled": 0, "type": "electric_bike", "lat": 39.03042283333333, "lon": -77.09472916666667, "is_reserved": 0, "fusion_lon": 0.0}, {"rental_uris": {"ios": "https://dc.lft.to/lastmile_qr_scan", "android": "https://dc.lft.to/lastmile_qr_scan"},