{"data": {"bikes": [{"bike_id": "bbad3a07843fc9e67b04b5776e7055fb", "is_reserved": 0, "fusion_lon": 0.0, "lat": 38.813069166666665, "is_disabled": 0, "name": "bbad3a07843fc9e67b04b5776e7055fb", "fusion_lat": 0.0, "rental_uris": {"ios": "https://dc.lft.to/lastmile_qr_scan", "android": "https://dc.lft.to/lastmile_qr_scan"}, "lon": -77.05090016666666, "type": "electric_bike"}, {"bike_id": "73998b65d79503d804e36a231d23417d", "is_reserved": 0, "fusion_lon": 0.0, "lat": 38.8797955, "is_disabled": 0, "name": "73998b65d79503d804e36a231d23417d", "fusion_lat": 0.0, "rental_uris": {"ios": "https://dc.lft.to/lastmile_qr_scan", "android": "https://dc.lft.to/lastmile_qr_scan"}, "lon": -77.023994, "type": "electric_scooter"}, {"bike_id": "2b1692dbd7e507b6aa3e3a93b5a9eaf7", "is_reserved": 0, "fusion_lon": 0.0, "lat": 38.92182, "is_disabled": 0, "name": "2b1692dbd7e507b6aa3e3a93b5a9eaf7", "fusion_lat": 0.0, "rental_uris": {"ios": "https://dc.lft.to/lastmile_qr_scan", "android": "https://dc.lft.to/lastmile_qr_scan"}, "lon": -77.0253655, "type": "electric_scooter"}, {"bike_id": "accb56bfd93052e8a915dc7df730e692", "is_reserved": 0, "fusion_lon": 0.0, "lat": 38.91820366666666, "is_disabled": 0, "name": "accb56bfd93052e8a915dc7df730e692", "fusion_lat": 0.0, "rental_uris": {"ios": "https://dc.lft.to/lastmile_qr_scan", "android": "https://dc.lft.to/lastmile_qr_scan"}, "lon": -77.03297216666667, "type": "electric_scooter"}, {"bike_id": "35399c9735e0edf83d18c925ff11e0fe", "is_reserved": 0, "fusion_lon": 0.0, "lat": 38.862165, "is_disabled": 0, "name": "35399c9735e0edf83d18c925ff11e0fe", "fusion_lat": 0.0, "rental_uris": {"ios": "https://dc.lft.to/lastmile_qr_scan", "android": "https://dc.lft.to/lastmile_qr_scan"}, "lon": -76.9946975, "type": "electric_scooter"}, {"bike_id": "548be46f615e5e3cb39c6ef2cd7fa4b0", "is_reserved": 0, "fusion_lon": 0.0, "lat": 38.93666966666667, "is_disabled": 0, "name": "548be46f615e5e3cb39c6ef2cd7fa4b0", "fusion_lat": 0.0, "rental_uris": {"ios": "https://dc.lft.to/lastmile_qr_scan", "android": "https://dc.lft.to/lastmile_qr_scan"}, "lon": -77.059346, "type": "electric_scooter"}, {"bike_id": "10c2e61cf4e94ce0875cbd128f85f101", "is_reserved": 0, "fusion_lon": 0.0, "lat": 38.91324516666667, "is_disabled": 0, "name": "10c2e61cf4e94ce0875cbd128f85f101", "fusion_lat": 0.0, "rental_uris": {"ios": "https://dc.lft.to/lastmile_qr_scan", "android": "https://dc.lft.to/lastmile_qr_scan"}, "lon": -77.032635, "type": "electric_scooter"}, {"bike_id": "3f06597304818213021e588308f21fab", "is_reserved": 0, "fusion_lon": 0.0, "lat": 38.902663833333335, "is_disabled": 0, "name": "3f06597304818213021e588308f21fab", "fusion_lat": 0.0, "rental_uris": {"ios": "https://dc.lft.to/lastmile_qr_scan", "android": "https://dc.lft.to/lastmile_qr_scan"}, "lon": -77.033722, "type": "electric_scooter"}, {"bike_id": "e2265fb5d4b1214ac2980df7ebe48698", "is_reserved": 0, "fusion_lon": 0.0, "lat": 38.895633333333336, "is_disabled": 0, "name": "e2265fb5d4b1214ac2980df7ebe48698", "fusion_lat": 0.0, "rental_uris": {"ios": "https://dc.lft.to/lastmile_qr_scan", "android": "https://dc.lft.to/lastmile_qr_scan"}, "lon": -76.9502895, "type": "electric_scooter"}, {"bike_id": "9f0ff6fafb034eb2acc96f96a0f16f4e", "is_reserved": 0, "fusion_lon": 0.0, "lat": 38.925475, "is_disabled": 0, "name": "9f0ff6fafb034eb2acc96f96a0f16f4e", "fusion_lat": 0.0, "rental_uris": {"ios": "https://dc.lft.to/lastmile_qr_scan", "android": "https://dc.lft.to/lastmile_qr_scan"}, "lon": -77.022645, "type": "electric_scooter"}, {"bike_id": "696f8b4d3b176cdc0a9bb955627f3a39", "is_reserved": 0, "fusion_lon": 0.0, "lat": 38.939894, "is_disabled": 0, "name": "696f8b4d3b176cdc0a9bb955627f3a39", "fusion_lat": 0.0, "rental_uris": {"ios": "https://dc.lft.to/lastmile_qr_scan", "android": "https://dc.lft.to/lastmile_qr_scan"}, "lon": -77.02894766666667, "type": "electric_scooter"}, {"bike_id": "bb32a641632262c2b115c9fe9c3ee002", "is_reserved": 0, "fusion_lon": 0.0, "lat": 38.907771, "is_disabled": 0, "name": "bb32a641632262c2b115c9fe9c3ee002", "fusion_lat": 0.0, "rental_uris": {"ios": "https://dc.lft.to/lastmile_qr_scan", "android": "https://dc.lft.to/lastmile_qr_scan"}, "lon": -77.04262083333333, "type": "electric_scooter"}, {"bike_id": "201f045d17d8b4efc9096c153aea6894", "is_reserved": 0, "fusion_lon": 0.0, "lat": 38.929289, "is_disabled": 0, "name": "201f045d17d8b4efc9096c153aea6894", "fusion_lat": 0.0, "rental_uris": {"ios": "https://dc.lft.to/lastmile_qr_scan", "android": "https://dc.lft.to/lastmile_qr_scan"}, "lon": -77.02004633333334, "type": "electric_scooter"}, {"bike_id": "51195bba3edfddc99090da0595e918d2", "is_reserved": 0, "fusion_lon": 0.0, "lat": 38.927083833333334, "is_disabled": 0, "name": "51195bba3edfddc99090da0595e918d2", "fusion_lat": 0.0, "rental_uris": {"ios": "https://dc.lft.to/lastmile_qr_scan", "android": "https://dc.lft.to/lastmile_qr_scan"}, "lon": -77.02084266666667, "type": "electric_scooter"}, {"bike_id": "25920b2ef4ea2a0ce790a1e75e7999af", "is_reserved": 0, "fusion_lon": 0.0, "lat": 38.90682783333333, "is_disabled": 0, "name": "25920b2ef4ea2a0ce790a1e75e7999af", "fusion_lat": 0.0, "rental_uris": {"ios": "https://dc.lft.to/lastmile_qr_scan", "android": "https://dc.lft.to/lastmile_qr_scan"}, "lon": -77.034814, "type": "electric_scooter"}, {"bike_id": "05c9ed10174d8d630dbd718bc913d42d", "is_reserved": 0, "fusion_lon": 0.0, "lat": 38.930958, "is_disabled": 0, "name": "05c9ed10174d8d630dbd718bc913d42d", "fusion_lat": 0.0, "rental_uris": {"ios": "https://dc.lft.to/lastmile_qr_scan", "android": "https://dc.lft.to/lastmile_qr_scan"}, "lon": -77.02515816666667, "type": "electric_scooter"}, {"bike_id": "8122f3e41dcb5cf599d9bbe0f371b6ae", "is_reserved": 0, "fusion_lon": 0.0, "lat": 38.91410066666667, "is_disabled": 0, "name": "8122f3e41dcb5cf599d9bbe0f371b6ae", "fusion_lat": 0.0, "rental_uris": {"ios": "https://dc.lft.to/lastmile_qr_scan", "android": "https://dc.lft.to/lastmile_qr_scan"}, "lon": -77.02598133333333, "type": "electric_scooter"}, {"bike_id": "5dcae72d18530ff626c0cc9915b6eb78", "is_reserved": 0, "fusion_lon": 0.0, "lat": 38.90578166666667, "is_disabled": 0, "name": "5dcae72d18530ff626c0cc9915b6eb78", "fusion_lat": 0.0, "rental_uris": {"ios": "https://dc.lft.to/lastmile_qr_scan", "android": "https://dc.lft.to/lastmile_qr_scan"}, "lon": -77.03857666666667, "type": "electric_scooter"}, {"bike_id": "5294be90fc6010f9f5bf6cf8109ecbc2", "is_reserved": 0, "fusion_lon": 0.0, "lat": 38.896214666666665, "is_disabled": 0, "name": "5294be90fc6010f9f5bf6cf8109ecbc2", "fusion_lat": 0.0, "rental_uris": {"ios": "https://dc.lft.to/lastmile_qr_scan", "android": "https://dc.lft.to/lastmile_qr_scan"}, "lon": -77.032543, "type": "electric_scooter"}, {"bike_id": "2b99c47d8700db38feb6a019d9a8e53e", "is_reserved": 0, "fusion_lon": 0.0, "lat": 38.90405666666667, "is_disabled": 0, "name": "2b99c47d8700db38feb6a019d9a8e53e", "fusion_lat": 0.0, "rental_uris": {"ios": "https://dc.lft.to/lastmile_qr_scan", "android": "https://dc.lft.to/lastmile_qr_scan"}, "lon": -77.043446, "type": "electric_scooter"}, {"bike_id": "d03e5f7492dd06410be9a642b755a13b", "is_reserved": 0, "fusion_lon": 0.0, "lat": 38.8665675, "is_disabled": 0, "name": "d03e5f7492dd06410be9a642b755a13b", "fusion_lat": 0.0, "rental_uris": {"ios": "https://dc.lft.to/lastmile_qr_scan", "android": "https://dc.lft.to/lastmile_qr_scan"}, "lon": -76.98889716666666, "type": "electric_scooter"}, {"bike_id": "bbeccfde0a45770fba21be1a91191a60", "is_reserved": 0, "fusion_lon": 0.0, "lat": 38.900287166666665, "is_disabled": 0, "name": "bbeccfde0a45770fba21be1a91191a60", "fusion_lat": 0.0, "rental_uris": {"ios": "https://dc.lft.to/lastmile_qr_scan", "android": "https://dc.lft.to/lastmile_qr_scan"}, "lon": -77.04669583333333, "type": "electric_scooter"}, {"bike_id": "5cb060cbfd16ef7f4e5c6a8fdcf3c839", "is_reserved": 0, "fusion_lon": 0.0, "lat": 38.90723366666667, "is_disabled": 0, "name": "5cb060cbfd16ef7f4e5c6a8fdcf3c839", "fusion_lat": 0.0, "rental_uris": {"ios": "https://dc.lft.to/lastmile_qr_scan", "android": "https://dc.lft.to/lastmile_qr_scan"}, "lon": -76.9860105, "type": "electric_scooter"}, {"bike_id": "934a6909a7d279e88ec1da4030c3febc", "is_reserved": 0, "fusion_lon": 0.0, "lat": 38.898072, "is_disabled": 0, "name": "934a6909a7d279e88ec1da4030c3febc", "fusion_lat": 0.0, "rental_uris": {"ios": "https://dc.lft.to/lastmile_qr_scan", "android": "https://dc.lft.to/lastmile_qr_scan"}, "lon": -77.00605233333333, "type": "electric_bike"}, {"bike_id": "3833e84640189234dfdc1a2c91633539", "is_reserved": 0, "fusion_lon": 0.0, "lat": 38.915919, "is_disabled": 0, "name": "3833e84640189234dfdc1a2c91633539", "fusion_lat": 0.0, "rental_uris": {"ios": "https://dc.lft.to/lastmile_qr_scan", "android": "https://dc.lft.to/lastmile_qr_scan"}, "lon": -77.04358416666666, "type": "electric_scooter"}, {"bike_id": "a2f666e13e1568c940a162eef9661a7a", "is_reserved": 0, "fusion_lon": 0.0, "lat": 38.906172, "is_disabled": 0, "name": "a2f666e13e1568c940a162eef9661a7a", "fusion_lat": 0.0, "rental_uris": {"ios": "https://dc.lft.to/lastmile_qr_scan", "android": "https://dc.lft.to/lastmile_qr_scan"}, "lon": -77.04144983333333, "type": "electric_scooter"}, {"bike_id": "2c350cd37afaeea1c7897d159c5b4940", "is_reserved": 0, "fusion_lon": 0.0, "lat": 38.90369066666667, "is_disabled": 0, "name": "2c350cd37afaeea1c7897d159c5b4940", "fusion_lat": 0.0, "rental_uris": {"ios": "https://dc.lft.to/lastmile_qr_scan", "android": "https://dc.lft.to/lastmile_qr_scan"}, "lon": -77.04479966666666, "type": "electric_scooter"}, {"bike_id": "da30e35d4fa543588b3bf6f1d3f7f8df", "is_reserved": 0, "fusion_lon": 0.0, "lat": 38.91696533333333, "is_disabled": 0, "name": "da30e35d4fa543588b3bf6f1d3f7f8df", "fusion_lat": 0.0, "rental_uris": {"ios": "https://dc.lft.to/lastmile_qr_scan", "android": "https://dc.lft.to/lastmile_qr_scan"}, "lon": -77.00812766666667, "type": "electric_scooter"}, {"bike_id": "744a10d4e808af5d5cc8e484aeee7cd4", "is_reserved": 0, "fusion_lon": 0.0, "lat": 38.94014216666667, "is_disabled": 0, "name": "744a10d4e808af5d5cc8e484aeee7cd4", "fusion_lat": 0.0, "rental_uris": {"ios": "https://dc.lft.to/lastmile_qr_scan", "android": "https://dc.lft.to/lastmile_qr_scan"}, "lon": -77.07171583333333, "type": "electric_scooter"}, {"bike_id": "5ae0f1545e4d3ad980a96f448452a5cc", "is_reserved": 0, "fusion_lon": 0.0, "lat": 38.930947833333335, "is_disabled": 0, "name": "5ae0f1545e4d3ad980a96f448452a5cc", "fusion_lat": 0.0, "rental_uris": {"ios": "https://dc.lft.to/lastmile_qr_scan", "android": "https://dc.lft.to/lastmile_qr_scan"}, "lon": -77.02515833333334, "type": "electric_scooter"}, {"bike_id": "a64f7c638910b7b42e3c6cd01f51d07d", "is_reserved": 0, "fusion_lon": 0.0, "lat": 38.9156745, "is_disabled": 0, "name": "a64f7c638910b7b42e3c6cd01f51d07d", "fusion_lat": 0.0, "rental_uris": {"ios": "https://dc.lft.to/lastmile_qr_scan", "android": "https://dc.lft.to/lastmile_qr_scan"}, "lon": -77.037703, "type": "electric_scooter"}, {"bike_id": "1fe6d4371b0ad473a6c41861ecebfcf4", "is_reserved": 0, "fusion_lon": 0.0, "lat": 38.92180616666667, "is_disabled": 0, "name": "1fe6d4371b0ad473a6c41861ecebfcf4", "fusion_lat": 0.0, "rental_uris": {"ios": "https://dc.lft.to/lastmile_qr_scan", "android": "https://dc.lft.to/lastmile_qr_scan"}, "lon": -76.993813, "type": "electric_scooter"}, {"bike_id": "8292259543772ad8e1c18664069799c6", "is_reserved": 0, "fusion_lon": 0.0, "lat": 38.8863575, "is_disabled": 0, "name": "8292259543772ad8e1c18664069799c6", "fusion_lat": 0.0, "rental_uris": {"ios": "https://dc.lft.to/lastmile_qr_scan", "android": "https://dc.lft.to/lastmile_qr_scan"}, "lon": -77.02134133333334, "type": "electric_scooter"}, {"bike_id": "2e52c0fab791c0e3b22df5cf321f4c2e", "is_reserved": 0, "fusion_lon": 0.0, "lat": 38.813334833333336, "is_disabled": 0, "name": "2e52c0fab791c0e3b22df5cf321f4c2e", "fusion_lat": 0.0, "rental_uris": {"ios": "https://dc.lft.to/lastmile_qr_scan", "android": "https://dc.lft.to/lastmile_qr_scan"}, "lon": -77.051201, "type": "electric_bike"}, {"bike_id": "41755edee337f3ea5af7dda6117a7d84", "is_reserved": 0, "fusion_lon": 0.0, "lat": 38.906766166666664, "is_disabled": 0, "name": "41755edee337f3ea5af7dda6117a7d84", "fusion_lat": 0.0, "rental_uris": {"ios": "https://dc.lft.to/lastmile_qr_scan", "android": "https://dc.lft.to/lastmile_qr_scan"}, "lon": -77.00016616666667, "type": "electric_scooter"}, {"bike_id": "45e98567aef27c94784551444f78faea", "is_reserved": 0, "fusion_lon": 0.0, "lat": 38.866557, "is_disabled": 0, "name": "45e98567aef27c94784551444f78faea", "fusion_lat": 0.0, "rental_uris": {"ios": "https://dc.lft.to/lastmile_qr_scan", "android": "https://dc.lft.to/lastmile_qr_scan"}, "lon": -76.988956, "type": "electric_scooter"}, {"bike_id": "d0d4bcf770ef1b0999cfc1df9ca0236f", "is_reserved": 0, "fusion_lon": 0.0, "lat": 38.863779666666666, "is_disabled": 0, "name": "d0d4bcf770ef1b0999cfc1df9ca0236f", "fusion_lat": 0.0, "rental_uris": {"ios": "https://dc.lft.to/lastmile_qr_scan", "android": "https://dc.lft.to/lastmile_qr_scan"}, "lon": -76.99062666666667, "type": "electric_scooter"}, {"bike_id": "7464b491af0b0e3ac0365f77c73c1f65", "is_reserved": 0, "fusion_lon": 0.0, "lat": 38.871374333333335, "is_disabled": 0, "name": "7464b491af0b0e3ac0365f77c73c1f65", "fusion_lat": 0.0, "rental_uris": {"ios": "https://dc.lft.to/lastmile_qr_scan", "android": "https://dc.lft.to/lastmile_qr_scan"}, "lon": -76.9773675, "type": "electric_scooter"}, {"bike_id": "f8435c988c9b4da3ac98901a7cb9be18", "is_reserved": 0, "fusion_lon": 0.0, "lat": 38.89386866666667, "is_disabled": 0, "name": "f8435c988c9b4da3ac98901a7cb9be18", "fusion_lat": 0.0, "rental_uris": {"ios": "https://dc.lft.to/lastmile_qr_scan", "android": "https://dc.lft.to/lastmile_qr_scan"}, "lon": -77.02990183333333, "type": "electric_scooter"}, {"bike_id": "70c7cd2b5a1d9819fd7036a790547a6c", "is_reserved": 0, "fusion_lon": 0.0, "lat": 38.88726916666667, "is_disabled": 0, "name": "70c7cd2b5a1d9819fd7036a790547a6c", "fusion_lat": 0.0, "rental_uris": {"ios": "https://dc.lft.to/lastmile_qr_scan", "android": "https://dc.lft.to/lastmile_qr_scan"}, "lon": -77.02579733333333, "type": "electric_scooter"}, {"bike_id": "1f2d21e4265e35efa2c4d164f2f72f3c", "is_reserved": 0, "fusion_lon": 0.0, "lat": 38.88716466666666, "is_disabled": 0, "name": "1f2d21e4265e35efa2c4d164f2f72f3c", "fusion_lat": 0.0, "rental_uris": {"ios": "https://dc.lft.to/lastmile_qr_scan", "android": "https://dc.lft.to/lastmile_qr_scan"}, "lon": -77.097474, "type": "electric_bike"}, {"bike_id": "e68bb167ec843ee11c26229fbd0f8db5", "is_reserved": 0, "fusion_lon": 0.0, "lat": 38.884323, "is_disabled": 0, "name": "e68bb167ec843ee11c26229fbd0f8db5", "fusion_lat": 0.0, "rental_uris": {"ios": "https://dc.lft.to/lastmile_qr_scan", "android": "https://dc.lft.to/lastmile_qr_scan"}, "lon": -76.99595516666666, "type": "electric_scooter"}, {"bike_id": "95b0078af9fc460d76a5d92d16b477e4", "is_reserved": 0, "fusion_lon": 0.0, "lat": 38.89955233333333, "is_disabled": 0, "name": "95b0078af9fc460d76a5d92d16b477e4", "fusion_lat": 0.0, "rental_uris": {"ios": "https://dc.lft.to/lastmile_qr_scan", "android": "https://dc.lft.to/lastmile_qr_scan"}, "lon": -77.0239035, "type": "electric_scooter"}, {"bike_id": "d84e68e2289afbc4d290e574c001db36", "is_reserved": 0, "fusion_lon": 0.0, "lat": 38.90969616666667, "is_disabled": 0, "name": "d84e68e2289afbc4d290e574c001db36", "fusion_lat": 0.0, "rental_uris": {"ios": "https://dc.lft.to/lastmile_qr_scan", "android": "https://dc.lft.to/lastmile_qr_scan"}, "lon": -77.03834383333333, "type": "electric_scooter"}, {"bike_id": "d2249704dd328f6033779ab227bad777", "is_reserved": 0, "fusion_lon": 0.0, "lat": 38.92513016666667, "is_disabled": 0, "name": "d2249704dd328f6033779ab227bad777", "fusion_lat": 0.0, "rental_uris": {"ios": "https://dc.lft.to/lastmile_qr_scan", "android": "https://dc.lft.to/lastmile_qr_scan"}, "lon": -77.01932683333334, "type": "electric_scooter"}, {"bike_id": "2774441c42881daaeb97e7f1ebfeebf5", "is_reserved": 0, "fusion_lon": 0.0, "lat": 38.85298916666667, "is_disabled": 0, "name": "2774441c42881daaeb97e7f1ebfeebf5", "fusion_lat": 0.0, "rental_uris": {"ios": "https://dc.lft.to/lastmile_qr_scan", "android": "https://dc.lft.to/lastmile_qr_scan"}, "lon": -77.05294966666666, "type": "electric_bike"}, {"bike_id": "812b8857ef97e4a9e66cdf34900b9b47", "is_reserved": 0, "fusion_lon": 0.0, "lat": 38.9010125, "is_disabled": 0, "name": "812b8857ef97e4a9e66cdf34900b9b47", "fusion_lat": 0.0, "rental_uris": {"ios": "https://dc.lft.to/lastmile_qr_scan", "android": "https://dc.lft.to/lastmile_qr_scan"}, "lon": -77.0317885, "type": "electric_scooter"}, {"bike_id": "3ae5c5b2832b5d246b27aeb8ad3ce213", "is_reserved": 0, "fusion_lon": 0.0, "lat": 38.865214, "is_disabled": 0, "name": "3ae5c5b2832b5d246b27aeb8ad3ce213", "fusion_lat": 0.0, "rental_uris": {"ios": "https://dc.lft.to/lastmile_qr_scan", "android": "https://dc.lft.to/lastmile_qr_scan"}, "lon": -76.9903125, "type": "electric_scooter"}, {"bike_id": "743669b0ae31fa7dd5f086df703f5a9b", "is_reserved": 0, "fusion_lon": 0.0, "lat": 38.9156545, "is_disabled": 0, "name": "743669b0ae31fa7dd5f086df703f5a9b", "fusion_lat": 0.0, "rental_uris": {"ios": "https://dc.lft.to/lastmile_qr_scan", "android": "https://dc.lft.to/lastmile_qr_scan"}, "lon": -77.0391105, "type": "electric_scooter"}, {"bike_id": "08d8d1732afcb8f5422611ada8f33aa5", "is_reserved": 0, "fusion_lon": 0.0, "lat": 38.90723066666666, "is_disabled": 0, "name": "08d8d1732afcb8f5422611ada8f33aa5", "fusion_lat": 0.0, "rental_uris": {"ios": "https://dc.lft.to/lastmile_qr_scan", "android": "https://dc.lft.to/lastmile_qr_scan"}, "lon": -77.02655666666666, "type": "electric_scooter"}, {"bike_id": "c8faca3be34537a4b116decabac1a3e0", "is_reserved": 0, "fusion_lon": 0.0, "lat": 38.92182283333333, "is_disabled": 0, "name": "c8faca3be34537a4b116decabac1a3e0", "fusion_lat": 0.0, "rental_uris": {"ios": "https://dc.lft.to/lastmile_qr_scan", "android": "https://dc.lft.to/lastmile_qr_scan"}, "lon": -77.04277833333333, "type": "electric_scooter"}, {"bike_id": "7bbe6e73860551b4811c7bac71557826", "is_reserved": 0, "fusion_lon": 0.0, "lat": 38.922744, "is_disabled": 0, "name": "7bbe6e73860551b4811c7bac71557826", "fusion_lat": 0.0, "rental_uris": {"ios": "https://dc.lft.to/lastmile_qr_scan", "android": "https://dc.lft.to/lastmile_qr_scan"}, "lon": -77.03663683333333, "type": "electric_scooter"}, {"bike_id": "1ef1d4e7c4d03b8782704a9b79eef587", "is_reserved": 0, "fusion_lon": 0.0, "lat": 38.92574033333333, "is_disabled": 0, "name": "1ef1d4e7c4d03b8782704a9b79eef587", "fusion_lat": 0.0, "rental_uris": {"ios": "https://dc.lft.to/lastmile_qr_scan", "android": "https://dc.lft.to/lastmile_qr_scan"}, "lon": -77.0730835, "type": "electric_scooter"}, {"bike_id": "4e788008a2cf86ef11555f5a4bbc20d4", "is_reserved": 0, "fusion_lon": 0.0, "lat": 38.92190083333333, "is_disabled": 0, "name": "4e788008a2cf86ef11555f5a4bbc20d4", "fusion_lat": 0.0, "rental_uris": {"ios": "https://dc.lft.to/lastmile_qr_scan", "android": "https://dc.lft.to/lastmile_qr_scan"}, "lon": -77.042549, "type": "electric_scooter"}, {"bike_id": "b559f1ad516af2f158704b74a89e2580", "is_reserved": 0, "fusion_lon": 0.0, "lat": 38.89895716666667, "is_disabled": 0, "name": "b559f1ad516af2f158704b74a89e2580", "fusion_lat": 0.0, "rental_uris": {"ios": "https://dc.lft.to/lastmile_qr_scan", "android": "https://dc.lft.to/lastmile_qr_scan"}, "lon": -77.04471166666667, "type": "electric_scooter"}, {"bike_id": "2ee279585a3e141e587042c9cde6a990", "is_reserved": 0, "fusion_lon": 0.0, "lat": 38.90572133333333, "is_disabled": 0, "name": "2ee279585a3e141e587042c9cde6a990", "fusion_lat": 0.0, "rental_uris": {"ios": "https://dc.lft.to/lastmile_qr_scan", "android": "https://dc.lft.to/lastmile_qr_scan"}, "lon": -77.02196966666666, "type": "electric_scooter"}, {"bike_id": "2ae1667633ae8d8aa4fd5f121f7823cb", "is_reserved": 0, "fusion_lon": 0.0, "lat": 38.91054466666667, "is_disabled": 0, "name": "2ae1667633ae8d8aa4fd5f121f7823cb", "fusion_lat": 0.0, "rental_uris": {"ios": "https://dc.lft.to/lastmile_qr_scan", "android": "https://dc.lft.to/lastmile_qr_scan"}, "lon": -77.02809766666667, "type": "electric_scooter"}, {"bike_id": "0f02cbc5f6277eb0df174879e5aadeab", "is_reserved": 0, "fusion_lon": 0.0, "lat": 38.92875733333333, "is_disabled": 0, "name": "0f02cbc5f6277eb0df174879e5aadeab", "fusion_lat": 0.0, "rental_uris": {"ios": "https://dc.lft.to/lastmile_qr_scan", "android": "https://dc.lft.to/lastmile_qr_scan"}, "lon": -77.03246516666667, "type": "electric_scooter"}, {"bike_id": "3fcc7bfa5827a9e37e62b5431b78a7b5", "is_reserved": 0, "fusion_lon": 0.0, "lat": 38.90578933333333, "is_disabled": 0, "name": "3fcc7bfa5827a9e37e62b5431b78a7b5", "fusion_lat": 0.0, "rental_uris": {"ios": "https://dc.lft.to/lastmile_qr_scan", "android": "https://dc.lft.to/lastmile_qr_scan"}, "lon": -77.040187, "type": "electric_scooter"}, {"bike_id": "61e5ea18a757a9db21e45fdcf8af8ff5", "is_reserved": 0, "fusion_lon": 0.0, "lat": 38.9353915, "is_disabled": 0, "name": "61e5ea18a757a9db21e45fdcf8af8ff5", "fusion_lat": 0.0, "rental_uris": {"ios": "https://dc.lft.to/lastmile_qr_scan", "android": "https://dc.lft.to/lastmile_qr_scan"}, "lon": -77.0339605, "type": "electric_scooter"}, {"bike_id": "c91687815717cb0765eec9c908bfa395", "is_reserved": 0, "fusion_lon": 0.0, "lat": 38.9751565, "is_disabled": 0, "name": "c91687815717cb0765eec9c908bfa395", "fusion_lat": 0.0, "rental_uris": {"ios": "https://dc.lft.to/lastmile_qr_scan", "android": "https://dc.lft.to/lastmile_qr_scan"}, "lon": -77.01745366666667, "type": "electric_scooter"}, {"bike_id": "34e1832f44f78b64a738a3d3422604fd", "is_reserved": 0, "fusion_lon": 0.0, "lat": 38.842927833333334, "is_disabled": 0, "name": "34e1832f44f78b64a738a3d3422604fd", "fusion_lat": 0.0, "rental_uris": {"ios": "https://dc.lft.to/lastmile_qr_scan", "android": "https://dc.lft.to/lastmile_qr_scan"}, "lon": -76.99944283333333, "type": "electric_scooter"}, {"bike_id": "ecb79f07648ee2697d119869498f99c2", "is_reserved": 0, "fusion_lon": 0.0, "lat": 38.90268616666667, "is_disabled": 0, "name": "ecb79f07648ee2697d119869498f99c2", "fusion_lat": 0.0, "rental_uris": {"ios": "https://dc.lft.to/lastmile_qr_scan", "android": "https://dc.lft.to/lastmile_qr_scan"}, "lon": -77.034594, "type": "electric_scooter"}, {"bike_id": "d178f24eca40a3f5b5d5ebeb84da31d0", "is_reserved": 0, "fusion_lon": 0.0, "lat": 38.92741683333333, "is_disabled": 0, "name": "d178f24eca40a3f5b5d5ebeb84da31d0", "fusion_lat": 0.0, "rental_uris": {"ios": "https://dc.lft.to/lastmile_qr_scan", "android": "https://dc.lft.to/lastmile_qr_scan"}, "lon": -77.05374483333334, "type": "electric_scooter"}, {"bike_id": "29501cf6e51e55a31c6862e5cecf3e4a", "is_reserved": 0, "fusion_lon": 0.0, "lat": 38.90521783333333, "is_disabled": 0, "name": "29501cf6e51e55a31c6862e5cecf3e4a", "fusion_lat": 0.0, "rental_uris": {"ios": "https://dc.lft.to/lastmile_qr_scan", "android": "https://dc.lft.to/lastmile_qr_scan"}, "lon": -77.0638145, "type": "electric_scooter"}, {"bike_id": "9ade0f4d55dcd658c8c5c6642370f87e", "is_reserved": 0, "fusion_lon": 0.0, "lat": 38.852457666666666, "is_disabled": 0, "name": "9ade0f4d55dcd658c8c5c6642370f87e", "fusion_lat": 0.0, "rental_uris": {"ios": "https://dc.lft.to/lastmile_qr_scan", "android": "https://dc.lft.to/lastmile_qr_scan"}, "lon": -77.11430216666666, "type": "electric_bike"}, {"bike_id": "3c3929a88d128e42e6443db5c6c4d725", "is_reserved": 0, "fusion_lon": 0.0, "lat": 38.90255716666667, "is_disabled": 0, "name": "3c3929a88d128e42e6443db5c6c4d725", "fusion_lat": 0.0, "rental_uris": {"ios": "https://dc.lft.to/lastmile_qr_scan", "android": "https://dc.lft.to/lastmile_qr_scan"}, "lon": -77.039632, "type": "electric_scooter"}, {"bike_id": "3808893bb2c15b8d299edd1981a93cac", "is_reserved": 0, "fusion_lon": 0.0, "lat": 38.8839555, "is_disabled": 0, "name": "3808893bb2c15b8d299edd1981a93cac", "fusion_lat": 0.0, "rental_uris": {"ios": "https://dc.lft.to/lastmile_qr_scan", "android": "https://dc.lft.to/lastmile_qr_scan"}, "lon": -77.0196375, "type": "electric_scooter"}, {"bike_id": "cc78a4a286f427ba4ae86a0da8f420d7", "is_reserved": 0, "fusion_lon": 0.0, "lat": 38.921278666666666, "is_disabled": 0, "name": "cc78a4a286f427ba4ae86a0da8f420d7", "fusion_lat": 0.0, "rental_uris": {"ios": "https://dc.lft.to/lastmile_qr_scan", "android": "https://dc.lft.to/lastmile_qr_scan"}, "lon": -77.022054, "type": "electric_scooter"}, {"bike_id": "361567f81716e01898deeef4d71bbb21", "is_reserved": 0, "fusion_lon": 0.0, "lat": 38.906459, "is_disabled": 0, "name": "361567f81716e01898deeef4d71bbb21", "fusion_lat": 0.0, "rental_uris": {"ios": "https://dc.lft.to/lastmile_qr_scan", "android": "https://dc.lft.to/lastmile_qr_scan"}, "lon": -77.009869, "type": "electric_scooter"}, {"bike_id": "0eaa8a93f4c2dbe949964707cfcf0f5e", "is_reserved": 0, "fusion_lon": 0.0, "lat": 38.90118366666667, "is_disabled": 0, "name": "0eaa8a93f4c2dbe949964707cfcf0f5e", "fusion_lat": 0.0, "rental_uris": {"ios": "https://dc.lft.to/lastmile_qr_scan", "android": "https://dc.lft.to/lastmile_qr_scan"}, "lon": -77.04992766666666, "type": "electric_scooter"}, {"bike_id": "a02177ce55aebb9aab0d40e496d4c33a", "is_reserved": 0, "fusion_lon": 0.0, "lat": 38.91026016666667, "is_disabled": 0, "name": "a02177ce55aebb9aab0d40e496d4c33a", "fusion_lat": 0.0, "rental_uris": {"ios": "https://dc.lft.to/lastmile_qr_scan", "android": "https://dc.lft.to/lastmile_qr_scan"}, "lon": -77.02195633333334, "type": "electric_scooter"}, {"bike_id": "089edfb8d277a53d8422c2351752e53b", "is_reserved": 0, "fusion_lon": 0.0, "lat": 38.89945866666667, "is_disabled": 0, "name": "089edfb8d277a53d8422c2351752e53b", "fusion_lat": 0.0, "rental_uris": {"ios": "https://dc.lft.to/lastmile_qr_scan", "android": "https://dc.lft.to/lastmile_qr_scan"}, "lon": -77.02965933333333, "type": "electric_scooter"}, {"bike_id": "907569f35125d817ae66c1211d82c2fd", "is_reserved": 0, "fusion_lon": 0.0, "lat": 38.91211083333334, "is_disabled": 0, "name": "907569f35125d817ae66c1211d82c2fd", "fusion_lat": 0.0, "rental_uris": {"ios": "https://dc.lft.to/lastmile_qr_scan", "android": "https://dc.lft.to/lastmile_qr_scan"}, "lon": -77.02954516666667, "type": "electric_scooter"}, {"bike_id": "729e00016d0a86eb369222d698a432cd", "is_reserved": 0, "fusion_lon": 0.0, "lat": 38.88676666666667, "is_disabled": 0, "name": "729e00016d0a86eb369222d698a432cd", "fusion_lat": 0.0, "rental_uris": {"ios": "https://dc.lft.to/lastmile_qr_scan", "android": "https://dc.lft.to/lastmile_qr_scan"}, "lon": -77.01365083333333, "type": "electric_scooter"}, {"bike_id": "db4fd42dca78077ed36b4f3ab6959cdf", "is_reserved": 0, "fusion_lon": 0.0, "lat": 38.90296083333333, "is_disabled": 0, "name": "db4fd42dca78077ed36b4f3ab6959cdf", "fusion_lat": 0.0, "rental_uris": {"ios": "https://dc.lft.to/lastmile_qr_scan", "android": "https://dc.lft.to/lastmile_qr_scan"}, "lon": -77.038602, "type": "electric_scooter"}, {"bike_id": "f3627edf7140d17ffc2a8450c7651d38", "is_reserved": 0, "fusion_lon": 0.0, "lat": 38.935205333333336, "is_disabled": 0, "name": "f3627edf7140d17ffc2a8450c7651d38", "fusion_lat": 0.0, "rental_uris": {"ios": "https://dc.lft.to/lastmile_qr_scan", "android": "https://dc.lft.to/lastmile_qr_scan"}, "lon": -77.03293316666667, "type": "electric_scooter"}, {"bike_id": "e08aa47f4ed4aa1cc87a6c59f34857bb", "is_reserved": 0, "fusion_lon": 0.0, "lat": 38.9166425, "is_disabled": 0, "name": "e08aa47f4ed4aa1cc87a6c59f34857bb", "fusion_lat": 0.0, "rental_uris": {"ios": "https://dc.lft.to/lastmile_qr_scan", "android": "https://dc.lft.to/lastmile_qr_scan"}, "lon": -77.00510466666667, "type": "electric_scooter"}, {"bike_id": "765793acd43c67e80ab1e4b3ba538b16", "is_reserved": 0, "fusion_lon": 0.0, "lat": 38.9038065, "is_disabled": 0, "name": "765793acd43c67e80ab1e4b3ba538b16", "fusion_lat": 0.0, "rental_uris": {"ios": "https://dc.lft.to/lastmile_qr_scan", "android": "https://dc.lft.to/lastmile_qr_scan"}, "lon": -77.02989933333333, "type": "electric_scooter"}, {"bike_id": "036fd7660878d62184e98eb8f1b15b2f", "is_reserved": 0, "fusion_lon": 0.0, "lat": 38.909595833333334, "is_disabled": 0, "name": "036fd7660878d62184e98eb8f1b15b2f", "fusion_lat": 0.0, "rental_uris": {"ios": "https://dc.lft.to/lastmile_qr_scan", "android": "https://dc.lft.to/lastmile_qr_scan"}, "lon": -77.03477633333334, "type": "electric_scooter"}, {"bike_id": "dd33c039ba363d95c6c8945af4005230", "is_reserved": 0, "fusion_lon": 0.0, "lat": 38.902362833333335, "is_disabled": 0, "name": "dd33c039ba363d95c6c8945af4005230", "fusion_lat": 0.0, "rental_uris": {"ios": "https://dc.lft.to/lastmile_qr_scan", "android": "https://dc.lft.to/lastmile_qr_scan"}, "lon": -77.0436545, "type": "electric_scooter"}, {"bike_id": "f7abb641ed6561d19be4ba62b6bd7c40", "is_reserved": 0, "fusion_lon": 0.0, "lat": 38.9125725, "is_disabled": 0, "name": "f7abb641ed6561d19be4ba62b6bd7c40", "fusion_lat": 0.0, "rental_uris": {"ios": "https://dc.lft.to/lastmile_qr_scan", "android": "https://dc.lft.to/lastmile_qr_scan"}, "lon": -77.04437916666667, "type": "electric_scooter"}, {"bike_id": "e9a12bfb7b2569e8200564b8af661df4", "is_reserved": 0, "fusion_lon": 0.0, "lat": 38.906444666666665, "is_disabled": 0, "name": "e9a12bfb7b2569e8200564b8af661df4", "fusion_lat": 0.0, "rental_uris": {"ios": "https://dc.lft.to/lastmile_qr_scan", "android": "https://dc.lft.to/lastmile_qr_scan"}, "lon": -77.0390425, "type": "electric_scooter"}, {"bike_id": "9a2bf37884d2309bf0c117a55bb3fe70", "is_reserved": 0, "fusion_lon": 0.0, "lat": 38.802249833333335, "is_disabled": 0, "name": "9a2bf37884d2309bf0c117a55bb3fe70", "fusion_lat": 0.0, "rental_uris": {"ios": "https://dc.lft.to/lastmile_qr_scan", "android": "https://dc.lft.to/lastmile_qr_scan"}, "lon": -77.07915133333333, "type": "electric_bike"}, {"bike_id": "a876b0dfb96051222d5b14fb40fe1d36", "is_reserved": 0, "fusion_lon": 0.0, "lat": 38.93205783333333, "is_disabled": 0, "name": "a876b0dfb96051222d5b14fb40fe1d36", "fusion_lat": 0.0, "rental_uris": {"ios": "https://dc.lft.to/lastmile_qr_scan", "android": "https://dc.lft.to/lastmile_qr_scan"}, "lon": -77.03874866666666, "type": "electric_scooter"}, {"bike_id": "f27922aed0d7f38f9238cd161a1b0d8d", "is_reserved": 0, "fusion_lon": 0.0, "lat": 38.906857333333335, "is_disabled": 0, "name": "f27922aed0d7f38f9238cd161a1b0d8d", "fusion_lat": 0.0, "rental_uris": {"ios": "https://dc.lft.to/lastmile_qr_scan", "android": "https://dc.lft.to/lastmile_qr_scan"}, "lon": -76.95183983333334, "type": "electric_bike"}, {"bike_id": "4f27028183c1836d2e54d977011bc7c7", "is_reserved": 0, "fusion_lon": 0.0, "lat": 38.9441405, "is_disabled": 0, "name": "4f27028183c1836d2e54d977011bc7c7", "fusion_lat": 0.0, "rental_uris": {"ios": "https://dc.lft.to/lastmile_qr_scan", "android": "https://dc.lft.to/lastmile_qr_scan"}, "lon": -77.0551275, "type": "electric_scooter"}, {"bike_id": "11e3bf121dd38e3ec7dcde67b8258277", "is_reserved": 0, "fusion_lon": 0.0, "lat": 38.901480166666666, "is_disabled": 0, "name": "11e3bf121dd38e3ec7dcde67b8258277", "fusion_lat": 0.0, "rental_uris": {"ios": "https://dc.lft.to/lastmile_qr_scan", "android": "https://dc.lft.to/lastmile_qr_scan"}, "lon": -77.03326783333333, "type": "electric_scooter"}, {"bike_id": "6c882bbae79739f810c9e3ef61fabd5c", "is_reserved": 0, "fusion_lon": 0.0, "lat": 38.9295035, "is_disabled": 0, "name": "6c882bbae79739f810c9e3ef61fabd5c", "fusion_lat": 0.0, "rental_uris": {"ios": "https://dc.lft.to/lastmile_qr_scan", "android": "https://dc.lft.to/lastmile_qr_scan"}, "lon": -77.04407616666667, "type": "electric_scooter"}, {"bike_id": "fea309326acd5359d0abfd737ff56161", "is_reserved": 0, "fusion_lon": 0.0, "lat": 38.91718916666667, "is_disabled": 0, "name": "fea309326acd5359d0abfd737ff56161", "fusion_lat": 0.0, "rental_uris": {"ios": "https://dc.lft.to/lastmile_qr_scan", "android": "https://dc.lft.to/lastmile_qr_scan"}, "lon": -77.0120925, "type": "electric_scooter"}, {"bike_id": "7595b09bad22f1f2046d47aef1574c83", "is_reserved": 0, "fusion_lon": 0.0, "lat": 38.928643, "is_disabled": 0, "name": "7595b09bad22f1f2046d47aef1574c83", "fusion_lat": 0.0, "rental_uris": {"ios": "https://dc.lft.to/lastmile_qr_scan", "android": "https://dc.lft.to/lastmile_qr_scan"}, "lon": -77.222143, "type": "electric_bike"}, {"bike_id": "2c942d4067bf1ffda967bedc32809f8f", "is_reserved": 0, "fusion_lon": 0.0, "lat": 39.08858133333333, "is_disabled": 0, "name": "2c942d4067bf1ffda967bedc32809f8f", "fusion_lat": 0.0, "rental_uris": {"ios": "https://dc.lft.to/lastmile_qr_scan", "android": "https://dc.lft.to/lastmile_qr_scan"}, "lon": -77.178462, "type": "electric_bike"}, {"bike_id": "e35f21dcfafcda0ba361f3527d545e0a", "is_reserved": 0, "fusion_lon": 0.0, "lat": 38.9354815, "is_disabled": 0, "name": "e35f21dcfafcda0ba361f3527d545e0a", "fusion_lat": 0.0, "rental_uris": {"ios": "https://dc.lft.to/lastmile_qr_scan", "android": "https://dc.lft.to/lastmile_qr_scan"}, "lon": -77.03417683333333, "type": "electric_scooter"}, {"bike_id": "43470589468bd243bdacd15011199f21", "is_reserved": 0, "fusion_lon": 0.0, "lat": 38.95749816666667, "is_disabled": 0, "name": "43470589468bd243bdacd15011199f21", "fusion_lat": 0.0, "rental_uris": {"ios": "https://dc.lft.to/lastmile_qr_scan", "android": "https://dc.lft.to/lastmile_qr_scan"}, "lon": -77.02414866666666, "type": "electric_scooter"}, {"bike_id": "505c97cd54ff960feab0db7928ae0098", "is_reserved": 0, "fusion_lon": 0.0, "lat": 38.9564905, "is_disabled": 0, "name": "505c97cd54ff960feab0db7928ae0098", "fusion_lat": 0.0, "rental_uris": {"ios": "https://dc.lft.to/lastmile_qr_scan", "android": "https://dc.lft.to/lastmile_qr_scan"}, "lon": -77.03286683333333, "type": "electric_scooter"}, {"bike_id": "f10d1507c59178cfd7f558221df4cca3", "is_reserved": 0, "fusion_lon": 0.0, "lat": 38.9533815, "is_disabled": 0, "name": "f10d1507c59178cfd7f558221df4cca3", "fusion_lat": 0.0, "rental_uris": {"ios": "https://dc.lft.to/lastmile_qr_scan", "android": "https://dc.lft.to/lastmile_qr_scan"}, "lon": -77.0095695, "type": "electric_bike"}, {"bike_id": "9084be4e29b47dcc77a4d8dba4af5a74", "is_reserved": 0, "fusion_lon": 0.0, "lat": 38.905242666666666, "is_disabled": 0, "name": "9084be4e29b47dcc77a4d8dba4af5a74", "fusion_lat": 0.0, "rental_uris": {"ios": "https://dc.lft.to/lastmile_qr_scan", "android": "https://dc.lft.to/lastmile_qr_scan"}, "lon": -77.05154916666666, "type": "electric_scooter"}, {"bike_id": "38e65781b06dfcce4411d3d4914e40f1", "is_reserved": 0, "fusion_lon": 0.0, "lat": 38.865353, "is_disabled": 0, "name": "38e65781b06dfcce4411d3d4914e40f1", "fusion_lat": 0.0, "rental_uris": {"ios": "https://dc.lft.to/lastmile_qr_scan", "android": "https://dc.lft.to/lastmile_qr_scan"}, "lon": -76.9870455, "type": "electric_scooter"}, {"bike_id": "73c519a7f26750da52087d2a0003504d", "is_reserved": 0, "fusion_lon": 0.0, "lat": 38.9415275, "is_disabled": 0, "name": "73c519a7f26750da52087d2a0003504d", "fusion_lat": 0.0, "rental_uris": {"ios": "https://dc.lft.to/lastmile_qr_scan", "android": "https://dc.lft.to/lastmile_qr_scan"}, "lon": -77.03651816666667, "type": "electric_scooter"}, {"bike_id": "9052db810b087d4e37435670b6c76bd9", "is_reserved": 0, "fusion_lon": 0.0, "lat": 38.92291266666667, "is_disabled": 0, "name": "9052db810b087d4e37435670b6c76bd9", "fusion_lat": 0.0, "rental_uris": {"ios": "https://dc.lft.to/lastmile_qr_scan", "android": "https://dc.lft.to/lastmile_qr_scan"}, "lon": -77.02074883333333, "type": "electric_scooter"}, {"bike_id": "ca8b3456d9536e3ac7c8c0dde34adbfa", "is_reserved": 0, "fusion_lon": 0.0, "lat": 38.896739, "is_disabled": 0, "name": "ca8b3456d9536e3ac7c8c0dde34adbfa", "fusion_lat": 0.0, "rental_uris": {"ios": "https://dc.lft.to/lastmile_qr_scan", "android": "https://dc.lft.to/lastmile_qr_scan"}, "lon": -77.05397, "type": "electric_scooter"}, {"bike_id": "f4a2ccaf8a579c4de1313a4c4b46ebda", "is_reserved": 0, "fusion_lon": 0.0, "lat": 38.88440666666666, "is_disabled": 0, "name": "f4a2ccaf8a579c4de1313a4c4b46ebda", "fusion_lat": 0.0, "rental_uris": {"ios": "https://dc.lft.to/lastmile_qr_scan", "android": "https://dc.lft.to/lastmile_qr_scan"}, "lon": -76.95755516666667, "type": "electric_scooter"}, {"bike_id": "dedd5c494fd5b3d9bcc3d2ac63b70042", "is_reserved": 0, "fusion_lon": 0.0, "lat": 38.99093233333333, "is_disabled": 0, "name": "dedd5c494fd5b3d9bcc3d2ac63b70042", "fusion_lat": 0.0, "rental_uris": {"ios": "https://dc.lft.to/lastmile_qr_scan", "android": "https://dc.lft.to/lastmile_qr_scan"}, "lon": -76.87497666666667, "type": "electric_bike"}, {"bike_id": "1a57675ef69508151b445acfabb80af6", "is_reserved": 0, "fusion_lon": 0.0, "lat": 38.900635, "is_disabled": 0, "name": "1a57675ef69508151b445acfabb80af6", "fusion_lat": 0.0, "rental_uris": {"ios": "https://dc.lft.to/lastmile_qr_scan", "android": "https://dc.lft.to/lastmile_qr_scan"}, "lon": -76.93388433333334, "type": "electric_scooter"}, {"bike_id": "d43da7d4607ad7f5cbe0d803423df652", "is_reserved": 0, "fusion_lon": 0.0, "lat": 38.91331983333333, "is_disabled": 0, "name": "d43da7d4607ad7f5cbe0d803423df652", "fusion_lat": 0.0, "rental_uris": {"ios": "https://dc.lft.to/lastmile_qr_scan", "android": "https://dc.lft.to/lastmile_qr_scan"}, "lon": -77.03041966666666, "type": "electric_scooter"}, {"bike_id": "de850dc8c3a1f570b0a109d3944f3e96", "is_reserved": 0, "fusion_lon": 0.0, "lat": 38.9240855, "is_disabled": 0, "name": "de850dc8c3a1f570b0a109d3944f3e96", "fusion_lat": 0.0, "rental_uris": {"ios": "https://dc.lft.to/lastmile_qr_scan", "android": "https://dc.lft.to/lastmile_qr_scan"}, "lon": -77.0253755, "type": "electric_scooter"}, {"bike_id": "75ae9c8a95812f2640c9f15f51fd81bc", "is_reserved": 0, "fusion_lon": 0.0, "lat": 38.92288533333333, "is_disabled": 0, "name": "75ae9c8a95812f2640c9f15f51fd81bc", "fusion_lat": 0.0, "rental_uris": {"ios": "https://dc.lft.to/lastmile_qr_scan", "android": "https://dc.lft.to/lastmile_qr_scan"}, "lon": -77.03206283333333, "type": "electric_scooter"}, {"bike_id": "32278b3bc2463a4572f9e3523f67530c", "is_reserved": 0, "fusion_lon": 0.0, "lat": 38.867019, "is_disabled": 0, "name": "32278b3bc2463a4572f9e3523f67530c", "fusion_lat": 0.0, "rental_uris": {"ios": "https://dc.lft.to/lastmile_qr_scan", "android": "https://dc.lft.to/lastmile_qr_scan"}, "lon": -76.9871165, "type": "electric_scooter"}, {"bike_id": "79dd24995014c5f30590cddcd6a258c9", "is_reserved": 0, "fusion_lon": 0.0, "lat": 38.9052895, "is_disabled": 0, "name": "79dd24995014c5f30590cddcd6a258c9", "fusion_lat": 0.0, "rental_uris": {"ios": "https://dc.lft.to/lastmile_qr_scan", "android": "https://dc.lft.to/lastmile_qr_scan"}, "lon": -76.99809616666667, "type": "electric_bike"}, {"bike_id": "365c22649614033ba1928d47fc54d7dc", "is_reserved": 0, "fusion_lon": 0.0, "lat": 38.923007166666665, "is_disabled": 0, "name": "365c22649614033ba1928d47fc54d7dc", "fusion_lat": 0.0, "rental_uris": {"ios": "https://dc.lft.to/lastmile_qr_scan", "android": "https://dc.lft.to/lastmile_qr_scan"}, "lon": -77.04144016666666, "type": "electric_scooter"}, {"bike_id": "d8691f60e2d8ef64228b3d643a0717c9", "is_reserved": 0, "fusion_lon": 0.0, "lat": 38.8798315, "is_disabled": 0, "name": "d8691f60e2d8ef64228b3d643a0717c9", "fusion_lat": 0.0, "rental_uris": {"ios": "https://dc.lft.to/lastmile_qr_scan", "android": "https://dc.lft.to/lastmile_qr_scan"}, "lon": -77.02420416666666, "type": "electric_scooter"}, {"bike_id": "48b66d301ed017009e7e1a675089d9b3", "is_reserved": 0, "fusion_lon": 0.0, "lat": 38.89622133333334, "is_disabled": 0, "name": "48b66d301ed017009e7e1a675089d9b3", "fusion_lat": 0.0, "rental_uris": {"ios": "https://dc.lft.to/lastmile_qr_scan", "android": "https://dc.lft.to/lastmile_qr_scan"}, "lon": -77.0322595, "type": "electric_scooter"}, {"bike_id": "cb397df2f0e3222da563c43d15db5168", "is_reserved": 0, "fusion_lon": 0.0, "lat": 38.968256, "is_disabled": 0, "name": "cb397df2f0e3222da563c43d15db5168", "fusion_lat": 0.0, "rental_uris": {"ios": "https://dc.lft.to/lastmile_qr_scan", "android": "https://dc.lft.to/lastmile_qr_scan"}, "lon": -77.01784316666667, "type": "electric_scooter"}, {"bike_id": "8fd21ce0cd7b617681cb58c33036318d", "is_reserved": 0, "fusion_lon": 0.0, "lat": 38.896075333333336, "is_disabled": 0, "name": "8fd21ce0cd7b617681cb58c33036318d", "fusion_lat": 0.0, "rental_uris": {"ios": "https://dc.lft.to/lastmile_qr_scan", "android": "https://dc.lft.to/lastmile_qr_scan"}, "lon": -77.04505633333333, "type": "electric_scooter"}, {"bike_id": "3ceefdbfa4f6aed00eb63e0fc6918982", "is_reserved": 0, "fusion_lon": 0.0, "lat": 38.90452333333333, "is_disabled": 0, "name": "3ceefdbfa4f6aed00eb63e0fc6918982", "fusion_lat": 0.0, "rental_uris": {"ios": "https://dc.lft.to/lastmile_qr_scan", "android": "https://dc.lft.to/lastmile_qr_scan"}, "lon": -76.99494533333333, "type": "electric_scooter"}, {"bike_id": "dc8ce2fac4c7254e2e9504bb0c61b7f5", "is_reserved": 0, "fusion_lon": 0.0, "lat": 38.892973, "is_disabled": 0, "name": "dc8ce2fac4c7254e2e9504bb0c61b7f5", "fusion_lat": 0.0, "rental_uris": {"ios": "https://dc.lft.to/lastmile_qr_scan", "android": "https://dc.lft.to/lastmile_qr_scan"}, "lon": -77.01218016666667, "type": "electric_scooter"}, {"bike_id": "16da9fbfc503dcd6f884f6d9c1030338", "is_reserved": 0, "fusion_lon": 0.0, "lat": 38.92575566666667, "is_disabled": 0, "name": "16da9fbfc503dcd6f884f6d9c1030338", "fusion_lat": 0.0, "rental_uris": {"ios": "https://dc.lft.to/lastmile_qr_scan", "android": "https://dc.lft.to/lastmile_qr_scan"}, "lon": -77.05259716666667, "type": "electric_scooter"}, {"bike_id": "54559f7979ef5c46c8e2ed30eb96fa1e", "is_reserved": 0, "fusion_lon": 0.0, "lat": 38.900398833333334, "is_disabled": 0, "name": "54559f7979ef5c46c8e2ed30eb96fa1e", "fusion_lat": 0.0, "rental_uris": {"ios": "https://dc.lft.to/lastmile_qr_scan", "android": "https://dc.lft.to/lastmile_qr_scan"}, "lon": -77.04402383333333, "type": "electric_scooter"}, {"bike_id": "6aed8289df6761c7de105a31ecc06741", "is_reserved": 0, "fusion_lon": 0.0, "lat": 38.90574266666667, "is_disabled": 0, "name": "6aed8289df6761c7de105a31ecc06741", "fusion_lat": 0.0, "rental_uris": {"ios": "https://dc.lft.to/lastmile_qr_scan", "android": "https://dc.lft.to/lastmile_qr_scan"}, "lon": -77.01507216666667, "type": "electric_scooter"}, {"bike_id": "97a87cfb43f5a2a0deb40d9117d9dba8", "is_reserved": 0, "fusion_lon": 0.0, "lat": 38.9348605, "is_disabled": 0, "name": "97a87cfb43f5a2a0deb40d9117d9dba8", "fusion_lat": 0.0, "rental_uris": {"ios": "https://dc.lft.to/lastmile_qr_scan", "android": "https://dc.lft.to/lastmile_qr_scan"}, "lon": -77.03284333333333, "type": "electric_scooter"}, {"bike_id": "f90ad82176a4a3ebdf117b123b90ee1a", "is_reserved": 0, "fusion_lon": 0.0, "lat": 38.90232833333334, "is_disabled": 0, "name": "f90ad82176a4a3ebdf117b123b90ee1a", "fusion_lat": 0.0, "rental_uris": {"ios": "https://dc.lft.to/lastmile_qr_scan", "android": "https://dc.lft.to/lastmile_qr_scan"}, "lon": -76.97412633333333, "type": "electric_scooter"}, {"bike_id": "c11de850b07217f7d8101615dfcb734c", "is_reserved": 0, "fusion_lon": 0.0, "lat": 38.917225333333334, "is_disabled": 0, "name": "c11de850b07217f7d8101615dfcb734c", "fusion_lat": 0.0, "rental_uris": {"ios": "https://dc.lft.to/lastmile_qr_scan", "android": "https://dc.lft.to/lastmile_qr_scan"}, "lon": -77.03655766666667, "type": "electric_scooter"}, {"bike_id": "72663577c7a619e992f587208be5fa45", "is_reserved": 0, "fusion_lon": 0.0, "lat": 38.86161883333333, "is_disabled": 0, "name": "72663577c7a619e992f587208be5fa45", "fusion_lat": 0.0, "rental_uris": {"ios": "https://dc.lft.to/lastmile_qr_scan", "android": "https://dc.lft.to/lastmile_qr_scan"}, "lon": -77.1309435, "type": "electric_bike"}, {"bike_id": "330a1a0824af1bdbcdf25a4ad807874f", "is_reserved": 0, "fusion_lon": 0.0, "lat": 38.9095675, "is_disabled": 0, "name": "330a1a0824af1bdbcdf25a4ad807874f", "fusion_lat": 0.0, "rental_uris": {"ios": "https://dc.lft.to/lastmile_qr_scan", "android": "https://dc.lft.to/lastmile_qr_scan"}, "lon": -76.98483233333333, "type": "electric_scooter"}, {"bike_id": "026d866989c221d217eab2d24c8dd2b9", "is_reserved": 0, "fusion_lon": 0.0, "lat": 38.8918525, "is_disabled": 0, "name": "026d866989c221d217eab2d24c8dd2b9", "fusion_lat": 0.0, "rental_uris": {"ios": "https://dc.lft.to/lastmile_qr_scan", "android": "https://dc.lft.to/lastmile_qr_scan"}, "lon": -77.01532566666667, "type": "electric_scooter"}, {"bike_id": "cb62bad7acbbb04579d6061210c733d7", "is_reserved": 0, "fusion_lon": 0.0, "lat": 38.89805, "is_disabled": 0, "name": "cb62bad7acbbb04579d6061210c733d7", "fusion_lat": 0.0, "rental_uris": {"ios": "https://dc.lft.to/lastmile_qr_scan", "android": "https://dc.lft.to/lastmile_qr_scan"}, "lon": -77.00602116666667, "type": "electric_bike"}, {"bike_id": "30fedcc3ac8b0e96cbbe6711fad22382", "is_reserved": 0, "fusion_lon": 0.0, "lat": 38.90754866666666, "is_disabled": 0, "name": "30fedcc3ac8b0e96cbbe6711fad22382", "fusion_lat": 0.0, "rental_uris": {"ios": "https://dc.lft.to/lastmile_qr_scan", "android": "https://dc.lft.to/lastmile_qr_scan"}, "lon": -77.03598483333333, "type": "electric_scooter"}, {"bike_id": "dfac057c3a111d473e2579beb811efb9", "is_reserved": 0, "fusion_lon": 0.0, "lat": 38.941867333333334, "is_disabled": 0, "name": "dfac057c3a111d473e2579beb811efb9", "fusion_lat": 0.0, "rental_uris": {"ios": "https://dc.lft.to/lastmile_qr_scan", "android": "https://dc.lft.to/lastmile_qr_scan"}, "lon": -77.01698983333333, "type": "electric_scooter"}, {"bike_id": "159c3877ec28db554efe66ece0f66c4d", "is_reserved": 0, "fusion_lon": 0.0, "lat": 38.9675825, "is_disabled": 0, "name": "159c3877ec28db554efe66ece0f66c4d", "fusion_lat": 0.0, "rental_uris": {"ios": "https://dc.lft.to/lastmile_qr_scan", "android": "https://dc.lft.to/lastmile_qr_scan"}, "lon": -77.09160533333333, "type": "electric_bike"}, {"bike_id": "feeb534393aa45e278a6979a7ec2a36e", "is_reserved": 0, "fusion_lon": 0.0, "lat": 38.885275666666665, "is_disabled": 0, "name": "feeb534393aa45e278a6979a7ec2a36e", "fusion_lat": 0.0, "rental_uris": {"ios": "https://dc.lft.to/lastmile_qr_scan", "android": "https://dc.lft.to/lastmile_qr_scan"}, "lon": -76.98156266666666, "type": "electric_scooter"}, {"bike_id": "5ccf17a8b4633b19e155b6b709a9f709", "is_reserved": 0, "fusion_lon": 0.0, "lat": 38.86954683333333, "is_disabled": 0, "name": "5ccf17a8b4633b19e155b6b709a9f709", "fusion_lat": 0.0, "rental_uris": {"ios": "https://dc.lft.to/lastmile_qr_scan", "android": "https://dc.lft.to/lastmile_qr_scan"}, "lon": -76.96076133333334, "type": "electric_bike"}, {"bike_id": "e2e4e6b3f012b9d1584cfd438203632c", "is_reserved": 0, "fusion_lon": 0.0, "lat": 38.862761166666665, "is_disabled": 0, "name": "e2e4e6b3f012b9d1584cfd438203632c", "fusion_lat": 0.0, "rental_uris": {"ios": "https://dc.lft.to/lastmile_qr_scan", "android": "https://dc.lft.to/lastmile_qr_scan"}, "lon": -77.06359883333333, "type": "electric_bike"}, {"bike_id": "f06f6720c7ab28d41202b19d24bb0577", "is_reserved": 0, "fusion_lon": 0.0, "lat": 39.094610333333335, "is_disabled": 0, "name": "f06f6720c7ab28d41202b19d24bb0577", "fusion_lat": 0.0, "rental_uris": {"ios": "https://dc.lft.to/lastmile_qr_scan", "android": "https://dc.lft.to/lastmile_qr_scan"}, "lon": -77.14990583333334, "type": "electric_bike"}, {"bike_id": "09f1316fa3e422b02113b4ad81ac8202", "is_reserved": 0, "fusion_lon": 0.0, "lat": 38.905327, "is_disabled": 0, "name": "09f1316fa3e422b02113b4ad81ac8202", "fusion_lat": 0.0, "rental_uris": {"ios": "https://dc.lft.to/lastmile_qr_scan", "android": "https://dc.lft.to/lastmile_qr_scan"}, "lon": -77.02681633333333, "type": "electric_scooter"}, {"bike_id": "424020aba6d3c3ff281ce52dc6986e75", "is_reserved": 0, "fusion_lon": 0.0, "lat": 38.9271835, "is_disabled": 0, "name": "424020aba6d3c3ff281ce52dc6986e75", "fusion_lat": 0.0, "rental_uris": {"ios": "https://dc.lft.to/lastmile_qr_scan", "android": "https://dc.lft.to/lastmile_qr_scan"}, "lon": -77.00567366666667, "type": "electric_scooter"}, {"bike_id": "34210a9eb28b86ee57de424e1e5ea351", "is_reserved": 0, "fusion_lon": 0.0, "lat": 38.8984255, "is_disabled": 0, "name": "34210a9eb28b86ee57de424e1e5ea351", "fusion_lat": 0.0, "rental_uris": {"ios": "https://dc.lft.to/lastmile_qr_scan", "android": "https://dc.lft.to/lastmile_qr_scan"}, "lon": -76.9447395, "type": "electric_scooter"}, {"bike_id": "992b6d3e034089af41419a910ee7d166", "is_reserved": 0, "fusion_lon": 0.0, "lat": 38.840653, "is_disabled": 0, "name": "992b6d3e034089af41419a910ee7d166", "fusion_lat": 0.0, "rental_uris": {"ios": "https://dc.lft.to/lastmile_qr_scan", "android": "https://dc.lft.to/lastmile_qr_scan"}, "lon": -77.06403666666667, "type": "electric_bike"}, {"bike_id": "b4c7d1f91f19c703fcab7f76de49fd7f", "is_reserved": 0, "fusion_lon": 0.0, "lat": 38.90039483333334, "is_disabled": 0, "name": "b4c7d1f91f19c703fcab7f76de49fd7f", "fusion_lat": 0.0, "rental_uris": {"ios": "https://dc.lft.to/lastmile_qr_scan", "android": "https://dc.lft.to/lastmile_qr_scan"}, "lon": -76.998047, "type": "electric_scooter"}, {"bike_id": "3b65e219142768fa79b66c1d3f0a5c54", "is_reserved": 0, "fusion_lon": 0.0, "lat": 38.921502, "is_disabled": 0, "name": "3b65e219142768fa79b66c1d3f0a5c54", "fusion_lat": 0.0, "rental_uris": {"ios": "https://dc.lft.to/lastmile_qr_scan", "android": "https://dc.lft.to/lastmile_qr_scan"}, "lon": -77.03533833333333, "type": "electric_scooter"}, {"bike_id": "deec209663b99949babdabb791e9ecc1", "is_reserved": 0, "fusion_lon": 0.0, "lat": 38.865788333333334, "is_disabled": 0, "name": "deec209663b99949babdabb791e9ecc1", "fusion_lat": 0.0, "rental_uris": {"ios": "https://dc.lft.to/lastmile_qr_scan", "android": "https://dc.lft.to/lastmile_qr_scan"}, "lon": -76.98953166666666, "type": "electric_scooter"}, {"bike_id": "d787e16d89cc64da39bce53ae91de024", "is_reserved": 0, "fusion_lon": 0.0, "lat": 38.896175, "is_disabled": 0, "name": "d787e16d89cc64da39bce53ae91de024", "fusion_lat": 0.0, "rental_uris": {"ios": "https://dc.lft.to/lastmile_qr_scan", "android": "https://dc.lft.to/lastmile_qr_scan"}, "lon": -76.98121516666667, "type": "electric_scooter"}, {"bike_id": "d7433e172755d7471d6ba741e0efdd34", "is_reserved": 0, "fusion_lon": 0.0, "lat": 38.903143, "is_disabled": 0, "name": "d7433e172755d7471d6ba741e0efdd34", "fusion_lat": 0.0, "rental_uris": {"ios": "https://dc.lft.to/lastmile_qr_scan", "android": "https://dc.lft.to/lastmile_qr_scan"}, "lon": -77.03851016666667, "type": "electric_scooter"}, {"bike_id": "5dd02fff35556f00f86d21bcbd02f063", "is_reserved": 0, "fusion_lon": 0.0, "lat": 38.897307166666664, "is_disabled": 0, "name": "5dd02fff35556f00f86d21bcbd02f063", "fusion_lat": 0.0, "rental_uris": {"ios": "https://dc.lft.to/lastmile_qr_scan", "android": "https://dc.lft.to/lastmile_qr_scan"}, "lon": -76.92596183333333, "type": "electric_scooter"}, {"bike_id": "8d93ec45a40024c27fa7c981d0a06964", "is_reserved": 0, "fusion_lon": 0.0, "lat": 38.89817566666667, "is_disabled": 0, "name": "8d93ec45a40024c27fa7c981d0a06964", "fusion_lat": 0.0, "rental_uris": {"ios": "https://dc.lft.to/lastmile_qr_scan", "android": "https://dc.lft.to/lastmile_qr_scan"}, "lon": -77.006617, "type": "electric_bike"}, {"bike_id": "432769ef25004f1e8c38ea287217036a", "is_reserved": 0, "fusion_lon": 0.0, "lat": 38.90138116666667, "is_disabled": 0, "name": "432769ef25004f1e8c38ea287217036a", "fusion_lat": 0.0, "rental_uris": {"ios": "https://dc.lft.to/lastmile_qr_scan", "android": "https://dc.lft.to/lastmile_qr_scan"}, "lon": -77.0447785, "type": "electric_scooter"}, {"bike_id": "630978cf93960a6a79778a167ed2f488", "is_reserved": 0, "fusion_lon": 0.0, "lat": 38.957334833333334, "is_disabled": 0, "name": "630978cf93960a6a79778a167ed2f488", "fusion_lat": 0.0, "rental_uris": {"ios": "https://dc.lft.to/lastmile_qr_scan", "android": "https://dc.lft.to/lastmile_qr_scan"}, "lon": -77.02403716666667, "type": "electric_scooter"}, {"bike_id": "58bfc1d16a1d05ff1a89cccd2af129db", "is_reserved": 0, "fusion_lon": 0.0, "lat": 38.880252166666665, "is_disabled": 0, "name": "58bfc1d16a1d05ff1a89cccd2af129db", "fusion_lat": 0.0, "rental_uris": {"ios": "https://dc.lft.to/lastmile_qr_scan", "android": "https://dc.lft.to/lastmile_qr_scan"}, "lon": -77.024979, "type": "electric_scooter"}, {"bike_id": "83b81babf08bc3519007393c31cd94f8", "is_reserved": 0, "fusion_lon": 0.0, "lat": 38.90656966666667, "is_disabled": 0, "name": "83b81babf08bc3519007393c31cd94f8", "fusion_lat": 0.0, "rental_uris": {"ios": "https://dc.lft.to/lastmile_qr_scan", "android": "https://dc.lft.to/lastmile_qr_scan"}, "lon": -77.04286983333333, "type": "electric_scooter"}, {"bike_id": "b5a6dae2973e8a2b55bbdde36860ce5f", "is_reserved": 0, "fusion_lon": 0.0, "lat": 38.8947065, "is_disabled": 0, "name": "b5a6dae2973e8a2b55bbdde36860ce5f", "fusion_lat": 0.0, "rental_uris": {"ios": "https://dc.lft.to/lastmile_qr_scan", "android": "https://dc.lft.to/lastmile_qr_scan"}, "lon": -76.98398716666667, "type": "electric_scooter"}, {"bike_id": "c8692cbe0d57664c74fd100b875ef8d1", "is_reserved": 0, "fusion_lon": 0.0, "lat": 38.851575, "is_disabled": 0, "name": "c8692cbe0d57664c74fd100b875ef8d1", "fusion_lat": 0.0, "rental_uris": {"ios": "https://dc.lft.to/lastmile_qr_scan", "android": "https://dc.lft.to/lastmile_qr_scan"}, "lon": -77.12878433333333, "type": "electric_bike"}, {"bike_id": "b6e5d8eeb5d47889fece96dba687d292", "is_reserved": 0, "fusion_lon": 0.0, "lat": 38.8980145, "is_disabled": 0, "name": "b6e5d8eeb5d47889fece96dba687d292", "fusion_lat": 0.0, "rental_uris": {"ios": "https://dc.lft.to/lastmile_qr_scan", "android": "https://dc.lft.to/lastmile_qr_scan"}, "lon": -77.02805033333334, "type": "electric_scooter"}, {"bike_id": "92b448110b551eba5644ddd57d3249ee", "is_reserved": 0, "fusion_lon": 0.0, "lat": 38.91712533333333, "is_disabled": 0, "name": "92b448110b551eba5644ddd57d3249ee", "fusion_lat": 0.0, "rental_uris": {"ios": "https://dc.lft.to/lastmile_qr_scan", "android": "https://dc.lft.to/lastmile_qr_scan"}, "lon": -77.03232633333333, "type": "electric_scooter"}, {"bike_id": "d9f767a249ea19a3703a28fcf46014ac", "is_reserved": 0, "fusion_lon": 0.0, "lat": 38.900223833333335, "is_disabled": 0, "name": "d9f767a249ea19a3703a28fcf46014ac", "fusion_lat": 0.0, "rental_uris": {"ios": "https://dc.lft.to/lastmile_qr_scan", "android": "https://dc.lft.to/lastmile_qr_scan"}, "lon": -76.98299066666667, "type": "electric_scooter"}, {"bike_id": "4f7e45463dc850f8efa5e888ff8bc9e2", "is_reserved": 0, "fusion_lon": 0.0, "lat": 38.943121833333336, "is_disabled": 0, "name": "4f7e45463dc850f8efa5e888ff8bc9e2", "fusion_lat": 0.0, "rental_uris": {"ios": "https://dc.lft.to/lastmile_qr_scan", "android": "https://dc.lft.to/lastmile_qr_scan"}, "lon": -77.05920966666666, "type": "electric_scooter"}, {"bike_id": "8e3100ece4431851e13df086b68d8eec", "is_reserved": 0, "fusion_lon": 0.0, "lat": 38.920575166666666, "is_disabled": 0, "name": "8e3100ece4431851e13df086b68d8eec", "fusion_lat": 0.0, "rental_uris": {"ios": "https://dc.lft.to/lastmile_qr_scan", "android": "https://dc.lft.to/lastmile_qr_scan"}, "lon": -77.03345616666667, "type": "electric_scooter"}, {"bike_id": "5efcfc9774c4aa21e5c07bd48ff0b6bf", "is_reserved": 0, "fusion_lon": 0.0, "lat": 38.902936833333335, "is_disabled": 0, "name": "5efcfc9774c4aa21e5c07bd48ff0b6bf", "fusion_lat": 0.0, "rental_uris": {"ios": "https://dc.lft.to/lastmile_qr_scan", "android": "https://dc.lft.to/lastmile_qr_scan"}, "lon": -77.0384615, "type": "electric_scooter"}, {"bike_id": "adc60d5c00b36f4707c5ca1bd93468a9", "is_reserved": 0, "fusion_lon": 0.0, "lat": 38.99939033333333, "is_disabled": 0, "name": "adc60d5c00b36f4707c5ca1bd93468a9", "fusion_lat": 0.0, "rental_uris": {"ios": "https://dc.lft.to/lastmile_qr_scan", "android": "https://dc.lft.to/lastmile_qr_scan"}, "lon": -77.017667, "type": "electric_bike"}, {"bike_id": "ed4f22ba0fc1087a0b4961513e557a9f", "is_reserved": 0, "fusion_lon": 0.0, "lat": 38.899566166666666, "is_disabled": 0, "name": "ed4f22ba0fc1087a0b4961513e557a9f", "fusion_lat": 0.0, "rental_uris": {"ios": "https://dc.lft.to/lastmile_qr_scan", "android": "https://dc.lft.to/lastmile_qr_scan"}, "lon": -77.031987, "type": "electric_scooter"}, {"bike_id": "4e890eb6361bf9e9881bbc8fd1f026ec", "is_reserved": 0, "fusion_lon": 0.0, "lat": 38.9077435, "is_disabled": 0, "name": "4e890eb6361bf9e9881bbc8fd1f026ec", "fusion_lat": 0.0, "rental_uris": {"ios": "https://dc.lft.to/lastmile_qr_scan", "android": "https://dc.lft.to/lastmile_qr_scan"}, "lon": -77.0691415, "type": "electric_scooter"}, {"bike_id": "5579f5ee33fcb24febbb0d3ff6d137c0", "is_reserved": 0, "fusion_lon": 0.0, "lat": 38.966235166666664, "is_disabled": 0, "name": "5579f5ee33fcb24febbb0d3ff6d137c0", "fusion_lat": 0.0, "rental_uris": {"ios": "https://dc.lft.to/lastmile_qr_scan", "android": "https://dc.lft.to/lastmile_qr_scan"}, "lon": -76.97670583333333, "type": "electric_bike"}, {"bike_id": "adbffb308707d9a1fa63cd07c3e223bd", "is_reserved": 0, "fusion_lon": 0.0, "lat": 38.93063216666667, "is_disabled": 0, "name": "adbffb308707d9a1fa63cd07c3e223bd", "fusion_lat": 0.0, "rental_uris": {"ios": "https://dc.lft.to/lastmile_qr_scan", "android": "https://dc.lft.to/lastmile_qr_scan"}, "lon": -77.03816233333333, "type": "electric_scooter"}, {"bike_id": "ea6d38a6681318e0bdb7185fc114b719", "is_reserved": 0, "fusion_lon": 0.0, "lat": 38.90959566666667, "is_disabled": 0, "name": "ea6d38a6681318e0bdb7185fc114b719", "fusion_lat": 0.0, "rental_uris": {"ios": "https://dc.lft.to/lastmile_qr_scan", "android": "https://dc.lft.to/lastmile_qr_scan"}, "lon": -77.032746, "type": "electric_scooter"}, {"bike_id": "e274427aaa100ca3c0ab5b09882a0cf1", "is_reserved": 0, "fusion_lon": 0.0, "lat": 38.9398355, "is_disabled": 0, "name": "e274427aaa100ca3c0ab5b09882a0cf1", "fusion_lat": 0.0, "rental_uris": {"ios": "https://dc.lft.to/lastmile_qr_scan", "android": "https://dc.lft.to/lastmile_qr_scan"}, "lon": -77.02892666666666, "type": "electric_scooter"}, {"bike_id": "035f52a79ad143e22f9d831a04cd61f5", "is_reserved": 0, "fusion_lon": 0.0, "lat": 38.916655, "is_disabled": 0, "name": "035f52a79ad143e22f9d831a04cd61f5", "fusion_lat": 0.0, "rental_uris": {"ios": "https://dc.lft.to/lastmile_qr_scan", "android": "https://dc.lft.to/lastmile_qr_scan"}, "lon": -77.02311383333333, "type": "electric_scooter"}, {"bike_id": "40c14ceeafb53d0bdb8872d0d250a194", "is_reserved": 0, "fusion_lon": 0.0, "lat": 38.866997166666664, "is_disabled": 0, "name": "40c14ceeafb53d0bdb8872d0d250a194", "fusion_lat": 0.0, "rental_uris": {"ios": "https://dc.lft.to/lastmile_qr_scan", "android": "https://dc.lft.to/lastmile_qr_scan"}, "lon": -76.9871015, "type": "electric_scooter"}, {"bike_id": "700153e1973e7e0a4f0c70f920846ea8", "is_reserved": 0, "fusion_lon": 0.0, "lat": 38.901274666666666, "is_disabled": 0, "name": "700153e1973e7e0a4f0c70f920846ea8", "fusion_lat": 0.0, "rental_uris": {"ios": "https://dc.lft.to/lastmile_qr_scan", "android": "https://dc.lft.to/lastmile_qr_scan"}, "lon": -77.01637066666666, "type": "electric_scooter"}, {"bike_id": "9679b8ef159ba7c8fdc428583010dbec", "is_reserved": 0, "fusion_lon": 0.0, "lat": 38.88324383333333, "is_disabled": 0, "name": "9679b8ef159ba7c8fdc428583010dbec", "fusion_lat": 0.0, "rental_uris": {"ios": "https://dc.lft.to/lastmile_qr_scan", "android": "https://dc.lft.to/lastmile_qr_scan"}, "lon": -77.01766483333333, "type": "electric_scooter"}, {"bike_id": "ec10406d253972b5a37f28550de444cd", "is_reserved": 0, "fusion_lon": 0.0, "lat": 38.896541, "is_disabled": 0, "name": "ec10406d253972b5a37f28550de444cd", "fusion_lat": 0.0, "rental_uris": {"ios": "https://dc.lft.to/lastmile_qr_scan", "android": "https://dc.lft.to/lastmile_qr_scan"}, "lon": -77.02975066666667, "type": "electric_scooter"}, {"bike_id": "1047901c526fd6513c1e3fb7386ef419", "is_reserved": 0, "fusion_lon": 0.0, "lat": 38.92577333333333, "is_disabled": 0, "name": "1047901c526fd6513c1e3fb7386ef419", "fusion_lat": 0.0, "rental_uris": {"ios": "https://dc.lft.to/lastmile_qr_scan", "android": "https://dc.lft.to/lastmile_qr_scan"}, "lon": -77.03932966666666, "type": "electric_scooter"}, {"bike_id": "c80ac24134d79e2ba1478cfb1bf3e309", "is_reserved": 0, "fusion_lon": 0.0, "lat": 38.91588933333333, "is_disabled": 0, "name": "c80ac24134d79e2ba1478cfb1bf3e309", "fusion_lat": 0.0, "rental_uris": {"ios": "https://dc.lft.to/lastmile_qr_scan", "android": "https://dc.lft.to/lastmile_qr_scan"}, "lon": -76.98378516666666, "type": "electric_scooter"}, {"bike_id": "f5060e29b5cd401f55a1bb563571a68c", "is_reserved": 0, "fusion_lon": 0.0, "lat": 38.916895333333336, "is_disabled": 0, "name": "f5060e29b5cd401f55a1bb563571a68c", "fusion_lat": 0.0, "rental_uris": {"ios": "https://dc.lft.to/lastmile_qr_scan", "android": "https://dc.lft.to/lastmile_qr_scan"}, "lon": -77.0289985, "type": "electric_scooter"}, {"bike_id": "eafc9b3263c5762f0253a8b0ffaac342", "is_reserved": 0, "fusion_lon": 0.0, "lat": 38.89807966666667, "is_disabled": 0, "name": "eafc9b3263c5762f0253a8b0ffaac342", "fusion_lat": 0.0, "rental_uris": {"ios": "https://dc.lft.to/lastmile_qr_scan", "android": "https://dc.lft.to/lastmile_qr_scan"}, "lon": -77.0294085, "type": "electric_scooter"}, {"bike_id": "488969d5394cdc02886ea1aa79e90c80", "is_reserved": 0, "fusion_lon": 0.0, "lat": 38.936999666666665, "is_disabled": 0, "name": "488969d5394cdc02886ea1aa79e90c80", "fusion_lat": 0.0, "rental_uris": {"ios": "https://dc.lft.to/lastmile_qr_scan", "android": "https://dc.lft.to/lastmile_qr_scan"}, "lon": -77.06026683333333, "type": "electric_scooter"}, {"bike_id": "e8440e5471214de8e24e5c45a0d28727", "is_reserved": 0, "fusion_lon": 0.0, "lat": 38.9128655, "is_disabled": 0, "name": "e8440e5471214de8e24e5c45a0d28727", "fusion_lat": 0.0, "rental_uris": {"ios": "https://dc.lft.to/lastmile_qr_scan", "android": "https://dc.lft.to/lastmile_qr_scan"}, "lon": -77.0384115, "type": "electric_scooter"}, {"bike_id": "afeb1c77ab7150f4f5dc081a844256e0", "is_reserved": 0, "fusion_lon": 0.0, "lat": 38.925746833333335, "is_disabled": 0, "name": "afeb1c77ab7150f4f5dc081a844256e0", "fusion_lat": 0.0, "rental_uris": {"ios": "https://dc.lft.to/lastmile_qr_scan", "android": "https://dc.lft.to/lastmile_qr_scan"}, "lon": -77.03907083333333, "type": "electric_scooter"}, {"bike_id": "6d19178fc92231eb5aa1f24836c4a846", "is_reserved": 0, "fusion_lon": 0.0, "lat": 38.85534066666666, "is_disabled": 0, "name": "6d19178fc92231eb5aa1f24836c4a846", "fusion_lat": 0.0, "rental_uris": {"ios": "https://dc.lft.to/lastmile_qr_scan", "android": "https://dc.lft.to/lastmile_qr_scan"}, "lon": -77.11326866666667, "type": "electric_bike"}, {"bike_id": "dcb83a9d4a41b1c568ec9bd32c18d188", "is_reserved": 0, "fusion_lon": 0.0, "lat": 38.919463, "is_disabled": 0, "name": "dcb83a9d4a41b1c568ec9bd32c18d188", "fusion_lat": 0.0, "rental_uris": {"ios": "https://dc.lft.to/lastmile_qr_scan", "android": "https://dc.lft.to/lastmile_qr_scan"}, "lon": -77.01351283333334, "type": "electric_scooter"}, {"bike_id": "643f9623055959080d0e8c6021e22f7e", "is_reserved": 0, "fusion_lon": 0.0, "lat": 38.91010516666667, "is_disabled": 0, "name": "643f9623055959080d0e8c6021e22f7e", "fusion_lat": 0.0, "rental_uris": {"ios": "https://dc.lft.to/lastmile_qr_scan", "android": "https://dc.lft.to/lastmile_qr_scan"}, "lon": -76.99396616666667, "type": "electric_scooter"}, {"bike_id": "08093731766da5d5fe7b7e30eee6e069", "is_reserved": 0, "fusion_lon": 0.0, "lat": 38.91719333333333, "is_disabled": 0, "name": "08093731766da5d5fe7b7e30eee6e069", "fusion_lat": 0.0, "rental_uris": {"ios": "https://dc.lft.to/lastmile_qr_scan", "android": "https://dc.lft.to/lastmile_qr_scan"}, "lon": -77.03107716666666, "type": "electric_scooter"}, {"bike_id": "c420cc8c36eeb8bad93eae3977849039", "is_reserved": 0, "fusion_lon": 0.0, "lat": 38.86426733333333, "is_disabled": 0, "name": "c420cc8c36eeb8bad93eae3977849039", "fusion_lat": 0.0, "rental_uris": {"ios": "https://dc.lft.to/lastmile_qr_scan", "android": "https://dc.lft.to/lastmile_qr_scan"}, "lon": -77.0135565, "type": "electric_scooter"}, {"bike_id": "196e0f7763c47ede3f2788819e54209f", "is_reserved": 0, "fusion_lon": 0.0, "lat": 38.90967766666667, "is_disabled": 0, "name": "196e0f7763c47ede3f2788819e54209f", "fusion_lat": 0.0, "rental_uris": {"ios": "https://dc.lft.to/lastmile_qr_scan", "android": "https://dc.lft.to/lastmile_qr_scan"}, "lon": -77.03423683333334, "type": "electric_scooter"}, {"bike_id": "af094b2f8b7feb38aab7d29db6c4792f", "is_reserved": 0, "fusion_lon": 0.0, "lat": 38.901681833333335, "is_disabled": 0, "name": "af094b2f8b7feb38aab7d29db6c4792f", "fusion_lat": 0.0, "rental_uris": {"ios": "https://dc.lft.to/lastmile_qr_scan", "android": "https://dc.lft.to/lastmile_qr_scan"}, "lon": -77.0000575, "type": "electric_scooter"}, {"bike_id": "1e5a743be408d54b302c31409fa2a35b", "is_reserved": 0, "fusion_lon": 0.0, "lat": 38.9581295, "is_disabled": 0, "name": "1e5a743be408d54b302c31409fa2a35b", "fusion_lat": 0.0, "rental_uris": {"ios": "https://dc.lft.to/lastmile_qr_scan", "android": "https://dc.lft.to/lastmile_qr_scan"}, "lon": -77.01379633333333, "type": "electric_bike"}, {"bike_id": "a45eb2b246c49a6a3f888a6b4ae40327", "is_reserved": 0, "fusion_lon": 0.0, "lat": 38.905804333333336, "is_disabled": 0, "name": "a45eb2b246c49a6a3f888a6b4ae40327", "fusion_lat": 0.0, "rental_uris": {"ios": "https://dc.lft.to/lastmile_qr_scan", "android": "https://dc.lft.to/lastmile_qr_scan"}, "lon": -77.0627785, "type": "electric_scooter"}, {"bike_id": "c4d7a27591d24ccd272fcb066c7f6578", "is_reserved": 0, "fusion_lon": 0.0, "lat": 38.86357183333333, "is_disabled": 0, "name": "c4d7a27591d24ccd272fcb066c7f6578", "fusion_lat": 0.0, "rental_uris": {"ios": "https://dc.lft.to/lastmile_qr_scan", "android": "https://dc.lft.to/lastmile_qr_scan"}, "lon": -76.99066216666667, "type": "electric_scooter"}, {"bike_id": "ab5a42fbfc560da734d7a9ffbacad540", "is_reserved": 0, "fusion_lon": 0.0, "lat": 38.882236666666664, "is_disabled": 0, "name": "ab5a42fbfc560da734d7a9ffbacad540", "fusion_lat": 0.0, "rental_uris": {"ios": "https://dc.lft.to/lastmile_qr_scan", "android": "https://dc.lft.to/lastmile_qr_scan"}, "lon": -77.11286316666667, "type": "electric_bike"}, {"bike_id": "134b0571c6270d136f60b13b73422f34", "is_reserved": 0, "fusion_lon": 0.0, "lat": 38.88428566666666, "is_disabled": 0, "name": "134b0571c6270d136f60b13b73422f34", "fusion_lat": 0.0, "rental_uris": {"ios": "https://dc.lft.to/lastmile_qr_scan", "android": "https://dc.lft.to/lastmile_qr_scan"}, "lon": -77.03078583333334, "type": "electric_scooter"}, {"bike_id": "22014484323eb04a23c04f43aa11bcf5", "is_reserved": 0, "fusion_lon": 0.0, "lat": 38.904592666666666, "is_disabled": 0, "name": "22014484323eb04a23c04f43aa11bcf5", "fusion_lat": 0.0, "rental_uris": {"ios": "https://dc.lft.to/lastmile_qr_scan", "android": "https://dc.lft.to/lastmile_qr_scan"}, "lon": -77.05918966666667, "type": "electric_scooter"}, {"bike_id": "7e48880cceb524dba4de08237f80a7a0", "is_reserved": 0, "fusion_lon": 0.0, "lat": 38.883566333333334, "is_disabled": 0, "name": "7e48880cceb524dba4de08237f80a7a0", "fusion_lat": 0.0, "rental_uris": {"ios": "https://dc.lft.to/lastmile_qr_scan", "android": "https://dc.lft.to/lastmile_qr_scan"}, "lon": -76.92797216666666, "type": "electric_scooter"}, {"bike_id": "90777f8096dd29baa180c16653a7522d", "is_reserved": 0, "fusion_lon": 0.0, "lat": 38.90580833333333, "is_disabled": 0, "name": "90777f8096dd29baa180c16653a7522d", "fusion_lat": 0.0, "rental_uris": {"ios": "https://dc.lft.to/lastmile_qr_scan", "android": "https://dc.lft.to/lastmile_qr_scan"}, "lon": -77.046996, "type": "electric_scooter"}, {"bike_id": "bb28a1413803562a56fc000571a75d2d", "is_reserved": 0, "fusion_lon": 0.0, "lat": 38.89889083333333, "is_disabled": 0, "name": "bb28a1413803562a56fc000571a75d2d", "fusion_lat": 0.0, "rental_uris": {"ios": "https://dc.lft.to/lastmile_qr_scan", "android": "https://dc.lft.to/lastmile_qr_scan"}, "lon": -77.03322266666666, "type": "electric_scooter"}, {"bike_id": "f9a3b90abc67710f2220a9d04e6c86f8", "is_reserved": 0, "fusion_lon": 0.0, "lat": 38.87329883333334, "is_disabled": 0, "name": "f9a3b90abc67710f2220a9d04e6c86f8", "fusion_lat": 0.0, "rental_uris": {"ios": "https://dc.lft.to/lastmile_qr_scan", "android": "https://dc.lft.to/lastmile_qr_scan"}, "lon": -77.10603166666667, "type": "electric_bike"}, {"bike_id": "ee01ef0063cc9306971d19b648918d12", "is_reserved": 0, "fusion_lon": 0.0, "lat": 38.94367666666667, "is_disabled": 0, "name": "ee01ef0063cc9306971d19b648918d12", "fusion_lat": 0.0, "rental_uris": {"ios": "https://dc.lft.to/lastmile_qr_scan", "android": "https://dc.lft.to/lastmile_qr_scan"}, "lon": -77.02175416666667, "type": "electric_scooter"}, {"bike_id": "6b69385d5202477e7fad63c5d3a8f934", "is_reserved": 0, "fusion_lon": 0.0, "lat": 38.94042266666666, "is_disabled": 0, "name": "6b69385d5202477e7fad63c5d3a8f934", "fusion_lat": 0.0, "rental_uris": {"ios": "https://dc.lft.to/lastmile_qr_scan", "android": "https://dc.lft.to/lastmile_qr_scan"}, "lon": -77.0290115, "type": "electric_scooter"}, {"bike_id": "9a9fb855195a1c42896ce91e247ee23d", "is_reserved": 0, "fusion_lon": 0.0, "lat": 38.89493383333333, "is_disabled": 0, "name": "9a9fb855195a1c42896ce91e247ee23d", "fusion_lat": 0.0, "rental_uris": {"ios": "https://dc.lft.to/lastmile_qr_scan", "android": "https://dc.lft.to/lastmile_qr_scan"}, "lon": -77.01010766666667, "type": "electric_scooter"}, {"bike_id": "5c7b77b0c7b8d97317e506d42444cc2b", "is_reserved": 0, "fusion_lon": 0.0, "lat": 38.93504866666667, "is_disabled": 0, "name": "5c7b77b0c7b8d97317e506d42444cc2b", "fusion_lat": 0.0, "rental_uris": {"ios": "https://dc.lft.to/lastmile_qr_scan", "android": "https://dc.lft.to/lastmile_qr_scan"}, "lon": -77.01997783333333, "type": "electric_scooter"}, {"bike_id": "85d2250b6b6fb87a89156f3bb52ab2d2", "is_reserved": 0, "fusion_lon": 0.0, "lat": 38.8840115, "is_disabled": 0, "name": "85d2250b6b6fb87a89156f3bb52ab2d2", "fusion_lat": 0.0, "rental_uris": {"ios": "https://dc.lft.to/lastmile_qr_scan", "android": "https://dc.lft.to/lastmile_qr_scan"}, "lon": -76.98586166666666, "type": "electric_scooter"}, {"bike_id": "29317935cd2c425d1759815f2198279f", "is_reserved": 0, "fusion_lon": 0.0, "lat": 38.90755266666667, "is_disabled": 0, "name": "29317935cd2c425d1759815f2198279f", "fusion_lat": 0.0, "rental_uris": {"ios": "https://dc.lft.to/lastmile_qr_scan", "android": "https://dc.lft.to/lastmile_qr_scan"}, "lon": -77.00100883333333, "type": "electric_scooter"}, {"bike_id": "6d75598f00511158cd9ae7551e63956c", "is_reserved": 0, "fusion_lon": 0.0, "lat": 38.89674733333333, "is_disabled": 0, "name": "6d75598f00511158cd9ae7551e63956c", "fusion_lat": 0.0, "rental_uris": {"ios": "https://dc.lft.to/lastmile_qr_scan", "android": "https://dc.lft.to/lastmile_qr_scan"}, "lon": -76.99609883333333, "type": "electric_scooter"}, {"bike_id": "d4b27f189f410bc5864e520128c33f86", "is_reserved": 0, "fusion_lon": 0.0, "lat": 38.920101833333334, "is_disabled": 0, "name": "d4b27f189f410bc5864e520128c33f86", "fusion_lat": 0.0, "rental_uris": {"ios": "https://dc.lft.to/lastmile_qr_scan", "android": "https://dc.lft.to/lastmile_qr_scan"}, "lon": -77.03888733333334, "type": "electric_scooter"}, {"bike_id": "f15a0cc27e4b9653ce4834171b030ab1", "is_reserved": 0, "fusion_lon": 0.0, "lat": 38.90310316666667, "is_disabled": 0, "name": "f15a0cc27e4b9653ce4834171b030ab1", "fusion_lat": 0.0, "rental_uris": {"ios": "https://dc.lft.to/lastmile_qr_scan", "android": "https://dc.lft.to/lastmile_qr_scan"}, "lon": -77.03847283333333, "type": "electric_scooter"}, {"bike_id": "0c1fcd9324446f7f0fb643899c14d42a", "is_reserved": 0, "fusion_lon": 0.0, "lat": 38.91338616666667, "is_disabled": 0, "name": "0c1fcd9324446f7f0fb643899c14d42a", "fusion_lat": 0.0, "rental_uris": {"ios": "https://dc.lft.to/lastmile_qr_scan", "android": "https://dc.lft.to/lastmile_qr_scan"}, "lon": -77.03120383333334, "type": "electric_scooter"}, {"bike_id": "78c5009923be674fbd2971a19ff38c8d", "is_reserved": 0, "fusion_lon": 0.0, "lat": 38.940483, "is_disabled": 0, "name": "78c5009923be674fbd2971a19ff38c8d", "fusion_lat": 0.0, "rental_uris": {"ios": "https://dc.lft.to/lastmile_qr_scan", "android": "https://dc.lft.to/lastmile_qr_scan"}, "lon": -77.0927325, "type": "electric_scooter"}, {"bike_id": "57e9e69a9ba70c0df73e61b5863b098c", "is_reserved": 0, "fusion_lon": 0.0, "lat": 38.9036695, "is_disabled": 0, "name": "57e9e69a9ba70c0df73e61b5863b098c", "fusion_lat": 0.0, "rental_uris": {"ios": "https://dc.lft.to/lastmile_qr_scan", "android": "https://dc.lft.to/lastmile_qr_scan"}, "lon": -77.01900616666667, "type": "electric_scooter"}, {"bike_id": "e8dbc4ca1d050437936a933a37e7ac55", "is_reserved": 0, "fusion_lon": 0.0, "lat": 38.89825916666667, "is_disabled": 0, "name": "e8dbc4ca1d050437936a933a37e7ac55", "fusion_lat": 0.0, "rental_uris": {"ios": "https://dc.lft.to/lastmile_qr_scan", "android": "https://dc.lft.to/lastmile_qr_scan"}, "lon": -77.029403, "type": "electric_scooter"}, {"bike_id": "ce9e68f35adec492256f65147ed8a1f9", "is_reserved": 0, "fusion_lon": 0.0, "lat": 38.917342, "is_disabled": 0, "name": "ce9e68f35adec492256f65147ed8a1f9", "fusion_lat": 0.0, "rental_uris": {"ios": "https://dc.lft.to/lastmile_qr_scan", "android": "https://dc.lft.to/lastmile_qr_scan"}, "lon": -77.007373, "type": "electric_scooter"}, {"bike_id": "6678b7fcf93fdb65be51aac4778f0b9f", "is_reserved": 0, "fusion_lon": 0.0, "lat": 38.9742245, "is_disabled": 0, "name": "6678b7fcf93fdb65be51aac4778f0b9f", "fusion_lat": 0.0, "rental_uris": {"ios": "https://dc.lft.to/lastmile_qr_scan", "android": "https://dc.lft.to/lastmile_qr_scan"}, "lon": -77.01519483333334, "type": "electric_scooter"}, {"bike_id": "47a63b0315cf1e0eb79a8c8808d8dd84", "is_reserved": 0, "fusion_lon": 0.0, "lat": 38.9004435, "is_disabled": 0, "name": "47a63b0315cf1e0eb79a8c8808d8dd84", "fusion_lat": 0.0, "rental_uris": {"ios": "https://dc.lft.to/lastmile_qr_scan", "android": "https://dc.lft.to/lastmile_qr_scan"}, "lon": -77.00207783333333, "type": "electric_scooter"}, {"bike_id": "c9d086d64cb0f7d91dfa2feb1af430bb", "is_reserved": 0, "fusion_lon": 0.0, "lat": 38.84291616666667, "is_disabled": 0, "name": "c9d086d64cb0f7d91dfa2feb1af430bb", "fusion_lat": 0.0, "rental_uris": {"ios": "https://dc.lft.to/lastmile_qr_scan", "android": "https://dc.lft.to/lastmile_qr_scan"}, "lon": -76.99947583333334, "type": "electric_scooter"}, {"bike_id": "0d686d513c2ac498bb58312c80df00a0", "is_reserved": 0, "fusion_lon": 0.0, "lat": 38.900339833333334, "is_disabled": 0, "name": "0d686d513c2ac498bb58312c80df00a0", "fusion_lat": 0.0, "rental_uris": {"ios": "https://dc.lft.to/lastmile_qr_scan", "android": "https://dc.lft.to/lastmile_qr_scan"}, "lon": -76.995322, "type": "electric_scooter"}, {"bike_id": "038da71236b034f13bec792b13c9b129", "is_reserved": 0, "fusion_lon": 0.0, "lat": 38.867021666666666, "is_disabled": 0, "name": "038da71236b034f13bec792b13c9b129", "fusion_lat": 0.0, "rental_uris": {"ios": "https://dc.lft.to/lastmile_qr_scan", "android": "https://dc.lft.to/lastmile_qr_scan"}, "lon": -76.98711166666666, "type": "electric_scooter"}, {"bike_id": "16ef59b2d871a4b6204115b7eac066a0", "is_reserved": 0, "fusion_lon": 0.0, "lat": 38.927444666666666, "is_disabled": 0, "name": "16ef59b2d871a4b6204115b7eac066a0", "fusion_lat": 0.0, "rental_uris": {"ios": "https://dc.lft.to/lastmile_qr_scan", "android": "https://dc.lft.to/lastmile_qr_scan"}, "lon": -77.01205016666667, "type": "electric_scooter"}, {"bike_id": "11756c6a779423005463f066d1bc1675", "is_reserved": 0, "fusion_lon": 0.0, "lat": 38.89684716666667, "is_disabled": 0, "name": "11756c6a779423005463f066d1bc1675", "fusion_lat": 0.0, "rental_uris": {"ios": "https://dc.lft.to/lastmile_qr_scan", "android": "https://dc.lft.to/lastmile_qr_scan"}, "lon": -76.99616216666666, "type": "electric_scooter"}, {"bike_id": "927a848e468e1686d5c9c02a42800432", "is_reserved": 0, "fusion_lon": 0.0, "lat": 38.891034833333336, "is_disabled": 0, "name": "927a848e468e1686d5c9c02a42800432", "fusion_lat": 0.0, "rental_uris": {"ios": "https://dc.lft.to/lastmile_qr_scan", "android": "https://dc.lft.to/lastmile_qr_scan"}, "lon": -76.9870405, "type": "electric_scooter"}, {"bike_id": "d7924df0b53478c12543e0443bf4bca6", "is_reserved": 0, "fusion_lon": 0.0, "lat": 38.902780666666665, "is_disabled": 0, "name": "d7924df0b53478c12543e0443bf4bca6", "fusion_lat": 0.0, "rental_uris": {"ios": "https://dc.lft.to/lastmile_qr_scan", "android": "https://dc.lft.to/lastmile_qr_scan"}, "lon": -77.03671466666667, "type": "electric_scooter"}, {"bike_id": "d9955aa9c743088bc26e815fd1025d6e", "is_reserved": 0, "fusion_lon": 0.0, "lat": 38.862103, "is_disabled": 0, "name": "d9955aa9c743088bc26e815fd1025d6e", "fusion_lat": 0.0, "rental_uris": {"ios": "https://dc.lft.to/lastmile_qr_scan", "android": "https://dc.lft.to/lastmile_qr_scan"}, "lon": -76.9947135, "type": "electric_scooter"}, {"bike_id": "38296092c5100930df5ae046dd985bb6", "is_reserved": 0, "fusion_lon": 0.0, "lat": 38.87907416666667, "is_disabled": 0, "name": "38296092c5100930df5ae046dd985bb6", "fusion_lat": 0.0, "rental_uris": {"ios": "https://dc.lft.to/lastmile_qr_scan", "android": "https://dc.lft.to/lastmile_qr_scan"}, "lon": -77.0221065, "type": "electric_scooter"}, {"bike_id": "e73d1ac3948d4350e28cd370ca27762e", "is_reserved": 0, "fusion_lon": 0.0, "lat": 38.91807933333333, "is_disabled": 0, "name": "e73d1ac3948d4350e28cd370ca27762e", "fusion_lat": 0.0, "rental_uris": {"ios": "https://dc.lft.to/lastmile_qr_scan", "android": "https://dc.lft.to/lastmile_qr_scan"}, "lon": -77.03560783333333, "type": "electric_scooter"}, {"bike_id": "4bb7b849f7a6efc23bbd5a33360cb59a", "is_reserved": 0, "fusion_lon": 0.0, "lat": 38.880822333333334, "is_disabled": 0, "name": "4bb7b849f7a6efc23bbd5a33360cb59a", "fusion_lat": 0.0, "rental_uris": {"ios": "https://dc.lft.to/lastmile_qr_scan", "android": "https://dc.lft.to/lastmile_qr_scan"}, "lon": -77.02573366666667, "type": "electric_scooter"}, {"bike_id": "fe1a4b0ae3055e66183c223d5c4a6b2f", "is_reserved": 0, "fusion_lon": 0.0, "lat": 38.870869666666664, "is_disabled": 0, "name": "fe1a4b0ae3055e66183c223d5c4a6b2f", "fusion_lat": 0.0, "rental_uris": {"ios": "https://dc.lft.to/lastmile_qr_scan", "android": "https://dc.lft.to/lastmile_qr_scan"}, "lon": -77.01214183333333, "type": "electric_bike"}, {"bike_id": "c6ebcdc4dd1277d53b2dedd4b6136e2a", "is_reserved": 0, "fusion_lon": 0.0, "lat": 38.90685666666667, "is_disabled": 0, "name": "c6ebcdc4dd1277d53b2dedd4b6136e2a", "fusion_lat": 0.0, "rental_uris": {"ios": "https://dc.lft.to/lastmile_qr_scan", "android": "https://dc.lft.to/lastmile_qr_scan"}, "lon": -77.00596566666667, "type": "electric_scooter"}, {"bike_id": "62d028ad25983fe48a6960ca7665bd87", "is_reserved": 0, "fusion_lon": 0.0, "lat": 38.90375433333333, "is_disabled": 0, "name": "62d028ad25983fe48a6960ca7665bd87", "fusion_lat": 0.0, "rental_uris": {"ios": "https://dc.lft.to/lastmile_qr_scan", "android": "https://dc.lft.to/lastmile_qr_scan"}, "lon": -77.04498516666666, "type": "electric_scooter"}, {"bike_id": "1d5faa01f10b35c5486ffb75d060a089", "is_reserved": 0, "fusion_lon": 0.0, "lat": 38.922700666666664, "is_disabled": 0, "name": "1d5faa01f10b35c5486ffb75d060a089", "fusion_lat": 0.0, "rental_uris": {"ios": "https://dc.lft.to/lastmile_qr_scan", "android": "https://dc.lft.to/lastmile_qr_scan"}, "lon": -77.01825233333334, "type": "electric_scooter"}, {"bike_id": "ed94047c3ec98e858d88a6977f895883", "is_reserved": 0, "fusion_lon": 0.0, "lat": 38.8995465, "is_disabled": 0, "name": "ed94047c3ec98e858d88a6977f895883", "fusion_lat": 0.0, "rental_uris": {"ios": "https://dc.lft.to/lastmile_qr_scan", "android": "https://dc.lft.to/lastmile_qr_scan"}, "lon": -77.052729, "type": "electric_scooter"}, {"bike_id": "2583914d054b33766ae88e09a2fe3a2b", "is_reserved": 0, "fusion_lon": 0.0, "lat": 38.9012735, "is_disabled": 0, "name": "2583914d054b33766ae88e09a2fe3a2b", "fusion_lat": 0.0, "rental_uris": {"ios": "https://dc.lft.to/lastmile_qr_scan", "android": "https://dc.lft.to/lastmile_qr_scan"}, "lon": -76.9971365, "type": "electric_scooter"}, {"bike_id": "edc4cc4b3d7047645be98a34c77cd71e", "is_reserved": 0, "fusion_lon": 0.0, "lat": 38.927116166666664, "is_disabled": 0, "name": "edc4cc4b3d7047645be98a34c77cd71e", "fusion_lat": 0.0, "rental_uris": {"ios": "https://dc.lft.to/lastmile_qr_scan", "android": "https://dc.lft.to/lastmile_qr_scan"}, "lon": -77.040516, "type": "electric_scooter"}, {"bike_id": "4c126fcf41e5babdba843a118e2052e8", "is_reserved": 0, "fusion_lon": 0.0, "lat": 38.898900166666664, "is_disabled": 0, "name": "4c126fcf41e5babdba843a118e2052e8", "fusion_lat": 0.0, "rental_uris": {"ios": "https://dc.lft.to/lastmile_qr_scan", "android": "https://dc.lft.to/lastmile_qr_scan"}, "lon": -77.03281266666667, "type": "electric_scooter"}, {"bike_id": "da84a889b91710991de96ace3599f209", "is_reserved": 0, "fusion_lon": 0.0, "lat": 38.910400333333335, "is_disabled": 0, "name": "da84a889b91710991de96ace3599f209", "fusion_lat": 0.0, "rental_uris": {"ios": "https://dc.lft.to/lastmile_qr_scan", "android": "https://dc.lft.to/lastmile_qr_scan"}, "lon": -77.03584033333334, "type": "electric_scooter"}, {"bike_id": "9c8fb748e9e218e5dd3d612e0b16ab2e", "is_reserved": 0, "fusion_lon": 0.0, "lat": 38.93361616666667, "is_disabled": 0, "name": "9c8fb748e9e218e5dd3d612e0b16ab2e", "fusion_lat": 0.0, "rental_uris": {"ios": "https://dc.lft.to/lastmile_qr_scan", "android": "https://dc.lft.to/lastmile_qr_scan"}, "lon": -77.057327, "type": "electric_scooter"}, {"bike_id": "fe5ae6f4dfbd0b06c80af633316a97c3", "is_reserved": 0, "fusion_lon": 0.0, "lat": 38.89751866666667, "is_disabled": 0, "name": "fe5ae6f4dfbd0b06c80af633316a97c3", "fusion_lat": 0.0, "rental_uris": {"ios": "https://dc.lft.to/lastmile_qr_scan", "android": "https://dc.lft.to/lastmile_qr_scan"}, "lon": -77.02714283333333, "type": "electric_scooter"}, {"bike_id": "60f9a4d836e74a3efd8cc23665a8e92d", "is_reserved": 0, "fusion_lon": 0.0, "lat": 38.9337325, "is_disabled": 0, "name": "60f9a4d836e74a3efd8cc23665a8e92d", "fusion_lat": 0.0, "rental_uris": {"ios": "https://dc.lft.to/lastmile_qr_scan", "android": "https://dc.lft.to/lastmile_qr_scan"}, "lon": -77.03423883333333, "type": "electric_scooter"}, {"bike_id": "66a89c9baa06bc636fee9e11e98cc4d0", "is_reserved": 0, "fusion_lon": 0.0, "lat": 38.91804033333333, "is_disabled": 0, "name": "66a89c9baa06bc636fee9e11e98cc4d0", "fusion_lat": 0.0, "rental_uris": {"ios": "https://dc.lft.to/lastmile_qr_scan", "android": "https://dc.lft.to/lastmile_qr_scan"}, "lon": -77.0318385, "type": "electric_scooter"}, {"bike_id": "bc8bfec0869a90509d7bf8dff71a93a6", "is_reserved": 0, "fusion_lon": 0.0, "lat": 38.90377333333333, "is_disabled": 0, "name": "bc8bfec0869a90509d7bf8dff71a93a6", "fusion_lat": 0.0, "rental_uris": {"ios": "https://dc.lft.to/lastmile_qr_scan", "android": "https://dc.lft.to/lastmile_qr_scan"}, "lon": -77.045112, "type": "electric_scooter"}, {"bike_id": "9c148837381ff32caec4ab76873b36a8", "is_reserved": 0, "fusion_lon": 0.0, "lat": 38.89455016666667, "is_disabled": 0, "name": "9c148837381ff32caec4ab76873b36a8", "fusion_lat": 0.0, "rental_uris": {"ios": "https://dc.lft.to/lastmile_qr_scan", "android": "https://dc.lft.to/lastmile_qr_scan"}, "lon": -76.97036116666666, "type": "electric_bike"}, {"bike_id": "d3244d635c713fc6b42e931cf3ab652b", "is_reserved": 0, "fusion_lon": 0.0, "lat": 38.8831275, "is_disabled": 0, "name": "d3244d635c713fc6b42e931cf3ab652b", "fusion_lat": 0.0, "rental_uris": {"ios": "https://dc.lft.to/lastmile_qr_scan", "android": "https://dc.lft.to/lastmile_qr_scan"}, "lon": -77.01791916666667, "type": "electric_scooter"}, {"bike_id": "84b8c33f471f036916ab2cc8e115adc8", "is_reserved": 0, "fusion_lon": 0.0, "lat": 38.900424666666666, "is_disabled": 0, "name": "84b8c33f471f036916ab2cc8e115adc8", "fusion_lat": 0.0, "rental_uris": {"ios": "https://dc.lft.to/lastmile_qr_scan", "android": "https://dc.lft.to/lastmile_qr_scan"}, "lon": -77.031965, "type": "electric_scooter"}, {"bike_id": "38e4a3413f46cef03f54801664e645db", "is_reserved": 0, "fusion_lon": 0.0, "lat": 38.90092533333333, "is_disabled": 0, "name": "38e4a3413f46cef03f54801664e645db", "fusion_lat": 0.0, "rental_uris": {"ios": "https://dc.lft.to/lastmile_qr_scan", "android": "https://dc.lft.to/lastmile_qr_scan"}, "lon": -77.0203835, "type": "electric_scooter"}, {"bike_id": "d827ee6fe0f5586742a2f6f389c4d4f8", "is_reserved": 0, "fusion_lon": 0.0, "lat": 38.917351333333336, "is_disabled": 0, "name": "d827ee6fe0f5586742a2f6f389c4d4f8", "fusion_lat": 0.0, "rental_uris": {"ios": "https://dc.lft.to/lastmile_qr_scan", "android": "https://dc.lft.to/lastmile_qr_scan"}, "lon": -77.0417315, "type": "electric_scooter"}, {"bike_id": "6b8590bc810dd3433f3d2fb09d58bf91", "is_reserved": 0, "fusion_lon": 0.0, "lat": 38.913913666666666, "is_disabled": 0, "name": "6b8590bc810dd3433f3d2fb09d58bf91", "fusion_lat": 0.0, "rental_uris": {"ios": "https://dc.lft.to/lastmile_qr_scan", "android": "https://dc.lft.to/lastmile_qr_scan"}, "lon": -77.04599033333334, "type": "electric_scooter"}, {"bike_id": "8f91f5385a540e19b302876d1da5e081", "is_reserved": 0, "fusion_lon": 0.0, "lat": 38.822683, "is_disabled": 0, "name": "8f91f5385a540e19b302876d1da5e081", "fusion_lat": 0.0, "rental_uris": {"ios": "https://dc.lft.to/lastmile_qr_scan", "android": "https://dc.lft.to/lastmile_qr_scan"}, "lon": -77.00551483333334, "type": "electric_bike"}, {"bike_id": "1f4e6ea4cb50d9f75822c9ff7072ce07", "is_reserved": 0, "fusion_lon": 0.0, "lat": 38.925981, "is_disabled": 0, "name": "1f4e6ea4cb50d9f75822c9ff7072ce07", "fusion_lat": 0.0, "rental_uris": {"ios": "https://dc.lft.to/lastmile_qr_scan", "android": "https://dc.lft.to/lastmile_qr_scan"}, "lon": -77.02129583333334, "type": "electric_scooter"}, {"bike_id": "ce344fe1e97bafc38f1e25a8e53a92a9", "is_reserved": 0, "fusion_lon": 0.0, "lat": 38.893592166666664, "is_disabled": 0, "name": "ce344fe1e97bafc38f1e25a8e53a92a9", "fusion_lat": 0.0, "rental_uris": {"ios": "https://dc.lft.to/lastmile_qr_scan", "android": "https://dc.lft.to/lastmile_qr_scan"}, "lon": -77.028458, "type": "electric_scooter"}, {"bike_id": "b9e82ffc2e8f72103f5b1105292a3e59", "is_reserved": 0, "fusion_lon": 0.0, "lat": 38.8828205, "is_disabled": 0, "name": "b9e82ffc2e8f72103f5b1105292a3e59", "fusion_lat": 0.0, "rental_uris": {"ios": "https://dc.lft.to/lastmile_qr_scan", "android": "https://dc.lft.to/lastmile_qr_scan"}, "lon": -76.986272, "type": "electric_scooter"}, {"bike_id": "7ea4aefc8ae92b2c83841ee3f6722eeb", "is_reserved": 0, "fusion_lon": 0.0, "lat": 38.913319333333334, "is_disabled": 0, "name": "7ea4aefc8ae92b2c83841ee3f6722eeb", "fusion_lat": 0.0, "rental_uris": {"ios": "https://dc.lft.to/lastmile_qr_scan", "android": "https://dc.lft.to/lastmile_qr_scan"}, "lon": -77.04821033333333, "type": "electric_scooter"}, {"bike_id": "436a4aa295de19c634763dadb5ee4f87", "is_reserved": 0, "fusion_lon": 0.0, "lat": 38.900132, "is_disabled": 0, "name": "436a4aa295de19c634763dadb5ee4f87", "fusion_lat": 0.0, "rental_uris": {"ios": "https://dc.lft.to/lastmile_qr_scan", "android": "https://dc.lft.to/lastmile_qr_scan"}, "lon": -77.0331305, "type": "electric_scooter"}, {"bike_id": "43161b8c6ca730be754de7b03497d42c", "is_reserved": 0, "fusion_lon": 0.0, "lat": 38.903905, "is_disabled": 0, "name": "43161b8c6ca730be754de7b03497d42c", "fusion_lat": 0.0, "rental_uris": {"ios": "https://dc.lft.to/lastmile_qr_scan", "android": "https://dc.lft.to/lastmile_qr_scan"}, "lon": -77.04446416666667, "type": "electric_scooter"}, {"bike_id": "0058274f374dc21355fe3f5069f19163", "is_reserved": 0, "fusion_lon": 0.0, "lat": 38.8985135, "is_disabled": 0, "name": "0058274f374dc21355fe3f5069f19163", "fusion_lat": 0.0, "rental_uris": {"ios": "https://dc.lft.to/lastmile_qr_scan", "android": "https://dc.lft.to/lastmile_qr_scan"}, "lon": -77.032087, "type": "electric_scooter"}, {"bike_id": "8e1d262a29cd487225b15df4919b8cc8", "is_reserved": 0, "fusion_lon": 0.0, "lat": 38.91738133333333, "is_disabled": 0, "name": "8e1d262a29cd487225b15df4919b8cc8", "fusion_lat": 0.0, "rental_uris": {"ios": "https://dc.lft.to/lastmile_qr_scan", "android": "https://dc.lft.to/lastmile_qr_scan"}, "lon": -77.04415766666666, "type": "electric_scooter"}, {"bike_id": "96dc469971c8c244f0025a1f0a691a9b", "is_reserved": 0, "fusion_lon": 0.0, "lat": 38.91980683333333, "is_disabled": 0, "name": "96dc469971c8c244f0025a1f0a691a9b", "fusion_lat": 0.0, "rental_uris": {"ios": "https://dc.lft.to/lastmile_qr_scan", "android": "https://dc.lft.to/lastmile_qr_scan"}, "lon": -77.04442966666667, "type": "electric_scooter"}, {"bike_id": "cc4c0a2f32194293d28a6508afb8b026", "is_reserved": 0, "fusion_lon": 0.0, "lat": 38.924294833333335, "is_disabled": 0, "name": "cc4c0a2f32194293d28a6508afb8b026", "fusion_lat": 0.0, "rental_uris": {"ios": "https://dc.lft.to/lastmile_qr_scan", "android": "https://dc.lft.to/lastmile_qr_scan"}, "lon": -77.04241516666667, "type": "electric_scooter"}, {"bike_id": "8694715b1e3dbb5cc08caefb8af549fe", "is_reserved": 0, "fusion_lon": 0.0, "lat": 38.902637, "is_disabled": 0, "name": "8694715b1e3dbb5cc08caefb8af549fe", "fusion_lat": 0.0, "rental_uris": {"ios": "https://dc.lft.to/lastmile_qr_scan", "android": "https://dc.lft.to/lastmile_qr_scan"}, "lon": -77.03862733333334, "type": "electric_scooter"}, {"bike_id": "3b7ec923afa70b72b942153b34cbe1d5", "is_reserved": 0, "fusion_lon": 0.0, "lat": 38.869603166666664, "is_disabled": 0, "name": "3b7ec923afa70b72b942153b34cbe1d5", "fusion_lat": 0.0, "rental_uris": {"ios": "https://dc.lft.to/lastmile_qr_scan", "android": "https://dc.lft.to/lastmile_qr_scan"}, "lon": -77.01374933333334, "type": "electric_scooter"}, {"bike_id": "f85429d6223bc29dcaedc2560ce24238", "is_reserved": 0, "fusion_lon": 0.0, "lat": 38.897149166666665, "is_disabled": 0, "name": "f85429d6223bc29dcaedc2560ce24238", "fusion_lat": 0.0, "rental_uris": {"ios": "https://dc.lft.to/lastmile_qr_scan", "android": "https://dc.lft.to/lastmile_qr_scan"}, "lon": -77.027439, "type": "electric_scooter"}, {"bike_id": "ee53b38abc77862b4d9b4febeee4759f", "is_reserved": 0, "fusion_lon": 0.0, "lat": 38.907225333333336, "is_disabled": 0, "name": "ee53b38abc77862b4d9b4febeee4759f", "fusion_lat": 0.0, "rental_uris": {"ios": "https://dc.lft.to/lastmile_qr_scan", "android": "https://dc.lft.to/lastmile_qr_scan"}, "lon": -77.04408966666666, "type": "electric_scooter"}, {"bike_id": "0f16b62e6bc3906c4cbfe074819aa5fa", "is_reserved": 0, "fusion_lon": 0.0, "lat": 38.91040983333333, "is_disabled": 0, "name": "0f16b62e6bc3906c4cbfe074819aa5fa", "fusion_lat": 0.0, "rental_uris": {"ios": "https://dc.lft.to/lastmile_qr_scan", "android": "https://dc.lft.to/lastmile_qr_scan"}, "lon": -77.03635783333333, "type": "electric_scooter"}, {"bike_id": "5611bb55132582cf5337e52dd8872662", "is_reserved": 0, "fusion_lon": 0.0, "lat": 38.92011883333333, "is_disabled": 0, "name": "5611bb55132582cf5337e52dd8872662", "fusion_lat": 0.0, "rental_uris": {"ios": "https://dc.lft.to/lastmile_qr_scan", "android": "https://dc.lft.to/lastmile_qr_scan"}, "lon": -77.03769933333334, "type": "electric_scooter"}, {"bike_id": "21335474aa3d85665221ac465de13c66", "is_reserved": 0, "fusion_lon": 0.0, "lat": 38.95927866666667, "is_disabled": 0, "name": "21335474aa3d85665221ac465de13c66", "fusion_lat": 0.0, "rental_uris": {"ios": "https://dc.lft.to/lastmile_qr_scan", "android": "https://dc.lft.to/lastmile_qr_scan"}, "lon": -76.92528316666667, "type": "electric_bike"}, {"bike_id": "b4f0630a4b4c9b90d36111a7dae2d14c", "is_reserved": 0, "fusion_lon": 0.0, "lat": 38.9272795, "is_disabled": 0, "name": "b4f0630a4b4c9b90d36111a7dae2d14c", "fusion_lat": 0.0, "rental_uris": {"ios": "https://dc.lft.to/lastmile_qr_scan", "android": "https://dc.lft.to/lastmile_qr_scan"}, "lon": -77.02262266666666, "type": "electric_bike"}, {"bike_id": "0f1ec75c7bc6782a20db59b97a2f26f3", "is_reserved": 0, "fusion_lon": 0.0, "lat": 38.917245333333334, "is_disabled": 0, "name": "0f1ec75c7bc6782a20db59b97a2f26f3", "fusion_lat": 0.0, "rental_uris": {"ios": "https://dc.lft.to/lastmile_qr_scan", "android": "https://dc.lft.to/lastmile_qr_scan"}, "lon": -77.03363716666667, "type": "electric_scooter"}, {"bike_id": "6133829ed6918872ac0dbba368ae3856", "is_reserved": 0, "fusion_lon": 0.0, "lat": 38.87477416666667, "is_disabled": 0, "name": "6133829ed6918872ac0dbba368ae3856", "fusion_lat": 0.0, "rental_uris": {"ios": "https://dc.lft.to/lastmile_qr_scan", "android": "https://dc.lft.to/lastmile_qr_scan"}, "lon": -76.96520566666666, "type": "electric_bike"}, {"bike_id": "4bd88088447df9331fef59f48280d73c", "is_reserved": 0, "fusion_lon": 0.0, "lat": 38.915418833333334, "is_disabled": 0, "name": "4bd88088447df9331fef59f48280d73c", "fusion_lat": 0.0, "rental_uris": {"ios": "https://dc.lft.to/lastmile_qr_scan", "android": "https://dc.lft.to/lastmile_qr_scan"}, "lon": -77.03793116666667, "type": "electric_scooter"}, {"bike_id": "f52bb7ad49aabbb79d25b8afb0ae0379", "is_reserved": 0, "fusion_lon": 0.0, "lat": 38.927385666666666, "is_disabled": 0, "name": "f52bb7ad49aabbb79d25b8afb0ae0379", "fusion_lat": 0.0, "rental_uris": {"ios": "https://dc.lft.to/lastmile_qr_scan", "android": "https://dc.lft.to/lastmile_qr_scan"}, "lon": -77.02263383333333, "type": "electric_scooter"}, {"bike_id": "b68ff65b67960e53b09c331010e76dac", "is_reserved": 0, "fusion_lon": 0.0, "lat": 38.893762333333335, "is_disabled": 0, "name": "b68ff65b67960e53b09c331010e76dac", "fusion_lat": 0.0, "rental_uris": {"ios": "https://dc.lft.to/lastmile_qr_scan", "android": "https://dc.lft.to/lastmile_qr_scan"}, "lon": -76.94985833333334, "type": "electric_scooter"}, {"bike_id": "9c87e6e8b3b75d3e6d590038cda31399", "is_reserved": 0, "fusion_lon": 0.0, "lat": 38.966218166666664, "is_disabled": 0, "name": "9c87e6e8b3b75d3e6d590038cda31399", "fusion_lat": 0.0, "rental_uris": {"ios": "https://dc.lft.to/lastmile_qr_scan", "android": "https://dc.lft.to/lastmile_qr_scan"}, "lon": -77.03432833333333, "type": "electric_bike"}, {"bike_id": "ec72d4f4527060b8a4df516d9cf22289", "is_reserved": 0, "fusion_lon": 0.0, "lat": 38.90550983333333, "is_disabled": 0, "name": "ec72d4f4527060b8a4df516d9cf22289", "fusion_lat": 0.0, "rental_uris": {"ios": "https://dc.lft.to/lastmile_qr_scan", "android": "https://dc.lft.to/lastmile_qr_scan"}, "lon": -77.04185116666666, "type": "electric_scooter"}, {"bike_id": "842f2b1d86ac7953c6ba12c175c68aa3", "is_reserved": 0, "fusion_lon": 0.0, "lat": 38.9284155, "is_disabled": 0, "name": "842f2b1d86ac7953c6ba12c175c68aa3", "fusion_lat": 0.0, "rental_uris": {"ios": "https://dc.lft.to/lastmile_qr_scan", "android": "https://dc.lft.to/lastmile_qr_scan"}, "lon": -77.01587016666667, "type": "electric_scooter"}, {"bike_id": "a4290b145d68ed7332b37000d5a0d035", "is_reserved": 0, "fusion_lon": 0.0, "lat": 38.9014085, "is_disabled": 0, "name": "a4290b145d68ed7332b37000d5a0d035", "fusion_lat": 0.0, "rental_uris": {"ios": "https://dc.lft.to/lastmile_qr_scan", "android": "https://dc.lft.to/lastmile_qr_scan"}, "lon": -77.0263545, "type": "electric_scooter"}, {"bike_id": "ed19ad009ff02254341bd60c7d70a0ab", "is_reserved": 0, "fusion_lon": 0.0, "lat": 38.92686533333333, "is_disabled": 0, "name": "ed19ad009ff02254341bd60c7d70a0ab", "fusion_lat": 0.0, "rental_uris": {"ios": "https://dc.lft.to/lastmile_qr_scan", "android": "https://dc.lft.to/lastmile_qr_scan"}, "lon": -77.01568366666666, "type": "electric_scooter"}, {"bike_id": "f607f338a3428e7904ceda8b560c8830", "is_reserved": 0, "fusion_lon": 0.0, "lat": 38.91003033333333, "is_disabled": 0, "name": "f607f338a3428e7904ceda8b560c8830", "fusion_lat": 0.0, "rental_uris": {"ios": "https://dc.lft.to/lastmile_qr_scan", "android": "https://dc.lft.to/lastmile_qr_scan"}, "lon": -77.0209955, "type": "electric_scooter"}, {"bike_id": "3b8bfaad4775d2f05d3b94b62a17ee48", "is_reserved": 0, "fusion_lon": 0.0, "lat": 38.925335833333335, "is_disabled": 0, "name": "3b8bfaad4775d2f05d3b94b62a17ee48", "fusion_lat": 0.0, "rental_uris": {"ios": "https://dc.lft.to/lastmile_qr_scan", "android": "https://dc.lft.to/lastmile_qr_scan"}, "lon": -77.035205, "type": "electric_scooter"}, {"bike_id": "0b97d9cf769f82c87dfef00f26ab5639", "is_reserved": 0, "fusion_lon": 0.0, "lat": 38.91847833333333, "is_disabled": 0, "name": "0b97d9cf769f82c87dfef00f26ab5639", "fusion_lat": 0.0, "rental_uris": {"ios": "https://dc.lft.to/lastmile_qr_scan", "android": "https://dc.lft.to/lastmile_qr_scan"}, "lon": -77.03202966666667, "type": "electric_scooter"}, {"bike_id": "3cc4c7fbc5c95dd27202df5ac8129a54", "is_reserved": 0, "fusion_lon": 0.0, "lat": 38.899465166666666, "is_disabled": 0, "name": "3cc4c7fbc5c95dd27202df5ac8129a54", "fusion_lat": 0.0, "rental_uris": {"ios": "https://dc.lft.to/lastmile_qr_scan", "android": "https://dc.lft.to/lastmile_qr_scan"}, "lon": -77.00346833333333, "type": "electric_scooter"}, {"bike_id": "27651f25f4796f8a341fb6ef3efe6b02", "is_reserved": 0, "fusion_lon": 0.0, "lat": 38.91434916666667, "is_disabled": 0, "name": "27651f25f4796f8a341fb6ef3efe6b02", "fusion_lat": 0.0, "rental_uris": {"ios": "https://dc.lft.to/lastmile_qr_scan", "android": "https://dc.lft.to/lastmile_qr_scan"}, "lon": -77.00342483333333, "type": "electric_scooter"}, {"bike_id": "2ea86f3b946cdf651658f56f54b8d598", "is_reserved": 0, "fusion_lon": 0.0, "lat": 38.928864833333336, "is_disabled": 0, "name": "2ea86f3b946cdf651658f56f54b8d598", "fusion_lat": 0.0, "rental_uris": {"ios": "https://dc.lft.to/lastmile_qr_scan", "android": "https://dc.lft.to/lastmile_qr_scan"}, "lon": -77.05454, "type": "electric_scooter"}, {"bike_id": "fb082526a4cc13cbdf01392a64699d3c", "is_reserved": 0, "fusion_lon": 0.0, "lat": 38.88003583333333, "is_disabled": 0, "name": "fb082526a4cc13cbdf01392a64699d3c", "fusion_lat": 0.0, "rental_uris": {"ios": "https://dc.lft.to/lastmile_qr_scan", "android": "https://dc.lft.to/lastmile_qr_scan"}, "lon": -76.99496716666667, "type": "electric_scooter"}, {"bike_id": "08bb1ec20bb424b5e057e7e8edaa7212", "is_reserved": 0, "fusion_lon": 0.0, "lat": 38.90843866666667, "is_disabled": 0, "name": "08bb1ec20bb424b5e057e7e8edaa7212", "fusion_lat": 0.0, "rental_uris": {"ios": "https://dc.lft.to/lastmile_qr_scan", "android": "https://dc.lft.to/lastmile_qr_scan"}, "lon": -77.0853, "type": "electric_scooter"}, {"bike_id": "a0535682354eaa6e4cf41bae06f5e1e7", "is_reserved": 0, "fusion_lon": 0.0, "lat": 38.902141, "is_disabled": 0, "name": "a0535682354eaa6e4cf41bae06f5e1e7", "fusion_lat": 0.0, "rental_uris": {"ios": "https://dc.lft.to/lastmile_qr_scan", "android": "https://dc.lft.to/lastmile_qr_scan"}, "lon": -77.06052633333333, "type": "electric_scooter"}, {"bike_id": "005ef12acd38c4f15c8ddbc73947c9d8", "is_reserved": 0, "fusion_lon": 0.0, "lat": 38.917044833333335, "is_disabled": 0, "name": "005ef12acd38c4f15c8ddbc73947c9d8", "fusion_lat": 0.0, "rental_uris": {"ios": "https://dc.lft.to/lastmile_qr_scan", "android": "https://dc.lft.to/lastmile_qr_scan"}, "lon": -77.04174716666667, "type": "electric_scooter"}, {"bike_id": "ae7da32697423c3d21c76b0698c89104", "is_reserved": 0, "fusion_lon": 0.0, "lat": 38.900189833333336, "is_disabled": 0, "name": "ae7da32697423c3d21c76b0698c89104", "fusion_lat": 0.0, "rental_uris": {"ios": "https://dc.lft.to/lastmile_qr_scan", "android": "https://dc.lft.to/lastmile_qr_scan"}, "lon": -76.973111, "type": "electric_scooter"}, {"bike_id": "4da2cb1cf103d1d4edafdd093f5a9940", "is_reserved": 0, "fusion_lon": 0.0, "lat": 38.903726166666665, "is_disabled": 0, "name": "4da2cb1cf103d1d4edafdd093f5a9940", "fusion_lat": 0.0, "rental_uris": {"ios": "https://dc.lft.to/lastmile_qr_scan", "android": "https://dc.lft.to/lastmile_qr_scan"}, "lon": -77.04348183333333, "type": "electric_scooter"}, {"bike_id": "9a67c2d93d694e3f55a2090f511d3043", "is_reserved": 0, "fusion_lon": 0.0, "lat": 38.90050383333333, "is_disabled": 0, "name": "9a67c2d93d694e3f55a2090f511d3043", "fusion_lat": 0.0, "rental_uris": {"ios": "https://dc.lft.to/lastmile_qr_scan", "android": "https://dc.lft.to/lastmile_qr_scan"}, "lon": -77.00212716666667, "type": "electric_scooter"}, {"bike_id": "1472658ee791fc896c089dfc76ede892", "is_reserved": 0, "fusion_lon": 0.0, "lat": 38.905305166666665, "is_disabled": 0, "name": "1472658ee791fc896c089dfc76ede892", "fusion_lat": 0.0, "rental_uris": {"ios": "https://dc.lft.to/lastmile_qr_scan", "android": "https://dc.lft.to/lastmile_qr_scan"}, "lon": -77.061644, "type": "electric_scooter"},