{"data": {"bikes": [{"lat": 38.942727833333336, "fusion_lat": 0.0, "type": "electric_bike", "name": "5d09f4b7572622fdf8b7b8770e5b8a70", "is_disabled": 0, "bike_id": "5d09f4b7572622fdf8b7b8770e5b8a70", "lon": -76.99901083333333, "rental_uris": {"android": "https://dc.lft.to/lastmile_qr_scan", "ios": "https://dc.lft.to/lastmile_qr_scan"}, "fusion_lon": 0.0, "is_reserved": 0}, {"lat": 38.8787435, "fusion_lat": 0.0, "type": "electric_scooter", "name": "ae60ec6bb0435dc8c0df09b46235f8ec", "is_disabled": 0, "bike_id": "ae60ec6bb0435dc8c0df09b46235f8ec", "lon": -77.0014, "rental_uris": {"android": "https://dc.lft.to/lastmile_qr_scan", "ios": "https://dc.lft.to/lastmile_qr_scan"}, "fusion_lon": 0.0, "is_reserved": 0}, {"lat": 38.89677866666667, "fusion_lat": 0.0, "type": "electric_scooter", "name": "895ef9c62919da2c423812f9a5086099", "is_disabled": 0, "bike_id": "895ef9c62919da2c423812f9a5086099", "lon": -77.051425, "rental_uris": {"android": "https://dc.lft.to/lastmile_qr_scan", "ios": "https://dc.lft.to/lastmile_qr_scan"}, "fusion_lon": 0.0, "is_reserved": 0}, {"lat": 38.89222083333333, "fusion_lat": 0.0, "type": "electric_scooter", "name": "38b340863a21139412224be5694999cf", "is_disabled": 0, "bike_id": "38b340863a21139412224be5694999cf", "lon": -77.04992766666666, "rental_uris": {"android": "https://dc.lft.to/lastmile_qr_scan", "ios": "https://dc.lft.to/lastmile_qr_scan"}, "fusion_lon": 0.0, "is_reserved": 0}, {"lat": 38.913960333333335, "fusion_lat": 0.0, "type": "electric_scooter", "name": "17eb5e14e4abeed18325d068211e83cf", "is_disabled": 0, "bike_id": "17eb5e14e4abeed18325d068211e83cf", "lon": -77.02876016666667, "rental_uris": {"android": "https://dc.lft.to/lastmile_qr_scan", "ios": "https://dc.lft.to/lastmile_qr_scan"}, "fusion_lon": 0.0, "is_reserved": 0}, {"lat": 38.860057, "fusion_lat": 0.0, "type": "electric_scooter", "name": "17608dc31b3b95870d1bf6a331c39421", "is_disabled": 0, "bike_id": "17608dc31b3b95870d1bf6a331c39421", "lon": -76.98604483333334, "rental_uris": {"android": "https://dc.lft.to/lastmile_qr_scan", "ios": "https://dc.lft.to/lastmile_qr_scan"}, "fusion_lon": 0.0, "is_reserved": 0}, {"lat": 38.903432333333335, "fusion_lat": 0.0, "type": "electric_scooter", "name": "e97684b865bcb6e0c283fee7c55f9c17", "is_disabled": 0, "bike_id": "e97684b865bcb6e0c283fee7c55f9c17", "lon": -76.986146, "rental_uris": {"android": "https://dc.lft.to/lastmile_qr_scan", "ios": "https://dc.lft.to/lastmile_qr_scan"}, "fusion_lon": 0.0, "is_reserved": 0}, {"lat": 38.8950915, "fusion_lat": 0.0, "type": "electric_scooter", "name": "644f078c729f73ec8552d01ac817d38a", "is_disabled": 0, "bike_id": "644f078c729f73ec8552d01ac817d38a", "lon": -77.02827016666667, "rental_uris": {"android": "https://dc.lft.to/lastmile_qr_scan", "ios": "https://dc.lft.to/lastmile_qr_scan"}, "fusion_lon": 0.0, "is_reserved": 0}, {"lat": 38.877575666666665, "fusion_lat": 0.0, "type": "electric_scooter", "name": "de4bb6ed0aca1b77e6e969b48902d002", "is_disabled": 0, "bike_id": "de4bb6ed0aca1b77e6e969b48902d002", "lon": -77.01778533333334, "rental_uris": {"android": "https://dc.lft.to/lastmile_qr_scan", "ios": "https://dc.lft.to/lastmile_qr_scan"}, "fusion_lon": 0.0, "is_reserved": 0}, {"lat": 38.90607816666667, "fusion_lat": 0.0, "type": "electric_scooter", "name": "b1afc80ae63721affee6520d418dd4e2", "is_disabled": 0, "bike_id": "b1afc80ae63721affee6520d418dd4e2", "lon": -77.0397845, "rental_uris": {"android": "https://dc.lft.to/lastmile_qr_scan", "ios": "https://dc.lft.to/lastmile_qr_scan"}, "fusion_lon": 0.0, "is_reserved": 0}, {"lat": 38.9050715, "fusion_lat": 0.0, "type": "electric_scooter", "name": "8d3ff53ebf6733b181c263593e5d8c53", "is_disabled": 0, "bike_id": "8d3ff53ebf6733b181c263593e5d8c53", "lon": -77.0661495, "rental_uris": {"android": "https://dc.lft.to/lastmile_qr_scan", "ios": "https://dc.lft.to/lastmile_qr_scan"}, "fusion_lon": 0.0, "is_reserved": 0}, {"lat": 38.91113, "fusion_lat": 0.0, "type": "electric_scooter", "name": "19fb4d06a055799cc4a4b2f79f3cb3ae", "is_disabled": 0, "bike_id": "19fb4d06a055799cc4a4b2f79f3cb3ae", "lon": -77.02194783333333, "rental_uris": {"android": "https://dc.lft.to/lastmile_qr_scan", "ios": "https://dc.lft.to/lastmile_qr_scan"}, "fusion_lon": 0.0, "is_reserved": 0}, {"lat": 38.914092, "fusion_lat": 0.0, "type": "electric_scooter", "name": "5e07fc632c3b01aa53c87f9c3963ad1f", "is_disabled": 0, "bike_id": "5e07fc632c3b01aa53c87f9c3963ad1f", "lon": -77.01222766666666, "rental_uris": {"android": "https://dc.lft.to/lastmile_qr_scan", "ios": "https://dc.lft.to/lastmile_qr_scan"}, "fusion_lon": 0.0, "is_reserved": 0}, {"lat": 38.908633, "fusion_lat": 0.0, "type": "electric_scooter", "name": "2d8ceac9561f85a5e91a6d3b632ae755", "is_disabled": 0, "bike_id": "2d8ceac9561f85a5e91a6d3b632ae755", "lon": -76.93341683333334, "rental_uris": {"android": "https://dc.lft.to/lastmile_qr_scan", "ios": "https://dc.lft.to/lastmile_qr_scan"}, "fusion_lon": 0.0, "is_reserved": 0}, {"lat": 38.90130083333333, "fusion_lat": 0.0, "type": "electric_scooter", "name": "dc4bce983af5406c78a6b85033df503c", "is_disabled": 0, "bike_id": "dc4bce983af5406c78a6b85033df503c", "lon": -77.054032, "rental_uris": {"android": "https://dc.lft.to/lastmile_qr_scan", "ios": "https://dc.lft.to/lastmile_qr_scan"}, "fusion_lon": 0.0, "is_reserved": 0}, {"lat": 38.902807333333335, "fusion_lat": 0.0, "type": "electric_scooter", "name": "ceca1a1e39a2f09c0b86db1daca67215", "is_disabled": 0, "bike_id": "ceca1a1e39a2f09c0b86db1daca67215", "lon": -77.02278433333333, "rental_uris": {"android": "https://dc.lft.to/lastmile_qr_scan", "ios": "https://dc.lft.to/lastmile_qr_scan"}, "fusion_lon": 0.0, "is_reserved": 0}, {"lat": 38.9066355, "fusion_lat": 0.0, "type": "electric_scooter", "name": "e5a3651ebf174d632b8a85e528f05eae", "is_disabled": 0, "bike_id": "e5a3651ebf174d632b8a85e528f05eae", "lon": -77.07207833333334, "rental_uris": {"android": "https://dc.lft.to/lastmile_qr_scan", "ios": "https://dc.lft.to/lastmile_qr_scan"}, "fusion_lon": 0.0, "is_reserved": 0}, {"lat": 38.89222733333333, "fusion_lat": 0.0, "type": "electric_scooter", "name": "31ae49fc0a075686ad2d13a43de9d36e", "is_disabled": 0, "bike_id": "31ae49fc0a075686ad2d13a43de9d36e", "lon": -77.023858, "rental_uris": {"android": "https://dc.lft.to/lastmile_qr_scan", "ios": "https://dc.lft.to/lastmile_qr_scan"}, "fusion_lon": 0.0, "is_reserved": 0}, {"lat": 38.93155933333333, "fusion_lat": 0.0, "type": "electric_scooter", "name": "f3f18c775849069a9e1c373656106a88", "is_disabled": 0, "bike_id": "f3f18c775849069a9e1c373656106a88", "lon": -77.0361365, "rental_uris": {"android": "https://dc.lft.to/lastmile_qr_scan", "ios": "https://dc.lft.to/lastmile_qr_scan"}, "fusion_lon": 0.0, "is_reserved": 0}, {"lat": 38.866779333333334, "fusion_lat": 0.0, "type": "electric_scooter", "name": "d9cbce326412f481b2192440b37e5fef", "is_disabled": 0, "bike_id": "d9cbce326412f481b2192440b37e5fef", "lon": -76.98563833333333, "rental_uris": {"android": "https://dc.lft.to/lastmile_qr_scan", "ios": "https://dc.lft.to/lastmile_qr_scan"}, "fusion_lon": 0.0, "is_reserved": 0}, {"lat": 38.90614266666667, "fusion_lat": 0.0, "type": "electric_scooter", "name": "60839a10c23a8fe2acf7a221b51e20f5", "is_disabled": 0, "bike_id": "60839a10c23a8fe2acf7a221b51e20f5", "lon": -77.0006285, "rental_uris": {"android": "https://dc.lft.to/lastmile_qr_scan", "ios": "https://dc.lft.to/lastmile_qr_scan"}, "fusion_lon": 0.0, "is_reserved": 0}, {"lat": 38.924398, "fusion_lat": 0.0, "type": "electric_scooter", "name": "f0df073fa82327ad9c24b54acfa9362b", "is_disabled": 0, "bike_id": "f0df073fa82327ad9c24b54acfa9362b", "lon": -77.03401666666667, "rental_uris": {"android": "https://dc.lft.to/lastmile_qr_scan", "ios": "https://dc.lft.to/lastmile_qr_scan"}, "fusion_lon": 0.0, "is_reserved": 0}, {"lat": 38.876341, "fusion_lat": 0.0, "type": "electric_scooter", "name": "bbd8b4217f24c8ebd1f54553eca03be0", "is_disabled": 0, "bike_id": "bbd8b4217f24c8ebd1f54553eca03be0", "lon": -77.00579066666667, "rental_uris": {"android": "https://dc.lft.to/lastmile_qr_scan", "ios": "https://dc.lft.to/lastmile_qr_scan"}, "fusion_lon": 0.0, "is_reserved": 0}, {"lat": 38.90568583333334, "fusion_lat": 0.0, "type": "electric_scooter", "name": "372059636fefa4cf41eb7d0c4c698c67", "is_disabled": 0, "bike_id": "372059636fefa4cf41eb7d0c4c698c67", "lon": -77.04352333333334, "rental_uris": {"android": "https://dc.lft.to/lastmile_qr_scan", "ios": "https://dc.lft.to/lastmile_qr_scan"}, "fusion_lon": 0.0, "is_reserved": 0}, {"lat": 38.930576, "fusion_lat": 0.0, "type": "electric_scooter", "name": "49cbc6387dd1ffbee19db6440ad5a638", "is_disabled": 0, "bike_id": "49cbc6387dd1ffbee19db6440ad5a638", "lon": -77.02792316666667, "rental_uris": {"android": "https://dc.lft.to/lastmile_qr_scan", "ios": "https://dc.lft.to/lastmile_qr_scan"}, "fusion_lon": 0.0, "is_reserved": 0}, {"lat": 38.842890833333335, "fusion_lat": 0.0, "type": "electric_scooter", "name": "eb5cb7c7787286fe026f9f761f415e0b", "is_disabled": 0, "bike_id": "eb5cb7c7787286fe026f9f761f415e0b", "lon": -76.9994865, "rental_uris": {"android": "https://dc.lft.to/lastmile_qr_scan", "ios": "https://dc.lft.to/lastmile_qr_scan"}, "fusion_lon": 0.0, "is_reserved": 0}, {"lat": 38.90232683333333, "fusion_lat": 0.0, "type": "electric_scooter", "name": "53577ae156dacb31f8a1ec55483e95da", "is_disabled": 0, "bike_id": "53577ae156dacb31f8a1ec55483e95da", "lon": -77.01710366666667, "rental_uris": {"android": "https://dc.lft.to/lastmile_qr_scan", "ios": "https://dc.lft.to/lastmile_qr_scan"}, "fusion_lon": 0.0, "is_reserved": 0}, {"lat": 38.902399, "fusion_lat": 0.0, "type": "electric_scooter", "name": "f3fc227f66e567aa81afe7046f3e62ec", "is_disabled": 0, "bike_id": "f3fc227f66e567aa81afe7046f3e62ec", "lon": -76.97443233333334, "rental_uris": {"android": "https://dc.lft.to/lastmile_qr_scan", "ios": "https://dc.lft.to/lastmile_qr_scan"}, "fusion_lon": 0.0, "is_reserved": 0}, {"lat": 38.900657833333334, "fusion_lat": 0.0, "type": "electric_scooter", "name": "61838a8f1322455793454f9dc0187197", "is_disabled": 0, "bike_id": "61838a8f1322455793454f9dc0187197", "lon": -77.0506655, "rental_uris": {"android": "https://dc.lft.to/lastmile_qr_scan", "ios": "https://dc.lft.to/lastmile_qr_scan"}, "fusion_lon": 0.0, "is_reserved": 0}, {"lat": 38.941608, "fusion_lat": 0.0, "type": "electric_scooter", "name": "1bb6abb92d4e20f75240a8ced71fe00b", "is_disabled": 0, "bike_id": "1bb6abb92d4e20f75240a8ced71fe00b", "lon": -77.02559, "rental_uris": {"android": "https://dc.lft.to/lastmile_qr_scan", "ios": "https://dc.lft.to/lastmile_qr_scan"}, "fusion_lon": 0.0, "is_reserved": 0}, {"lat": 38.941196833333336, "fusion_lat": 0.0, "type": "electric_scooter", "name": "a97f07d8c232d6ee4831b98cb838a7e4", "is_disabled": 0, "bike_id": "a97f07d8c232d6ee4831b98cb838a7e4", "lon": -77.07735166666667, "rental_uris": {"android": "https://dc.lft.to/lastmile_qr_scan", "ios": "https://dc.lft.to/lastmile_qr_scan"}, "fusion_lon": 0.0, "is_reserved": 0}, {"lat": 38.92356316666667, "fusion_lat": 0.0, "type": "electric_scooter", "name": "25d93ef56cce17f8458036db0b2b5535", "is_disabled": 0, "bike_id": "25d93ef56cce17f8458036db0b2b5535", "lon": -77.05108066666666, "rental_uris": {"android": "https://dc.lft.to/lastmile_qr_scan", "ios": "https://dc.lft.to/lastmile_qr_scan"}, "fusion_lon": 0.0, "is_reserved": 0}, {"lat": 38.9141385, "fusion_lat": 0.0, "type": "electric_scooter", "name": "cde6fb1f505a3cf51e5c4063ac19ecef", "is_disabled": 0, "bike_id": "cde6fb1f505a3cf51e5c4063ac19ecef", "lon": -77.02275716666666, "rental_uris": {"android": "https://dc.lft.to/lastmile_qr_scan", "ios": "https://dc.lft.to/lastmile_qr_scan"}, "fusion_lon": 0.0, "is_reserved": 0}, {"lat": 38.938358666666666, "fusion_lat": 0.0, "type": "electric_scooter", "name": "c91af50cdd1ecd7f8097a94f98a2050b", "is_disabled": 0, "bike_id": "c91af50cdd1ecd7f8097a94f98a2050b", "lon": -77.02495433333333, "rental_uris": {"android": "https://dc.lft.to/lastmile_qr_scan", "ios": "https://dc.lft.to/lastmile_qr_scan"}, "fusion_lon": 0.0, "is_reserved": 0}, {"lat": 38.904362166666665, "fusion_lat": 0.0, "type": "electric_scooter", "name": "2a86e0f706d2e5f504c3e6e082177b4f", "is_disabled": 0, "bike_id": "2a86e0f706d2e5f504c3e6e082177b4f", "lon": -76.9831895, "rental_uris": {"android": "https://dc.lft.to/lastmile_qr_scan", "ios": "https://dc.lft.to/lastmile_qr_scan"}, "fusion_lon": 0.0, "is_reserved": 0}, {"lat": 38.894643333333335, "fusion_lat": 0.0, "type": "electric_scooter", "name": "23235141d66c8e006d82e834a0123879", "is_disabled": 0, "bike_id": "23235141d66c8e006d82e834a0123879", "lon": -77.0035, "rental_uris": {"android": "https://dc.lft.to/lastmile_qr_scan", "ios": "https://dc.lft.to/lastmile_qr_scan"}, "fusion_lon": 0.0, "is_reserved": 0}, {"lat": 38.8951135, "fusion_lat": 0.0, "type": "electric_scooter", "name": "e0c50067ea78b3cbe61103c21ef2155b", "is_disabled": 0, "bike_id": "e0c50067ea78b3cbe61103c21ef2155b", "lon": -77.002123, "rental_uris": {"android": "https://dc.lft.to/lastmile_qr_scan", "ios": "https://dc.lft.to/lastmile_qr_scan"}, "fusion_lon": 0.0, "is_reserved": 0}, {"lat": 38.911295333333335, "fusion_lat": 0.0, "type": "electric_scooter", "name": "ad29615d581b76152a2f41d34a4ea72b", "is_disabled": 0, "bike_id": "ad29615d581b76152a2f41d34a4ea72b", "lon": -77.03656683333334, "rental_uris": {"android": "https://dc.lft.to/lastmile_qr_scan", "ios": "https://dc.lft.to/lastmile_qr_scan"}, "fusion_lon": 0.0, "is_reserved": 0}, {"lat": 38.90233516666667, "fusion_lat": 0.0, "type": "electric_scooter", "name": "29eea2556baf1a13d5e8c0b00e58e1ad", "is_disabled": 0, "bike_id": "29eea2556baf1a13d5e8c0b00e58e1ad", "lon": -77.01686033333333, "rental_uris": {"android": "https://dc.lft.to/lastmile_qr_scan", "ios": "https://dc.lft.to/lastmile_qr_scan"}, "fusion_lon": 0.0, "is_reserved": 0}, {"lat": 38.916972, "fusion_lat": 0.0, "type": "electric_scooter", "name": "8f50c38e5b6d2a7f1d1f8def1f55cff9", "is_disabled": 0, "bike_id": "8f50c38e5b6d2a7f1d1f8def1f55cff9", "lon": -77.03464466666667, "rental_uris": {"android": "https://dc.lft.to/lastmile_qr_scan", "ios": "https://dc.lft.to/lastmile_qr_scan"}, "fusion_lon": 0.0, "is_reserved": 0}, {"lat": 38.90251816666667, "fusion_lat": 0.0, "type": "electric_scooter", "name": "42271c58e53208ac42dc98d1758d3cc6", "is_disabled": 0, "bike_id": "42271c58e53208ac42dc98d1758d3cc6", "lon": -77.04178016666667, "rental_uris": {"android": "https://dc.lft.to/lastmile_qr_scan", "ios": "https://dc.lft.to/lastmile_qr_scan"}, "fusion_lon": 0.0, "is_reserved": 0}, {"lat": 38.8766175, "fusion_lat": 0.0, "type": "electric_scooter", "name": "1a3969803c6d8b9bcef58cd7ece67b58", "is_disabled": 0, "bike_id": "1a3969803c6d8b9bcef58cd7ece67b58", "lon": -77.00567666666667, "rental_uris": {"android": "https://dc.lft.to/lastmile_qr_scan", "ios": "https://dc.lft.to/lastmile_qr_scan"}, "fusion_lon": 0.0, "is_reserved": 0}, {"lat": 38.887647333333334, "fusion_lat": 0.0, "type": "electric_scooter", "name": "1a35f821af470d6b80affa2654e47b6a", "is_disabled": 0, "bike_id": "1a35f821af470d6b80affa2654e47b6a", "lon": -77.0263055, "rental_uris": {"android": "https://dc.lft.to/lastmile_qr_scan", "ios": "https://dc.lft.to/lastmile_qr_scan"}, "fusion_lon": 0.0, "is_reserved": 0}, {"lat": 38.925162, "fusion_lat": 0.0, "type": "electric_scooter", "name": "0ae3d292ba329f2e4b9009c278bc4e52", "is_disabled": 0, "bike_id": "0ae3d292ba329f2e4b9009c278bc4e52", "lon": -77.05132133333333, "rental_uris": {"android": "https://dc.lft.to/lastmile_qr_scan", "ios": "https://dc.lft.to/lastmile_qr_scan"}, "fusion_lon": 0.0, "is_reserved": 0}, {"lat": 38.892169833333334, "fusion_lat": 0.0, "type": "electric_scooter", "name": "c6d1c2251560f0355b6b11e5c3204301", "is_disabled": 0, "bike_id": "c6d1c2251560f0355b6b11e5c3204301", "lon": -77.02411616666667, "rental_uris": {"android": "https://dc.lft.to/lastmile_qr_scan", "ios": "https://dc.lft.to/lastmile_qr_scan"}, "fusion_lon": 0.0, "is_reserved": 0}, {"lat": 38.90313166666667, "fusion_lat": 0.0, "type": "electric_scooter", "name": "94e2f228dc68170eef10f6680b8aff09", "is_disabled": 0, "bike_id": "94e2f228dc68170eef10f6680b8aff09", "lon": -77.034451, "rental_uris": {"android": "https://dc.lft.to/lastmile_qr_scan", "ios": "https://dc.lft.to/lastmile_qr_scan"}, "fusion_lon": 0.0, "is_reserved": 0}, {"lat": 38.871673666666666, "fusion_lat": 0.0, "type": "electric_scooter", "name": "038311085bd3fc6594f19bfc4bd425b4", "is_disabled": 0, "bike_id": "038311085bd3fc6594f19bfc4bd425b4", "lon": -77.00680733333333, "rental_uris": {"android": "https://dc.lft.to/lastmile_qr_scan", "ios": "https://dc.lft.to/lastmile_qr_scan"}, "fusion_lon": 0.0, "is_reserved": 0}, {"lat": 38.95746583333333, "fusion_lat": 0.0, "type": "electric_scooter", "name": "3968aca6fc0e620c7454f1e355dc75c4", "is_disabled": 0, "bike_id": "3968aca6fc0e620c7454f1e355dc75c4", "lon": -77.02211166666666, "rental_uris": {"android": "https://dc.lft.to/lastmile_qr_scan", "ios": "https://dc.lft.to/lastmile_qr_scan"}, "fusion_lon": 0.0, "is_reserved": 0}, {"lat": 38.899501, "fusion_lat": 0.0, "type": "electric_scooter", "name": "9be695fa028719103555f0d496848e20", "is_disabled": 0, "bike_id": "9be695fa028719103555f0d496848e20", "lon": -77.04266833333334, "rental_uris": {"android": "https://dc.lft.to/lastmile_qr_scan", "ios": "https://dc.lft.to/lastmile_qr_scan"}, "fusion_lon": 0.0, "is_reserved": 0}, {"lat": 38.89340966666666, "fusion_lat": 0.0, "type": "electric_scooter", "name": "99f60908e25466061135870f1f037b45", "is_disabled": 0, "bike_id": "99f60908e25466061135870f1f037b45", "lon": -76.93971116666667, "rental_uris": {"android": "https://dc.lft.to/lastmile_qr_scan", "ios": "https://dc.lft.to/lastmile_qr_scan"}, "fusion_lon": 0.0, "is_reserved": 0}, {"lat": 38.87468633333334, "fusion_lat": 0.0, "type": "electric_scooter", "name": "adacc2b1eb4d01dfa2498957099cb9fc", "is_disabled": 0, "bike_id": "adacc2b1eb4d01dfa2498957099cb9fc", "lon": -77.00515983333334, "rental_uris": {"android": "https://dc.lft.to/lastmile_qr_scan", "ios": "https://dc.lft.to/lastmile_qr_scan"}, "fusion_lon": 0.0, "is_reserved": 0}, {"lat": 38.89726133333333, "fusion_lat": 0.0, "type": "electric_scooter", "name": "34846dc09331db776130f1b91c385766", "is_disabled": 0, "bike_id": "34846dc09331db776130f1b91c385766", "lon": -77.021695, "rental_uris": {"android": "https://dc.lft.to/lastmile_qr_scan", "ios": "https://dc.lft.to/lastmile_qr_scan"}, "fusion_lon": 0.0, "is_reserved": 0}, {"lat": 38.90457966666666, "fusion_lat": 0.0, "type": "electric_scooter", "name": "e2b9a769860fa8224519a0a932de05cf", "is_disabled": 0, "bike_id": "e2b9a769860fa8224519a0a932de05cf", "lon": -77.0435045, "rental_uris": {"android": "https://dc.lft.to/lastmile_qr_scan", "ios": "https://dc.lft.to/lastmile_qr_scan"}, "fusion_lon": 0.0, "is_reserved": 0}, {"lat": 38.94434533333333, "fusion_lat": 0.0, "type": "electric_scooter", "name": "8590ec6498a241dfc0399a4ba87c5a30", "is_disabled": 0, "bike_id": "8590ec6498a241dfc0399a4ba87c5a30", "lon": -77.06410533333333, "rental_uris": {"android": "https://dc.lft.to/lastmile_qr_scan", "ios": "https://dc.lft.to/lastmile_qr_scan"}, "fusion_lon": 0.0, "is_reserved": 0}, {"lat": 38.914973833333335, "fusion_lat": 0.0, "type": "electric_scooter", "name": "1aec9458698cafa959e117ab464f22d6", "is_disabled": 0, "bike_id": "1aec9458698cafa959e117ab464f22d6", "lon": -76.983523, "rental_uris": {"android": "https://dc.lft.to/lastmile_qr_scan", "ios": "https://dc.lft.to/lastmile_qr_scan"}, "fusion_lon": 0.0, "is_reserved": 0}, {"lat": 38.93269633333333, "fusion_lat": 0.0, "type": "electric_scooter", "name": "892ebfe0f5de707f17b123c47a20a25f", "is_disabled": 0, "bike_id": "892ebfe0f5de707f17b123c47a20a25f", "lon": -77.03869916666666, "rental_uris": {"android": "https://dc.lft.to/lastmile_qr_scan", "ios": "https://dc.lft.to/lastmile_qr_scan"}, "fusion_lon": 0.0, "is_reserved": 0}, {"lat": 38.9131655, "fusion_lat": 0.0, "type": "electric_scooter", "name": "bed46267ada3b14c0d1a4b164d9cafed", "is_disabled": 0, "bike_id": "bed46267ada3b14c0d1a4b164d9cafed", "lon": -77.01515066666667, "rental_uris": {"android": "https://dc.lft.to/lastmile_qr_scan", "ios": "https://dc.lft.to/lastmile_qr_scan"}, "fusion_lon": 0.0, "is_reserved": 0}, {"lat": 38.9226435, "fusion_lat": 0.0, "type": "electric_scooter", "name": "27209aa3110b3609809e7b08e29732dd", "is_disabled": 0, "bike_id": "27209aa3110b3609809e7b08e29732dd", "lon": -77.03406766666667, "rental_uris": {"android": "https://dc.lft.to/lastmile_qr_scan", "ios": "https://dc.lft.to/lastmile_qr_scan"}, "fusion_lon": 0.0, "is_reserved": 0}, {"lat": 38.90471633333333, "fusion_lat": 0.0, "type": "electric_scooter", "name": "7cc1839a62c137646dfefbe4bc3cedfb", "is_disabled": 0, "bike_id": "7cc1839a62c137646dfefbe4bc3cedfb", "lon": -77.03863933333334, "rental_uris": {"android": "https://dc.lft.to/lastmile_qr_scan", "ios": "https://dc.lft.to/lastmile_qr_scan"}, "fusion_lon": 0.0, "is_reserved": 0}, {"lat": 38.90801416666667, "fusion_lat": 0.0, "type": "electric_scooter", "name": "321730fcb24143cfd0ce9b7d61baee77", "is_disabled": 0, "bike_id": "321730fcb24143cfd0ce9b7d61baee77", "lon": -77.0428795, "rental_uris": {"android": "https://dc.lft.to/lastmile_qr_scan", "ios": "https://dc.lft.to/lastmile_qr_scan"}, "fusion_lon": 0.0, "is_reserved": 0}, {"lat": 38.919559166666666, "fusion_lat": 0.0, "type": "electric_scooter", "name": "87d754cf631c1ac0ae87ed32f30e2edc", "is_disabled": 0, "bike_id": "87d754cf631c1ac0ae87ed32f30e2edc", "lon": -77.0239645, "rental_uris": {"android": "https://dc.lft.to/lastmile_qr_scan", "ios": "https://dc.lft.to/lastmile_qr_scan"}, "fusion_lon": 0.0, "is_reserved": 0}, {"lat": 38.9375185, "fusion_lat": 0.0, "type": "electric_scooter", "name": "45321ac58e1bca891bff0b93a56a33e1", "is_disabled": 0, "bike_id": "45321ac58e1bca891bff0b93a56a33e1", "lon": -77.02530083333333, "rental_uris": {"android": "https://dc.lft.to/lastmile_qr_scan", "ios": "https://dc.lft.to/lastmile_qr_scan"}, "fusion_lon": 0.0, "is_reserved": 0}, {"lat": 38.899063, "fusion_lat": 0.0, "type": "electric_scooter", "name": "66c5e14ba7fb58b78a5d32b4493ddd0d", "is_disabled": 0, "bike_id": "66c5e14ba7fb58b78a5d32b4493ddd0d", "lon": -77.02816283333334, "rental_uris": {"android": "https://dc.lft.to/lastmile_qr_scan", "ios": "https://dc.lft.to/lastmile_qr_scan"}, "fusion_lon": 0.0, "is_reserved": 0}, {"lat": 38.90412283333333, "fusion_lat": 0.0, "type": "electric_scooter", "name": "cc531bce8257abeed39f740da098d2ce", "is_disabled": 0, "bike_id": "cc531bce8257abeed39f740da098d2ce", "lon": -77.0263995, "rental_uris": {"android": "https://dc.lft.to/lastmile_qr_scan", "ios": "https://dc.lft.to/lastmile_qr_scan"}, "fusion_lon": 0.0, "is_reserved": 0}, {"lat": 38.93186716666666, "fusion_lat": 0.0, "type": "electric_scooter", "name": "562c238bdcea23fe700c134eaa1e87be", "is_disabled": 0, "bike_id": "562c238bdcea23fe700c134eaa1e87be", "lon": -77.02828116666667, "rental_uris": {"android": "https://dc.lft.to/lastmile_qr_scan", "ios": "https://dc.lft.to/lastmile_qr_scan"}, "fusion_lon": 0.0, "is_reserved": 0}, {"lat": 38.907866, "fusion_lat": 0.0, "type": "electric_scooter", "name": "dd901483c1de6d3229d36cf791a08b90", "is_disabled": 0, "bike_id": "dd901483c1de6d3229d36cf791a08b90", "lon": -77.02714616666667, "rental_uris": {"android": "https://dc.lft.to/lastmile_qr_scan", "ios": "https://dc.lft.to/lastmile_qr_scan"}, "fusion_lon": 0.0, "is_reserved": 0}, {"lat": 38.92026, "fusion_lat": 0.0, "type": "electric_scooter", "name": "878d9afe91a6034b74f556e8571d2f02", "is_disabled": 0, "bike_id": "878d9afe91a6034b74f556e8571d2f02", "lon": -77.01023333333333, "rental_uris": {"android": "https://dc.lft.to/lastmile_qr_scan", "ios": "https://dc.lft.to/lastmile_qr_scan"}, "fusion_lon": 0.0, "is_reserved": 0}, {"lat": 38.89990316666667, "fusion_lat": 0.0, "type": "electric_scooter", "name": "5ff5abe42a0f664cb03ef2421fa88af5", "is_disabled": 0, "bike_id": "5ff5abe42a0f664cb03ef2421fa88af5", "lon": -76.98134483333334, "rental_uris": {"android": "https://dc.lft.to/lastmile_qr_scan", "ios": "https://dc.lft.to/lastmile_qr_scan"}, "fusion_lon": 0.0, "is_reserved": 0}, {"lat": 38.89888216666667, "fusion_lat": 0.0, "type": "electric_scooter", "name": "402ef5ea46aeed2fbd80046050412fcf", "is_disabled": 0, "bike_id": "402ef5ea46aeed2fbd80046050412fcf", "lon": -77.032951, "rental_uris": {"android": "https://dc.lft.to/lastmile_qr_scan", "ios": "https://dc.lft.to/lastmile_qr_scan"}, "fusion_lon": 0.0, "is_reserved": 0}, {"lat": 38.866553, "fusion_lat": 0.0, "type": "electric_scooter", "name": "f05f8c543d491f637ed63e31d13d87d4", "is_disabled": 0, "bike_id": "f05f8c543d491f637ed63e31d13d87d4", "lon": -76.98883983333333, "rental_uris": {"android": "https://dc.lft.to/lastmile_qr_scan", "ios": "https://dc.lft.to/lastmile_qr_scan"}, "fusion_lon": 0.0, "is_reserved": 0}, {"lat": 38.90250833333333, "fusion_lat": 0.0, "type": "electric_scooter", "name": "497e7e471622dc56ea95d5eec6316c0c", "is_disabled": 0, "bike_id": "497e7e471622dc56ea95d5eec6316c0c", "lon": -77.0342835, "rental_uris": {"android": "https://dc.lft.to/lastmile_qr_scan", "ios": "https://dc.lft.to/lastmile_qr_scan"}, "fusion_lon": 0.0, "is_reserved": 0}, {"lat": 38.890405333333334, "fusion_lat": 0.0, "type": "electric_scooter", "name": "1a3608c8512267f6146cf5d8fb5a2abe", "is_disabled": 0, "bike_id": "1a3608c8512267f6146cf5d8fb5a2abe", "lon": -76.95246833333333, "rental_uris": {"android": "https://dc.lft.to/lastmile_qr_scan", "ios": "https://dc.lft.to/lastmile_qr_scan"}, "fusion_lon": 0.0, "is_reserved": 0}, {"lat": 38.901695333333336, "fusion_lat": 0.0, "type": "electric_scooter", "name": "1ee5e4ef1feb72191a8be40d126332c4", "is_disabled": 0, "bike_id": "1ee5e4ef1feb72191a8be40d126332c4", "lon": -76.92659983333333, "rental_uris": {"android": "https://dc.lft.to/lastmile_qr_scan", "ios": "https://dc.lft.to/lastmile_qr_scan"}, "fusion_lon": 0.0, "is_reserved": 0}, {"lat": 38.9230395, "fusion_lat": 0.0, "type": "electric_scooter", "name": "6dfcefef03b5eb819ed3c8181269cbc5", "is_disabled": 0, "bike_id": "6dfcefef03b5eb819ed3c8181269cbc5", "lon": -77.02257633333333, "rental_uris": {"android": "https://dc.lft.to/lastmile_qr_scan", "ios": "https://dc.lft.to/lastmile_qr_scan"}, "fusion_lon": 0.0, "is_reserved": 0}, {"lat": 38.90973416666667, "fusion_lat": 0.0, "type": "electric_scooter", "name": "88a23a7b6596ae1b29101e389657b04d", "is_disabled": 0, "bike_id": "88a23a7b6596ae1b29101e389657b04d", "lon": -77.03645033333333, "rental_uris": {"android": "https://dc.lft.to/lastmile_qr_scan", "ios": "https://dc.lft.to/lastmile_qr_scan"}, "fusion_lon": 0.0, "is_reserved": 0}, {"lat": 38.89971083333333, "fusion_lat": 0.0, "type": "electric_scooter", "name": "7c531fff28f32270df10f9045e6ddc9d", "is_disabled": 0, "bike_id": "7c531fff28f32270df10f9045e6ddc9d", "lon": -77.02935016666666, "rental_uris": {"android": "https://dc.lft.to/lastmile_qr_scan", "ios": "https://dc.lft.to/lastmile_qr_scan"}, "fusion_lon": 0.0, "is_reserved": 0}, {"lat": 38.908042333333334, "fusion_lat": 0.0, "type": "electric_scooter", "name": "ddee8047f484a87a950fb38475fd8d48", "is_disabled": 0, "bike_id": "ddee8047f484a87a950fb38475fd8d48", "lon": -77.04505766666666, "rental_uris": {"android": "https://dc.lft.to/lastmile_qr_scan", "ios": "https://dc.lft.to/lastmile_qr_scan"}, "fusion_lon": 0.0, "is_reserved": 0}, {"lat": 38.896946, "fusion_lat": 0.0, "type": "electric_scooter", "name": "875037e3b6419d489654540b7c5205fc", "is_disabled": 0, "bike_id": "875037e3b6419d489654540b7c5205fc", "lon": -77.04659733333334, "rental_uris": {"android": "https://dc.lft.to/lastmile_qr_scan", "ios": "https://dc.lft.to/lastmile_qr_scan"}, "fusion_lon": 0.0, "is_reserved": 0}, {"lat": 38.895992166666666, "fusion_lat": 0.0, "type": "electric_scooter", "name": "c5a5a122fd3ef822caec46b7d5aa6ad0", "is_disabled": 0, "bike_id": "c5a5a122fd3ef822caec46b7d5aa6ad0", "lon": -77.04461383333333, "rental_uris": {"android": "https://dc.lft.to/lastmile_qr_scan", "ios": "https://dc.lft.to/lastmile_qr_scan"}, "fusion_lon": 0.0, "is_reserved": 0}, {"lat": 38.8992785, "fusion_lat": 0.0, "type": "electric_scooter", "name": "cf09c2b1d469352dd4185515249b16ff", "is_disabled": 0, "bike_id": "cf09c2b1d469352dd4185515249b16ff", "lon": -77.03293333333333, "rental_uris": {"android": "https://dc.lft.to/lastmile_qr_scan", "ios": "https://dc.lft.to/lastmile_qr_scan"}, "fusion_lon": 0.0, "is_reserved": 0}, {"lat": 38.9216635, "fusion_lat": 0.0, "type": "electric_scooter", "name": "59903f448e1f0d0d324793f47e39443f", "is_disabled": 0, "bike_id": "59903f448e1f0d0d324793f47e39443f", "lon": -77.04232333333333, "rental_uris": {"android": "https://dc.lft.to/lastmile_qr_scan", "ios": "https://dc.lft.to/lastmile_qr_scan"}, "fusion_lon": 0.0, "is_reserved": 0}, {"lat": 38.9198785, "fusion_lat": 0.0, "type": "electric_scooter", "name": "4302888165976c0bf242db27ea0c0402", "is_disabled": 0, "bike_id": "4302888165976c0bf242db27ea0c0402", "lon": -77.03799566666666, "rental_uris": {"android": "https://dc.lft.to/lastmile_qr_scan", "ios": "https://dc.lft.to/lastmile_qr_scan"}, "fusion_lon": 0.0, "is_reserved": 0}, {"lat": 38.89542633333333, "fusion_lat": 0.0, "type": "electric_scooter", "name": "c0fa643c77869348d009ca162da126aa", "is_disabled": 0, "bike_id": "c0fa643c77869348d009ca162da126aa", "lon": -77.01104233333334, "rental_uris": {"android": "https://dc.lft.to/lastmile_qr_scan", "ios": "https://dc.lft.to/lastmile_qr_scan"}, "fusion_lon": 0.0, "is_reserved": 0}, {"lat": 38.90577566666666, "fusion_lat": 0.0, "type": "electric_scooter", "name": "a3c442e2e2b49125f83f721391ec1605", "is_disabled": 0, "bike_id": "a3c442e2e2b49125f83f721391ec1605", "lon": -77.00896, "rental_uris": {"android": "https://dc.lft.to/lastmile_qr_scan", "ios": "https://dc.lft.to/lastmile_qr_scan"}, "fusion_lon": 0.0, "is_reserved": 0}, {"lat": 38.911126833333334, "fusion_lat": 0.0, "type": "electric_scooter", "name": "85362ce927ce0ef6b5167f6e63335a8f", "is_disabled": 0, "bike_id": "85362ce927ce0ef6b5167f6e63335a8f", "lon": -77.02192966666667, "rental_uris": {"android": "https://dc.lft.to/lastmile_qr_scan", "ios": "https://dc.lft.to/lastmile_qr_scan"}, "fusion_lon": 0.0, "is_reserved": 0}, {"lat": 38.909639166666665, "fusion_lat": 0.0, "type": "electric_scooter", "name": "b78934c00488d713486b95113c76869c", "is_disabled": 0, "bike_id": "b78934c00488d713486b95113c76869c", "lon": -77.02173483333333, "rental_uris": {"android": "https://dc.lft.to/lastmile_qr_scan", "ios": "https://dc.lft.to/lastmile_qr_scan"}, "fusion_lon": 0.0, "is_reserved": 0}, {"lat": 38.84296033333333, "fusion_lat": 0.0, "type": "electric_scooter", "name": "83bdb53362937a9484254c16941a1133", "is_disabled": 0, "bike_id": "83bdb53362937a9484254c16941a1133", "lon": -76.999476, "rental_uris": {"android": "https://dc.lft.to/lastmile_qr_scan", "ios": "https://dc.lft.to/lastmile_qr_scan"}, "fusion_lon": 0.0, "is_reserved": 0}, {"lat": 38.905207833333336, "fusion_lat": 0.0, "type": "electric_scooter", "name": "04399e29154314bcbed7d083c2ef6282", "is_disabled": 0, "bike_id": "04399e29154314bcbed7d083c2ef6282", "lon": -77.06423616666666, "rental_uris": {"android": "https://dc.lft.to/lastmile_qr_scan", "ios": "https://dc.lft.to/lastmile_qr_scan"}, "fusion_lon": 0.0, "is_reserved": 0}, {"lat": 38.915702833333334, "fusion_lat": 0.0, "type": "electric_scooter", "name": "41ae289a2c4215eda5bed36608f99611", "is_disabled": 0, "bike_id": "41ae289a2c4215eda5bed36608f99611", "lon": -77.01999066666667, "rental_uris": {"android": "https://dc.lft.to/lastmile_qr_scan", "ios": "https://dc.lft.to/lastmile_qr_scan"}, "fusion_lon": 0.0, "is_reserved": 0}, {"lat": 38.887217, "fusion_lat": 0.0, "type": "electric_bike", "name": "ba827c6f928e67caf8c809ffcef58d90", "is_disabled": 0, "bike_id": "ba827c6f928e67caf8c809ffcef58d90", "lon": -77.13308416666666, "rental_uris": {"android": "https://dc.lft.to/lastmile_qr_scan", "ios": "https://dc.lft.to/lastmile_qr_scan"}, "fusion_lon": 0.0, "is_reserved": 0}, {"lat": 38.89603233333333, "fusion_lat": 0.0, "type": "electric_scooter", "name": "ff5c7e36c6ab1d1643249a82f12f43c5", "is_disabled": 0, "bike_id": "ff5c7e36c6ab1d1643249a82f12f43c5", "lon": -77.00926366666667, "rental_uris": {"android": "https://dc.lft.to/lastmile_qr_scan", "ios": "https://dc.lft.to/lastmile_qr_scan"}, "fusion_lon": 0.0, "is_reserved": 0}, {"lat": 38.91540633333334, "fusion_lat": 0.0, "type": "electric_scooter", "name": "9feafff174aba26c334973edb64fc218", "is_disabled": 0, "bike_id": "9feafff174aba26c334973edb64fc218", "lon": -77.0127265, "rental_uris": {"android": "https://dc.lft.to/lastmile_qr_scan", "ios": "https://dc.lft.to/lastmile_qr_scan"}, "fusion_lon": 0.0, "is_reserved": 0}, {"lat": 38.883614, "fusion_lat": 0.0, "type": "electric_scooter", "name": "7a58138e85dbb38cebb5a3ca1181e4ae", "is_disabled": 0, "bike_id": "7a58138e85dbb38cebb5a3ca1181e4ae", "lon": -76.941563, "rental_uris": {"android": "https://dc.lft.to/lastmile_qr_scan", "ios": "https://dc.lft.to/lastmile_qr_scan"}, "fusion_lon": 0.0, "is_reserved": 0}, {"lat": 38.9180375, "fusion_lat": 0.0, "type": "electric_scooter", "name": "6dcfe35946fd42d566add2c4a22c78b4", "is_disabled": 0, "bike_id": "6dcfe35946fd42d566add2c4a22c78b4", "lon": -77.06826666666667, "rental_uris": {"android": "https://dc.lft.to/lastmile_qr_scan", "ios": "https://dc.lft.to/lastmile_qr_scan"}, "fusion_lon": 0.0, "is_reserved": 0}, {"lat": 38.905135333333334, "fusion_lat": 0.0, "type": "electric_scooter", "name": "a06da38414b155bc6bbd3f9d1ec482a1", "is_disabled": 0, "bike_id": "a06da38414b155bc6bbd3f9d1ec482a1", "lon": -77.01889766666666, "rental_uris": {"android": "https://dc.lft.to/lastmile_qr_scan", "ios": "https://dc.lft.to/lastmile_qr_scan"}, "fusion_lon": 0.0, "is_reserved": 0}, {"lat": 38.917061, "fusion_lat": 0.0, "type": "electric_scooter", "name": "3133bb243f87df96bad86ae5dfebf1ca", "is_disabled": 0, "bike_id": "3133bb243f87df96bad86ae5dfebf1ca", "lon": -77.03463783333333, "rental_uris": {"android": "https://dc.lft.to/lastmile_qr_scan", "ios": "https://dc.lft.to/lastmile_qr_scan"}, "fusion_lon": 0.0, "is_reserved": 0}, {"lat": 38.94182083333333, "fusion_lat": 0.0, "type": "electric_scooter", "name": "6fd8492ae1464eb6ca825c08c581c135", "is_disabled": 0, "bike_id": "6fd8492ae1464eb6ca825c08c581c135", "lon": -77.02489583333333, "rental_uris": {"android": "https://dc.lft.to/lastmile_qr_scan", "ios": "https://dc.lft.to/lastmile_qr_scan"}, "fusion_lon": 0.0, "is_reserved": 0}, {"lat": 38.89524816666667, "fusion_lat": 0.0, "type": "electric_scooter", "name": "9c682acf6d5fbf88a461f2794afc88fc", "is_disabled": 0, "bike_id": "9c682acf6d5fbf88a461f2794afc88fc", "lon": -77.00204383333333, "rental_uris": {"android": "https://dc.lft.to/lastmile_qr_scan", "ios": "https://dc.lft.to/lastmile_qr_scan"}, "fusion_lon": 0.0, "is_reserved": 0}, {"lat": 38.922165166666666, "fusion_lat": 0.0, "type": "electric_scooter", "name": "fec5545ce73c45cf920ef585602df797", "is_disabled": 0, "bike_id": "fec5545ce73c45cf920ef585602df797", "lon": -77.04242333333333, "rental_uris": {"android": "https://dc.lft.to/lastmile_qr_scan", "ios": "https://dc.lft.to/lastmile_qr_scan"}, "fusion_lon": 0.0, "is_reserved": 0}, {"lat": 38.904675, "fusion_lat": 0.0, "type": "electric_scooter", "name": "9ad088d50a2db2018b60af1318d35421", "is_disabled": 0, "bike_id": "9ad088d50a2db2018b60af1318d35421", "lon": -77.04478183333333, "rental_uris": {"android": "https://dc.lft.to/lastmile_qr_scan", "ios": "https://dc.lft.to/lastmile_qr_scan"}, "fusion_lon": 0.0, "is_reserved": 0}, {"lat": 38.938790833333336, "fusion_lat": 0.0, "type": "electric_bike", "name": "de0df2a950a909690f0bdd9e1b6cc03f", "is_disabled": 0, "bike_id": "de0df2a950a909690f0bdd9e1b6cc03f", "lon": -76.99033916666667, "rental_uris": {"android": "https://dc.lft.to/lastmile_qr_scan", "ios": "https://dc.lft.to/lastmile_qr_scan"}, "fusion_lon": 0.0, "is_reserved": 0}, {"lat": 38.92764316666667, "fusion_lat": 0.0, "type": "electric_scooter", "name": "748917bd6c5c9493049fbeb2e0f87231", "is_disabled": 0, "bike_id": "748917bd6c5c9493049fbeb2e0f87231", "lon": -77.02737866666666, "rental_uris": {"android": "https://dc.lft.to/lastmile_qr_scan", "ios": "https://dc.lft.to/lastmile_qr_scan"}, "fusion_lon": 0.0, "is_reserved": 0}, {"lat": 38.927969, "fusion_lat": 0.0, "type": "electric_scooter", "name": "0d1f0cb23e69c7f9cdb2b08b7429e6e5", "is_disabled": 0, "bike_id": "0d1f0cb23e69c7f9cdb2b08b7429e6e5", "lon": -77.014088, "rental_uris": {"android": "https://dc.lft.to/lastmile_qr_scan", "ios": "https://dc.lft.to/lastmile_qr_scan"}, "fusion_lon": 0.0, "is_reserved": 0}, {"lat": 38.884825, "fusion_lat": 0.0, "type": "electric_scooter", "name": "2be048013416ee086f08f8974c523ac5", "is_disabled": 0, "bike_id": "2be048013416ee086f08f8974c523ac5", "lon": -77.00713383333333, "rental_uris": {"android": "https://dc.lft.to/lastmile_qr_scan", "ios": "https://dc.lft.to/lastmile_qr_scan"}, "fusion_lon": 0.0, "is_reserved": 0}, {"lat": 38.899311166666664, "fusion_lat": 0.0, "type": "electric_scooter", "name": "41401506a532842204bd2b550f4681b4", "is_disabled": 0, "bike_id": "41401506a532842204bd2b550f4681b4", "lon": -77.030979, "rental_uris": {"android": "https://dc.lft.to/lastmile_qr_scan", "ios": "https://dc.lft.to/lastmile_qr_scan"}, "fusion_lon": 0.0, "is_reserved": 0}, {"lat": 38.920245, "fusion_lat": 0.0, "type": "electric_scooter", "name": "e907f66a9927166f92f875543e78d0c0", "is_disabled": 0, "bike_id": "e907f66a9927166f92f875543e78d0c0", "lon": -77.003068, "rental_uris": {"android": "https://dc.lft.to/lastmile_qr_scan", "ios": "https://dc.lft.to/lastmile_qr_scan"}, "fusion_lon": 0.0, "is_reserved": 0}, {"lat": 38.93754283333333, "fusion_lat": 0.0, "type": "electric_scooter", "name": "bc9b47afdb8cdec20554421a05ec60b2", "is_disabled": 0, "bike_id": "bc9b47afdb8cdec20554421a05ec60b2", "lon": -77.03279466666666, "rental_uris": {"android": "https://dc.lft.to/lastmile_qr_scan", "ios": "https://dc.lft.to/lastmile_qr_scan"}, "fusion_lon": 0.0, "is_reserved": 0}, {"lat": 38.924322333333336, "fusion_lat": 0.0, "type": "electric_scooter", "name": "ac2cf10e3d8cdef0f095e5ca53296042", "is_disabled": 0, "bike_id": "ac2cf10e3d8cdef0f095e5ca53296042", "lon": -77.03992933333333, "rental_uris": {"android": "https://dc.lft.to/lastmile_qr_scan", "ios": "https://dc.lft.to/lastmile_qr_scan"}, "fusion_lon": 0.0, "is_reserved": 0}, {"lat": 38.91456016666667, "fusion_lat": 0.0, "type": "electric_scooter", "name": "70179ddcabad0398729146ec75febc89", "is_disabled": 0, "bike_id": "70179ddcabad0398729146ec75febc89", "lon": -77.00211666666667, "rental_uris": {"android": "https://dc.lft.to/lastmile_qr_scan", "ios": "https://dc.lft.to/lastmile_qr_scan"}, "fusion_lon": 0.0, "is_reserved": 0}, {"lat": 38.987644833333334, "fusion_lat": 0.0, "type": "electric_bike", "name": "cc9c335c06fcf4bcd429d8cf37db7df9", "is_disabled": 0, "bike_id": "cc9c335c06fcf4bcd429d8cf37db7df9", "lon": -77.140594, "rental_uris": {"android": "https://dc.lft.to/lastmile_qr_scan", "ios": "https://dc.lft.to/lastmile_qr_scan"}, "fusion_lon": 0.0, "is_reserved": 0}, {"lat": 38.92154016666667, "fusion_lat": 0.0, "type": "electric_scooter", "name": "fd649dfee46b8fc47b065d05a0cf108f", "is_disabled": 0, "bike_id": "fd649dfee46b8fc47b065d05a0cf108f", "lon": -77.04696233333334, "rental_uris": {"android": "https://dc.lft.to/lastmile_qr_scan", "ios": "https://dc.lft.to/lastmile_qr_scan"}, "fusion_lon": 0.0, "is_reserved": 0}, {"lat": 38.86722566666667, "fusion_lat": 0.0, "type": "electric_scooter", "name": "38f7b6039797f74a792df5aa6dde916a", "is_disabled": 0, "bike_id": "38f7b6039797f74a792df5aa6dde916a", "lon": -76.986952, "rental_uris": {"android": "https://dc.lft.to/lastmile_qr_scan", "ios": "https://dc.lft.to/lastmile_qr_scan"}, "fusion_lon": 0.0, "is_reserved": 0}, {"lat": 38.9041055, "fusion_lat": 0.0, "type": "electric_scooter", "name": "37609fe1d64d01f222be71566cb1b86f", "is_disabled": 0, "bike_id": "37609fe1d64d01f222be71566cb1b86f", "lon": -76.97331866666667, "rental_uris": {"android": "https://dc.lft.to/lastmile_qr_scan", "ios": "https://dc.lft.to/lastmile_qr_scan"}, "fusion_lon": 0.0, "is_reserved": 0}, {"lat": 38.921434166666664, "fusion_lat": 0.0, "type": "electric_bike", "name": "c3030565ec17e6502ad923093f1936cc", "is_disabled": 0, "bike_id": "c3030565ec17e6502ad923093f1936cc", "lon": -77.0287155, "rental_uris": {"android": "https://dc.lft.to/lastmile_qr_scan", "ios": "https://dc.lft.to/lastmile_qr_scan"}, "fusion_lon": 0.0, "is_reserved": 0}, {"lat": 38.919131166666666, "fusion_lat": 0.0, "type": "electric_scooter", "name": "521c2f7f74a6bbc2d5e4506ea5f53e28", "is_disabled": 0, "bike_id": "521c2f7f74a6bbc2d5e4506ea5f53e28", "lon": -77.0135025, "rental_uris": {"android": "https://dc.lft.to/lastmile_qr_scan", "ios": "https://dc.lft.to/lastmile_qr_scan"}, "fusion_lon": 0.0, "is_reserved": 0}, {"lat": 38.89236483333333, "fusion_lat": 0.0, "type": "electric_scooter", "name": "954377d143e11e4073d049bc9f10272a", "is_disabled": 0, "bike_id": "954377d143e11e4073d049bc9f10272a", "lon": -77.033451, "rental_uris": {"android": "https://dc.lft.to/lastmile_qr_scan", "ios": "https://dc.lft.to/lastmile_qr_scan"}, "fusion_lon": 0.0, "is_reserved": 0}, {"lat": 38.93154833333333, "fusion_lat": 0.0, "type": "electric_scooter", "name": "36a8b1b81ce84fd93d1fd45327c1716c", "is_disabled": 0, "bike_id": "36a8b1b81ce84fd93d1fd45327c1716c", "lon": -77.0350195, "rental_uris": {"android": "https://dc.lft.to/lastmile_qr_scan", "ios": "https://dc.lft.to/lastmile_qr_scan"}, "fusion_lon": 0.0, "is_reserved": 0}, {"lat": 38.89228333333333, "fusion_lat": 0.0, "type": "electric_scooter", "name": "e5d1cc9084d1fa1778ac2458e6f7a0c3", "is_disabled": 0, "bike_id": "e5d1cc9084d1fa1778ac2458e6f7a0c3", "lon": -77.02592283333334, "rental_uris": {"android": "https://dc.lft.to/lastmile_qr_scan", "ios": "https://dc.lft.to/lastmile_qr_scan"}, "fusion_lon": 0.0, "is_reserved": 0}, {"lat": 38.984343833333334, "fusion_lat": 0.0, "type": "electric_scooter", "name": "faa2bf0a6b826e09624e5ac2e7ed2841", "is_disabled": 0, "bike_id": "faa2bf0a6b826e09624e5ac2e7ed2841", "lon": -77.02656166666667, "rental_uris": {"android": "https://dc.lft.to/lastmile_qr_scan", "ios": "https://dc.lft.to/lastmile_qr_scan"}, "fusion_lon": 0.0, "is_reserved": 0}, {"lat": 38.91673933333333, "fusion_lat": 0.0, "type": "electric_scooter", "name": "5366176d1f4c26818adb7387ab53f944", "is_disabled": 0, "bike_id": "5366176d1f4c26818adb7387ab53f944", "lon": -77.02322, "rental_uris": {"android": "https://dc.lft.to/lastmile_qr_scan", "ios": "https://dc.lft.to/lastmile_qr_scan"}, "fusion_lon": 0.0, "is_reserved": 0}, {"lat": 38.921605166666666, "fusion_lat": 0.0, "type": "electric_scooter", "name": "4268a79352ffc636f125c1f331511cf3", "is_disabled": 0, "bike_id": "4268a79352ffc636f125c1f331511cf3", "lon": -77.03448283333333, "rental_uris": {"android": "https://dc.lft.to/lastmile_qr_scan", "ios": "https://dc.lft.to/lastmile_qr_scan"}, "fusion_lon": 0.0, "is_reserved": 0}, {"lat": 38.913054, "fusion_lat": 0.0, "type": "electric_scooter", "name": "81264c985af4bc0eec29eb954415d51a", "is_disabled": 0, "bike_id": "81264c985af4bc0eec29eb954415d51a", "lon": -76.98488066666667, "rental_uris": {"android": "https://dc.lft.to/lastmile_qr_scan", "ios": "https://dc.lft.to/lastmile_qr_scan"}, "fusion_lon": 0.0, "is_reserved": 0}, {"lat": 38.91905466666667, "fusion_lat": 0.0, "type": "electric_scooter", "name": "da42569de587d97c9ba3408e2019f87d", "is_disabled": 0, "bike_id": "da42569de587d97c9ba3408e2019f87d", "lon": -76.98700766666667, "rental_uris": {"android": "https://dc.lft.to/lastmile_qr_scan", "ios": "https://dc.lft.to/lastmile_qr_scan"}, "fusion_lon": 0.0, "is_reserved": 0}, {"lat": 38.91469216666667, "fusion_lat": 0.0, "type": "electric_scooter", "name": "c82ce65586dbac8fb8c16915795cda3d", "is_disabled": 0, "bike_id": "c82ce65586dbac8fb8c16915795cda3d", "lon": -76.98112483333334, "rental_uris": {"android": "https://dc.lft.to/lastmile_qr_scan", "ios": "https://dc.lft.to/lastmile_qr_scan"}, "fusion_lon": 0.0, "is_reserved": 0}, {"lat": 38.91549966666667, "fusion_lat": 0.0, "type": "electric_scooter", "name": "e95d17e38e7b049837250965ae3af4c7", "is_disabled": 0, "bike_id": "e95d17e38e7b049837250965ae3af4c7", "lon": -77.02365916666666, "rental_uris": {"android": "https://dc.lft.to/lastmile_qr_scan", "ios": "https://dc.lft.to/lastmile_qr_scan"}, "fusion_lon": 0.0, "is_reserved": 0}, {"lat": 38.920773, "fusion_lat": 0.0, "type": "electric_scooter", "name": "47214cc3f76a814a8ce76fa28fb5ebd7", "is_disabled": 0, "bike_id": "47214cc3f76a814a8ce76fa28fb5ebd7", "lon": -77.0253665, "rental_uris": {"android": "https://dc.lft.to/lastmile_qr_scan", "ios": "https://dc.lft.to/lastmile_qr_scan"}, "fusion_lon": 0.0, "is_reserved": 0}, {"lat": 38.90388983333333, "fusion_lat": 0.0, "type": "electric_scooter", "name": "35ab50f74b0ea947641717e7f09b51f6", "is_disabled": 0, "bike_id": "35ab50f74b0ea947641717e7f09b51f6", "lon": -77.0421895, "rental_uris": {"android": "https://dc.lft.to/lastmile_qr_scan", "ios": "https://dc.lft.to/lastmile_qr_scan"}, "fusion_lon": 0.0, "is_reserved": 0}, {"lat": 38.909588666666664, "fusion_lat": 0.0, "type": "electric_bike", "name": "8e625e88ed188369ab3a46111b3c02e4", "is_disabled": 0, "bike_id": "8e625e88ed188369ab3a46111b3c02e4", "lon": -77.22889566666667, "rental_uris": {"android": "https://dc.lft.to/lastmile_qr_scan", "ios": "https://dc.lft.to/lastmile_qr_scan"}, "fusion_lon": 0.0, "is_reserved": 0}, {"lat": 38.8665075, "fusion_lat": 0.0, "type": "electric_scooter", "name": "3fad2a331b47df20827613e9a38fc1a9", "is_disabled": 0, "bike_id": "3fad2a331b47df20827613e9a38fc1a9", "lon": -76.98882783333333, "rental_uris": {"android": "https://dc.lft.to/lastmile_qr_scan", "ios": "https://dc.lft.to/lastmile_qr_scan"}, "fusion_lon": 0.0, "is_reserved": 0}, {"lat": 38.9237735, "fusion_lat": 0.0, "type": "electric_scooter", "name": "2923176d194c68f7ab0c579f6faaa54e", "is_disabled": 0, "bike_id": "2923176d194c68f7ab0c579f6faaa54e", "lon": -77.030928, "rental_uris": {"android": "https://dc.lft.to/lastmile_qr_scan", "ios": "https://dc.lft.to/lastmile_qr_scan"}, "fusion_lon": 0.0, "is_reserved": 0}, {"lat": 38.91983833333333, "fusion_lat": 0.0, "type": "electric_scooter", "name": "181560b5fc5b313bd0f002c0ebba41e3", "is_disabled": 0, "bike_id": "181560b5fc5b313bd0f002c0ebba41e3", "lon": -77.022001, "rental_uris": {"android": "https://dc.lft.to/lastmile_qr_scan", "ios": "https://dc.lft.to/lastmile_qr_scan"}, "fusion_lon": 0.0, "is_reserved": 0}, {"lat": 38.893828666666664, "fusion_lat": 0.0, "type": "electric_scooter", "name": "ca5b6c389a951f812e04941644bfcd9a", "is_disabled": 0, "bike_id": "ca5b6c389a951f812e04941644bfcd9a", "lon": -77.02254383333333, "rental_uris": {"android": "https://dc.lft.to/lastmile_qr_scan", "ios": "https://dc.lft.to/lastmile_qr_scan"}, "fusion_lon": 0.0, "is_reserved": 0}, {"lat": 38.96391966666667, "fusion_lat": 0.0, "type": "electric_scooter", "name": "e03283eda168712d2c4c46fb9d71432a", "is_disabled": 0, "bike_id": "e03283eda168712d2c4c46fb9d71432a", "lon": -77.025938, "rental_uris": {"android": "https://dc.lft.to/lastmile_qr_scan", "ios": "https://dc.lft.to/lastmile_qr_scan"}, "fusion_lon": 0.0, "is_reserved": 0}, {"lat": 38.916884333333336, "fusion_lat": 0.0, "type": "electric_scooter", "name": "4b6c603bf88e865d096a54839e8f69e5", "is_disabled": 0, "bike_id": "4b6c603bf88e865d096a54839e8f69e5", "lon": -77.03492233333333, "rental_uris": {"android": "https://dc.lft.to/lastmile_qr_scan", "ios": "https://dc.lft.to/lastmile_qr_scan"}, "fusion_lon": 0.0, "is_reserved": 0}, {"lat": 38.921720666666666, "fusion_lat": 0.0, "type": "electric_scooter", "name": "a78afc26cd6d8b402f4c8dfb36e81719", "is_disabled": 0, "bike_id": "a78afc26cd6d8b402f4c8dfb36e81719", "lon": -77.03839833333333, "rental_uris": {"android": "https://dc.lft.to/lastmile_qr_scan", "ios": "https://dc.lft.to/lastmile_qr_scan"}, "fusion_lon": 0.0, "is_reserved": 0}, {"lat": 38.936031666666665, "fusion_lat": 0.0, "type": "electric_scooter", "name": "930e77f40b40b3e1de67639799078e3d", "is_disabled": 0, "bike_id": "930e77f40b40b3e1de67639799078e3d", "lon": -77.05861466666667, "rental_uris": {"android": "https://dc.lft.to/lastmile_qr_scan", "ios": "https://dc.lft.to/lastmile_qr_scan"}, "fusion_lon": 0.0, "is_reserved": 0}, {"lat": 38.923595666666664, "fusion_lat": 0.0, "type": "electric_scooter", "name": "ec158dcf5fad7d1f10fa13dd3353771a", "is_disabled": 0, "bike_id": "ec158dcf5fad7d1f10fa13dd3353771a", "lon": -77.0512995, "rental_uris": {"android": "https://dc.lft.to/lastmile_qr_scan", "ios": "https://dc.lft.to/lastmile_qr_scan"}, "fusion_lon": 0.0, "is_reserved": 0}, {"lat": 38.90626366666667, "fusion_lat": 0.0, "type": "electric_scooter", "name": "b39c9657278f34c28224ccf7c86331c1", "is_disabled": 0, "bike_id": "b39c9657278f34c28224ccf7c86331c1", "lon": -77.02974, "rental_uris": {"android": "https://dc.lft.to/lastmile_qr_scan", "ios": "https://dc.lft.to/lastmile_qr_scan"}, "fusion_lon": 0.0, "is_reserved": 0}, {"lat": 38.89842016666667, "fusion_lat": 0.0, "type": "electric_scooter", "name": "9b4a77f3dabf2eb9aa3a37e52f65dbe1", "is_disabled": 0, "bike_id": "9b4a77f3dabf2eb9aa3a37e52f65dbe1", "lon": -76.978249, "rental_uris": {"android": "https://dc.lft.to/lastmile_qr_scan", "ios": "https://dc.lft.to/lastmile_qr_scan"}, "fusion_lon": 0.0, "is_reserved": 0}, {"lat": 38.897555, "fusion_lat": 0.0, "type": "electric_scooter", "name": "e61f525b1041a02d48c3a8367f94741c", "is_disabled": 0, "bike_id": "e61f525b1041a02d48c3a8367f94741c", "lon": -77.0489345, "rental_uris": {"android": "https://dc.lft.to/lastmile_qr_scan", "ios": "https://dc.lft.to/lastmile_qr_scan"}, "fusion_lon": 0.0, "is_reserved": 0}, {"lat": 38.923555666666665, "fusion_lat": 0.0, "type": "electric_scooter", "name": "3ee576ac38458667daef2d1918fd5ed9", "is_disabled": 0, "bike_id": "3ee576ac38458667daef2d1918fd5ed9", "lon": -77.03385433333334, "rental_uris": {"android": "https://dc.lft.to/lastmile_qr_scan", "ios": "https://dc.lft.to/lastmile_qr_scan"}, "fusion_lon": 0.0, "is_reserved": 0}, {"lat": 38.89828466666667, "fusion_lat": 0.0, "type": "electric_scooter", "name": "cdd165e68fd36dcfcd86641fb119f45f", "is_disabled": 0, "bike_id": "cdd165e68fd36dcfcd86641fb119f45f", "lon": -77.0332615, "rental_uris": {"android": "https://dc.lft.to/lastmile_qr_scan", "ios": "https://dc.lft.to/lastmile_qr_scan"}, "fusion_lon": 0.0, "is_reserved": 0}, {"lat": 38.934205, "fusion_lat": 0.0, "type": "electric_scooter", "name": "83f63b5613d5c31e7be4f98c4749d3f1", "is_disabled": 0, "bike_id": "83f63b5613d5c31e7be4f98c4749d3f1", "lon": -77.0440755, "rental_uris": {"android": "https://dc.lft.to/lastmile_qr_scan", "ios": "https://dc.lft.to/lastmile_qr_scan"}, "fusion_lon": 0.0, "is_reserved": 0}, {"lat": 38.88487466666667, "fusion_lat": 0.0, "type": "electric_scooter", "name": "987fdfd6791d9ab8bc6e99989f6ea4e7", "is_disabled": 0, "bike_id": "987fdfd6791d9ab8bc6e99989f6ea4e7", "lon": -77.00718666666667, "rental_uris": {"android": "https://dc.lft.to/lastmile_qr_scan", "ios": "https://dc.lft.to/lastmile_qr_scan"}, "fusion_lon": 0.0, "is_reserved": 0}, {"lat": 38.871756166666664, "fusion_lat": 0.0, "type": "electric_scooter", "name": "2145a2c93c63fb6997e093827ead2168", "is_disabled": 0, "bike_id": "2145a2c93c63fb6997e093827ead2168", "lon": -77.00611516666666, "rental_uris": {"android": "https://dc.lft.to/lastmile_qr_scan", "ios": "https://dc.lft.to/lastmile_qr_scan"}, "fusion_lon": 0.0, "is_reserved": 0}, {"lat": 38.90418066666667, "fusion_lat": 0.0, "type": "electric_bike", "name": "36c6facb0c45012f77fbe2c27eb1cdcd", "is_disabled": 0, "bike_id": "36c6facb0c45012f77fbe2c27eb1cdcd", "lon": -76.97232966666667, "rental_uris": {"android": "https://dc.lft.to/lastmile_qr_scan", "ios": "https://dc.lft.to/lastmile_qr_scan"}, "fusion_lon": 0.0, "is_reserved": 0}, {"lat": 39.033041, "fusion_lat": 0.0, "type": "electric_bike", "name": "3473e6bfac6695a3334dd7f251c72b64", "is_disabled": 0, "bike_id": "3473e6bfac6695a3334dd7f251c72b64", "lon": -77.045292, "rental_uris": {"android": "https://dc.lft.to/lastmile_qr_scan", "ios": "https://dc.lft.to/lastmile_qr_scan"}, "fusion_lon": 0.0, "is_reserved": 0}, {"lat": 38.91688583333333, "fusion_lat": 0.0, "type": "electric_scooter", "name": "6fe2db47ce7c2645d420cf4883703100", "is_disabled": 0, "bike_id": "6fe2db47ce7c2645d420cf4883703100", "lon": -77.03776683333334, "rental_uris": {"android": "https://dc.lft.to/lastmile_qr_scan", "ios": "https://dc.lft.to/lastmile_qr_scan"}, "fusion_lon": 0.0, "is_reserved": 0}, {"lat": 38.93045716666666, "fusion_lat": 0.0, "type": "electric_bike", "name": "1d01078c5e35301f4383e427d154acd1", "is_disabled": 0, "bike_id": "1d01078c5e35301f4383e427d154acd1", "lon": -76.95840333333334, "rental_uris": {"android": "https://dc.lft.to/lastmile_qr_scan", "ios": "https://dc.lft.to/lastmile_qr_scan"}, "fusion_lon": 0.0, "is_reserved": 0}, {"lat": 38.9002215, "fusion_lat": 0.0, "type": "electric_scooter", "name": "52431a6498854a4adb04f4a955dffd53", "is_disabled": 0, "bike_id": "52431a6498854a4adb04f4a955dffd53", "lon": -76.9876585, "rental_uris": {"android": "https://dc.lft.to/lastmile_qr_scan", "ios": "https://dc.lft.to/lastmile_qr_scan"}, "fusion_lon": 0.0, "is_reserved": 0}, {"lat": 38.9007595, "fusion_lat": 0.0, "type": "electric_scooter", "name": "8cf65a3ff52abcbd1b756e61b5417db2", "is_disabled": 0, "bike_id": "8cf65a3ff52abcbd1b756e61b5417db2", "lon": -77.02425316666667, "rental_uris": {"android": "https://dc.lft.to/lastmile_qr_scan", "ios": "https://dc.lft.to/lastmile_qr_scan"}, "fusion_lon": 0.0, "is_reserved": 0}, {"lat": 38.9181925, "fusion_lat": 0.0, "type": "electric_scooter", "name": "5149714896a80fca57fc05cf79deb2c3", "is_disabled": 0, "bike_id": "5149714896a80fca57fc05cf79deb2c3", "lon": -77.0344695, "rental_uris": {"android": "https://dc.lft.to/lastmile_qr_scan", "ios": "https://dc.lft.to/lastmile_qr_scan"}, "fusion_lon": 0.0, "is_reserved": 0}, {"lat": 38.8935375, "fusion_lat": 0.0, "type": "electric_scooter", "name": "a9125384ed44d5561a8abb8ea7e4ca3f", "is_disabled": 0, "bike_id": "a9125384ed44d5561a8abb8ea7e4ca3f", "lon": -77.02834866666667, "rental_uris": {"android": "https://dc.lft.to/lastmile_qr_scan", "ios": "https://dc.lft.to/lastmile_qr_scan"}, "fusion_lon": 0.0, "is_reserved": 0}, {"lat": 38.913475166666665, "fusion_lat": 0.0, "type": "electric_scooter", "name": "3559e8ff39c82d4b6d719fb87187e7cf", "is_disabled": 0, "bike_id": "3559e8ff39c82d4b6d719fb87187e7cf", "lon": -77.03197566666667, "rental_uris": {"android": "https://dc.lft.to/lastmile_qr_scan", "ios": "https://dc.lft.to/lastmile_qr_scan"}, "fusion_lon": 0.0, "is_reserved": 0}, {"lat": 38.857842166666664, "fusion_lat": 0.0, "type": "electric_bike", "name": "f81af29e9cd40fc5e3d9e4e40754d4c1", "is_disabled": 0, "bike_id": "f81af29e9cd40fc5e3d9e4e40754d4c1", "lon": -77.09961683333333, "rental_uris": {"android": "https://dc.lft.to/lastmile_qr_scan", "ios": "https://dc.lft.to/lastmile_qr_scan"}, "fusion_lon": 0.0, "is_reserved": 0}, {"lat": 38.903602166666666, "fusion_lat": 0.0, "type": "electric_scooter", "name": "325553b723c5966d240522e83835ee28", "is_disabled": 0, "bike_id": "325553b723c5966d240522e83835ee28", "lon": -77.03306016666667, "rental_uris": {"android": "https://dc.lft.to/lastmile_qr_scan", "ios": "https://dc.lft.to/lastmile_qr_scan"}, "fusion_lon": 0.0, "is_reserved": 0}, {"lat": 38.9810595, "fusion_lat": 0.0, "type": "electric_scooter", "name": "24ceee01d2c012adfb3f05d1384f98cb", "is_disabled": 0, "bike_id": "24ceee01d2c012adfb3f05d1384f98cb", "lon": -77.022403, "rental_uris": {"android": "https://dc.lft.to/lastmile_qr_scan", "ios": "https://dc.lft.to/lastmile_qr_scan"}, "fusion_lon": 0.0, "is_reserved": 0}, {"lat": 38.8922245, "fusion_lat": 0.0, "type": "electric_scooter", "name": "b68d13e9caf60f263937fa2e047bc278", "is_disabled": 0, "bike_id": "b68d13e9caf60f263937fa2e047bc278", "lon": -77.02208666666667, "rental_uris": {"android": "https://dc.lft.to/lastmile_qr_scan", "ios": "https://dc.lft.to/lastmile_qr_scan"}, "fusion_lon": 0.0, "is_reserved": 0}, {"lat": 38.900265833333336, "fusion_lat": 0.0, "type": "electric_scooter", "name": "8fdafe0abf08c623ec96ff4bca85fa9d", "is_disabled": 0, "bike_id": "8fdafe0abf08c623ec96ff4bca85fa9d", "lon": -77.0405525, "rental_uris": {"android": "https://dc.lft.to/lastmile_qr_scan", "ios": "https://dc.lft.to/lastmile_qr_scan"}, "fusion_lon": 0.0, "is_reserved": 0}, {"lat": 38.932679666666665, "fusion_lat": 0.0, "type": "electric_scooter", "name": "118a4e86caea62a2bc9ae9adb59c28dc", "is_disabled": 0, "bike_id": "118a4e86caea62a2bc9ae9adb59c28dc", "lon": -77.03871033333333, "rental_uris": {"android": "https://dc.lft.to/lastmile_qr_scan", "ios": "https://dc.lft.to/lastmile_qr_scan"}, "fusion_lon": 0.0, "is_reserved": 0}, {"lat": 38.941823666666664, "fusion_lat": 0.0, "type": "electric_scooter", "name": "e4828c6fb3bf4cc563e426e1d2b4b71b", "is_disabled": 0, "bike_id": "e4828c6fb3bf4cc563e426e1d2b4b71b", "lon": -77.02408166666666, "rental_uris": {"android": "https://dc.lft.to/lastmile_qr_scan", "ios": "https://dc.lft.to/lastmile_qr_scan"}, "fusion_lon": 0.0, "is_reserved": 0}, {"lat": 38.929969166666666, "fusion_lat": 0.0, "type": "electric_bike", "name": "89be90a7a94d1e67b4a491b0cb072485", "is_disabled": 0, "bike_id": "89be90a7a94d1e67b4a491b0cb072485", "lon": -77.07132333333334, "rental_uris": {"android": "https://dc.lft.to/lastmile_qr_scan", "ios": "https://dc.lft.to/lastmile_qr_scan"}, "fusion_lon": 0.0, "is_reserved": 0}, {"lat": 38.8972245, "fusion_lat": 0.0, "type": "electric_scooter", "name": "1417e1568c22fdcba54beaf4571561a2", "is_disabled": 0, "bike_id": "1417e1568c22fdcba54beaf4571561a2", "lon": -77.02169366666666, "rental_uris": {"android": "https://dc.lft.to/lastmile_qr_scan", "ios": "https://dc.lft.to/lastmile_qr_scan"}, "fusion_lon": 0.0, "is_reserved": 0}, {"lat": 38.931391166666664, "fusion_lat": 0.0, "type": "electric_scooter", "name": "8cffe0ca92c9c1a04c007d28f803fd34", "is_disabled": 0, "bike_id": "8cffe0ca92c9c1a04c007d28f803fd34", "lon": -77.07843983333333, "rental_uris": {"android": "https://dc.lft.to/lastmile_qr_scan", "ios": "https://dc.lft.to/lastmile_qr_scan"}, "fusion_lon": 0.0, "is_reserved": 0}, {"lat": 38.895553666666665, "fusion_lat": 0.0, "type": "electric_scooter", "name": "8c48f19d9847edd5fe71c16ca3c5dd7c", "is_disabled": 0, "bike_id": "8c48f19d9847edd5fe71c16ca3c5dd7c", "lon": -77.0416105, "rental_uris": {"android": "https://dc.lft.to/lastmile_qr_scan", "ios": "https://dc.lft.to/lastmile_qr_scan"}, "fusion_lon": 0.0, "is_reserved": 0}, {"lat": 38.909106, "fusion_lat": 0.0, "type": "electric_scooter", "name": "73e26bc967c987cbf153ac666f6e1606", "is_disabled": 0, "bike_id": "73e26bc967c987cbf153ac666f6e1606", "lon": -77.0727195, "rental_uris": {"android": "https://dc.lft.to/lastmile_qr_scan", "ios": "https://dc.lft.to/lastmile_qr_scan"}, "fusion_lon": 0.0, "is_reserved": 0}, {"lat": 38.847018166666665, "fusion_lat": 0.0, "type": "electric_scooter", "name": "dc9e68df0c4c09ffa8d69c334176e441", "is_disabled": 0, "bike_id": "dc9e68df0c4c09ffa8d69c334176e441", "lon": -76.98013216666666, "rental_uris": {"android": "https://dc.lft.to/lastmile_qr_scan", "ios": "https://dc.lft.to/lastmile_qr_scan"}, "fusion_lon": 0.0, "is_reserved": 0}, {"lat": 38.93584516666667, "fusion_lat": 0.0, "type": "electric_scooter", "name": "e85a1f084279c2410bf0ed16e9f8c392", "is_disabled": 0, "bike_id": "e85a1f084279c2410bf0ed16e9f8c392", "lon": -77.02534833333333, "rental_uris": {"android": "https://dc.lft.to/lastmile_qr_scan", "ios": "https://dc.lft.to/lastmile_qr_scan"}, "fusion_lon": 0.0, "is_reserved": 0}, {"lat": 38.8922105, "fusion_lat": 0.0, "type": "electric_scooter", "name": "397c9bdde7fe28b7218440eb10e3d5c0", "is_disabled": 0, "bike_id": "397c9bdde7fe28b7218440eb10e3d5c0", "lon": -77.0419605, "rental_uris": {"android": "https://dc.lft.to/lastmile_qr_scan", "ios": "https://dc.lft.to/lastmile_qr_scan"}, "fusion_lon": 0.0, "is_reserved": 0}, {"lat": 38.91157483333333, "fusion_lat": 0.0, "type": "electric_scooter", "name": "78539906878dc9ff053f38408468b151", "is_disabled": 0, "bike_id": "78539906878dc9ff053f38408468b151", "lon": -77.02436233333333, "rental_uris": {"android": "https://dc.lft.to/lastmile_qr_scan", "ios": "https://dc.lft.to/lastmile_qr_scan"}, "fusion_lon": 0.0, "is_reserved": 0}, {"lat": 38.8983245, "fusion_lat": 0.0, "type": "electric_scooter", "name": "f46136974a2c3374684c653ecdf07644", "is_disabled": 0, "bike_id": "f46136974a2c3374684c653ecdf07644", "lon": -77.02860416666667, "rental_uris": {"android": "https://dc.lft.to/lastmile_qr_scan", "ios": "https://dc.lft.to/lastmile_qr_scan"}, "fusion_lon": 0.0, "is_reserved": 0}, {"lat": 38.880242, "fusion_lat": 0.0, "type": "electric_scooter", "name": "1ab16180475cb645aa61ec6b55e86342", "is_disabled": 0, "bike_id": "1ab16180475cb645aa61ec6b55e86342", "lon": -77.0246515, "rental_uris": {"android": "https://dc.lft.to/lastmile_qr_scan", "ios": "https://dc.lft.to/lastmile_qr_scan"}, "fusion_lon": 0.0, "is_reserved": 0}, {"lat": 38.9286265, "fusion_lat": 0.0, "type": "electric_scooter", "name": "a5351afafaeac0709ac2b42ccd057d0d", "is_disabled": 0, "bike_id": "a5351afafaeac0709ac2b42ccd057d0d", "lon": -77.014034, "rental_uris": {"android": "https://dc.lft.to/lastmile_qr_scan", "ios": "https://dc.lft.to/lastmile_qr_scan"}, "fusion_lon": 0.0, "is_reserved": 0}, {"lat": 38.908994, "fusion_lat": 0.0, "type": "electric_scooter", "name": "d812afa6d5bce6eb9ba241210038eedc", "is_disabled": 0, "bike_id": "d812afa6d5bce6eb9ba241210038eedc", "lon": -77.0442765, "rental_uris": {"android": "https://dc.lft.to/lastmile_qr_scan", "ios": "https://dc.lft.to/lastmile_qr_scan"}, "fusion_lon": 0.0, "is_reserved": 0}, {"lat": 38.927635, "fusion_lat": 0.0, "type": "electric_scooter", "name": "5f8a2d8f058cd0b162f2b4e391b00c84", "is_disabled": 0, "bike_id": "5f8a2d8f058cd0b162f2b4e391b00c84", "lon": -77.02740666666666, "rental_uris": {"android": "https://dc.lft.to/lastmile_qr_scan", "ios": "https://dc.lft.to/lastmile_qr_scan"}, "fusion_lon": 0.0, "is_reserved": 0}, {"lat": 38.883913166666666, "fusion_lat": 0.0, "type": "electric_bike", "name": "7f0d4f1b8d289a42d079e40f16b630a3", "is_disabled": 0, "bike_id": "7f0d4f1b8d289a42d079e40f16b630a3", "lon": -77.01963266666667, "rental_uris": {"android": "https://dc.lft.to/lastmile_qr_scan", "ios": "https://dc.lft.to/lastmile_qr_scan"}, "fusion_lon": 0.0, "is_reserved": 0}, {"lat": 38.9204705, "fusion_lat": 0.0, "type": "electric_scooter", "name": "642d9026ebf3f65281c3ddc844958330", "is_disabled": 0, "bike_id": "642d9026ebf3f65281c3ddc844958330", "lon": -77.03387616666667, "rental_uris": {"android": "https://dc.lft.to/lastmile_qr_scan", "ios": "https://dc.lft.to/lastmile_qr_scan"}, "fusion_lon": 0.0, "is_reserved": 0}, {"lat": 38.923700333333336, "fusion_lat": 0.0, "type": "electric_scooter", "name": "9ee5ddbe82ef3fcdae46a31cd7bafa76", "is_disabled": 0, "bike_id": "9ee5ddbe82ef3fcdae46a31cd7bafa76", "lon": -77.019066, "rental_uris": {"android": "https://dc.lft.to/lastmile_qr_scan", "ios": "https://dc.lft.to/lastmile_qr_scan"}, "fusion_lon": 0.0, "is_reserved": 0}, {"lat": 38.93154083333334, "fusion_lat": 0.0, "type": "electric_scooter", "name": "754a69ce3a1945ad69d9cffc1c98456c", "is_disabled": 0, "bike_id": "754a69ce3a1945ad69d9cffc1c98456c", "lon": -77.03611683333334, "rental_uris": {"android": "https://dc.lft.to/lastmile_qr_scan", "ios": "https://dc.lft.to/lastmile_qr_scan"}, "fusion_lon": 0.0, "is_reserved": 0}, {"lat": 38.91110366666667, "fusion_lat": 0.0, "type": "electric_scooter", "name": "c7203507b1e8dc7c5fe16c06d958f58a", "is_disabled": 0, "bike_id": "c7203507b1e8dc7c5fe16c06d958f58a", "lon": -77.01883933333333, "rental_uris": {"android": "https://dc.lft.to/lastmile_qr_scan", "ios": "https://dc.lft.to/lastmile_qr_scan"}, "fusion_lon": 0.0, "is_reserved": 0}, {"lat": 38.91509683333334, "fusion_lat": 0.0, "type": "electric_scooter", "name": "0ff3c8e705dc5604eb531ec50500d562", "is_disabled": 0, "bike_id": "0ff3c8e705dc5604eb531ec50500d562", "lon": -77.04618083333334, "rental_uris": {"android": "https://dc.lft.to/lastmile_qr_scan", "ios": "https://dc.lft.to/lastmile_qr_scan"}, "fusion_lon": 0.0, "is_reserved": 0}, {"lat": 38.911329333333335, "fusion_lat": 0.0, "type": "electric_scooter", "name": "7d62c88cac92c3d374012aa744db59a6", "is_disabled": 0, "bike_id": "7d62c88cac92c3d374012aa744db59a6", "lon": -77.0220315, "rental_uris": {"android": "https://dc.lft.to/lastmile_qr_scan", "ios": "https://dc.lft.to/lastmile_qr_scan"}, "fusion_lon": 0.0, "is_reserved": 0}, {"lat": 38.89618933333333, "fusion_lat": 0.0, "type": "electric_scooter", "name": "98baeb509a70ccf47b3b6e15792ddeb6", "is_disabled": 0, "bike_id": "98baeb509a70ccf47b3b6e15792ddeb6", "lon": -77.021895, "rental_uris": {"android": "https://dc.lft.to/lastmile_qr_scan", "ios": "https://dc.lft.to/lastmile_qr_scan"}, "fusion_lon": 0.0, "is_reserved": 0}, {"lat": 38.913624666666664, "fusion_lat": 0.0, "type": "electric_scooter", "name": "d9ec30f88d5e27274ceb543dbf0a4c05", "is_disabled": 0, "bike_id": "d9ec30f88d5e27274ceb543dbf0a4c05", "lon": -77.03206183333333, "rental_uris": {"android": "https://dc.lft.to/lastmile_qr_scan", "ios": "https://dc.lft.to/lastmile_qr_scan"}, "fusion_lon": 0.0, "is_reserved": 0}, {"lat": 38.91571783333333, "fusion_lat": 0.0, "type": "electric_scooter", "name": "bbdcda308912cf05d9ceda7b205f43ec", "is_disabled": 0, "bike_id": "bbdcda308912cf05d9ceda7b205f43ec", "lon": -77.02002433333334, "rental_uris": {"android": "https://dc.lft.to/lastmile_qr_scan", "ios": "https://dc.lft.to/lastmile_qr_scan"}, "fusion_lon": 0.0, "is_reserved": 0}, {"lat": 38.898247, "fusion_lat": 0.0, "type": "electric_scooter", "name": "ce854a6a48ecb821f843a7d859ef69f3", "is_disabled": 0, "bike_id": "ce854a6a48ecb821f843a7d859ef69f3", "lon": -77.0468155, "rental_uris": {"android": "https://dc.lft.to/lastmile_qr_scan", "ios": "https://dc.lft.to/lastmile_qr_scan"}, "fusion_lon": 0.0, "is_reserved": 0}, {"lat": 38.900636166666665, "fusion_lat": 0.0, "type": "electric_scooter", "name": "adc9ba2d2d6a302457dd08938909b0c8", "is_disabled": 0, "bike_id": "adc9ba2d2d6a302457dd08938909b0c8", "lon": -77.05325316666666, "rental_uris": {"android": "https://dc.lft.to/lastmile_qr_scan", "ios": "https://dc.lft.to/lastmile_qr_scan"}, "fusion_lon": 0.0, "is_reserved": 0}, {"lat": 38.892184666666665, "fusion_lat": 0.0, "type": "electric_scooter", "name": "9094475aa68562131cf858c79cdb372f", "is_disabled": 0, "bike_id": "9094475aa68562131cf858c79cdb372f", "lon": -77.04688216666666, "rental_uris": {"android": "https://dc.lft.to/lastmile_qr_scan", "ios": "https://dc.lft.to/lastmile_qr_scan"}, "fusion_lon": 0.0, "is_reserved": 0}, {"lat": 38.913240333333334, "fusion_lat": 0.0, "type": "electric_scooter", "name": "a6d74311cec7bd5aa69fc3d413b03afd", "is_disabled": 0, "bike_id": "a6d74311cec7bd5aa69fc3d413b03afd", "lon": -77.0433765, "rental_uris": {"android": "https://dc.lft.to/lastmile_qr_scan", "ios": "https://dc.lft.to/lastmile_qr_scan"}, "fusion_lon": 0.0, "is_reserved": 0}, {"lat": 38.917895, "fusion_lat": 0.0, "type": "electric_scooter", "name": "021655660da09b4d6310571703463265", "is_disabled": 0, "bike_id": "021655660da09b4d6310571703463265", "lon": -77.023223, "rental_uris": {"android": "https://dc.lft.to/lastmile_qr_scan", "ios": "https://dc.lft.to/lastmile_qr_scan"}, "fusion_lon": 0.0, "is_reserved": 0}, {"lat": 38.9417505, "fusion_lat": 0.0, "type": "electric_scooter", "name": "e8ec0b151802c714ce5f6f505db444e1", "is_disabled": 0, "bike_id": "e8ec0b151802c714ce5f6f505db444e1", "lon": -77.031474, "rental_uris": {"android": "https://dc.lft.to/lastmile_qr_scan", "ios": "https://dc.lft.to/lastmile_qr_scan"}, "fusion_lon": 0.0, "is_reserved": 0}, {"lat": 38.89572183333333, "fusion_lat": 0.0, "type": "electric_scooter", "name": "5dbe6892453f71d40e411602026bcb7f", "is_disabled": 0, "bike_id": "5dbe6892453f71d40e411602026bcb7f", "lon": -77.02210916666667, "rental_uris": {"android": "https://dc.lft.to/lastmile_qr_scan", "ios": "https://dc.lft.to/lastmile_qr_scan"}, "fusion_lon": 0.0, "is_reserved": 0}, {"lat": 38.9238895, "fusion_lat": 0.0, "type": "electric_scooter", "name": "1d3796e01af4751a7f6d9ace3b7986e1", "is_disabled": 0, "bike_id": "1d3796e01af4751a7f6d9ace3b7986e1", "lon": -77.04082983333333, "rental_uris": {"android": "https://dc.lft.to/lastmile_qr_scan", "ios": "https://dc.lft.to/lastmile_qr_scan"}, "fusion_lon": 0.0, "is_reserved": 0}, {"lat": 38.913722666666665, "fusion_lat": 0.0, "type": "electric_scooter", "name": "a6a8b4eacfd7bf5e123909e66c3f5a55", "is_disabled": 0, "bike_id": "a6a8b4eacfd7bf5e123909e66c3f5a55", "lon": -77.04609566666667, "rental_uris": {"android": "https://dc.lft.to/lastmile_qr_scan", "ios": "https://dc.lft.to/lastmile_qr_scan"}, "fusion_lon": 0.0, "is_reserved": 0}, {"lat": 38.89738466666667, "fusion_lat": 0.0, "type": "electric_scooter", "name": "9b7a2cad9d637108caac463197cda4ec", "is_disabled": 0, "bike_id": "9b7a2cad9d637108caac463197cda4ec", "lon": -76.947222, "rental_uris": {"android": "https://dc.lft.to/lastmile_qr_scan", "ios": "https://dc.lft.to/lastmile_qr_scan"}, "fusion_lon": 0.0, "is_reserved": 0}, {"lat": 38.91845816666667, "fusion_lat": 0.0, "type": "electric_scooter", "name": "186891853130356304df9f414a4efc8b", "is_disabled": 0, "bike_id": "186891853130356304df9f414a4efc8b", "lon": -77.01475466666666, "rental_uris": {"android": "https://dc.lft.to/lastmile_qr_scan", "ios": "https://dc.lft.to/lastmile_qr_scan"}, "fusion_lon": 0.0, "is_reserved": 0}, {"lat": 38.89578366666667, "fusion_lat": 0.0, "type": "electric_scooter", "name": "a5e3dd75ec886d38f3bf7159ed9008a3", "is_disabled": 0, "bike_id": "a5e3dd75ec886d38f3bf7159ed9008a3", "lon": -77.02307283333333, "rental_uris": {"android": "https://dc.lft.to/lastmile_qr_scan", "ios": "https://dc.lft.to/lastmile_qr_scan"}, "fusion_lon": 0.0, "is_reserved": 0}, {"lat": 38.9016505, "fusion_lat": 0.0, "type": "electric_scooter", "name": "f300eaaf0bde8ce7ddb99d97ce4e209e", "is_disabled": 0, "bike_id": "f300eaaf0bde8ce7ddb99d97ce4e209e", "lon": -77.03445283333333, "rental_uris": {"android": "https://dc.lft.to/lastmile_qr_scan", "ios": "https://dc.lft.to/lastmile_qr_scan"}, "fusion_lon": 0.0, "is_reserved": 0}, {"lat": 38.98853033333333, "fusion_lat": 0.0, "type": "electric_bike", "name": "c5c3025e5810d1d6be5e7cdc3931e7c9", "is_disabled": 0, "bike_id": "c5c3025e5810d1d6be5e7cdc3931e7c9", "lon": -77.09652933333334, "rental_uris": {"android": "https://dc.lft.to/lastmile_qr_scan", "ios": "https://dc.lft.to/lastmile_qr_scan"}, "fusion_lon": 0.0, "is_reserved": 0}, {"lat": 38.904453, "fusion_lat": 0.0, "type": "electric_scooter", "name": "3c8afe27bc32c5e03752ed4eb9f21983", "is_disabled": 0, "bike_id": "3c8afe27bc32c5e03752ed4eb9f21983", "lon": -77.05914783333333, "rental_uris": {"android": "https://dc.lft.to/lastmile_qr_scan", "ios": "https://dc.lft.to/lastmile_qr_scan"}, "fusion_lon": 0.0, "is_reserved": 0}, {"lat": 38.904045833333335, "fusion_lat": 0.0, "type": "electric_scooter", "name": "adae2da56bf5ad8ee3c3987fff400616", "is_disabled": 0, "bike_id": "adae2da56bf5ad8ee3c3987fff400616", "lon": -76.97331066666666, "rental_uris": {"android": "https://dc.lft.to/lastmile_qr_scan", "ios": "https://dc.lft.to/lastmile_qr_scan"}, "fusion_lon": 0.0, "is_reserved": 0}, {"lat": 38.931889166666664, "fusion_lat": 0.0, "type": "electric_scooter", "name": "aeb2aebffcd5c6ad49e302080d64ce91", "is_disabled": 0, "bike_id": "aeb2aebffcd5c6ad49e302080d64ce91", "lon": -77.07347516666667, "rental_uris": {"android": "https://dc.lft.to/lastmile_qr_scan", "ios": "https://dc.lft.to/lastmile_qr_scan"}, "fusion_lon": 0.0, "is_reserved": 0}, {"lat": 38.90103666666667, "fusion_lat": 0.0, "type": "electric_scooter", "name": "162f85c7937d99832e7670bbf9b6e13c", "is_disabled": 0, "bike_id": "162f85c7937d99832e7670bbf9b6e13c", "lon": -76.99491016666667, "rental_uris": {"android": "https://dc.lft.to/lastmile_qr_scan", "ios": "https://dc.lft.to/lastmile_qr_scan"}, "fusion_lon": 0.0, "is_reserved": 0}, {"lat": 38.88490483333333, "fusion_lat": 0.0, "type": "electric_scooter", "name": "21070a19d4325a975ebf27e6c612fbdc", "is_disabled": 0, "bike_id": "21070a19d4325a975ebf27e6c612fbdc", "lon": -76.996004, "rental_uris": {"android": "https://dc.lft.to/lastmile_qr_scan", "ios": "https://dc.lft.to/lastmile_qr_scan"}, "fusion_lon": 0.0, "is_reserved": 0}, {"lat": 38.860081666666666, "fusion_lat": 0.0, "type": "electric_scooter", "name": "300e1048648e0c134abd1ed3db3ead0b", "is_disabled": 0, "bike_id": "300e1048648e0c134abd1ed3db3ead0b", "lon": -76.98521816666667, "rental_uris": {"android": "https://dc.lft.to/lastmile_qr_scan", "ios": "https://dc.lft.to/lastmile_qr_scan"}, "fusion_lon": 0.0, "is_reserved": 0}, {"lat": 38.9333805, "fusion_lat": 0.0, "type": "electric_scooter", "name": "162a2c047679fe5f75352b49314c1c85", "is_disabled": 0, "bike_id": "162a2c047679fe5f75352b49314c1c85", "lon": -77.03435333333333, "rental_uris": {"android": "https://dc.lft.to/lastmile_qr_scan", "ios": "https://dc.lft.to/lastmile_qr_scan"}, "fusion_lon": 0.0, "is_reserved": 0}, {"lat": 38.90240983333333, "fusion_lat": 0.0, "type": "electric_scooter", "name": "a13ddb5f8d5d6336a8a9233e105cf2bf", "is_disabled": 0, "bike_id": "a13ddb5f8d5d6336a8a9233e105cf2bf", "lon": -77.04551016666667, "rental_uris": {"android": "https://dc.lft.to/lastmile_qr_scan", "ios": "https://dc.lft.to/lastmile_qr_scan"}, "fusion_lon": 0.0, "is_reserved": 0}, {"lat": 38.886583333333334, "fusion_lat": 0.0, "type": "electric_bike", "name": "f649ed9844f199d03e5cc425862c676c", "is_disabled": 0, "bike_id": "f649ed9844f199d03e5cc425862c676c", "lon": -77.16230666666667, "rental_uris": {"android": "https://dc.lft.to/lastmile_qr_scan", "ios": "https://dc.lft.to/lastmile_qr_scan"}, "fusion_lon": 0.0, "is_reserved": 0}, {"lat": 38.902292333333335, "fusion_lat": 0.0, "type": "electric_scooter", "name": "bb26505af5fda1073d9bf2b7c79dcf5a", "is_disabled": 0, "bike_id": "bb26505af5fda1073d9bf2b7c79dcf5a", "lon": -77.05915133333333, "rental_uris": {"android": "https://dc.lft.to/lastmile_qr_scan", "ios": "https://dc.lft.to/lastmile_qr_scan"}, "fusion_lon": 0.0, "is_reserved": 0}, {"lat": 38.902593, "fusion_lat": 0.0, "type": "electric_scooter", "name": "ff40671bc7522bb7198f7f4d77466f43", "is_disabled": 0, "bike_id": "ff40671bc7522bb7198f7f4d77466f43", "lon": -77.0303235, "rental_uris": {"android": "https://dc.lft.to/lastmile_qr_scan", "ios": "https://dc.lft.to/lastmile_qr_scan"}, "fusion_lon": 0.0, "is_reserved": 0}, {"lat": 38.90680833333333, "fusion_lat": 0.0, "type": "electric_scooter", "name": "96bf4e1fabb8757c4cdff41b5c733e66", "is_disabled": 0, "bike_id": "96bf4e1fabb8757c4cdff41b5c733e66", "lon": -77.02692983333333, "rental_uris": {"android": "https://dc.lft.to/lastmile_qr_scan", "ios": "https://dc.lft.to/lastmile_qr_scan"}, "fusion_lon": 0.0, "is_reserved": 0}, {"lat": 38.89078516666667, "fusion_lat": 0.0, "type": "electric_scooter", "name": "e2bdc4ba0153d750a2da0b03777c16b1", "is_disabled": 0, "bike_id": "e2bdc4ba0153d750a2da0b03777c16b1", "lon": -76.988223, "rental_uris": {"android": "https://dc.lft.to/lastmile_qr_scan", "ios": "https://dc.lft.to/lastmile_qr_scan"}, "fusion_lon": 0.0, "is_reserved": 0}, {"lat": 38.9077585, "fusion_lat": 0.0, "type": "electric_scooter", "name": "f0a118c462037ddb854c2fa76ed4ebf4", "is_disabled": 0, "bike_id": "f0a118c462037ddb854c2fa76ed4ebf4", "lon": -77.046713, "rental_uris": {"android": "https://dc.lft.to/lastmile_qr_scan", "ios": "https://dc.lft.to/lastmile_qr_scan"}, "fusion_lon": 0.0, "is_reserved": 0}, {"lat": 38.924762, "fusion_lat": 0.0, "type": "electric_scooter", "name": "6e72beec52a5d3e5560ea01af364588c", "is_disabled": 0, "bike_id": "6e72beec52a5d3e5560ea01af364588c", "lon": -77.03066183333334, "rental_uris": {"android": "https://dc.lft.to/lastmile_qr_scan", "ios": "https://dc.lft.to/lastmile_qr_scan"}, "fusion_lon": 0.0, "is_reserved": 0}, {"lat": 38.914061, "fusion_lat": 0.0, "type": "electric_scooter", "name": "f520adb783330db96922bb92aa962c83", "is_disabled": 0, "bike_id": "f520adb783330db96922bb92aa962c83", "lon": -77.01562216666666, "rental_uris": {"android": "https://dc.lft.to/lastmile_qr_scan", "ios": "https://dc.lft.to/lastmile_qr_scan"}, "fusion_lon": 0.0, "is_reserved": 0}, {"lat": 38.90138966666667, "fusion_lat": 0.0, "type": "electric_scooter", "name": "1114fb9cd8bd6692af6aade33281ec48", "is_disabled": 0, "bike_id": "1114fb9cd8bd6692af6aade33281ec48", "lon": -77.00265216666666, "rental_uris": {"android": "https://dc.lft.to/lastmile_qr_scan", "ios": "https://dc.lft.to/lastmile_qr_scan"}, "fusion_lon": 0.0, "is_reserved": 0}, {"lat": 38.934798, "fusion_lat": 0.0, "type": "electric_scooter", "name": "844f2686f855139d0f089f67fb40c750", "is_disabled": 0, "bike_id": "844f2686f855139d0f089f67fb40c750", "lon": -77.0728195, "rental_uris": {"android": "https://dc.lft.to/lastmile_qr_scan", "ios": "https://dc.lft.to/lastmile_qr_scan"}, "fusion_lon": 0.0, "is_reserved": 0}, {"lat": 38.9604155, "fusion_lat": 0.0, "type": "electric_scooter", "name": "1364591cc0682a08c8b832610bdcd5a2", "is_disabled": 0, "bike_id": "1364591cc0682a08c8b832610bdcd5a2", "lon": -77.027976, "rental_uris": {"android": "https://dc.lft.to/lastmile_qr_scan", "ios": "https://dc.lft.to/lastmile_qr_scan"}, "fusion_lon": 0.0, "is_reserved": 0}, {"lat": 38.911439666666666, "fusion_lat": 0.0, "type": "electric_scooter", "name": "894216f1b0cd93a8b5e44b2227042e64", "is_disabled": 0, "bike_id": "894216f1b0cd93a8b5e44b2227042e64", "lon": -77.023829, "rental_uris": {"android": "https://dc.lft.to/lastmile_qr_scan", "ios": "https://dc.lft.to/lastmile_qr_scan"}, "fusion_lon": 0.0, "is_reserved": 0}, {"lat": 38.87645933333334, "fusion_lat": 0.0, "type": "electric_scooter", "name": "68b3887110549ec8da59a89164f07e6f", "is_disabled": 0, "bike_id": "68b3887110549ec8da59a89164f07e6f", "lon": -77.0038395, "rental_uris": {"android": "https://dc.lft.to/lastmile_qr_scan", "ios": "https://dc.lft.to/lastmile_qr_scan"}, "fusion_lon": 0.0, "is_reserved": 0}, {"lat": 38.909664166666666, "fusion_lat": 0.0, "type": "electric_scooter", "name": "551088fbecfc9e45ec5341fcd83e24bb", "is_disabled": 0, "bike_id": "551088fbecfc9e45ec5341fcd83e24bb", "lon": -77.03438116666666, "rental_uris": {"android": "https://dc.lft.to/lastmile_qr_scan", "ios": "https://dc.lft.to/lastmile_qr_scan"}, "fusion_lon": 0.0, "is_reserved": 0}, {"lat": 38.91289283333333, "fusion_lat": 0.0, "type": "electric_scooter", "name": "96d3055f2374bd3b571e0af3e4394e4e", "is_disabled": 0, "bike_id": "96d3055f2374bd3b571e0af3e4394e4e", "lon": -77.04883733333334, "rental_uris": {"android": "https://dc.lft.to/lastmile_qr_scan", "ios": "https://dc.lft.to/lastmile_qr_scan"}, "fusion_lon": 0.0, "is_reserved": 0}, {"lat": 38.89715066666667, "fusion_lat": 0.0, "type": "electric_scooter", "name": "0b27acc618c65417b4e45ebaf5fd64cd", "is_disabled": 0, "bike_id": "0b27acc618c65417b4e45ebaf5fd64cd", "lon": -77.04554316666666, "rental_uris": {"android": "https://dc.lft.to/lastmile_qr_scan", "ios": "https://dc.lft.to/lastmile_qr_scan"}, "fusion_lon": 0.0, "is_reserved": 0}, {"lat": 38.88451833333333, "fusion_lat": 0.0, "type": "electric_scooter", "name": "80369425f5558ee21108deebcf706da0", "is_disabled": 0, "bike_id": "80369425f5558ee21108deebcf706da0", "lon": -76.950956, "rental_uris": {"android": "https://dc.lft.to/lastmile_qr_scan", "ios": "https://dc.lft.to/lastmile_qr_scan"}, "fusion_lon": 0.0, "is_reserved": 0}, {"lat": 38.89646833333333, "fusion_lat": 0.0, "type": "electric_scooter", "name": "21dd5b9c354acdcbc9a62bb9f36f7563", "is_disabled": 0, "bike_id": "21dd5b9c354acdcbc9a62bb9f36f7563", "lon": -77.01867266666666, "rental_uris": {"android": "https://dc.lft.to/lastmile_qr_scan", "ios": "https://dc.lft.to/lastmile_qr_scan"}, "fusion_lon": 0.0, "is_reserved": 0}, {"lat": 38.864972, "fusion_lat": 0.0, "type": "electric_scooter", "name": "20df94b44e7296607cfee7b7a52931b7", "is_disabled": 0, "bike_id": "20df94b44e7296607cfee7b7a52931b7", "lon": -76.99003666666667, "rental_uris": {"android": "https://dc.lft.to/lastmile_qr_scan", "ios": "https://dc.lft.to/lastmile_qr_scan"}, "fusion_lon": 0.0, "is_reserved": 0}, {"lat": 38.93176483333333, "fusion_lat": 0.0, "type": "electric_scooter", "name": "cefa21c8b523a925a3ee1d74ab78f3a3", "is_disabled": 0, "bike_id": "cefa21c8b523a925a3ee1d74ab78f3a3", "lon": -77.04298933333334, "rental_uris": {"android": "https://dc.lft.to/lastmile_qr_scan", "ios": "https://dc.lft.to/lastmile_qr_scan"}, "fusion_lon": 0.0, "is_reserved": 0}, {"lat": 38.885777833333336, "fusion_lat": 0.0, "type": "electric_scooter", "name": "19505b56dfbba26aacbdf29fc2b56c33", "is_disabled": 0, "bike_id": "19505b56dfbba26aacbdf29fc2b56c33", "lon": -77.01546933333333, "rental_uris": {"android": "https://dc.lft.to/lastmile_qr_scan", "ios": "https://dc.lft.to/lastmile_qr_scan"}, "fusion_lon": 0.0, "is_reserved": 0}, {"lat": 38.89947016666667, "fusion_lat": 0.0, "type": "electric_scooter", "name": "ce140080bf309f8bcb90a862edd7dc5f", "is_disabled": 0, "bike_id": "ce140080bf309f8bcb90a862edd7dc5f", "lon": -77.04486366666667, "rental_uris": {"android": "https://dc.lft.to/lastmile_qr_scan", "ios": "https://dc.lft.to/lastmile_qr_scan"}, "fusion_lon": 0.0, "is_reserved": 0}, {"lat": 38.844539166666664, "fusion_lat": 0.0, "type": "electric_bike", "name": "2b3a6c000a0a7e98bbd9bb40ccdb766f", "is_disabled": 0, "bike_id": "2b3a6c000a0a7e98bbd9bb40ccdb766f", "lon": -77.00171833333333, "rental_uris": {"android": "https://dc.lft.to/lastmile_qr_scan", "ios": "https://dc.lft.to/lastmile_qr_scan"}, "fusion_lon": 0.0, "is_reserved": 0}, {"lat": 38.899059333333334, "fusion_lat": 0.0, "type": "electric_scooter", "name": "1e7b92ded924788563432bf2cfa542b8", "is_disabled": 0, "bike_id": "1e7b92ded924788563432bf2cfa542b8", "lon": -77.03269416666667, "rental_uris": {"android": "https://dc.lft.to/lastmile_qr_scan", "ios": "https://dc.lft.to/lastmile_qr_scan"}, "fusion_lon": 0.0, "is_reserved": 0}, {"lat": 38.923314166666664, "fusion_lat": 0.0, "type": "electric_scooter", "name": "3cac160d4f5babb723a32e47dcabd8c8", "is_disabled": 0, "bike_id": "3cac160d4f5babb723a32e47dcabd8c8", "lon": -77.03581266666667, "rental_uris": {"android": "https://dc.lft.to/lastmile_qr_scan", "ios": "https://dc.lft.to/lastmile_qr_scan"}, "fusion_lon": 0.0, "is_reserved": 0}, {"lat": 38.941201166666666, "fusion_lat": 0.0, "type": "electric_scooter", "name": "2291951f48eaa4453815f11979d7ced1", "is_disabled": 0, "bike_id": "2291951f48eaa4453815f11979d7ced1", "lon": -77.0153965, "rental_uris": {"android": "https://dc.lft.to/lastmile_qr_scan", "ios": "https://dc.lft.to/lastmile_qr_scan"}, "fusion_lon": 0.0, "is_reserved": 0}, {"lat": 38.912704833333336, "fusion_lat": 0.0, "type": "electric_scooter", "name": "28511d17ef6e9ae12f09920386dc55bc", "is_disabled": 0, "bike_id": "28511d17ef6e9ae12f09920386dc55bc", "lon": -77.032149, "rental_uris": {"android": "https://dc.lft.to/lastmile_qr_scan", "ios": "https://dc.lft.to/lastmile_qr_scan"}, "fusion_lon": 0.0, "is_reserved": 0}, {"lat": 38.8967705, "fusion_lat": 0.0, "type": "electric_scooter", "name": "4cf74b7ca585372ed000add4a3b4f0cf", "is_disabled": 0, "bike_id": "4cf74b7ca585372ed000add4a3b4f0cf", "lon": -77.05125116666666, "rental_uris": {"android": "https://dc.lft.to/lastmile_qr_scan", "ios": "https://dc.lft.to/lastmile_qr_scan"}, "fusion_lon": 0.0, "is_reserved": 0}, {"lat": 38.9318605, "fusion_lat": 0.0, "type": "electric_bike", "name": "6ab14a12e0e19a0b8185efa0a78b6b96", "is_disabled": 0, "bike_id": "6ab14a12e0e19a0b8185efa0a78b6b96", "lon": -77.22923366666667, "rental_uris": {"android": "https://dc.lft.to/lastmile_qr_scan", "ios": "https://dc.lft.to/lastmile_qr_scan"}, "fusion_lon": 0.0, "is_reserved": 0}, {"lat": 38.92715283333333, "fusion_lat": 0.0, "type": "electric_scooter", "name": "e20a42273de34805c99769cf8efe615f", "is_disabled": 0, "bike_id": "e20a42273de34805c99769cf8efe615f", "lon": -77.01596616666667, "rental_uris": {"android": "https://dc.lft.to/lastmile_qr_scan", "ios": "https://dc.lft.to/lastmile_qr_scan"}, "fusion_lon": 0.0, "is_reserved": 0}, {"lat": 38.92759916666667, "fusion_lat": 0.0, "type": "electric_scooter", "name": "3f73d95f4b9f8818a8c36527a7878259", "is_disabled": 0, "bike_id": "3f73d95f4b9f8818a8c36527a7878259", "lon": -77.01195066666666, "rental_uris": {"android": "https://dc.lft.to/lastmile_qr_scan", "ios": "https://dc.lft.to/lastmile_qr_scan"}, "fusion_lon": 0.0, "is_reserved": 0}, {"lat": 38.904992, "fusion_lat": 0.0, "type": "electric_scooter", "name": "2236c9c3328f2d7e57b4055e100027b2", "is_disabled": 0, "bike_id": "2236c9c3328f2d7e57b4055e100027b2", "lon": -77.049475, "rental_uris": {"android": "https://dc.lft.to/lastmile_qr_scan", "ios": "https://dc.lft.to/lastmile_qr_scan"}, "fusion_lon": 0.0, "is_reserved": 0}, {"lat": 38.8830185, "fusion_lat": 0.0, "type": "electric_scooter", "name": "e77abecafcb61f38ff7326c757344a96", "is_disabled": 0, "bike_id": "e77abecafcb61f38ff7326c757344a96", "lon": -77.02477083333333, "rental_uris": {"android": "https://dc.lft.to/lastmile_qr_scan", "ios": "https://dc.lft.to/lastmile_qr_scan"}, "fusion_lon": 0.0, "is_reserved": 0}, {"lat": 38.905616333333334, "fusion_lat": 0.0, "type": "electric_scooter", "name": "43febaf0df07229705991bbb3b28a231", "is_disabled": 0, "bike_id": "43febaf0df07229705991bbb3b28a231", "lon": -77.00604433333334, "rental_uris": {"android": "https://dc.lft.to/lastmile_qr_scan", "ios": "https://dc.lft.to/lastmile_qr_scan"}, "fusion_lon": 0.0, "is_reserved": 0}, {"lat": 38.8924135, "fusion_lat": 0.0, "type": "electric_scooter", "name": "d5506d92c25bdd85382fbfed0215f56e", "is_disabled": 0, "bike_id": "d5506d92c25bdd85382fbfed0215f56e", "lon": -77.03350333333333, "rental_uris": {"android": "https://dc.lft.to/lastmile_qr_scan", "ios": "https://dc.lft.to/lastmile_qr_scan"}, "fusion_lon": 0.0, "is_reserved": 0}, {"lat": 38.95505033333333, "fusion_lat": 0.0, "type": "electric_scooter", "name": "537a5e891001c7646369aad77efe593f", "is_disabled": 0, "bike_id": "537a5e891001c7646369aad77efe593f", "lon": -77.02681966666667, "rental_uris": {"android": "https://dc.lft.to/lastmile_qr_scan", "ios": "https://dc.lft.to/lastmile_qr_scan"}, "fusion_lon": 0.0, "is_reserved": 0}, {"lat": 38.922457333333334, "fusion_lat": 0.0, "type": "electric_scooter", "name": "7ffbe0bd4326621bc337a4a447092da6", "is_disabled": 0, "bike_id": "7ffbe0bd4326621bc337a4a447092da6", "lon": -77.042539, "rental_uris": {"android": "https://dc.lft.to/lastmile_qr_scan", "ios": "https://dc.lft.to/lastmile_qr_scan"}, "fusion_lon": 0.0, "is_reserved": 0}, {"lat": 38.905255, "fusion_lat": 0.0, "type": "electric_scooter", "name": "03d6adf8e18f877ec74cd75e5cdb027c", "is_disabled": 0, "bike_id": "03d6adf8e18f877ec74cd75e5cdb027c", "lon": -77.04903783333333, "rental_uris": {"android": "https://dc.lft.to/lastmile_qr_scan", "ios": "https://dc.lft.to/lastmile_qr_scan"}, "fusion_lon": 0.0, "is_reserved": 0}, {"lat": 38.90238083333333, "fusion_lat": 0.0, "type": "electric_scooter", "name": "8b52f34c3b659ac3739ed5d1900d592f", "is_disabled": 0, "bike_id": "8b52f34c3b659ac3739ed5d1900d592f", "lon": -77.03976866666666, "rental_uris": {"android": "https://dc.lft.to/lastmile_qr_scan", "ios": "https://dc.lft.to/lastmile_qr_scan"}, "fusion_lon": 0.0, "is_reserved": 0}, {"lat": 38.91811916666666, "fusion_lat": 0.0, "type": "electric_scooter", "name": "69f1b5f99fb6b60573cd70e72654b398", "is_disabled": 0, "bike_id": "69f1b5f99fb6b60573cd70e72654b398", "lon": -77.03456966666667, "rental_uris": {"android": "https://dc.lft.to/lastmile_qr_scan", "ios": "https://dc.lft.to/lastmile_qr_scan"}, "fusion_lon": 0.0, "is_reserved": 0}, {"lat": 38.919408, "fusion_lat": 0.0, "type": "electric_scooter", "name": "029c0413ca7a542f98ca2d6262ee6a2b", "is_disabled": 0, "bike_id": "029c0413ca7a542f98ca2d6262ee6a2b", "lon": -77.04794333333334, "rental_uris": {"android": "https://dc.lft.to/lastmile_qr_scan", "ios": "https://dc.lft.to/lastmile_qr_scan"}, "fusion_lon": 0.0, "is_reserved": 0}, {"lat": 38.926630833333334, "fusion_lat": 0.0, "type": "electric_scooter", "name": "db3e235c1b25f767abeea89b610f26e8", "is_disabled": 0, "bike_id": "db3e235c1b25f767abeea89b610f26e8", "lon": -77.01462966666666, "rental_uris": {"android": "https://dc.lft.to/lastmile_qr_scan", "ios": "https://dc.lft.to/lastmile_qr_scan"}, "fusion_lon": 0.0, "is_reserved": 0}, {"lat": 38.9013335, "fusion_lat": 0.0, "type": "electric_scooter", "name": "294fe41f0732944d5b059c6accffb8fa", "is_disabled": 0, "bike_id": "294fe41f0732944d5b059c6accffb8fa", "lon": -77.04043333333334, "rental_uris": {"android": "https://dc.lft.to/lastmile_qr_scan", "ios": "https://dc.lft.to/lastmile_qr_scan"}, "fusion_lon": 0.0, "is_reserved": 0}, {"lat": 38.9025855, "fusion_lat": 0.0, "type": "electric_scooter", "name": "2bfae6e5d049c6a52c5c15df8aa16825", "is_disabled": 0, "bike_id": "2bfae6e5d049c6a52c5c15df8aa16825", "lon": -77.01228316666666, "rental_uris": {"android": "https://dc.lft.to/lastmile_qr_scan", "ios": "https://dc.lft.to/lastmile_qr_scan"}, "fusion_lon": 0.0, "is_reserved": 0}, {"lat": 38.902120833333335, "fusion_lat": 0.0, "type": "electric_scooter", "name": "2b8465a3b3a75d5e63180206164663ac", "is_disabled": 0, "bike_id": "2b8465a3b3a75d5e63180206164663ac", "lon": -77.047098, "rental_uris": {"android": "https://dc.lft.to/lastmile_qr_scan", "ios": "https://dc.lft.to/lastmile_qr_scan"}, "fusion_lon": 0.0, "is_reserved": 0}, {"lat": 38.87705866666667, "fusion_lat": 0.0, "type": "electric_scooter", "name": "5bba3e9ee666455dbb9822fa4366a427", "is_disabled": 0, "bike_id": "5bba3e9ee666455dbb9822fa4366a427", "lon": -77.00410033333333, "rental_uris": {"android": "https://dc.lft.to/lastmile_qr_scan", "ios": "https://dc.lft.to/lastmile_qr_scan"}, "fusion_lon": 0.0, "is_reserved": 0}, {"lat": 38.90866616666667, "fusion_lat": 0.0, "type": "electric_scooter", "name": "54ce2b468bdced5f0291cabad308c41a", "is_disabled": 0, "bike_id": "54ce2b468bdced5f0291cabad308c41a", "lon": -77.07156283333333, "rental_uris": {"android": "https://dc.lft.to/lastmile_qr_scan", "ios": "https://dc.lft.to/lastmile_qr_scan"}, "fusion_lon": 0.0, "is_reserved": 0}, {"lat": 38.845227666666666, "fusion_lat": 0.0, "type": "electric_bike", "name": "05bc2d2e321797680f132c17ad084977", "is_disabled": 0, "bike_id": "05bc2d2e321797680f132c17ad084977", "lon": -76.97397, "rental_uris": {"android": "https://dc.lft.to/lastmile_qr_scan", "ios": "https://dc.lft.to/lastmile_qr_scan"}, "fusion_lon": 0.0, "is_reserved": 0}, {"lat": 38.9001015, "fusion_lat": 0.0, "type": "electric_scooter", "name": "884a2c615b50be4139672de1c98a4803", "is_disabled": 0, "bike_id": "884a2c615b50be4139672de1c98a4803", "lon": -77.02606383333334, "rental_uris": {"android": "https://dc.lft.to/lastmile_qr_scan", "ios": "https://dc.lft.to/lastmile_qr_scan"}, "fusion_lon": 0.0, "is_reserved": 0}, {"lat": 38.89754533333333, "fusion_lat": 0.0, "type": "electric_scooter", "name": "574974915ecd4149070fa8a0a21ac31b", "is_disabled": 0, "bike_id": "574974915ecd4149070fa8a0a21ac31b", "lon": -77.0489325, "rental_uris": {"android": "https://dc.lft.to/lastmile_qr_scan", "ios": "https://dc.lft.to/lastmile_qr_scan"}, "fusion_lon": 0.0, "is_reserved": 0}, {"lat": 38.898240666666666, "fusion_lat": 0.0, "type": "electric_scooter", "name": "517f1a6a1884c9834f2d4d59c11bd878", "is_disabled": 0, "bike_id": "517f1a6a1884c9834f2d4d59c11bd878", "lon": -76.9465425, "rental_uris": {"android": "https://dc.lft.to/lastmile_qr_scan", "ios": "https://dc.lft.to/lastmile_qr_scan"}, "fusion_lon": 0.0, "is_reserved": 0}, {"lat": 38.90032333333333, "fusion_lat": 0.0, "type": "electric_bike", "name": "6cafc1587e47f34bd76823f2ab631362", "is_disabled": 0, "bike_id": "6cafc1587e47f34bd76823f2ab631362", "lon": -76.97224966666667, "rental_uris": {"android": "https://dc.lft.to/lastmile_qr_scan", "ios": "https://dc.lft.to/lastmile_qr_scan"}, "fusion_lon": 0.0, "is_reserved": 0}, {"lat": 38.906758333333336, "fusion_lat": 0.0, "type": "electric_scooter", "name": "505401c46e61bdfb36044e67cab2a1ac", "is_disabled": 0, "bike_id": "505401c46e61bdfb36044e67cab2a1ac", "lon": -77.03526766666667, "rental_uris": {"android": "https://dc.lft.to/lastmile_qr_scan", "ios": "https://dc.lft.to/lastmile_qr_scan"}, "fusion_lon": 0.0, "is_reserved": 0}, {"lat": 38.90837583333333, "fusion_lat": 0.0, "type": "electric_scooter", "name": "e8b1c2deb6b2f5eef4d3fc2cb709ca9a", "is_disabled": 0, "bike_id": "e8b1c2deb6b2f5eef4d3fc2cb709ca9a", "lon": -77.041653, "rental_uris": {"android": "https://dc.lft.to/lastmile_qr_scan", "ios": "https://dc.lft.to/lastmile_qr_scan"}, "fusion_lon": 0.0, "is_reserved": 0}, {"lat": 38.91413083333333, "fusion_lat": 0.0, "type": "electric_scooter", "name": "ebc5bd930f08074949b6eaa0e5024bc4", "is_disabled": 0, "bike_id": "ebc5bd930f08074949b6eaa0e5024bc4", "lon": -77.03174316666667, "rental_uris": {"android": "https://dc.lft.to/lastmile_qr_scan", "ios": "https://dc.lft.to/lastmile_qr_scan"}, "fusion_lon": 0.0, "is_reserved": 0}, {"lat": 38.884085666666664, "fusion_lat": 0.0, "type": "electric_bike", "name": "efcb4a859a6d4d51429fe89a8b9b1ff5", "is_disabled": 0, "bike_id": "efcb4a859a6d4d51429fe89a8b9b1ff5", "lon": -76.95412033333334, "rental_uris": {"android": "https://dc.lft.to/lastmile_qr_scan", "ios": "https://dc.lft.to/lastmile_qr_scan"}, "fusion_lon": 0.0, "is_reserved": 0}, {"lat": 38.8960105, "fusion_lat": 0.0, "type": "electric_scooter", "name": "c7d29cf6dd7928aa5d1bf34a7aa9866f", "is_disabled": 0, "bike_id": "c7d29cf6dd7928aa5d1bf34a7aa9866f", "lon": -77.0092725, "rental_uris": {"android": "https://dc.lft.to/lastmile_qr_scan", "ios": "https://dc.lft.to/lastmile_qr_scan"}, "fusion_lon": 0.0, "is_reserved": 0}, {"lat": 38.884984833333334, "fusion_lat": 0.0, "type": "electric_scooter", "name": "afec7d637d7c89d81fa7ba4a39fe0588", "is_disabled": 0, "bike_id": "afec7d637d7c89d81fa7ba4a39fe0588", "lon": -77.02110483333334, "rental_uris": {"android": "https://dc.lft.to/lastmile_qr_scan", "ios": "https://dc.lft.to/lastmile_qr_scan"}, "fusion_lon": 0.0, "is_reserved": 0}, {"lat": 38.93036416666666, "fusion_lat": 0.0, "type": "electric_scooter", "name": "83c4246f12cd970f8303913f48370fbd", "is_disabled": 0, "bike_id": "83c4246f12cd970f8303913f48370fbd", "lon": -77.0585215, "rental_uris": {"android": "https://dc.lft.to/lastmile_qr_scan", "ios": "https://dc.lft.to/lastmile_qr_scan"}, "fusion_lon": 0.0, "is_reserved": 0}, {"lat": 38.887424333333335, "fusion_lat": 0.0, "type": "electric_scooter", "name": "77aed9b7fe9d310b5d98efc7a9feeef1", "is_disabled": 0, "bike_id": "77aed9b7fe9d310b5d98efc7a9feeef1", "lon": -77.0212555, "rental_uris": {"android": "https://dc.lft.to/lastmile_qr_scan", "ios": "https://dc.lft.to/lastmile_qr_scan"}, "fusion_lon": 0.0, "is_reserved": 0}, {"lat": 38.90525016666667, "fusion_lat": 0.0, "type": "electric_scooter", "name": "15d7e10a1da3474cfffa171a09df291f", "is_disabled": 0, "bike_id": "15d7e10a1da3474cfffa171a09df291f", "lon": -77.0588135, "rental_uris": {"android": "https://dc.lft.to/lastmile_qr_scan", "ios": "https://dc.lft.to/lastmile_qr_scan"}, "fusion_lon": 0.0, "is_reserved": 0}, {"lat": 38.86662916666667, "fusion_lat": 0.0, "type": "electric_scooter", "name": "a54825989e3ee1983d427725672fdb54", "is_disabled": 0, "bike_id": "a54825989e3ee1983d427725672fdb54", "lon": -76.98887516666667, "rental_uris": {"android": "https://dc.lft.to/lastmile_qr_scan", "ios": "https://dc.lft.to/lastmile_qr_scan"}, "fusion_lon": 0.0, "is_reserved": 0}, {"lat": 38.90556633333333, "fusion_lat": 0.0, "type": "electric_scooter", "name": "5110da3a46d4de6cc597913c64f24704", "is_disabled": 0, "bike_id": "5110da3a46d4de6cc597913c64f24704", "lon": -77.00068666666667, "rental_uris": {"android": "https://dc.lft.to/lastmile_qr_scan", "ios": "https://dc.lft.to/lastmile_qr_scan"}, "fusion_lon": 0.0, "is_reserved": 0}, {"lat": 38.926363, "fusion_lat": 0.0, "type": "electric_scooter", "name": "ad721fae08ffa66a20c98c0a32225b02", "is_disabled": 0, "bike_id": "ad721fae08ffa66a20c98c0a32225b02", "lon": -77.01345633333334, "rental_uris": {"android": "https://dc.lft.to/lastmile_qr_scan", "ios": "https://dc.lft.to/lastmile_qr_scan"}, "fusion_lon": 0.0, "is_reserved": 0}, {"lat": 38.903464166666666, "fusion_lat": 0.0, "type": "electric_scooter", "name": "54081dd368581ce7125ace9116948f37", "is_disabled": 0, "bike_id": "54081dd368581ce7125ace9116948f37", "lon": -77.04568183333333, "rental_uris": {"android": "https://dc.lft.to/lastmile_qr_scan", "ios": "https://dc.lft.to/lastmile_qr_scan"}, "fusion_lon": 0.0, "is_reserved": 0}, {"lat": 38.897263333333335, "fusion_lat": 0.0, "type": "electric_bike", "name": "f78338db3ffe24edfe0e7040bd90e7bb", "is_disabled": 0, "bike_id": "f78338db3ffe24edfe0e7040bd90e7bb", "lon": -77.0552835, "rental_uris": {"android": "https://dc.lft.to/lastmile_qr_scan", "ios": "https://dc.lft.to/lastmile_qr_scan"}, "fusion_lon": 0.0, "is_reserved": 0}, {"lat": 38.90843866666667, "fusion_lat": 0.0, "type": "electric_scooter", "name": "a0c4f85d43d9792e9bcf6237651f4362", "is_disabled": 0, "bike_id": "a0c4f85d43d9792e9bcf6237651f4362", "lon": -77.0402325, "rental_uris": {"android": "https://dc.lft.to/lastmile_qr_scan", "ios": "https://dc.lft.to/lastmile_qr_scan"}, "fusion_lon": 0.0, "is_reserved": 0}, {"lat": 38.9141375, "fusion_lat": 0.0, "type": "electric_scooter", "name": "1f80f9a139e872934f27274d6b244fbc", "is_disabled": 0, "bike_id": "1f80f9a139e872934f27274d6b244fbc", "lon": -77.04502166666667, "rental_uris": {"android": "https://dc.lft.to/lastmile_qr_scan", "ios": "https://dc.lft.to/lastmile_qr_scan"}, "fusion_lon": 0.0, "is_reserved": 0}, {"lat": 38.8997115, "fusion_lat": 0.0, "type": "electric_scooter", "name": "7a202882f3f70202efebfc2c7a1ff59d", "is_disabled": 0, "bike_id": "7a202882f3f70202efebfc2c7a1ff59d", "lon": -77.03081833333333, "rental_uris": {"android": "https://dc.lft.to/lastmile_qr_scan", "ios": "https://dc.lft.to/lastmile_qr_scan"}, "fusion_lon": 0.0, "is_reserved": 0}, {"lat": 38.97251466666667, "fusion_lat": 0.0, "type": "electric_bike", "name": "b554b01f6dfaf6e39cd65ab2ebf8c233", "is_disabled": 0, "bike_id": "b554b01f6dfaf6e39cd65ab2ebf8c233", "lon": -76.99279016666667, "rental_uris": {"android": "https://dc.lft.to/lastmile_qr_scan", "ios": "https://dc.lft.to/lastmile_qr_scan"}, "fusion_lon": 0.0, "is_reserved": 0}, {"lat": 38.93579, "fusion_lat": 0.0, "type": "electric_scooter", "name": "2a72f90b1523e20a76283d295ae1c391", "is_disabled": 0, "bike_id": "2a72f90b1523e20a76283d295ae1c391", "lon": -77.03352516666666, "rental_uris": {"android": "https://dc.lft.to/lastmile_qr_scan", "ios": "https://dc.lft.to/lastmile_qr_scan"}, "fusion_lon": 0.0, "is_reserved": 0}, {"lat": 38.92539216666667, "fusion_lat": 0.0, "type": "electric_scooter", "name": "edf9cc551d959cc3fee5f0758dbd79ac", "is_disabled": 0, "bike_id": "edf9cc551d959cc3fee5f0758dbd79ac", "lon": -77.03382, "rental_uris": {"android": "https://dc.lft.to/lastmile_qr_scan", "ios": "https://dc.lft.to/lastmile_qr_scan"}, "fusion_lon": 0.0, "is_reserved": 0}, {"lat": 38.92725433333333, "fusion_lat": 0.0, "type": "electric_scooter", "name": "8788fab98508c02061683e14c7902151", "is_disabled": 0, "bike_id": "8788fab98508c02061683e14c7902151", "lon": -77.0324095, "rental_uris": {"android": "https://dc.lft.to/lastmile_qr_scan", "ios": "https://dc.lft.to/lastmile_qr_scan"}, "fusion_lon": 0.0, "is_reserved": 0}, {"lat": 38.9132245, "fusion_lat": 0.0, "type": "electric_scooter", "name": "eb4bc71bb4021ad460864872619b0004", "is_disabled": 0, "bike_id": "eb4bc71bb4021ad460864872619b0004", "lon": -77.045369, "rental_uris": {"android": "https://dc.lft.to/lastmile_qr_scan", "ios": "https://dc.lft.to/lastmile_qr_scan"}, "fusion_lon": 0.0, "is_reserved": 0}, {"lat": 38.91011833333334, "fusion_lat": 0.0, "type": "electric_scooter", "name": "a2ba0f89f432b72e1936348c8dc4ddd2", "is_disabled": 0, "bike_id": "a2ba0f89f432b72e1936348c8dc4ddd2", "lon": -77.0528405, "rental_uris": {"android": "https://dc.lft.to/lastmile_qr_scan", "ios": "https://dc.lft.to/lastmile_qr_scan"}, "fusion_lon": 0.0, "is_reserved": 0},