{"data": {"bikes": [{"is_disabled": 0, "fusion_lat": 0.0, "lat": 38.917686, "type": "electric_scooter", "lon": -77.02315516666667, "is_reserved": 0, "fusion_lon": 0.0, "bike_id": "9b3ce6974024ae3fca96ae3d9091d381", "name": "9b3ce6974024ae3fca96ae3d9091d381", "rental_uris": {"ios": "https://dc.lft.to/lastmile_qr_scan", "android": "https://dc.lft.to/lastmile_qr_scan"}}, {"is_disabled": 0, "fusion_lat": 0.0, "lat": 38.944355, "type": "electric_scooter", "lon": -76.99210816666667, "is_reserved": 0, "fusion_lon": 0.0, "bike_id": "c78d3a9dadb36ca5fa2dc4fabd18c3e0", "name": "c78d3a9dadb36ca5fa2dc4fabd18c3e0", "rental_uris": {"ios": "https://dc.lft.to/lastmile_qr_scan", "android": "https://dc.lft.to/lastmile_qr_scan"}}, {"is_disabled": 0, "fusion_lat": 0.0, "lat": 38.893468666666664, "type": "electric_scooter", "lon": -76.94937316666666, "is_reserved": 0, "fusion_lon": 0.0, "bike_id": "90c486ee579fc539ef1fc315c8d840c9", "name": "90c486ee579fc539ef1fc315c8d840c9", "rental_uris": {"ios": "https://dc.lft.to/lastmile_qr_scan", "android": "https://dc.lft.to/lastmile_qr_scan"}}, {"is_disabled": 0, "fusion_lat": 0.0, "lat": 38.89516183333333, "type": "electric_scooter", "lon": -77.02280466666667, "is_reserved": 0, "fusion_lon": 0.0, "bike_id": "c503833b62b866d75d834f42c7b6bf68", "name": "c503833b62b866d75d834f42c7b6bf68", "rental_uris": {"ios": "https://dc.lft.to/lastmile_qr_scan", "android": "https://dc.lft.to/lastmile_qr_scan"}}, {"is_disabled": 0, "fusion_lat": 0.0, "lat": 38.9347195, "type": "electric_scooter", "lon": -77.01928933333333, "is_reserved": 0, "fusion_lon": 0.0, "bike_id": "3c1ef9601dd4ec27504568a689ecbe3f", "name": "3c1ef9601dd4ec27504568a689ecbe3f", "rental_uris": {"ios": "https://dc.lft.to/lastmile_qr_scan", "android": "https://dc.lft.to/lastmile_qr_scan"}}, {"is_disabled": 0, "fusion_lat": 0.0, "lat": 38.902757, "type": "electric_scooter", "lon": -77.03848183333334, "is_reserved": 0, "fusion_lon": 0.0, "bike_id": "bace04ddb8438285efb8e8d33cc8c800", "name": "bace04ddb8438285efb8e8d33cc8c800", "rental_uris": {"ios": "https://dc.lft.to/lastmile_qr_scan", "android": "https://dc.lft.to/lastmile_qr_scan"}}, {"is_disabled": 0, "fusion_lat": 0.0, "lat": 38.89721466666667, "type": "electric_scooter", "lon": -77.0270495, "is_reserved": 0, "fusion_lon": 0.0, "bike_id": "f31e4f6951f908e3d6db59a9f3427392", "name": "f31e4f6951f908e3d6db59a9f3427392", "rental_uris": {"ios": "https://dc.lft.to/lastmile_qr_scan", "android": "https://dc.lft.to/lastmile_qr_scan"}}, {"is_disabled": 0, "fusion_lat": 0.0, "lat": 38.8850675, "type": "electric_scooter", "lon": -77.00566833333333, "is_reserved": 0, "fusion_lon": 0.0, "bike_id": "043bc93eaa496bba08f5bec9e200f042", "name": "043bc93eaa496bba08f5bec9e200f042", "rental_uris": {"ios": "https://dc.lft.to/lastmile_qr_scan", "android": "https://dc.lft.to/lastmile_qr_scan"}}, {"is_disabled": 0, "fusion_lat": 0.0, "lat": 38.8922155, "type": "electric_scooter", "lon": -77.02223983333333, "is_reserved": 0, "fusion_lon": 0.0, "bike_id": "73f8aa30b34e59eac901ac0db3939e2c", "name": "73f8aa30b34e59eac901ac0db3939e2c", "rental_uris": {"ios": "https://dc.lft.to/lastmile_qr_scan", "android": "https://dc.lft.to/lastmile_qr_scan"}}, {"is_disabled": 0, "fusion_lat": 0.0, "lat": 38.927203, "type": "electric_scooter", "lon": -77.03982666666667, "is_reserved": 0, "fusion_lon": 0.0, "bike_id": "9b2326bb5a3cf51bf779d419b1376472", "name": "9b2326bb5a3cf51bf779d419b1376472", "rental_uris": {"ios": "https://dc.lft.to/lastmile_qr_scan", "android": "https://dc.lft.to/lastmile_qr_scan"}}, {"is_disabled": 0, "fusion_lat": 0.0, "lat": 38.919477666666666, "type": "electric_scooter", "lon": -77.04148633333334, "is_reserved": 0, "fusion_lon": 0.0, "bike_id": "0c8b6f2a50b6c714fad476d9f3f2fdeb", "name": "0c8b6f2a50b6c714fad476d9f3f2fdeb", "rental_uris": {"ios": "https://dc.lft.to/lastmile_qr_scan", "android": "https://dc.lft.to/lastmile_qr_scan"}}, {"is_disabled": 0, "fusion_lat": 0.0, "lat": 38.90584783333333, "type": "electric_scooter", "lon": -77.041139, "is_reserved": 0, "fusion_lon": 0.0, "bike_id": "1b38d30c4e08ade870cd37078d085741", "name": "1b38d30c4e08ade870cd37078d085741", "rental_uris": {"ios": "https://dc.lft.to/lastmile_qr_scan", "android": "https://dc.lft.to/lastmile_qr_scan"}}, {"is_disabled": 0, "fusion_lat": 0.0, "lat": 38.8737675, "type": "electric_bike", "lon": -77.11800683333334, "is_reserved": 0, "fusion_lon": 0.0, "bike_id": "435d76eb774cde32f1e4d31e8028e350", "name": "435d76eb774cde32f1e4d31e8028e350", "rental_uris": {"ios": "https://dc.lft.to/lastmile_qr_scan", "android": "https://dc.lft.to/lastmile_qr_scan"}}, {"is_disabled": 0, "fusion_lat": 0.0, "lat": 38.881249, "type": "electric_scooter", "lon": -77.00101833333333, "is_reserved": 0, "fusion_lon": 0.0, "bike_id": "74ca60bb2d517f0d5b3d5bfa1d3b1f6b", "name": "74ca60bb2d517f0d5b3d5bfa1d3b1f6b", "rental_uris": {"ios": "https://dc.lft.to/lastmile_qr_scan", "android": "https://dc.lft.to/lastmile_qr_scan"}}, {"is_disabled": 0, "fusion_lat": 0.0, "lat": 38.8961935, "type": "electric_scooter", "lon": -76.99415983333333, "is_reserved": 0, "fusion_lon": 0.0, "bike_id": "871590f92ebdd368c481066f2edde9f6", "name": "871590f92ebdd368c481066f2edde9f6", "rental_uris": {"ios": "https://dc.lft.to/lastmile_qr_scan", "android": "https://dc.lft.to/lastmile_qr_scan"}}, {"is_disabled": 0, "fusion_lat": 0.0, "lat": 38.87146533333333, "type": "electric_bike", "lon": -76.9366975, "is_reserved": 0, "fusion_lon": 0.0, "bike_id": "820befbe8b166916754a922cc0b462ac", "name": "820befbe8b166916754a922cc0b462ac", "rental_uris": {"ios": "https://dc.lft.to/lastmile_qr_scan", "android": "https://dc.lft.to/lastmile_qr_scan"}}, {"is_disabled": 0, "fusion_lat": 0.0, "lat": 38.92497316666667, "type": "electric_scooter", "lon": -77.02152416666667, "is_reserved": 0, "fusion_lon": 0.0, "bike_id": "20f8d9b43bcadee80b35e07d654a3cee", "name": "20f8d9b43bcadee80b35e07d654a3cee", "rental_uris": {"ios": "https://dc.lft.to/lastmile_qr_scan", "android": "https://dc.lft.to/lastmile_qr_scan"}}, {"is_disabled": 0, "fusion_lat": 0.0, "lat": 38.9019035, "type": "electric_scooter", "lon": -77.025566, "is_reserved": 0, "fusion_lon": 0.0, "bike_id": "97ef209f3a12fdda9dd4bf2cd766ccfc", "name": "97ef209f3a12fdda9dd4bf2cd766ccfc", "rental_uris": {"ios": "https://dc.lft.to/lastmile_qr_scan", "android": "https://dc.lft.to/lastmile_qr_scan"}}, {"is_disabled": 0, "fusion_lat": 0.0, "lat": 38.913864, "type": "electric_scooter", "lon": -77.03213983333333, "is_reserved": 0, "fusion_lon": 0.0, "bike_id": "1cb18791f524c7c0f9daaaa50ba0f971", "name": "1cb18791f524c7c0f9daaaa50ba0f971", "rental_uris": {"ios": "https://dc.lft.to/lastmile_qr_scan", "android": "https://dc.lft.to/lastmile_qr_scan"}}, {"is_disabled": 0, "fusion_lat": 0.0, "lat": 38.90000233333333, "type": "electric_scooter", "lon": -77.00627166666666, "is_reserved": 0, "fusion_lon": 0.0, "bike_id": "b9544d7d5fffffd3a8504c6793867da1", "name": "b9544d7d5fffffd3a8504c6793867da1", "rental_uris": {"ios": "https://dc.lft.to/lastmile_qr_scan", "android": "https://dc.lft.to/lastmile_qr_scan"}}, {"is_disabled": 0, "fusion_lat": 0.0, "lat": 38.903242, "type": "electric_bike", "lon": -77.04497583333334, "is_reserved": 0, "fusion_lon": 0.0, "bike_id": "d0b48de58841f9fd3a9f303a07c05617", "name": "d0b48de58841f9fd3a9f303a07c05617", "rental_uris": {"ios": "https://dc.lft.to/lastmile_qr_scan", "android": "https://dc.lft.to/lastmile_qr_scan"}}, {"is_disabled": 0, "fusion_lat": 0.0, "lat": 38.8831385, "type": "electric_scooter", "lon": -77.009393, "is_reserved": 0, "fusion_lon": 0.0, "bike_id": "d924ff98d64ffa53cfaa5f4c27c8b35d", "name": "d924ff98d64ffa53cfaa5f4c27c8b35d", "rental_uris": {"ios": "https://dc.lft.to/lastmile_qr_scan", "android": "https://dc.lft.to/lastmile_qr_scan"}}, {"is_disabled": 0, "fusion_lat": 0.0, "lat": 38.90977083333333, "type": "electric_scooter", "lon": -77.04872, "is_reserved": 0, "fusion_lon": 0.0, "bike_id": "5d18f8adaf98828871170a478af38e55", "name": "5d18f8adaf98828871170a478af38e55", "rental_uris": {"ios": "https://dc.lft.to/lastmile_qr_scan", "android": "https://dc.lft.to/lastmile_qr_scan"}}, {"is_disabled": 0, "fusion_lat": 0.0, "lat": 38.898852166666664, "type": "electric_scooter", "lon": -77.03284916666667, "is_reserved": 0, "fusion_lon": 0.0, "bike_id": "0d439add96e85ae0738a6a46eeed1bff", "name": "0d439add96e85ae0738a6a46eeed1bff", "rental_uris": {"ios": "https://dc.lft.to/lastmile_qr_scan", "android": "https://dc.lft.to/lastmile_qr_scan"}}, {"is_disabled": 0, "fusion_lat": 0.0, "lat": 38.95221033333333, "type": "electric_bike", "lon": -77.00280116666667, "is_reserved": 0, "fusion_lon": 0.0, "bike_id": "0561bb5aefadfc4526fb1bae83d4739e", "name": "0561bb5aefadfc4526fb1bae83d4739e", "rental_uris": {"ios": "https://dc.lft.to/lastmile_qr_scan", "android": "https://dc.lft.to/lastmile_qr_scan"}}, {"is_disabled": 0, "fusion_lat": 0.0, "lat": 38.87534016666667, "type": "electric_scooter", "lon": -77.0006295, "is_reserved": 0, "fusion_lon": 0.0, "bike_id": "e38f91cc723d185b4231eaeb5b69a0ce", "name": "e38f91cc723d185b4231eaeb5b69a0ce", "rental_uris": {"ios": "https://dc.lft.to/lastmile_qr_scan", "android": "https://dc.lft.to/lastmile_qr_scan"}}, {"is_disabled": 0, "fusion_lat": 0.0, "lat": 38.90364816666667, "type": "electric_scooter", "lon": -77.0389315, "is_reserved": 0, "fusion_lon": 0.0, "bike_id": "d81ca41c62c56049b96f862e4cf0c94e", "name": "d81ca41c62c56049b96f862e4cf0c94e", "rental_uris": {"ios": "https://dc.lft.to/lastmile_qr_scan", "android": "https://dc.lft.to/lastmile_qr_scan"}}, {"is_disabled": 0, "fusion_lat": 0.0, "lat": 38.95355266666667, "type": "electric_bike", "lon": -76.98092933333334, "is_reserved": 0, "fusion_lon": 0.0, "bike_id": "32dfce75778615704ee504fbd34d14b3", "name": "32dfce75778615704ee504fbd34d14b3", "rental_uris": {"ios": "https://dc.lft.to/lastmile_qr_scan", "android": "https://dc.lft.to/lastmile_qr_scan"}}, {"is_disabled": 0, "fusion_lat": 0.0, "lat": 38.9418445, "type": "electric_scooter", "lon": -77.024881, "is_reserved": 0, "fusion_lon": 0.0, "bike_id": "c624a50bd75756188aad9f0ea221303c", "name": "c624a50bd75756188aad9f0ea221303c", "rental_uris": {"ios": "https://dc.lft.to/lastmile_qr_scan", "android": "https://dc.lft.to/lastmile_qr_scan"}}, {"is_disabled": 0, "fusion_lat": 0.0, "lat": 38.903627, "type": "electric_scooter", "lon": -77.05039983333333, "is_reserved": 0, "fusion_lon": 0.0, "bike_id": "e8d5bb49e5b520beb44659063e79aa08", "name": "e8d5bb49e5b520beb44659063e79aa08", "rental_uris": {"ios": "https://dc.lft.to/lastmile_qr_scan", "android": "https://dc.lft.to/lastmile_qr_scan"}}, {"is_disabled": 0, "fusion_lat": 0.0, "lat": 38.8935425, "type": "electric_scooter", "lon": -77.00337883333333, "is_reserved": 0, "fusion_lon": 0.0, "bike_id": "8c5e4171b8cd23de39e00951228bdd36", "name": "8c5e4171b8cd23de39e00951228bdd36", "rental_uris": {"ios": "https://dc.lft.to/lastmile_qr_scan", "android": "https://dc.lft.to/lastmile_qr_scan"}}, {"is_disabled": 0, "fusion_lat": 0.0, "lat": 38.900185, "type": "electric_scooter", "lon": -76.99783833333333, "is_reserved": 0, "fusion_lon": 0.0, "bike_id": "50aa2c9efd9299d317702533bf9be453", "name": "50aa2c9efd9299d317702533bf9be453", "rental_uris": {"ios": "https://dc.lft.to/lastmile_qr_scan", "android": "https://dc.lft.to/lastmile_qr_scan"}}, {"is_disabled": 0, "fusion_lat": 0.0, "lat": 38.9027535, "type": "electric_bike", "lon": -77.05994716666666, "is_reserved": 0, "fusion_lon": 0.0, "bike_id": "dc619075314f2a2e9264e90547a9ae0b", "name": "dc619075314f2a2e9264e90547a9ae0b", "rental_uris": {"ios": "https://dc.lft.to/lastmile_qr_scan", "android": "https://dc.lft.to/lastmile_qr_scan"}}, {"is_disabled": 0, "fusion_lat": 0.0, "lat": 38.91617016666667, "type": "electric_scooter", "lon": -77.02711516666666, "is_reserved": 0, "fusion_lon": 0.0, "bike_id": "6eec42eda76f36f3939a38e48f5be4d5", "name": "6eec42eda76f36f3939a38e48f5be4d5", "rental_uris": {"ios": "https://dc.lft.to/lastmile_qr_scan", "android": "https://dc.lft.to/lastmile_qr_scan"}}, {"is_disabled": 0, "fusion_lat": 0.0, "lat": 38.892484, "type": "electric_scooter", "lon": -76.94348116666667, "is_reserved": 0, "fusion_lon": 0.0, "bike_id": "4849bddd56a314bf1056d06b702984fc", "name": "4849bddd56a314bf1056d06b702984fc", "rental_uris": {"ios": "https://dc.lft.to/lastmile_qr_scan", "android": "https://dc.lft.to/lastmile_qr_scan"}}, {"is_disabled": 0, "fusion_lat": 0.0, "lat": 38.921524166666664, "type": "electric_scooter", "lon": -77.0387115, "is_reserved": 0, "fusion_lon": 0.0, "bike_id": "0cd615223af812158f6881c9de727006", "name": "0cd615223af812158f6881c9de727006", "rental_uris": {"ios": "https://dc.lft.to/lastmile_qr_scan", "android": "https://dc.lft.to/lastmile_qr_scan"}}, {"is_disabled": 0, "fusion_lat": 0.0, "lat": 38.908466833333335, "type": "electric_scooter", "lon": -77.02463366666667, "is_reserved": 0, "fusion_lon": 0.0, "bike_id": "d7d5db306387153782918f8a37ccc1b6", "name": "d7d5db306387153782918f8a37ccc1b6", "rental_uris": {"ios": "https://dc.lft.to/lastmile_qr_scan", "android": "https://dc.lft.to/lastmile_qr_scan"}}, {"is_disabled": 0, "fusion_lat": 0.0, "lat": 38.885020833333336, "type": "electric_scooter", "lon": -77.01589783333333, "is_reserved": 0, "fusion_lon": 0.0, "bike_id": "507aea665d027d99df8879dc37dd3350", "name": "507aea665d027d99df8879dc37dd3350", "rental_uris": {"ios": "https://dc.lft.to/lastmile_qr_scan", "android": "https://dc.lft.to/lastmile_qr_scan"}}, {"is_disabled": 0, "fusion_lat": 0.0, "lat": 38.90519833333333, "type": "electric_scooter", "lon": -77.045621, "is_reserved": 0, "fusion_lon": 0.0, "bike_id": "1b3ea6500d13e4ecaec1d778f3b539f7", "name": "1b3ea6500d13e4ecaec1d778f3b539f7", "rental_uris": {"ios": "https://dc.lft.to/lastmile_qr_scan", "android": "https://dc.lft.to/lastmile_qr_scan"}}, {"is_disabled": 0, "fusion_lat": 0.0, "lat": 38.92345683333333, "type": "electric_scooter", "lon": -77.05072566666666, "is_reserved": 0, "fusion_lon": 0.0, "bike_id": "a261aed52066d3638ae01edd719266ea", "name": "a261aed52066d3638ae01edd719266ea", "rental_uris": {"ios": "https://dc.lft.to/lastmile_qr_scan", "android": "https://dc.lft.to/lastmile_qr_scan"}}, {"is_disabled": 0, "fusion_lat": 0.0, "lat": 38.905053833333334, "type": "electric_scooter", "lon": -77.06657016666666, "is_reserved": 0, "fusion_lon": 0.0, "bike_id": "ba5cc682723f8aac96c4e7225f5a4475", "name": "ba5cc682723f8aac96c4e7225f5a4475", "rental_uris": {"ios": "https://dc.lft.to/lastmile_qr_scan", "android": "https://dc.lft.to/lastmile_qr_scan"}}, {"is_disabled": 0, "fusion_lat": 0.0, "lat": 38.89220183333333, "type": "electric_scooter", "lon": -77.046495, "is_reserved": 0, "fusion_lon": 0.0, "bike_id": "8371333f5896b1bf6ca740805238b821", "name": "8371333f5896b1bf6ca740805238b821", "rental_uris": {"ios": "https://dc.lft.to/lastmile_qr_scan", "android": "https://dc.lft.to/lastmile_qr_scan"}}, {"is_disabled": 0, "fusion_lat": 0.0, "lat": 38.956360833333335, "type": "electric_scooter", "lon": -77.03303866666667, "is_reserved": 0, "fusion_lon": 0.0, "bike_id": "4e77982356575aa224ecf0b4d04439c0", "name": "4e77982356575aa224ecf0b4d04439c0", "rental_uris": {"ios": "https://dc.lft.to/lastmile_qr_scan", "android": "https://dc.lft.to/lastmile_qr_scan"}}, {"is_disabled": 0, "fusion_lat": 0.0, "lat": 38.9025025, "type": "electric_scooter", "lon": -77.0490455, "is_reserved": 0, "fusion_lon": 0.0, "bike_id": "e7b97a2d0965a655c74e1148f21ec696", "name": "e7b97a2d0965a655c74e1148f21ec696", "rental_uris": {"ios": "https://dc.lft.to/lastmile_qr_scan", "android": "https://dc.lft.to/lastmile_qr_scan"}}, {"is_disabled": 0, "fusion_lat": 0.0, "lat": 38.9005175, "type": "electric_scooter", "lon": -77.05025833333333, "is_reserved": 0, "fusion_lon": 0.0, "bike_id": "1aefa86950c17d3d4b7c3a62a58155b8", "name": "1aefa86950c17d3d4b7c3a62a58155b8", "rental_uris": {"ios": "https://dc.lft.to/lastmile_qr_scan", "android": "https://dc.lft.to/lastmile_qr_scan"}}, {"is_disabled": 0, "fusion_lat": 0.0, "lat": 38.904874166666666, "type": "electric_scooter", "lon": -77.067907, "is_reserved": 0, "fusion_lon": 0.0, "bike_id": "17c7176739dfe60bb6fd6f71b22e1707", "name": "17c7176739dfe60bb6fd6f71b22e1707", "rental_uris": {"ios": "https://dc.lft.to/lastmile_qr_scan", "android": "https://dc.lft.to/lastmile_qr_scan"}}, {"is_disabled": 0, "fusion_lat": 0.0, "lat": 38.90955983333333, "type": "electric_scooter", "lon": -77.046458, "is_reserved": 0, "fusion_lon": 0.0, "bike_id": "bc6e41027f740a61e1fdb24fdc23a4e8", "name": "bc6e41027f740a61e1fdb24fdc23a4e8", "rental_uris": {"ios": "https://dc.lft.to/lastmile_qr_scan", "android": "https://dc.lft.to/lastmile_qr_scan"}}, {"is_disabled": 0, "fusion_lat": 0.0, "lat": 38.871981166666664, "type": "electric_scooter", "lon": -77.00607883333333, "is_reserved": 0, "fusion_lon": 0.0, "bike_id": "eef64ab3f9dd29c4b1f288ea2c5144d3", "name": "eef64ab3f9dd29c4b1f288ea2c5144d3", "rental_uris": {"ios": "https://dc.lft.to/lastmile_qr_scan", "android": "https://dc.lft.to/lastmile_qr_scan"}}, {"is_disabled": 0, "fusion_lat": 0.0, "lat": 38.910521, "type": "electric_scooter", "lon": -77.0152345, "is_reserved": 0, "fusion_lon": 0.0, "bike_id": "38f3f546a86ebac9d05d6854a4195e4b", "name": "38f3f546a86ebac9d05d6854a4195e4b", "rental_uris": {"ios": "https://dc.lft.to/lastmile_qr_scan", "android": "https://dc.lft.to/lastmile_qr_scan"}}, {"is_disabled": 0, "fusion_lat": 0.0, "lat": 38.933631, "type": "electric_scooter", "lon": -77.05717466666667, "is_reserved": 0, "fusion_lon": 0.0, "bike_id": "7555525bd7de731a0bc4a70e62ccdb87", "name": "7555525bd7de731a0bc4a70e62ccdb87", "rental_uris": {"ios": "https://dc.lft.to/lastmile_qr_scan", "android": "https://dc.lft.to/lastmile_qr_scan"}}, {"is_disabled": 0, "fusion_lat": 0.0, "lat": 38.874861333333335, "type": "electric_scooter", "lon": -77.00117716666666, "is_reserved": 0, "fusion_lon": 0.0, "bike_id": "98179b3f01e0478225f5ba640922c1b3", "name": "98179b3f01e0478225f5ba640922c1b3", "rental_uris": {"ios": "https://dc.lft.to/lastmile_qr_scan", "android": "https://dc.lft.to/lastmile_qr_scan"}}, {"is_disabled": 0, "fusion_lat": 0.0, "lat": 38.9182155, "type": "electric_scooter", "lon": -77.03841966666667, "is_reserved": 0, "fusion_lon": 0.0, "bike_id": "69c8778548c584467d66354100a70061", "name": "69c8778548c584467d66354100a70061", "rental_uris": {"ios": "https://dc.lft.to/lastmile_qr_scan", "android": "https://dc.lft.to/lastmile_qr_scan"}}, {"is_disabled": 0, "fusion_lat": 0.0, "lat": 38.941715, "type": "electric_scooter", "lon": -77.02351516666667, "is_reserved": 0, "fusion_lon": 0.0, "bike_id": "42d976f4efa5617845b259b5a59cd83f", "name": "42d976f4efa5617845b259b5a59cd83f", "rental_uris": {"ios": "https://dc.lft.to/lastmile_qr_scan", "android": "https://dc.lft.to/lastmile_qr_scan"}}, {"is_disabled": 0, "fusion_lat": 0.0, "lat": 38.90960416666667, "type": "electric_scooter", "lon": -77.01436116666666, "is_reserved": 0, "fusion_lon": 0.0, "bike_id": "11221a94f4febaf90c1ec439eb34a59e", "name": "11221a94f4febaf90c1ec439eb34a59e", "rental_uris": {"ios": "https://dc.lft.to/lastmile_qr_scan", "android": "https://dc.lft.to/lastmile_qr_scan"}}, {"is_disabled": 0, "fusion_lat": 0.0, "lat": 38.892116, "type": "electric_scooter", "lon": -77.02627416666667, "is_reserved": 0, "fusion_lon": 0.0, "bike_id": "0b9f4dcd83a460db7f173b76d02a99af", "name": "0b9f4dcd83a460db7f173b76d02a99af", "rental_uris": {"ios": "https://dc.lft.to/lastmile_qr_scan", "android": "https://dc.lft.to/lastmile_qr_scan"}}, {"is_disabled": 0, "fusion_lat": 0.0, "lat": 38.924612333333336, "type": "electric_scooter", "lon": -77.03275316666667, "is_reserved": 0, "fusion_lon": 0.0, "bike_id": "2614abcaf2f7721cb25920cdd59710e6", "name": "2614abcaf2f7721cb25920cdd59710e6", "rental_uris": {"ios": "https://dc.lft.to/lastmile_qr_scan", "android": "https://dc.lft.to/lastmile_qr_scan"}}, {"is_disabled": 0, "fusion_lat": 0.0, "lat": 38.904953, "type": "electric_scooter", "lon": -77.062786, "is_reserved": 0, "fusion_lon": 0.0, "bike_id": "b993e81488b247ba739e0861daa4f710", "name": "b993e81488b247ba739e0861daa4f710", "rental_uris": {"ios": "https://dc.lft.to/lastmile_qr_scan", "android": "https://dc.lft.to/lastmile_qr_scan"}}, {"is_disabled": 0, "fusion_lat": 0.0, "lat": 38.89618216666667, "type": "electric_scooter", "lon": -77.027914, "is_reserved": 0, "fusion_lon": 0.0, "bike_id": "4652f57c8e92c96e389e80e5cccafa9a", "name": "4652f57c8e92c96e389e80e5cccafa9a", "rental_uris": {"ios": "https://dc.lft.to/lastmile_qr_scan", "android": "https://dc.lft.to/lastmile_qr_scan"}}, {"is_disabled": 0, "fusion_lat": 0.0, "lat": 38.909771666666664, "type": "electric_scooter", "lon": -77.03182083333333, "is_reserved": 0, "fusion_lon": 0.0, "bike_id": "8d4ef63df06cafa20bdeb62e8a2c5645", "name": "8d4ef63df06cafa20bdeb62e8a2c5645", "rental_uris": {"ios": "https://dc.lft.to/lastmile_qr_scan", "android": "https://dc.lft.to/lastmile_qr_scan"}}, {"is_disabled": 0, "fusion_lat": 0.0, "lat": 38.862826, "type": "electric_scooter", "lon": -76.99237916666667, "is_reserved": 0, "fusion_lon": 0.0, "bike_id": "f2ac8f8e6590dd4ac5bef2fbcf5d4f49", "name": "f2ac8f8e6590dd4ac5bef2fbcf5d4f49", "rental_uris": {"ios": "https://dc.lft.to/lastmile_qr_scan", "android": "https://dc.lft.to/lastmile_qr_scan"}}, {"is_disabled": 0, "fusion_lat": 0.0, "lat": 38.923788, "type": "electric_scooter", "lon": -77.02561316666667, "is_reserved": 0, "fusion_lon": 0.0, "bike_id": "717b704a4c916b559ba2ef43787696ca", "name": "717b704a4c916b559ba2ef43787696ca", "rental_uris": {"ios": "https://dc.lft.to/lastmile_qr_scan", "android": "https://dc.lft.to/lastmile_qr_scan"}}, {"is_disabled": 0, "fusion_lat": 0.0, "lat": 38.941689333333336, "type": "electric_scooter", "lon": -77.02537, "is_reserved": 0, "fusion_lon": 0.0, "bike_id": "dec61db7802dbc312038144428ffbc7c", "name": "dec61db7802dbc312038144428ffbc7c", "rental_uris": {"ios": "https://dc.lft.to/lastmile_qr_scan", "android": "https://dc.lft.to/lastmile_qr_scan"}}, {"is_disabled": 0, "fusion_lat": 0.0, "lat": 38.93037733333333, "type": "electric_scooter", "lon": -77.03220216666666, "is_reserved": 0, "fusion_lon": 0.0, "bike_id": "6ed6d47a92bcd59b9a9fa2c667f13329", "name": "6ed6d47a92bcd59b9a9fa2c667f13329", "rental_uris": {"ios": "https://dc.lft.to/lastmile_qr_scan", "android": "https://dc.lft.to/lastmile_qr_scan"}}, {"is_disabled": 0, "fusion_lat": 0.0, "lat": 38.85809166666667, "type": "electric_scooter", "lon": -76.98657633333333, "is_reserved": 0, "fusion_lon": 0.0, "bike_id": "ffc1ab10d7657fb5c75f9ced671aca7c", "name": "ffc1ab10d7657fb5c75f9ced671aca7c", "rental_uris": {"ios": "https://dc.lft.to/lastmile_qr_scan", "android": "https://dc.lft.to/lastmile_qr_scan"}}, {"is_disabled": 0, "fusion_lat": 0.0, "lat": 38.848679833333335, "type": "electric_bike", "lon": -77.20044683333333, "is_reserved": 0, "fusion_lon": 0.0, "bike_id": "4e4958435cb8a78ee4226ee061a37cd2", "name": "4e4958435cb8a78ee4226ee061a37cd2", "rental_uris": {"ios": "https://dc.lft.to/lastmile_qr_scan", "android": "https://dc.lft.to/lastmile_qr_scan"}}, {"is_disabled": 0, "fusion_lat": 0.0, "lat": 38.90160183333333, "type": "electric_scooter", "lon": -77.04036933333333, "is_reserved": 0, "fusion_lon": 0.0, "bike_id": "2cf5127b1e24f514dc78a454386e7a6c", "name": "2cf5127b1e24f514dc78a454386e7a6c", "rental_uris": {"ios": "https://dc.lft.to/lastmile_qr_scan", "android": "https://dc.lft.to/lastmile_qr_scan"}}, {"is_disabled": 0, "fusion_lat": 0.0, "lat": 38.908665666666664, "type": "electric_scooter", "lon": -77.08595866666667, "is_reserved": 0, "fusion_lon": 0.0, "bike_id": "71a138aca527b2f932a556b7eecbed51", "name": "71a138aca527b2f932a556b7eecbed51", "rental_uris": {"ios": "https://dc.lft.to/lastmile_qr_scan", "android": "https://dc.lft.to/lastmile_qr_scan"}}, {"is_disabled": 0, "fusion_lat": 0.0, "lat": 38.9049315, "type": "electric_scooter", "lon": -77.043544, "is_reserved": 0, "fusion_lon": 0.0, "bike_id": "966d7c56932ec659398bd91008f4c2b8", "name": "966d7c56932ec659398bd91008f4c2b8", "rental_uris": {"ios": "https://dc.lft.to/lastmile_qr_scan", "android": "https://dc.lft.to/lastmile_qr_scan"}}, {"is_disabled": 0, "fusion_lat": 0.0, "lat": 38.87478133333333, "type": "electric_scooter", "lon": -77.00938216666667, "is_reserved": 0, "fusion_lon": 0.0, "bike_id": "c6ba40790c4f23c07b44c626627ee5e3", "name": "c6ba40790c4f23c07b44c626627ee5e3", "rental_uris": {"ios": "https://dc.lft.to/lastmile_qr_scan", "android": "https://dc.lft.to/lastmile_qr_scan"}}, {"is_disabled": 0, "fusion_lat": 0.0, "lat": 38.90386133333333, "type": "electric_scooter", "lon": -77.0479775, "is_reserved": 0, "fusion_lon": 0.0, "bike_id": "5b0a5cbf5e9fb78a76b348f8f3c36e7d", "name": "5b0a5cbf5e9fb78a76b348f8f3c36e7d", "rental_uris": {"ios": "https://dc.lft.to/lastmile_qr_scan", "android": "https://dc.lft.to/lastmile_qr_scan"}}, {"is_disabled": 0, "fusion_lat": 0.0, "lat": 38.93061316666667, "type": "electric_scooter", "lon": -77.041771, "is_reserved": 0, "fusion_lon": 0.0, "bike_id": "c0fbaf7950e9e77b55ca26344ba73b88", "name": "c0fbaf7950e9e77b55ca26344ba73b88", "rental_uris": {"ios": "https://dc.lft.to/lastmile_qr_scan", "android": "https://dc.lft.to/lastmile_qr_scan"}}, {"is_disabled": 0, "fusion_lat": 0.0, "lat": 38.901498833333335, "type": "electric_scooter", "lon": -77.04386016666666, "is_reserved": 0, "fusion_lon": 0.0, "bike_id": "5869e8dbd3892b5c59da53db589041e9", "name": "5869e8dbd3892b5c59da53db589041e9", "rental_uris": {"ios": "https://dc.lft.to/lastmile_qr_scan", "android": "https://dc.lft.to/lastmile_qr_scan"}}, {"is_disabled": 0, "fusion_lat": 0.0, "lat": 38.92053716666667, "type": "electric_scooter", "lon": -77.0337615, "is_reserved": 0, "fusion_lon": 0.0, "bike_id": "b910a667c11313c9f2f744b44f8ece46", "name": "b910a667c11313c9f2f744b44f8ece46", "rental_uris": {"ios": "https://dc.lft.to/lastmile_qr_scan", "android": "https://dc.lft.to/lastmile_qr_scan"}}, {"is_disabled": 0, "fusion_lat": 0.0, "lat": 38.8983115, "type": "electric_scooter", "lon": -76.946361, "is_reserved": 0, "fusion_lon": 0.0, "bike_id": "923e7bf688e06cf8a254dc003ac9867f", "name": "923e7bf688e06cf8a254dc003ac9867f", "rental_uris": {"ios": "https://dc.lft.to/lastmile_qr_scan", "android": "https://dc.lft.to/lastmile_qr_scan"}}, {"is_disabled": 0, "fusion_lat": 0.0, "lat": 38.92043816666666, "type": "electric_scooter", "lon": -77.041777, "is_reserved": 0, "fusion_lon": 0.0, "bike_id": "4c8a130f5543f6eb085f505d8573eb57", "name": "4c8a130f5543f6eb085f505d8573eb57", "rental_uris": {"ios": "https://dc.lft.to/lastmile_qr_scan", "android": "https://dc.lft.to/lastmile_qr_scan"}}, {"is_disabled": 0, "fusion_lat": 0.0, "lat": 38.9025445, "type": "electric_scooter", "lon": -77.0175425, "is_reserved": 0, "fusion_lon": 0.0, "bike_id": "2fdf94375d029970649733e42923b628", "name": "2fdf94375d029970649733e42923b628", "rental_uris": {"ios": "https://dc.lft.to/lastmile_qr_scan", "android": "https://dc.lft.to/lastmile_qr_scan"}}, {"is_disabled": 0, "fusion_lat": 0.0, "lat": 38.907075166666665, "type": "electric_scooter", "lon": -77.02190033333333, "is_reserved": 0, "fusion_lon": 0.0, "bike_id": "51a8208b27d541fbf843939c9792cb6a", "name": "51a8208b27d541fbf843939c9792cb6a", "rental_uris": {"ios": "https://dc.lft.to/lastmile_qr_scan", "android": "https://dc.lft.to/lastmile_qr_scan"}}, {"is_disabled": 0, "fusion_lat": 0.0, "lat": 38.899101, "type": "electric_scooter", "lon": -76.93352283333333, "is_reserved": 0, "fusion_lon": 0.0, "bike_id": "7727323b2636facab5898d3b8df23758", "name": "7727323b2636facab5898d3b8df23758", "rental_uris": {"ios": "https://dc.lft.to/lastmile_qr_scan", "android": "https://dc.lft.to/lastmile_qr_scan"}}, {"is_disabled": 0, "fusion_lat": 0.0, "lat": 38.89044466666667, "type": "electric_scooter", "lon": -76.93751716666667, "is_reserved": 0, "fusion_lon": 0.0, "bike_id": "8caf5348484798f2cfb48ebc92d3e0a8", "name": "8caf5348484798f2cfb48ebc92d3e0a8", "rental_uris": {"ios": "https://dc.lft.to/lastmile_qr_scan", "android": "https://dc.lft.to/lastmile_qr_scan"}}, {"is_disabled": 0, "fusion_lat": 0.0, "lat": 38.92320683333333, "type": "electric_scooter", "lon": -77.039008, "is_reserved": 0, "fusion_lon": 0.0, "bike_id": "678ebf897250d91b46f185c21bf663bf", "name": "678ebf897250d91b46f185c21bf663bf", "rental_uris": {"ios": "https://dc.lft.to/lastmile_qr_scan", "android": "https://dc.lft.to/lastmile_qr_scan"}}, {"is_disabled": 0, "fusion_lat": 0.0, "lat": 38.88885483333333, "type": "electric_bike", "lon": -77.07942666666666, "is_reserved": 0, "fusion_lon": 0.0, "bike_id": "5951ec0b3bcdb686f789d699ce1fda76", "name": "5951ec0b3bcdb686f789d699ce1fda76", "rental_uris": {"ios": "https://dc.lft.to/lastmile_qr_scan", "android": "https://dc.lft.to/lastmile_qr_scan"}}, {"is_disabled": 0, "fusion_lat": 0.0, "lat": 38.961732833333336, "type": "electric_bike", "lon": -76.99588883333334, "is_reserved": 0, "fusion_lon": 0.0, "bike_id": "077e324e04c15fae037240e18f5547e1", "name": "077e324e04c15fae037240e18f5547e1", "rental_uris": {"ios": "https://dc.lft.to/lastmile_qr_scan", "android": "https://dc.lft.to/lastmile_qr_scan"}}, {"is_disabled": 0, "fusion_lat": 0.0, "lat": 38.89339783333333, "type": "electric_scooter", "lon": -77.01203016666666, "is_reserved": 0, "fusion_lon": 0.0, "bike_id": "cf4c52a037de93ec0934b98bead55f6a", "name": "cf4c52a037de93ec0934b98bead55f6a", "rental_uris": {"ios": "https://dc.lft.to/lastmile_qr_scan", "android": "https://dc.lft.to/lastmile_qr_scan"}}, {"is_disabled": 0, "fusion_lat": 0.0, "lat": 38.93835166666667, "type": "electric_scooter", "lon": -77.02444966666667, "is_reserved": 0, "fusion_lon": 0.0, "bike_id": "57e2bf33e483fd25adc6e64458086844", "name": "57e2bf33e483fd25adc6e64458086844", "rental_uris": {"ios": "https://dc.lft.to/lastmile_qr_scan", "android": "https://dc.lft.to/lastmile_qr_scan"}}, {"is_disabled": 0, "fusion_lat": 0.0, "lat": 38.924994833333336, "type": "electric_scooter", "lon": -77.00895166666666, "is_reserved": 0, "fusion_lon": 0.0, "bike_id": "b66f941d6c8c6b2273ca222c8b4359d8", "name": "b66f941d6c8c6b2273ca222c8b4359d8", "rental_uris": {"ios": "https://dc.lft.to/lastmile_qr_scan", "android": "https://dc.lft.to/lastmile_qr_scan"}}, {"is_disabled": 0, "fusion_lat": 0.0, "lat": 38.89374933333333, "type": "electric_scooter", "lon": -76.94997983333333, "is_reserved": 0, "fusion_lon": 0.0, "bike_id": "2ec0663d4d4bd962f47b81b4083d4eab", "name": "2ec0663d4d4bd962f47b81b4083d4eab", "rental_uris": {"ios": "https://dc.lft.to/lastmile_qr_scan", "android": "https://dc.lft.to/lastmile_qr_scan"}}, {"is_disabled": 0, "fusion_lat": 0.0, "lat": 38.88432516666667, "type": "electric_scooter", "lon": -76.957594, "is_reserved": 0, "fusion_lon": 0.0, "bike_id": "49160d4a06258688a896f3a06df05494", "name": "49160d4a06258688a896f3a06df05494", "rental_uris": {"ios": "https://dc.lft.to/lastmile_qr_scan", "android": "https://dc.lft.to/lastmile_qr_scan"}}, {"is_disabled": 0, "fusion_lat": 0.0, "lat": 38.83936716666667, "type": "electric_bike", "lon": -77.07905416666667, "is_reserved": 0, "fusion_lon": 0.0, "bike_id": "34c92f83179c629b3bbbed0291f8df91", "name": "34c92f83179c629b3bbbed0291f8df91", "rental_uris": {"ios": "https://dc.lft.to/lastmile_qr_scan", "android": "https://dc.lft.to/lastmile_qr_scan"}}, {"is_disabled": 0, "fusion_lat": 0.0, "lat": 38.88235383333333, "type": "electric_scooter", "lon": -76.92662666666666, "is_reserved": 0, "fusion_lon": 0.0, "bike_id": "1e60cc2766d37eadf8366f68877ec288", "name": "1e60cc2766d37eadf8366f68877ec288", "rental_uris": {"ios": "https://dc.lft.to/lastmile_qr_scan", "android": "https://dc.lft.to/lastmile_qr_scan"}}, {"is_disabled": 0, "fusion_lat": 0.0, "lat": 38.919953666666665, "type": "electric_scooter", "lon": -77.0322145, "is_reserved": 0, "fusion_lon": 0.0, "bike_id": "4428da91e1c4a4b3b9f6bf1a66b900c2", "name": "4428da91e1c4a4b3b9f6bf1a66b900c2", "rental_uris": {"ios": "https://dc.lft.to/lastmile_qr_scan", "android": "https://dc.lft.to/lastmile_qr_scan"}}, {"is_disabled": 0, "fusion_lat": 0.0, "lat": 38.926027, "type": "electric_scooter", "lon": -77.021555, "is_reserved": 0, "fusion_lon": 0.0, "bike_id": "56e36b60ef25d3f7d0c2c51610c14081", "name": "56e36b60ef25d3f7d0c2c51610c14081", "rental_uris": {"ios": "https://dc.lft.to/lastmile_qr_scan", "android": "https://dc.lft.to/lastmile_qr_scan"}}, {"is_disabled": 0, "fusion_lat": 0.0, "lat": 38.903678666666664, "type": "electric_bike", "lon": -77.06760166666666, "is_reserved": 0, "fusion_lon": 0.0, "bike_id": "3f2d889a98f8a19689aef18bb0179e4f", "name": "3f2d889a98f8a19689aef18bb0179e4f", "rental_uris": {"ios": "https://dc.lft.to/lastmile_qr_scan", "android": "https://dc.lft.to/lastmile_qr_scan"}}, {"is_disabled": 0, "fusion_lat": 0.0, "lat": 39.094319, "type": "electric_bike", "lon": -77.1345625, "is_reserved": 0, "fusion_lon": 0.0, "bike_id": "2c7307026a5e3de816f154d6ec1b875e", "name": "2c7307026a5e3de816f154d6ec1b875e", "rental_uris": {"ios": "https://dc.lft.to/lastmile_qr_scan", "android": "https://dc.lft.to/lastmile_qr_scan"}}, {"is_disabled": 0, "fusion_lat": 0.0, "lat": 38.92575033333333, "type": "electric_scooter", "lon": -77.03989316666667, "is_reserved": 0, "fusion_lon": 0.0, "bike_id": "10bf24e5e394009cbeae65961972050c", "name": "10bf24e5e394009cbeae65961972050c", "rental_uris": {"ios": "https://dc.lft.to/lastmile_qr_scan", "android": "https://dc.lft.to/lastmile_qr_scan"}}, {"is_disabled": 0, "fusion_lat": 0.0, "lat": 38.862837, "type": "electric_scooter", "lon": -76.99238966666667, "is_reserved": 0, "fusion_lon": 0.0, "bike_id": "6ca04610eac900cf0237c513ad8d3f2e", "name": "6ca04610eac900cf0237c513ad8d3f2e", "rental_uris": {"ios": "https://dc.lft.to/lastmile_qr_scan", "android": "https://dc.lft.to/lastmile_qr_scan"}}, {"is_disabled": 0, "fusion_lat": 0.0, "lat": 38.87260833333333, "type": "electric_bike", "lon": -76.979082, "is_reserved": 0, "fusion_lon": 0.0, "bike_id": "7afb6a056a800482ce008f7f6e08517c", "name": "7afb6a056a800482ce008f7f6e08517c", "rental_uris": {"ios": "https://dc.lft.to/lastmile_qr_scan", "android": "https://dc.lft.to/lastmile_qr_scan"}}, {"is_disabled": 0, "fusion_lat": 0.0, "lat": 38.892224166666665, "type": "electric_scooter", "lon": -77.04198266666667, "is_reserved": 0, "fusion_lon": 0.0, "bike_id": "86f4c5097e428b49431028f365616cc5", "name": "86f4c5097e428b49431028f365616cc5", "rental_uris": {"ios": "https://dc.lft.to/lastmile_qr_scan", "android": "https://dc.lft.to/lastmile_qr_scan"}}, {"is_disabled": 0, "fusion_lat": 0.0, "lat": 38.89845283333333, "type": "electric_scooter", "lon": -76.94479316666667, "is_reserved": 0, "fusion_lon": 0.0, "bike_id": "0409f47ac2f33667a0cc8246dbda4ef0", "name": "0409f47ac2f33667a0cc8246dbda4ef0", "rental_uris": {"ios": "https://dc.lft.to/lastmile_qr_scan", "android": "https://dc.lft.to/lastmile_qr_scan"}}, {"is_disabled": 0, "fusion_lat": 0.0, "lat": 38.902757666666666, "type": "electric_scooter", "lon": -77.042969, "is_reserved": 0, "fusion_lon": 0.0, "bike_id": "dc7b564726869e46449e610733b881b6", "name": "dc7b564726869e46449e610733b881b6", "rental_uris": {"ios": "https://dc.lft.to/lastmile_qr_scan", "android": "https://dc.lft.to/lastmile_qr_scan"}}, {"is_disabled": 0, "fusion_lat": 0.0, "lat": 38.92007, "type": "electric_scooter", "lon": -77.0315235, "is_reserved": 0, "fusion_lon": 0.0, "bike_id": "e51731c5e7bb274175317c0608bdab98", "name": "e51731c5e7bb274175317c0608bdab98", "rental_uris": {"ios": "https://dc.lft.to/lastmile_qr_scan", "android": "https://dc.lft.to/lastmile_qr_scan"}}, {"is_disabled": 0, "fusion_lat": 0.0, "lat": 38.887013, "type": "electric_scooter", "lon": -77.0137585, "is_reserved": 0, "fusion_lon": 0.0, "bike_id": "c2ce4493aa0115de8d90ba2b8ceb26f3", "name": "c2ce4493aa0115de8d90ba2b8ceb26f3", "rental_uris": {"ios": "https://dc.lft.to/lastmile_qr_scan", "android": "https://dc.lft.to/lastmile_qr_scan"}}, {"is_disabled": 0, "fusion_lat": 0.0, "lat": 38.9309585, "type": "electric_scooter", "lon": -77.03763433333333, "is_reserved": 0, "fusion_lon": 0.0, "bike_id": "90ac5006f878708231673d65a2706a43", "name": "90ac5006f878708231673d65a2706a43", "rental_uris": {"ios": "https://dc.lft.to/lastmile_qr_scan", "android": "https://dc.lft.to/lastmile_qr_scan"}}, {"is_disabled": 0, "fusion_lat": 0.0, "lat": 38.8656275, "type": "electric_scooter", "lon": -76.98949316666666, "is_reserved": 0, "fusion_lon": 0.0, "bike_id": "9d8be456b2997462b35ac60b2f1e7163", "name": "9d8be456b2997462b35ac60b2f1e7163", "rental_uris": {"ios": "https://dc.lft.to/lastmile_qr_scan", "android": "https://dc.lft.to/lastmile_qr_scan"}}, {"is_disabled": 0, "fusion_lat": 0.0, "lat": 38.90204166666667, "type": "electric_scooter", "lon": -77.04362866666666, "is_reserved": 0, "fusion_lon": 0.0, "bike_id": "ffac8d4f4c5f01b58f5b4af4af6fa1bd", "name": "ffac8d4f4c5f01b58f5b4af4af6fa1bd", "rental_uris": {"ios": "https://dc.lft.to/lastmile_qr_scan", "android": "https://dc.lft.to/lastmile_qr_scan"}}, {"is_disabled": 0, "fusion_lat": 0.0, "lat": 38.9176045, "type": "electric_scooter", "lon": -77.0319835, "is_reserved": 0, "fusion_lon": 0.0, "bike_id": "550416a0e662cdfd681da249b8f60815", "name": "550416a0e662cdfd681da249b8f60815", "rental_uris": {"ios": "https://dc.lft.to/lastmile_qr_scan", "android": "https://dc.lft.to/lastmile_qr_scan"}}, {"is_disabled": 0, "fusion_lat": 0.0, "lat": 38.948315, "type": "electric_scooter", "lon": -77.02560383333334, "is_reserved": 0, "fusion_lon": 0.0, "bike_id": "c36123d79bc32ce6759b54ed4cb9cee6", "name": "c36123d79bc32ce6759b54ed4cb9cee6", "rental_uris": {"ios": "https://dc.lft.to/lastmile_qr_scan", "android": "https://dc.lft.to/lastmile_qr_scan"}}, {"is_disabled": 0, "fusion_lat": 0.0, "lat": 38.949782166666665, "type": "electric_scooter", "lon": -77.02696383333334, "is_reserved": 0, "fusion_lon": 0.0, "bike_id": "e4175ae75f9273dfd2b17075558580c3", "name": "e4175ae75f9273dfd2b17075558580c3", "rental_uris": {"ios": "https://dc.lft.to/lastmile_qr_scan", "android": "https://dc.lft.to/lastmile_qr_scan"}}, {"is_disabled": 0, "fusion_lat": 0.0, "lat": 38.907986666666666, "type": "electric_scooter", "lon": -77.01867466666667, "is_reserved": 0, "fusion_lon": 0.0, "bike_id": "065042b1bde3dc2b70c84d3459ccfa36", "name": "065042b1bde3dc2b70c84d3459ccfa36", "rental_uris": {"ios": "https://dc.lft.to/lastmile_qr_scan", "android": "https://dc.lft.to/lastmile_qr_scan"}}, {"is_disabled": 0, "fusion_lat": 0.0, "lat": 38.8909835, "type": "electric_scooter", "lon": -77.00192733333333, "is_reserved": 0, "fusion_lon": 0.0, "bike_id": "2a5eaba662f52a310f6f73ba1ff7e39f", "name": "2a5eaba662f52a310f6f73ba1ff7e39f", "rental_uris": {"ios": "https://dc.lft.to/lastmile_qr_scan", "android": "https://dc.lft.to/lastmile_qr_scan"}}, {"is_disabled": 0, "fusion_lat": 0.0, "lat": 38.905765833333334, "type": "electric_scooter", "lon": -77.0487945, "is_reserved": 0, "fusion_lon": 0.0, "bike_id": "db94fe6c58345f4eda96ea54a60351c5", "name": "db94fe6c58345f4eda96ea54a60351c5", "rental_uris": {"ios": "https://dc.lft.to/lastmile_qr_scan", "android": "https://dc.lft.to/lastmile_qr_scan"}}, {"is_disabled": 0, "fusion_lat": 0.0, "lat": 38.920745333333336, "type": "electric_scooter", "lon": -77.04550366666666, "is_reserved": 0, "fusion_lon": 0.0, "bike_id": "14e4b661b550d0cb24e4dfb8f9354c3a", "name": "14e4b661b550d0cb24e4dfb8f9354c3a", "rental_uris": {"ios": "https://dc.lft.to/lastmile_qr_scan", "android": "https://dc.lft.to/lastmile_qr_scan"}}, {"is_disabled": 0, "fusion_lat": 0.0, "lat": 38.9231335, "type": "electric_scooter", "lon": -77.0412525, "is_reserved": 0, "fusion_lon": 0.0, "bike_id": "15e990968aebb080a625b7d0e2975293", "name": "15e990968aebb080a625b7d0e2975293", "rental_uris": {"ios": "https://dc.lft.to/lastmile_qr_scan", "android": "https://dc.lft.to/lastmile_qr_scan"}}, {"is_disabled": 0, "fusion_lat": 0.0, "lat": 38.893255333333336, "type": "electric_bike", "lon": -76.9211275, "is_reserved": 0, "fusion_lon": 0.0, "bike_id": "60d94f25d8df4bb99e86d891ece25ff3", "name": "60d94f25d8df4bb99e86d891ece25ff3", "rental_uris": {"ios": "https://dc.lft.to/lastmile_qr_scan", "android": "https://dc.lft.to/lastmile_qr_scan"}}, {"is_disabled": 0, "fusion_lat": 0.0, "lat": 38.90468933333333, "type": "electric_scooter", "lon": -76.9890795, "is_reserved": 0, "fusion_lon": 0.0, "bike_id": "dac6d3812c3b05036ab0ab7d0e080f0d", "name": "dac6d3812c3b05036ab0ab7d0e080f0d", "rental_uris": {"ios": "https://dc.lft.to/lastmile_qr_scan", "android": "https://dc.lft.to/lastmile_qr_scan"}}, {"is_disabled": 0, "fusion_lat": 0.0, "lat": 38.926171, "type": "electric_scooter", "lon": -77.04223066666667, "is_reserved": 0, "fusion_lon": 0.0, "bike_id": "d44a864f7c82ce09d1a45fead4354c20", "name": "d44a864f7c82ce09d1a45fead4354c20", "rental_uris": {"ios": "https://dc.lft.to/lastmile_qr_scan", "android": "https://dc.lft.to/lastmile_qr_scan"}}, {"is_disabled": 0, "fusion_lat": 0.0, "lat": 38.91919216666667, "type": "electric_scooter", "lon": -77.034258, "is_reserved": 0, "fusion_lon": 0.0, "bike_id": "68962508c3cc48231d6794e218e4a473", "name": "68962508c3cc48231d6794e218e4a473", "rental_uris": {"ios": "https://dc.lft.to/lastmile_qr_scan", "android": "https://dc.lft.to/lastmile_qr_scan"}}, {"is_disabled": 0, "fusion_lat": 0.0, "lat": 38.91397583333333, "type": "electric_scooter", "lon": -77.03928983333333, "is_reserved": 0, "fusion_lon": 0.0, "bike_id": "ce751b4a42d5fa1b57324f65e4934f72", "name": "ce751b4a42d5fa1b57324f65e4934f72", "rental_uris": {"ios": "https://dc.lft.to/lastmile_qr_scan", "android": "https://dc.lft.to/lastmile_qr_scan"}}, {"is_disabled": 0, "fusion_lat": 0.0, "lat": 38.908073, "type": "electric_scooter", "lon": -76.99852416666667, "is_reserved": 0, "fusion_lon": 0.0, "bike_id": "9b5bb6fcb2c6034898ff79d73f5ae228", "name": "9b5bb6fcb2c6034898ff79d73f5ae228", "rental_uris": {"ios": "https://dc.lft.to/lastmile_qr_scan", "android": "https://dc.lft.to/lastmile_qr_scan"}}, {"is_disabled": 0, "fusion_lat": 0.0, "lat": 38.9096325, "type": "electric_scooter", "lon": -77.038202, "is_reserved": 0, "fusion_lon": 0.0, "bike_id": "b86787ba99b87ae270aa5bb49316e2f5", "name": "b86787ba99b87ae270aa5bb49316e2f5", "rental_uris": {"ios": "https://dc.lft.to/lastmile_qr_scan", "android": "https://dc.lft.to/lastmile_qr_scan"}}, {"is_disabled": 0, "fusion_lat": 0.0, "lat": 38.90662483333333, "type": "electric_scooter", "lon": -77.04164466666667, "is_reserved": 0, "fusion_lon": 0.0, "bike_id": "b5c28ded046ccf133f5689f04910184c", "name": "b5c28ded046ccf133f5689f04910184c", "rental_uris": {"ios": "https://dc.lft.to/lastmile_qr_scan", "android": "https://dc.lft.to/lastmile_qr_scan"}}, {"is_disabled": 0, "fusion_lat": 0.0, "lat": 38.8973575, "type": "electric_scooter", "lon": -76.94723683333333, "is_reserved": 0, "fusion_lon": 0.0, "bike_id": "1d37757d8e8518916275cdb6afb13036", "name": "1d37757d8e8518916275cdb6afb13036", "rental_uris": {"ios": "https://dc.lft.to/lastmile_qr_scan", "android": "https://dc.lft.to/lastmile_qr_scan"}}, {"is_disabled": 0, "fusion_lat": 0.0, "lat": 38.88585616666667, "type": "electric_scooter", "lon": -77.020004, "is_reserved": 0, "fusion_lon": 0.0, "bike_id": "fa71c7caa0a11575a23c01182930aa23", "name": "fa71c7caa0a11575a23c01182930aa23", "rental_uris": {"ios": "https://dc.lft.to/lastmile_qr_scan", "android": "https://dc.lft.to/lastmile_qr_scan"}}, {"is_disabled": 0, "fusion_lat": 0.0, "lat": 38.920716, "type": "electric_scooter", "lon": -77.03216516666667, "is_reserved": 0, "fusion_lon": 0.0, "bike_id": "cef58d1a7af270a284902dc4de14baf4", "name": "cef58d1a7af270a284902dc4de14baf4", "rental_uris": {"ios": "https://dc.lft.to/lastmile_qr_scan", "android": "https://dc.lft.to/lastmile_qr_scan"}}, {"is_disabled": 0, "fusion_lat": 0.0, "lat": 38.92335966666667, "type": "electric_scooter", "lon": -77.0361475, "is_reserved": 0, "fusion_lon": 0.0, "bike_id": "1aa7ce9d96732bcfd55b259ffaf95d2b", "name": "1aa7ce9d96732bcfd55b259ffaf95d2b", "rental_uris": {"ios": "https://dc.lft.to/lastmile_qr_scan", "android": "https://dc.lft.to/lastmile_qr_scan"}}, {"is_disabled": 0, "fusion_lat": 0.0, "lat": 38.897407, "type": "electric_scooter", "lon": -77.04682716666667, "is_reserved": 0, "fusion_lon": 0.0, "bike_id": "a9c5f77894c3ac932b0abb70b432d0a8", "name": "a9c5f77894c3ac932b0abb70b432d0a8", "rental_uris": {"ios": "https://dc.lft.to/lastmile_qr_scan", "android": "https://dc.lft.to/lastmile_qr_scan"}}, {"is_disabled": 0, "fusion_lat": 0.0, "lat": 38.8465965, "type": "electric_bike", "lon": -76.97931166666666, "is_reserved": 0, "fusion_lon": 0.0, "bike_id": "589dde243b69332cda329685b095c46a", "name": "589dde243b69332cda329685b095c46a", "rental_uris": {"ios": "https://dc.lft.to/lastmile_qr_scan", "android": "https://dc.lft.to/lastmile_qr_scan"}}, {"is_disabled": 0, "fusion_lat": 0.0, "lat": 38.898344, "type": "electric_scooter", "lon": -77.03305883333333, "is_reserved": 0, "fusion_lon": 0.0, "bike_id": "be6f8a9c0760815dfd338dd377338039", "name": "be6f8a9c0760815dfd338dd377338039", "rental_uris": {"ios": "https://dc.lft.to/lastmile_qr_scan", "android": "https://dc.lft.to/lastmile_qr_scan"}}, {"is_disabled": 0, "fusion_lat": 0.0, "lat": 38.89616316666667, "type": "electric_scooter", "lon": -76.99848116666666, "is_reserved": 0, "fusion_lon": 0.0, "bike_id": "4b2f2e86459562eae518e782168fad32", "name": "4b2f2e86459562eae518e782168fad32", "rental_uris": {"ios": "https://dc.lft.to/lastmile_qr_scan", "android": "https://dc.lft.to/lastmile_qr_scan"}}, {"is_disabled": 0, "fusion_lat": 0.0, "lat": 38.932438833333336, "type": "electric_scooter", "lon": -77.03286733333333, "is_reserved": 0, "fusion_lon": 0.0, "bike_id": "b9d2abee0000ed0280be45b809c9ea57", "name": "b9d2abee0000ed0280be45b809c9ea57", "rental_uris": {"ios": "https://dc.lft.to/lastmile_qr_scan", "android": "https://dc.lft.to/lastmile_qr_scan"}}, {"is_disabled": 0, "fusion_lat": 0.0, "lat": 38.932871166666665, "type": "electric_scooter", "lon": -77.03974383333333, "is_reserved": 0, "fusion_lon": 0.0, "bike_id": "222169f8c8c7c771bf6080c74f2cdc7d", "name": "222169f8c8c7c771bf6080c74f2cdc7d", "rental_uris": {"ios": "https://dc.lft.to/lastmile_qr_scan", "android": "https://dc.lft.to/lastmile_qr_scan"}}, {"is_disabled": 0, "fusion_lat": 0.0, "lat": 38.91116533333334, "type": "electric_scooter", "lon": -77.04844916666667, "is_reserved": 0, "fusion_lon": 0.0, "bike_id": "ae875ca93ca9ce6afa0cbbb66a0eee80", "name": "ae875ca93ca9ce6afa0cbbb66a0eee80", "rental_uris": {"ios": "https://dc.lft.to/lastmile_qr_scan", "android": "https://dc.lft.to/lastmile_qr_scan"}}, {"is_disabled": 0, "fusion_lat": 0.0, "lat": 38.89225183333333, "type": "electric_scooter", "lon": -77.04639033333333, "is_reserved": 0, "fusion_lon": 0.0, "bike_id": "8f664a51b5ccacd46e75510a882f23a0", "name": "8f664a51b5ccacd46e75510a882f23a0", "rental_uris": {"ios": "https://dc.lft.to/lastmile_qr_scan", "android": "https://dc.lft.to/lastmile_qr_scan"}}, {"is_disabled": 0, "fusion_lat": 0.0, "lat": 38.905787333333336, "type": "electric_scooter", "lon": -77.03074616666666, "is_reserved": 0, "fusion_lon": 0.0, "bike_id": "f8861e4836ea0ef48efb528da8f82c6b", "name": "f8861e4836ea0ef48efb528da8f82c6b", "rental_uris": {"ios": "https://dc.lft.to/lastmile_qr_scan", "android": "https://dc.lft.to/lastmile_qr_scan"}}, {"is_disabled": 0, "fusion_lat": 0.0, "lat": 38.89628966666667, "type": "electric_scooter", "lon": -77.027014, "is_reserved": 0, "fusion_lon": 0.0, "bike_id": "d5e256656cc346503a2ba52734aca46e", "name": "d5e256656cc346503a2ba52734aca46e", "rental_uris": {"ios": "https://dc.lft.to/lastmile_qr_scan", "android": "https://dc.lft.to/lastmile_qr_scan"}}, {"is_disabled": 0, "fusion_lat": 0.0, "lat": 38.927145, "type": "electric_scooter", "lon": -77.02104066666666, "is_reserved": 0, "fusion_lon": 0.0, "bike_id": "96a48226a13fd5b710a0a29b10163d10", "name": "96a48226a13fd5b710a0a29b10163d10", "rental_uris": {"ios": "https://dc.lft.to/lastmile_qr_scan", "android": "https://dc.lft.to/lastmile_qr_scan"}}, {"is_disabled": 0, "fusion_lat": 0.0, "lat": 38.89520433333333, "type": "electric_scooter", "lon": -77.022795, "is_reserved": 0, "fusion_lon": 0.0, "bike_id": "b798ee0ce7de134ed5791e88a4e18e4d", "name": "b798ee0ce7de134ed5791e88a4e18e4d", "rental_uris": {"ios": "https://dc.lft.to/lastmile_qr_scan", "android": "https://dc.lft.to/lastmile_qr_scan"}}, {"is_disabled": 0, "fusion_lat": 0.0, "lat": 38.87187566666667, "type": "electric_bike", "lon": -77.08409816666666, "is_reserved": 0, "fusion_lon": 0.0, "bike_id": "11dfeb2bb2ec78cebf779229169751d0", "name": "11dfeb2bb2ec78cebf779229169751d0", "rental_uris": {"ios": "https://dc.lft.to/lastmile_qr_scan", "android": "https://dc.lft.to/lastmile_qr_scan"}}, {"is_disabled": 0, "fusion_lat": 0.0, "lat": 38.86907683333333, "type": "electric_bike", "lon": -77.13180516666667, "is_reserved": 0, "fusion_lon": 0.0, "bike_id": "a69e49cf2a0a07b0181bc6372edac1a5", "name": "a69e49cf2a0a07b0181bc6372edac1a5", "rental_uris": {"ios": "https://dc.lft.to/lastmile_qr_scan", "android": "https://dc.lft.to/lastmile_qr_scan"}}, {"is_disabled": 0, "fusion_lat": 0.0, "lat": 38.90274566666667, "type": "electric_scooter", "lon": -77.02650716666666, "is_reserved": 0, "fusion_lon": 0.0, "bike_id": "aa9608aaeb967fa0e0370cd6c25cdd4b", "name": "aa9608aaeb967fa0e0370cd6c25cdd4b", "rental_uris": {"ios": "https://dc.lft.to/lastmile_qr_scan", "android": "https://dc.lft.to/lastmile_qr_scan"}}, {"is_disabled": 0, "fusion_lat": 0.0, "lat": 38.92862916666667, "type": "electric_scooter", "lon": -77.05436266666666, "is_reserved": 0, "fusion_lon": 0.0, "bike_id": "32b673faf5116403284bda39aada9a0e", "name": "32b673faf5116403284bda39aada9a0e", "rental_uris": {"ios": "https://dc.lft.to/lastmile_qr_scan", "android": "https://dc.lft.to/lastmile_qr_scan"}}, {"is_disabled": 0, "fusion_lat": 0.0, "lat": 38.929954, "type": "electric_scooter", "lon": -77.03258166666667, "is_reserved": 0, "fusion_lon": 0.0, "bike_id": "49436199b83920f3884bcafbfbcecb96", "name": "49436199b83920f3884bcafbfbcecb96", "rental_uris": {"ios": "https://dc.lft.to/lastmile_qr_scan", "android": "https://dc.lft.to/lastmile_qr_scan"}}, {"is_disabled": 0, "fusion_lat": 0.0, "lat": 38.9251435, "type": "electric_scooter", "lon": -77.03886566666667, "is_reserved": 0, "fusion_lon": 0.0, "bike_id": "1364c1eb6901891c9b07ecc452e8380d", "name": "1364c1eb6901891c9b07ecc452e8380d", "rental_uris": {"ios": "https://dc.lft.to/lastmile_qr_scan", "android": "https://dc.lft.to/lastmile_qr_scan"}}, {"is_disabled": 0, "fusion_lat": 0.0, "lat": 38.892265333333334, "type": "electric_scooter", "lon": -77.04639633333333, "is_reserved": 0, "fusion_lon": 0.0, "bike_id": "34c542a186de6b90f432ad67521b6391", "name": "34c542a186de6b90f432ad67521b6391", "rental_uris": {"ios": "https://dc.lft.to/lastmile_qr_scan", "android": "https://dc.lft.to/lastmile_qr_scan"}}, {"is_disabled": 0, "fusion_lat": 0.0, "lat": 38.9414915, "type": "electric_scooter", "lon": -77.02985083333333, "is_reserved": 0, "fusion_lon": 0.0, "bike_id": "26e93232a9f4e0ddacd2e40a4b4669c6", "name": "26e93232a9f4e0ddacd2e40a4b4669c6", "rental_uris": {"ios": "https://dc.lft.to/lastmile_qr_scan", "android": "https://dc.lft.to/lastmile_qr_scan"}}, {"is_disabled": 0, "fusion_lat": 0.0, "lat": 38.8936355, "type": "electric_scooter", "lon": -76.949643, "is_reserved": 0, "fusion_lon": 0.0, "bike_id": "e1f748b8ab1bce128757d0641c4a3926", "name": "e1f748b8ab1bce128757d0641c4a3926", "rental_uris": {"ios": "https://dc.lft.to/lastmile_qr_scan", "android": "https://dc.lft.to/lastmile_qr_scan"}}, {"is_disabled": 0, "fusion_lat": 0.0, "lat": 38.90344733333333, "type": "electric_scooter", "lon": -76.975616, "is_reserved": 0, "fusion_lon": 0.0, "bike_id": "4b0d8ab754fc5cc6ddbe6f0a235bc0b1", "name": "4b0d8ab754fc5cc6ddbe6f0a235bc0b1", "rental_uris": {"ios": "https://dc.lft.to/lastmile_qr_scan", "android": "https://dc.lft.to/lastmile_qr_scan"}}, {"is_disabled": 0, "fusion_lat": 0.0, "lat": 38.8639, "type": "electric_bike", "lon": -76.9899055, "is_reserved": 0, "fusion_lon": 0.0, "bike_id": "55f41c6c6afffd102f9b314ff7fca94d", "name": "55f41c6c6afffd102f9b314ff7fca94d", "rental_uris": {"ios": "https://dc.lft.to/lastmile_qr_scan", "android": "https://dc.lft.to/lastmile_qr_scan"}}, {"is_disabled": 0, "fusion_lat": 0.0, "lat": 38.903904833333335, "type": "electric_scooter", "lon": -77.0109435, "is_reserved": 0, "fusion_lon": 0.0, "bike_id": "14436815eab682f29634acb376aa03e4", "name": "14436815eab682f29634acb376aa03e4", "rental_uris": {"ios": "https://dc.lft.to/lastmile_qr_scan", "android": "https://dc.lft.to/lastmile_qr_scan"}}, {"is_disabled": 0, "fusion_lat": 0.0, "lat": 38.9255325, "type": "electric_scooter", "lon": -77.05300966666667, "is_reserved": 0, "fusion_lon": 0.0, "bike_id": "b7df8b437156e862cd32713a875365c5", "name": "b7df8b437156e862cd32713a875365c5", "rental_uris": {"ios": "https://dc.lft.to/lastmile_qr_scan", "android": "https://dc.lft.to/lastmile_qr_scan"}}, {"is_disabled": 0, "fusion_lat": 0.0, "lat": 38.912440333333336, "type": "electric_scooter", "lon": -77.04876783333333, "is_reserved": 0, "fusion_lon": 0.0, "bike_id": "305a8caa9637e42097ef83343aa28a8e", "name": "305a8caa9637e42097ef83343aa28a8e", "rental_uris": {"ios": "https://dc.lft.to/lastmile_qr_scan", "android": "https://dc.lft.to/lastmile_qr_scan"}}, {"is_disabled": 0, "fusion_lat": 0.0, "lat": 38.94168066666667, "type": "electric_scooter", "lon": -77.04132533333333, "is_reserved": 0, "fusion_lon": 0.0, "bike_id": "80f66e25739b947981def578b5e1e6bd", "name": "80f66e25739b947981def578b5e1e6bd", "rental_uris": {"ios": "https://dc.lft.to/lastmile_qr_scan", "android": "https://dc.lft.to/lastmile_qr_scan"}}, {"is_disabled": 0, "fusion_lat": 0.0, "lat": 38.9068175, "type": "electric_scooter", "lon": -77.06355566666667, "is_reserved": 0, "fusion_lon": 0.0, "bike_id": "b2a79ec8a1ef942c65ac9b89f03fac26", "name": "b2a79ec8a1ef942c65ac9b89f03fac26", "rental_uris": {"ios": "https://dc.lft.to/lastmile_qr_scan", "android": "https://dc.lft.to/lastmile_qr_scan"}}, {"is_disabled": 0, "fusion_lat": 0.0, "lat": 38.95191366666667, "type": "electric_bike", "lon": -76.9672175, "is_reserved": 0, "fusion_lon": 0.0, "bike_id": "6319f91d89d8ee0d23eb2fdbc0ff2dec", "name": "6319f91d89d8ee0d23eb2fdbc0ff2dec", "rental_uris": {"ios": "https://dc.lft.to/lastmile_qr_scan", "android": "https://dc.lft.to/lastmile_qr_scan"}}, {"is_disabled": 0, "fusion_lat": 0.0, "lat": 39.00009083333333, "type": "electric_bike", "lon": -76.91076966666667, "is_reserved": 0, "fusion_lon": 0.0, "bike_id": "31bb0103b0017c00f0888afdd2ec3bf1", "name": "31bb0103b0017c00f0888afdd2ec3bf1", "rental_uris": {"ios": "https://dc.lft.to/lastmile_qr_scan", "android": "https://dc.lft.to/lastmile_qr_scan"}}, {"is_disabled": 0, "fusion_lat": 0.0, "lat": 38.9330525, "type": "electric_scooter", "lon": -77.03276566666666, "is_reserved": 0, "fusion_lon": 0.0, "bike_id": "94098bf4a10278a714a93ae8ff4d8a0d", "name": "94098bf4a10278a714a93ae8ff4d8a0d", "rental_uris": {"ios": "https://dc.lft.to/lastmile_qr_scan", "android": "https://dc.lft.to/lastmile_qr_scan"}}, {"is_disabled": 0, "fusion_lat": 0.0, "lat": 38.91338666666667, "type": "electric_scooter", "lon": -77.03013316666667, "is_reserved": 0, "fusion_lon": 0.0, "bike_id": "faa61ca8bf09f323ad1e077804f537fe", "name": "faa61ca8bf09f323ad1e077804f537fe", "rental_uris": {"ios": "https://dc.lft.to/lastmile_qr_scan", "android": "https://dc.lft.to/lastmile_qr_scan"}}, {"is_disabled": 0, "fusion_lat": 0.0, "lat": 38.92853083333333, "type": "electric_bike", "lon": -77.22219333333334, "is_reserved": 0, "fusion_lon": 0.0, "bike_id": "4507955898acaec56d02752e6878402b", "name": "4507955898acaec56d02752e6878402b", "rental_uris": {"ios": "https://dc.lft.to/lastmile_qr_scan", "android": "https://dc.lft.to/lastmile_qr_scan"}}, {"is_disabled": 0, "fusion_lat": 0.0, "lat": 38.92210866666667, "type": "electric_scooter", "lon": -77.03292416666666, "is_reserved": 0, "fusion_lon": 0.0, "bike_id": "6881837cc64148e40a38af88f4a467ec", "name": "6881837cc64148e40a38af88f4a467ec", "rental_uris": {"ios": "https://dc.lft.to/lastmile_qr_scan", "android": "https://dc.lft.to/lastmile_qr_scan"}}, {"is_disabled": 0, "fusion_lat": 0.0, "lat": 38.932462, "type": "electric_scooter", "lon": -77.03863566666666, "is_reserved": 0, "fusion_lon": 0.0, "bike_id": "1397b41451e2fb5ff24419a7d222aec4", "name": "1397b41451e2fb5ff24419a7d222aec4", "rental_uris": {"ios": "https://dc.lft.to/lastmile_qr_scan", "android": "https://dc.lft.to/lastmile_qr_scan"}}, {"is_disabled": 0, "fusion_lat": 0.0, "lat": 38.8996885, "type": "electric_bike", "lon": -77.0549735, "is_reserved": 0, "fusion_lon": 0.0, "bike_id": "076a4ed5e254bb4e2a5512583c88b1cb", "name": "076a4ed5e254bb4e2a5512583c88b1cb", "rental_uris": {"ios": "https://dc.lft.to/lastmile_qr_scan", "android": "https://dc.lft.to/lastmile_qr_scan"}}, {"is_disabled": 0, "fusion_lat": 0.0, "lat": 38.887207333333336, "type": "electric_scooter", "lon": -77.03223866666667, "is_reserved": 0, "fusion_lon": 0.0, "bike_id": "70584fd64e247790502fde43d86ada3c", "name": "70584fd64e247790502fde43d86ada3c", "rental_uris": {"ios": "https://dc.lft.to/lastmile_qr_scan", "android": "https://dc.lft.to/lastmile_qr_scan"}}, {"is_disabled": 0, "fusion_lat": 0.0, "lat": 38.907298833333336, "type": "electric_scooter", "lon": -77.04010916666667, "is_reserved": 0, "fusion_lon": 0.0, "bike_id": "2886673e706949a7936833a01d043756", "name": "2886673e706949a7936833a01d043756", "rental_uris": {"ios": "https://dc.lft.to/lastmile_qr_scan", "android": "https://dc.lft.to/lastmile_qr_scan"}}, {"is_disabled": 0, "fusion_lat": 0.0, "lat": 38.9836345, "type": "electric_scooter", "lon": -77.02645816666667, "is_reserved": 0, "fusion_lon": 0.0, "bike_id": "9ef3359c2613f95781b56230dc0bdf92", "name": "9ef3359c2613f95781b56230dc0bdf92", "rental_uris": {"ios": "https://dc.lft.to/lastmile_qr_scan", "android": "https://dc.lft.to/lastmile_qr_scan"}}, {"is_disabled": 0, "fusion_lat": 0.0, "lat": 38.92800916666667, "type": "electric_bike", "lon": -77.04374866666667, "is_reserved": 0, "fusion_lon": 0.0, "bike_id": "b41b67596bdb13540bc196af0a0d39dc", "name": "b41b67596bdb13540bc196af0a0d39dc", "rental_uris": {"ios": "https://dc.lft.to/lastmile_qr_scan", "android": "https://dc.lft.to/lastmile_qr_scan"}}, {"is_disabled": 0, "fusion_lat": 0.0, "lat": 38.907161, "type": "electric_scooter", "lon": -77.02319283333334, "is_reserved": 0, "fusion_lon": 0.0, "bike_id": "7b1e46d07e9c020bb743700828eecbfb", "name": "7b1e46d07e9c020bb743700828eecbfb", "rental_uris": {"ios": "https://dc.lft.to/lastmile_qr_scan", "android": "https://dc.lft.to/lastmile_qr_scan"}}, {"is_disabled": 0, "fusion_lat": 0.0, "lat": 38.898534, "type": "electric_bike", "lon": -76.93189916666667, "is_reserved": 0, "fusion_lon": 0.0, "bike_id": "8e40f16d3a5aee9fddd1c8b110b553d8", "name": "8e40f16d3a5aee9fddd1c8b110b553d8", "rental_uris": {"ios": "https://dc.lft.to/lastmile_qr_scan", "android": "https://dc.lft.to/lastmile_qr_scan"}}, {"is_disabled": 0, "fusion_lat": 0.0, "lat": 38.929521, "type": "electric_bike", "lon": -77.04401016666667, "is_reserved": 0, "fusion_lon": 0.0, "bike_id": "50d93ddb4d0d8f9667fcc63c69e4abb2", "name": "50d93ddb4d0d8f9667fcc63c69e4abb2", "rental_uris": {"ios": "https://dc.lft.to/lastmile_qr_scan", "android": "https://dc.lft.to/lastmile_qr_scan"}}, {"is_disabled": 0, "fusion_lat": 0.0, "lat": 38.9051825, "type": "electric_scooter", "lon": -77.04333133333333, "is_reserved": 0, "fusion_lon": 0.0, "bike_id": "69a5f76006936ad0294f0e6b6a984ed0", "name": "69a5f76006936ad0294f0e6b6a984ed0", "rental_uris": {"ios": "https://dc.lft.to/lastmile_qr_scan", "android": "https://dc.lft.to/lastmile_qr_scan"}}, {"is_disabled": 0, "fusion_lat": 0.0, "lat": 39.088618, "type": "electric_bike", "lon": -77.17839383333333, "is_reserved": 0, "fusion_lon": 0.0, "bike_id": "710bfc7d1812c0e910dc1d8f5672377f", "name": "710bfc7d1812c0e910dc1d8f5672377f", "rental_uris": {"ios": "https://dc.lft.to/lastmile_qr_scan", "android": "https://dc.lft.to/lastmile_qr_scan"}}, {"is_disabled": 0, "fusion_lat": 0.0, "lat": 38.92315033333333, "type": "electric_scooter", "lon": -77.04519883333333, "is_reserved": 0, "fusion_lon": 0.0, "bike_id": "887b37466e37d198d7d4889abd9bfb75", "name": "887b37466e37d198d7d4889abd9bfb75", "rental_uris": {"ios": "https://dc.lft.to/lastmile_qr_scan", "android": "https://dc.lft.to/lastmile_qr_scan"}}, {"is_disabled": 0, "fusion_lat": 0.0, "lat": 38.901581166666666, "type": "electric_scooter", "lon": -76.97631616666666, "is_reserved": 0, "fusion_lon": 0.0, "bike_id": "e533e0db90d6ad99a599f5509b83fdc6", "name": "e533e0db90d6ad99a599f5509b83fdc6", "rental_uris": {"ios": "https://dc.lft.to/lastmile_qr_scan", "android": "https://dc.lft.to/lastmile_qr_scan"}}, {"is_disabled": 0, "fusion_lat": 0.0, "lat": 38.915462, "type": "electric_scooter", "lon": -77.0384385, "is_reserved": 0, "fusion_lon": 0.0, "bike_id": "b7f61fc9e14eedb1b1154b98494cefb0", "name": "b7f61fc9e14eedb1b1154b98494cefb0", "rental_uris": {"ios": "https://dc.lft.to/lastmile_qr_scan", "android": "https://dc.lft.to/lastmile_qr_scan"}}, {"is_disabled": 0, "fusion_lat": 0.0, "lat": 38.9334715, "type": "electric_scooter", "lon": -77.05867516666666, "is_reserved": 0, "fusion_lon": 0.0, "bike_id": "1821a690ceec4e74f05d656f77ac5240", "name": "1821a690ceec4e74f05d656f77ac5240", "rental_uris": {"ios": "https://dc.lft.to/lastmile_qr_scan", "android": "https://dc.lft.to/lastmile_qr_scan"}}, {"is_disabled": 0, "fusion_lat": 0.0, "lat": 38.9316335, "type": "electric_scooter", "lon": -77.0362815, "is_reserved": 0, "fusion_lon": 0.0, "bike_id": "af39d4928780909a37db3b15801e7d69", "name": "af39d4928780909a37db3b15801e7d69", "rental_uris": {"ios": "https://dc.lft.to/lastmile_qr_scan", "android": "https://dc.lft.to/lastmile_qr_scan"}}, {"is_disabled": 0, "fusion_lat": 0.0, "lat": 38.899166, "type": "electric_scooter", "lon": -76.933789, "is_reserved": 0, "fusion_lon": 0.0, "bike_id": "0d79f676665f95a8c8b52fa4693885f5", "name": "0d79f676665f95a8c8b52fa4693885f5", "rental_uris": {"ios": "https://dc.lft.to/lastmile_qr_scan", "android": "https://dc.lft.to/lastmile_qr_scan"}}, {"is_disabled": 0, "fusion_lat": 0.0, "lat": 38.92816466666667, "type": "electric_scooter", "lon": -77.03261666666667, "is_reserved": 0, "fusion_lon": 0.0, "bike_id": "67d37bde6a8281999a4650536d0f3844", "name": "67d37bde6a8281999a4650536d0f3844", "rental_uris": {"ios": "https://dc.lft.to/lastmile_qr_scan", "android": "https://dc.lft.to/lastmile_qr_scan"}}, {"is_disabled": 0, "fusion_lat": 0.0, "lat": 38.91264233333333, "type": "electric_scooter", "lon": -77.03868916666667, "is_reserved": 0, "fusion_lon": 0.0, "bike_id": "36148dd1d47733afd242c709cbebcbbc", "name": "36148dd1d47733afd242c709cbebcbbc", "rental_uris": {"ios": "https://dc.lft.to/lastmile_qr_scan", "android": "https://dc.lft.to/lastmile_qr_scan"}}, {"is_disabled": 0, "fusion_lat": 0.0, "lat": 38.910505, "type": "electric_scooter", "lon": -77.01507533333333, "is_reserved": 0, "fusion_lon": 0.0, "bike_id": "21f5570fc0c99316c61dbcafb0b5d28f", "name": "21f5570fc0c99316c61dbcafb0b5d28f", "rental_uris": {"ios": "https://dc.lft.to/lastmile_qr_scan", "android": "https://dc.lft.to/lastmile_qr_scan"}}, {"is_disabled": 0, "fusion_lat": 0.0, "lat": 38.92079533333333, "type": "electric_scooter", "lon": -77.03174216666666, "is_reserved": 0, "fusion_lon": 0.0, "bike_id": "ea7a5c1d4c19dd9a55c1a5183ee0274b", "name": "ea7a5c1d4c19dd9a55c1a5183ee0274b", "rental_uris": {"ios": "https://dc.lft.to/lastmile_qr_scan", "android": "https://dc.lft.to/lastmile_qr_scan"}}, {"is_disabled": 0, "fusion_lat": 0.0, "lat": 38.92316916666667, "type": "electric_scooter", "lon": -77.038056, "is_reserved": 0, "fusion_lon": 0.0, "bike_id": "cb9a3f53d106686d999c1ba2a348f86c", "name": "cb9a3f53d106686d999c1ba2a348f86c", "rental_uris": {"ios": "https://dc.lft.to/lastmile_qr_scan", "android": "https://dc.lft.to/lastmile_qr_scan"}}, {"is_disabled": 0, "fusion_lat": 0.0, "lat": 38.905192166666666, "type": "electric_scooter", "lon": -77.02625133333333, "is_reserved": 0, "fusion_lon": 0.0, "bike_id": "0c0af3c90749ff9d674a98e2ff227079", "name": "0c0af3c90749ff9d674a98e2ff227079", "rental_uris": {"ios": "https://dc.lft.to/lastmile_qr_scan", "android": "https://dc.lft.to/lastmile_qr_scan"}}, {"is_disabled": 0, "fusion_lat": 0.0, "lat": 38.892221666666664, "type": "electric_scooter", "lon": -77.04511366666667, "is_reserved": 0, "fusion_lon": 0.0, "bike_id": "d32848134d4c2fdd8ec8f498760974db", "name": "d32848134d4c2fdd8ec8f498760974db", "rental_uris": {"ios": "https://dc.lft.to/lastmile_qr_scan", "android": "https://dc.lft.to/lastmile_qr_scan"}}, {"is_disabled": 0, "fusion_lat": 0.0, "lat": 38.905330166666666, "type": "electric_scooter", "lon": -77.05130666666666, "is_reserved": 0, "fusion_lon": 0.0, "bike_id": "8b248cdefb8c54f9ad82633bc4802c8e", "name": "8b248cdefb8c54f9ad82633bc4802c8e", "rental_uris": {"ios": "https://dc.lft.to/lastmile_qr_scan", "android": "https://dc.lft.to/lastmile_qr_scan"}}, {"is_disabled": 0, "fusion_lat": 0.0, "lat": 38.90561616666667, "type": "electric_scooter", "lon": -77.038144, "is_reserved": 0, "fusion_lon": 0.0, "bike_id": "bf866272f8b644ce2b1a203771950245", "name": "bf866272f8b644ce2b1a203771950245", "rental_uris": {"ios": "https://dc.lft.to/lastmile_qr_scan", "android": "https://dc.lft.to/lastmile_qr_scan"}}, {"is_disabled": 0, "fusion_lat": 0.0, "lat": 38.92002216666667, "type": "electric_scooter", "lon": -77.03191216666667, "is_reserved": 0, "fusion_lon": 0.0, "bike_id": "d69d36e6faf5842f55d1404d523baa86", "name": "d69d36e6faf5842f55d1404d523baa86", "rental_uris": {"ios": "https://dc.lft.to/lastmile_qr_scan", "android": "https://dc.lft.to/lastmile_qr_scan"}}, {"is_disabled": 0, "fusion_lat": 0.0, "lat": 38.884827333333334, "type": "electric_scooter", "lon": -77.01522833333334, "is_reserved": 0, "fusion_lon": 0.0, "bike_id": "206be5a0e2072591e6cd584158c0b4f1", "name": "206be5a0e2072591e6cd584158c0b4f1", "rental_uris": {"ios": "https://dc.lft.to/lastmile_qr_scan", "android": "https://dc.lft.to/lastmile_qr_scan"}}, {"is_disabled": 0, "fusion_lat": 0.0, "lat": 38.952631833333335, "type": "electric_bike", "lon": -77.001914, "is_reserved": 0, "fusion_lon": 0.0, "bike_id": "97bee20fef8e1ed270592e57bd469720", "name": "97bee20fef8e1ed270592e57bd469720", "rental_uris": {"ios": "https://dc.lft.to/lastmile_qr_scan", "android": "https://dc.lft.to/lastmile_qr_scan"}}, {"is_disabled": 0, "fusion_lat": 0.0, "lat": 38.92128833333334, "type": "electric_scooter", "lon": -77.01799616666666, "is_reserved": 0, "fusion_lon": 0.0, "bike_id": "7183437dffd0f1df9b036654e58b7aa8", "name": "7183437dffd0f1df9b036654e58b7aa8", "rental_uris": {"ios": "https://dc.lft.to/lastmile_qr_scan", "android": "https://dc.lft.to/lastmile_qr_scan"}}, {"is_disabled": 0, "fusion_lat": 0.0, "lat": 38.905317, "type": "electric_scooter", "lon": -77.02212216666666, "is_reserved": 0, "fusion_lon": 0.0, "bike_id": "db3623f4d061393b601ed8c8353d796e", "name": "db3623f4d061393b601ed8c8353d796e", "rental_uris": {"ios": "https://dc.lft.to/lastmile_qr_scan", "android": "https://dc.lft.to/lastmile_qr_scan"}}, {"is_disabled": 0, "fusion_lat": 0.0, "lat": 38.849349, "type": "electric_bike", "lon": -77.10018266666667, "is_reserved": 0, "fusion_lon": 0.0, "bike_id": "54626ec788165301e9536ebecd719f61", "name": "54626ec788165301e9536ebecd719f61", "rental_uris": {"ios": "https://dc.lft.to/lastmile_qr_scan", "android": "https://dc.lft.to/lastmile_qr_scan"}}, {"is_disabled": 0, "fusion_lat": 0.0, "lat": 38.901246, "type": "electric_scooter", "lon": -77.002828, "is_reserved": 0, "fusion_lon": 0.0, "bike_id": "ef65ee759026f56a1ea7a0916d491642", "name": "ef65ee759026f56a1ea7a0916d491642", "rental_uris": {"ios": "https://dc.lft.to/lastmile_qr_scan", "android": "https://dc.lft.to/lastmile_qr_scan"}}, {"is_disabled": 0, "fusion_lat": 0.0, "lat": 38.93056816666667, "type": "electric_scooter", "lon": -77.02660933333334, "is_reserved": 0, "fusion_lon": 0.0, "bike_id": "90fde1dcd174947a87dc8ad6b06e67c2", "name": "90fde1dcd174947a87dc8ad6b06e67c2", "rental_uris": {"ios": "https://dc.lft.to/lastmile_qr_scan", "android": "https://dc.lft.to/lastmile_qr_scan"}}, {"is_disabled": 0, "fusion_lat": 0.0, "lat": 38.866203, "type": "electric_scooter", "lon": -76.986941, "is_reserved": 0, "fusion_lon": 0.0, "bike_id": "3c0c9ff4fe8a3c88762360ca4ae1c1d8", "name": "3c0c9ff4fe8a3c88762360ca4ae1c1d8", "rental_uris": {"ios": "https://dc.lft.to/lastmile_qr_scan", "android": "https://dc.lft.to/lastmile_qr_scan"}}, {"is_disabled": 0, "fusion_lat": 0.0, "lat": 38.89367816666667, "type": "electric_scooter", "lon": -76.9499975, "is_reserved": 0, "fusion_lon": 0.0, "bike_id": "51fd27f31533b4a7f44f731897af5642", "name": "51fd27f31533b4a7f44f731897af5642", "rental_uris": {"ios": "https://dc.lft.to/lastmile_qr_scan", "android": "https://dc.lft.to/lastmile_qr_scan"}}, {"is_disabled": 0, "fusion_lat": 0.0, "lat": 38.8429195, "type": "electric_scooter", "lon": -76.99947483333334, "is_reserved": 0, "fusion_lon": 0.0, "bike_id": "9886d8b5ca75a374421b8f0b1cf8439b", "name": "9886d8b5ca75a374421b8f0b1cf8439b", "rental_uris": {"ios": "https://dc.lft.to/lastmile_qr_scan", "android": "https://dc.lft.to/lastmile_qr_scan"}}, {"is_disabled": 0, "fusion_lat": 0.0, "lat": 38.91883383333333, "type": "electric_scooter", "lon": -77.02978616666667, "is_reserved": 0, "fusion_lon": 0.0, "bike_id": "1c56879968df9576672420cf586464b1", "name": "1c56879968df9576672420cf586464b1", "rental_uris": {"ios": "https://dc.lft.to/lastmile_qr_scan", "android": "https://dc.lft.to/lastmile_qr_scan"}}, {"is_disabled": 0, "fusion_lat": 0.0, "lat": 38.90706316666667, "type": "electric_scooter", "lon": -77.04350566666666, "is_reserved": 0, "fusion_lon": 0.0, "bike_id": "2645ed82775e6d25eff9b8107370a5a7", "name": "2645ed82775e6d25eff9b8107370a5a7", "rental_uris": {"ios": "https://dc.lft.to/lastmile_qr_scan", "android": "https://dc.lft.to/lastmile_qr_scan"}}, {"is_disabled": 0, "fusion_lat": 0.0, "lat": 38.8577445, "type": "electric_bike", "lon": -76.987684, "is_reserved": 0, "fusion_lon": 0.0, "bike_id": "35ec9e6c5fee58e131768fd675047171", "name": "35ec9e6c5fee58e131768fd675047171", "rental_uris": {"ios": "https://dc.lft.to/lastmile_qr_scan", "android": "https://dc.lft.to/lastmile_qr_scan"}}, {"is_disabled": 0, "fusion_lat": 0.0, "lat": 38.930898166666665, "type": "electric_scooter", "lon": -77.03756866666667, "is_reserved": 0, "fusion_lon": 0.0, "bike_id": "de1e5f9984a9256748fdbe0aab270487", "name": "de1e5f9984a9256748fdbe0aab270487", "rental_uris": {"ios": "https://dc.lft.to/lastmile_qr_scan", "android": "https://dc.lft.to/lastmile_qr_scan"}}, {"is_disabled": 0, "fusion_lat": 0.0, "lat": 38.902419, "type": "electric_scooter", "lon": -77.0486165, "is_reserved": 0, "fusion_lon": 0.0, "bike_id": "c5e852c5227f330576ab15ee09a1b09b", "name": "c5e852c5227f330576ab15ee09a1b09b", "rental_uris": {"ios": "https://dc.lft.to/lastmile_qr_scan", "android": "https://dc.lft.to/lastmile_qr_scan"}}, {"is_disabled": 0, "fusion_lat": 0.0, "lat": 38.915724, "type": "electric_scooter", "lon": -77.03191683333333, "is_reserved": 0, "fusion_lon": 0.0, "bike_id": "3bba92994d60179d6f4c02d91659a95b", "name": "3bba92994d60179d6f4c02d91659a95b", "rental_uris": {"ios": "https://dc.lft.to/lastmile_qr_scan", "android": "https://dc.lft.to/lastmile_qr_scan"}}, {"is_disabled": 0, "fusion_lat": 0.0, "lat": 38.921859166666664, "type": "electric_scooter", "lon": -77.018312, "is_reserved": 0, "fusion_lon": 0.0, "bike_id": "9cb46999debfa89df8be61d6e8d4741f", "name": "9cb46999debfa89df8be61d6e8d4741f", "rental_uris": {"ios": "https://dc.lft.to/lastmile_qr_scan", "android": "https://dc.lft.to/lastmile_qr_scan"}}, {"is_disabled": 0, "fusion_lat": 0.0, "lat": 38.9182695, "type": "electric_scooter", "lon": -77.03841733333333, "is_reserved": 0, "fusion_lon": 0.0, "bike_id": "8cb4599548522da159d9f23f5c490e18", "name": "8cb4599548522da159d9f23f5c490e18", "rental_uris": {"ios": "https://dc.lft.to/lastmile_qr_scan", "android": "https://dc.lft.to/lastmile_qr_scan"}}, {"is_disabled": 0, "fusion_lat": 0.0, "lat": 38.88581716666667, "type": "electric_scooter", "lon": -77.012254, "is_reserved": 0, "fusion_lon": 0.0, "bike_id": "39f2fbcef6e022873b967380dc8c41ca", "name": "39f2fbcef6e022873b967380dc8c41ca", "rental_uris": {"ios": "https://dc.lft.to/lastmile_qr_scan", "android": "https://dc.lft.to/lastmile_qr_scan"}}, {"is_disabled": 0, "fusion_lat": 0.0, "lat": 39.030418833333336, "type": "electric_bike", "lon": -77.09480883333333, "is_reserved": 0, "fusion_lon": 0.0, "bike_id": "111bcdf8559d7862f9a3693228c43562", "name": "111bcdf8559d7862f9a3693228c43562", "rental_uris": {"ios": "https://dc.lft.to/lastmile_qr_scan", "android": "https://dc.lft.to/lastmile_qr_scan"}}, {"is_disabled": 0, "fusion_lat": 0.0, "lat": 38.930878666666665, "type": "electric_scooter", "lon": -76.9671685, "is_reserved": 0, "fusion_lon": 0.0, "bike_id": "32a525d2e16f4301e1bffc158657653a", "name": "32a525d2e16f4301e1bffc158657653a", "rental_uris": {"ios": "https://dc.lft.to/lastmile_qr_scan", "android": "https://dc.lft.to/lastmile_qr_scan"}}, {"is_disabled": 0, "fusion_lat": 0.0, "lat": 39.02427316666667, "type": "electric_bike", "lon": -77.130994, "is_reserved": 0, "fusion_lon": 0.0, "bike_id": "a25335f700ce5da3e4e8e42a6695879c", "name": "a25335f700ce5da3e4e8e42a6695879c", "rental_uris": {"ios": "https://dc.lft.to/lastmile_qr_scan", "android": "https://dc.lft.to/lastmile_qr_scan"}}, {"is_disabled": 0, "fusion_lat": 0.0, "lat": 38.928246333333334, "type": "electric_scooter", "lon": -77.02256616666666, "is_reserved": 0, "fusion_lon": 0.0, "bike_id": "bb1fe1b38d89f72bd85c352960fd5d5f", "name": "bb1fe1b38d89f72bd85c352960fd5d5f", "rental_uris": {"ios": "https://dc.lft.to/lastmile_qr_scan", "android": "https://dc.lft.to/lastmile_qr_scan"}}, {"is_disabled": 0, "fusion_lat": 0.0, "lat": 38.90763583333333, "type": "electric_scooter", "lon": -77.06920833333334, "is_reserved": 0, "fusion_lon": 0.0, "bike_id": "d3cb38c2e77bc3b84a78c17b46fa4fae", "name": "d3cb38c2e77bc3b84a78c17b46fa4fae", "rental_uris": {"ios": "https://dc.lft.to/lastmile_qr_scan", "android": "https://dc.lft.to/lastmile_qr_scan"}}, {"is_disabled": 0, "fusion_lat": 0.0, "lat": 38.936182, "type": "electric_scooter", "lon": -77.03210716666666, "is_reserved": 0, "fusion_lon": 0.0, "bike_id": "01108009dca1e0554fb3557e0bffe96c", "name": "01108009dca1e0554fb3557e0bffe96c", "rental_uris": {"ios": "https://dc.lft.to/lastmile_qr_scan", "android": "https://dc.lft.to/lastmile_qr_scan"}}, {"is_disabled": 0, "fusion_lat": 0.0, "lat": 38.9117535, "type": "electric_scooter", "lon": -77.06828583333333, "is_reserved": 0, "fusion_lon": 0.0, "bike_id": "c10452ea1259374e4db7f318c3237c67", "name": "c10452ea1259374e4db7f318c3237c67", "rental_uris": {"ios": "https://dc.lft.to/lastmile_qr_scan", "android": "https://dc.lft.to/lastmile_qr_scan"}}, {"is_disabled": 0, "fusion_lat": 0.0, "lat": 38.9046515, "type": "electric_scooter", "lon": -77.032836, "is_reserved": 0, "fusion_lon": 0.0, "bike_id": "a0436e8d3da2dab18f09568abae523cc", "name": "a0436e8d3da2dab18f09568abae523cc", "rental_uris": {"ios": "https://dc.lft.to/lastmile_qr_scan", "android": "https://dc.lft.to/lastmile_qr_scan"}}, {"is_disabled": 0, "fusion_lat": 0.0, "lat": 38.8442935, "type": "electric_scooter", "lon": -76.99778266666667, "is_reserved": 0, "fusion_lon": 0.0, "bike_id": "025f86532f057b1e2980575f5a4f0f81", "name": "025f86532f057b1e2980575f5a4f0f81", "rental_uris": {"ios": "https://dc.lft.to/lastmile_qr_scan", "android": "https://dc.lft.to/lastmile_qr_scan"}}, {"is_disabled": 0, "fusion_lat": 0.0, "lat": 38.879613666666664, "type": "electric_scooter", "lon": -77.00491966666667, "is_reserved": 0, "fusion_lon": 0.0, "bike_id": "9fc3e20bc8ac740446735f63e34e1ef5", "name": "9fc3e20bc8ac740446735f63e34e1ef5", "rental_uris": {"ios": "https://dc.lft.to/lastmile_qr_scan", "android": "https://dc.lft.to/lastmile_qr_scan"}}, {"is_disabled": 0, "fusion_lat": 0.0, "lat": 38.90350266666667, "type": "electric_scooter", "lon": -77.043463, "is_reserved": 0, "fusion_lon": 0.0, "bike_id": "cb8115fca603e873c2850a4bd236e6d4", "name": "cb8115fca603e873c2850a4bd236e6d4", "rental_uris": {"ios": "https://dc.lft.to/lastmile_qr_scan", "android": "https://dc.lft.to/lastmile_qr_scan"}}, {"is_disabled": 0, "fusion_lat": 0.0, "lat": 38.86914866666667, "type": "electric_scooter", "lon": -76.98305366666666, "is_reserved": 0, "fusion_lon": 0.0, "bike_id": "e8a8095fa63cd2a3bda8899d21f4ce14", "name": "e8a8095fa63cd2a3bda8899d21f4ce14", "rental_uris": {"ios": "https://dc.lft.to/lastmile_qr_scan", "android": "https://dc.lft.to/lastmile_qr_scan"}}, {"is_disabled": 0, "fusion_lat": 0.0, "lat": 38.986593, "type": "electric_bike", "lon": -77.05643283333333, "is_reserved": 0, "fusion_lon": 0.0, "bike_id": "e0003d8eb52ab2abb3547bea44ac8ebc", "name": "e0003d8eb52ab2abb3547bea44ac8ebc", "rental_uris": {"ios": "https://dc.lft.to/lastmile_qr_scan", "android": "https://dc.lft.to/lastmile_qr_scan"}}, {"is_disabled": 0, "fusion_lat": 0.0, "lat": 38.88505116666666, "type": "electric_scooter", "lon": -77.00566266666667, "is_reserved": 0, "fusion_lon": 0.0, "bike_id": "4f67064276d2abeb8e74dceb9b4c87e0", "name": "4f67064276d2abeb8e74dceb9b4c87e0", "rental_uris": {"ios": "https://dc.lft.to/lastmile_qr_scan", "android": "https://dc.lft.to/lastmile_qr_scan"}}, {"is_disabled": 0, "fusion_lat": 0.0, "lat": 38.881274166666664, "type": "electric_scooter", "lon": -77.000975, "is_reserved": 0, "fusion_lon": 0.0, "bike_id": "1dc336967ae0d043f606da2bf66ba2a4", "name": "1dc336967ae0d043f606da2bf66ba2a4", "rental_uris": {"ios": "https://dc.lft.to/lastmile_qr_scan", "android": "https://dc.lft.to/lastmile_qr_scan"}}, {"is_disabled": 0, "fusion_lat": 0.0, "lat": 38.884146666666666, "type": "electric_scooter", "lon": -77.0174895, "is_reserved": 0, "fusion_lon": 0.0, "bike_id": "1d07319287782d37e8e05e4d76a87fe9", "name": "1d07319287782d37e8e05e4d76a87fe9", "rental_uris": {"ios": "https://dc.lft.to/lastmile_qr_scan", "android": "https://dc.lft.to/lastmile_qr_scan"}}, {"is_disabled": 0, "fusion_lat": 0.0, "lat": 38.90333666666667, "type": "electric_scooter", "lon": -76.9759405, "is_reserved": 0, "fusion_lon": 0.0, "bike_id": "e40b6bafa09eac53623563d0986c1cc5", "name": "e40b6bafa09eac53623563d0986c1cc5", "rental_uris": {"ios": "https://dc.lft.to/lastmile_qr_scan", "android": "https://dc.lft.to/lastmile_qr_scan"}}, {"is_disabled": 0, "fusion_lat": 0.0, "lat": 38.916954, "type": "electric_scooter", "lon": -77.03223066666666, "is_reserved": 0, "fusion_lon": 0.0, "bike_id": "ba46c45f85cfff0bb57f5bf1a6294b7b", "name": "ba46c45f85cfff0bb57f5bf1a6294b7b", "rental_uris": {"ios": "https://dc.lft.to/lastmile_qr_scan", "android": "https://dc.lft.to/lastmile_qr_scan"}}, {"is_disabled": 0, "fusion_lat": 0.0, "lat": 38.9243385, "type": "electric_scooter", "lon": -77.0520855, "is_reserved": 0, "fusion_lon": 0.0, "bike_id": "7f8411d95d39beb8bca39560ee350eac", "name": "7f8411d95d39beb8bca39560ee350eac", "rental_uris": {"ios": "https://dc.lft.to/lastmile_qr_scan", "android": "https://dc.lft.to/lastmile_qr_scan"}}, {"is_disabled": 0, "fusion_lat": 0.0, "lat": 38.9018345, "type": "electric_scooter", "lon": -77.03447566666667, "is_reserved": 0, "fusion_lon": 0.0, "bike_id": "fc7ef3b3bce7de6d13df3f4c60389bb9", "name": "fc7ef3b3bce7de6d13df3f4c60389bb9", "rental_uris": {"ios": "https://dc.lft.to/lastmile_qr_scan", "android": "https://dc.lft.to/lastmile_qr_scan"}}, {"is_disabled": 0, "fusion_lat": 0.0, "lat": 38.916891666666665, "type": "electric_scooter", "lon": -77.03218816666667, "is_reserved": 0, "fusion_lon": 0.0, "bike_id": "6815be83d54ef278a61cbac769c86b20", "name": "6815be83d54ef278a61cbac769c86b20", "rental_uris": {"ios": "https://dc.lft.to/lastmile_qr_scan", "android": "https://dc.lft.to/lastmile_qr_scan"}}, {"is_disabled": 0, "fusion_lat": 0.0, "lat": 38.894564333333335, "type": "electric_bike", "lon": -76.97036, "is_reserved": 0, "fusion_lon": 0.0, "bike_id": "98829d2302b588bf86f45dd4eb0dc65e", "name": "98829d2302b588bf86f45dd4eb0dc65e", "rental_uris": {"ios": "https://dc.lft.to/lastmile_qr_scan", "android": "https://dc.lft.to/lastmile_qr_scan"}}, {"is_disabled": 0, "fusion_lat": 0.0, "lat": 38.887449833333335, "type": "electric_scooter", "lon": -77.0217025, "is_reserved": 0, "fusion_lon": 0.0, "bike_id": "a5e1c539584bb45e595b406b304784e4", "name": "a5e1c539584bb45e595b406b304784e4", "rental_uris": {"ios": "https://dc.lft.to/lastmile_qr_scan", "android": "https://dc.lft.to/lastmile_qr_scan"}}, {"is_disabled": 0, "fusion_lat": 0.0, "lat": 38.898609666666665, "type": "electric_scooter", "lon": -77.033095, "is_reserved": 0, "fusion_lon": 0.0, "bike_id": "63115b6b0b4cad97d2adce15bdddef52", "name": "63115b6b0b4cad97d2adce15bdddef52", "rental_uris": {"ios": "https://dc.lft.to/lastmile_qr_scan", "android": "https://dc.lft.to/lastmile_qr_scan"}}, {"is_disabled": 0, "fusion_lat": 0.0, "lat": 38.84269716666667, "type": "electric_bike", "lon": -76.988443, "is_reserved": 0, "fusion_lon": 0.0, "bike_id": "8d23f2a2fab1cad9dcf84656f73c5b55", "name": "8d23f2a2fab1cad9dcf84656f73c5b55", "rental_uris": {"ios": "https://dc.lft.to/lastmile_qr_scan", "android": "https://dc.lft.to/lastmile_qr_scan"}}, {"is_disabled": 0, "fusion_lat": 0.0, "lat": 38.999387, "type": "electric_bike", "lon": -77.01768, "is_reserved": 0, "fusion_lon": 0.0, "bike_id": "4e25404def2d559d9df1e6eb25535db2", "name": "4e25404def2d559d9df1e6eb25535db2", "rental_uris": {"ios": "https://dc.lft.to/lastmile_qr_scan", "android": "https://dc.lft.to/lastmile_qr_scan"}}, {"is_disabled": 0, "fusion_lat": 0.0, "lat": 38.932443, "type": "electric_scooter", "lon": -77.03868066666666, "is_reserved": 0, "fusion_lon": 0.0, "bike_id": "919ca0dbc11ecfa8a33302ef6ac3104a", "name": "919ca0dbc11ecfa8a33302ef6ac3104a", "rental_uris": {"ios": "https://dc.lft.to/lastmile_qr_scan", "android": "https://dc.lft.to/lastmile_qr_scan"}}, {"is_disabled": 0, "fusion_lat": 0.0, "lat": 38.89000216666667, "type": "electric_bike", "lon": -76.99943083333334, "is_reserved": 0, "fusion_lon": 0.0, "bike_id": "790bf655fdea0f2813044deca7d63fac", "name": "790bf655fdea0f2813044deca7d63fac", "rental_uris": {"ios": "https://dc.lft.to/lastmile_qr_scan", "android": "https://dc.lft.to/lastmile_qr_scan"}}, {"is_disabled": 0, "fusion_lat": 0.0, "lat": 38.93877833333333, "type": "electric_scooter", "lon": -77.02480883333334, "is_reserved": 0, "fusion_lon": 0.0, "bike_id": "cb0d82e8f1181eca5e7d34ea6a118132", "name": "cb0d82e8f1181eca5e7d34ea6a118132", "rental_uris": {"ios": "https://dc.lft.to/lastmile_qr_scan", "android": "https://dc.lft.to/lastmile_qr_scan"}}, {"is_disabled": 0, "fusion_lat": 0.0, "lat": 38.902551833333334, "type": "electric_scooter", "lon": -77.04145116666666, "is_reserved": 0, "fusion_lon": 0.0, "bike_id": "e7d7bee622310c8d41fad9d6ce006728", "name": "e7d7bee622310c8d41fad9d6ce006728", "rental_uris": {"ios": "https://dc.lft.to/lastmile_qr_scan", "android": "https://dc.lft.to/lastmile_qr_scan"}}, {"is_disabled": 0, "fusion_lat": 0.0, "lat": 38.916091, "type": "electric_scooter", "lon": -77.04876166666666, "is_reserved": 0, "fusion_lon": 0.0, "bike_id": "cba02d365e21918bce628b89c33511f2", "name": "cba02d365e21918bce628b89c33511f2", "rental_uris": {"ios": "https://dc.lft.to/lastmile_qr_scan", "android": "https://dc.lft.to/lastmile_qr_scan"}}, {"is_disabled": 0, "fusion_lat": 0.0, "lat": 38.8551035, "type": "electric_bike", "lon": -77.1201375, "is_reserved": 0, "fusion_lon": 0.0, "bike_id": "6c469f70b0615190e310f22695c9dcf0", "name": "6c469f70b0615190e310f22695c9dcf0", "rental_uris": {"ios": "https://dc.lft.to/lastmile_qr_scan", "android": "https://dc.lft.to/lastmile_qr_scan"}}, {"is_disabled": 0, "fusion_lat": 0.0, "lat": 38.896099, "type": "electric_scooter", "lon": -77.04555216666667, "is_reserved": 0, "fusion_lon": 0.0, "bike_id": "4bb23246a401ecfbbd6578b3342c082c", "name": "4bb23246a401ecfbbd6578b3342c082c", "rental_uris": {"ios": "https://dc.lft.to/lastmile_qr_scan", "android": "https://dc.lft.to/lastmile_qr_scan"}}, {"is_disabled": 0, "fusion_lat": 0.0, "lat": 38.91212183333333, "type": "electric_scooter", "lon": -77.03845866666667, "is_reserved": 0, "fusion_lon": 0.0, "bike_id": "35377837f44bcfd74604fb988cb77ca3", "name": "35377837f44bcfd74604fb988cb77ca3", "rental_uris": {"ios": "https://dc.lft.to/lastmile_qr_scan", "android": "https://dc.lft.to/lastmile_qr_scan"}}, {"is_disabled": 0, "fusion_lat": 0.0, "lat": 38.86520816666667, "type": "electric_scooter", "lon": -76.99042166666666, "is_reserved": 0, "fusion_lon": 0.0, "bike_id": "4e3d5989c168bca1beb4b2f046a7c098", "name": "4e3d5989c168bca1beb4b2f046a7c098", "rental_uris": {"ios": "https://dc.lft.to/lastmile_qr_scan", "android": "https://dc.lft.to/lastmile_qr_scan"}}, {"is_disabled": 0, "fusion_lat": 0.0, "lat": 38.952701166666664, "type": "electric_bike", "lon": -77.0699385, "is_reserved": 0, "fusion_lon": 0.0, "bike_id": "cde02789d70fc63bb8c7da914e155480", "name": "cde02789d70fc63bb8c7da914e155480", "rental_uris": {"ios": "https://dc.lft.to/lastmile_qr_scan", "android": "https://dc.lft.to/lastmile_qr_scan"}}, {"is_disabled": 0, "fusion_lat": 0.0, "lat": 38.918088166666664, "type": "electric_scooter", "lon": -77.01014366666666, "is_reserved": 0, "fusion_lon": 0.0, "bike_id": "a418681c86805ddca362d7b253916959", "name": "a418681c86805ddca362d7b253916959", "rental_uris": {"ios": "https://dc.lft.to/lastmile_qr_scan", "android": "https://dc.lft.to/lastmile_qr_scan"}}, {"is_disabled": 0, "fusion_lat": 0.0, "lat": 38.9141475, "type": "electric_scooter", "lon": -77.019607, "is_reserved": 0, "fusion_lon": 0.0, "bike_id": "589627d1b858dd1868ae3888e534b291", "name": "589627d1b858dd1868ae3888e534b291", "rental_uris": {"ios": "https://dc.lft.to/lastmile_qr_scan", "android": "https://dc.lft.to/lastmile_qr_scan"}}, {"is_disabled": 0, "fusion_lat": 0.0, "lat": 38.89793483333333, "type": "electric_scooter", "lon": -77.01198666666667, "is_reserved": 0, "fusion_lon": 0.0, "bike_id": "d1fff49588b7f1f2715c41c67431e883", "name": "d1fff49588b7f1f2715c41c67431e883", "rental_uris": {"ios": "https://dc.lft.to/lastmile_qr_scan", "android": "https://dc.lft.to/lastmile_qr_scan"}}, {"is_disabled": 0, "fusion_lat": 0.0, "lat": 38.901956, "type": "electric_scooter", "lon": -77.02378016666667, "is_reserved": 0, "fusion_lon": 0.0, "bike_id": "a6d55a02ae8fb4c4c4fcaad025427452", "name": "a6d55a02ae8fb4c4c4fcaad025427452", "rental_uris": {"ios": "https://dc.lft.to/lastmile_qr_scan", "android": "https://dc.lft.to/lastmile_qr_scan"}}, {"is_disabled": 0, "fusion_lat": 0.0, "lat": 38.939082666666664, "type": "electric_scooter", "lon": -77.06042066666667, "is_reserved": 0, "fusion_lon": 0.0, "bike_id": "77f049bead988a6ef199776dec4f4aed", "name": "77f049bead988a6ef199776dec4f4aed", "rental_uris": {"ios": "https://dc.lft.to/lastmile_qr_scan", "android": "https://dc.lft.to/lastmile_qr_scan"}}, {"is_disabled": 0, "fusion_lat": 0.0, "lat": 38.89274283333334, "type": "electric_scooter", "lon": -77.050304, "is_reserved": 0, "fusion_lon": 0.0, "bike_id": "9b61366e4fd6adac646c4793eeba2e3d", "name": "9b61366e4fd6adac646c4793eeba2e3d", "rental_uris": {"ios": "https://dc.lft.to/lastmile_qr_scan", "android": "https://dc.lft.to/lastmile_qr_scan"}}, {"is_disabled": 0, "fusion_lat": 0.0, "lat": 38.87667533333333, "type": "electric_scooter", "lon": -77.00413166666667, "is_reserved": 0, "fusion_lon": 0.0, "bike_id": "bd6a3a8692041b552b9f6abc31f5518a", "name": "bd6a3a8692041b552b9f6abc31f5518a", "rental_uris": {"ios": "https://dc.lft.to/lastmile_qr_scan", "android": "https://dc.lft.to/lastmile_qr_scan"}}, {"is_disabled": 0, "fusion_lat": 0.0, "lat": 38.93976033333333, "type": "electric_scooter", "lon": -77.03144333333333, "is_reserved": 0, "fusion_lon": 0.0, "bike_id": "927d2f3dad374465d21274bb91fc3ac3", "name": "927d2f3dad374465d21274bb91fc3ac3", "rental_uris": {"ios": "https://dc.lft.to/lastmile_qr_scan", "android": "https://dc.lft.to/lastmile_qr_scan"}}, {"is_disabled": 0, "fusion_lat": 0.0, "lat": 38.919024, "type": "electric_scooter", "lon": -77.04631783333333, "is_reserved": 0, "fusion_lon": 0.0, "bike_id": "81e3d4620c15e87a6f05d7b0d3644984", "name": "81e3d4620c15e87a6f05d7b0d3644984", "rental_uris": {"ios": "https://dc.lft.to/lastmile_qr_scan", "android": "https://dc.lft.to/lastmile_qr_scan"}}, {"is_disabled": 0, "fusion_lat": 0.0, "lat": 38.857906166666666, "type": "electric_bike", "lon": -77.09964166666667, "is_reserved": 0, "fusion_lon": 0.0, "bike_id": "b954dec2ec649e33cc14bd1ad758ee4f", "name": "b954dec2ec649e33cc14bd1ad758ee4f", "rental_uris": {"ios": "https://dc.lft.to/lastmile_qr_scan", "android": "https://dc.lft.to/lastmile_qr_scan"}}, {"is_disabled": 0, "fusion_lat": 0.0, "lat": 38.92928716666667, "type": "electric_scooter", "lon": -77.03281566666666, "is_reserved": 0, "fusion_lon": 0.0, "bike_id": "03f0074e8dba2addd97be7b772aa6913", "name": "03f0074e8dba2addd97be7b772aa6913", "rental_uris": {"ios": "https://dc.lft.to/lastmile_qr_scan", "android": "https://dc.lft.to/lastmile_qr_scan"}}, {"is_disabled": 0, "fusion_lat": 0.0, "lat": 38.91394866666667, "type": "electric_scooter", "lon": -76.98415866666667, "is_reserved": 0, "fusion_lon": 0.0, "bike_id": "fef9890f05fdec10e738d73e5ab54dd8", "name": "fef9890f05fdec10e738d73e5ab54dd8", "rental_uris": {"ios": "https://dc.lft.to/lastmile_qr_scan", "android": "https://dc.lft.to/lastmile_qr_scan"}}, {"is_disabled": 0, "fusion_lat": 0.0, "lat": 38.8637545, "type": "electric_scooter", "lon": -76.990645, "is_reserved": 0, "fusion_lon": 0.0, "bike_id": "4ece7870215af8f648a3ef81a45b79e3", "name": "4ece7870215af8f648a3ef81a45b79e3", "rental_uris": {"ios": "https://dc.lft.to/lastmile_qr_scan", "android": "https://dc.lft.to/lastmile_qr_scan"}}, {"is_disabled": 0, "fusion_lat": 0.0, "lat": 38.888600833333335, "type": "electric_scooter", "lon": -77.001182, "is_reserved": 0, "fusion_lon": 0.0, "bike_id": "bbb73bba93214d4cb2c5ee832d44c7ec", "name": "bbb73bba93214d4cb2c5ee832d44c7ec", "rental_uris": {"ios": "https://dc.lft.to/lastmile_qr_scan", "android": "https://dc.lft.to/lastmile_qr_scan"}}, {"is_disabled": 0, "fusion_lat": 0.0, "lat": 38.907252666666665, "type": "electric_scooter", "lon": -77.0254515, "is_reserved": 0, "fusion_lon": 0.0, "bike_id": "a9eb400ce27e3ff2f58d3d9ddd30fdde", "name": "a9eb400ce27e3ff2f58d3d9ddd30fdde", "rental_uris": {"ios": "https://dc.lft.to/lastmile_qr_scan", "android": "https://dc.lft.to/lastmile_qr_scan"}}, {"is_disabled": 0, "fusion_lat": 0.0, "lat": 38.91416316666667, "type": "electric_scooter", "lon": -77.03398183333333, "is_reserved": 0, "fusion_lon": 0.0, "bike_id": "bfeeba30cea45560ae4d9117b51e3476", "name": "bfeeba30cea45560ae4d9117b51e3476", "rental_uris": {"ios": "https://dc.lft.to/lastmile_qr_scan", "android": "https://dc.lft.to/lastmile_qr_scan"}}, {"is_disabled": 0, "fusion_lat": 0.0, "lat": 38.89662916666666, "type": "electric_scooter", "lon": -77.04951966666667, "is_reserved": 0, "fusion_lon": 0.0, "bike_id": "3b3bfa7e5b431817d06476e506c4818e", "name": "3b3bfa7e5b431817d06476e506c4818e", "rental_uris": {"ios": "https://dc.lft.to/lastmile_qr_scan", "android": "https://dc.lft.to/lastmile_qr_scan"}}, {"is_disabled": 0, "fusion_lat": 0.0, "lat": 38.906415, "type": "electric_scooter", "lon": -77.00825366666666, "is_reserved": 0, "fusion_lon": 0.0, "bike_id": "6df6dffda3859fd16c5ee84e91819504", "name": "6df6dffda3859fd16c5ee84e91819504", "rental_uris": {"ios": "https://dc.lft.to/lastmile_qr_scan", "android": "https://dc.lft.to/lastmile_qr_scan"}}, {"is_disabled": 0, "fusion_lat": 0.0, "lat": 38.866647666666665, "type": "electric_scooter", "lon": -76.98910416666666, "is_reserved": 0, "fusion_lon": 0.0, "bike_id": "e5c4a132fcef37ec2c7a27c58895fa41", "name": "e5c4a132fcef37ec2c7a27c58895fa41", "rental_uris": {"ios": "https://dc.lft.to/lastmile_qr_scan", "android": "https://dc.lft.to/lastmile_qr_scan"}}, {"is_disabled": 0, "fusion_lat": 0.0, "lat": 38.905587833333335, "type": "electric_scooter", "lon": -77.04693983333334, "is_reserved": 0, "fusion_lon": 0.0, "bike_id": "2ad2864b827d19098b312b801b896b35", "name": "2ad2864b827d19098b312b801b896b35", "rental_uris": {"ios": "https://dc.lft.to/lastmile_qr_scan", "android": "https://dc.lft.to/lastmile_qr_scan"}}, {"is_disabled": 0, "fusion_lat": 0.0, "lat": 38.92099916666667, "type": "electric_scooter", "lon": -77.0633395, "is_reserved": 0, "fusion_lon": 0.0, "bike_id": "1d260acf7c60ae995e7e08e51fe5f209", "name": "1d260acf7c60ae995e7e08e51fe5f209", "rental_uris": {"ios": "https://dc.lft.to/lastmile_qr_scan", "android": "https://dc.lft.to/lastmile_qr_scan"}}, {"is_disabled": 0, "fusion_lat": 0.0, "lat": 38.928868, "type": "electric_scooter", "lon": -77.0324375, "is_reserved": 0, "fusion_lon": 0.0, "bike_id": "e2e5904eae197a3469d03a59695de501", "name": "e2e5904eae197a3469d03a59695de501", "rental_uris": {"ios": "https://dc.lft.to/lastmile_qr_scan", "android": "https://dc.lft.to/lastmile_qr_scan"}}, {"is_disabled": 0, "fusion_lat": 0.0, "lat": 38.90360116666667, "type": "electric_scooter", "lon": -77.03471866666666, "is_reserved": 0, "fusion_lon": 0.0, "bike_id": "a395b5a746db5b58a99bbce1907425c4", "name": "a395b5a746db5b58a99bbce1907425c4", "rental_uris": {"ios": "https://dc.lft.to/lastmile_qr_scan", "android": "https://dc.lft.to/lastmile_qr_scan"}}, {"is_disabled": 0, "fusion_lat": 0.0, "lat": 38.916711166666666, "type": "electric_scooter", "lon": -77.02287566666666, "is_reserved": 0, "fusion_lon": 0.0, "bike_id": "520dd439810feb64f46f2ed190a78c9d", "name": "520dd439810feb64f46f2ed190a78c9d", "rental_uris": {"ios": "https://dc.lft.to/lastmile_qr_scan", "android": "https://dc.lft.to/lastmile_qr_scan"}}, {"is_disabled": 0, "fusion_lat": 0.0, "lat": 38.917616333333335, "type": "electric_scooter", "lon": -77.00403183333333, "is_reserved": 0, "fusion_lon": 0.0, "bike_id": "984ba9e98227698d007a43b4d6f0e033", "name": "984ba9e98227698d007a43b4d6f0e033", "rental_uris": {"ios": "https://dc.lft.to/lastmile_qr_scan", "android": "https://dc.lft.to/lastmile_qr_scan"}}, {"is_disabled": 0, "fusion_lat": 0.0, "lat": 38.907656833333334, "type": "electric_scooter", "lon": -77.03865333333333, "is_reserved": 0, "fusion_lon": 0.0, "bike_id": "97b6ae74007926af46fe773b4c010108", "name": "97b6ae74007926af46fe773b4c010108", "rental_uris": {"ios": "https://dc.lft.to/lastmile_qr_scan", "android": "https://dc.lft.to/lastmile_qr_scan"}}, {"is_disabled": 0, "fusion_lat": 0.0, "lat": 38.91400633333333, "type": "electric_scooter", "lon": -77.039321, "is_reserved": 0, "fusion_lon": 0.0, "bike_id": "5cffcf0ccf0806b94384ba93e523650e", "name": "5cffcf0ccf0806b94384ba93e523650e", "rental_uris": {"ios": "https://dc.lft.to/lastmile_qr_scan", "android": "https://dc.lft.to/lastmile_qr_scan"}}, {"is_disabled": 0, "fusion_lat": 0.0, "lat": 38.872466333333335, "type": "electric_scooter", "lon": -76.977241, "is_reserved": 0, "fusion_lon": 0.0, "bike_id": "8a8711f025e7400799013471e66915c9", "name": "8a8711f025e7400799013471e66915c9", "rental_uris": {"ios": "https://dc.lft.to/lastmile_qr_scan", "android": "https://dc.lft.to/lastmile_qr_scan"}}, {"is_disabled": 0, "fusion_lat": 0.0, "lat": 38.895322, "type": "electric_scooter", "lon": -76.94889033333334, "is_reserved": 0, "fusion_lon": 0.0, "bike_id": "160c4e0b94986a5bec80669d4ebed3aa", "name": "160c4e0b94986a5bec80669d4ebed3aa", "rental_uris": {"ios": "https://dc.lft.to/lastmile_qr_scan", "android": "https://dc.lft.to/lastmile_qr_scan"}}, {"is_disabled": 0, "fusion_lat": 0.0, "lat": 38.855275666666664, "type": "electric_scooter", "lon": -76.9692025, "is_reserved": 0, "fusion_lon": 0.0, "bike_id": "3b7a055f05e29b78f8289e3226738e52", "name": "3b7a055f05e29b78f8289e3226738e52", "rental_uris": {"ios": "https://dc.lft.to/lastmile_qr_scan", "android": "https://dc.lft.to/lastmile_qr_scan"}}, {"is_disabled": 0, "fusion_lat": 0.0, "lat": 38.89750883333333, "type": "electric_scooter", "lon": -77.0077145, "is_reserved": 0, "fusion_lon": 0.0, "bike_id": "50cd1d258911280f9a222c7b409da9e2", "name": "50cd1d258911280f9a222c7b409da9e2", "rental_uris": {"ios": "https://dc.lft.to/lastmile_qr_scan", "android": "https://dc.lft.to/lastmile_qr_scan"}}, {"is_disabled": 0, "fusion_lat": 0.0, "lat": 38.89227966666667, "type": "electric_scooter", "lon": -77.04440983333333, "is_reserved": 0, "fusion_lon": 0.0, "bike_id": "57af39eebb2111553c1e9960478fa3a3", "name": "57af39eebb2111553c1e9960478fa3a3", "rental_uris": {"ios": "https://dc.lft.to/lastmile_qr_scan", "android": "https://dc.lft.to/lastmile_qr_scan"}}, {"is_disabled": 0, "fusion_lat": 0.0, "lat": 38.92363016666667, "type": "electric_scooter", "lon": -77.05129466666666, "is_reserved": 0, "fusion_lon": 0.0, "bike_id": "59c51c9bbba83e2acd854fc12c78f8af", "name": "59c51c9bbba83e2acd854fc12c78f8af", "rental_uris": {"ios": "https://dc.lft.to/lastmile_qr_scan", "android": "https://dc.lft.to/lastmile_qr_scan"}}, {"is_disabled": 0, "fusion_lat": 0.0, "lat": 38.90039183333333, "type": "electric_scooter", "lon": -76.98844416666667, "is_reserved": 0, "fusion_lon": 0.0, "bike_id": "6f58e717ff4a32fb9329d0b328501ae0", "name": "6f58e717ff4a32fb9329d0b328501ae0", "rental_uris": {"ios": "https://dc.lft.to/lastmile_qr_scan", "android": "https://dc.lft.to/lastmile_qr_scan"}}, {"is_disabled": 0, "fusion_lat": 0.0, "lat": 38.9614465, "type": "electric_scooter", "lon": -77.02781816666666, "is_reserved": 0, "fusion_lon": 0.0, "bike_id": "0653d90d79be8f26cb66a8be97eba9e8", "name": "0653d90d79be8f26cb66a8be97eba9e8", "rental_uris": {"ios": "https://dc.lft.to/lastmile_qr_scan", "android": "https://dc.lft.to/lastmile_qr_scan"}}, {"is_disabled": 0, "fusion_lat": 0.0, "lat": 38.90554916666667, "type": "electric_scooter", "lon": -77.0569265, "is_reserved": 0, "fusion_lon": 0.0, "bike_id": "ff1182dd7f72c5f2433ac2d7f3bc3998", "name": "ff1182dd7f72c5f2433ac2d7f3bc3998", "rental_uris": {"ios": "https://dc.lft.to/lastmile_qr_scan", "android": "https://dc.lft.to/lastmile_qr_scan"}}, {"is_disabled": 0, "fusion_lat": 0.0, "lat": 38.926523333333336, "type": "electric_scooter", "lon": -77.037081, "is_reserved": 0, "fusion_lon": 0.0, "bike_id": "6c5add2a4cd5880f1f99b87ba6fbce2f", "name": "6c5add2a4cd5880f1f99b87ba6fbce2f", "rental_uris": {"ios": "https://dc.lft.to/lastmile_qr_scan", "android": "https://dc.lft.to/lastmile_qr_scan"}}, {"is_disabled": 0, "fusion_lat": 0.0, "lat": 38.915553, "type": "electric_scooter", "lon": -77.03370266666667, "is_reserved": 0, "fusion_lon": 0.0, "bike_id": "3a18d6c97568d4c4f822bb61b813c8dd", "name": "3a18d6c97568d4c4f822bb61b813c8dd", "rental_uris": {"ios": "https://dc.lft.to/lastmile_qr_scan", "android": "https://dc.lft.to/lastmile_qr_scan"}}, {"is_disabled": 0, "fusion_lat": 0.0, "lat": 38.88438083333333, "type": "electric_scooter", "lon": -77.0303905, "is_reserved": 0, "fusion_lon": 0.0, "bike_id": "b85455986ecdb31c044581a390c4147f", "name": "b85455986ecdb31c044581a390c4147f", "rental_uris": {"ios": "https://dc.lft.to/lastmile_qr_scan", "android": "https://dc.lft.to/lastmile_qr_scan"}}, {"is_disabled": 0, "fusion_lat": 0.0, "lat": 38.897369166666664, "type": "electric_scooter", "lon": -77.00033016666667, "is_reserved": 0, "fusion_lon": 0.0, "bike_id": "10a06f88fd07aceb66ca7e29d6809963", "name": "10a06f88fd07aceb66ca7e29d6809963", "rental_uris": {"ios": "https://dc.lft.to/lastmile_qr_scan", "android": "https://dc.lft.to/lastmile_qr_scan"}}, {"is_disabled": 0, "fusion_lat": 0.0, "lat": 38.88502533333333, "type": "electric_scooter", "lon": -77.0220205, "is_reserved": 0, "fusion_lon": 0.0, "bike_id": "0475b3e554617cac16c9044436510e2d", "name": "0475b3e554617cac16c9044436510e2d", "rental_uris": {"ios": "https://dc.lft.to/lastmile_qr_scan", "android": "https://dc.lft.to/lastmile_qr_scan"}}, {"is_disabled": 0, "fusion_lat": 0.0, "lat": 38.89219833333333, "type": "electric_scooter", "lon": -77.02223833333333, "is_reserved": 0, "fusion_lon": 0.0, "bike_id": "2283606822f265fa476bda124a0d1e96", "name": "2283606822f265fa476bda124a0d1e96", "rental_uris": {"ios": "https://dc.lft.to/lastmile_qr_scan", "android": "https://dc.lft.to/lastmile_qr_scan"}},