{"data": {"bikes": [{"rental_uris": {"ios": "https://dc.lft.to/lastmile_qr_scan", "android": "https://dc.lft.to/lastmile_qr_scan"}, "fusion_lat": 0.0, "name": "e5a5f5ef706b7688e7c04ac8909cc1b0", "bike_id": "e5a5f5ef706b7688e7c04ac8909cc1b0", "is_disabled": 0, "type": "electric_scooter", "lat": 38.922154166666665, "lon": -77.03662083333333, "is_reserved": 0, "fusion_lon": 0.0}, {"rental_uris": {"ios": "https://dc.lft.to/lastmile_qr_scan", "android": "https://dc.lft.to/lastmile_qr_scan"}, "fusion_lat": 0.0, "name": "7e34d61a51565ba8a72425d2df1ca421", "bike_id": "7e34d61a51565ba8a72425d2df1ca421", "is_disabled": 0, "type": "electric_scooter", "lat": 38.9391765, "lon": -77.07648916666666, "is_reserved": 0, "fusion_lon": 0.0}, {"rental_uris": {"ios": "https://dc.lft.to/lastmile_qr_scan", "android": "https://dc.lft.to/lastmile_qr_scan"}, "fusion_lat": 0.0, "name": "a8592a86e8b3e5f4dfed8f6e6663ab68", "bike_id": "a8592a86e8b3e5f4dfed8f6e6663ab68", "is_disabled": 0, "type": "electric_scooter", "lat": 38.893560666666666, "lon": -77.00338683333334, "is_reserved": 0, "fusion_lon": 0.0}, {"rental_uris": {"ios": "https://dc.lft.to/lastmile_qr_scan", "android": "https://dc.lft.to/lastmile_qr_scan"}, "fusion_lat": 0.0, "name": "a325eb1631abbd4ec23bd3b1492a59be", "bike_id": "a325eb1631abbd4ec23bd3b1492a59be", "is_disabled": 0, "type": "electric_scooter", "lat": 38.937487, "lon": -77.0345185, "is_reserved": 0, "fusion_lon": 0.0}, {"rental_uris": {"ios": "https://dc.lft.to/lastmile_qr_scan", "android": "https://dc.lft.to/lastmile_qr_scan"}, "fusion_lat": 0.0, "name": "11b405b551d1a707c44a193e175063b5", "bike_id": "11b405b551d1a707c44a193e175063b5", "is_disabled": 0, "type": "electric_scooter", "lat": 38.909815333333334, "lon": -77.0218265, "is_reserved": 0, "fusion_lon": 0.0}, {"rental_uris": {"ios": "https://dc.lft.to/lastmile_qr_scan", "android": "https://dc.lft.to/lastmile_qr_scan"}, "fusion_lat": 0.0, "name": "78f02262c4951227492c5f55983e58db", "bike_id": "78f02262c4951227492c5f55983e58db", "is_disabled": 0, "type": "electric_scooter", "lat": 38.88745516666667, "lon": -77.02854233333333, "is_reserved": 0, "fusion_lon": 0.0}, {"rental_uris": {"ios": "https://dc.lft.to/lastmile_qr_scan", "android": "https://dc.lft.to/lastmile_qr_scan"}, "fusion_lat": 0.0, "name": "3bd8af1d195b4b09bd59a31c95f1bec6", "bike_id": "3bd8af1d195b4b09bd59a31c95f1bec6", "is_disabled": 0, "type": "electric_scooter", "lat": 38.89225016666666, "lon": -77.04332633333334, "is_reserved": 0, "fusion_lon": 0.0}, {"rental_uris": {"ios": "https://dc.lft.to/lastmile_qr_scan", "android": "https://dc.lft.to/lastmile_qr_scan"}, "fusion_lat": 0.0, "name": "872b39a6f31feb9ba894dfa307e222a9", "bike_id": "872b39a6f31feb9ba894dfa307e222a9", "is_disabled": 0, "type": "electric_scooter", "lat": 38.91685016666667, "lon": -77.02395483333333, "is_reserved": 0, "fusion_lon": 0.0}, {"rental_uris": {"ios": "https://dc.lft.to/lastmile_qr_scan", "android": "https://dc.lft.to/lastmile_qr_scan"}, "fusion_lat": 0.0, "name": "bb2012c1c39e4aa60a0623a1650d8bba", "bike_id": "bb2012c1c39e4aa60a0623a1650d8bba", "is_disabled": 0, "type": "electric_scooter", "lat": 38.92058516666667, "lon": -77.0339135, "is_reserved": 0, "fusion_lon": 0.0}, {"rental_uris": {"ios": "https://dc.lft.to/lastmile_qr_scan", "android": "https://dc.lft.to/lastmile_qr_scan"}, "fusion_lat": 0.0, "name": "e938444fa49ef8196e32411675f217f9", "bike_id": "e938444fa49ef8196e32411675f217f9", "is_disabled": 0, "type": "electric_scooter", "lat": 38.91042316666667, "lon": -77.043667, "is_reserved": 0, "fusion_lon": 0.0}, {"rental_uris": {"ios": "https://dc.lft.to/lastmile_qr_scan", "android": "https://dc.lft.to/lastmile_qr_scan"}, "fusion_lat": 0.0, "name": "46666e18f432f3e936f18d80bbc9f6b5", "bike_id": "46666e18f432f3e936f18d80bbc9f6b5", "is_disabled": 0, "type": "electric_scooter", "lat": 38.90685883333333, "lon": -77.0269385, "is_reserved": 0, "fusion_lon": 0.0}, {"rental_uris": {"ios": "https://dc.lft.to/lastmile_qr_scan", "android": "https://dc.lft.to/lastmile_qr_scan"}, "fusion_lat": 0.0, "name": "e5e03e2351399dfe9e9beeb0269cc4ac", "bike_id": "e5e03e2351399dfe9e9beeb0269cc4ac", "is_disabled": 0, "type": "electric_scooter", "lat": 38.91988466666667, "lon": -77.0120455, "is_reserved": 0, "fusion_lon": 0.0}, {"rental_uris": {"ios": "https://dc.lft.to/lastmile_qr_scan", "android": "https://dc.lft.to/lastmile_qr_scan"}, "fusion_lat": 0.0, "name": "589d63a634d450c3dcae15b42f455d38", "bike_id": "589d63a634d450c3dcae15b42f455d38", "is_disabled": 0, "type": "electric_scooter", "lat": 38.88741783333333, "lon": -77.015331, "is_reserved": 0, "fusion_lon": 0.0}, {"rental_uris": {"ios": "https://dc.lft.to/lastmile_qr_scan", "android": "https://dc.lft.to/lastmile_qr_scan"}, "fusion_lat": 0.0, "name": "bf0afb94b786335418e7ae94db2e6dad", "bike_id": "bf0afb94b786335418e7ae94db2e6dad", "is_disabled": 0, "type": "electric_scooter", "lat": 38.882661666666664, "lon": -77.0037085, "is_reserved": 0, "fusion_lon": 0.0}, {"rental_uris": {"ios": "https://dc.lft.to/lastmile_qr_scan", "android": "https://dc.lft.to/lastmile_qr_scan"}, "fusion_lat": 0.0, "name": "c26ba4633437e576d4dc137701316dd6", "bike_id": "c26ba4633437e576d4dc137701316dd6", "is_disabled": 0, "type": "electric_scooter", "lat": 38.94652716666667, "lon": -77.03106816666667, "is_reserved": 0, "fusion_lon": 0.0}, {"rental_uris": {"ios": "https://dc.lft.to/lastmile_qr_scan", "android": "https://dc.lft.to/lastmile_qr_scan"}, "fusion_lat": 0.0, "name": "324ea07e7bcca64ea8c10a04e814a9c3", "bike_id": "324ea07e7bcca64ea8c10a04e814a9c3", "is_disabled": 0, "type": "electric_scooter", "lat": 38.928109666666664, "lon": -77.02619316666667, "is_reserved": 0, "fusion_lon": 0.0}, {"rental_uris": {"ios": "https://dc.lft.to/lastmile_qr_scan", "android": "https://dc.lft.to/lastmile_qr_scan"}, "fusion_lat": 0.0, "name": "480c32a33781b7a9b4009fc37ceb38a2", "bike_id": "480c32a33781b7a9b4009fc37ceb38a2", "is_disabled": 0, "type": "electric_scooter", "lat": 38.90378833333333, "lon": -77.0321765, "is_reserved": 0, "fusion_lon": 0.0}, {"rental_uris": {"ios": "https://dc.lft.to/lastmile_qr_scan", "android": "https://dc.lft.to/lastmile_qr_scan"}, "fusion_lat": 0.0, "name": "a3b4655494cc4817c4947e5f0c7be77a", "bike_id": "a3b4655494cc4817c4947e5f0c7be77a", "is_disabled": 0, "type": "electric_scooter", "lat": 38.899466333333336, "lon": -77.02803266666666, "is_reserved": 0, "fusion_lon": 0.0}, {"rental_uris": {"ios": "https://dc.lft.to/lastmile_qr_scan", "android": "https://dc.lft.to/lastmile_qr_scan"}, "fusion_lat": 0.0, "name": "2908d19636da295f854c73d981cb69b8", "bike_id": "2908d19636da295f854c73d981cb69b8", "is_disabled": 0, "type": "electric_scooter", "lat": 38.89977483333333, "lon": -77.05269016666666, "is_reserved": 0, "fusion_lon": 0.0}, {"rental_uris": {"ios": "https://dc.lft.to/lastmile_qr_scan", "android": "https://dc.lft.to/lastmile_qr_scan"}, "fusion_lat": 0.0, "name": "da82579f7909ba388d2190d1c578c5ee", "bike_id": "da82579f7909ba388d2190d1c578c5ee", "is_disabled": 0, "type": "electric_scooter", "lat": 38.90543233333333, "lon": -77.041855, "is_reserved": 0, "fusion_lon": 0.0}, {"rental_uris": {"ios": "https://dc.lft.to/lastmile_qr_scan", "android": "https://dc.lft.to/lastmile_qr_scan"}, "fusion_lat": 0.0, "name": "7ae006ba4cd4d03ddb2415cc5785c8fa", "bike_id": "7ae006ba4cd4d03ddb2415cc5785c8fa", "is_disabled": 0, "type": "electric_scooter", "lat": 38.89229066666667, "lon": -77.03219, "is_reserved": 0, "fusion_lon": 0.0}, {"rental_uris": {"ios": "https://dc.lft.to/lastmile_qr_scan", "android": "https://dc.lft.to/lastmile_qr_scan"}, "fusion_lat": 0.0, "name": "88cc8b0c1a51bb752f49129c2f7ac7fe", "bike_id": "88cc8b0c1a51bb752f49129c2f7ac7fe", "is_disabled": 0, "type": "electric_scooter", "lat": 38.90981433333333, "lon": -76.99511216666667, "is_reserved": 0, "fusion_lon": 0.0}, {"rental_uris": {"ios": "https://dc.lft.to/lastmile_qr_scan", "android": "https://dc.lft.to/lastmile_qr_scan"}, "fusion_lat": 0.0, "name": "94bae4781d2f940e70dc2c2766c77776", "bike_id": "94bae4781d2f940e70dc2c2766c77776", "is_disabled": 0, "type": "electric_scooter", "lat": 38.9096115, "lon": -77.04652483333334, "is_reserved": 0, "fusion_lon": 0.0}, {"rental_uris": {"ios": "https://dc.lft.to/lastmile_qr_scan", "android": "https://dc.lft.to/lastmile_qr_scan"}, "fusion_lat": 0.0, "name": "8ec0e323926557afd4e9c638d4e5d372", "bike_id": "8ec0e323926557afd4e9c638d4e5d372", "is_disabled": 0, "type": "electric_scooter", "lat": 38.901398666666665, "lon": -77.04895083333334, "is_reserved": 0, "fusion_lon": 0.0}, {"rental_uris": {"ios": "https://dc.lft.to/lastmile_qr_scan", "android": "https://dc.lft.to/lastmile_qr_scan"}, "fusion_lat": 0.0, "name": "1b1bc96581c9cf300a3159ca5556a9cb", "bike_id": "1b1bc96581c9cf300a3159ca5556a9cb", "is_disabled": 0, "type": "electric_scooter", "lat": 38.91711883333333, "lon": -77.03672266666666, "is_reserved": 0, "fusion_lon": 0.0}, {"rental_uris": {"ios": "https://dc.lft.to/lastmile_qr_scan", "android": "https://dc.lft.to/lastmile_qr_scan"}, "fusion_lat": 0.0, "name": "80eb7b81e22bb68841bda0095bc7b7b5", "bike_id": "80eb7b81e22bb68841bda0095bc7b7b5", "is_disabled": 0, "type": "electric_scooter", "lat": 38.939724, "lon": -77.03202633333333, "is_reserved": 0, "fusion_lon": 0.0}, {"rental_uris": {"ios": "https://dc.lft.to/lastmile_qr_scan", "android": "https://dc.lft.to/lastmile_qr_scan"}, "fusion_lat": 0.0, "name": "7a236b00c2bb395fa5c1a6be5a841121", "bike_id": "7a236b00c2bb395fa5c1a6be5a841121", "is_disabled": 0, "type": "electric_scooter", "lat": 38.9072905, "lon": -77.02892566666667, "is_reserved": 0, "fusion_lon": 0.0}, {"rental_uris": {"ios": "https://dc.lft.to/lastmile_qr_scan", "android": "https://dc.lft.to/lastmile_qr_scan"}, "fusion_lat": 0.0, "name": "ed7515d867fb0eb9ae7c618a12d3d31d", "bike_id": "ed7515d867fb0eb9ae7c618a12d3d31d", "is_disabled": 0, "type": "electric_scooter", "lat": 38.93972333333333, "lon": -77.02156983333333, "is_reserved": 0, "fusion_lon": 0.0}, {"rental_uris": {"ios": "https://dc.lft.to/lastmile_qr_scan", "android": "https://dc.lft.to/lastmile_qr_scan"}, "fusion_lat": 0.0, "name": "7035cccb074a33b2f3c71b3f6962e787", "bike_id": "7035cccb074a33b2f3c71b3f6962e787", "is_disabled": 0, "type": "electric_scooter", "lat": 38.8988225, "lon": -77.02181633333333, "is_reserved": 0, "fusion_lon": 0.0}, {"rental_uris": {"ios": "https://dc.lft.to/lastmile_qr_scan", "android": "https://dc.lft.to/lastmile_qr_scan"}, "fusion_lat": 0.0, "name": "6703543208fae46f791e57fa0245fae2", "bike_id": "6703543208fae46f791e57fa0245fae2", "is_disabled": 0, "type": "electric_scooter", "lat": 38.8973445, "lon": -77.04680266666666, "is_reserved": 0, "fusion_lon": 0.0}, {"rental_uris": {"ios": "https://dc.lft.to/lastmile_qr_scan", "android": "https://dc.lft.to/lastmile_qr_scan"}, "fusion_lat": 0.0, "name": "669d860124beeb72d82242c4cf40c752", "bike_id": "669d860124beeb72d82242c4cf40c752", "is_disabled": 0, "type": "electric_scooter", "lat": 38.925776166666665, "lon": -77.0285215, "is_reserved": 0, "fusion_lon": 0.0}, {"rental_uris": {"ios": "https://dc.lft.to/lastmile_qr_scan", "android": "https://dc.lft.to/lastmile_qr_scan"}, "fusion_lat": 0.0, "name": "5b55b59c84bdf54d7974b4c4d4fd3501", "bike_id": "5b55b59c84bdf54d7974b4c4d4fd3501", "is_disabled": 0, "type": "electric_scooter", "lat": 38.9369015, "lon": -77.03283233333333, "is_reserved": 0, "fusion_lon": 0.0}, {"rental_uris": {"ios": "https://dc.lft.to/lastmile_qr_scan", "android": "https://dc.lft.to/lastmile_qr_scan"}, "fusion_lat": 0.0, "name": "d2eba63d639f70288bba06a3aca3a6ee", "bike_id": "d2eba63d639f70288bba06a3aca3a6ee", "is_disabled": 0, "type": "electric_scooter", "lat": 38.89222, "lon": -77.032216, "is_reserved": 0, "fusion_lon": 0.0}, {"rental_uris": {"ios": "https://dc.lft.to/lastmile_qr_scan", "android": "https://dc.lft.to/lastmile_qr_scan"}, "fusion_lat": 0.0, "name": "6502dc7c49b2c620b60e684a15bbbc04", "bike_id": "6502dc7c49b2c620b60e684a15bbbc04", "is_disabled": 0, "type": "electric_scooter", "lat": 38.88731716666667, "lon": -77.02826633333333, "is_reserved": 0, "fusion_lon": 0.0}, {"rental_uris": {"ios": "https://dc.lft.to/lastmile_qr_scan", "android": "https://dc.lft.to/lastmile_qr_scan"}, "fusion_lat": 0.0, "name": "1d2cf36ec813e429d59abe533f7db237", "bike_id": "1d2cf36ec813e429d59abe533f7db237", "is_disabled": 0, "type": "electric_scooter", "lat": 38.87086766666667, "lon": -77.01374716666666, "is_reserved": 0, "fusion_lon": 0.0}, {"rental_uris": {"ios": "https://dc.lft.to/lastmile_qr_scan", "android": "https://dc.lft.to/lastmile_qr_scan"}, "fusion_lat": 0.0, "name": "44398c64e9e71e2a3fa6285e7441aef2", "bike_id": "44398c64e9e71e2a3fa6285e7441aef2", "is_disabled": 0, "type": "electric_scooter", "lat": 38.89827416666667, "lon": -76.930255, "is_reserved": 0, "fusion_lon": 0.0}, {"rental_uris": {"ios": "https://dc.lft.to/lastmile_qr_scan", "android": "https://dc.lft.to/lastmile_qr_scan"}, "fusion_lat": 0.0, "name": "39f1af13ccdf9ba6a3a06b8c10a8625f", "bike_id": "39f1af13ccdf9ba6a3a06b8c10a8625f", "is_disabled": 0, "type": "electric_scooter", "lat": 38.8790765, "lon": -76.99135633333333, "is_reserved": 0, "fusion_lon": 0.0}, {"rental_uris": {"ios": "https://dc.lft.to/lastmile_qr_scan", "android": "https://dc.lft.to/lastmile_qr_scan"}, "fusion_lat": 0.0, "name": "806910054aeeeb4c43221729791279a8", "bike_id": "806910054aeeeb4c43221729791279a8", "is_disabled": 0, "type": "electric_scooter", "lat": 38.91700566666667, "lon": -77.0376255, "is_reserved": 0, "fusion_lon": 0.0}, {"rental_uris": {"ios": "https://dc.lft.to/lastmile_qr_scan", "android": "https://dc.lft.to/lastmile_qr_scan"}, "fusion_lat": 0.0, "name": "dcf67a0d7de7bbdc1b9cdd3fcc261ccb", "bike_id": "dcf67a0d7de7bbdc1b9cdd3fcc261ccb", "is_disabled": 0, "type": "electric_scooter", "lat": 38.907244, "lon": -77.02895583333333, "is_reserved": 0, "fusion_lon": 0.0}, {"rental_uris": {"ios": "https://dc.lft.to/lastmile_qr_scan", "android": "https://dc.lft.to/lastmile_qr_scan"}, "fusion_lat": 0.0, "name": "c5d96ffd127d8de98acf8c897a46eaa3", "bike_id": "c5d96ffd127d8de98acf8c897a46eaa3", "is_disabled": 0, "type": "electric_bike", "lat": 38.90642033333334, "lon": -77.039287, "is_reserved": 0, "fusion_lon": 0.0}, {"rental_uris": {"ios": "https://dc.lft.to/lastmile_qr_scan", "android": "https://dc.lft.to/lastmile_qr_scan"}, "fusion_lat": 0.0, "name": "7496b31fd91267eae4d2b1f6e6c6937f", "bike_id": "7496b31fd91267eae4d2b1f6e6c6937f", "is_disabled": 0, "type": "electric_scooter", "lat": 38.9108315, "lon": -77.0209545, "is_reserved": 0, "fusion_lon": 0.0}, {"rental_uris": {"ios": "https://dc.lft.to/lastmile_qr_scan", "android": "https://dc.lft.to/lastmile_qr_scan"}, "fusion_lat": 0.0, "name": "46f84f28bc80e3c494a212e601a75225", "bike_id": "46f84f28bc80e3c494a212e601a75225", "is_disabled": 0, "type": "electric_scooter", "lat": 38.92247583333334, "lon": -77.03659233333333, "is_reserved": 0, "fusion_lon": 0.0}, {"rental_uris": {"ios": "https://dc.lft.to/lastmile_qr_scan", "android": "https://dc.lft.to/lastmile_qr_scan"}, "fusion_lat": 0.0, "name": "e5150c3326cad1e4697cfb7a4892138d", "bike_id": "e5150c3326cad1e4697cfb7a4892138d", "is_disabled": 0, "type": "electric_scooter", "lat": 38.9096065, "lon": -77.033835, "is_reserved": 0, "fusion_lon": 0.0}, {"rental_uris": {"ios": "https://dc.lft.to/lastmile_qr_scan", "android": "https://dc.lft.to/lastmile_qr_scan"}, "fusion_lat": 0.0, "name": "2cadb147e25746fd0b49f2d8e88cecfb", "bike_id": "2cadb147e25746fd0b49f2d8e88cecfb", "is_disabled": 0, "type": "electric_scooter", "lat": 38.92414616666667, "lon": -77.02009916666667, "is_reserved": 0, "fusion_lon": 0.0}, {"rental_uris": {"ios": "https://dc.lft.to/lastmile_qr_scan", "android": "https://dc.lft.to/lastmile_qr_scan"}, "fusion_lat": 0.0, "name": "e14bde12964557b65a16b6af954af0be", "bike_id": "e14bde12964557b65a16b6af954af0be", "is_disabled": 0, "type": "electric_scooter", "lat": 38.954293, "lon": -77.02758716666666, "is_reserved": 0, "fusion_lon": 0.0}, {"rental_uris": {"ios": "https://dc.lft.to/lastmile_qr_scan", "android": "https://dc.lft.to/lastmile_qr_scan"}, "fusion_lat": 0.0, "name": "16384a38e4963f8096118015a153670d", "bike_id": "16384a38e4963f8096118015a153670d", "is_disabled": 0, "type": "electric_scooter", "lat": 38.854520666666666, "lon": -76.98573216666666, "is_reserved": 0, "fusion_lon": 0.0}, {"rental_uris": {"ios": "https://dc.lft.to/lastmile_qr_scan", "android": "https://dc.lft.to/lastmile_qr_scan"}, "fusion_lat": 0.0, "name": "8ec5775f7320ea1395ab9e1004dddcb9", "bike_id": "8ec5775f7320ea1395ab9e1004dddcb9", "is_disabled": 0, "type": "electric_scooter", "lat": 38.88658816666667, "lon": -77.01362533333334, "is_reserved": 0, "fusion_lon": 0.0}, {"rental_uris": {"ios": "https://dc.lft.to/lastmile_qr_scan", "android": "https://dc.lft.to/lastmile_qr_scan"}, "fusion_lat": 0.0, "name": "906b0d2bdda830106da4c10f11d7f15c", "bike_id": "906b0d2bdda830106da4c10f11d7f15c", "is_disabled": 0, "type": "electric_scooter", "lat": 38.905776333333336, "lon": -77.04003183333333, "is_reserved": 0, "fusion_lon": 0.0}, {"rental_uris": {"ios": "https://dc.lft.to/lastmile_qr_scan", "android": "https://dc.lft.to/lastmile_qr_scan"}, "fusion_lat": 0.0, "name": "a14a1312a812e3bd2387f6de35fc8da8", "bike_id": "a14a1312a812e3bd2387f6de35fc8da8", "is_disabled": 0, "type": "electric_scooter", "lat": 38.92388833333333, "lon": -77.05750333333333, "is_reserved": 0, "fusion_lon": 0.0}, {"rental_uris": {"ios": "https://dc.lft.to/lastmile_qr_scan", "android": "https://dc.lft.to/lastmile_qr_scan"}, "fusion_lat": 0.0, "name": "71146ca30bd93b9a70d3417e81fa9833", "bike_id": "71146ca30bd93b9a70d3417e81fa9833", "is_disabled": 0, "type": "electric_scooter", "lat": 38.89365933333333, "lon": -77.04788016666667, "is_reserved": 0, "fusion_lon": 0.0}, {"rental_uris": {"ios": "https://dc.lft.to/lastmile_qr_scan", "android": "https://dc.lft.to/lastmile_qr_scan"}, "fusion_lat": 0.0, "name": "006dce8a2f2e68470753367a7b052852", "bike_id": "006dce8a2f2e68470753367a7b052852", "is_disabled": 0, "type": "electric_scooter", "lat": 38.8763065, "lon": -76.96527216666667, "is_reserved": 0, "fusion_lon": 0.0}, {"rental_uris": {"ios": "https://dc.lft.to/lastmile_qr_scan", "android": "https://dc.lft.to/lastmile_qr_scan"}, "fusion_lat": 0.0, "name": "871d760a637aa143bbb4a9ef3d4710ac", "bike_id": "871d760a637aa143bbb4a9ef3d4710ac", "is_disabled": 0, "type": "electric_bike", "lat": 38.969415166666664, "lon": -77.033483, "is_reserved": 0, "fusion_lon": 0.0}, {"rental_uris": {"ios": "https://dc.lft.to/lastmile_qr_scan", "android": "https://dc.lft.to/lastmile_qr_scan"}, "fusion_lat": 0.0, "name": "bcc1923e7520ed03a2b9a99408f534cb", "bike_id": "bcc1923e7520ed03a2b9a99408f534cb", "is_disabled": 0, "type": "electric_bike", "lat": 38.96224383333333, "lon": -77.02627116666666, "is_reserved": 0, "fusion_lon": 0.0}, {"rental_uris": {"ios": "https://dc.lft.to/lastmile_qr_scan", "android": "https://dc.lft.to/lastmile_qr_scan"}, "fusion_lat": 0.0, "name": "9465299a5c63a8accc2e3669ecd01baa", "bike_id": "9465299a5c63a8accc2e3669ecd01baa", "is_disabled": 0, "type": "electric_scooter", "lat": 38.91865683333333, "lon": -77.0404035, "is_reserved": 0, "fusion_lon": 0.0}, {"rental_uris": {"ios": "https://dc.lft.to/lastmile_qr_scan", "android": "https://dc.lft.to/lastmile_qr_scan"}, "fusion_lat": 0.0, "name": "b4d843f43ae19fcf3e47319216d779d9", "bike_id": "b4d843f43ae19fcf3e47319216d779d9", "is_disabled": 0, "type": "electric_scooter", "lat": 38.94295966666667, "lon": -77.021719, "is_reserved": 0, "fusion_lon": 0.0}, {"rental_uris": {"ios": "https://dc.lft.to/lastmile_qr_scan", "android": "https://dc.lft.to/lastmile_qr_scan"}, "fusion_lat": 0.0, "name": "803492bb40574875af80d89258a49a60", "bike_id": "803492bb40574875af80d89258a49a60", "is_disabled": 0, "type": "electric_scooter", "lat": 38.89341016666667, "lon": -76.9313625, "is_reserved": 0, "fusion_lon": 0.0}, {"rental_uris": {"ios": "https://dc.lft.to/lastmile_qr_scan", "android": "https://dc.lft.to/lastmile_qr_scan"}, "fusion_lat": 0.0, "name": "e50eb0661967ccbfbe8e3170c24cde2a", "bike_id": "e50eb0661967ccbfbe8e3170c24cde2a", "is_disabled": 0, "type": "electric_scooter", "lat": 38.908864, "lon": -77.0057675, "is_reserved": 0, "fusion_lon": 0.0}, {"rental_uris": {"ios": "https://dc.lft.to/lastmile_qr_scan", "android": "https://dc.lft.to/lastmile_qr_scan"}, "fusion_lat": 0.0, "name": "0d2f48aef406770908b40b71da6807b5", "bike_id": "0d2f48aef406770908b40b71da6807b5", "is_disabled": 0, "type": "electric_scooter", "lat": 38.9064785, "lon": -77.00589033333334, "is_reserved": 0, "fusion_lon": 0.0}, {"rental_uris": {"ios": "https://dc.lft.to/lastmile_qr_scan", "android": "https://dc.lft.to/lastmile_qr_scan"}, "fusion_lat": 0.0, "name": "f475d39cab9e0fb92f5eed3d1311e26a", "bike_id": "f475d39cab9e0fb92f5eed3d1311e26a", "is_disabled": 0, "type": "electric_scooter", "lat": 38.90221833333333, "lon": -77.023134, "is_reserved": 0, "fusion_lon": 0.0}, {"rental_uris": {"ios": "https://dc.lft.to/lastmile_qr_scan", "android": "https://dc.lft.to/lastmile_qr_scan"}, "fusion_lat": 0.0, "name": "59a4cde23727d2f122e05e58b00b463f", "bike_id": "59a4cde23727d2f122e05e58b00b463f", "is_disabled": 0, "type": "electric_scooter", "lat": 38.927517333333334, "lon": -77.03417766666666, "is_reserved": 0, "fusion_lon": 0.0}, {"rental_uris": {"ios": "https://dc.lft.to/lastmile_qr_scan", "android": "https://dc.lft.to/lastmile_qr_scan"}, "fusion_lat": 0.0, "name": "3f4c87522470b4f18df2873cd42b712d", "bike_id": "3f4c87522470b4f18df2873cd42b712d", "is_disabled": 0, "type": "electric_scooter", "lat": 38.928424666666665, "lon": -76.99364233333333, "is_reserved": 0, "fusion_lon": 0.0}, {"rental_uris": {"ios": "https://dc.lft.to/lastmile_qr_scan", "android": "https://dc.lft.to/lastmile_qr_scan"}, "fusion_lat": 0.0, "name": "50b9bab2639dbd111de9836988c61a60", "bike_id": "50b9bab2639dbd111de9836988c61a60", "is_disabled": 0, "type": "electric_scooter", "lat": 38.892292166666664, "lon": -77.03220316666666, "is_reserved": 0, "fusion_lon": 0.0}, {"rental_uris": {"ios": "https://dc.lft.to/lastmile_qr_scan", "android": "https://dc.lft.to/lastmile_qr_scan"}, "fusion_lat": 0.0, "name": "6dfee8659294c9ca5f40c4aef1186c05", "bike_id": "6dfee8659294c9ca5f40c4aef1186c05", "is_disabled": 0, "type": "electric_scooter", "lat": 38.9013355, "lon": -77.04986966666667, "is_reserved": 0, "fusion_lon": 0.0}, {"rental_uris": {"ios": "https://dc.lft.to/lastmile_qr_scan", "android": "https://dc.lft.to/lastmile_qr_scan"}, "fusion_lat": 0.0, "name": "946ed37eae844dd92b371882c0410050", "bike_id": "946ed37eae844dd92b371882c0410050", "is_disabled": 0, "type": "electric_scooter", "lat": 38.89226333333333, "lon": -77.03219166666666, "is_reserved": 0, "fusion_lon": 0.0}, {"rental_uris": {"ios": "https://dc.lft.to/lastmile_qr_scan", "android": "https://dc.lft.to/lastmile_qr_scan"}, "fusion_lat": 0.0, "name": "786627f4df967293f6fa93fe9398cb73", "bike_id": "786627f4df967293f6fa93fe9398cb73", "is_disabled": 0, "type": "electric_scooter", "lat": 38.918781333333335, "lon": -77.03197583333333, "is_reserved": 0, "fusion_lon": 0.0}, {"rental_uris": {"ios": "https://dc.lft.to/lastmile_qr_scan", "android": "https://dc.lft.to/lastmile_qr_scan"}, "fusion_lat": 0.0, "name": "0ae55e469669776988fad97d7e87d7d7", "bike_id": "0ae55e469669776988fad97d7e87d7d7", "is_disabled": 0, "type": "electric_scooter", "lat": 38.93882683333333, "lon": -77.03283266666666, "is_reserved": 0, "fusion_lon": 0.0}, {"rental_uris": {"ios": "https://dc.lft.to/lastmile_qr_scan", "android": "https://dc.lft.to/lastmile_qr_scan"}, "fusion_lat": 0.0, "name": "dc09078a9ef880174468b24ae896b016", "bike_id": "dc09078a9ef880174468b24ae896b016", "is_disabled": 0, "type": "electric_scooter", "lat": 38.88744033333333, "lon": -77.0153275, "is_reserved": 0, "fusion_lon": 0.0}, {"rental_uris": {"ios": "https://dc.lft.to/lastmile_qr_scan", "android": "https://dc.lft.to/lastmile_qr_scan"}, "fusion_lat": 0.0, "name": "7b2fdd2a6a8981c1dc46434f7677eda2", "bike_id": "7b2fdd2a6a8981c1dc46434f7677eda2", "is_disabled": 0, "type": "electric_scooter", "lat": 38.881470666666665, "lon": -77.01306366666667, "is_reserved": 0, "fusion_lon": 0.0}, {"rental_uris": {"ios": "https://dc.lft.to/lastmile_qr_scan", "android": "https://dc.lft.to/lastmile_qr_scan"}, "fusion_lat": 0.0, "name": "a7e14f8da69f9c5ccd4d841e9746fb33", "bike_id": "a7e14f8da69f9c5ccd4d841e9746fb33", "is_disabled": 0, "type": "electric_scooter", "lat": 38.89223583333333, "lon": -77.04367616666667, "is_reserved": 0, "fusion_lon": 0.0}, {"rental_uris": {"ios": "https://dc.lft.to/lastmile_qr_scan", "android": "https://dc.lft.to/lastmile_qr_scan"}, "fusion_lat": 0.0, "name": "8ddde3975e1ca76ae155c43633e4855a", "bike_id": "8ddde3975e1ca76ae155c43633e4855a", "is_disabled": 0, "type": "electric_scooter", "lat": 38.899081, "lon": -77.03286233333333, "is_reserved": 0, "fusion_lon": 0.0}, {"rental_uris": {"ios": "https://dc.lft.to/lastmile_qr_scan", "android": "https://dc.lft.to/lastmile_qr_scan"}, "fusion_lat": 0.0, "name": "f7bbbccf37701feba649c015acd124d2", "bike_id": "f7bbbccf37701feba649c015acd124d2", "is_disabled": 0, "type": "electric_scooter", "lat": 38.9156095, "lon": -77.03866183333334, "is_reserved": 0, "fusion_lon": 0.0}, {"rental_uris": {"ios": "https://dc.lft.to/lastmile_qr_scan", "android": "https://dc.lft.to/lastmile_qr_scan"}, "fusion_lat": 0.0, "name": "da49860131bf76c14e9b52072a3ae81a", "bike_id": "da49860131bf76c14e9b52072a3ae81a", "is_disabled": 0, "type": "electric_scooter", "lat": 38.898455166666665, "lon": -76.946309, "is_reserved": 0, "fusion_lon": 0.0}, {"rental_uris": {"ios": "https://dc.lft.to/lastmile_qr_scan", "android": "https://dc.lft.to/lastmile_qr_scan"}, "fusion_lat": 0.0, "name": "f064ef8770e2d215de26a0a41ebf0736", "bike_id": "f064ef8770e2d215de26a0a41ebf0736", "is_disabled": 0, "type": "electric_scooter", "lat": 38.9000865, "lon": -77.03252716666667, "is_reserved": 0, "fusion_lon": 0.0}, {"rental_uris": {"ios": "https://dc.lft.to/lastmile_qr_scan", "android": "https://dc.lft.to/lastmile_qr_scan"}, "fusion_lat": 0.0, "name": "1702a1171f5a8e0383cf1edf3d81739f", "bike_id": "1702a1171f5a8e0383cf1edf3d81739f", "is_disabled": 0, "type": "electric_scooter", "lat": 38.916932, "lon": -77.02688266666667, "is_reserved": 0, "fusion_lon": 0.0}, {"rental_uris": {"ios": "https://dc.lft.to/lastmile_qr_scan", "android": "https://dc.lft.to/lastmile_qr_scan"}, "fusion_lat": 0.0, "name": "dcd812c87b01b84d47fcd1c8b1efea04", "bike_id": "dcd812c87b01b84d47fcd1c8b1efea04", "is_disabled": 0, "type": "electric_scooter", "lat": 38.9192285, "lon": -77.03180916666666, "is_reserved": 0, "fusion_lon": 0.0}, {"rental_uris": {"ios": "https://dc.lft.to/lastmile_qr_scan", "android": "https://dc.lft.to/lastmile_qr_scan"}, "fusion_lat": 0.0, "name": "8978f0d6fec4e585459d520521d3d494", "bike_id": "8978f0d6fec4e585459d520521d3d494", "is_disabled": 0, "type": "electric_scooter", "lat": 38.91774366666667, "lon": -77.0232875, "is_reserved": 0, "fusion_lon": 0.0}, {"rental_uris": {"ios": "https://dc.lft.to/lastmile_qr_scan", "android": "https://dc.lft.to/lastmile_qr_scan"}, "fusion_lat": 0.0, "name": "2222d1e82391dad4becb7b4e2e6cbaf2", "bike_id": "2222d1e82391dad4becb7b4e2e6cbaf2", "is_disabled": 0, "type": "electric_bike", "lat": 38.8935415, "lon": -77.18741133333333, "is_reserved": 0, "fusion_lon": 0.0}, {"rental_uris": {"ios": "https://dc.lft.to/lastmile_qr_scan", "android": "https://dc.lft.to/lastmile_qr_scan"}, "fusion_lat": 0.0, "name": "a43d40fcf9c6d2a9c14db0a02c683e7e", "bike_id": "a43d40fcf9c6d2a9c14db0a02c683e7e", "is_disabled": 0, "type": "electric_scooter", "lat": 38.90782133333333, "lon": -77.04240616666667, "is_reserved": 0, "fusion_lon": 0.0}, {"rental_uris": {"ios": "https://dc.lft.to/lastmile_qr_scan", "android": "https://dc.lft.to/lastmile_qr_scan"}, "fusion_lat": 0.0, "name": "c39f2090bb9540566ae7d3e61d47480a", "bike_id": "c39f2090bb9540566ae7d3e61d47480a", "is_disabled": 0, "type": "electric_scooter", "lat": 38.918177166666666, "lon": -77.027131, "is_reserved": 0, "fusion_lon": 0.0}, {"rental_uris": {"ios": "https://dc.lft.to/lastmile_qr_scan", "android": "https://dc.lft.to/lastmile_qr_scan"}, "fusion_lat": 0.0, "name": "80ea4ad5758196f46d05d0c01b459f42", "bike_id": "80ea4ad5758196f46d05d0c01b459f42", "is_disabled": 0, "type": "electric_bike", "lat": 39.015768333333334, "lon": -77.04413466666666, "is_reserved": 0, "fusion_lon": 0.0}, {"rental_uris": {"ios": "https://dc.lft.to/lastmile_qr_scan", "android": "https://dc.lft.to/lastmile_qr_scan"}, "fusion_lat": 0.0, "name": "f04c2327b4480b74da8e2eef2fdce7ea", "bike_id": "f04c2327b4480b74da8e2eef2fdce7ea", "is_disabled": 0, "type": "electric_scooter", "lat": 38.91624433333333, "lon": -77.03164066666666, "is_reserved": 0, "fusion_lon": 0.0}, {"rental_uris": {"ios": "https://dc.lft.to/lastmile_qr_scan", "android": "https://dc.lft.to/lastmile_qr_scan"}, "fusion_lat": 0.0, "name": "c4755d0ff31e927a057216337784dbe6", "bike_id": "c4755d0ff31e927a057216337784dbe6", "is_disabled": 0, "type": "electric_scooter", "lat": 38.90960183333333, "lon": -77.0327275, "is_reserved": 0, "fusion_lon": 0.0}, {"rental_uris": {"ios": "https://dc.lft.to/lastmile_qr_scan", "android": "https://dc.lft.to/lastmile_qr_scan"}, "fusion_lat": 0.0, "name": "1493dc9a65a43a8b0acee6c5c2f1da50", "bike_id": "1493dc9a65a43a8b0acee6c5c2f1da50", "is_disabled": 0, "type": "electric_scooter", "lat": 38.92205, "lon": -77.0400345, "is_reserved": 0, "fusion_lon": 0.0}, {"rental_uris": {"ios": "https://dc.lft.to/lastmile_qr_scan", "android": "https://dc.lft.to/lastmile_qr_scan"}, "fusion_lat": 0.0, "name": "94bc2cc03c420a0a1c9954f246c0628a", "bike_id": "94bc2cc03c420a0a1c9954f246c0628a", "is_disabled": 0, "type": "electric_scooter", "lat": 38.917258333333336, "lon": -77.036585, "is_reserved": 0, "fusion_lon": 0.0}, {"rental_uris": {"ios": "https://dc.lft.to/lastmile_qr_scan", "android": "https://dc.lft.to/lastmile_qr_scan"}, "fusion_lat": 0.0, "name": "8e6a3f186349bf692e8714bf7c5c0d5f", "bike_id": "8e6a3f186349bf692e8714bf7c5c0d5f", "is_disabled": 0, "type": "electric_scooter", "lat": 38.932418166666665, "lon": -77.03852033333334, "is_reserved": 0, "fusion_lon": 0.0}, {"rental_uris": {"ios": "https://dc.lft.to/lastmile_qr_scan", "android": "https://dc.lft.to/lastmile_qr_scan"}, "fusion_lat": 0.0, "name": "b45942a6ea1b083e7b7a199b5f316677", "bike_id": "b45942a6ea1b083e7b7a199b5f316677", "is_disabled": 0, "type": "electric_scooter", "lat": 38.90961333333333, "lon": -77.04478933333333, "is_reserved": 0, "fusion_lon": 0.0}, {"rental_uris": {"ios": "https://dc.lft.to/lastmile_qr_scan", "android": "https://dc.lft.to/lastmile_qr_scan"}, "fusion_lat": 0.0, "name": "e63c2e00bb50982302e9d88621327776", "bike_id": "e63c2e00bb50982302e9d88621327776", "is_disabled": 0, "type": "electric_scooter", "lat": 38.9070115, "lon": -76.987265, "is_reserved": 0, "fusion_lon": 0.0}, {"rental_uris": {"ios": "https://dc.lft.to/lastmile_qr_scan", "android": "https://dc.lft.to/lastmile_qr_scan"}, "fusion_lat": 0.0, "name": "447a5b81630d2eb435e43bdc13a227dd", "bike_id": "447a5b81630d2eb435e43bdc13a227dd", "is_disabled": 0, "type": "electric_scooter", "lat": 38.914293666666666, "lon": -77.03209483333333, "is_reserved": 0, "fusion_lon": 0.0}, {"rental_uris": {"ios": "https://dc.lft.to/lastmile_qr_scan", "android": "https://dc.lft.to/lastmile_qr_scan"}, "fusion_lat": 0.0, "name": "43906f6a3c66cbaebce42360cc703787", "bike_id": "43906f6a3c66cbaebce42360cc703787", "is_disabled": 0, "type": "electric_scooter", "lat": 38.86658166666667, "lon": -76.98883016666667, "is_reserved": 0, "fusion_lon": 0.0}, {"rental_uris": {"ios": "https://dc.lft.to/lastmile_qr_scan", "android": "https://dc.lft.to/lastmile_qr_scan"}, "fusion_lat": 0.0, "name": "4a205fe62796b19bd6622c2f94fc4ef2", "bike_id": "4a205fe62796b19bd6622c2f94fc4ef2", "is_disabled": 0, "type": "electric_scooter", "lat": 38.9007395, "lon": -77.0490945, "is_reserved": 0, "fusion_lon": 0.0}, {"rental_uris": {"ios": "https://dc.lft.to/lastmile_qr_scan", "android": "https://dc.lft.to/lastmile_qr_scan"}, "fusion_lat": 0.0, "name": "4ab7733310ce36591216df679af831a4", "bike_id": "4ab7733310ce36591216df679af831a4", "is_disabled": 0, "type": "electric_scooter", "lat": 38.9037065, "lon": -77.03434933333334, "is_reserved": 0, "fusion_lon": 0.0}, {"rental_uris": {"ios": "https://dc.lft.to/lastmile_qr_scan", "android": "https://dc.lft.to/lastmile_qr_scan"}, "fusion_lat": 0.0, "name": "70161e8123bb706b9a5b60ed3cc22acc", "bike_id": "70161e8123bb706b9a5b60ed3cc22acc", "is_disabled": 0, "type": "electric_bike", "lat": 38.80067433333333, "lon": -77.07121716666667, "is_reserved": 0, "fusion_lon": 0.0}, {"rental_uris": {"ios": "https://dc.lft.to/lastmile_qr_scan", "android": "https://dc.lft.to/lastmile_qr_scan"}, "fusion_lat": 0.0, "name": "65ea166c2f962e5b5a3f9241a63b887c", "bike_id": "65ea166c2f962e5b5a3f9241a63b887c", "is_disabled": 0, "type": "electric_scooter", "lat": 38.898908166666665, "lon": -76.9990425, "is_reserved": 0, "fusion_lon": 0.0}, {"rental_uris": {"ios": "https://dc.lft.to/lastmile_qr_scan", "android": "https://dc.lft.to/lastmile_qr_scan"}, "fusion_lat": 0.0, "name": "56306db51f249e5c10c3ffb18efdba34", "bike_id": "56306db51f249e5c10c3ffb18efdba34", "is_disabled": 0, "type": "electric_bike", "lat": 38.95791333333333, "lon": -77.02740766666666, "is_reserved": 0, "fusion_lon": 0.0}, {"rental_uris": {"ios": "https://dc.lft.to/lastmile_qr_scan", "android": "https://dc.lft.to/lastmile_qr_scan"}, "fusion_lat": 0.0, "name": "023cb2f8fe472786bc85e41cbea6145d", "bike_id": "023cb2f8fe472786bc85e41cbea6145d", "is_disabled": 0, "type": "electric_scooter", "lat": 38.90007883333333, "lon": -76.99616933333333, "is_reserved": 0, "fusion_lon": 0.0}, {"rental_uris": {"ios": "https://dc.lft.to/lastmile_qr_scan", "android": "https://dc.lft.to/lastmile_qr_scan"}, "fusion_lat": 0.0, "name": "fd7eb4d25282172023dda2908880da22", "bike_id": "fd7eb4d25282172023dda2908880da22", "is_disabled": 0, "type": "electric_scooter", "lat": 38.91883, "lon": -77.016232, "is_reserved": 0, "fusion_lon": 0.0}, {"rental_uris": {"ios": "https://dc.lft.to/lastmile_qr_scan", "android": "https://dc.lft.to/lastmile_qr_scan"}, "fusion_lat": 0.0, "name": "39b57f5d46c6be3779bcee76252ce772", "bike_id": "39b57f5d46c6be3779bcee76252ce772", "is_disabled": 0, "type": "electric_scooter", "lat": 38.918571666666665, "lon": -77.0321875, "is_reserved": 0, "fusion_lon": 0.0}, {"rental_uris": {"ios": "https://dc.lft.to/lastmile_qr_scan", "android": "https://dc.lft.to/lastmile_qr_scan"}, "fusion_lat": 0.0, "name": "ca33afca064365a86a50af1a4bdc0a07", "bike_id": "ca33afca064365a86a50af1a4bdc0a07", "is_disabled": 0, "type": "electric_scooter", "lat": 38.9205, "lon": -77.034769, "is_reserved": 0, "fusion_lon": 0.0}, {"rental_uris": {"ios": "https://dc.lft.to/lastmile_qr_scan", "android": "https://dc.lft.to/lastmile_qr_scan"}, "fusion_lat": 0.0, "name": "8e61c9fc6be18cc7067aecf3d112cfd2", "bike_id": "8e61c9fc6be18cc7067aecf3d112cfd2", "is_disabled": 0, "type": "electric_bike", "lat": 38.916100666666665, "lon": -77.04874883333333, "is_reserved": 0, "fusion_lon": 0.0}, {"rental_uris": {"ios": "https://dc.lft.to/lastmile_qr_scan", "android": "https://dc.lft.to/lastmile_qr_scan"}, "fusion_lat": 0.0, "name": "3af96cc5681f92702a4c9ad5bf0b9c36", "bike_id": "3af96cc5681f92702a4c9ad5bf0b9c36", "is_disabled": 0, "type": "electric_scooter", "lat": 38.894981, "lon": -76.9487485, "is_reserved": 0, "fusion_lon": 0.0}, {"rental_uris": {"ios": "https://dc.lft.to/lastmile_qr_scan", "android": "https://dc.lft.to/lastmile_qr_scan"}, "fusion_lat": 0.0, "name": "1bd326848a8ec974fe703cb52a6e060d", "bike_id": "1bd326848a8ec974fe703cb52a6e060d", "is_disabled": 0, "type": "electric_bike", "lat": 38.90135, "lon": -77.03698583333333, "is_reserved": 0, "fusion_lon": 0.0}, {"rental_uris": {"ios": "https://dc.lft.to/lastmile_qr_scan", "android": "https://dc.lft.to/lastmile_qr_scan"}, "fusion_lat": 0.0, "name": "da5a2eaabf8d85f1e9aa6cc2bfe341d4", "bike_id": "da5a2eaabf8d85f1e9aa6cc2bfe341d4", "is_disabled": 0, "type": "electric_scooter", "lat": 38.918644, "lon": -77.03892933333333, "is_reserved": 0, "fusion_lon": 0.0}, {"rental_uris": {"ios": "https://dc.lft.to/lastmile_qr_scan", "android": "https://dc.lft.to/lastmile_qr_scan"}, "fusion_lat": 0.0, "name": "0b4b40371f8f0c91d16f3c3762324354", "bike_id": "0b4b40371f8f0c91d16f3c3762324354", "is_disabled": 0, "type": "electric_scooter", "lat": 38.93477766666667, "lon": -77.03580633333333, "is_reserved": 0, "fusion_lon": 0.0}, {"rental_uris": {"ios": "https://dc.lft.to/lastmile_qr_scan", "android": "https://dc.lft.to/lastmile_qr_scan"}, "fusion_lat": 0.0, "name": "5b350c50ef046e1d5e93ba5c9b37d9fd", "bike_id": "5b350c50ef046e1d5e93ba5c9b37d9fd", "is_disabled": 0, "type": "electric_scooter", "lat": 38.89507416666667, "lon": -77.01082733333334, "is_reserved": 0, "fusion_lon": 0.0}, {"rental_uris": {"ios": "https://dc.lft.to/lastmile_qr_scan", "android": "https://dc.lft.to/lastmile_qr_scan"}, "fusion_lat": 0.0, "name": "851cd3b7b33c2c9cf81951f0ba7344bf", "bike_id": "851cd3b7b33c2c9cf81951f0ba7344bf", "is_disabled": 0, "type": "electric_scooter", "lat": 38.86501666666667, "lon": -76.98983333333334, "is_reserved": 0, "fusion_lon": 0.0}, {"rental_uris": {"ios": "https://dc.lft.to/lastmile_qr_scan", "android": "https://dc.lft.to/lastmile_qr_scan"}, "fusion_lat": 0.0, "name": "b78792e843dc0973439ad821d1e96f18", "bike_id": "b78792e843dc0973439ad821d1e96f18", "is_disabled": 0, "type": "electric_scooter", "lat": 38.909505833333334, "lon": -77.04483916666666, "is_reserved": 0, "fusion_lon": 0.0}, {"rental_uris": {"ios": "https://dc.lft.to/lastmile_qr_scan", "android": "https://dc.lft.to/lastmile_qr_scan"}, "fusion_lat": 0.0, "name": "62d18946a32d8ba82783f477104bf072", "bike_id": "62d18946a32d8ba82783f477104bf072", "is_disabled": 0, "type": "electric_scooter", "lat": 38.92469783333333, "lon": -77.05233, "is_reserved": 0, "fusion_lon": 0.0}, {"rental_uris": {"ios": "https://dc.lft.to/lastmile_qr_scan", "android": "https://dc.lft.to/lastmile_qr_scan"}, "fusion_lat": 0.0, "name": "59a3e1c984f1e3553ef5094c95f3c9d2", "bike_id": "59a3e1c984f1e3553ef5094c95f3c9d2", "is_disabled": 0, "type": "electric_scooter", "lat": 38.90964183333333, "lon": -77.02284266666666, "is_reserved": 0, "fusion_lon": 0.0}, {"rental_uris": {"ios": "https://dc.lft.to/lastmile_qr_scan", "android": "https://dc.lft.to/lastmile_qr_scan"}, "fusion_lat": 0.0, "name": "19880d2430421176534ea209c06e4c22", "bike_id": "19880d2430421176534ea209c06e4c22", "is_disabled": 0, "type": "electric_scooter", "lat": 38.877228333333335, "lon": -77.0072715, "is_reserved": 0, "fusion_lon": 0.0}, {"rental_uris": {"ios": "https://dc.lft.to/lastmile_qr_scan", "android": "https://dc.lft.to/lastmile_qr_scan"}, "fusion_lat": 0.0, "name": "ffcb772eb17cd5751966cb484317fb81", "bike_id": "ffcb772eb17cd5751966cb484317fb81", "is_disabled": 0, "type": "electric_scooter", "lat": 38.893913, "lon": -77.02830733333333, "is_reserved": 0, "fusion_lon": 0.0}, {"rental_uris": {"ios": "https://dc.lft.to/lastmile_qr_scan", "android": "https://dc.lft.to/lastmile_qr_scan"}, "fusion_lat": 0.0, "name": "0df807f0ad191c8175a46fbe225e5ebd", "bike_id": "0df807f0ad191c8175a46fbe225e5ebd", "is_disabled": 0, "type": "electric_scooter", "lat": 38.8625945, "lon": -76.995138, "is_reserved": 0, "fusion_lon": 0.0}, {"rental_uris": {"ios": "https://dc.lft.to/lastmile_qr_scan", "android": "https://dc.lft.to/lastmile_qr_scan"}, "fusion_lat": 0.0, "name": "f62bef6985a7299cd8d3365265a7f4a9", "bike_id": "f62bef6985a7299cd8d3365265a7f4a9", "is_disabled": 0, "type": "electric_scooter", "lat": 38.930672666666666, "lon": -77.03818416666667, "is_reserved": 0, "fusion_lon": 0.0}, {"rental_uris": {"ios": "https://dc.lft.to/lastmile_qr_scan", "android": "https://dc.lft.to/lastmile_qr_scan"}, "fusion_lat": 0.0, "name": "f9d661e032e5102005174e7e50756436", "bike_id": "f9d661e032e5102005174e7e50756436", "is_disabled": 0, "type": "electric_scooter", "lat": 38.91110833333333, "lon": -77.03916466666666, "is_reserved": 0, "fusion_lon": 0.0}, {"rental_uris": {"ios": "https://dc.lft.to/lastmile_qr_scan", "android": "https://dc.lft.to/lastmile_qr_scan"}, "fusion_lat": 0.0, "name": "52a8c450e7dddb8aed6f2e80b7343c79", "bike_id": "52a8c450e7dddb8aed6f2e80b7343c79", "is_disabled": 0, "type": "electric_scooter", "lat": 38.92048833333333, "lon": -77.00209783333334, "is_reserved": 0, "fusion_lon": 0.0}, {"rental_uris": {"ios": "https://dc.lft.to/lastmile_qr_scan", "android": "https://dc.lft.to/lastmile_qr_scan"}, "fusion_lat": 0.0, "name": "663272e7acffbbcef918fa7184abdb1c", "bike_id": "663272e7acffbbcef918fa7184abdb1c", "is_disabled": 0, "type": "electric_bike", "lat": 38.83227083333333, "lon": -77.04975633333333, "is_reserved": 0, "fusion_lon": 0.0}, {"rental_uris": {"ios": "https://dc.lft.to/lastmile_qr_scan", "android": "https://dc.lft.to/lastmile_qr_scan"}, "fusion_lat": 0.0, "name": "68b6cb088727a30a841e745b3b139378", "bike_id": "68b6cb088727a30a841e745b3b139378", "is_disabled": 0, "type": "electric_scooter", "lat": 38.914122, "lon": -77.04067816666667, "is_reserved": 0, "fusion_lon": 0.0}, {"rental_uris": {"ios": "https://dc.lft.to/lastmile_qr_scan", "android": "https://dc.lft.to/lastmile_qr_scan"}, "fusion_lat": 0.0, "name": "f332f92829af9637c8526950aea3bc99", "bike_id": "f332f92829af9637c8526950aea3bc99", "is_disabled": 0, "type": "electric_scooter", "lat": 38.91964433333333, "lon": -77.017805, "is_reserved": 0, "fusion_lon": 0.0}, {"rental_uris": {"ios": "https://dc.lft.to/lastmile_qr_scan", "android": "https://dc.lft.to/lastmile_qr_scan"}, "fusion_lat": 0.0, "name": "2692cf3cb4290b0805ef9157fd24c67f", "bike_id": "2692cf3cb4290b0805ef9157fd24c67f", "is_disabled": 0, "type": "electric_bike", "lat": 38.96136083333333, "lon": -77.0096895, "is_reserved": 0, "fusion_lon": 0.0}, {"rental_uris": {"ios": "https://dc.lft.to/lastmile_qr_scan", "android": "https://dc.lft.to/lastmile_qr_scan"}, "fusion_lat": 0.0, "name": "6acef3f7a958a8dc0bd0e7b1b62cd3b7", "bike_id": "6acef3f7a958a8dc0bd0e7b1b62cd3b7", "is_disabled": 0, "type": "electric_scooter", "lat": 38.918203166666665, "lon": -77.03914866666666, "is_reserved": 0, "fusion_lon": 0.0}, {"rental_uris": {"ios": "https://dc.lft.to/lastmile_qr_scan", "android": "https://dc.lft.to/lastmile_qr_scan"}, "fusion_lat": 0.0, "name": "4356e10eb0a43347e9f8c2c4fd022c0a", "bike_id": "4356e10eb0a43347e9f8c2c4fd022c0a", "is_disabled": 0, "type": "electric_bike", "lat": 39.05455933333333, "lon": -77.11725883333334, "is_reserved": 0, "fusion_lon": 0.0}, {"rental_uris": {"ios": "https://dc.lft.to/lastmile_qr_scan", "android": "https://dc.lft.to/lastmile_qr_scan"}, "fusion_lat": 0.0, "name": "809304acba0ce9bde74821cb366db29f", "bike_id": "809304acba0ce9bde74821cb366db29f", "is_disabled": 0, "type": "electric_scooter", "lat": 38.8823695, "lon": -76.99090533333333, "is_reserved": 0, "fusion_lon": 0.0}, {"rental_uris": {"ios": "https://dc.lft.to/lastmile_qr_scan", "android": "https://dc.lft.to/lastmile_qr_scan"}, "fusion_lat": 0.0, "name": "6a5233dc1cf11b1d834b3d29802dfc9b", "bike_id": "6a5233dc1cf11b1d834b3d29802dfc9b", "is_disabled": 0, "type": "electric_scooter", "lat": 38.90992266666667, "lon": -77.03199283333333, "is_reserved": 0, "fusion_lon": 0.0}, {"rental_uris": {"ios": "https://dc.lft.to/lastmile_qr_scan", "android": "https://dc.lft.to/lastmile_qr_scan"}, "fusion_lat": 0.0, "name": "e8a0a496ff6ee18607f788d668f06fd3", "bike_id": "e8a0a496ff6ee18607f788d668f06fd3", "is_disabled": 0, "type": "electric_scooter", "lat": 38.905273333333334, "lon": -77.05936766666666, "is_reserved": 0, "fusion_lon": 0.0}, {"rental_uris": {"ios": "https://dc.lft.to/lastmile_qr_scan", "android": "https://dc.lft.to/lastmile_qr_scan"}, "fusion_lat": 0.0, "name": "50fcf0e84c659ab86c96aa964973653c", "bike_id": "50fcf0e84c659ab86c96aa964973653c", "is_disabled": 0, "type": "electric_scooter", "lat": 38.89224016666667, "lon": -77.022261, "is_reserved": 0, "fusion_lon": 0.0}, {"rental_uris": {"ios": "https://dc.lft.to/lastmile_qr_scan", "android": "https://dc.lft.to/lastmile_qr_scan"}, "fusion_lat": 0.0, "name": "096b80809759b39cb6e70b13c2e83e4d", "bike_id": "096b80809759b39cb6e70b13c2e83e4d", "is_disabled": 0, "type": "electric_scooter", "lat": 38.89231983333333, "lon": -77.0318125, "is_reserved": 0, "fusion_lon": 0.0}, {"rental_uris": {"ios": "https://dc.lft.to/lastmile_qr_scan", "android": "https://dc.lft.to/lastmile_qr_scan"}, "fusion_lat": 0.0, "name": "6d787027c5bb9dc40f2decf065447855", "bike_id": "6d787027c5bb9dc40f2decf065447855", "is_disabled": 0, "type": "electric_scooter", "lat": 38.90347233333333, "lon": -77.02148016666666, "is_reserved": 0, "fusion_lon": 0.0}, {"rental_uris": {"ios": "https://dc.lft.to/lastmile_qr_scan", "android": "https://dc.lft.to/lastmile_qr_scan"}, "fusion_lat": 0.0, "name": "f061d98b11981f707827198106c639d4", "bike_id": "f061d98b11981f707827198106c639d4", "is_disabled": 0, "type": "electric_scooter", "lat": 38.911119, "lon": -77.0016425, "is_reserved": 0, "fusion_lon": 0.0}, {"rental_uris": {"ios": "https://dc.lft.to/lastmile_qr_scan", "android": "https://dc.lft.to/lastmile_qr_scan"}, "fusion_lat": 0.0, "name": "b6ff9b4040f6fa752862ada2af540ce1", "bike_id": "b6ff9b4040f6fa752862ada2af540ce1", "is_disabled": 0, "type": "electric_scooter", "lat": 38.89226033333333, "lon": -77.03219666666666, "is_reserved": 0, "fusion_lon": 0.0}, {"rental_uris": {"ios": "https://dc.lft.to/lastmile_qr_scan", "android": "https://dc.lft.to/lastmile_qr_scan"}, "fusion_lat": 0.0, "name": "694bc332702791bff2e5b04fae744710", "bike_id": "694bc332702791bff2e5b04fae744710", "is_disabled": 0, "type": "electric_scooter", "lat": 38.90075366666667, "lon": -77.04909983333333, "is_reserved": 0, "fusion_lon": 0.0}, {"rental_uris": {"ios": "https://dc.lft.to/lastmile_qr_scan", "android": "https://dc.lft.to/lastmile_qr_scan"}, "fusion_lat": 0.0, "name": "de496e71d91ccc2730f98e3115741ccc", "bike_id": "de496e71d91ccc2730f98e3115741ccc", "is_disabled": 0, "type": "electric_scooter", "lat": 38.91369266666667, "lon": -77.0448635, "is_reserved": 0, "fusion_lon": 0.0}, {"rental_uris": {"ios": "https://dc.lft.to/lastmile_qr_scan", "android": "https://dc.lft.to/lastmile_qr_scan"}, "fusion_lat": 0.0, "name": "b611158a908046a089563739e5eabd72", "bike_id": "b611158a908046a089563739e5eabd72", "is_disabled": 0, "type": "electric_scooter", "lat": 38.94228666666667, "lon": -77.07681333333333, "is_reserved": 0, "fusion_lon": 0.0}, {"rental_uris": {"ios": "https://dc.lft.to/lastmile_qr_scan", "android": "https://dc.lft.to/lastmile_qr_scan"}, "fusion_lat": 0.0, "name": "8701c9b18db893c3efc4c7013d6823b1", "bike_id": "8701c9b18db893c3efc4c7013d6823b1", "is_disabled": 0, "type": "electric_scooter", "lat": 38.900775833333334, "lon": -77.04679866666666, "is_reserved": 0, "fusion_lon": 0.0}, {"rental_uris": {"ios": "https://dc.lft.to/lastmile_qr_scan", "android": "https://dc.lft.to/lastmile_qr_scan"}, "fusion_lat": 0.0, "name": "022f1906609b25c3e778bfdc7646d84d", "bike_id": "022f1906609b25c3e778bfdc7646d84d", "is_disabled": 0, "type": "electric_scooter", "lat": 38.92213316666667, "lon": -77.0365905, "is_reserved": 0, "fusion_lon": 0.0}, {"rental_uris": {"ios": "https://dc.lft.to/lastmile_qr_scan", "android": "https://dc.lft.to/lastmile_qr_scan"}, "fusion_lat": 0.0, "name": "7d13472a9e38eddd105e23b4b67e2f72", "bike_id": "7d13472a9e38eddd105e23b4b67e2f72", "is_disabled": 0, "type": "electric_scooter", "lat": 38.91261566666667, "lon": -77.04441866666667, "is_reserved": 0, "fusion_lon": 0.0}, {"rental_uris": {"ios": "https://dc.lft.to/lastmile_qr_scan", "android": "https://dc.lft.to/lastmile_qr_scan"}, "fusion_lat": 0.0, "name": "017ff1900f6ae4fe544dd98fd1265468", "bike_id": "017ff1900f6ae4fe544dd98fd1265468", "is_disabled": 0, "type": "electric_bike", "lat": 38.815155, "lon": -77.1265525, "is_reserved": 0, "fusion_lon": 0.0}, {"rental_uris": {"ios": "https://dc.lft.to/lastmile_qr_scan", "android": "https://dc.lft.to/lastmile_qr_scan"}, "fusion_lat": 0.0, "name": "2f6d9c3b82120742dcf7261b7675d7da", "bike_id": "2f6d9c3b82120742dcf7261b7675d7da", "is_disabled": 0, "type": "electric_scooter", "lat": 38.89232666666667, "lon": -77.02803266666666, "is_reserved": 0, "fusion_lon": 0.0}, {"rental_uris": {"ios": "https://dc.lft.to/lastmile_qr_scan", "android": "https://dc.lft.to/lastmile_qr_scan"}, "fusion_lat": 0.0, "name": "f07dda425a5f5ba9053182d7868b4aa1", "bike_id": "f07dda425a5f5ba9053182d7868b4aa1", "is_disabled": 0, "type": "electric_scooter", "lat": 38.866916, "lon": -76.98547033333334, "is_reserved": 0, "fusion_lon": 0.0}, {"rental_uris": {"ios": "https://dc.lft.to/lastmile_qr_scan", "android": "https://dc.lft.to/lastmile_qr_scan"}, "fusion_lat": 0.0, "name": "5e991a13cdf1206eee44bd6c9ad14a2b", "bike_id": "5e991a13cdf1206eee44bd6c9ad14a2b", "is_disabled": 0, "type": "electric_scooter", "lat": 38.92107416666666, "lon": -77.0469605, "is_reserved": 0, "fusion_lon": 0.0}, {"rental_uris": {"ios": "https://dc.lft.to/lastmile_qr_scan", "android": "https://dc.lft.to/lastmile_qr_scan"}, "fusion_lat": 0.0, "name": "3636e71ecbd8f74ad9312b7c01b51004", "bike_id": "3636e71ecbd8f74ad9312b7c01b51004", "is_disabled": 0, "type": "electric_scooter", "lat": 38.909523166666666, "lon": -77.04475283333333, "is_reserved": 0, "fusion_lon": 0.0}, {"rental_uris": {"ios": "https://dc.lft.to/lastmile_qr_scan", "android": "https://dc.lft.to/lastmile_qr_scan"}, "fusion_lat": 0.0, "name": "25cb36ab94ebb8b381d7138b38b4e7d2", "bike_id": "25cb36ab94ebb8b381d7138b38b4e7d2", "is_disabled": 0, "type": "electric_scooter", "lat": 38.9081745, "lon": -77.0343365, "is_reserved": 0, "fusion_lon": 0.0}, {"rental_uris": {"ios": "https://dc.lft.to/lastmile_qr_scan", "android": "https://dc.lft.to/lastmile_qr_scan"}, "fusion_lat": 0.0, "name": "ee11be5c9c28be23ed2b8ec48d03e466", "bike_id": "ee11be5c9c28be23ed2b8ec48d03e466", "is_disabled": 0, "type": "electric_scooter", "lat": 38.89830883333333, "lon": -77.03961416666667, "is_reserved": 0, "fusion_lon": 0.0}, {"rental_uris": {"ios": "https://dc.lft.to/lastmile_qr_scan", "android": "https://dc.lft.to/lastmile_qr_scan"}, "fusion_lat": 0.0, "name": "54194ab0eaa7c750f643490047f7776e", "bike_id": "54194ab0eaa7c750f643490047f7776e", "is_disabled": 0, "type": "electric_scooter", "lat": 38.917140333333336, "lon": -77.03246166666666, "is_reserved": 0, "fusion_lon": 0.0}, {"rental_uris": {"ios": "https://dc.lft.to/lastmile_qr_scan", "android": "https://dc.lft.to/lastmile_qr_scan"}, "fusion_lat": 0.0, "name": "ac6155b41cd49aecb23c9698c88c920d", "bike_id": "ac6155b41cd49aecb23c9698c88c920d", "is_disabled": 0, "type": "electric_bike", "lat": 38.924715166666665, "lon": -77.2084135, "is_reserved": 0, "fusion_lon": 0.0}, {"rental_uris": {"ios": "https://dc.lft.to/lastmile_qr_scan", "android": "https://dc.lft.to/lastmile_qr_scan"}, "fusion_lat": 0.0, "name": "ede0a96c6a7f3d090976bf7fc0bd33a3", "bike_id": "ede0a96c6a7f3d090976bf7fc0bd33a3", "is_disabled": 0, "type": "electric_scooter", "lat": 38.91572266666667, "lon": -77.02004666666667, "is_reserved": 0, "fusion_lon": 0.0}, {"rental_uris": {"ios": "https://dc.lft.to/lastmile_qr_scan", "android": "https://dc.lft.to/lastmile_qr_scan"}, "fusion_lat": 0.0, "name": "67399c8938e06b15ffd94f5b61b69a38", "bike_id": "67399c8938e06b15ffd94f5b61b69a38", "is_disabled": 0, "type": "electric_scooter", "lat": 38.9242655, "lon": -77.01949416666666, "is_reserved": 0, "fusion_lon": 0.0}, {"rental_uris": {"ios": "https://dc.lft.to/lastmile_qr_scan", "android": "https://dc.lft.to/lastmile_qr_scan"}, "fusion_lat": 0.0, "name": "ba4d72944335ee152394e55c3b5884f2", "bike_id": "ba4d72944335ee152394e55c3b5884f2", "is_disabled": 0, "type": "electric_scooter", "lat": 38.90285, "lon": -77.0347075, "is_reserved": 0, "fusion_lon": 0.0}, {"rental_uris": {"ios": "https://dc.lft.to/lastmile_qr_scan", "android": "https://dc.lft.to/lastmile_qr_scan"}, "fusion_lat": 0.0, "name": "a94ace14aad6876a1b1276cf758acd61", "bike_id": "a94ace14aad6876a1b1276cf758acd61", "is_disabled": 0, "type": "electric_scooter", "lat": 38.908272333333336, "lon": -76.99700933333334, "is_reserved": 0, "fusion_lon": 0.0}, {"rental_uris": {"ios": "https://dc.lft.to/lastmile_qr_scan", "android": "https://dc.lft.to/lastmile_qr_scan"}, "fusion_lat": 0.0, "name": "53aed918d9be2b71339eede66023f7eb", "bike_id": "53aed918d9be2b71339eede66023f7eb", "is_disabled": 0, "type": "electric_scooter", "lat": 38.89228833333333, "lon": -77.0232725, "is_reserved": 0, "fusion_lon": 0.0}, {"rental_uris": {"ios": "https://dc.lft.to/lastmile_qr_scan", "android": "https://dc.lft.to/lastmile_qr_scan"}, "fusion_lat": 0.0, "name": "7f28421c322e1f51da8b658b062e8307", "bike_id": "7f28421c322e1f51da8b658b062e8307", "is_disabled": 0, "type": "electric_bike", "lat": 38.831631, "lon": -77.11319716666667, "is_reserved": 0, "fusion_lon": 0.0}, {"rental_uris": {"ios": "https://dc.lft.to/lastmile_qr_scan", "android": "https://dc.lft.to/lastmile_qr_scan"}, "fusion_lat": 0.0, "name": "d25a37e51086d8d6d4b643be8a343222", "bike_id": "d25a37e51086d8d6d4b643be8a343222", "is_disabled": 0, "type": "electric_scooter", "lat": 38.909858166666666, "lon": -77.04407983333333, "is_reserved": 0, "fusion_lon": 0.0}, {"rental_uris": {"ios": "https://dc.lft.to/lastmile_qr_scan", "android": "https://dc.lft.to/lastmile_qr_scan"}, "fusion_lat": 0.0, "name": "7159b314266302cd7d53448b4691dc3c", "bike_id": "7159b314266302cd7d53448b4691dc3c", "is_disabled": 0, "type": "electric_scooter", "lat": 38.9080685, "lon": -77.04344933333333, "is_reserved": 0, "fusion_lon": 0.0}, {"rental_uris": {"ios": "https://dc.lft.to/lastmile_qr_scan", "android": "https://dc.lft.to/lastmile_qr_scan"}, "fusion_lat": 0.0, "name": "44554f6f0c4f6d0b094540454436114e", "bike_id": "44554f6f0c4f6d0b094540454436114e", "is_disabled": 0, "type": "electric_scooter", "lat": 38.904373, "lon": -77.03270716666667, "is_reserved": 0, "fusion_lon": 0.0}, {"rental_uris": {"ios": "https://dc.lft.to/lastmile_qr_scan", "android": "https://dc.lft.to/lastmile_qr_scan"}, "fusion_lat": 0.0, "name": "d0a2ecfe3103a9cc2258ba3527846c8f", "bike_id": "d0a2ecfe3103a9cc2258ba3527846c8f", "is_disabled": 0, "type": "electric_scooter", "lat": 38.912756, "lon": -77.03644066666666, "is_reserved": 0, "fusion_lon": 0.0}, {"rental_uris": {"ios": "https://dc.lft.to/lastmile_qr_scan", "android": "https://dc.lft.to/lastmile_qr_scan"}, "fusion_lat": 0.0, "name": "283b2feee72b0ede71a5dcf9ea08a173", "bike_id": "283b2feee72b0ede71a5dcf9ea08a173", "is_disabled": 0, "type": "electric_scooter", "lat": 38.887214, "lon": -77.01777983333334, "is_reserved": 0, "fusion_lon": 0.0}, {"rental_uris": {"ios": "https://dc.lft.to/lastmile_qr_scan", "android": "https://dc.lft.to/lastmile_qr_scan"}, "fusion_lat": 0.0, "name": "ac7551bfb586cccd07aec803fa3a9a6c", "bike_id": "ac7551bfb586cccd07aec803fa3a9a6c", "is_disabled": 0, "type": "electric_scooter", "lat": 38.91983966666667, "lon": -77.02356733333333, "is_reserved": 0, "fusion_lon": 0.0}, {"rental_uris": {"ios": "https://dc.lft.to/lastmile_qr_scan", "android": "https://dc.lft.to/lastmile_qr_scan"}, "fusion_lat": 0.0, "name": "2226fcbbcd31eb4d6fc5170bab0c65e2", "bike_id": "2226fcbbcd31eb4d6fc5170bab0c65e2", "is_disabled": 0, "type": "electric_scooter", "lat": 38.902566666666665, "lon": -77.0435675, "is_reserved": 0, "fusion_lon": 0.0}, {"rental_uris": {"ios": "https://dc.lft.to/lastmile_qr_scan", "android": "https://dc.lft.to/lastmile_qr_scan"}, "fusion_lat": 0.0, "name": "abdb999f983cfb664ecd96b1c1ec4735", "bike_id": "abdb999f983cfb664ecd96b1c1ec4735", "is_disabled": 0, "type": "electric_scooter", "lat": 38.96164616666667, "lon": -77.027855, "is_reserved": 0, "fusion_lon": 0.0}, {"rental_uris": {"ios": "https://dc.lft.to/lastmile_qr_scan", "android": "https://dc.lft.to/lastmile_qr_scan"}, "fusion_lat": 0.0, "name": "6deeb2f5f28490601be2135bec1f6d55", "bike_id": "6deeb2f5f28490601be2135bec1f6d55", "is_disabled": 0, "type": "electric_scooter", "lat": 38.91427916666667, "lon": -77.0320235, "is_reserved": 0, "fusion_lon": 0.0}, {"rental_uris": {"ios": "https://dc.lft.to/lastmile_qr_scan", "android": "https://dc.lft.to/lastmile_qr_scan"}, "fusion_lat": 0.0, "name": "313c72bcaba07fbdd2f155e95aab8e54", "bike_id": "313c72bcaba07fbdd2f155e95aab8e54", "is_disabled": 0, "type": "electric_scooter", "lat": 38.91554466666667, "lon": -77.02417616666666, "is_reserved": 0, "fusion_lon": 0.0}, {"rental_uris": {"ios": "https://dc.lft.to/lastmile_qr_scan", "android": "https://dc.lft.to/lastmile_qr_scan"}, "fusion_lat": 0.0, "name": "2eb42dc471c46cd4abf16a74076e98cc", "bike_id": "2eb42dc471c46cd4abf16a74076e98cc", "is_disabled": 0, "type": "electric_scooter", "lat": 38.92481466666667, "lon": -77.03490766666667, "is_reserved": 0, "fusion_lon": 0.0}, {"rental_uris": {"ios": "https://dc.lft.to/lastmile_qr_scan", "android": "https://dc.lft.to/lastmile_qr_scan"}, "fusion_lat": 0.0, "name": "8cc11d7485d428bbfeaa9634fe5f3910", "bike_id": "8cc11d7485d428bbfeaa9634fe5f3910", "is_disabled": 0, "type": "electric_scooter", "lat": 38.90976966666667, "lon": -77.034349, "is_reserved": 0, "fusion_lon": 0.0}, {"rental_uris": {"ios": "https://dc.lft.to/lastmile_qr_scan", "android": "https://dc.lft.to/lastmile_qr_scan"}, "fusion_lat": 0.0, "name": "33cf09c1ef87cac343b37dd5bb70f724", "bike_id": "33cf09c1ef87cac343b37dd5bb70f724", "is_disabled": 0, "type": "electric_scooter", "lat": 38.919102333333335, "lon": -77.03191266666667, "is_reserved": 0, "fusion_lon": 0.0}, {"rental_uris": {"ios": "https://dc.lft.to/lastmile_qr_scan", "android": "https://dc.lft.to/lastmile_qr_scan"}, "fusion_lat": 0.0, "name": "affce482c61e2facf2b9c9a476a62383", "bike_id": "affce482c61e2facf2b9c9a476a62383", "is_disabled": 0, "type": "electric_scooter", "lat": 38.9014155, "lon": -77.04465733333333, "is_reserved": 0, "fusion_lon": 0.0}, {"rental_uris": {"ios": "https://dc.lft.to/lastmile_qr_scan", "android": "https://dc.lft.to/lastmile_qr_scan"}, "fusion_lat": 0.0, "name": "92f944567e77be2403c2cf131076d7a8", "bike_id": "92f944567e77be2403c2cf131076d7a8", "is_disabled": 0, "type": "electric_scooter", "lat": 38.89016866666667, "lon": -76.93736316666667, "is_reserved": 0, "fusion_lon": 0.0}, {"rental_uris": {"ios": "https://dc.lft.to/lastmile_qr_scan", "android": "https://dc.lft.to/lastmile_qr_scan"}, "fusion_lat": 0.0, "name": "db79e79f4bf6dc1fc775632bff45889d", "bike_id": "db79e79f4bf6dc1fc775632bff45889d", "is_disabled": 0, "type": "electric_bike", "lat": 38.9105095, "lon": -77.04128833333333, "is_reserved": 0, "fusion_lon": 0.0}, {"rental_uris": {"ios": "https://dc.lft.to/lastmile_qr_scan", "android": "https://dc.lft.to/lastmile_qr_scan"}, "fusion_lat": 0.0, "name": "596a6a6b826f5276887777465ba3c127", "bike_id": "596a6a6b826f5276887777465ba3c127", "is_disabled": 0, "type": "electric_scooter", "lat": 38.911404, "lon": -77.021937, "is_reserved": 0, "fusion_lon": 0.0}, {"rental_uris": {"ios": "https://dc.lft.to/lastmile_qr_scan", "android": "https://dc.lft.to/lastmile_qr_scan"}, "fusion_lat": 0.0, "name": "5595aeb52f72818e5de4e8a573d28fe3", "bike_id": "5595aeb52f72818e5de4e8a573d28fe3", "is_disabled": 0, "type": "electric_scooter", "lat": 38.954068166666666, "lon": -77.02793066666666, "is_reserved": 0, "fusion_lon": 0.0}, {"rental_uris": {"ios": "https://dc.lft.to/lastmile_qr_scan", "android": "https://dc.lft.to/lastmile_qr_scan"}, "fusion_lat": 0.0, "name": "a258328b04fc815899c602cc4ccd8c9c", "bike_id": "a258328b04fc815899c602cc4ccd8c9c", "is_disabled": 0, "type": "electric_scooter", "lat": 38.957870666666665, "lon": -77.02747016666666, "is_reserved": 0, "fusion_lon": 0.0}, {"rental_uris": {"ios": "https://dc.lft.to/lastmile_qr_scan", "android": "https://dc.lft.to/lastmile_qr_scan"}, "fusion_lat": 0.0, "name": "b86df384fd4a60afd1617c0f2a29eafa", "bike_id": "b86df384fd4a60afd1617c0f2a29eafa", "is_disabled": 0, "type": "electric_scooter", "lat": 38.915591166666665, "lon": -77.022139, "is_reserved": 0, "fusion_lon": 0.0}, {"rental_uris": {"ios": "https://dc.lft.to/lastmile_qr_scan", "android": "https://dc.lft.to/lastmile_qr_scan"}, "fusion_lat": 0.0, "name": "96e28b7432bc77b9aa10e35d5d1a14d5", "bike_id": "96e28b7432bc77b9aa10e35d5d1a14d5", "is_disabled": 0, "type": "electric_scooter", "lat": 38.92347616666667, "lon": -77.0512275, "is_reserved": 0, "fusion_lon": 0.0}, {"rental_uris": {"ios": "https://dc.lft.to/lastmile_qr_scan", "android": "https://dc.lft.to/lastmile_qr_scan"}, "fusion_lat": 0.0, "name": "beb5ff882e518711f3130d344d5e5f32", "bike_id": "beb5ff882e518711f3130d344d5e5f32", "is_disabled": 0, "type": "electric_scooter", "lat": 38.9170895, "lon": -77.03882783333333, "is_reserved": 0, "fusion_lon": 0.0}, {"rental_uris": {"ios": "https://dc.lft.to/lastmile_qr_scan", "android": "https://dc.lft.to/lastmile_qr_scan"}, "fusion_lat": 0.0, "name": "9d0a5580b982d2e462abcab23b50d5d6", "bike_id": "9d0a5580b982d2e462abcab23b50d5d6", "is_disabled": 0, "type": "electric_scooter", "lat": 38.89350916666667, "lon": -77.01167683333334, "is_reserved": 0, "fusion_lon": 0.0}, {"rental_uris": {"ios": "https://dc.lft.to/lastmile_qr_scan", "android": "https://dc.lft.to/lastmile_qr_scan"}, "fusion_lat": 0.0, "name": "f3e348d9984f272232d3ba4af1b70b19", "bike_id": "f3e348d9984f272232d3ba4af1b70b19", "is_disabled": 0, "type": "electric_scooter", "lat": 38.9043, "lon": -77.04351983333333, "is_reserved": 0, "fusion_lon": 0.0}, {"rental_uris": {"ios": "https://dc.lft.to/lastmile_qr_scan", "android": "https://dc.lft.to/lastmile_qr_scan"}, "fusion_lat": 0.0, "name": "c49466cc2c1c56a679719bc916ea9f84", "bike_id": "c49466cc2c1c56a679719bc916ea9f84", "is_disabled": 0, "type": "electric_scooter", "lat": 38.90815, "lon": -77.04350783333334, "is_reserved": 0, "fusion_lon": 0.0}, {"rental_uris": {"ios": "https://dc.lft.to/lastmile_qr_scan", "android": "https://dc.lft.to/lastmile_qr_scan"}, "fusion_lat": 0.0, "name": "7147377a9315021cf923a1e44816ee41", "bike_id": "7147377a9315021cf923a1e44816ee41", "is_disabled": 0, "type": "electric_scooter", "lat": 38.93198316666667, "lon": -77.028326, "is_reserved": 0, "fusion_lon": 0.0}, {"rental_uris": {"ios": "https://dc.lft.to/lastmile_qr_scan", "android": "https://dc.lft.to/lastmile_qr_scan"}, "fusion_lat": 0.0, "name": "3669918c9b0b1500ba3b2c98e05875e5", "bike_id": "3669918c9b0b1500ba3b2c98e05875e5", "is_disabled": 0, "type": "electric_scooter", "lat": 38.921742, "lon": -77.04022383333333, "is_reserved": 0, "fusion_lon": 0.0}, {"rental_uris": {"ios": "https://dc.lft.to/lastmile_qr_scan", "android": "https://dc.lft.to/lastmile_qr_scan"}, "fusion_lat": 0.0, "name": "7c25425114e1e43b3bca9a15fac858e7", "bike_id": "7c25425114e1e43b3bca9a15fac858e7", "is_disabled": 0, "type": "electric_scooter", "lat": 38.903772833333335, "lon": -77.032146, "is_reserved": 0, "fusion_lon": 0.0}, {"rental_uris": {"ios": "https://dc.lft.to/lastmile_qr_scan", "android": "https://dc.lft.to/lastmile_qr_scan"}, "fusion_lat": 0.0, "name": "aa67fb7a468da962daf5e4e0e0c7c852", "bike_id": "aa67fb7a468da962daf5e4e0e0c7c852", "is_disabled": 0, "type": "electric_bike", "lat": 38.93361766666666, "lon": -77.09958383333333, "is_reserved": 0, "fusion_lon": 0.0}, {"rental_uris": {"ios": "https://dc.lft.to/lastmile_qr_scan", "android": "https://dc.lft.to/lastmile_qr_scan"}, "fusion_lat": 0.0, "name": "1bf4e37c5bfc1eea9aa7fed3aefad499", "bike_id": "1bf4e37c5bfc1eea9aa7fed3aefad499", "is_disabled": 0, "type": "electric_bike", "lat": 38.94926433333333, "lon": -77.0079905, "is_reserved": 0, "fusion_lon": 0.0}, {"rental_uris": {"ios": "https://dc.lft.to/lastmile_qr_scan", "android": "https://dc.lft.to/lastmile_qr_scan"}, "fusion_lat": 0.0, "name": "ecf5b62338c0986f1accb853c17c91c0", "bike_id": "ecf5b62338c0986f1accb853c17c91c0", "is_disabled": 0, "type": "electric_scooter", "lat": 38.922342, "lon": -77.02976583333333, "is_reserved": 0, "fusion_lon": 0.0}, {"rental_uris": {"ios": "https://dc.lft.to/lastmile_qr_scan", "android": "https://dc.lft.to/lastmile_qr_scan"}, "fusion_lat": 0.0, "name": "3c0b8845b14b3a27dfa75c266773ef78", "bike_id": "3c0b8845b14b3a27dfa75c266773ef78", "is_disabled": 0, "type": "electric_bike", "lat": 39.0633085, "lon": -77.12619316666667, "is_reserved": 0, "fusion_lon": 0.0}, {"rental_uris": {"ios": "https://dc.lft.to/lastmile_qr_scan", "android": "https://dc.lft.to/lastmile_qr_scan"}, "fusion_lat": 0.0, "name": "c755eb74755e499b248f87afeffc6d52", "bike_id": "c755eb74755e499b248f87afeffc6d52", "is_disabled": 0, "type": "electric_scooter", "lat": 38.9028485, "lon": -77.0386195, "is_reserved": 0, "fusion_lon": 0.0}, {"rental_uris": {"ios": "https://dc.lft.to/lastmile_qr_scan", "android": "https://dc.lft.to/lastmile_qr_scan"}, "fusion_lat": 0.0, "name": "fa4166ea7c67ae732594c861b089e0ae", "bike_id": "fa4166ea7c67ae732594c861b089e0ae", "is_disabled": 0, "type": "electric_scooter", "lat": 38.913384666666666, "lon": -77.031676, "is_reserved": 0, "fusion_lon": 0.0}, {"rental_uris": {"ios": "https://dc.lft.to/lastmile_qr_scan", "android": "https://dc.lft.to/lastmile_qr_scan"}, "fusion_lat": 0.0, "name": "65f2510d1dc202c8473cf20a2942e279", "bike_id": "65f2510d1dc202c8473cf20a2942e279", "is_disabled": 0, "type": "electric_scooter", "lat": 38.956451333333334, "lon": -77.03292516666667, "is_reserved": 0, "fusion_lon": 0.0}, {"rental_uris": {"ios": "https://dc.lft.to/lastmile_qr_scan", "android": "https://dc.lft.to/lastmile_qr_scan"}, "fusion_lat": 0.0, "name": "adcc04ac13313ad43fad4ef43a635baa", "bike_id": "adcc04ac13313ad43fad4ef43a635baa", "is_disabled": 0, "type": "electric_scooter", "lat": 38.9047755, "lon": -77.04487266666666, "is_reserved": 0, "fusion_lon": 0.0}, {"rental_uris": {"ios": "https://dc.lft.to/lastmile_qr_scan", "android": "https://dc.lft.to/lastmile_qr_scan"}, "fusion_lat": 0.0, "name": "b4d4feed3f16fd255724f7fc6e1d4f81", "bike_id": "b4d4feed3f16fd255724f7fc6e1d4f81", "is_disabled": 0, "type": "electric_scooter", "lat": 38.92491583333333, "lon": -77.02722566666667, "is_reserved": 0, "fusion_lon": 0.0}, {"rental_uris": {"ios": "https://dc.lft.to/lastmile_qr_scan", "android": "https://dc.lft.to/lastmile_qr_scan"}, "fusion_lat": 0.0, "name": "d74ebf47a0625be88c92bf3eea6978e3", "bike_id": "d74ebf47a0625be88c92bf3eea6978e3", "is_disabled": 0, "type": "electric_scooter", "lat": 38.91493916666667, "lon": -77.03211566666667, "is_reserved": 0, "fusion_lon": 0.0}, {"rental_uris": {"ios": "https://dc.lft.to/lastmile_qr_scan", "android": "https://dc.lft.to/lastmile_qr_scan"}, "fusion_lat": 0.0, "name": "4508d4ca476552fd8da164bbdad35e45", "bike_id": "4508d4ca476552fd8da164bbdad35e45", "is_disabled": 0, "type": "electric_scooter", "lat": 38.91429633333333, "lon": -77.03183316666667, "is_reserved": 0, "fusion_lon": 0.0}, {"rental_uris": {"ios": "https://dc.lft.to/lastmile_qr_scan", "android": "https://dc.lft.to/lastmile_qr_scan"}, "fusion_lat": 0.0, "name": "6fdafd363847dfded7106fc25d7840c5", "bike_id": "6fdafd363847dfded7106fc25d7840c5", "is_disabled": 0, "type": "electric_scooter", "lat": 38.912284, "lon": -77.041288, "is_reserved": 0, "fusion_lon": 0.0}, {"rental_uris": {"ios": "https://dc.lft.to/lastmile_qr_scan", "android": "https://dc.lft.to/lastmile_qr_scan"}, "fusion_lat": 0.0, "name": "32bc2d13fe2f1394331aebf7fc87382b", "bike_id": "32bc2d13fe2f1394331aebf7fc87382b", "is_disabled": 0, "type": "electric_scooter", "lat": 38.901758666666666, "lon": -77.04869533333333, "is_reserved": 0, "fusion_lon": 0.0}, {"rental_uris": {"ios": "https://dc.lft.to/lastmile_qr_scan", "android": "https://dc.lft.to/lastmile_qr_scan"}, "fusion_lat": 0.0, "name": "728c752b3c59ba7b0bfd9116cb9ec890", "bike_id": "728c752b3c59ba7b0bfd9116cb9ec890", "is_disabled": 0, "type": "electric_scooter", "lat": 38.91562583333334, "lon": -77.03145416666666, "is_reserved": 0, "fusion_lon": 0.0}, {"rental_uris": {"ios": "https://dc.lft.to/lastmile_qr_scan", "android": "https://dc.lft.to/lastmile_qr_scan"}, "fusion_lat": 0.0, "name": "e0ae38c76702b9de7e7eb460f1c03303", "bike_id": "e0ae38c76702b9de7e7eb460f1c03303", "is_disabled": 0, "type": "electric_scooter", "lat": 38.939437166666664, "lon": -77.07522233333333, "is_reserved": 0, "fusion_lon": 0.0}, {"rental_uris": {"ios": "https://dc.lft.to/lastmile_qr_scan", "android": "https://dc.lft.to/lastmile_qr_scan"}, "fusion_lat": 0.0, "name": "e2a5a02ddcf97d3bd070dc7d8089ee33", "bike_id": "e2a5a02ddcf97d3bd070dc7d8089ee33", "is_disabled": 0, "type": "electric_scooter", "lat": 38.895518833333334, "lon": -77.00914466666667, "is_reserved": 0, "fusion_lon": 0.0}, {"rental_uris": {"ios": "https://dc.lft.to/lastmile_qr_scan", "android": "https://dc.lft.to/lastmile_qr_scan"}, "fusion_lat": 0.0, "name": "bb64777d272799c74dc3a4e8a6c6337d", "bike_id": "bb64777d272799c74dc3a4e8a6c6337d", "is_disabled": 0, "type": "electric_bike", "lat": 38.8846275, "lon": -76.99566066666667, "is_reserved": 0, "fusion_lon": 0.0}, {"rental_uris": {"ios": "https://dc.lft.to/lastmile_qr_scan", "android": "https://dc.lft.to/lastmile_qr_scan"}, "fusion_lat": 0.0, "name": "cd8b22574d0d92b2d52d56d5a8d5a602", "bike_id": "cd8b22574d0d92b2d52d56d5a8d5a602", "is_disabled": 0, "type": "electric_scooter", "lat": 38.919050166666665, "lon": -77.02408983333333, "is_reserved": 0, "fusion_lon": 0.0}, {"rental_uris": {"ios": "https://dc.lft.to/lastmile_qr_scan", "android": "https://dc.lft.to/lastmile_qr_scan"}, "fusion_lat": 0.0, "name": "138ea6adf42294eb6b0d7cc253ee43c1", "bike_id": "138ea6adf42294eb6b0d7cc253ee43c1", "is_disabled": 0, "type": "electric_scooter", "lat": 38.930751, "lon": -77.02152916666667, "is_reserved": 0, "fusion_lon": 0.0}, {"rental_uris": {"ios": "https://dc.lft.to/lastmile_qr_scan", "android": "https://dc.lft.to/lastmile_qr_scan"}, "fusion_lat": 0.0, "name": "456347849ea807f973b8bf004f441ee2", "bike_id": "456347849ea807f973b8bf004f441ee2", "is_disabled": 0, "type": "electric_scooter", "lat": 38.929871166666665, "lon": -77.05503683333333, "is_reserved": 0, "fusion_lon": 0.0}, {"rental_uris": {"ios": "https://dc.lft.to/lastmile_qr_scan", "android": "https://dc.lft.to/lastmile_qr_scan"}, "fusion_lat": 0.0, "name": "164cf4c579a99e8fb0a7dcb30cc9e031", "bike_id": "164cf4c579a99e8fb0a7dcb30cc9e031", "is_disabled": 0, "type": "electric_scooter", "lat": 38.920543333333335, "lon": -77.02579983333334, "is_reserved": 0, "fusion_lon": 0.0}, {"rental_uris": {"ios": "https://dc.lft.to/lastmile_qr_scan", "android": "https://dc.lft.to/lastmile_qr_scan"}, "fusion_lat": 0.0, "name": "2b1c9808d348629fbace039a44efd3e3", "bike_id": "2b1c9808d348629fbace039a44efd3e3", "is_disabled": 0, "type": "electric_scooter", "lat": 38.90217333333333, "lon": -77.02311816666666, "is_reserved": 0, "fusion_lon": 0.0}, {"rental_uris": {"ios": "https://dc.lft.to/lastmile_qr_scan", "android": "https://dc.lft.to/lastmile_qr_scan"}, "fusion_lat": 0.0, "name": "03742995ac7e0a257ce7a3baf8727338", "bike_id": "03742995ac7e0a257ce7a3baf8727338", "is_disabled": 0, "type": "electric_scooter", "lat": 38.903332, "lon": -76.97594466666666, "is_reserved": 0, "fusion_lon": 0.0}, {"rental_uris": {"ios": "https://dc.lft.to/lastmile_qr_scan", "android": "https://dc.lft.to/lastmile_qr_scan"}, "fusion_lat": 0.0, "name": "eeec3184680e427dee77940c475c5fe3", "bike_id": "eeec3184680e427dee77940c475c5fe3", "is_disabled": 0, "type": "electric_scooter", "lat": 38.91746966666667, "lon": -77.0318425, "is_reserved": 0, "fusion_lon": 0.0}, {"rental_uris": {"ios": "https://dc.lft.to/lastmile_qr_scan", "android": "https://dc.lft.to/lastmile_qr_scan"}, "fusion_lat": 0.0, "name": "d10e353f819e18b7129164e3ba2ec676", "bike_id": "d10e353f819e18b7129164e3ba2ec676", "is_disabled": 0, "type": "electric_scooter", "lat": 38.90320633333333, "lon": -77.02507916666667, "is_reserved": 0, "fusion_lon": 0.0}, {"rental_uris": {"ios": "https://dc.lft.to/lastmile_qr_scan", "android": "https://dc.lft.to/lastmile_qr_scan"}, "fusion_lat": 0.0, "name": "f267d9189d29a9a0042e628166e2d606", "bike_id": "f267d9189d29a9a0042e628166e2d606", "is_disabled": 0, "type": "electric_scooter", "lat": 38.90871766666667, "lon": -77.04589183333333, "is_reserved": 0, "fusion_lon": 0.0}, {"rental_uris": {"ios": "https://dc.lft.to/lastmile_qr_scan", "android": "https://dc.lft.to/lastmile_qr_scan"}, "fusion_lat": 0.0, "name": "e74b1f30c36c049b27774a7c6a4ae9bd", "bike_id": "e74b1f30c36c049b27774a7c6a4ae9bd", "is_disabled": 0, "type": "electric_scooter", "lat": 38.90305983333333, "lon": -77.038619, "is_reserved": 0, "fusion_lon": 0.0}, {"rental_uris": {"ios": "https://dc.lft.to/lastmile_qr_scan", "android": "https://dc.lft.to/lastmile_qr_scan"}, "fusion_lat": 0.0, "name": "3b8ed252654d3b9ce5e474372ae01073", "bike_id": "3b8ed252654d3b9ce5e474372ae01073", "is_disabled": 0, "type": "electric_scooter", "lat": 38.9127895, "lon": -77.07823033333334, "is_reserved": 0, "fusion_lon": 0.0}, {"rental_uris": {"ios": "https://dc.lft.to/lastmile_qr_scan", "android": "https://dc.lft.to/lastmile_qr_scan"}, "fusion_lat": 0.0, "name": "6db206d9fccf74ceae7bf60f60b4e227", "bike_id": "6db206d9fccf74ceae7bf60f60b4e227", "is_disabled": 0, "type": "electric_scooter", "lat": 38.9171, "lon": -77.03472666666667, "is_reserved": 0, "fusion_lon": 0.0}, {"rental_uris": {"ios": "https://dc.lft.to/lastmile_qr_scan", "android": "https://dc.lft.to/lastmile_qr_scan"}, "fusion_lat": 0.0, "name": "0c6267dbd4ca03d33f39068f4a01bd74", "bike_id": "0c6267dbd4ca03d33f39068f4a01bd74", "is_disabled": 0, "type": "electric_scooter", "lat": 38.91407916666667, "lon": -77.0130735, "is_reserved": 0, "fusion_lon": 0.0}, {"rental_uris": {"ios": "https://dc.lft.to/lastmile_qr_scan", "android": "https://dc.lft.to/lastmile_qr_scan"}, "fusion_lat": 0.0, "name": "d076d403d2794c24cfb5f39e842adfbc", "bike_id": "d076d403d2794c24cfb5f39e842adfbc", "is_disabled": 0, "type": "electric_scooter", "lat": 38.90963583333333, "lon": -77.03313266666666, "is_reserved": 0, "fusion_lon": 0.0}, {"rental_uris": {"ios": "https://dc.lft.to/lastmile_qr_scan", "android": "https://dc.lft.to/lastmile_qr_scan"}, "fusion_lat": 0.0, "name": "5d7334cff7dbba5cc941b58b0310f383", "bike_id": "5d7334cff7dbba5cc941b58b0310f383", "is_disabled": 0, "type": "electric_scooter", "lat": 38.9166585, "lon": -77.02191016666667, "is_reserved": 0, "fusion_lon": 0.0}, {"rental_uris": {"ios": "https://dc.lft.to/lastmile_qr_scan", "android": "https://dc.lft.to/lastmile_qr_scan"}, "fusion_lat": 0.0, "name": "9fb2e14fb42847da5aa4ad7537915334", "bike_id": "9fb2e14fb42847da5aa4ad7537915334", "is_disabled": 0, "type": "electric_scooter", "lat": 38.86115566666667, "lon": -76.983707, "is_reserved": 0, "fusion_lon": 0.0}, {"rental_uris": {"ios": "https://dc.lft.to/lastmile_qr_scan", "android": "https://dc.lft.to/lastmile_qr_scan"}, "fusion_lat": 0.0, "name": "d72e0c8d19e610b466a1f7721f1632ef", "bike_id": "d72e0c8d19e610b466a1f7721f1632ef", "is_disabled": 0, "type": "electric_scooter", "lat": 38.930509666666666, "lon": -77.02656383333333, "is_reserved": 0, "fusion_lon": 0.0}, {"rental_uris": {"ios": "https://dc.lft.to/lastmile_qr_scan", "android": "https://dc.lft.to/lastmile_qr_scan"}, "fusion_lat": 0.0, "name": "b59325b9fead30d7f925c34a2cf119ba", "bike_id": "b59325b9fead30d7f925c34a2cf119ba", "is_disabled": 0, "type": "electric_scooter", "lat": 38.908350166666665, "lon": -77.03466433333334, "is_reserved": 0, "fusion_lon": 0.0}, {"rental_uris": {"ios": "https://dc.lft.to/lastmile_qr_scan", "android": "https://dc.lft.to/lastmile_qr_scan"}, "fusion_lat": 0.0, "name": "4f962d7c6ad8a48a6b132b013d8b6f6a", "bike_id": "4f962d7c6ad8a48a6b132b013d8b6f6a", "is_disabled": 0, "type": "electric_scooter", "lat": 38.90447416666667, "lon": -77.06119066666666, "is_reserved": 0, "fusion_lon": 0.0}, {"rental_uris": {"ios": "https://dc.lft.to/lastmile_qr_scan", "android": "https://dc.lft.to/lastmile_qr_scan"}, "fusion_lat": 0.0, "name": "abfb429ed18f1e97c4dedbd727fe5de2", "bike_id": "abfb429ed18f1e97c4dedbd727fe5de2", "is_disabled": 0, "type": "electric_scooter", "lat": 38.9397285, "lon": -77.0325485, "is_reserved": 0, "fusion_lon": 0.0}, {"rental_uris": {"ios": "https://dc.lft.to/lastmile_qr_scan", "android": "https://dc.lft.to/lastmile_qr_scan"}, "fusion_lat": 0.0, "name": "2462df357852b17396b4e864b71a2ecd", "bike_id": "2462df357852b17396b4e864b71a2ecd", "is_disabled": 0, "type": "electric_scooter", "lat": 38.915538, "lon": -77.0220955, "is_reserved": 0, "fusion_lon": 0.0}, {"rental_uris": {"ios": "https://dc.lft.to/lastmile_qr_scan", "android": "https://dc.lft.to/lastmile_qr_scan"}, "fusion_lat": 0.0, "name": "85ceeeb17c869b3755c045ba54950293", "bike_id": "85ceeeb17c869b3755c045ba54950293", "is_disabled": 0, "type": "electric_scooter", "lat": 38.91858383333334, "lon": -77.040359, "is_reserved": 0, "fusion_lon": 0.0}, {"rental_uris": {"ios": "https://dc.lft.to/lastmile_qr_scan", "android": "https://dc.lft.to/lastmile_qr_scan"}, "fusion_lat": 0.0, "name": "d60187bf18034e93a58dac62cf795865", "bike_id": "d60187bf18034e93a58dac62cf795865", "is_disabled": 0, "type": "electric_scooter", "lat": 38.876702333333334, "lon": -77.01799066666666, "is_reserved": 0, "fusion_lon": 0.0}, {"rental_uris": {"ios": "https://dc.lft.to/lastmile_qr_scan", "android": "https://dc.lft.to/lastmile_qr_scan"}, "fusion_lat": 0.0, "name": "d93c01c67111164887bddf3b8bb52e55", "bike_id": "d93c01c67111164887bddf3b8bb52e55", "is_disabled": 0, "type": "electric_scooter", "lat": 38.905742000000004, "lon": -77.03449116666667, "is_reserved": 0, "fusion_lon": 0.0}, {"rental_uris": {"ios": "https://dc.lft.to/lastmile_qr_scan", "android": "https://dc.lft.to/lastmile_qr_scan"}, "fusion_lat": 0.0, "name": "240425b7e978d34160049c713e43b72a", "bike_id": "240425b7e978d34160049c713e43b72a", "is_disabled": 0, "type": "electric_scooter", "lat": 38.93892916666667, "lon": -77.0248415, "is_reserved": 0, "fusion_lon": 0.0}, {"rental_uris": {"ios": "https://dc.lft.to/lastmile_qr_scan", "android": "https://dc.lft.to/lastmile_qr_scan"}, "fusion_lat": 0.0, "name": "9c07e8f3fc7540a3379f738a9c609f9a", "bike_id": "9c07e8f3fc7540a3379f738a9c609f9a", "is_disabled": 0, "type": "electric_bike", "lat": 38.848501666666664, "lon": -77.098469, "is_reserved": 0, "fusion_lon": 0.0}, {"rental_uris": {"ios": "https://dc.lft.to/lastmile_qr_scan", "android": "https://dc.lft.to/lastmile_qr_scan"}, "fusion_lat": 0.0, "name": "2c8164b4f5913b594fa1f96c26f93983", "bike_id": "2c8164b4f5913b594fa1f96c26f93983", "is_disabled": 0, "type": "electric_bike", "lat": 38.96693033333333, "lon": -77.0884145, "is_reserved": 0, "fusion_lon": 0.0}, {"rental_uris": {"ios": "https://dc.lft.to/lastmile_qr_scan", "android": "https://dc.lft.to/lastmile_qr_scan"}, "fusion_lat": 0.0, "name": "0c2928d1e9dad2eeaf8fcfd08ec5c0be", "bike_id": "0c2928d1e9dad2eeaf8fcfd08ec5c0be", "is_disabled": 0, "type": "electric_scooter", "lat": 38.905810833333334, "lon": -77.04098783333333, "is_reserved": 0, "fusion_lon": 0.0}, {"rental_uris": {"ios": "https://dc.lft.to/lastmile_qr_scan", "android": "https://dc.lft.to/lastmile_qr_scan"}, "fusion_lat": 0.0, "name": "4ced5ed0825976ea8121271865bad3c2", "bike_id": "4ced5ed0825976ea8121271865bad3c2", "is_disabled": 0, "type": "electric_scooter", "lat": 38.91915983333333, "lon": -77.0213715, "is_reserved": 0, "fusion_lon": 0.0}, {"rental_uris": {"ios": "https://dc.lft.to/lastmile_qr_scan", "android": "https://dc.lft.to/lastmile_qr_scan"}, "fusion_lat": 0.0, "name": "746eea6f435a339cdc3301310804305a", "bike_id": "746eea6f435a339cdc3301310804305a", "is_disabled": 0, "type": "electric_bike", "lat": 38.85609633333333, "lon": -77.11242333333334, "is_reserved": 0, "fusion_lon": 0.0}, {"rental_uris": {"ios": "https://dc.lft.to/lastmile_qr_scan", "android": "https://dc.lft.to/lastmile_qr_scan"}, "fusion_lat": 0.0, "name": "e9acbfbebd2bc9460ebc888809501b09", "bike_id": "e9acbfbebd2bc9460ebc888809501b09", "is_disabled": 0, "type": "electric_bike", "lat": 38.88997233333333, "lon": -76.95408333333333, "is_reserved": 0, "fusion_lon": 0.0}, {"rental_uris": {"ios": "https://dc.lft.to/lastmile_qr_scan", "android": "https://dc.lft.to/lastmile_qr_scan"}, "fusion_lat": 0.0, "name": "a86be7e3f775eca29510289b83bb07dc", "bike_id": "a86be7e3f775eca29510289b83bb07dc", "is_disabled": 0, "type": "electric_scooter", "lat": 38.919587666666665, "lon": -77.0249335, "is_reserved": 0, "fusion_lon": 0.0}, {"rental_uris": {"ios": "https://dc.lft.to/lastmile_qr_scan", "android": "https://dc.lft.to/lastmile_qr_scan"}, "fusion_lat": 0.0, "name": "6e76498db391a4ff3030b4e9d765652e", "bike_id": "6e76498db391a4ff3030b4e9d765652e", "is_disabled": 0, "type": "electric_scooter", "lat": 38.93416366666666, "lon": -77.0415955, "is_reserved": 0, "fusion_lon": 0.0}, {"rental_uris": {"ios": "https://dc.lft.to/lastmile_qr_scan", "android": "https://dc.lft.to/lastmile_qr_scan"}, "fusion_lat": 0.0, "name": "218ec3a8ab75f3e510b9789345e2ab26", "bike_id": "218ec3a8ab75f3e510b9789345e2ab26", "is_disabled": 0, "type": "electric_scooter", "lat": 38.918176, "lon": -77.032533, "is_reserved": 0, "fusion_lon": 0.0}, {"rental_uris": {"ios": "https://dc.lft.to/lastmile_qr_scan", "android": "https://dc.lft.to/lastmile_qr_scan"}, "fusion_lat": 0.0, "name": "d48231b5cc66205ed191df33c6c76fb7", "bike_id": "d48231b5cc66205ed191df33c6c76fb7", "is_disabled": 0, "type": "electric_scooter", "lat": 38.9295685, "lon": -76.99089216666667, "is_reserved": 0, "fusion_lon": 0.0}, {"rental_uris": {"ios": "https://dc.lft.to/lastmile_qr_scan", "android": "https://dc.lft.to/lastmile_qr_scan"}, "fusion_lat": 0.0, "name": "7b657aba0907aae4d0f59f5b799087a7", "bike_id": "7b657aba0907aae4d0f59f5b799087a7", "is_disabled": 0, "type": "electric_scooter", "lat": 38.90968616666667, "lon": -76.99603033333334, "is_reserved": 0, "fusion_lon": 0.0}, {"rental_uris": {"ios": "https://dc.lft.to/lastmile_qr_scan", "android": "https://dc.lft.to/lastmile_qr_scan"}, "fusion_lat": 0.0, "name": "15bd573883f7fe0cb0ca789a4eb0995f", "bike_id": "15bd573883f7fe0cb0ca789a4eb0995f", "is_disabled": 0, "type": "electric_scooter", "lat": 38.90368566666667, "lon": -77.03423833333333, "is_reserved": 0, "fusion_lon": 0.0}, {"rental_uris": {"ios": "https://dc.lft.to/lastmile_qr_scan", "android": "https://dc.lft.to/lastmile_qr_scan"}, "fusion_lat": 0.0, "name": "f873fed88adaa271688283c15fb65315", "bike_id": "f873fed88adaa271688283c15fb65315", "is_disabled": 0, "type": "electric_scooter", "lat": 38.920568333333335, "lon": -77.0418705, "is_reserved": 0, "fusion_lon": 0.0}, {"rental_uris": {"ios": "https://dc.lft.to/lastmile_qr_scan", "android": "https://dc.lft.to/lastmile_qr_scan"}, "fusion_lat": 0.0, "name": "efe8bf1d35742f09ae668f20fcb524df", "bike_id": "efe8bf1d35742f09ae668f20fcb524df", "is_disabled": 0, "type": "electric_scooter", "lat": 38.88724, "lon": -76.99605666666666, "is_reserved": 0, "fusion_lon": 0.0}, {"rental_uris": {"ios": "https://dc.lft.to/lastmile_qr_scan", "android": "https://dc.lft.to/lastmile_qr_scan"}, "fusion_lat": 0.0, "name": "0d817f61741164074a3c9b201cad8428", "bike_id": "0d817f61741164074a3c9b201cad8428", "is_disabled": 0, "type": "electric_scooter", "lat": 38.9156725, "lon": -77.01177883333334, "is_reserved": 0, "fusion_lon": 0.0}, {"rental_uris": {"ios": "https://dc.lft.to/lastmile_qr_scan", "android": "https://dc.lft.to/lastmile_qr_scan"}, "fusion_lat": 0.0, "name": "3965cb7f449273c2663dbfed68376371", "bike_id": "3965cb7f449273c2663dbfed68376371", "is_disabled": 0, "type": "electric_scooter", "lat": 38.910636833333335, "lon": -77.06195783333334, "is_reserved": 0, "fusion_lon": 0.0}, {"rental_uris": {"ios": "https://dc.lft.to/lastmile_qr_scan", "android": "https://dc.lft.to/lastmile_qr_scan"}, "fusion_lat": 0.0, "name": "ef142dadf8afd5d649cd92c3e4ca9274", "bike_id": "ef142dadf8afd5d649cd92c3e4ca9274", "is_disabled": 0, "type": "electric_scooter", "lat": 38.90377316666667, "lon": -77.03988783333334, "is_reserved": 0, "fusion_lon": 0.0}, {"rental_uris": {"ios": "https://dc.lft.to/lastmile_qr_scan", "android": "https://dc.lft.to/lastmile_qr_scan"}, "fusion_lat": 0.0, "name": "b58351eb449cdb024383b81e20c3ecb2", "bike_id": "b58351eb449cdb024383b81e20c3ecb2", "is_disabled": 0, "type": "electric_scooter", "lat": 38.90576516666667, "lon": -77.03757, "is_reserved": 0, "fusion_lon": 0.0}, {"rental_uris": {"ios": "https://dc.lft.to/lastmile_qr_scan", "android": "https://dc.lft.to/lastmile_qr_scan"}, "fusion_lat": 0.0, "name": "e14eb267ac8cc998d829f3951b9258b6", "bike_id": "e14eb267ac8cc998d829f3951b9258b6", "is_disabled": 0, "type": "electric_scooter", "lat": 38.903359, "lon": -77.038631, "is_reserved": 0, "fusion_lon": 0.0}, {"rental_uris": {"ios": "https://dc.lft.to/lastmile_qr_scan", "android": "https://dc.lft.to/lastmile_qr_scan"}, "fusion_lat": 0.0, "name": "ea9e6850c72749fbc974ed768efb44c1", "bike_id": "ea9e6850c72749fbc974ed768efb44c1", "is_disabled": 0, "type": "electric_scooter", "lat": 38.867216166666665, "lon": -76.9865145, "is_reserved": 0, "fusion_lon": 0.0}, {"rental_uris": {"ios": "https://dc.lft.to/lastmile_qr_scan", "android": "https://dc.lft.to/lastmile_qr_scan"}, "fusion_lat": 0.0, "name": "d7c96201f504bd767ab076321b09418a", "bike_id": "d7c96201f504bd767ab076321b09418a", "is_disabled": 0, "type": "electric_scooter", "lat": 38.9001545, "lon": -77.031652, "is_reserved": 0, "fusion_lon": 0.0}, {"rental_uris": {"ios": "https://dc.lft.to/lastmile_qr_scan", "android": "https://dc.lft.to/lastmile_qr_scan"}, "fusion_lat": 0.0, "name": "4575340cedfa2021744f775038cc86ff", "bike_id": "4575340cedfa2021744f775038cc86ff", "is_disabled": 0, "type": "electric_scooter", "lat": 38.91711633333333, "lon": -77.041242, "is_reserved": 0, "fusion_lon": 0.0}, {"rental_uris": {"ios": "https://dc.lft.to/lastmile_qr_scan", "android": "https://dc.lft.to/lastmile_qr_scan"}, "fusion_lat": 0.0, "name": "9f1200363375f78e93481297654c92ca", "bike_id": "9f1200363375f78e93481297654c92ca", "is_disabled": 0, "type": "electric_scooter", "lat": 38.892308666666665, "lon": -77.03183133333333, "is_reserved": 0, "fusion_lon": 0.0}, {"rental_uris": {"ios": "https://dc.lft.to/lastmile_qr_scan", "android": "https://dc.lft.to/lastmile_qr_scan"}, "fusion_lat": 0.0, "name": "e2c619146e04487b3b79b9f9cf74e8a4", "bike_id": "e2c619146e04487b3b79b9f9cf74e8a4", "is_disabled": 0, "type": "electric_scooter", "lat": 38.862471666666664, "lon": -76.99495583333334, "is_reserved": 0, "fusion_lon": 0.0}, {"rental_uris": {"ios": "https://dc.lft.to/lastmile_qr_scan", "android": "https://dc.lft.to/lastmile_qr_scan"}, "fusion_lat": 0.0, "name": "e3e80155b867763baf91dcc32b7ce6a0", "bike_id": "e3e80155b867763baf91dcc32b7ce6a0", "is_disabled": 0, "type": "electric_scooter", "lat": 38.92365566666667, "lon": -77.05127766666666, "is_reserved": 0, "fusion_lon": 0.0}, {"rental_uris": {"ios": "https://dc.lft.to/lastmile_qr_scan", "android": "https://dc.lft.to/lastmile_qr_scan"}, "fusion_lat": 0.0, "name": "db722283694c4d948a24b57ce16418ef", "bike_id": "db722283694c4d948a24b57ce16418ef", "is_disabled": 0, "type": "electric_scooter", "lat": 38.905279166666666, "lon": -77.06097266666667, "is_reserved": 0, "fusion_lon": 0.0}, {"rental_uris": {"ios": "https://dc.lft.to/lastmile_qr_scan", "android": "https://dc.lft.to/lastmile_qr_scan"}, "fusion_lat": 0.0, "name": "f606de852b5a5697b97aca460820b215", "bike_id": "f606de852b5a5697b97aca460820b215", "is_disabled": 0, "type": "electric_scooter", "lat": 38.892241, "lon": -77.03156966666667, "is_reserved": 0, "fusion_lon": 0.0}, {"rental_uris": {"ios": "https://dc.lft.to/lastmile_qr_scan", "android": "https://dc.lft.to/lastmile_qr_scan"}, "fusion_lat": 0.0, "name": "acf497c1dbd04908c626dcfc563ae7de", "bike_id": "acf497c1dbd04908c626dcfc563ae7de", "is_disabled": 0, "type": "electric_scooter", "lat": 38.862588, "lon": -76.99516016666666, "is_reserved": 0, "fusion_lon": 0.0}, {"rental_uris": {"ios": "https://dc.lft.to/lastmile_qr_scan", "android": "https://dc.lft.to/lastmile_qr_scan"}, "fusion_lat": 0.0, "name": "1475fcf4477eaf4c899647b0f239788b", "bike_id": "1475fcf4477eaf4c899647b0f239788b", "is_disabled": 0, "type": "electric_bike", "lat": 38.89355533333333, "lon": -77.187382, "is_reserved": 0, "fusion_lon": 0.0}, {"rental_uris": {"ios": "https://dc.lft.to/lastmile_qr_scan", "android": "https://dc.lft.to/lastmile_qr_scan"}, "fusion_lat": 0.0, "name": "be8585b123f46300ba93f1b149866946", "bike_id": "be8585b123f46300ba93f1b149866946", "is_disabled": 0, "type": "electric_scooter", "lat": 38.905541, "lon": -77.04563083333333, "is_reserved": 0, "fusion_lon": 0.0}, {"rental_uris": {"ios": "https://dc.lft.to/lastmile_qr_scan", "android": "https://dc.lft.to/lastmile_qr_scan"}, "fusion_lat": 0.0, "name": "07877975667f603c07c838bc47ecdbdf", "bike_id": "07877975667f603c07c838bc47ecdbdf", "is_disabled": 0, "type": "electric_bike", "lat": 38.86214366666667, "lon": -76.99779166666667, "is_reserved": 0, "fusion_lon": 0.0}, {"rental_uris": {"ios": "https://dc.lft.to/lastmile_qr_scan", "android": "https://dc.lft.to/lastmile_qr_scan"}, "fusion_lat": 0.0, "name": "57bdcc08d7261950824221bfbd9583d6", "bike_id": "57bdcc08d7261950824221bfbd9583d6", "is_disabled": 0, "type": "electric_scooter", "lat": 38.89884466666667, "lon": -76.9317375, "is_reserved": 0, "fusion_lon": 0.0}, {"rental_uris": {"ios": "https://dc.lft.to/lastmile_qr_scan", "android": "https://dc.lft.to/lastmile_qr_scan"}, "fusion_lat": 0.0, "name": "1049a6f6fb06ef453f5d7a37c5fe382f", "bike_id": "1049a6f6fb06ef453f5d7a37c5fe382f", "is_disabled": 0, "type": "electric_bike", "lat": 38.91354883333333, "lon": -77.03857466666666, "is_reserved": 0, "fusion_lon": 0.0}, {"rental_uris": {"ios": "https://dc.lft.to/lastmile_qr_scan", "android": "https://dc.lft.to/lastmile_qr_scan"}, "fusion_lat": 0.0, "name": "449b16734969b49c8d0aeee064dafb2e", "bike_id": "449b16734969b49c8d0aeee064dafb2e", "is_disabled": 0, "type": "electric_scooter", "lat": 38.928583, "lon": -77.03102283333334, "is_reserved": 0, "fusion_lon": 0.0}, {"rental_uris": {"ios": "https://dc.lft.to/lastmile_qr_scan", "android": "https://dc.lft.to/lastmile_qr_scan"}, "fusion_lat": 0.0, "name": "fc4a5d8e8c57b95414176d861c62f685", "bike_id": "fc4a5d8e8c57b95414176d861c62f685", "is_disabled": 0, "type": "electric_scooter", "lat": 38.8922915, "lon": -77.050073, "is_reserved": 0, "fusion_lon": 0.0}, {"rental_uris": {"ios": "https://dc.lft.to/lastmile_qr_scan", "android": "https://dc.lft.to/lastmile_qr_scan"}, "fusion_lat": 0.0, "name": "27e3b72df7a52b0026a665a429b26714", "bike_id": "27e3b72df7a52b0026a665a429b26714", "is_disabled": 0, "type": "electric_scooter", "lat": 38.918788666666664, "lon": -77.03559083333333, "is_reserved": 0, "fusion_lon": 0.0}, {"rental_uris": {"ios": "https://dc.lft.to/lastmile_qr_scan", "android": "https://dc.lft.to/lastmile_qr_scan"}, "fusion_lat": 0.0, "name": "4b9a70ad235de2c420cafe6c6d5d7ba9", "bike_id": "4b9a70ad235de2c420cafe6c6d5d7ba9", "is_disabled": 0, "type": "electric_scooter", "lat": 38.90755166666667, "lon": -77.00085216666666, "is_reserved": 0, "fusion_lon": 0.0}, {"rental_uris": {"ios": "https://dc.lft.to/lastmile_qr_scan", "android": "https://dc.lft.to/lastmile_qr_scan"}, "fusion_lat": 0.0, "name": "7d42d53bc338da8e413a1f30aab735f5", "bike_id": "7d42d53bc338da8e413a1f30aab735f5", "is_disabled": 0, "type": "electric_scooter", "lat": 38.92821466666667, "lon": -77.02873033333333, "is_reserved": 0, "fusion_lon": 0.0}, {"rental_uris": {"ios": "https://dc.lft.to/lastmile_qr_scan", "android": "https://dc.lft.to/lastmile_qr_scan"}, "fusion_lat": 0.0, "name": "57c00279b32a5e3439a0c706549a27c0", "bike_id": "57c00279b32a5e3439a0c706549a27c0", "is_disabled": 0, "type": "electric_bike", "lat": 38.87099, "lon": -77.01208616666666, "is_reserved": 0, "fusion_lon": 0.0}, {"rental_uris": {"ios": "https://dc.lft.to/lastmile_qr_scan", "android": "https://dc.lft.to/lastmile_qr_scan"}, "fusion_lat": 0.0, "name": "3313ff86b85958acf49a0190f5f31339", "bike_id": "3313ff86b85958acf49a0190f5f31339", "is_disabled": 0, "type": "electric_scooter", "lat": 38.91604383333333, "lon": -77.03193133333333, "is_reserved": 0, "fusion_lon": 0.0}, {"rental_uris": {"ios": "https://dc.lft.to/lastmile_qr_scan", "android": "https://dc.lft.to/lastmile_qr_scan"}, "fusion_lat": 0.0, "name": "949fac2210b5087d43ba8d5713746eb9", "bike_id": "949fac2210b5087d43ba8d5713746eb9", "is_disabled": 0, "type": "electric_scooter", "lat": 38.866561833333336, "lon": -76.98520933333333, "is_reserved": 0, "fusion_lon": 0.0}, {"rental_uris": {"ios": "https://dc.lft.to/lastmile_qr_scan", "android": "https://dc.lft.to/lastmile_qr_scan"}, "fusion_lat": 0.0, "name": "b64fc964bcbdcd65908e7ef5686c35df", "bike_id": "b64fc964bcbdcd65908e7ef5686c35df", "is_disabled": 0, "type": "electric_scooter", "lat": 38.914243166666665, "lon": -77.03927733333333, "is_reserved": 0, "fusion_lon": 0.0}, {"rental_uris": {"ios": "https://dc.lft.to/lastmile_qr_scan", "android": "https://dc.lft.to/lastmile_qr_scan"}, "fusion_lat": 0.0, "name": "505556336baabac20ba2980c116631e8", "bike_id": "505556336baabac20ba2980c116631e8", "is_disabled": 0, "type": "electric_scooter", "lat": 38.91860916666667, "lon": -77.038986, "is_reserved": 0, "fusion_lon": 0.0}, {"rental_uris": {"ios": "https://dc.lft.to/lastmile_qr_scan", "android": "https://dc.lft.to/lastmile_qr_scan"}, "fusion_lat": 0.0, "name": "339c7af819ee51033bf6aa82b6f46ebd", "bike_id": "339c7af819ee51033bf6aa82b6f46ebd", "is_disabled": 0, "type": "electric_scooter", "lat": 38.90254916666667, "lon": -76.97705916666666, "is_reserved": 0, "fusion_lon": 0.0}, {"rental_uris": {"ios": "https://dc.lft.to/lastmile_qr_scan", "android": "https://dc.lft.to/lastmile_qr_scan"}, "fusion_lat": 0.0, "name": "a47e5eb389694050e73a146796517e06", "bike_id": "a47e5eb389694050e73a146796517e06", "is_disabled": 0, "type": "electric_scooter", "lat": 38.9195515, "lon": -76.98082866666667, "is_reserved": 0, "fusion_lon": 0.0}, {"rental_uris": {"ios": "https://dc.lft.to/lastmile_qr_scan", "android": "https://dc.lft.to/lastmile_qr_scan"}, "fusion_lat": 0.0, "name": "9975b354212a4735a652097ae16e9f6e", "bike_id": "9975b354212a4735a652097ae16e9f6e", "is_disabled": 0, "type": "electric_scooter", "lat": 38.9308595, "lon": -77.034224, "is_reserved": 0, "fusion_lon": 0.0}, {"rental_uris": {"ios": "https://dc.lft.to/lastmile_qr_scan", "android": "https://dc.lft.to/lastmile_qr_scan"}, "fusion_lat": 0.0, "name": "0fbffad693120c0a3fca69911b5136f7", "bike_id": "0fbffad693120c0a3fca69911b5136f7", "is_disabled": 0, "type": "electric_scooter", "lat": 38.902503833333334, "lon": -77.03881366666667, "is_reserved": 0, "fusion_lon": 0.0}, {"rental_uris": {"ios": "https://dc.lft.to/lastmile_qr_scan", "android": "https://dc.lft.to/lastmile_qr_scan"}, "fusion_lat": 0.0, "name": "90b0592613ab1b6f98403cc76094251d", "bike_id": "90b0592613ab1b6f98403cc76094251d", "is_disabled": 0, "type": "electric_scooter", "lat": 38.8990325, "lon": -77.0401745, "is_reserved": 0, "fusion_lon": 0.0}, {"rental_uris": {"ios": "https://dc.lft.to/lastmile_qr_scan", "android": "https://dc.lft.to/lastmile_qr_scan"}, "fusion_lat": 0.0, "name": "597d9ec6ae66801ae14723c3476ece5a", "bike_id": "597d9ec6ae66801ae14723c3476ece5a", "is_disabled": 0, "type": "electric_scooter", "lat": 38.8852785, "lon": -77.0113355, "is_reserved": 0, "fusion_lon": 0.0}, {"rental_uris": {"ios": "https://dc.lft.to/lastmile_qr_scan", "android": "https://dc.lft.to/lastmile_qr_scan"}, "fusion_lat": 0.0, "name": "c014ebbdcd0de7c2eb5ba27f68e8ecba", "bike_id": "c014ebbdcd0de7c2eb5ba27f68e8ecba", "is_disabled": 0, "type": "electric_scooter", "lat": 38.959688666666665, "lon": -77.00857516666666, "is_reserved": 0, "fusion_lon": 0.0}, {"rental_uris": {"ios": "https://dc.lft.to/lastmile_qr_scan", "android": "https://dc.lft.to/lastmile_qr_scan"}, "fusion_lat": 0.0, "name": "3dd04d13c71b38cacd8ceea0708e84d9", "bike_id": "3dd04d13c71b38cacd8ceea0708e84d9", "is_disabled": 0, "type": "electric_bike", "lat": 38.86262633333333, "lon": -77.08845016666666, "is_reserved": 0, "fusion_lon": 0.0}, {"rental_uris": {"ios": "https://dc.lft.to/lastmile_qr_scan", "android": "https://dc.lft.to/lastmile_qr_scan"}, "fusion_lat": 0.0, "name": "c26f8807c60a941334410865584ac3fc", "bike_id": "c26f8807c60a941334410865584ac3fc", "is_disabled": 0, "type": "electric_bike", "lat": 38.95602133333333, "lon": -77.01017583333334, "is_reserved": 0, "fusion_lon": 0.0}, {"rental_uris": {"ios": "https://dc.lft.to/lastmile_qr_scan", "android": "https://dc.lft.to/lastmile_qr_scan"}, "fusion_lat": 0.0, "name": "ea0dfcae0a65e9d4628db0c8cd627795", "bike_id": "ea0dfcae0a65e9d4628db0c8cd627795", "is_disabled": 0, "type": "electric_scooter", "lat": 38.93197766666667, "lon": -77.0330725, "is_reserved": 0, "fusion_lon": 0.0}, {"rental_uris": {"ios": "https://dc.lft.to/lastmile_qr_scan", "android": "https://dc.lft.to/lastmile_qr_scan"}, "fusion_lat": 0.0, "name": "44d457b4cf51aac64548fb8405518488", "bike_id": "44d457b4cf51aac64548fb8405518488", "is_disabled": 0, "type": "electric_scooter", "lat": 38.95430483333333, "lon": -77.02764583333334, "is_reserved": 0, "fusion_lon": 0.0}, {"rental_uris": {"ios": "https://dc.lft.to/lastmile_qr_scan", "android": "https://dc.lft.to/lastmile_qr_scan"}, "fusion_lat": 0.0, "name": "2f5f1caa4190bca44d9cfcae08389c15", "bike_id": "2f5f1caa4190bca44d9cfcae08389c15", "is_disabled": 0, "type": "electric_scooter", "lat": 38.869585666666666, "lon": -76.96679483333334, "is_reserved": 0, "fusion_lon": 0.0}, {"rental_uris": {"ios": "https://dc.lft.to/lastmile_qr_scan", "android": "https://dc.lft.to/lastmile_qr_scan"}, "fusion_lat": 0.0, "name": "e4147e1a40f1cb4e93927c4f7a91fdca", "bike_id": "e4147e1a40f1cb4e93927c4f7a91fdca", "is_disabled": 0, "type": "electric_scooter", "lat": 38.88737066666667, "lon": -77.028224, "is_reserved": 0, "fusion_lon": 0.0}, {"rental_uris": {"ios": "https://dc.lft.to/lastmile_qr_scan", "android": "https://dc.lft.to/lastmile_qr_scan"}, "fusion_lat": 0.0, "name": "caedb634916c108c30b8a62ff043f213", "bike_id": "caedb634916c108c30b8a62ff043f213", "is_disabled": 0, "type": "electric_scooter", "lat": 38.9068855, "lon": -77.02693566666666, "is_reserved": 0, "fusion_lon": 0.0}, {"rental_uris": {"ios": "https://dc.lft.to/lastmile_qr_scan", "android": "https://dc.lft.to/lastmile_qr_scan"}, "fusion_lat": 0.0, "name": "5dd2260e2cfe6fbca343097f54aff043", "bike_id": "5dd2260e2cfe6fbca343097f54aff043", "is_disabled": 0, "type": "electric_bike", "lat": 38.863871833333334, "lon": -76.98988166666666, "is_reserved": 0, "fusion_lon": 0.0}, {"rental_uris": {"ios": "https://dc.lft.to/lastmile_qr_scan", "android": "https://dc.lft.to/lastmile_qr_scan"}, "fusion_lat": 0.0, "name": "de94a7d9d0b9ccb0c15344490bcc0992", "bike_id": "de94a7d9d0b9ccb0c15344490bcc0992", "is_disabled": 0, "type": "electric_scooter", "lat": 38.935493666666666, "lon": -77.02226133333333, "is_reserved": 0, "fusion_lon": 0.0}, {"rental_uris": {"ios": "https://dc.lft.to/lastmile_qr_scan", "android": "https://dc.lft.to/lastmile_qr_scan"}, "fusion_lat": 0.0, "name": "e32a3dee7dd92623fad15cc0e32b4ae9", "bike_id": "e32a3dee7dd92623fad15cc0e32b4ae9", "is_disabled": 0, "type": "electric_bike", "lat": 38.96283, "lon": -76.98293933333333, "is_reserved": 0, "fusion_lon": 0.0}, {"rental_uris": {"ios": "https://dc.lft.to/lastmile_qr_scan", "android": "https://dc.lft.to/lastmile_qr_scan"}, "fusion_lat": 0.0, "name": "a1f5ea621553c629a739e2eb2331bcea", "bike_id": "a1f5ea621553c629a739e2eb2331bcea", "is_disabled": 0, "type": "electric_scooter", "lat": 38.930240833333336, "lon": -77.04445983333333, "is_reserved": 0, "fusion_lon": 0.0}, {"rental_uris": {"ios": "https://dc.lft.to/lastmile_qr_scan", "android": "https://dc.lft.to/lastmile_qr_scan"}, "fusion_lat": 0.0, "name": "6accf525b1d9f9dbdc8325ba708f2cb4", "bike_id": "6accf525b1d9f9dbdc8325ba708f2cb4", "is_disabled": 0, "type": "electric_scooter", "lat": 38.895195, "lon": -76.977322, "is_reserved": 0, "fusion_lon": 0.0}, {"rental_uris": {"ios": "https://dc.lft.to/lastmile_qr_scan", "android": "https://dc.lft.to/lastmile_qr_scan"}, "fusion_lat": 0.0, "name": "bec3aa7112e61056820331df5849bd1b", "bike_id": "bec3aa7112e61056820331df5849bd1b", "is_disabled": 0, "type": "electric_scooter", "lat": 38.9234245, "lon": -77.05052266666667, "is_reserved": 0, "fusion_lon": 0.0}, {"rental_uris": {"ios": "https://dc.lft.to/lastmile_qr_scan", "android": "https://dc.lft.to/lastmile_qr_scan"},