{"data": {"bikes": [{"rental_uris": {"android": "https://dc.lft.to/lastmile_qr_scan", "ios": "https://dc.lft.to/lastmile_qr_scan"}, "is_reserved": 0, "is_disabled": 0, "name": "f319e10705ea0e55e5a8b4e8f139890e", "bike_id": "f319e10705ea0e55e5a8b4e8f139890e", "fusion_lat": 0.0, "lon": -77.0282005, "type": "electric_scooter", "fusion_lon": 0.0, "lat": 38.91439533333333}, {"rental_uris": {"android": "https://dc.lft.to/lastmile_qr_scan", "ios": "https://dc.lft.to/lastmile_qr_scan"}, "is_reserved": 0, "is_disabled": 0, "name": "d4ecc9cfa115cc520c07035e7eae0eed", "bike_id": "d4ecc9cfa115cc520c07035e7eae0eed", "fusion_lat": 0.0, "lon": -77.022861, "type": "electric_scooter", "fusion_lon": 0.0, "lat": 38.9179145}, {"rental_uris": {"android": "https://dc.lft.to/lastmile_qr_scan", "ios": "https://dc.lft.to/lastmile_qr_scan"}, "is_reserved": 0, "is_disabled": 0, "name": "ed58293b5329ad08948abc47acd75648", "bike_id": "ed58293b5329ad08948abc47acd75648", "fusion_lat": 0.0, "lon": -77.028035, "type": "electric_scooter", "fusion_lon": 0.0, "lat": 38.93075183333333}, {"rental_uris": {"android": "https://dc.lft.to/lastmile_qr_scan", "ios": "https://dc.lft.to/lastmile_qr_scan"}, "is_reserved": 0, "is_disabled": 0, "name": "701830095b61ac64f31f62c1436fdde7", "bike_id": "701830095b61ac64f31f62c1436fdde7", "fusion_lat": 0.0, "lon": -77.0464085, "type": "electric_scooter", "fusion_lon": 0.0, "lat": 38.892259333333335}, {"rental_uris": {"android": "https://dc.lft.to/lastmile_qr_scan", "ios": "https://dc.lft.to/lastmile_qr_scan"}, "is_reserved": 0, "is_disabled": 0, "name": "8a4a5f35a7e667c733a449b15cce5bb3", "bike_id": "8a4a5f35a7e667c733a449b15cce5bb3", "fusion_lat": 0.0, "lon": -77.02610366666667, "type": "electric_scooter", "fusion_lon": 0.0, "lat": 38.923869833333335}, {"rental_uris": {"android": "https://dc.lft.to/lastmile_qr_scan", "ios": "https://dc.lft.to/lastmile_qr_scan"}, "is_reserved": 0, "is_disabled": 0, "name": "8dc631397fd1671d59e97eb9314a3aeb", "bike_id": "8dc631397fd1671d59e97eb9314a3aeb", "fusion_lat": 0.0, "lon": -77.053965, "type": "electric_scooter", "fusion_lon": 0.0, "lat": 38.901566}, {"rental_uris": {"android": "https://dc.lft.to/lastmile_qr_scan", "ios": "https://dc.lft.to/lastmile_qr_scan"}, "is_reserved": 0, "is_disabled": 0, "name": "1bc9481e7668168318dcf90ca1fb9e7c", "bike_id": "1bc9481e7668168318dcf90ca1fb9e7c", "fusion_lat": 0.0, "lon": -77.04516266666667, "type": "electric_scooter", "fusion_lon": 0.0, "lat": 38.91285883333333}, {"rental_uris": {"android": "https://dc.lft.to/lastmile_qr_scan", "ios": "https://dc.lft.to/lastmile_qr_scan"}, "is_reserved": 0, "is_disabled": 0, "name": "ba091e80d3c0bc0d8b570caeb14c26a2", "bike_id": "ba091e80d3c0bc0d8b570caeb14c26a2", "fusion_lat": 0.0, "lon": -77.01067033333334, "type": "electric_scooter", "fusion_lon": 0.0, "lat": 38.92130483333333}, {"rental_uris": {"android": "https://dc.lft.to/lastmile_qr_scan", "ios": "https://dc.lft.to/lastmile_qr_scan"}, "is_reserved": 0, "is_disabled": 0, "name": "3199e38c799bcf436b2ba5851094a7c5", "bike_id": "3199e38c799bcf436b2ba5851094a7c5", "fusion_lat": 0.0, "lon": -76.90750066666666, "type": "electric_bike", "fusion_lon": 0.0, "lat": 38.89620683333333}, {"rental_uris": {"android": "https://dc.lft.to/lastmile_qr_scan", "ios": "https://dc.lft.to/lastmile_qr_scan"}, "is_reserved": 0, "is_disabled": 0, "name": "a476f7a847434be9a3806f51d9f5ec08", "bike_id": "a476f7a847434be9a3806f51d9f5ec08", "fusion_lat": 0.0, "lon": -77.0053635, "type": "electric_scooter", "fusion_lon": 0.0, "lat": 38.87461616666667}, {"rental_uris": {"android": "https://dc.lft.to/lastmile_qr_scan", "ios": "https://dc.lft.to/lastmile_qr_scan"}, "is_reserved": 0, "is_disabled": 0, "name": "074f008f1bb579de1cfa2fdb359192ab", "bike_id": "074f008f1bb579de1cfa2fdb359192ab", "fusion_lat": 0.0, "lon": -77.03382733333333, "type": "electric_scooter", "fusion_lon": 0.0, "lat": 38.9384845}, {"rental_uris": {"android": "https://dc.lft.to/lastmile_qr_scan", "ios": "https://dc.lft.to/lastmile_qr_scan"}, "is_reserved": 0, "is_disabled": 0, "name": "e596762d765c15443d0775c2495df595", "bike_id": "e596762d765c15443d0775c2495df595", "fusion_lat": 0.0, "lon": -77.027634, "type": "electric_scooter", "fusion_lon": 0.0, "lat": 38.95420583333333}, {"rental_uris": {"android": "https://dc.lft.to/lastmile_qr_scan", "ios": "https://dc.lft.to/lastmile_qr_scan"}, "is_reserved": 0, "is_disabled": 0, "name": "fa3adbc3b37e2ed8763d358d73d1710f", "bike_id": "fa3adbc3b37e2ed8763d358d73d1710f", "fusion_lat": 0.0, "lon": -77.04878633333334, "type": "electric_scooter", "fusion_lon": 0.0, "lat": 38.89323516666666}, {"rental_uris": {"android": "https://dc.lft.to/lastmile_qr_scan", "ios": "https://dc.lft.to/lastmile_qr_scan"}, "is_reserved": 0, "is_disabled": 0, "name": "ef2347cf67c0834b89ac4985fb7dcdb1", "bike_id": "ef2347cf67c0834b89ac4985fb7dcdb1", "fusion_lat": 0.0, "lon": -76.95562333333334, "type": "electric_bike", "fusion_lon": 0.0, "lat": 38.985028166666666}, {"rental_uris": {"android": "https://dc.lft.to/lastmile_qr_scan", "ios": "https://dc.lft.to/lastmile_qr_scan"}, "is_reserved": 0, "is_disabled": 0, "name": "b33001327f97ed775d3adf34e46051af", "bike_id": "b33001327f97ed775d3adf34e46051af", "fusion_lat": 0.0, "lon": -77.01205066666667, "type": "electric_bike", "fusion_lon": 0.0, "lat": 38.950763333333335}, {"rental_uris": {"android": "https://dc.lft.to/lastmile_qr_scan", "ios": "https://dc.lft.to/lastmile_qr_scan"}, "is_reserved": 0, "is_disabled": 0, "name": "e4414c9ce9c2834ed5ce436e5b00f48e", "bike_id": "e4414c9ce9c2834ed5ce436e5b00f48e", "fusion_lat": 0.0, "lon": -77.04465666666667, "type": "electric_scooter", "fusion_lon": 0.0, "lat": 38.924718666666664}, {"rental_uris": {"android": "https://dc.lft.to/lastmile_qr_scan", "ios": "https://dc.lft.to/lastmile_qr_scan"}, "is_reserved": 0, "is_disabled": 0, "name": "cfc851be01a40a15b08919295c889565", "bike_id": "cfc851be01a40a15b08919295c889565", "fusion_lat": 0.0, "lon": -77.02195366666666, "type": "electric_scooter", "fusion_lon": 0.0, "lat": 38.911202833333334}, {"rental_uris": {"android": "https://dc.lft.to/lastmile_qr_scan", "ios": "https://dc.lft.to/lastmile_qr_scan"}, "is_reserved": 0, "is_disabled": 0, "name": "7590050b14edd37528e2feac87a6042f", "bike_id": "7590050b14edd37528e2feac87a6042f", "fusion_lat": 0.0, "lon": -77.04266833333334, "type": "electric_scooter", "fusion_lon": 0.0, "lat": 38.92235016666667}, {"rental_uris": {"android": "https://dc.lft.to/lastmile_qr_scan", "ios": "https://dc.lft.to/lastmile_qr_scan"}, "is_reserved": 0, "is_disabled": 0, "name": "cb762a45423440a9ab44962777cadbc4", "bike_id": "cb762a45423440a9ab44962777cadbc4", "fusion_lat": 0.0, "lon": -77.06302716666667, "type": "electric_scooter", "fusion_lon": 0.0, "lat": 38.90402016666667}, {"rental_uris": {"android": "https://dc.lft.to/lastmile_qr_scan", "ios": "https://dc.lft.to/lastmile_qr_scan"}, "is_reserved": 0, "is_disabled": 0, "name": "c33d14e76c809801589e6f390ff93e26", "bike_id": "c33d14e76c809801589e6f390ff93e26", "fusion_lat": 0.0, "lon": -77.02808383333333, "type": "electric_scooter", "fusion_lon": 0.0, "lat": 38.917422}, {"rental_uris": {"android": "https://dc.lft.to/lastmile_qr_scan", "ios": "https://dc.lft.to/lastmile_qr_scan"}, "is_reserved": 0, "is_disabled": 0, "name": "c1952bf114c0a751066d6988f2313f44", "bike_id": "c1952bf114c0a751066d6988f2313f44", "fusion_lat": 0.0, "lon": -77.02972983333333, "type": "electric_scooter", "fusion_lon": 0.0, "lat": 38.943005666666664}, {"rental_uris": {"android": "https://dc.lft.to/lastmile_qr_scan", "ios": "https://dc.lft.to/lastmile_qr_scan"}, "is_reserved": 0, "is_disabled": 0, "name": "d8197baa14036c7d60b35674126f3424", "bike_id": "d8197baa14036c7d60b35674126f3424", "fusion_lat": 0.0, "lon": -77.02015633333333, "type": "electric_scooter", "fusion_lon": 0.0, "lat": 38.9155865}, {"rental_uris": {"android": "https://dc.lft.to/lastmile_qr_scan", "ios": "https://dc.lft.to/lastmile_qr_scan"}, "is_reserved": 0, "is_disabled": 0, "name": "13c472c61b74619e1f9c0e141d57eaa8", "bike_id": "13c472c61b74619e1f9c0e141d57eaa8", "fusion_lat": 0.0, "lon": -77.010802, "type": "electric_scooter", "fusion_lon": 0.0, "lat": 38.895303}, {"rental_uris": {"android": "https://dc.lft.to/lastmile_qr_scan", "ios": "https://dc.lft.to/lastmile_qr_scan"}, "is_reserved": 0, "is_disabled": 0, "name": "308b0435c903f50ae3ea22c2f642e531", "bike_id": "308b0435c903f50ae3ea22c2f642e531", "fusion_lat": 0.0, "lon": -77.0177985, "type": "electric_scooter", "fusion_lon": 0.0, "lat": 38.91993566666667}, {"rental_uris": {"android": "https://dc.lft.to/lastmile_qr_scan", "ios": "https://dc.lft.to/lastmile_qr_scan"}, "is_reserved": 0, "is_disabled": 0, "name": "5fed6448ff0ac13198268b0120a1bb36", "bike_id": "5fed6448ff0ac13198268b0120a1bb36", "fusion_lat": 0.0, "lon": -77.02371, "type": "electric_scooter", "fusion_lon": 0.0, "lat": 38.892185833333336}, {"rental_uris": {"android": "https://dc.lft.to/lastmile_qr_scan", "ios": "https://dc.lft.to/lastmile_qr_scan"}, "is_reserved": 0, "is_disabled": 0, "name": "56760e8f9ec435e030424ace00430f4a", "bike_id": "56760e8f9ec435e030424ace00430f4a", "fusion_lat": 0.0, "lon": -77.03543766666667, "type": "electric_scooter", "fusion_lon": 0.0, "lat": 38.9241595}, {"rental_uris": {"android": "https://dc.lft.to/lastmile_qr_scan", "ios": "https://dc.lft.to/lastmile_qr_scan"}, "is_reserved": 0, "is_disabled": 0, "name": "089bd95fb7e6c76cbb6e99203e7d9791", "bike_id": "089bd95fb7e6c76cbb6e99203e7d9791", "fusion_lat": 0.0, "lon": -77.02145333333333, "type": "electric_scooter", "fusion_lon": 0.0, "lat": 38.923775166666665}, {"rental_uris": {"android": "https://dc.lft.to/lastmile_qr_scan", "ios": "https://dc.lft.to/lastmile_qr_scan"}, "is_reserved": 0, "is_disabled": 0, "name": "eed083734b0199e41d2f097d30ea6580", "bike_id": "eed083734b0199e41d2f097d30ea6580", "fusion_lat": 0.0, "lon": -77.03954533333334, "type": "electric_scooter", "fusion_lon": 0.0, "lat": 38.90262833333333}, {"rental_uris": {"android": "https://dc.lft.to/lastmile_qr_scan", "ios": "https://dc.lft.to/lastmile_qr_scan"}, "is_reserved": 0, "is_disabled": 0, "name": "8aa5c2b552c20985cf9d2d2b9e73296f", "bike_id": "8aa5c2b552c20985cf9d2d2b9e73296f", "fusion_lat": 0.0, "lon": -77.02494083333333, "type": "electric_scooter", "fusion_lon": 0.0, "lat": 38.91931916666667}, {"rental_uris": {"android": "https://dc.lft.to/lastmile_qr_scan", "ios": "https://dc.lft.to/lastmile_qr_scan"}, "is_reserved": 0, "is_disabled": 0, "name": "5e2a3518afcacbfca1d9da38ecf7245c", "bike_id": "5e2a3518afcacbfca1d9da38ecf7245c", "fusion_lat": 0.0, "lon": -77.0197615, "type": "electric_scooter", "fusion_lon": 0.0, "lat": 38.887147666666664}, {"rental_uris": {"android": "https://dc.lft.to/lastmile_qr_scan", "ios": "https://dc.lft.to/lastmile_qr_scan"}, "is_reserved": 0, "is_disabled": 0, "name": "20e17ae9481b1ae20745402135537975", "bike_id": "20e17ae9481b1ae20745402135537975", "fusion_lat": 0.0, "lon": -77.01483516666667, "type": "electric_scooter", "fusion_lon": 0.0, "lat": 38.914114166666664}, {"rental_uris": {"android": "https://dc.lft.to/lastmile_qr_scan", "ios": "https://dc.lft.to/lastmile_qr_scan"}, "is_reserved": 0, "is_disabled": 0, "name": "b8e2932f543bc8a3d248af1a34745095", "bike_id": "b8e2932f543bc8a3d248af1a34745095", "fusion_lat": 0.0, "lon": -76.9950505, "type": "electric_scooter", "fusion_lon": 0.0, "lat": 38.88342683333333}, {"rental_uris": {"android": "https://dc.lft.to/lastmile_qr_scan", "ios": "https://dc.lft.to/lastmile_qr_scan"}, "is_reserved": 0, "is_disabled": 0, "name": "3db5e4cc5f22a450ea42754bb2528407", "bike_id": "3db5e4cc5f22a450ea42754bb2528407", "fusion_lat": 0.0, "lon": -77.03264333333334, "type": "electric_scooter", "fusion_lon": 0.0, "lat": 38.93735816666667}, {"rental_uris": {"android": "https://dc.lft.to/lastmile_qr_scan", "ios": "https://dc.lft.to/lastmile_qr_scan"}, "is_reserved": 0, "is_disabled": 0, "name": "66a921c0c3b7175b74cb31f02e597c04", "bike_id": "66a921c0c3b7175b74cb31f02e597c04", "fusion_lat": 0.0, "lon": -77.040118, "type": "electric_scooter", "fusion_lon": 0.0, "lat": 38.91004016666667}, {"rental_uris": {"android": "https://dc.lft.to/lastmile_qr_scan", "ios": "https://dc.lft.to/lastmile_qr_scan"}, "is_reserved": 0, "is_disabled": 0, "name": "b31f71bec51669dbe46ad4ddf66a7e4c", "bike_id": "b31f71bec51669dbe46ad4ddf66a7e4c", "fusion_lat": 0.0, "lon": -76.98888883333333, "type": "electric_scooter", "fusion_lon": 0.0, "lat": 38.90212066666667}, {"rental_uris": {"android": "https://dc.lft.to/lastmile_qr_scan", "ios": "https://dc.lft.to/lastmile_qr_scan"}, "is_reserved": 0, "is_disabled": 0, "name": "b84f96b0c26d8026931ae183ecfc92e0", "bike_id": "b84f96b0c26d8026931ae183ecfc92e0", "fusion_lat": 0.0, "lon": -77.0138895, "type": "electric_scooter", "fusion_lon": 0.0, "lat": 38.87896666666666}, {"rental_uris": {"android": "https://dc.lft.to/lastmile_qr_scan", "ios": "https://dc.lft.to/lastmile_qr_scan"}, "is_reserved": 0, "is_disabled": 0, "name": "2c61da2f9b5d8843f7b924ebfc2414e0", "bike_id": "2c61da2f9b5d8843f7b924ebfc2414e0", "fusion_lat": 0.0, "lon": -76.987456, "type": "electric_scooter", "fusion_lon": 0.0, "lat": 38.879667}, {"rental_uris": {"android": "https://dc.lft.to/lastmile_qr_scan", "ios": "https://dc.lft.to/lastmile_qr_scan"}, "is_reserved": 0, "is_disabled": 0, "name": "4b45c845eb90100ce0d76869b2957c29", "bike_id": "4b45c845eb90100ce0d76869b2957c29", "fusion_lat": 0.0, "lon": -77.02060883333333, "type": "electric_bike", "fusion_lon": 0.0, "lat": 38.928409}, {"rental_uris": {"android": "https://dc.lft.to/lastmile_qr_scan", "ios": "https://dc.lft.to/lastmile_qr_scan"}, "is_reserved": 0, "is_disabled": 0, "name": "629ee567933d5bce4d33eab6491a78d2", "bike_id": "629ee567933d5bce4d33eab6491a78d2", "fusion_lat": 0.0, "lon": -77.01666233333333, "type": "electric_scooter", "fusion_lon": 0.0, "lat": 38.88115616666666}, {"rental_uris": {"android": "https://dc.lft.to/lastmile_qr_scan", "ios": "https://dc.lft.to/lastmile_qr_scan"}, "is_reserved": 0, "is_disabled": 0, "name": "67b748ca30b9154117ae6f10d158b617", "bike_id": "67b748ca30b9154117ae6f10d158b617", "fusion_lat": 0.0, "lon": -77.02798933333334, "type": "electric_scooter", "fusion_lon": 0.0, "lat": 38.923180333333335}, {"rental_uris": {"android": "https://dc.lft.to/lastmile_qr_scan", "ios": "https://dc.lft.to/lastmile_qr_scan"}, "is_reserved": 0, "is_disabled": 0, "name": "4799e3f90685616db4b01e7bf6e89be1", "bike_id": "4799e3f90685616db4b01e7bf6e89be1", "fusion_lat": 0.0, "lon": -76.98728683333333, "type": "electric_bike", "fusion_lon": 0.0, "lat": 38.8634235}, {"rental_uris": {"android": "https://dc.lft.to/lastmile_qr_scan", "ios": "https://dc.lft.to/lastmile_qr_scan"}, "is_reserved": 0, "is_disabled": 0, "name": "b3163735bb18bf4cb9829c9413795203", "bike_id": "b3163735bb18bf4cb9829c9413795203", "fusion_lat": 0.0, "lon": -77.0227665, "type": "electric_scooter", "fusion_lon": 0.0, "lat": 38.9175985}, {"rental_uris": {"android": "https://dc.lft.to/lastmile_qr_scan", "ios": "https://dc.lft.to/lastmile_qr_scan"}, "is_reserved": 0, "is_disabled": 0, "name": "25d0d9e9bb5c95a58143400522f3169d", "bike_id": "25d0d9e9bb5c95a58143400522f3169d", "fusion_lat": 0.0, "lon": -76.98616883333334, "type": "electric_scooter", "fusion_lon": 0.0, "lat": 38.9382675}, {"rental_uris": {"android": "https://dc.lft.to/lastmile_qr_scan", "ios": "https://dc.lft.to/lastmile_qr_scan"}, "is_reserved": 0, "is_disabled": 0, "name": "c1977b9652a55ee76ada89e3f61251d6", "bike_id": "c1977b9652a55ee76ada89e3f61251d6", "fusion_lat": 0.0, "lon": -77.0396075, "type": "electric_scooter", "fusion_lon": 0.0, "lat": 38.900025166666666}, {"rental_uris": {"android": "https://dc.lft.to/lastmile_qr_scan", "ios": "https://dc.lft.to/lastmile_qr_scan"}, "is_reserved": 0, "is_disabled": 0, "name": "b7f738d02c9d4fcf51d3da2d40908013", "bike_id": "b7f738d02c9d4fcf51d3da2d40908013", "fusion_lat": 0.0, "lon": -76.99520583333333, "type": "electric_scooter", "fusion_lon": 0.0, "lat": 38.88377083333334}, {"rental_uris": {"android": "https://dc.lft.to/lastmile_qr_scan", "ios": "https://dc.lft.to/lastmile_qr_scan"}, "is_reserved": 0, "is_disabled": 0, "name": "ef1b8b9253bf70e1611b3156b3242491", "bike_id": "ef1b8b9253bf70e1611b3156b3242491", "fusion_lat": 0.0, "lon": -77.05353083333334, "type": "electric_scooter", "fusion_lon": 0.0, "lat": 38.923288}, {"rental_uris": {"android": "https://dc.lft.to/lastmile_qr_scan", "ios": "https://dc.lft.to/lastmile_qr_scan"}, "is_reserved": 0, "is_disabled": 0, "name": "d02591fbd7114806d063bc9c49261027", "bike_id": "d02591fbd7114806d063bc9c49261027", "fusion_lat": 0.0, "lon": -77.01627883333333, "type": "electric_scooter", "fusion_lon": 0.0, "lat": 38.9169025}, {"rental_uris": {"android": "https://dc.lft.to/lastmile_qr_scan", "ios": "https://dc.lft.to/lastmile_qr_scan"}, "is_reserved": 0, "is_disabled": 0, "name": "926780171b849f10fe6f0dc1d9afc94f", "bike_id": "926780171b849f10fe6f0dc1d9afc94f", "fusion_lat": 0.0, "lon": -77.03358733333333, "type": "electric_scooter", "fusion_lon": 0.0, "lat": 38.8974545}, {"rental_uris": {"android": "https://dc.lft.to/lastmile_qr_scan", "ios": "https://dc.lft.to/lastmile_qr_scan"}, "is_reserved": 0, "is_disabled": 0, "name": "f4372130acad4ffae4ef5f7c6e28e7ee", "bike_id": "f4372130acad4ffae4ef5f7c6e28e7ee", "fusion_lat": 0.0, "lon": -76.97895216666667, "type": "electric_bike", "fusion_lon": 0.0, "lat": 38.9269535}, {"rental_uris": {"android": "https://dc.lft.to/lastmile_qr_scan", "ios": "https://dc.lft.to/lastmile_qr_scan"}, "is_reserved": 0, "is_disabled": 0, "name": "149a82fedc9c6b69273fd00e70306fbf", "bike_id": "149a82fedc9c6b69273fd00e70306fbf", "fusion_lat": 0.0, "lon": -77.02089366666667, "type": "electric_scooter", "fusion_lon": 0.0, "lat": 38.90732966666667}, {"rental_uris": {"android": "https://dc.lft.to/lastmile_qr_scan", "ios": "https://dc.lft.to/lastmile_qr_scan"}, "is_reserved": 0, "is_disabled": 0, "name": "0a7226b9debf64fef938d14e6d0104d5", "bike_id": "0a7226b9debf64fef938d14e6d0104d5", "fusion_lat": 0.0, "lon": -77.01329783333334, "type": "electric_scooter", "fusion_lon": 0.0, "lat": 38.88134566666667}, {"rental_uris": {"android": "https://dc.lft.to/lastmile_qr_scan", "ios": "https://dc.lft.to/lastmile_qr_scan"}, "is_reserved": 0, "is_disabled": 0, "name": "538aa5080e625c2595e512684f7a77d4", "bike_id": "538aa5080e625c2595e512684f7a77d4", "fusion_lat": 0.0, "lon": -77.07274533333333, "type": "electric_scooter", "fusion_lon": 0.0, "lat": 38.934754}, {"rental_uris": {"android": "https://dc.lft.to/lastmile_qr_scan", "ios": "https://dc.lft.to/lastmile_qr_scan"}, "is_reserved": 0, "is_disabled": 0, "name": "f3f00c4eb77a4be453dbe6ff037a6e9c", "bike_id": "f3f00c4eb77a4be453dbe6ff037a6e9c", "fusion_lat": 0.0, "lon": -76.99867066666667, "type": "electric_scooter", "fusion_lon": 0.0, "lat": 38.9000555}, {"rental_uris": {"android": "https://dc.lft.to/lastmile_qr_scan", "ios": "https://dc.lft.to/lastmile_qr_scan"}, "is_reserved": 0, "is_disabled": 0, "name": "dbd5fe2cb7255b7b4f8d150de74fa0fb", "bike_id": "dbd5fe2cb7255b7b4f8d150de74fa0fb", "fusion_lat": 0.0, "lon": -77.0239435, "type": "electric_scooter", "fusion_lon": 0.0, "lat": 38.90971833333333}, {"rental_uris": {"android": "https://dc.lft.to/lastmile_qr_scan", "ios": "https://dc.lft.to/lastmile_qr_scan"}, "is_reserved": 0, "is_disabled": 0, "name": "7f0c89994f56def82eac52dd4e9310a0", "bike_id": "7f0c89994f56def82eac52dd4e9310a0", "fusion_lat": 0.0, "lon": -77.02718216666666, "type": "electric_scooter", "fusion_lon": 0.0, "lat": 38.9246925}, {"rental_uris": {"android": "https://dc.lft.to/lastmile_qr_scan", "ios": "https://dc.lft.to/lastmile_qr_scan"}, "is_reserved": 0, "is_disabled": 0, "name": "b0bbc46aad924d14a5e67d2b1304dd8a", "bike_id": "b0bbc46aad924d14a5e67d2b1304dd8a", "fusion_lat": 0.0, "lon": -77.03861266666667, "type": "electric_scooter", "fusion_lon": 0.0, "lat": 38.917243666666664}, {"rental_uris": {"android": "https://dc.lft.to/lastmile_qr_scan", "ios": "https://dc.lft.to/lastmile_qr_scan"}, "is_reserved": 0, "is_disabled": 0, "name": "b821ed559479cead5dc9e63fc1efa7c2", "bike_id": "b821ed559479cead5dc9e63fc1efa7c2", "fusion_lat": 0.0, "lon": -77.00216366666666, "type": "electric_scooter", "fusion_lon": 0.0, "lat": 38.90875466666667}, {"rental_uris": {"android": "https://dc.lft.to/lastmile_qr_scan", "ios": "https://dc.lft.to/lastmile_qr_scan"}, "is_reserved": 0, "is_disabled": 0, "name": "c88d15ef8c134d1d9543a5d01f54d3b1", "bike_id": "c88d15ef8c134d1d9543a5d01f54d3b1", "fusion_lat": 0.0, "lon": -77.04559816666666, "type": "electric_scooter", "fusion_lon": 0.0, "lat": 38.903584333333335}, {"rental_uris": {"android": "https://dc.lft.to/lastmile_qr_scan", "ios": "https://dc.lft.to/lastmile_qr_scan"}, "is_reserved": 0, "is_disabled": 0, "name": "d75b869185b8f2910d8e692ed0c725fd", "bike_id": "d75b869185b8f2910d8e692ed0c725fd", "fusion_lat": 0.0, "lon": -77.03852116666667, "type": "electric_scooter", "fusion_lon": 0.0, "lat": 38.91660383333333}, {"rental_uris": {"android": "https://dc.lft.to/lastmile_qr_scan", "ios": "https://dc.lft.to/lastmile_qr_scan"}, "is_reserved": 0, "is_disabled": 0, "name": "6cb152c318a7c31617a84263016fc7c5", "bike_id": "6cb152c318a7c31617a84263016fc7c5", "fusion_lat": 0.0, "lon": -77.04357183333333, "type": "electric_scooter", "fusion_lon": 0.0, "lat": 38.908498333333334}, {"rental_uris": {"android": "https://dc.lft.to/lastmile_qr_scan", "ios": "https://dc.lft.to/lastmile_qr_scan"}, "is_reserved": 0, "is_disabled": 0, "name": "3fc7f48ed25f38f1e94417166a8ce105", "bike_id": "3fc7f48ed25f38f1e94417166a8ce105", "fusion_lat": 0.0, "lon": -77.02552916666667, "type": "electric_scooter", "fusion_lon": 0.0, "lat": 38.97007883333333}, {"rental_uris": {"android": "https://dc.lft.to/lastmile_qr_scan", "ios": "https://dc.lft.to/lastmile_qr_scan"}, "is_reserved": 0, "is_disabled": 0, "name": "146c2df752b91f74dd896a41f563a214", "bike_id": "146c2df752b91f74dd896a41f563a214", "fusion_lat": 0.0, "lon": -77.02222883333333, "type": "electric_scooter", "fusion_lon": 0.0, "lat": 38.900652}, {"rental_uris": {"android": "https://dc.lft.to/lastmile_qr_scan", "ios": "https://dc.lft.to/lastmile_qr_scan"}, "is_reserved": 0, "is_disabled": 0, "name": "a2685d360c7ee7ff95ff761ccf15084e", "bike_id": "a2685d360c7ee7ff95ff761ccf15084e", "fusion_lat": 0.0, "lon": -77.034734, "type": "electric_scooter", "fusion_lon": 0.0, "lat": 38.92875466666667}, {"rental_uris": {"android": "https://dc.lft.to/lastmile_qr_scan", "ios": "https://dc.lft.to/lastmile_qr_scan"}, "is_reserved": 0, "is_disabled": 0, "name": "fb9cede3ec9d5318f9b3aaeccfbdef30", "bike_id": "fb9cede3ec9d5318f9b3aaeccfbdef30", "fusion_lat": 0.0, "lon": -77.01460116666667, "type": "electric_scooter", "fusion_lon": 0.0, "lat": 38.907235166666666}, {"rental_uris": {"android": "https://dc.lft.to/lastmile_qr_scan", "ios": "https://dc.lft.to/lastmile_qr_scan"}, "is_reserved": 0, "is_disabled": 0, "name": "fc2a1813765dac3e2d5b51ff12e8b1b3", "bike_id": "fc2a1813765dac3e2d5b51ff12e8b1b3", "fusion_lat": 0.0, "lon": -77.01657233333333, "type": "electric_scooter", "fusion_lon": 0.0, "lat": 38.94213666666667}, {"rental_uris": {"android": "https://dc.lft.to/lastmile_qr_scan", "ios": "https://dc.lft.to/lastmile_qr_scan"}, "is_reserved": 0, "is_disabled": 0, "name": "0099c53a96df0d0aab115a6c322c55a7", "bike_id": "0099c53a96df0d0aab115a6c322c55a7", "fusion_lat": 0.0, "lon": -77.046005, "type": "electric_scooter", "fusion_lon": 0.0, "lat": 38.916545666666664}, {"rental_uris": {"android": "https://dc.lft.to/lastmile_qr_scan", "ios": "https://dc.lft.to/lastmile_qr_scan"}, "is_reserved": 0, "is_disabled": 0, "name": "daa128ddb253a87a366ce2968d87e49b", "bike_id": "daa128ddb253a87a366ce2968d87e49b", "fusion_lat": 0.0, "lon": -77.02185883333334, "type": "electric_scooter", "fusion_lon": 0.0, "lat": 38.92181466666667}, {"rental_uris": {"android": "https://dc.lft.to/lastmile_qr_scan", "ios": "https://dc.lft.to/lastmile_qr_scan"}, "is_reserved": 0, "is_disabled": 0, "name": "2752c4a8180b9bc54451f45dd7b37577", "bike_id": "2752c4a8180b9bc54451f45dd7b37577", "fusion_lat": 0.0, "lon": -77.00064483333334, "type": "electric_scooter", "fusion_lon": 0.0, "lat": 38.8788645}, {"rental_uris": {"android": "https://dc.lft.to/lastmile_qr_scan", "ios": "https://dc.lft.to/lastmile_qr_scan"}, "is_reserved": 0, "is_disabled": 0, "name": "d591824cf5c4464bd5b4dda24b96baeb", "bike_id": "d591824cf5c4464bd5b4dda24b96baeb", "fusion_lat": 0.0, "lon": -77.0079615, "type": "electric_scooter", "fusion_lon": 0.0, "lat": 38.89717866666667}, {"rental_uris": {"android": "https://dc.lft.to/lastmile_qr_scan", "ios": "https://dc.lft.to/lastmile_qr_scan"}, "is_reserved": 0, "is_disabled": 0, "name": "0a0822093b44f030fced61cc131031f8", "bike_id": "0a0822093b44f030fced61cc131031f8", "fusion_lat": 0.0, "lon": -76.93081716666667, "type": "electric_scooter", "fusion_lon": 0.0, "lat": 38.89560683333333}, {"rental_uris": {"android": "https://dc.lft.to/lastmile_qr_scan", "ios": "https://dc.lft.to/lastmile_qr_scan"}, "is_reserved": 0, "is_disabled": 0, "name": "19772c7f7c16a1848c74376e45e112bd", "bike_id": "19772c7f7c16a1848c74376e45e112bd", "fusion_lat": 0.0, "lon": -77.006037, "type": "electric_scooter", "fusion_lon": 0.0, "lat": 38.905672}, {"rental_uris": {"android": "https://dc.lft.to/lastmile_qr_scan", "ios": "https://dc.lft.to/lastmile_qr_scan"}, "is_reserved": 0, "is_disabled": 0, "name": "5ee046377dc12154317c7a0c86be2b06", "bike_id": "5ee046377dc12154317c7a0c86be2b06", "fusion_lat": 0.0, "lon": -77.03876516666666, "type": "electric_scooter", "fusion_lon": 0.0, "lat": 38.932075}, {"rental_uris": {"android": "https://dc.lft.to/lastmile_qr_scan", "ios": "https://dc.lft.to/lastmile_qr_scan"}, "is_reserved": 0, "is_disabled": 0, "name": "76fb9451866bda48a610af324069796b", "bike_id": "76fb9451866bda48a610af324069796b", "fusion_lat": 0.0, "lon": -77.02986983333334, "type": "electric_scooter", "fusion_lon": 0.0, "lat": 38.8974315}, {"rental_uris": {"android": "https://dc.lft.to/lastmile_qr_scan", "ios": "https://dc.lft.to/lastmile_qr_scan"}, "is_reserved": 0, "is_disabled": 0, "name": "16c939e5f347e0148e3f6760730812b1", "bike_id": "16c939e5f347e0148e3f6760730812b1", "fusion_lat": 0.0, "lon": -77.01653916666666, "type": "electric_scooter", "fusion_lon": 0.0, "lat": 38.88123216666666}, {"rental_uris": {"android": "https://dc.lft.to/lastmile_qr_scan", "ios": "https://dc.lft.to/lastmile_qr_scan"}, "is_reserved": 0, "is_disabled": 0, "name": "38ed232de1c0628e1b8e093979d9c1f8", "bike_id": "38ed232de1c0628e1b8e093979d9c1f8", "fusion_lat": 0.0, "lon": -77.03701, "type": "electric_scooter", "fusion_lon": 0.0, "lat": 38.92640183333334}, {"rental_uris": {"android": "https://dc.lft.to/lastmile_qr_scan", "ios": "https://dc.lft.to/lastmile_qr_scan"}, "is_reserved": 0, "is_disabled": 0, "name": "fe0fbeda1d86e67523f96d6d526ae3cb", "bike_id": "fe0fbeda1d86e67523f96d6d526ae3cb", "fusion_lat": 0.0, "lon": -77.0355915, "type": "electric_scooter", "fusion_lon": 0.0, "lat": 38.9247125}, {"rental_uris": {"android": "https://dc.lft.to/lastmile_qr_scan", "ios": "https://dc.lft.to/lastmile_qr_scan"}, "is_reserved": 0, "is_disabled": 0, "name": "f829540902e0e740af289e143cce9969", "bike_id": "f829540902e0e740af289e143cce9969", "fusion_lat": 0.0, "lon": -77.04737916666667, "type": "electric_scooter", "fusion_lon": 0.0, "lat": 38.912627666666666}, {"rental_uris": {"android": "https://dc.lft.to/lastmile_qr_scan", "ios": "https://dc.lft.to/lastmile_qr_scan"}, "is_reserved": 0, "is_disabled": 0, "name": "febed9acc5114d7e5ea7abf34bc0a907", "bike_id": "febed9acc5114d7e5ea7abf34bc0a907", "fusion_lat": 0.0, "lon": -76.94187866666667, "type": "electric_scooter", "fusion_lon": 0.0, "lat": 38.89760066666667}, {"rental_uris": {"android": "https://dc.lft.to/lastmile_qr_scan", "ios": "https://dc.lft.to/lastmile_qr_scan"}, "is_reserved": 0, "is_disabled": 0, "name": "02e9238a3f881792771b3f818470d4fe", "bike_id": "02e9238a3f881792771b3f818470d4fe", "fusion_lat": 0.0, "lon": -76.97820733333333, "type": "electric_scooter", "fusion_lon": 0.0, "lat": 38.8939485}, {"rental_uris": {"android": "https://dc.lft.to/lastmile_qr_scan", "ios": "https://dc.lft.to/lastmile_qr_scan"}, "is_reserved": 0, "is_disabled": 0, "name": "a6b77587eeacd67f15f4808fc5ca8986", "bike_id": "a6b77587eeacd67f15f4808fc5ca8986", "fusion_lat": 0.0, "lon": -77.02075216666667, "type": "electric_bike", "fusion_lon": 0.0, "lat": 38.964468}, {"rental_uris": {"android": "https://dc.lft.to/lastmile_qr_scan", "ios": "https://dc.lft.to/lastmile_qr_scan"}, "is_reserved": 0, "is_disabled": 0, "name": "c1bd6b3b1eb2109091f793e2b43750b8", "bike_id": "c1bd6b3b1eb2109091f793e2b43750b8", "fusion_lat": 0.0, "lon": -77.04876666666667, "type": "electric_scooter", "fusion_lon": 0.0, "lat": 38.89794766666667}, {"rental_uris": {"android": "https://dc.lft.to/lastmile_qr_scan", "ios": "https://dc.lft.to/lastmile_qr_scan"}, "is_reserved": 0, "is_disabled": 0, "name": "251a96f7cf08a7fb7f3952352b71a130", "bike_id": "251a96f7cf08a7fb7f3952352b71a130", "fusion_lat": 0.0, "lon": -77.00115, "type": "electric_scooter", "fusion_lon": 0.0, "lat": 38.8761875}, {"rental_uris": {"android": "https://dc.lft.to/lastmile_qr_scan", "ios": "https://dc.lft.to/lastmile_qr_scan"}, "is_reserved": 0, "is_disabled": 0, "name": "2e854c653c544bb826b87b056ceb11cb", "bike_id": "2e854c653c544bb826b87b056ceb11cb", "fusion_lat": 0.0, "lon": -77.03394916666667, "type": "electric_scooter", "fusion_lon": 0.0, "lat": 38.91915}, {"rental_uris": {"android": "https://dc.lft.to/lastmile_qr_scan", "ios": "https://dc.lft.to/lastmile_qr_scan"}, "is_reserved": 0, "is_disabled": 0, "name": "c87ea11fcc37d8ec3dcb82df464dd62f", "bike_id": "c87ea11fcc37d8ec3dcb82df464dd62f", "fusion_lat": 0.0, "lon": -77.0476715, "type": "electric_bike", "fusion_lon": 0.0, "lat": 38.91999833333333}, {"rental_uris": {"android": "https://dc.lft.to/lastmile_qr_scan", "ios": "https://dc.lft.to/lastmile_qr_scan"}, "is_reserved": 0, "is_disabled": 0, "name": "fef2c2261b2c1da04ea8f4b95f405130", "bike_id": "fef2c2261b2c1da04ea8f4b95f405130", "fusion_lat": 0.0, "lon": -77.022945, "type": "electric_scooter", "fusion_lon": 0.0, "lat": 38.92411516666667}, {"rental_uris": {"android": "https://dc.lft.to/lastmile_qr_scan", "ios": "https://dc.lft.to/lastmile_qr_scan"}, "is_reserved": 0, "is_disabled": 0, "name": "3b5e32ec1750acd287ee8c615169b72b", "bike_id": "3b5e32ec1750acd287ee8c615169b72b", "fusion_lat": 0.0, "lon": -77.07662266666667, "type": "electric_bike", "fusion_lon": 0.0, "lat": 38.80978283333334}, {"rental_uris": {"android": "https://dc.lft.to/lastmile_qr_scan", "ios": "https://dc.lft.to/lastmile_qr_scan"}, "is_reserved": 0, "is_disabled": 0, "name": "ddd44b6d1baec54965bf6b3f3d431cd3", "bike_id": "ddd44b6d1baec54965bf6b3f3d431cd3", "fusion_lat": 0.0, "lon": -77.0005685, "type": "electric_scooter", "fusion_lon": 0.0, "lat": 38.878859}, {"rental_uris": {"android": "https://dc.lft.to/lastmile_qr_scan", "ios": "https://dc.lft.to/lastmile_qr_scan"}, "is_reserved": 0, "is_disabled": 0, "name": "02f04fdc22c4013d03cbe5031e5b14d2", "bike_id": "02f04fdc22c4013d03cbe5031e5b14d2", "fusion_lat": 0.0, "lon": -77.02695483333333, "type": "electric_scooter", "fusion_lon": 0.0, "lat": 38.91273266666666}, {"rental_uris": {"android": "https://dc.lft.to/lastmile_qr_scan", "ios": "https://dc.lft.to/lastmile_qr_scan"}, "is_reserved": 0, "is_disabled": 0, "name": "102c461de272a0e9232943884fb7f4c1", "bike_id": "102c461de272a0e9232943884fb7f4c1", "fusion_lat": 0.0, "lon": -77.033889, "type": "electric_scooter", "fusion_lon": 0.0, "lat": 38.9014695}, {"rental_uris": {"android": "https://dc.lft.to/lastmile_qr_scan", "ios": "https://dc.lft.to/lastmile_qr_scan"}, "is_reserved": 0, "is_disabled": 0, "name": "c11ca34044529477b15e7521a65d0d08", "bike_id": "c11ca34044529477b15e7521a65d0d08", "fusion_lat": 0.0, "lon": -77.0684645, "type": "electric_bike", "fusion_lon": 0.0, "lat": 38.95109733333334}, {"rental_uris": {"android": "https://dc.lft.to/lastmile_qr_scan", "ios": "https://dc.lft.to/lastmile_qr_scan"}, "is_reserved": 0, "is_disabled": 0, "name": "dc67277bcb8bd88ad604796b3faf1ada", "bike_id": "dc67277bcb8bd88ad604796b3faf1ada", "fusion_lat": 0.0, "lon": -77.02179683333334, "type": "electric_scooter", "fusion_lon": 0.0, "lat": 38.924946}, {"rental_uris": {"android": "https://dc.lft.to/lastmile_qr_scan", "ios": "https://dc.lft.to/lastmile_qr_scan"}, "is_reserved": 0, "is_disabled": 0, "name": "fd9340957fedb6c609c5da39753143eb", "bike_id": "fd9340957fedb6c609c5da39753143eb", "fusion_lat": 0.0, "lon": -77.03335666666666, "type": "electric_scooter", "fusion_lon": 0.0, "lat": 38.93512066666667}, {"rental_uris": {"android": "https://dc.lft.to/lastmile_qr_scan", "ios": "https://dc.lft.to/lastmile_qr_scan"}, "is_reserved": 0, "is_disabled": 0, "name": "4fa80fe8a80b920a2f5e08abdc527b99", "bike_id": "4fa80fe8a80b920a2f5e08abdc527b99", "fusion_lat": 0.0, "lon": -77.0271325, "type": "electric_scooter", "fusion_lon": 0.0, "lat": 38.89591466666667}, {"rental_uris": {"android": "https://dc.lft.to/lastmile_qr_scan", "ios": "https://dc.lft.to/lastmile_qr_scan"}, "is_reserved": 0, "is_disabled": 0, "name": "472bb1fc176fc873d184ab3946384972", "bike_id": "472bb1fc176fc873d184ab3946384972", "fusion_lat": 0.0, "lon": -77.00572366666667, "type": "electric_scooter", "fusion_lon": 0.0, "lat": 38.87908516666667}, {"rental_uris": {"android": "https://dc.lft.to/lastmile_qr_scan", "ios": "https://dc.lft.to/lastmile_qr_scan"}, "is_reserved": 0, "is_disabled": 0, "name": "08c8d1e20f477a5beb6c6658a6081c74", "bike_id": "08c8d1e20f477a5beb6c6658a6081c74", "fusion_lat": 0.0, "lon": -77.0219345, "type": "electric_scooter", "fusion_lon": 0.0, "lat": 38.911240166666666}, {"rental_uris": {"android": "https://dc.lft.to/lastmile_qr_scan", "ios": "https://dc.lft.to/lastmile_qr_scan"}, "is_reserved": 0, "is_disabled": 0, "name": "be5c52b89ddc30b46daa13b4421096c9", "bike_id": "be5c52b89ddc30b46daa13b4421096c9", "fusion_lat": 0.0, "lon": -77.05056583333334, "type": "electric_scooter", "fusion_lon": 0.0, "lat": 38.9035135}, {"rental_uris": {"android": "https://dc.lft.to/lastmile_qr_scan", "ios": "https://dc.lft.to/lastmile_qr_scan"}, "is_reserved": 0, "is_disabled": 0, "name": "bd128e9ca15a87f18d249f02a45863de", "bike_id": "bd128e9ca15a87f18d249f02a45863de", "fusion_lat": 0.0, "lon": -77.0599635, "type": "electric_scooter", "fusion_lon": 0.0, "lat": 38.90233166666667}, {"rental_uris": {"android": "https://dc.lft.to/lastmile_qr_scan", "ios": "https://dc.lft.to/lastmile_qr_scan"}, "is_reserved": 0, "is_disabled": 0, "name": "eab80a95deaa12515d1dbd9bdb7fa1b8", "bike_id": "eab80a95deaa12515d1dbd9bdb7fa1b8", "fusion_lat": 0.0, "lon": -77.025254, "type": "electric_scooter", "fusion_lon": 0.0, "lat": 38.921009166666664}, {"rental_uris": {"android": "https://dc.lft.to/lastmile_qr_scan", "ios": "https://dc.lft.to/lastmile_qr_scan"}, "is_reserved": 0, "is_disabled": 0, "name": "77ebd077d51e4a1dee15a60cf3d8859d", "bike_id": "77ebd077d51e4a1dee15a60cf3d8859d", "fusion_lat": 0.0, "lon": -77.019988, "type": "electric_scooter", "fusion_lon": 0.0, "lat": 38.91363366666667}, {"rental_uris": {"android": "https://dc.lft.to/lastmile_qr_scan", "ios": "https://dc.lft.to/lastmile_qr_scan"}, "is_reserved": 0, "is_disabled": 0, "name": "a71eda5abce1c8cda800a687c2a2db16", "bike_id": "a71eda5abce1c8cda800a687c2a2db16", "fusion_lat": 0.0, "lon": -77.03839966666666, "type": "electric_scooter", "fusion_lon": 0.0, "lat": 38.9098865}, {"rental_uris": {"android": "https://dc.lft.to/lastmile_qr_scan", "ios": "https://dc.lft.to/lastmile_qr_scan"}, "is_reserved": 0, "is_disabled": 0, "name": "c4c492cf53a6b4a40561b44d6519d61a", "bike_id": "c4c492cf53a6b4a40561b44d6519d61a", "fusion_lat": 0.0, "lon": -77.02909916666667, "type": "electric_scooter", "fusion_lon": 0.0, "lat": 38.916535}, {"rental_uris": {"android": "https://dc.lft.to/lastmile_qr_scan", "ios": "https://dc.lft.to/lastmile_qr_scan"}, "is_reserved": 0, "is_disabled": 0, "name": "ba938692435e20ff4b67005bdd8534e8", "bike_id": "ba938692435e20ff4b67005bdd8534e8", "fusion_lat": 0.0, "lon": -77.06843666666667, "type": "electric_scooter", "fusion_lon": 0.0, "lat": 38.90413133333333}, {"rental_uris": {"android": "https://dc.lft.to/lastmile_qr_scan", "ios": "https://dc.lft.to/lastmile_qr_scan"}, "is_reserved": 0, "is_disabled": 0, "name": "a5fbba321e63b7e7e90457d9422348b0", "bike_id": "a5fbba321e63b7e7e90457d9422348b0", "fusion_lat": 0.0, "lon": -76.98857366666667, "type": "electric_scooter", "fusion_lon": 0.0, "lat": 38.844221833333336}, {"rental_uris": {"android": "https://dc.lft.to/lastmile_qr_scan", "ios": "https://dc.lft.to/lastmile_qr_scan"}, "is_reserved": 0, "is_disabled": 0, "name": "65135851d56ba1e1471c2e1aa60630d5", "bike_id": "65135851d56ba1e1471c2e1aa60630d5", "fusion_lat": 0.0, "lon": -77.03317533333333, "type": "electric_scooter", "fusion_lon": 0.0, "lat": 38.92446616666667}, {"rental_uris": {"android": "https://dc.lft.to/lastmile_qr_scan", "ios": "https://dc.lft.to/lastmile_qr_scan"}, "is_reserved": 0, "is_disabled": 0, "name": "36b5f725f59d54e664e97e23d9fca0d6", "bike_id": "36b5f725f59d54e664e97e23d9fca0d6", "fusion_lat": 0.0, "lon": -77.0589265, "type": "electric_scooter", "fusion_lon": 0.0, "lat": 38.93612483333333}, {"rental_uris": {"android": "https://dc.lft.to/lastmile_qr_scan", "ios": "https://dc.lft.to/lastmile_qr_scan"}, "is_reserved": 0, "is_disabled": 0, "name": "98e34c5d33fef05d092986ac7d84e3c9", "bike_id": "98e34c5d33fef05d092986ac7d84e3c9", "fusion_lat": 0.0, "lon": -77.025932, "type": "electric_scooter", "fusion_lon": 0.0, "lat": 38.907053166666664}, {"rental_uris": {"android": "https://dc.lft.to/lastmile_qr_scan", "ios": "https://dc.lft.to/lastmile_qr_scan"}, "is_reserved": 0, "is_disabled": 0, "name": "559f853c0308e426e398ec60ede2bf7c", "bike_id": "559f853c0308e426e398ec60ede2bf7c", "fusion_lat": 0.0, "lon": -76.98818183333333, "type": "electric_bike", "fusion_lon": 0.0, "lat": 38.842800833333335}, {"rental_uris": {"android": "https://dc.lft.to/lastmile_qr_scan", "ios": "https://dc.lft.to/lastmile_qr_scan"}, "is_reserved": 0, "is_disabled": 0, "name": "355489a569719112c952f42eb179b73d", "bike_id": "355489a569719112c952f42eb179b73d", "fusion_lat": 0.0, "lon": -77.046265, "type": "electric_scooter", "fusion_lon": 0.0, "lat": 38.90963933333333}, {"rental_uris": {"android": "https://dc.lft.to/lastmile_qr_scan", "ios": "https://dc.lft.to/lastmile_qr_scan"}, "is_reserved": 0, "is_disabled": 0, "name": "3c78e612a877ab5698462b037c05ce62", "bike_id": "3c78e612a877ab5698462b037c05ce62", "fusion_lat": 0.0, "lon": -77.03986616666667, "type": "electric_scooter", "fusion_lon": 0.0, "lat": 38.90128216666667}, {"rental_uris": {"android": "https://dc.lft.to/lastmile_qr_scan", "ios": "https://dc.lft.to/lastmile_qr_scan"}, "is_reserved": 0, "is_disabled": 0, "name": "81dbb33eea1d9796ed61d04c239d8995", "bike_id": "81dbb33eea1d9796ed61d04c239d8995", "fusion_lat": 0.0, "lon": -77.02354566666666, "type": "electric_scooter", "fusion_lon": 0.0, "lat": 38.935326833333335}, {"rental_uris": {"android": "https://dc.lft.to/lastmile_qr_scan", "ios": "https://dc.lft.to/lastmile_qr_scan"}, "is_reserved": 0, "is_disabled": 0, "name": "1a75e0aefa811847594344b41959f80c", "bike_id": "1a75e0aefa811847594344b41959f80c", "fusion_lat": 0.0, "lon": -77.0060105, "type": "electric_scooter", "fusion_lon": 0.0, "lat": 38.905729}, {"rental_uris": {"android": "https://dc.lft.to/lastmile_qr_scan", "ios": "https://dc.lft.to/lastmile_qr_scan"}, "is_reserved": 0, "is_disabled": 0, "name": "1059204cfec1262a92cd012a9ef24a4a", "bike_id": "1059204cfec1262a92cd012a9ef24a4a", "fusion_lat": 0.0, "lon": -77.04356116666666, "type": "electric_scooter", "fusion_lon": 0.0, "lat": 38.911035}, {"rental_uris": {"android": "https://dc.lft.to/lastmile_qr_scan", "ios": "https://dc.lft.to/lastmile_qr_scan"}, "is_reserved": 0, "is_disabled": 0, "name": "67d83022c48afce329717edd61f9eaca", "bike_id": "67d83022c48afce329717edd61f9eaca", "fusion_lat": 0.0, "lon": -77.023753, "type": "electric_scooter", "fusion_lon": 0.0, "lat": 38.8921755}, {"rental_uris": {"android": "https://dc.lft.to/lastmile_qr_scan", "ios": "https://dc.lft.to/lastmile_qr_scan"}, "is_reserved": 0, "is_disabled": 0, "name": "164f9f2f5200dc917a652904a4246642", "bike_id": "164f9f2f5200dc917a652904a4246642", "fusion_lat": 0.0, "lon": -77.01888333333333, "type": "electric_scooter", "fusion_lon": 0.0, "lat": 38.89747116666667}, {"rental_uris": {"android": "https://dc.lft.to/lastmile_qr_scan", "ios": "https://dc.lft.to/lastmile_qr_scan"}, "is_reserved": 0, "is_disabled": 0, "name": "81cebd8c93661e7a58761295da153f55", "bike_id": "81cebd8c93661e7a58761295da153f55", "fusion_lat": 0.0, "lon": -77.04072733333334, "type": "electric_scooter", "fusion_lon": 0.0, "lat": 38.91416616666667}, {"rental_uris": {"android": "https://dc.lft.to/lastmile_qr_scan", "ios": "https://dc.lft.to/lastmile_qr_scan"}, "is_reserved": 0, "is_disabled": 0, "name": "88858b9b942a37ce3aa1edd6eddf9587", "bike_id": "88858b9b942a37ce3aa1edd6eddf9587", "fusion_lat": 0.0, "lon": -77.027319, "type": "electric_scooter", "fusion_lon": 0.0, "lat": 38.952051}, {"rental_uris": {"android": "https://dc.lft.to/lastmile_qr_scan", "ios": "https://dc.lft.to/lastmile_qr_scan"}, "is_reserved": 0, "is_disabled": 0, "name": "2249d5e9606fe5e8c1caa1a830013f83", "bike_id": "2249d5e9606fe5e8c1caa1a830013f83", "fusion_lat": 0.0, "lon": -77.02129783333334, "type": "electric_scooter", "fusion_lon": 0.0, "lat": 38.9241675}, {"rental_uris": {"android": "https://dc.lft.to/lastmile_qr_scan", "ios": "https://dc.lft.to/lastmile_qr_scan"}, "is_reserved": 0, "is_disabled": 0, "name": "de615cb1fb8690f73e7379f5cd9ba572", "bike_id": "de615cb1fb8690f73e7379f5cd9ba572", "fusion_lat": 0.0, "lon": -77.03084716666666, "type": "electric_scooter", "fusion_lon": 0.0, "lat": 38.92377666666667}, {"rental_uris": {"android": "https://dc.lft.to/lastmile_qr_scan", "ios": "https://dc.lft.to/lastmile_qr_scan"}, "is_reserved": 0, "is_disabled": 0, "name": "ec157af875aaa99972163e306a2fd20c", "bike_id": "ec157af875aaa99972163e306a2fd20c", "fusion_lat": 0.0, "lon": -77.028059, "type": "electric_scooter", "fusion_lon": 0.0, "lat": 38.91055383333333}, {"rental_uris": {"android": "https://dc.lft.to/lastmile_qr_scan", "ios": "https://dc.lft.to/lastmile_qr_scan"}, "is_reserved": 0, "is_disabled": 0, "name": "a9e8a14d8b62bba0f64011bf8f1230e4", "bike_id": "a9e8a14d8b62bba0f64011bf8f1230e4", "fusion_lat": 0.0, "lon": -77.02800616666667, "type": "electric_scooter", "fusion_lon": 0.0, "lat": 38.89229316666667}, {"rental_uris": {"android": "https://dc.lft.to/lastmile_qr_scan", "ios": "https://dc.lft.to/lastmile_qr_scan"}, "is_reserved": 0, "is_disabled": 0, "name": "8dbe066a940b5cfb27bd875462599fa1", "bike_id": "8dbe066a940b5cfb27bd875462599fa1", "fusion_lat": 0.0, "lon": -77.04686183333334, "type": "electric_scooter", "fusion_lon": 0.0, "lat": 38.89219633333333}, {"rental_uris": {"android": "https://dc.lft.to/lastmile_qr_scan", "ios": "https://dc.lft.to/lastmile_qr_scan"}, "is_reserved": 0, "is_disabled": 0, "name": "182a208618f401287c34aadedf9ce584", "bike_id": "182a208618f401287c34aadedf9ce584", "fusion_lat": 0.0, "lon": -77.04691783333334, "type": "electric_scooter", "fusion_lon": 0.0, "lat": 38.896027833333335}, {"rental_uris": {"android": "https://dc.lft.to/lastmile_qr_scan", "ios": "https://dc.lft.to/lastmile_qr_scan"}, "is_reserved": 0, "is_disabled": 0, "name": "3f5b93880b2c3341ff1ea11c3d217205", "bike_id": "3f5b93880b2c3341ff1ea11c3d217205", "fusion_lat": 0.0, "lon": -77.09113733333334, "type": "electric_scooter", "fusion_lon": 0.0, "lat": 38.931076}, {"rental_uris": {"android": "https://dc.lft.to/lastmile_qr_scan", "ios": "https://dc.lft.to/lastmile_qr_scan"}, "is_reserved": 0, "is_disabled": 0, "name": "194915fc23075948009e4a0357c07b4a", "bike_id": "194915fc23075948009e4a0357c07b4a", "fusion_lat": 0.0, "lon": -77.05335366666667, "type": "electric_scooter", "fusion_lon": 0.0, "lat": 38.906428166666664}, {"rental_uris": {"android": "https://dc.lft.to/lastmile_qr_scan", "ios": "https://dc.lft.to/lastmile_qr_scan"}, "is_reserved": 0, "is_disabled": 0, "name": "b61e68e14b235e4280bcf838fc25673b", "bike_id": "b61e68e14b235e4280bcf838fc25673b", "fusion_lat": 0.0, "lon": -76.94650033333333, "type": "electric_scooter", "fusion_lon": 0.0, "lat": 38.89826516666667}, {"rental_uris": {"android": "https://dc.lft.to/lastmile_qr_scan", "ios": "https://dc.lft.to/lastmile_qr_scan"}, "is_reserved": 0, "is_disabled": 0, "name": "857447140bc668905ae62a95db68cf34", "bike_id": "857447140bc668905ae62a95db68cf34", "fusion_lat": 0.0, "lon": -77.02196466666666, "type": "electric_scooter", "fusion_lon": 0.0, "lat": 38.924850166666666}, {"rental_uris": {"android": "https://dc.lft.to/lastmile_qr_scan", "ios": "https://dc.lft.to/lastmile_qr_scan"}, "is_reserved": 0, "is_disabled": 0, "name": "9c0fe7d230d878bf5ec2dc74ad1e50ff", "bike_id": "9c0fe7d230d878bf5ec2dc74ad1e50ff", "fusion_lat": 0.0, "lon": -77.02149516666667, "type": "electric_scooter", "fusion_lon": 0.0, "lat": 38.941379833333336}, {"rental_uris": {"android": "https://dc.lft.to/lastmile_qr_scan", "ios": "https://dc.lft.to/lastmile_qr_scan"}, "is_reserved": 0, "is_disabled": 0, "name": "589b4d9c74991e5c7789f1ad005bd691", "bike_id": "589b4d9c74991e5c7789f1ad005bd691", "fusion_lat": 0.0, "lon": -77.02410866666666, "type": "electric_scooter", "fusion_lon": 0.0, "lat": 38.915724166666664}, {"rental_uris": {"android": "https://dc.lft.to/lastmile_qr_scan", "ios": "https://dc.lft.to/lastmile_qr_scan"}, "is_reserved": 0, "is_disabled": 0, "name": "c96cccb9a1ae090dd3af54cbe8376037", "bike_id": "c96cccb9a1ae090dd3af54cbe8376037", "fusion_lat": 0.0, "lon": -77.02788316666667, "type": "electric_scooter", "fusion_lon": 0.0, "lat": 38.961316333333336}, {"rental_uris": {"android": "https://dc.lft.to/lastmile_qr_scan", "ios": "https://dc.lft.to/lastmile_qr_scan"}, "is_reserved": 0, "is_disabled": 0, "name": "a218fbd146c1de174c20d399f83854ec", "bike_id": "a218fbd146c1de174c20d399f83854ec", "fusion_lat": 0.0, "lon": -77.00207633333333, "type": "electric_scooter", "fusion_lon": 0.0, "lat": 38.90028933333333}, {"rental_uris": {"android": "https://dc.lft.to/lastmile_qr_scan", "ios": "https://dc.lft.to/lastmile_qr_scan"}, "is_reserved": 0, "is_disabled": 0, "name": "75f6efaf2a2fb64bb1c020151df27c7e", "bike_id": "75f6efaf2a2fb64bb1c020151df27c7e", "fusion_lat": 0.0, "lon": -77.04329766666666, "type": "electric_scooter", "fusion_lon": 0.0, "lat": 38.92620466666666}, {"rental_uris": {"android": "https://dc.lft.to/lastmile_qr_scan", "ios": "https://dc.lft.to/lastmile_qr_scan"}, "is_reserved": 0, "is_disabled": 0, "name": "576b114bf25e0f7a84a7e664212292c8", "bike_id": "576b114bf25e0f7a84a7e664212292c8", "fusion_lat": 0.0, "lon": -76.98371983333334, "type": "electric_scooter", "fusion_lon": 0.0, "lat": 38.89266716666667}, {"rental_uris": {"android": "https://dc.lft.to/lastmile_qr_scan", "ios": "https://dc.lft.to/lastmile_qr_scan"}, "is_reserved": 0, "is_disabled": 0, "name": "0d3e98b3f28348f3e950f4f5f3a2afd1", "bike_id": "0d3e98b3f28348f3e950f4f5f3a2afd1", "fusion_lat": 0.0, "lon": -76.98796683333333, "type": "electric_scooter", "fusion_lon": 0.0, "lat": 38.90030933333333}, {"rental_uris": {"android": "https://dc.lft.to/lastmile_qr_scan", "ios": "https://dc.lft.to/lastmile_qr_scan"}, "is_reserved": 0, "is_disabled": 0, "name": "24c7f3f012849235aedab5040815de31", "bike_id": "24c7f3f012849235aedab5040815de31", "fusion_lat": 0.0, "lon": -77.03077083333334, "type": "electric_scooter", "fusion_lon": 0.0, "lat": 38.89967933333333}, {"rental_uris": {"android": "https://dc.lft.to/lastmile_qr_scan", "ios": "https://dc.lft.to/lastmile_qr_scan"}, "is_reserved": 0, "is_disabled": 0, "name": "d480a84d7bd3bf4c107d52c21e18cc43", "bike_id": "d480a84d7bd3bf4c107d52c21e18cc43", "fusion_lat": 0.0, "lon": -77.0748545, "type": "electric_scooter", "fusion_lon": 0.0, "lat": 38.96199}, {"rental_uris": {"android": "https://dc.lft.to/lastmile_qr_scan", "ios": "https://dc.lft.to/lastmile_qr_scan"}, "is_reserved": 0, "is_disabled": 0, "name": "20bf8721deb35699f70df9bf0729f889", "bike_id": "20bf8721deb35699f70df9bf0729f889", "fusion_lat": 0.0, "lon": -77.01321183333333, "type": "electric_scooter", "fusion_lon": 0.0, "lat": 38.892309833333336}, {"rental_uris": {"android": "https://dc.lft.to/lastmile_qr_scan", "ios": "https://dc.lft.to/lastmile_qr_scan"}, "is_reserved": 0, "is_disabled": 0, "name": "0b43053072d69d297141168a7e6f0808", "bike_id": "0b43053072d69d297141168a7e6f0808", "fusion_lat": 0.0, "lon": -76.98569316666666, "type": "electric_scooter", "fusion_lon": 0.0, "lat": 38.8962305}, {"rental_uris": {"android": "https://dc.lft.to/lastmile_qr_scan", "ios": "https://dc.lft.to/lastmile_qr_scan"}, "is_reserved": 0, "is_disabled": 0, "name": "e67eaea3a9182f6813f9be9c87d499db", "bike_id": "e67eaea3a9182f6813f9be9c87d499db", "fusion_lat": 0.0, "lon": -77.04472916666667, "type": "electric_scooter", "fusion_lon": 0.0, "lat": 38.902629833333336}, {"rental_uris": {"android": "https://dc.lft.to/lastmile_qr_scan", "ios": "https://dc.lft.to/lastmile_qr_scan"}, "is_reserved": 0, "is_disabled": 0, "name": "e93ffa16b4e64388a0f32a4c10e01870", "bike_id": "e93ffa16b4e64388a0f32a4c10e01870", "fusion_lat": 0.0, "lon": -77.012194, "type": "electric_scooter", "fusion_lon": 0.0, "lat": 38.91515533333333}, {"rental_uris": {"android": "https://dc.lft.to/lastmile_qr_scan", "ios": "https://dc.lft.to/lastmile_qr_scan"}, "is_reserved": 0, "is_disabled": 0, "name": "e6717ef504b7b63f23280b9101e6feea", "bike_id": "e6717ef504b7b63f23280b9101e6feea", "fusion_lat": 0.0, "lon": -77.02826916666666, "type": "electric_scooter", "fusion_lon": 0.0, "lat": 38.8873885}, {"rental_uris": {"android": "https://dc.lft.to/lastmile_qr_scan", "ios": "https://dc.lft.to/lastmile_qr_scan"}, "is_reserved": 0, "is_disabled": 0, "name": "23d9a6d8c47bfe10495d199cc6740e02", "bike_id": "23d9a6d8c47bfe10495d199cc6740e02", "fusion_lat": 0.0, "lon": -77.02908266666667, "type": "electric_scooter", "fusion_lon": 0.0, "lat": 38.95299083333333}, {"rental_uris": {"android": "https://dc.lft.to/lastmile_qr_scan", "ios": "https://dc.lft.to/lastmile_qr_scan"}, "is_reserved": 0, "is_disabled": 0, "name": "46121a5fa8f6f40cad95f220d60ff420", "bike_id": "46121a5fa8f6f40cad95f220d60ff420", "fusion_lat": 0.0, "lon": -77.04339183333333, "type": "electric_scooter", "fusion_lon": 0.0, "lat": 38.92326466666667}, {"rental_uris": {"android": "https://dc.lft.to/lastmile_qr_scan", "ios": "https://dc.lft.to/lastmile_qr_scan"}, "is_reserved": 0, "is_disabled": 0, "name": "e7a5d6bbcf5b93cdd59379bee0392067", "bike_id": "e7a5d6bbcf5b93cdd59379bee0392067", "fusion_lat": 0.0, "lon": -77.03632833333333, "type": "electric_scooter", "fusion_lon": 0.0, "lat": 38.90371833333333}, {"rental_uris": {"android": "https://dc.lft.to/lastmile_qr_scan", "ios": "https://dc.lft.to/lastmile_qr_scan"}, "is_reserved": 0, "is_disabled": 0, "name": "d908529601d3f066494aa9aaae883679", "bike_id": "d908529601d3f066494aa9aaae883679", "fusion_lat": 0.0, "lon": -76.92963483333334, "type": "electric_scooter", "fusion_lon": 0.0, "lat": 38.884496166666665}, {"rental_uris": {"android": "https://dc.lft.to/lastmile_qr_scan", "ios": "https://dc.lft.to/lastmile_qr_scan"}, "is_reserved": 0, "is_disabled": 0, "name": "d56114ff2911aa2e3286611444598808", "bike_id": "d56114ff2911aa2e3286611444598808", "fusion_lat": 0.0, "lon": -77.0217375, "type": "electric_scooter", "fusion_lon": 0.0, "lat": 38.94294983333333}, {"rental_uris": {"android": "https://dc.lft.to/lastmile_qr_scan", "ios": "https://dc.lft.to/lastmile_qr_scan"}, "is_reserved": 0, "is_disabled": 0, "name": "28c98ceb1e85c326def67c0c37b3e2a1", "bike_id": "28c98ceb1e85c326def67c0c37b3e2a1", "fusion_lat": 0.0, "lon": -77.03055883333333, "type": "electric_scooter", "fusion_lon": 0.0, "lat": 38.92373666666667}, {"rental_uris": {"android": "https://dc.lft.to/lastmile_qr_scan", "ios": "https://dc.lft.to/lastmile_qr_scan"}, "is_reserved": 0, "is_disabled": 0, "name": "a5d3e99d1db071fe820e9c47b54d59c1", "bike_id": "a5d3e99d1db071fe820e9c47b54d59c1", "fusion_lat": 0.0, "lon": -76.9954115, "type": "electric_bike", "fusion_lon": 0.0, "lat": 38.956374833333335}, {"rental_uris": {"android": "https://dc.lft.to/lastmile_qr_scan", "ios": "https://dc.lft.to/lastmile_qr_scan"}, "is_reserved": 0, "is_disabled": 0, "name": "ac9b57781d92a127980e8c9277862402", "bike_id": "ac9b57781d92a127980e8c9277862402", "fusion_lat": 0.0, "lon": -77.01867733333333, "type": "electric_scooter", "fusion_lon": 0.0, "lat": 38.97366016666667}, {"rental_uris": {"android": "https://dc.lft.to/lastmile_qr_scan", "ios": "https://dc.lft.to/lastmile_qr_scan"}, "is_reserved": 0, "is_disabled": 0, "name": "efe0e0ba6d69a825099eaa1cf0b7b6c5", "bike_id": "efe0e0ba6d69a825099eaa1cf0b7b6c5", "fusion_lat": 0.0, "lon": -77.04233266666667, "type": "electric_scooter", "fusion_lon": 0.0, "lat": 38.9341485}, {"rental_uris": {"android": "https://dc.lft.to/lastmile_qr_scan", "ios": "https://dc.lft.to/lastmile_qr_scan"}, "is_reserved": 0, "is_disabled": 0, "name": "53ec4a151bbbb898f02c647ff6788514", "bike_id": "53ec4a151bbbb898f02c647ff6788514", "fusion_lat": 0.0, "lon": -77.0217595, "type": "electric_scooter", "fusion_lon": 0.0, "lat": 38.887188}, {"rental_uris": {"android": "https://dc.lft.to/lastmile_qr_scan", "ios": "https://dc.lft.to/lastmile_qr_scan"}, "is_reserved": 0, "is_disabled": 0, "name": "f94a7269c3783a66f73bb34a0aab1ba2", "bike_id": "f94a7269c3783a66f73bb34a0aab1ba2", "fusion_lat": 0.0, "lon": -77.00350683333333, "type": "electric_scooter", "fusion_lon": 0.0, "lat": 38.876699333333335}, {"rental_uris": {"android": "https://dc.lft.to/lastmile_qr_scan", "ios": "https://dc.lft.to/lastmile_qr_scan"}, "is_reserved": 0, "is_disabled": 0, "name": "a1ec7dc33ce2292aed118dc7beb09f66", "bike_id": "a1ec7dc33ce2292aed118dc7beb09f66", "fusion_lat": 0.0, "lon": -77.02572383333333, "type": "electric_scooter", "fusion_lon": 0.0, "lat": 38.9125535}, {"rental_uris": {"android": "https://dc.lft.to/lastmile_qr_scan", "ios": "https://dc.lft.to/lastmile_qr_scan"}, "is_reserved": 0, "is_disabled": 0, "name": "31e4301ba6e1627e3a61ac5c7017c32a", "bike_id": "31e4301ba6e1627e3a61ac5c7017c32a", "fusion_lat": 0.0, "lon": -77.02770983333333, "type": "electric_scooter", "fusion_lon": 0.0, "lat": 38.93420583333333}, {"rental_uris": {"android": "https://dc.lft.to/lastmile_qr_scan", "ios": "https://dc.lft.to/lastmile_qr_scan"}, "is_reserved": 0, "is_disabled": 0, "name": "d3053dc47200e3fb6f47f2391b0e2994", "bike_id": "d3053dc47200e3fb6f47f2391b0e2994", "fusion_lat": 0.0, "lon": -76.93557166666666, "type": "electric_scooter", "fusion_lon": 0.0, "lat": 38.8827585}, {"rental_uris": {"android": "https://dc.lft.to/lastmile_qr_scan", "ios": "https://dc.lft.to/lastmile_qr_scan"}, "is_reserved": 0, "is_disabled": 0, "name": "4c705988db8b664309ba1d63f882c3b8", "bike_id": "4c705988db8b664309ba1d63f882c3b8", "fusion_lat": 0.0, "lon": -76.965578, "type": "electric_scooter", "fusion_lon": 0.0, "lat": 38.918690833333336}, {"rental_uris": {"android": "https://dc.lft.to/lastmile_qr_scan", "ios": "https://dc.lft.to/lastmile_qr_scan"}, "is_reserved": 0, "is_disabled": 0, "name": "8c5accc3ac75ceecd48273e79f63e7d8", "bike_id": "8c5accc3ac75ceecd48273e79f63e7d8", "fusion_lat": 0.0, "lon": -77.00660733333333, "type": "electric_scooter", "fusion_lon": 0.0, "lat": 38.90010316666667}, {"rental_uris": {"android": "https://dc.lft.to/lastmile_qr_scan", "ios": "https://dc.lft.to/lastmile_qr_scan"}, "is_reserved": 0, "is_disabled": 0, "name": "765d41e5e19402a79fada6e3266f0d6d", "bike_id": "765d41e5e19402a79fada6e3266f0d6d", "fusion_lat": 0.0, "lon": -77.02130816666667, "type": "electric_scooter", "fusion_lon": 0.0, "lat": 38.922763}, {"rental_uris": {"android": "https://dc.lft.to/lastmile_qr_scan", "ios": "https://dc.lft.to/lastmile_qr_scan"}, "is_reserved": 0, "is_disabled": 0, "name": "c1c93e1ec197e882c11df0d3826215ae", "bike_id": "c1c93e1ec197e882c11df0d3826215ae", "fusion_lat": 0.0, "lon": -77.03172716666667, "type": "electric_scooter", "fusion_lon": 0.0, "lat": 38.92964716666667}, {"rental_uris": {"android": "https://dc.lft.to/lastmile_qr_scan", "ios": "https://dc.lft.to/lastmile_qr_scan"}, "is_reserved": 0, "is_disabled": 0, "name": "754b67e80dc05b177f7a05dc18da8ae0", "bike_id": "754b67e80dc05b177f7a05dc18da8ae0", "fusion_lat": 0.0, "lon": -77.05506033333333, "type": "electric_scooter", "fusion_lon": 0.0, "lat": 38.9283035}, {"rental_uris": {"android": "https://dc.lft.to/lastmile_qr_scan", "ios": "https://dc.lft.to/lastmile_qr_scan"}, "is_reserved": 0, "is_disabled": 0, "name": "def44f6ab731fad4324ba20934f9e136", "bike_id": "def44f6ab731fad4324ba20934f9e136", "fusion_lat": 0.0, "lon": -76.96711083333334, "type": "electric_scooter", "fusion_lon": 0.0, "lat": 38.859730666666664}, {"rental_uris": {"android": "https://dc.lft.to/lastmile_qr_scan", "ios": "https://dc.lft.to/lastmile_qr_scan"}, "is_reserved": 0, "is_disabled": 0, "name": "289193a28bb974df72e16ef1971e307c", "bike_id": "289193a28bb974df72e16ef1971e307c", "fusion_lat": 0.0, "lon": -77.03248, "type": "electric_scooter", "fusion_lon": 0.0, "lat": 38.917089833333335}, {"rental_uris": {"android": "https://dc.lft.to/lastmile_qr_scan", "ios": "https://dc.lft.to/lastmile_qr_scan"}, "is_reserved": 0, "is_disabled": 0, "name": "0bc9bec3627db3c8285c82b525a0a273", "bike_id": "0bc9bec3627db3c8285c82b525a0a273", "fusion_lat": 0.0, "lon": -77.02207383333334, "type": "electric_bike", "fusion_lon": 0.0, "lat": 38.96494766666667}, {"rental_uris": {"android": "https://dc.lft.to/lastmile_qr_scan", "ios": "https://dc.lft.to/lastmile_qr_scan"}, "is_reserved": 0, "is_disabled": 0, "name": "42413e04de27592669da472ae63aa52e", "bike_id": "42413e04de27592669da472ae63aa52e", "fusion_lat": 0.0, "lon": -77.02707166666667, "type": "electric_scooter", "fusion_lon": 0.0, "lat": 38.906687166666664}, {"rental_uris": {"android": "https://dc.lft.to/lastmile_qr_scan", "ios": "https://dc.lft.to/lastmile_qr_scan"}, "is_reserved": 0, "is_disabled": 0, "name": "7fe87d6786a4a9ba985bd127ff23e158", "bike_id": "7fe87d6786a4a9ba985bd127ff23e158", "fusion_lat": 0.0, "lon": -77.02083066666667, "type": "electric_scooter", "fusion_lon": 0.0, "lat": 38.926998166666664}, {"rental_uris": {"android": "https://dc.lft.to/lastmile_qr_scan", "ios": "https://dc.lft.to/lastmile_qr_scan"}, "is_reserved": 0, "is_disabled": 0, "name": "30e07686594f5b10dd4d728c9a79078c", "bike_id": "30e07686594f5b10dd4d728c9a79078c", "fusion_lat": 0.0, "lon": -77.0186525, "type": "electric_scooter", "fusion_lon": 0.0, "lat": 38.9515295}, {"rental_uris": {"android": "https://dc.lft.to/lastmile_qr_scan", "ios": "https://dc.lft.to/lastmile_qr_scan"}, "is_reserved": 0, "is_disabled": 0, "name": "5b0b9da1557bab284d33f6dde4521bc8", "bike_id": "5b0b9da1557bab284d33f6dde4521bc8", "fusion_lat": 0.0, "lon": -77.02492233333334, "type": "electric_scooter", "fusion_lon": 0.0, "lat": 38.91752566666667}, {"rental_uris": {"android": "https://dc.lft.to/lastmile_qr_scan", "ios": "https://dc.lft.to/lastmile_qr_scan"}, "is_reserved": 0, "is_disabled": 0, "name": "f724956a906f665a52e7b998baf5f877", "bike_id": "f724956a906f665a52e7b998baf5f877", "fusion_lat": 0.0, "lon": -77.02183233333334, "type": "electric_scooter", "fusion_lon": 0.0, "lat": 38.91480216666667}, {"rental_uris": {"android": "https://dc.lft.to/lastmile_qr_scan", "ios": "https://dc.lft.to/lastmile_qr_scan"}, "is_reserved": 0, "is_disabled": 0, "name": "89ca260213fd9b5f18d8880a2c66b092", "bike_id": "89ca260213fd9b5f18d8880a2c66b092", "fusion_lat": 0.0, "lon": -76.98566466666666, "type": "electric_scooter", "fusion_lon": 0.0, "lat": 38.907120666666664}, {"rental_uris": {"android": "https://dc.lft.to/lastmile_qr_scan", "ios": "https://dc.lft.to/lastmile_qr_scan"}, "is_reserved": 0, "is_disabled": 0, "name": "5d395a2d7d21940d3b39e29fc635cb9e", "bike_id": "5d395a2d7d21940d3b39e29fc635cb9e", "fusion_lat": 0.0, "lon": -77.01635716666667, "type": "electric_scooter", "fusion_lon": 0.0, "lat": 38.9036505}, {"rental_uris": {"android": "https://dc.lft.to/lastmile_qr_scan", "ios": "https://dc.lft.to/lastmile_qr_scan"}, "is_reserved": 0, "is_disabled": 0, "name": "5a1e32b3a161df554e3b1f989c63da68", "bike_id": "5a1e32b3a161df554e3b1f989c63da68", "fusion_lat": 0.0, "lon": -77.034656, "type": "electric_scooter", "fusion_lon": 0.0, "lat": 38.916867}, {"rental_uris": {"android": "https://dc.lft.to/lastmile_qr_scan", "ios": "https://dc.lft.to/lastmile_qr_scan"}, "is_reserved": 0, "is_disabled": 0, "name": "e4af90c548d36b1695855903d7340cc6", "bike_id": "e4af90c548d36b1695855903d7340cc6", "fusion_lat": 0.0, "lon": -77.04517216666666, "type": "electric_scooter", "fusion_lon": 0.0, "lat": 38.9055295}, {"rental_uris": {"android": "https://dc.lft.to/lastmile_qr_scan", "ios": "https://dc.lft.to/lastmile_qr_scan"}, "is_reserved": 0, "is_disabled": 0, "name": "be05b07f643f422fa5438e5ac3fd4707", "bike_id": "be05b07f643f422fa5438e5ac3fd4707", "fusion_lat": 0.0, "lon": -77.0263445, "type": "electric_scooter", "fusion_lon": 0.0, "lat": 38.930304166666666}, {"rental_uris": {"android": "https://dc.lft.to/lastmile_qr_scan", "ios": "https://dc.lft.to/lastmile_qr_scan"}, "is_reserved": 0, "is_disabled": 0, "name": "f63b338d0f9745df7af7daf609e7ca1b", "bike_id": "f63b338d0f9745df7af7daf609e7ca1b", "fusion_lat": 0.0, "lon": -77.037572, "type": "electric_scooter", "fusion_lon": 0.0, "lat": 38.92930416666667}, {"rental_uris": {"android": "https://dc.lft.to/lastmile_qr_scan", "ios": "https://dc.lft.to/lastmile_qr_scan"}, "is_reserved": 0, "is_disabled": 0, "name": "d1fc4e49dbbda228a252fb4ce87056a7", "bike_id": "d1fc4e49dbbda228a252fb4ce87056a7", "fusion_lat": 0.0, "lon": -77.06825816666667, "type": "electric_scooter", "fusion_lon": 0.0, "lat": 38.91662383333333}, {"rental_uris": {"android": "https://dc.lft.to/lastmile_qr_scan", "ios": "https://dc.lft.to/lastmile_qr_scan"}, "is_reserved": 0, "is_disabled": 0, "name": "f5ea85ab2bac09fbf4484eaac7976b00", "bike_id": "f5ea85ab2bac09fbf4484eaac7976b00", "fusion_lat": 0.0, "lon": -77.052223, "type": "electric_scooter", "fusion_lon": 0.0, "lat": 38.902661}, {"rental_uris": {"android": "https://dc.lft.to/lastmile_qr_scan", "ios": "https://dc.lft.to/lastmile_qr_scan"}, "is_reserved": 0, "is_disabled": 0, "name": "7002b08633989039e974379b6c2708ba", "bike_id": "7002b08633989039e974379b6c2708ba", "fusion_lat": 0.0, "lon": -77.04178733333333, "type": "electric_scooter", "fusion_lon": 0.0, "lat": 38.91732366666667}, {"rental_uris": {"android": "https://dc.lft.to/lastmile_qr_scan", "ios": "https://dc.lft.to/lastmile_qr_scan"}, "is_reserved": 0, "is_disabled": 0, "name": "2e9ffe8cf8360287b2af1cdefa15d660", "bike_id": "2e9ffe8cf8360287b2af1cdefa15d660", "fusion_lat": 0.0, "lon": -77.02694516666666, "type": "electric_scooter", "fusion_lon": 0.0, "lat": 38.916735}, {"rental_uris": {"android": "https://dc.lft.to/lastmile_qr_scan", "ios": "https://dc.lft.to/lastmile_qr_scan"}, "is_reserved": 0, "is_disabled": 0, "name": "71260fdde84f61b528c1d3c3f07909ff", "bike_id": "71260fdde84f61b528c1d3c3f07909ff", "fusion_lat": 0.0, "lon": -77.06566066666667, "type": "electric_bike", "fusion_lon": 0.0, "lat": 38.932601}, {"rental_uris": {"android": "https://dc.lft.to/lastmile_qr_scan", "ios": "https://dc.lft.to/lastmile_qr_scan"}, "is_reserved": 0, "is_disabled": 0, "name": "457076ac502a1abe26cd0ccb615013ba", "bike_id": "457076ac502a1abe26cd0ccb615013ba", "fusion_lat": 0.0, "lon": -77.01541516666667, "type": "electric_scooter", "fusion_lon": 0.0, "lat": 38.89226566666667}, {"rental_uris": {"android": "https://dc.lft.to/lastmile_qr_scan", "ios": "https://dc.lft.to/lastmile_qr_scan"}, "is_reserved": 0, "is_disabled": 0, "name": "a44c5d8bafcd50d223a30c808947613a", "bike_id": "a44c5d8bafcd50d223a30c808947613a", "fusion_lat": 0.0, "lon": -77.02256483333333, "type": "electric_scooter", "fusion_lon": 0.0, "lat": 38.928239}, {"rental_uris": {"android": "https://dc.lft.to/lastmile_qr_scan", "ios": "https://dc.lft.to/lastmile_qr_scan"}, "is_reserved": 0, "is_disabled": 0, "name": "287aa33934bea257c03a07cb6e55b0c0", "bike_id": "287aa33934bea257c03a07cb6e55b0c0", "fusion_lat": 0.0, "lon": -77.04561216666667, "type": "electric_scooter", "fusion_lon": 0.0, "lat": 38.913939666666664}, {"rental_uris": {"android": "https://dc.lft.to/lastmile_qr_scan", "ios": "https://dc.lft.to/lastmile_qr_scan"}, "is_reserved": 0, "is_disabled": 0, "name": "80a73240edb3f7b64b757f8364d39b7d", "bike_id": "80a73240edb3f7b64b757f8364d39b7d", "fusion_lat": 0.0, "lon": -76.99844916666666, "type": "electric_scooter", "fusion_lon": 0.0, "lat": 38.896197}, {"rental_uris": {"android": "https://dc.lft.to/lastmile_qr_scan", "ios": "https://dc.lft.to/lastmile_qr_scan"}, "is_reserved": 0, "is_disabled": 0, "name": "d1f0dad7790edb40789d6e02160d88e0", "bike_id": "d1f0dad7790edb40789d6e02160d88e0", "fusion_lat": 0.0, "lon": -77.01989433333334, "type": "electric_scooter", "fusion_lon": 0.0, "lat": 38.876092}, {"rental_uris": {"android": "https://dc.lft.to/lastmile_qr_scan", "ios": "https://dc.lft.to/lastmile_qr_scan"}, "is_reserved": 0, "is_disabled": 0, "name": "e86e08b8b8c6148a7ac2d9de364aa26b", "bike_id": "e86e08b8b8c6148a7ac2d9de364aa26b", "fusion_lat": 0.0, "lon": -77.03381533333334, "type": "electric_scooter", "fusion_lon": 0.0, "lat": 38.90256433333333}, {"rental_uris": {"android": "https://dc.lft.to/lastmile_qr_scan", "ios": "https://dc.lft.to/lastmile_qr_scan"}, "is_reserved": 0, "is_disabled": 0, "name": "2e4a3fd85f335d3a8a63c09c4bd41bbf", "bike_id": "2e4a3fd85f335d3a8a63c09c4bd41bbf", "fusion_lat": 0.0, "lon": -77.00064183333333, "type": "electric_bike", "fusion_lon": 0.0, "lat": 38.91906}, {"rental_uris": {"android": "https://dc.lft.to/lastmile_qr_scan", "ios": "https://dc.lft.to/lastmile_qr_scan"}, "is_reserved": 0, "is_disabled": 0, "name": "2390d049396b929827f7174d93d9aa29", "bike_id": "2390d049396b929827f7174d93d9aa29", "fusion_lat": 0.0, "lon": -77.03557233333333, "type": "electric_scooter", "fusion_lon": 0.0, "lat": 38.918329666666665}, {"rental_uris": {"android": "https://dc.lft.to/lastmile_qr_scan", "ios": "https://dc.lft.to/lastmile_qr_scan"}, "is_reserved": 0, "is_disabled": 0, "name": "d1f1acc2a776c42abc6dd23a5abab5bf", "bike_id": "d1f1acc2a776c42abc6dd23a5abab5bf", "fusion_lat": 0.0, "lon": -77.0209215, "type": "electric_scooter", "fusion_lon": 0.0, "lat": 38.921124666666664}, {"rental_uris": {"android": "https://dc.lft.to/lastmile_qr_scan", "ios": "https://dc.lft.to/lastmile_qr_scan"}, "is_reserved": 0, "is_disabled": 0, "name": "7779ce5ab25774c9d7a1311c33b3285a", "bike_id": "7779ce5ab25774c9d7a1311c33b3285a", "fusion_lat": 0.0, "lon": -77.02423183333333, "type": "electric_scooter", "fusion_lon": 0.0, "lat": 38.9209575}, {"rental_uris": {"android": "https://dc.lft.to/lastmile_qr_scan", "ios": "https://dc.lft.to/lastmile_qr_scan"}, "is_reserved": 0, "is_disabled": 0, "name": "ba49a9add30a2004c5e5361ce7867cc6", "bike_id": "ba49a9add30a2004c5e5361ce7867cc6", "fusion_lat": 0.0, "lon": -77.027673, "type": "electric_bike", "fusion_lon": 0.0, "lat": 38.91950766666667}, {"rental_uris": {"android": "https://dc.lft.to/lastmile_qr_scan", "ios": "https://dc.lft.to/lastmile_qr_scan"}, "is_reserved": 0, "is_disabled": 0, "name": "ad4ce49782e01b69e7f13f254db3befc", "bike_id": "ad4ce49782e01b69e7f13f254db3befc", "fusion_lat": 0.0, "lon": -77.03181083333334, "type": "electric_scooter", "fusion_lon": 0.0, "lat": 38.9182175}, {"rental_uris": {"android": "https://dc.lft.to/lastmile_qr_scan", "ios": "https://dc.lft.to/lastmile_qr_scan"}, "is_reserved": 0, "is_disabled": 0, "name": "f4b7b9b6256b2bf1ff2376ea602fb168", "bike_id": "f4b7b9b6256b2bf1ff2376ea602fb168", "fusion_lat": 0.0, "lon": -77.00650416666667, "type": "electric_scooter", "fusion_lon": 0.0, "lat": 38.909898166666665}, {"rental_uris": {"android": "https://dc.lft.to/lastmile_qr_scan", "ios": "https://dc.lft.to/lastmile_qr_scan"}, "is_reserved": 0, "is_disabled": 0, "name": "7d6853ce5aaa742c38121c2c355177dc", "bike_id": "7d6853ce5aaa742c38121c2c355177dc", "fusion_lat": 0.0, "lon": -77.0385125, "type": "electric_scooter", "fusion_lon": 0.0, "lat": 38.92166516666666}, {"rental_uris": {"android": "https://dc.lft.to/lastmile_qr_scan", "ios": "https://dc.lft.to/lastmile_qr_scan"}, "is_reserved": 0, "is_disabled": 0, "name": "ad57d89251c4210694b90bf1ad8b222b", "bike_id": "ad57d89251c4210694b90bf1ad8b222b", "fusion_lat": 0.0, "lon": -77.014455, "type": "electric_scooter", "fusion_lon": 0.0, "lat": 38.95816633333333}, {"rental_uris": {"android": "https://dc.lft.to/lastmile_qr_scan", "ios": "https://dc.lft.to/lastmile_qr_scan"}, "is_reserved": 0, "is_disabled": 0, "name": "efd2981b00b08885ec284c1558c1a044", "bike_id": "efd2981b00b08885ec284c1558c1a044", "fusion_lat": 0.0, "lon": -77.02637416666667, "type": "electric_scooter", "fusion_lon": 0.0, "lat": 38.929227166666664}, {"rental_uris": {"android": "https://dc.lft.to/lastmile_qr_scan", "ios": "https://dc.lft.to/lastmile_qr_scan"}, "is_reserved": 0, "is_disabled": 0, "name": "a3669f657b9d26c706fea372fe451697", "bike_id": "a3669f657b9d26c706fea372fe451697", "fusion_lat": 0.0, "lon": -77.065302, "type": "electric_scooter", "fusion_lon": 0.0, "lat": 38.90530833333333}, {"rental_uris": {"android": "https://dc.lft.to/lastmile_qr_scan", "ios": "https://dc.lft.to/lastmile_qr_scan"}, "is_reserved": 0, "is_disabled": 0, "name": "b9802c898de256d12d07aeb711e84249", "bike_id": "b9802c898de256d12d07aeb711e84249", "fusion_lat": 0.0, "lon": -77.02181816666666, "type": "electric_scooter", "fusion_lon": 0.0, "lat": 38.89226766666667}, {"rental_uris": {"android": "https://dc.lft.to/lastmile_qr_scan", "ios": "https://dc.lft.to/lastmile_qr_scan"}, "is_reserved": 0, "is_disabled": 0, "name": "1a756c40ba847d5f841078b74f997d2f", "bike_id": "1a756c40ba847d5f841078b74f997d2f", "fusion_lat": 0.0, "lon": -77.03724666666666, "type": "electric_scooter", "fusion_lon": 0.0, "lat": 38.917094166666665}, {"rental_uris": {"android": "https://dc.lft.to/lastmile_qr_scan", "ios": "https://dc.lft.to/lastmile_qr_scan"}, "is_reserved": 0, "is_disabled": 0, "name": "d8876c2d3aa2cb507dcac146c56b9c35", "bike_id": "d8876c2d3aa2cb507dcac146c56b9c35", "fusion_lat": 0.0, "lon": -77.0194995, "type": "electric_scooter", "fusion_lon": 0.0, "lat": 38.923336166666665}, {"rental_uris": {"android": "https://dc.lft.to/lastmile_qr_scan", "ios": "https://dc.lft.to/lastmile_qr_scan"}, "is_reserved": 0, "is_disabled": 0, "name": "4a80c71818dc54144743730227a2a804", "bike_id": "4a80c71818dc54144743730227a2a804", "fusion_lat": 0.0, "lon": -76.93364516666666, "type": "electric_scooter", "fusion_lon": 0.0, "lat": 38.89836316666667}, {"rental_uris": {"android": "https://dc.lft.to/lastmile_qr_scan", "ios": "https://dc.lft.to/lastmile_qr_scan"}, "is_reserved": 0, "is_disabled": 0, "name": "fc2801089d143e45fbf2eb135fa7126c", "bike_id": "fc2801089d143e45fbf2eb135fa7126c", "fusion_lat": 0.0, "lon": -77.23176083333334, "type": "electric_bike", "fusion_lon": 0.0, "lat": 38.928953}, {"rental_uris": {"android": "https://dc.lft.to/lastmile_qr_scan", "ios": "https://dc.lft.to/lastmile_qr_scan"}, "is_reserved": 0, "is_disabled": 0, "name": "449503a035eb5f6e50cf4f65f5d96bf0", "bike_id": "449503a035eb5f6e50cf4f65f5d96bf0", "fusion_lat": 0.0, "lon": -77.033549, "type": "electric_scooter", "fusion_lon": 0.0, "lat": 38.93585183333333}, {"rental_uris": {"android": "https://dc.lft.to/lastmile_qr_scan", "ios": "https://dc.lft.to/lastmile_qr_scan"}, "is_reserved": 0, "is_disabled": 0, "name": "0428c86d9cb054dc5bf85919d18f1d7b", "bike_id": "0428c86d9cb054dc5bf85919d18f1d7b", "fusion_lat": 0.0, "lon": -77.10292683333333, "type": "electric_bike", "fusion_lon": 0.0, "lat": 38.852552}, {"rental_uris": {"android": "https://dc.lft.to/lastmile_qr_scan", "ios": "https://dc.lft.to/lastmile_qr_scan"}, "is_reserved": 0, "is_disabled": 0, "name": "213bce1642a5e36902dc57748ae7e55b", "bike_id": "213bce1642a5e36902dc57748ae7e55b", "fusion_lat": 0.0, "lon": -77.07916083333333, "type": "electric_bike", "fusion_lon": 0.0, "lat": 38.838263}, {"rental_uris": {"android": "https://dc.lft.to/lastmile_qr_scan", "ios": "https://dc.lft.to/lastmile_qr_scan"}, "is_reserved": 0, "is_disabled": 0, "name": "dc5dce81a5e7161e83602d08aa3edd0b", "bike_id": "dc5dce81a5e7161e83602d08aa3edd0b", "fusion_lat": 0.0, "lon": -77.0511665, "type": "electric_scooter", "fusion_lon": 0.0, "lat": 38.92342383333333}, {"rental_uris": {"android": "https://dc.lft.to/lastmile_qr_scan", "ios": "https://dc.lft.to/lastmile_qr_scan"}, "is_reserved": 0, "is_disabled": 0, "name": "53d09a82482649ea57ea6e0a31609f30", "bike_id": "53d09a82482649ea57ea6e0a31609f30", "fusion_lat": 0.0, "lon": -76.97719616666667, "type": "electric_scooter", "fusion_lon": 0.0, "lat": 38.88816816666667}, {"rental_uris": {"android": "https://dc.lft.to/lastmile_qr_scan", "ios": "https://dc.lft.to/lastmile_qr_scan"}, "is_reserved": 0, "is_disabled": 0, "name": "782a6bbb9ce74b76b6addbaa13134a38", "bike_id": "782a6bbb9ce74b76b6addbaa13134a38", "fusion_lat": 0.0, "lon": -76.98957566666667, "type": "electric_bike", "fusion_lon": 0.0, "lat": 38.834042333333336}, {"rental_uris": {"android": "https://dc.lft.to/lastmile_qr_scan", "ios": "https://dc.lft.to/lastmile_qr_scan"}, "is_reserved": 0, "is_disabled": 0, "name": "d8e4a7cfcfbce92a2eb55a9b21ecfcc4", "bike_id": "d8e4a7cfcfbce92a2eb55a9b21ecfcc4", "fusion_lat": 0.0, "lon": -77.02597833333333, "type": "electric_scooter", "fusion_lon": 0.0, "lat": 38.9170255}, {"rental_uris": {"android": "https://dc.lft.to/lastmile_qr_scan", "ios": "https://dc.lft.to/lastmile_qr_scan"}, "is_reserved": 0, "is_disabled": 0, "name": "7b66655e09a6f32a4459bd80ff960f38", "bike_id": "7b66655e09a6f32a4459bd80ff960f38", "fusion_lat": 0.0, "lon": -76.92368933333333, "type": "electric_scooter", "fusion_lon": 0.0, "lat": 38.892500166666665}, {"rental_uris": {"android": "https://dc.lft.to/lastmile_qr_scan", "ios": "https://dc.lft.to/lastmile_qr_scan"}, "is_reserved": 0, "is_disabled": 0, "name": "91ff2acdd7f58cebbaa4e50231fcfcd6", "bike_id": "91ff2acdd7f58cebbaa4e50231fcfcd6", "fusion_lat": 0.0, "lon": -77.0225805, "type": "electric_scooter", "fusion_lon": 0.0, "lat": 38.91630966666666}, {"rental_uris": {"android": "https://dc.lft.to/lastmile_qr_scan", "ios": "https://dc.lft.to/lastmile_qr_scan"}, "is_reserved": 0, "is_disabled": 0, "name": "c25fa2a0043875d7bfbd39f2f8ab8b04", "bike_id": "c25fa2a0043875d7bfbd39f2f8ab8b04", "fusion_lat": 0.0, "lon": -76.98793, "type": "electric_scooter", "fusion_lon": 0.0, "lat": 38.900212833333335}, {"rental_uris": {"android": "https://dc.lft.to/lastmile_qr_scan", "ios": "https://dc.lft.to/lastmile_qr_scan"}, "is_reserved": 0, "is_disabled": 0, "name": "8a215d855f419fd828117a0073975e00", "bike_id": "8a215d855f419fd828117a0073975e00", "fusion_lat": 0.0, "lon": -77.05459666666667, "type": "electric_scooter", "fusion_lon": 0.0, "lat": 38.929058833333336}, {"rental_uris": {"android": "https://dc.lft.to/lastmile_qr_scan", "ios": "https://dc.lft.to/lastmile_qr_scan"}, "is_reserved": 0, "is_disabled": 0, "name": "d32c4a93e3f5e936a80a24670e70f930", "bike_id": "d32c4a93e3f5e936a80a24670e70f930", "fusion_lat": 0.0, "lon": -77.02135916666667, "type": "electric_scooter", "fusion_lon": 0.0, "lat": 38.92805466666667}, {"rental_uris": {"android": "https://dc.lft.to/lastmile_qr_scan", "ios": "https://dc.lft.to/lastmile_qr_scan"}, "is_reserved": 0, "is_disabled": 0, "name": "b47ec1169baff7b76455b27e52f743df", "bike_id": "b47ec1169baff7b76455b27e52f743df", "fusion_lat": 0.0, "lon": -77.0298185, "type": "electric_scooter", "fusion_lon": 0.0, "lat": 38.8961495}, {"rental_uris": {"android": "https://dc.lft.to/lastmile_qr_scan", "ios": "https://dc.lft.to/lastmile_qr_scan"}, "is_reserved": 0, "is_disabled": 0, "name": "1d2ccf8b67e8cb27f6d4dea209ac158d", "bike_id": "1d2ccf8b67e8cb27f6d4dea209ac158d", "fusion_lat": 0.0, "lon": -77.04667233333333, "type": "electric_scooter", "fusion_lon": 0.0, "lat": 38.904980333333334}, {"rental_uris": {"android": "https://dc.lft.to/lastmile_qr_scan", "ios": "https://dc.lft.to/lastmile_qr_scan"}, "is_reserved": 0, "is_disabled": 0, "name": "96379643e1f217bcd8cac704400a153b", "bike_id": "96379643e1f217bcd8cac704400a153b", "fusion_lat": 0.0, "lon": -77.03076833333333, "type": "electric_scooter", "fusion_lon": 0.0, "lat": 38.8996715}, {"rental_uris": {"android": "https://dc.lft.to/lastmile_qr_scan", "ios": "https://dc.lft.to/lastmile_qr_scan"}, "is_reserved": 0, "is_disabled": 0, "name": "6c64fcf913559c0287b6cec12481e1f4", "bike_id": "6c64fcf913559c0287b6cec12481e1f4", "fusion_lat": 0.0, "lon": -77.01886533333334, "type": "electric_scooter", "fusion_lon": 0.0, "lat": 38.91485516666667}, {"rental_uris": {"android": "https://dc.lft.to/lastmile_qr_scan", "ios": "https://dc.lft.to/lastmile_qr_scan"}, "is_reserved": 0, "is_disabled": 0, "name": "9d558eb3d3196f7265f20e846a2c401e", "bike_id": "9d558eb3d3196f7265f20e846a2c401e", "fusion_lat": 0.0, "lon": -77.07149766666667, "type": "electric_scooter", "fusion_lon": 0.0, "lat": 38.90602583333333}, {"rental_uris": {"android": "https://dc.lft.to/lastmile_qr_scan", "ios": "https://dc.lft.to/lastmile_qr_scan"}, "is_reserved": 0, "is_disabled": 0, "name": "79a47ce23cabf749a680416d533577fd", "bike_id": "79a47ce23cabf749a680416d533577fd", "fusion_lat": 0.0, "lon": -77.03072, "type": "electric_scooter", "fusion_lon": 0.0, "lat": 38.92252366666666}, {"rental_uris": {"android": "https://dc.lft.to/lastmile_qr_scan", "ios": "https://dc.lft.to/lastmile_qr_scan"}, "is_reserved": 0, "is_disabled": 0, "name": "22217a6b84fa548f36c19e577717213c", "bike_id": "22217a6b84fa548f36c19e577717213c", "fusion_lat": 0.0, "lon": -76.94662083333333, "type": "electric_scooter", "fusion_lon": 0.0, "lat": 38.898685666666665}, {"rental_uris": {"android": "https://dc.lft.to/lastmile_qr_scan", "ios": "https://dc.lft.to/lastmile_qr_scan"}, "is_reserved": 0, "is_disabled": 0, "name": "c3721af09371bb53a16f9d95d137bc38", "bike_id": "c3721af09371bb53a16f9d95d137bc38", "fusion_lat": 0.0, "lon": -77.021969, "type": "electric_scooter", "fusion_lon": 0.0, "lat": 38.911233333333335}, {"rental_uris": {"android": "https://dc.lft.to/lastmile_qr_scan", "ios": "https://dc.lft.to/lastmile_qr_scan"}, "is_reserved": 0, "is_disabled": 0, "name": "09e7eebe5a8d915a9674fd77bfe3cc19", "bike_id": "09e7eebe5a8d915a9674fd77bfe3cc19", "fusion_lat": 0.0, "lon": -77.0526895, "type": "electric_scooter", "fusion_lon": 0.0, "lat": 38.9014755}, {"rental_uris": {"android": "https://dc.lft.to/lastmile_qr_scan", "ios": "https://dc.lft.to/lastmile_qr_scan"}, "is_reserved": 0, "is_disabled": 0, "name": "90ed0ce7cb467775b978df91f42f96a1", "bike_id": "90ed0ce7cb467775b978df91f42f96a1", "fusion_lat": 0.0, "lon": -77.05006416666667, "type": "electric_scooter", "fusion_lon": 0.0, "lat": 38.892323}, {"rental_uris": {"android": "https://dc.lft.to/lastmile_qr_scan", "ios": "https://dc.lft.to/lastmile_qr_scan"}, "is_reserved": 0, "is_disabled": 0, "name": "61147961afb91085cdd4cc1df9555609", "bike_id": "61147961afb91085cdd4cc1df9555609", "fusion_lat": 0.0, "lon": -77.0263935, "type": "electric_scooter", "fusion_lon": 0.0, "lat": 38.92379733333333}, {"rental_uris": {"android": "https://dc.lft.to/lastmile_qr_scan", "ios": "https://dc.lft.to/lastmile_qr_scan"}, "is_reserved": 0, "is_disabled": 0, "name": "33e06f58e4922a0ac515153f225db3a9", "bike_id": "33e06f58e4922a0ac515153f225db3a9", "fusion_lat": 0.0, "lon": -76.99120783333333, "type": "electric_scooter", "fusion_lon": 0.0, "lat": 38.90906}, {"rental_uris": {"android": "https://dc.lft.to/lastmile_qr_scan", "ios": "https://dc.lft.to/lastmile_qr_scan"}, "is_reserved": 0, "is_disabled": 0, "name": "b76b9d3df72986095ab3386d04533588", "bike_id": "b76b9d3df72986095ab3386d04533588", "fusion_lat": 0.0, "lon": -77.04498683333334, "type": "electric_scooter", "fusion_lon": 0.0, "lat": 38.91187866666667}, {"rental_uris": {"android": "https://dc.lft.to/lastmile_qr_scan", "ios": "https://dc.lft.to/lastmile_qr_scan"}, "is_reserved": 0, "is_disabled": 0, "name": "05538301b83cfa471be7cb6431d9588b", "bike_id": "05538301b83cfa471be7cb6431d9588b", "fusion_lat": 0.0, "lon": -77.040003, "type": "electric_scooter", "fusion_lon": 0.0, "lat": 38.934222166666665}, {"rental_uris": {"android": "https://dc.lft.to/lastmile_qr_scan", "ios": "https://dc.lft.to/lastmile_qr_scan"}, "is_reserved": 0, "is_disabled": 0, "name": "915e1741d9913b1a07f579b624a9441e", "bike_id": "915e1741d9913b1a07f579b624a9441e", "fusion_lat": 0.0, "lon": -77.02932633333333, "type": "electric_scooter", "fusion_lon": 0.0, "lat": 38.93240466666666}, {"rental_uris": {"android": "https://dc.lft.to/lastmile_qr_scan", "ios": "https://dc.lft.to/lastmile_qr_scan"}, "is_reserved": 0, "is_disabled": 0, "name": "7f1e84ee7225f4a152772a0ec8860fd5", "bike_id": "7f1e84ee7225f4a152772a0ec8860fd5", "fusion_lat": 0.0, "lon": -77.01961533333333, "type": "electric_scooter", "fusion_lon": 0.0, "lat": 38.923309833333334}, {"rental_uris": {"android": "https://dc.lft.to/lastmile_qr_scan", "ios": "https://dc.lft.to/lastmile_qr_scan"}, "is_reserved": 0, "is_disabled": 0, "name": "619d15ca14e52461c7c4e043f1f166b2", "bike_id": "619d15ca14e52461c7c4e043f1f166b2", "fusion_lat": 0.0, "lon": -77.01621983333334, "type": "electric_scooter", "fusion_lon": 0.0, "lat": 38.90601683333333}, {"rental_uris": {"android": "https://dc.lft.to/lastmile_qr_scan", "ios": "https://dc.lft.to/lastmile_qr_scan"}, "is_reserved": 0, "is_disabled": 0, "name": "54eff17c57218c51ae224009ec016db5", "bike_id": "54eff17c57218c51ae224009ec016db5", "fusion_lat": 0.0, "lon": -77.02372866666667, "type": "electric_scooter", "fusion_lon": 0.0, "lat": 38.89221933333334}, {"rental_uris": {"android": "https://dc.lft.to/lastmile_qr_scan", "ios": "https://dc.lft.to/lastmile_qr_scan"}, "is_reserved": 0, "is_disabled": 0, "name": "8581c1d5e70e2a0a2d1fe64b52f76d40", "bike_id": "8581c1d5e70e2a0a2d1fe64b52f76d40", "fusion_lat": 0.0, "lon": -77.0425165, "type": "electric_scooter", "fusion_lon": 0.0, "lat": 38.91784916666667}, {"rental_uris": {"android": "https://dc.lft.to/lastmile_qr_scan", "ios": "https://dc.lft.to/lastmile_qr_scan"}, "is_reserved": 0, "is_disabled": 0, "name": "9d5d348972f4901a6258c5b8a5b00df5", "bike_id": "9d5d348972f4901a6258c5b8a5b00df5", "fusion_lat": 0.0, "lon": -77.04648016666667, "type": "electric_scooter", "fusion_lon": 0.0, "lat": 38.90280716666667}, {"rental_uris": {"android": "https://dc.lft.to/lastmile_qr_scan", "ios": "https://dc.lft.to/lastmile_qr_scan"}, "is_reserved": 0, "is_disabled": 0, "name": "6364967bd441e085c108f3457ec8ef2c", "bike_id": "6364967bd441e085c108f3457ec8ef2c", "fusion_lat": 0.0, "lon": -76.96894083333333, "type": "electric_bike", "fusion_lon": 0.0, "lat": 38.86989883333333}, {"rental_uris": {"android": "https://dc.lft.to/lastmile_qr_scan", "ios": "https://dc.lft.to/lastmile_qr_scan"}, "is_reserved": 0, "is_disabled": 0, "name": "4e1f67999c55575f30e9a0e69e46e568", "bike_id": "4e1f67999c55575f30e9a0e69e46e568", "fusion_lat": 0.0, "lon": -77.02301216666666, "type": "electric_scooter", "fusion_lon": 0.0, "lat": 38.91610516666667}, {"rental_uris": {"android": "https://dc.lft.to/lastmile_qr_scan", "ios": "https://dc.lft.to/lastmile_qr_scan"}, "is_reserved": 0, "is_disabled": 0, "name": "23b6b4fb60f959f8362b6477770b4412", "bike_id": "23b6b4fb60f959f8362b6477770b4412", "fusion_lat": 0.0, "lon": -76.99632783333334, "type": "electric_scooter", "fusion_lon": 0.0, "lat": 38.87735716666667}, {"rental_uris": {"android": "https://dc.lft.to/lastmile_qr_scan", "ios": "https://dc.lft.to/lastmile_qr_scan"}, "is_reserved": 0, "is_disabled": 0, "name": "f0ad9ba24ed2c00f98f7509a3f8ceec1", "bike_id": "f0ad9ba24ed2c00f98f7509a3f8ceec1", "fusion_lat": 0.0, "lon": -77.12904766666666, "type": "electric_bike", "fusion_lon": 0.0, "lat": 38.906234}, {"rental_uris": {"android": "https://dc.lft.to/lastmile_qr_scan", "ios": "https://dc.lft.to/lastmile_qr_scan"}, "is_reserved": 0, "is_disabled": 0, "name": "17343a8f00008a7e520669b959c03e0b", "bike_id": "17343a8f00008a7e520669b959c03e0b", "fusion_lat": 0.0, "lon": -77.0073705, "type": "electric_scooter", "fusion_lon": 0.0, "lat": 38.9053855}, {"rental_uris": {"android": "https://dc.lft.to/lastmile_qr_scan", "ios": "https://dc.lft.to/lastmile_qr_scan"}, "is_reserved": 0, "is_disabled": 0, "name": "bee8349a635639ef17950ac7275e04bd", "bike_id": "bee8349a635639ef17950ac7275e04bd", "fusion_lat": 0.0, "lon": -77.01737933333334, "type": "electric_scooter", "fusion_lon": 0.0, "lat": 38.877120166666664}, {"rental_uris": {"android": "https://dc.lft.to/lastmile_qr_scan", "ios": "https://dc.lft.to/lastmile_qr_scan"}, "is_reserved": 0, "is_disabled": 0, "name": "25f8d4ca5eaee4de517e6a7d66a5e01b", "bike_id": "25f8d4ca5eaee4de517e6a7d66a5e01b", "fusion_lat": 0.0, "lon": -77.05929, "type": "electric_scooter", "fusion_lon": 0.0, "lat": 38.90185566666667}, {"rental_uris": {"android": "https://dc.lft.to/lastmile_qr_scan", "ios": "https://dc.lft.to/lastmile_qr_scan"}, "is_reserved": 0, "is_disabled": 0, "name": "06d9b06c3d3fca57ce1b215f34206108", "bike_id": "06d9b06c3d3fca57ce1b215f34206108", "fusion_lat": 0.0, "lon": -77.01383516666667, "type": "electric_scooter", "fusion_lon": 0.0, "lat": 38.87601633333333}, {"rental_uris": {"android": "https://dc.lft.to/lastmile_qr_scan", "ios": "https://dc.lft.to/lastmile_qr_scan"}, "is_reserved": 0, "is_disabled": 0, "name": "8b3f0751386b85e13aca8f96ca609434", "bike_id": "8b3f0751386b85e13aca8f96ca609434", "fusion_lat": 0.0, "lon": -77.019501, "type": "electric_scooter", "fusion_lon": 0.0, "lat": 38.924170333333336}, {"rental_uris": {"android": "https://dc.lft.to/lastmile_qr_scan", "ios": "https://dc.lft.to/lastmile_qr_scan"}, "is_reserved": 0, "is_disabled": 0, "name": "44d790d57a2b52a9474e00c0dfaa5e31", "bike_id": "44d790d57a2b52a9474e00c0dfaa5e31", "fusion_lat": 0.0, "lon": -77.01861033333333, "type": "electric_scooter", "fusion_lon": 0.0, "lat": 38.949251833333335}, {"rental_uris": {"android": "https://dc.lft.to/lastmile_qr_scan", "ios": "https://dc.lft.to/lastmile_qr_scan"}, "is_reserved": 0, "is_disabled": 0, "name": "8add7fa83e8159eace97b69a0236c702", "bike_id": "8add7fa83e8159eace97b69a0236c702", "fusion_lat": 0.0, "lon": -77.0272255, "type": "electric_scooter", "fusion_lon": 0.0, "lat": 38.90685366666666}, {"rental_uris": {"android": "https://dc.lft.to/lastmile_qr_scan", "ios": "https://dc.lft.to/lastmile_qr_scan"}, "is_reserved": 0, "is_disabled": 0, "name": "737a647ac9f8ab1eebe7a278a9d971b8", "bike_id": "737a647ac9f8ab1eebe7a278a9d971b8", "fusion_lat": 0.0, "lon": -77.03586383333334, "type": "electric_bike", "fusion_lon": 0.0, "lat": 38.99226}, {"rental_uris": {"android": "https://dc.lft.to/lastmile_qr_scan", "ios": "https://dc.lft.to/lastmile_qr_scan"}, "is_reserved": 0, "is_disabled": 0, "name": "f8c8dc5de37ac5299c69aaab21d81efb", "bike_id": "f8c8dc5de37ac5299c69aaab21d81efb", "fusion_lat": 0.0, "lon": -76.98531916666667, "type": "electric_scooter", "fusion_lon": 0.0, "lat": 38.900133333333336}, {"rental_uris": {"android": "https://dc.lft.to/lastmile_qr_scan", "ios": "https://dc.lft.to/lastmile_qr_scan"}, "is_reserved": 0, "is_disabled": 0, "name": "a17963a867e90187ccf9ee28a7f5b16b", "bike_id": "a17963a867e90187ccf9ee28a7f5b16b", "fusion_lat": 0.0, "lon": -77.027839, "type": "electric_scooter", "fusion_lon": 0.0, "lat": 38.96162733333333}, {"rental_uris": {"android": "https://dc.lft.to/lastmile_qr_scan", "ios": "https://dc.lft.to/lastmile_qr_scan"}, "is_reserved": 0, "is_disabled": 0, "name": "5a7b6d9cb1146aecf44ae76e2845435b", "bike_id": "5a7b6d9cb1146aecf44ae76e2845435b", "fusion_lat": 0.0, "lon": -77.026933, "type": "electric_scooter", "fusion_lon": 0.0, "lat": 38.91671783333334}, {"rental_uris": {"android": "https://dc.lft.to/lastmile_qr_scan", "ios": "https://dc.lft.to/lastmile_qr_scan"}, "is_reserved": 0, "is_disabled": 0, "name": "8d91008e985b52e83ccc67cf1fd5db54", "bike_id": "8d91008e985b52e83ccc67cf1fd5db54", "fusion_lat": 0.0, "lon": -77.03170583333333, "type": "electric_scooter", "fusion_lon": 0.0, "lat": 38.9162745}, {"rental_uris": {"android": "https://dc.lft.to/lastmile_qr_scan", "ios": "https://dc.lft.to/lastmile_qr_scan"}, "is_reserved": 0, "is_disabled": 0, "name": "f450db076c70a198c645336a93c763c6", "bike_id": "f450db076c70a198c645336a93c763c6", "fusion_lat": 0.0, "lon": -77.0027615, "type": "electric_bike", "fusion_lon": 0.0, "lat": 38.838140833333334}, {"rental_uris": {"android": "https://dc.lft.to/lastmile_qr_scan", "ios": "https://dc.lft.to/lastmile_qr_scan"}, "is_reserved": 0, "is_disabled": 0, "name": "54fe0ce465f92e3a8060997b49153f74", "bike_id": "54fe0ce465f92e3a8060997b49153f74", "fusion_lat": 0.0, "lon": -77.03448583333333, "type": "electric_scooter", "fusion_lon": 0.0, "lat": 38.921442166666665}, {"rental_uris": {"android": "https://dc.lft.to/lastmile_qr_scan", "ios": "https://dc.lft.to/lastmile_qr_scan"}, "is_reserved": 0, "is_disabled": 0, "name": "cf3d689e52ee1e856030cb93ac9da870", "bike_id": "cf3d689e52ee1e856030cb93ac9da870", "fusion_lat": 0.0, "lon": -76.98744116666667, "type": "electric_scooter", "fusion_lon": 0.0, "lat": 38.87968433333333}, {"rental_uris": {"android": "https://dc.lft.to/lastmile_qr_scan", "ios": "https://dc.lft.to/lastmile_qr_scan"}, "is_reserved": 0, "is_disabled": 0, "name": "fb29918d7364787faae78ce202cfd30f", "bike_id": "fb29918d7364787faae78ce202cfd30f", "fusion_lat": 0.0, "lon": -76.96325116666667, "type": "electric_bike", "fusion_lon": 0.0, "lat": 38.93895666666667}, {"rental_uris": {"android": "https://dc.lft.to/lastmile_qr_scan", "ios": "https://dc.lft.to/lastmile_qr_scan"}, "is_reserved": 0, "is_disabled": 0, "name": "fc1755c8b920a832c4f73c44220ea3a5", "bike_id": "fc1755c8b920a832c4f73c44220ea3a5", "fusion_lat": 0.0, "lon": -77.02079083333334, "type": "electric_scooter", "fusion_lon": 0.0, "lat": 38.93025433333333}, {"rental_uris": {"android": "https://dc.lft.to/lastmile_qr_scan", "ios": "https://dc.lft.to/lastmile_qr_scan"}, "is_reserved": 0, "is_disabled": 0, "name": "6e7c65db5735a3516c9534a8c1fdb737", "bike_id": "6e7c65db5735a3516c9534a8c1fdb737", "fusion_lat": 0.0, "lon": -77.02823283333333, "type": "electric_scooter", "fusion_lon": 0.0, "lat": 38.899745333333335}, {"rental_uris": {"android": "https://dc.lft.to/lastmile_qr_scan", "ios": "https://dc.lft.to/lastmile_qr_scan"}, "is_reserved": 0, "is_disabled": 0, "name": "07a3430aa6a98ab4a39508f16de42b28", "bike_id": "07a3430aa6a98ab4a39508f16de42b28", "fusion_lat": 0.0, "lon": -77.0330675, "type": "electric_scooter", "fusion_lon": 0.0, "lat": 38.900001}, {"rental_uris": {"android": "https://dc.lft.to/lastmile_qr_scan", "ios": "https://dc.lft.to/lastmile_qr_scan"}, "is_reserved": 0, "is_disabled": 0, "name": "43f5e5b036f77a6558247dbc18437e7d", "bike_id": "43f5e5b036f77a6558247dbc18437e7d", "fusion_lat": 0.0, "lon": -77.00375916666667, "type": "electric_bike", "fusion_lon": 0.0, "lat": 38.836025666666664}, {"rental_uris": {"android": "https://dc.lft.to/lastmile_qr_scan", "ios": "https://dc.lft.to/lastmile_qr_scan"}, "is_reserved": 0, "is_disabled": 0, "name": "a19a8b1150ae6f585c5dccf289901753", "bike_id": "a19a8b1150ae6f585c5dccf289901753", "fusion_lat": 0.0, "lon": -77.041413, "type": "electric_scooter", "fusion_lon": 0.0, "lat": 38.93066133333333}, {"rental_uris": {"android": "https://dc.lft.to/lastmile_qr_scan", "ios": "https://dc.lft.to/lastmile_qr_scan"}, "is_reserved": 0, "is_disabled": 0, "name": "cd8b1cff8a1998c3153e0da87f6adb10", "bike_id": "cd8b1cff8a1998c3153e0da87f6adb10", "fusion_lat": 0.0, "lon": -77.03491566666666, "type": "electric_scooter", "fusion_lon": 0.0, "lat": 38.90123333333333}, {"rental_uris": {"android": "https://dc.lft.to/lastmile_qr_scan", "ios": "https://dc.lft.to/lastmile_qr_scan"}, "is_reserved": 0, "is_disabled": 0, "name": "81649da2108c0308b550974cdf0e9e2f", "bike_id": "81649da2108c0308b550974cdf0e9e2f", "fusion_lat": 0.0, "lon": -77.04338266666667, "type": "electric_scooter", "fusion_lon": 0.0, "lat": 38.904345166666666}, {"rental_uris": {"android": "https://dc.lft.to/lastmile_qr_scan", "ios": "https://dc.lft.to/lastmile_qr_scan"}, "is_reserved": 0, "is_disabled": 0, "name": "440a223727f18d1cc94304fc82e7e146", "bike_id": "440a223727f18d1cc94304fc82e7e146", "fusion_lat": 0.0, "lon": -77.02332283333334, "type": "electric_scooter", "fusion_lon": 0.0, "lat": 38.930528333333335}, {"rental_uris": {"android": "https://dc.lft.to/lastmile_qr_scan", "ios": "https://dc.lft.to/lastmile_qr_scan"}, "is_reserved": 0, "is_disabled": 0, "name": "52fba3cd446b75e64bc1664919bb237a", "bike_id": "52fba3cd446b75e64bc1664919bb237a", "fusion_lat": 0.0, "lon": -77.18346866666667, "type": "electric_bike", "fusion_lon": 0.0, "lat": 38.891246}, {"rental_uris": {"android": "https://dc.lft.to/lastmile_qr_scan", "ios": "https://dc.lft.to/lastmile_qr_scan"}, "is_reserved": 0, "is_disabled": 0, "name": "bebc473565f8b9ada348d334764401ac", "bike_id": "bebc473565f8b9ada348d334764401ac", "fusion_lat": 0.0, "lon": -77.03473233333334, "type": "electric_scooter", "fusion_lon": 0.0, "lat": 38.904459}, {"rental_uris": {"android": "https://dc.lft.to/lastmile_qr_scan", "ios": "https://dc.lft.to/lastmile_qr_scan"}, "is_reserved": 0, "is_disabled": 0, "name": "186d08029e0fa0e0bff50ae776148b90", "bike_id": "186d08029e0fa0e0bff50ae776148b90", "fusion_lat": 0.0, "lon": -77.02866883333333, "type": "electric_scooter", "fusion_lon": 0.0, "lat": 38.91255866666667}, {"rental_uris": {"android": "https://dc.lft.to/lastmile_qr_scan", "ios": "https://dc.lft.to/lastmile_qr_scan"}, "is_reserved": 0, "is_disabled": 0, "name": "a9c034b913c3106a82de0eb62805a40b", "bike_id": "a9c034b913c3106a82de0eb62805a40b", "fusion_lat": 0.0, "lon": -77.02948516666666, "type": "electric_scooter", "fusion_lon": 0.0, "lat": 38.905042333333334}, {"rental_uris": {"android": "https://dc.lft.to/lastmile_qr_scan", "ios": "https://dc.lft.to/lastmile_qr_scan"}, "is_reserved": 0, "is_disabled": 0, "name": "6fa53f6c412241ecd7750c1b87882d31", "bike_id": "6fa53f6c412241ecd7750c1b87882d31", "fusion_lat": 0.0, "lon": -77.00065483333333, "type": "electric_scooter", "fusion_lon": 0.0, "lat": 38.881182}, {"rental_uris": {"android": "https://dc.lft.to/lastmile_qr_scan", "ios": "https://dc.lft.to/lastmile_qr_scan"}, "is_reserved": 0, "is_disabled": 0, "name": "c2142103de96e0171da3a233e5796112", "bike_id": "c2142103de96e0171da3a233e5796112", "fusion_lat": 0.0, "lon": -76.9734805, "type": "electric_bike", "fusion_lon": 0.0, "lat": 38.86557583333333}, {"rental_uris": {"android": "https://dc.lft.to/lastmile_qr_scan", "ios": "https://dc.lft.to/lastmile_qr_scan"}, "is_reserved": 0, "is_disabled": 0, "name": "b68cced8940fdbcb3bd776e7528a17a3", "bike_id": "b68cced8940fdbcb3bd776e7528a17a3", "fusion_lat": 0.0, "lon": -77.02799633333333, "type": "electric_scooter", "fusion_lon": 0.0, "lat": 38.892272166666665}, {"rental_uris": {"android": "https://dc.lft.to/lastmile_qr_scan", "ios": "https://dc.lft.to/lastmile_qr_scan"}, "is_reserved": 0, "is_disabled": 0, "name": "4cd960ed4de863f10c29c978f9041f42", "bike_id": "4cd960ed4de863f10c29c978f9041f42", "fusion_lat": 0.0, "lon": -77.01711316666666, "type": "electric_scooter", "fusion_lon": 0.0, "lat": 38.8729295}, {"rental_uris": {"android": "https://dc.lft.to/lastmile_qr_scan", "ios": "https://dc.lft.to/lastmile_qr_scan"}, "is_reserved": 0, "is_disabled": 0, "name": "a3ecceed61613cfeb4f7f9443e63b497", "bike_id": "a3ecceed61613cfeb4f7f9443e63b497", "fusion_lat": 0.0, "lon": -77.02486516666667, "type": "electric_scooter", "fusion_lon": 0.0, "lat": 38.9418235}, {"rental_uris": {"android": "https://dc.lft.to/lastmile_qr_scan", "ios": "https://dc.lft.to/lastmile_qr_scan"}, "is_reserved": 0, "is_disabled": 0, "name": "45f48beeff00a1f2e6fdecb1dd4ae6a7", "bike_id": "45f48beeff00a1f2e6fdecb1dd4ae6a7", "fusion_lat": 0.0, "lon": -77.017579, "type": "electric_scooter", "fusion_lon": 0.0, "lat": 38.876876833333334}, {"rental_uris": {"android": "https://dc.lft.to/lastmile_qr_scan", "ios": "https://dc.lft.to/lastmile_qr_scan"}, "is_reserved": 0, "is_disabled": 0, "name": "6a6b1b1f41ccd7f286ae3f3a48fb42c0", "bike_id": "6a6b1b1f41ccd7f286ae3f3a48fb42c0", "fusion_lat": 0.0, "lon": -76.92509483333333, "type": "electric_scooter", "fusion_lon": 0.0, "lat": 38.88598966666667}, {"rental_uris": {"android": "https://dc.lft.to/lastmile_qr_scan", "ios": "https://dc.lft.to/lastmile_qr_scan"}, "is_reserved": 0, "is_disabled": 0, "name": "7decc0967dcec8e099af0d944cbe432b", "bike_id": "7decc0967dcec8e099af0d944cbe432b", "fusion_lat": 0.0, "lon": -77.03632766666666, "type": "electric_scooter", "fusion_lon": 0.0, "lat": 38.903842833333336}, {"rental_uris": {"android": "https://dc.lft.to/lastmile_qr_scan", "ios": "https://dc.lft.to/lastmile_qr_scan"}, "is_reserved": 0, "is_disabled": 0, "name": "8a567f0e8af9bd0b7bf7d2d61835aeb8", "bike_id": "8a567f0e8af9bd0b7bf7d2d61835aeb8", "fusion_lat": 0.0, "lon": -77.03306483333333, "type": "electric_scooter", "fusion_lon": 0.0, "lat": 38.92741566666667}, {"rental_uris": {"android": "https://dc.lft.to/lastmile_qr_scan", "ios": "https://dc.lft.to/lastmile_qr_scan"}, "is_reserved": 0, "is_disabled": 0, "name": "5b8787583fa1a752a9dbfc65b9ca306e", "bike_id": "5b8787583fa1a752a9dbfc65b9ca306e", "fusion_lat": 0.0, "lon": -77.0467515, "type": "electric_scooter", "fusion_lon": 0.0, "lat": 38.89827866666667}, {"rental_uris": {"android": "https://dc.lft.to/lastmile_qr_scan", "ios": "https://dc.lft.to/lastmile_qr_scan"}, "is_reserved": 0, "is_disabled": 0, "name": "44b1c7440d8042b95f38c7abab0f74dd", "bike_id": "44b1c7440d8042b95f38c7abab0f74dd", "fusion_lat": 0.0, "lon": -76.92621933333334, "type": "electric_scooter", "fusion_lon": 0.0, "lat": 38.883670333333335}, {"rental_uris": {"android": "https://dc.lft.to/lastmile_qr_scan", "ios": "https://dc.lft.to/lastmile_qr_scan"}, "is_reserved": 0, "is_disabled": 0, "name": "94cda8256c512e856bb892d94dbb9905", "bike_id": "94cda8256c512e856bb892d94dbb9905", "fusion_lat": 0.0, "lon": -77.041572, "type": "electric_scooter", "fusion_lon": 0.0, "lat": 38.916107833333335}, {"rental_uris": {"android": "https://dc.lft.to/lastmile_qr_scan", "ios": "https://dc.lft.to/lastmile_qr_scan"}, "is_reserved": 0, "is_disabled": 0, "name": "9d2047dd187b813514c4a1bfb66987f8", "bike_id": "9d2047dd187b813514c4a1bfb66987f8", "fusion_lat": 0.0, "lon": -77.0306075, "type": "electric_scooter", "fusion_lon": 0.0, "lat": 38.92377033333333}, {"rental_uris": {"android": "https://dc.lft.to/lastmile_qr_scan", "ios": "https://dc.lft.to/lastmile_qr_scan"}, "is_reserved": 0, "is_disabled": 0, "name": "a72d1f66ff7bcb51766487fc197bd5d5", "bike_id": "a72d1f66ff7bcb51766487fc197bd5d5", "fusion_lat": 0.0, "lon": -76.996367, "type": "electric_scooter", "fusion_lon": 0.0, "lat": 38.905322166666664}, {"rental_uris": {"android": "https://dc.lft.to/lastmile_qr_scan", "ios": "https://dc.lft.to/lastmile_qr_scan"}, "is_reserved": 0, "is_disabled": 0, "name": "e61ffb9061a608fbb212aafeb79f522b", "bike_id": "e61ffb9061a608fbb212aafeb79f522b", "fusion_lat": 0.0, "lon": -77.02332466666667, "type": "electric_scooter", "fusion_lon": 0.0, "lat": 38.940181833333334}, {"rental_uris": {"android": "https://dc.lft.to/lastmile_qr_scan", "ios": "https://dc.lft.to/lastmile_qr_scan"}, "is_reserved": 0, "is_disabled": 0, "name": "4473c8158f32c47a7b1da24f95d4032b", "bike_id": "4473c8158f32c47a7b1da24f95d4032b", "fusion_lat": 0.0, "lon": -77.05003766666667, "type": "electric_scooter", "fusion_lon": 0.0, "lat": 38.90533633333333}, {"rental_uris": {"android": "https://dc.lft.to/lastmile_qr_scan", "ios": "https://dc.lft.to/lastmile_qr_scan"}, "is_reserved": 0, "is_disabled": 0, "name": "67689ef27800dd0605e2c9092d2a7d7d", "bike_id": "67689ef27800dd0605e2c9092d2a7d7d", "fusion_lat": 0.0, "lon": -77.02296966666667, "type": "electric_scooter", "fusion_lon": 0.0, "lat": 38.91835316666667}, {"rental_uris": {"android": "https://dc.lft.to/lastmile_qr_scan", "ios": "https://dc.lft.to/lastmile_qr_scan"}, "is_reserved": 0, "is_disabled": 0, "name": "48c8f9571df39ade3605c203c7857473", "bike_id": "48c8f9571df39ade3605c203c7857473", "fusion_lat": 0.0, "lon": -77.03394716666666, "type": "electric_scooter", "fusion_lon": 0.0, "lat": 38.919233166666665},