{"data": {"bikes": [{"is_disabled": 0, "rental_uris": {"android": "https://dc.lft.to/lastmile_qr_scan", "ios": "https://dc.lft.to/lastmile_qr_scan"}, "is_reserved": 0, "name": "0fa8a7fb6eb751971e50eb1d66fbc3a9", "lon": -77.0333655, "type": "electric_scooter", "bike_id": "0fa8a7fb6eb751971e50eb1d66fbc3a9", "fusion_lon": 0.0, "lat": 38.918102, "fusion_lat": 0.0}, {"is_disabled": 0, "rental_uris": {"android": "https://dc.lft.to/lastmile_qr_scan", "ios": "https://dc.lft.to/lastmile_qr_scan"}, "is_reserved": 0, "name": "f27e2ef3ba07147f36c988147633b14b", "lon": -77.03920983333333, "type": "electric_scooter", "bike_id": "f27e2ef3ba07147f36c988147633b14b", "fusion_lon": 0.0, "lat": 38.9191085, "fusion_lat": 0.0}, {"is_disabled": 0, "rental_uris": {"android": "https://dc.lft.to/lastmile_qr_scan", "ios": "https://dc.lft.to/lastmile_qr_scan"}, "is_reserved": 0, "name": "0b0d1e68b143a821aaa69218639832b7", "lon": -76.930458, "type": "electric_scooter", "bike_id": "0b0d1e68b143a821aaa69218639832b7", "fusion_lon": 0.0, "lat": 38.8979435, "fusion_lat": 0.0}, {"is_disabled": 0, "rental_uris": {"android": "https://dc.lft.to/lastmile_qr_scan", "ios": "https://dc.lft.to/lastmile_qr_scan"}, "is_reserved": 0, "name": "9e9b22ed222fa085774905913df04440", "lon": -77.01763316666667, "type": "electric_scooter", "bike_id": "9e9b22ed222fa085774905913df04440", "fusion_lon": 0.0, "lat": 38.92099566666667, "fusion_lat": 0.0}, {"is_disabled": 0, "rental_uris": {"android": "https://dc.lft.to/lastmile_qr_scan", "ios": "https://dc.lft.to/lastmile_qr_scan"}, "is_reserved": 0, "name": "331b935e9090035c4a9b61c576830bb8", "lon": -77.127383, "type": "electric_bike", "bike_id": "331b935e9090035c4a9b61c576830bb8", "fusion_lon": 0.0, "lat": 38.8956565, "fusion_lat": 0.0}, {"is_disabled": 0, "rental_uris": {"android": "https://dc.lft.to/lastmile_qr_scan", "ios": "https://dc.lft.to/lastmile_qr_scan"}, "is_reserved": 0, "name": "c71e0add4903f2aaca6c66e99b8c1134", "lon": -77.03186466666666, "type": "electric_scooter", "bike_id": "c71e0add4903f2aaca6c66e99b8c1134", "fusion_lon": 0.0, "lat": 38.919739166666666, "fusion_lat": 0.0}, {"is_disabled": 0, "rental_uris": {"android": "https://dc.lft.to/lastmile_qr_scan", "ios": "https://dc.lft.to/lastmile_qr_scan"}, "is_reserved": 0, "name": "7bfbc5377aec32b15cb4896d377e1501", "lon": -77.02167966666667, "type": "electric_scooter", "bike_id": "7bfbc5377aec32b15cb4896d377e1501", "fusion_lon": 0.0, "lat": 38.89470433333334, "fusion_lat": 0.0}, {"is_disabled": 0, "rental_uris": {"android": "https://dc.lft.to/lastmile_qr_scan", "ios": "https://dc.lft.to/lastmile_qr_scan"}, "is_reserved": 0, "name": "a9961c49f4c1fe7a4fa9ccf92ed99319", "lon": -77.03188716666666, "type": "electric_scooter", "bike_id": "a9961c49f4c1fe7a4fa9ccf92ed99319", "fusion_lon": 0.0, "lat": 38.918376, "fusion_lat": 0.0}, {"is_disabled": 0, "rental_uris": {"android": "https://dc.lft.to/lastmile_qr_scan", "ios": "https://dc.lft.to/lastmile_qr_scan"}, "is_reserved": 0, "name": "c79132af0cd72fa627e3b6072cb85800", "lon": -76.99629533333334, "type": "electric_scooter", "bike_id": "c79132af0cd72fa627e3b6072cb85800", "fusion_lon": 0.0, "lat": 38.846186333333335, "fusion_lat": 0.0}, {"is_disabled": 0, "rental_uris": {"android": "https://dc.lft.to/lastmile_qr_scan", "ios": "https://dc.lft.to/lastmile_qr_scan"}, "is_reserved": 0, "name": "1088e782aa07be1302f2a75cc1d25d9d", "lon": -77.031783, "type": "electric_scooter", "bike_id": "1088e782aa07be1302f2a75cc1d25d9d", "fusion_lon": 0.0, "lat": 38.91416666666667, "fusion_lat": 0.0}, {"is_disabled": 0, "rental_uris": {"android": "https://dc.lft.to/lastmile_qr_scan", "ios": "https://dc.lft.to/lastmile_qr_scan"}, "is_reserved": 0, "name": "afff83454d7a4a59fc6c5892e1c766aa", "lon": -77.02217916666666, "type": "electric_scooter", "bike_id": "afff83454d7a4a59fc6c5892e1c766aa", "fusion_lon": 0.0, "lat": 38.935450333333335, "fusion_lat": 0.0}, {"is_disabled": 0, "rental_uris": {"android": "https://dc.lft.to/lastmile_qr_scan", "ios": "https://dc.lft.to/lastmile_qr_scan"}, "is_reserved": 0, "name": "9aeb359c16d1123ba6fa90b49ac7770d", "lon": -77.04042566666666, "type": "electric_scooter", "bike_id": "9aeb359c16d1123ba6fa90b49ac7770d", "fusion_lon": 0.0, "lat": 38.9004475, "fusion_lat": 0.0}, {"is_disabled": 0, "rental_uris": {"android": "https://dc.lft.to/lastmile_qr_scan", "ios": "https://dc.lft.to/lastmile_qr_scan"}, "is_reserved": 0, "name": "c5dc919c476057f17237ec5e8bef74fa", "lon": -77.041608, "type": "electric_scooter", "bike_id": "c5dc919c476057f17237ec5e8bef74fa", "fusion_lon": 0.0, "lat": 38.9141715, "fusion_lat": 0.0}, {"is_disabled": 0, "rental_uris": {"android": "https://dc.lft.to/lastmile_qr_scan", "ios": "https://dc.lft.to/lastmile_qr_scan"}, "is_reserved": 0, "name": "7678614796809d3071672ca45fc2ae22", "lon": -77.04660316666667, "type": "electric_scooter", "bike_id": "7678614796809d3071672ca45fc2ae22", "fusion_lon": 0.0, "lat": 38.90391983333333, "fusion_lat": 0.0}, {"is_disabled": 0, "rental_uris": {"android": "https://dc.lft.to/lastmile_qr_scan", "ios": "https://dc.lft.to/lastmile_qr_scan"}, "is_reserved": 0, "name": "d756f3d6b849b2c847217a4ceee63a44", "lon": -76.98111133333333, "type": "electric_scooter", "bike_id": "d756f3d6b849b2c847217a4ceee63a44", "fusion_lon": 0.0, "lat": 38.89604033333333, "fusion_lat": 0.0}, {"is_disabled": 0, "rental_uris": {"android": "https://dc.lft.to/lastmile_qr_scan", "ios": "https://dc.lft.to/lastmile_qr_scan"}, "is_reserved": 0, "name": "aa9425112dd97a4eabb844cc2db15e71", "lon": -77.01392733333333, "type": "electric_scooter", "bike_id": "aa9425112dd97a4eabb844cc2db15e71", "fusion_lon": 0.0, "lat": 38.88025433333333, "fusion_lat": 0.0}, {"is_disabled": 0, "rental_uris": {"android": "https://dc.lft.to/lastmile_qr_scan", "ios": "https://dc.lft.to/lastmile_qr_scan"}, "is_reserved": 0, "name": "9664df1bfd6bdfc3e0143bef35700f64", "lon": -77.031915, "type": "electric_scooter", "bike_id": "9664df1bfd6bdfc3e0143bef35700f64", "fusion_lon": 0.0, "lat": 38.910152833333335, "fusion_lat": 0.0}, {"is_disabled": 0, "rental_uris": {"android": "https://dc.lft.to/lastmile_qr_scan", "ios": "https://dc.lft.to/lastmile_qr_scan"}, "is_reserved": 0, "name": "a844c5a60f09be48266fa522b6d09dde", "lon": -77.02164766666667, "type": "electric_scooter", "bike_id": "a844c5a60f09be48266fa522b6d09dde", "fusion_lon": 0.0, "lat": 38.90182333333333, "fusion_lat": 0.0}, {"is_disabled": 0, "rental_uris": {"android": "https://dc.lft.to/lastmile_qr_scan", "ios": "https://dc.lft.to/lastmile_qr_scan"}, "is_reserved": 0, "name": "461ae574bfcd893125cb2cb9cd41b114", "lon": -77.00558166666667, "type": "electric_scooter", "bike_id": "461ae574bfcd893125cb2cb9cd41b114", "fusion_lon": 0.0, "lat": 38.90564083333334, "fusion_lat": 0.0}, {"is_disabled": 0, "rental_uris": {"android": "https://dc.lft.to/lastmile_qr_scan", "ios": "https://dc.lft.to/lastmile_qr_scan"}, "is_reserved": 0, "name": "4cc0e8113aa8162a22eeab8e8af3f990", "lon": -77.070779, "type": "electric_scooter", "bike_id": "4cc0e8113aa8162a22eeab8e8af3f990", "fusion_lon": 0.0, "lat": 38.93907033333333, "fusion_lat": 0.0}, {"is_disabled": 0, "rental_uris": {"android": "https://dc.lft.to/lastmile_qr_scan", "ios": "https://dc.lft.to/lastmile_qr_scan"}, "is_reserved": 0, "name": "b61fc1c8825abc53957206cd09a8090b", "lon": -77.0428245, "type": "electric_scooter", "bike_id": "b61fc1c8825abc53957206cd09a8090b", "fusion_lon": 0.0, "lat": 38.91036416666667, "fusion_lat": 0.0}, {"is_disabled": 0, "rental_uris": {"android": "https://dc.lft.to/lastmile_qr_scan", "ios": "https://dc.lft.to/lastmile_qr_scan"}, "is_reserved": 0, "name": "1abce18e6aace34139d05a0ac890bf11", "lon": -77.0207035, "type": "electric_scooter", "bike_id": "1abce18e6aace34139d05a0ac890bf11", "fusion_lon": 0.0, "lat": 38.884786166666665, "fusion_lat": 0.0}, {"is_disabled": 0, "rental_uris": {"android": "https://dc.lft.to/lastmile_qr_scan", "ios": "https://dc.lft.to/lastmile_qr_scan"}, "is_reserved": 0, "name": "f95d0c041d4448ff777e6bc0f8d01631", "lon": -76.996026, "type": "electric_scooter", "bike_id": "f95d0c041d4448ff777e6bc0f8d01631", "fusion_lon": 0.0, "lat": 38.86466133333333, "fusion_lat": 0.0}, {"is_disabled": 0, "rental_uris": {"android": "https://dc.lft.to/lastmile_qr_scan", "ios": "https://dc.lft.to/lastmile_qr_scan"}, "is_reserved": 0, "name": "d68635acf83844d043a5060b30d6c321", "lon": -77.03624483333333, "type": "electric_scooter", "bike_id": "d68635acf83844d043a5060b30d6c321", "fusion_lon": 0.0, "lat": 38.936834833333336, "fusion_lat": 0.0}, {"is_disabled": 0, "rental_uris": {"android": "https://dc.lft.to/lastmile_qr_scan", "ios": "https://dc.lft.to/lastmile_qr_scan"}, "is_reserved": 0, "name": "9d050516de21e654de5f7063cdbb970c", "lon": -77.005305, "type": "electric_scooter", "bike_id": "9d050516de21e654de5f7063cdbb970c", "fusion_lon": 0.0, "lat": 38.874695, "fusion_lat": 0.0}, {"is_disabled": 0, "rental_uris": {"android": "https://dc.lft.to/lastmile_qr_scan", "ios": "https://dc.lft.to/lastmile_qr_scan"}, "is_reserved": 0, "name": "529e33720a734ccb738c1ee415b3dabc", "lon": -77.003388, "type": "electric_scooter", "bike_id": "529e33720a734ccb738c1ee415b3dabc", "fusion_lon": 0.0, "lat": 38.8898905, "fusion_lat": 0.0}, {"is_disabled": 0, "rental_uris": {"android": "https://dc.lft.to/lastmile_qr_scan", "ios": "https://dc.lft.to/lastmile_qr_scan"}, "is_reserved": 0, "name": "9def1a570eab65c0abe19f68ea1fa73c", "lon": -77.0409765, "type": "electric_scooter", "bike_id": "9def1a570eab65c0abe19f68ea1fa73c", "fusion_lon": 0.0, "lat": 38.90788033333333, "fusion_lat": 0.0}, {"is_disabled": 0, "rental_uris": {"android": "https://dc.lft.to/lastmile_qr_scan", "ios": "https://dc.lft.to/lastmile_qr_scan"}, "is_reserved": 0, "name": "827d4f95ca3475d9bca725b8a412c927", "lon": -76.96521416666667, "type": "electric_scooter", "bike_id": "827d4f95ca3475d9bca725b8a412c927", "fusion_lon": 0.0, "lat": 38.876311, "fusion_lat": 0.0}, {"is_disabled": 0, "rental_uris": {"android": "https://dc.lft.to/lastmile_qr_scan", "ios": "https://dc.lft.to/lastmile_qr_scan"}, "is_reserved": 0, "name": "77f1f60081919db8b4212b4f291da000", "lon": -77.01891133333334, "type": "electric_scooter", "bike_id": "77f1f60081919db8b4212b4f291da000", "fusion_lon": 0.0, "lat": 38.90643383333333, "fusion_lat": 0.0}, {"is_disabled": 0, "rental_uris": {"android": "https://dc.lft.to/lastmile_qr_scan", "ios": "https://dc.lft.to/lastmile_qr_scan"}, "is_reserved": 0, "name": "75cb4c90fb9883cfbfa833263f904f95", "lon": -76.9655485, "type": "electric_bike", "bike_id": "75cb4c90fb9883cfbfa833263f904f95", "fusion_lon": 0.0, "lat": 38.950889333333336, "fusion_lat": 0.0}, {"is_disabled": 0, "rental_uris": {"android": "https://dc.lft.to/lastmile_qr_scan", "ios": "https://dc.lft.to/lastmile_qr_scan"}, "is_reserved": 0, "name": "fcc53db4532c44ff96e6c2fc779b8686", "lon": -77.040974, "type": "electric_scooter", "bike_id": "fcc53db4532c44ff96e6c2fc779b8686", "fusion_lon": 0.0, "lat": 38.91034616666666, "fusion_lat": 0.0}, {"is_disabled": 0, "rental_uris": {"android": "https://dc.lft.to/lastmile_qr_scan", "ios": "https://dc.lft.to/lastmile_qr_scan"}, "is_reserved": 0, "name": "13f5bd9322a8b6ec03c64da5a44abffb", "lon": -77.00224966666667, "type": "electric_scooter", "bike_id": "13f5bd9322a8b6ec03c64da5a44abffb", "fusion_lon": 0.0, "lat": 38.92508983333333, "fusion_lat": 0.0}, {"is_disabled": 0, "rental_uris": {"android": "https://dc.lft.to/lastmile_qr_scan", "ios": "https://dc.lft.to/lastmile_qr_scan"}, "is_reserved": 0, "name": "a23039cb6548e072914c5c984ca09c08", "lon": -77.02792966666667, "type": "electric_scooter", "bike_id": "a23039cb6548e072914c5c984ca09c08", "fusion_lon": 0.0, "lat": 38.91248, "fusion_lat": 0.0}, {"is_disabled": 0, "rental_uris": {"android": "https://dc.lft.to/lastmile_qr_scan", "ios": "https://dc.lft.to/lastmile_qr_scan"}, "is_reserved": 0, "name": "fc524f7fb0d4de432837375a9fbdfc17", "lon": -77.02411533333333, "type": "electric_scooter", "bike_id": "fc524f7fb0d4de432837375a9fbdfc17", "fusion_lon": 0.0, "lat": 38.90965283333333, "fusion_lat": 0.0}, {"is_disabled": 0, "rental_uris": {"android": "https://dc.lft.to/lastmile_qr_scan", "ios": "https://dc.lft.to/lastmile_qr_scan"}, "is_reserved": 0, "name": "90578e838654a9e2f092975da73199e3", "lon": -77.04670466666667, "type": "electric_scooter", "bike_id": "90578e838654a9e2f092975da73199e3", "fusion_lon": 0.0, "lat": 38.89507533333333, "fusion_lat": 0.0}, {"is_disabled": 0, "rental_uris": {"android": "https://dc.lft.to/lastmile_qr_scan", "ios": "https://dc.lft.to/lastmile_qr_scan"}, "is_reserved": 0, "name": "0481295e60892b766dde3dbd8954d3e2", "lon": -77.04107633333334, "type": "electric_scooter", "bike_id": "0481295e60892b766dde3dbd8954d3e2", "fusion_lon": 0.0, "lat": 38.9169575, "fusion_lat": 0.0}, {"is_disabled": 0, "rental_uris": {"android": "https://dc.lft.to/lastmile_qr_scan", "ios": "https://dc.lft.to/lastmile_qr_scan"}, "is_reserved": 0, "name": "35f294c1fe7f451a53c1bfedbdd14fc6", "lon": -77.00336416666667, "type": "electric_scooter", "bike_id": "35f294c1fe7f451a53c1bfedbdd14fc6", "fusion_lon": 0.0, "lat": 38.89922083333333, "fusion_lat": 0.0}, {"is_disabled": 0, "rental_uris": {"android": "https://dc.lft.to/lastmile_qr_scan", "ios": "https://dc.lft.to/lastmile_qr_scan"}, "is_reserved": 0, "name": "0b810c50c8f7e46175484b2ddd9c3434", "lon": -77.03867933333333, "type": "electric_scooter", "bike_id": "0b810c50c8f7e46175484b2ddd9c3434", "fusion_lon": 0.0, "lat": 38.915626833333334, "fusion_lat": 0.0}, {"is_disabled": 0, "rental_uris": {"android": "https://dc.lft.to/lastmile_qr_scan", "ios": "https://dc.lft.to/lastmile_qr_scan"}, "is_reserved": 0, "name": "b3e489de0646fc9f7d30800032baaff4", "lon": -77.0349295, "type": "electric_scooter", "bike_id": "b3e489de0646fc9f7d30800032baaff4", "fusion_lon": 0.0, "lat": 38.9215515, "fusion_lat": 0.0}, {"is_disabled": 0, "rental_uris": {"android": "https://dc.lft.to/lastmile_qr_scan", "ios": "https://dc.lft.to/lastmile_qr_scan"}, "is_reserved": 0, "name": "79bf2313ca0d87f46d22c05774b1437a", "lon": -77.0201815, "type": "electric_scooter", "bike_id": "79bf2313ca0d87f46d22c05774b1437a", "fusion_lon": 0.0, "lat": 38.883128666666664, "fusion_lat": 0.0}, {"is_disabled": 0, "rental_uris": {"android": "https://dc.lft.to/lastmile_qr_scan", "ios": "https://dc.lft.to/lastmile_qr_scan"}, "is_reserved": 0, "name": "701d671bb1a50bd65f7563f8aab18975", "lon": -77.036694, "type": "electric_scooter", "bike_id": "701d671bb1a50bd65f7563f8aab18975", "fusion_lon": 0.0, "lat": 38.92330166666667, "fusion_lat": 0.0}, {"is_disabled": 0, "rental_uris": {"android": "https://dc.lft.to/lastmile_qr_scan", "ios": "https://dc.lft.to/lastmile_qr_scan"}, "is_reserved": 0, "name": "37e7942518455dc1d7600197e0c2c9d6", "lon": -77.02157566666666, "type": "electric_scooter", "bike_id": "37e7942518455dc1d7600197e0c2c9d6", "fusion_lon": 0.0, "lat": 38.8848825, "fusion_lat": 0.0}, {"is_disabled": 0, "rental_uris": {"android": "https://dc.lft.to/lastmile_qr_scan", "ios": "https://dc.lft.to/lastmile_qr_scan"}, "is_reserved": 0, "name": "d21a7fddb74f2df154060c130750cafb", "lon": -76.99652433333333, "type": "electric_scooter", "bike_id": "d21a7fddb74f2df154060c130750cafb", "fusion_lon": 0.0, "lat": 38.88607866666667, "fusion_lat": 0.0}, {"is_disabled": 0, "rental_uris": {"android": "https://dc.lft.to/lastmile_qr_scan", "ios": "https://dc.lft.to/lastmile_qr_scan"}, "is_reserved": 0, "name": "e3356d8ea79c81de2a65fddf112cefe0", "lon": -77.03442333333334, "type": "electric_scooter", "bike_id": "e3356d8ea79c81de2a65fddf112cefe0", "fusion_lon": 0.0, "lat": 38.918032333333336, "fusion_lat": 0.0}, {"is_disabled": 0, "rental_uris": {"android": "https://dc.lft.to/lastmile_qr_scan", "ios": "https://dc.lft.to/lastmile_qr_scan"}, "is_reserved": 0, "name": "13b7c4fc7bb6ae53dfa77d08d4e61b81", "lon": -76.96885666666667, "type": "electric_bike", "bike_id": "13b7c4fc7bb6ae53dfa77d08d4e61b81", "fusion_lon": 0.0, "lat": 38.846134166666666, "fusion_lat": 0.0}, {"is_disabled": 0, "rental_uris": {"android": "https://dc.lft.to/lastmile_qr_scan", "ios": "https://dc.lft.to/lastmile_qr_scan"}, "is_reserved": 0, "name": "f6666e7c667034e4b377d9b014e4e075", "lon": -76.998997, "type": "electric_scooter", "bike_id": "f6666e7c667034e4b377d9b014e4e075", "fusion_lon": 0.0, "lat": 38.892070333333336, "fusion_lat": 0.0}, {"is_disabled": 0, "rental_uris": {"android": "https://dc.lft.to/lastmile_qr_scan", "ios": "https://dc.lft.to/lastmile_qr_scan"}, "is_reserved": 0, "name": "ed103a284c3339ddadd84c4018de167b", "lon": -77.03056683333334, "type": "electric_bike", "bike_id": "ed103a284c3339ddadd84c4018de167b", "fusion_lon": 0.0, "lat": 38.8835545, "fusion_lat": 0.0}, {"is_disabled": 0, "rental_uris": {"android": "https://dc.lft.to/lastmile_qr_scan", "ios": "https://dc.lft.to/lastmile_qr_scan"}, "is_reserved": 0, "name": "02c09c32cd800197f6f7c13e931389fa", "lon": -76.97803066666667, "type": "electric_scooter", "bike_id": "02c09c32cd800197f6f7c13e931389fa", "fusion_lon": 0.0, "lat": 38.920616833333334, "fusion_lat": 0.0}, {"is_disabled": 0, "rental_uris": {"android": "https://dc.lft.to/lastmile_qr_scan", "ios": "https://dc.lft.to/lastmile_qr_scan"}, "is_reserved": 0, "name": "874e68330f77bf1700291066e7c1d0b3", "lon": -76.979981, "type": "electric_scooter", "bike_id": "874e68330f77bf1700291066e7c1d0b3", "fusion_lon": 0.0, "lat": 38.90681416666666, "fusion_lat": 0.0}, {"is_disabled": 0, "rental_uris": {"android": "https://dc.lft.to/lastmile_qr_scan", "ios": "https://dc.lft.to/lastmile_qr_scan"}, "is_reserved": 0, "name": "8798295271eb12efc1efec084d2c942e", "lon": -77.01882166666667, "type": "electric_scooter", "bike_id": "8798295271eb12efc1efec084d2c942e", "fusion_lon": 0.0, "lat": 38.913207666666665, "fusion_lat": 0.0}, {"is_disabled": 0, "rental_uris": {"android": "https://dc.lft.to/lastmile_qr_scan", "ios": "https://dc.lft.to/lastmile_qr_scan"}, "is_reserved": 0, "name": "f399cb42cceab0de129909ba36d716fe", "lon": -77.01600366666666, "type": "electric_scooter", "bike_id": "f399cb42cceab0de129909ba36d716fe", "fusion_lon": 0.0, "lat": 38.8850635, "fusion_lat": 0.0}, {"is_disabled": 0, "rental_uris": {"android": "https://dc.lft.to/lastmile_qr_scan", "ios": "https://dc.lft.to/lastmile_qr_scan"}, "is_reserved": 0, "name": "a241cacd0946111d6dda1c22c99c8bef", "lon": -77.024107, "type": "electric_scooter", "bike_id": "a241cacd0946111d6dda1c22c99c8bef", "fusion_lon": 0.0, "lat": 38.90962283333333, "fusion_lat": 0.0}, {"is_disabled": 0, "rental_uris": {"android": "https://dc.lft.to/lastmile_qr_scan", "ios": "https://dc.lft.to/lastmile_qr_scan"}, "is_reserved": 0, "name": "1b19ccb053ae3e8f10554e2a8fc12108", "lon": -77.024763, "type": "electric_scooter", "bike_id": "1b19ccb053ae3e8f10554e2a8fc12108", "fusion_lon": 0.0, "lat": 38.939120833333334, "fusion_lat": 0.0}, {"is_disabled": 0, "rental_uris": {"android": "https://dc.lft.to/lastmile_qr_scan", "ios": "https://dc.lft.to/lastmile_qr_scan"}, "is_reserved": 0, "name": "d65a22331d335305080b8233af0ff942", "lon": -77.04474833333333, "type": "electric_scooter", "bike_id": "d65a22331d335305080b8233af0ff942", "fusion_lon": 0.0, "lat": 38.906673166666664, "fusion_lat": 0.0}, {"is_disabled": 0, "rental_uris": {"android": "https://dc.lft.to/lastmile_qr_scan", "ios": "https://dc.lft.to/lastmile_qr_scan"}, "is_reserved": 0, "name": "11e4686d17ec4d37108f5a13719e52b1", "lon": -76.93752, "type": "electric_scooter", "bike_id": "11e4686d17ec4d37108f5a13719e52b1", "fusion_lon": 0.0, "lat": 38.890347, "fusion_lat": 0.0}, {"is_disabled": 0, "rental_uris": {"android": "https://dc.lft.to/lastmile_qr_scan", "ios": "https://dc.lft.to/lastmile_qr_scan"}, "is_reserved": 0, "name": "032f3341bb03809899df7ea1e1767916", "lon": -77.01626166666667, "type": "electric_scooter", "bike_id": "032f3341bb03809899df7ea1e1767916", "fusion_lon": 0.0, "lat": 38.898675833333336, "fusion_lat": 0.0}, {"is_disabled": 0, "rental_uris": {"android": "https://dc.lft.to/lastmile_qr_scan", "ios": "https://dc.lft.to/lastmile_qr_scan"}, "is_reserved": 0, "name": "ed1af048893a76247ac3f79549d29d7c", "lon": -77.04317016666667, "type": "electric_bike", "bike_id": "ed1af048893a76247ac3f79549d29d7c", "fusion_lon": 0.0, "lat": 38.83124333333333, "fusion_lat": 0.0}, {"is_disabled": 0, "rental_uris": {"android": "https://dc.lft.to/lastmile_qr_scan", "ios": "https://dc.lft.to/lastmile_qr_scan"}, "is_reserved": 0, "name": "4d81359fdd3bcd80eacae39761cfb6b7", "lon": -77.02974283333333, "type": "electric_scooter", "bike_id": "4d81359fdd3bcd80eacae39761cfb6b7", "fusion_lon": 0.0, "lat": 38.898403, "fusion_lat": 0.0}, {"is_disabled": 0, "rental_uris": {"android": "https://dc.lft.to/lastmile_qr_scan", "ios": "https://dc.lft.to/lastmile_qr_scan"}, "is_reserved": 0, "name": "85ec6033b247cfd16db7b86f1b3a7621", "lon": -77.03995416666666, "type": "electric_scooter", "bike_id": "85ec6033b247cfd16db7b86f1b3a7621", "fusion_lon": 0.0, "lat": 38.91808183333333, "fusion_lat": 0.0}, {"is_disabled": 0, "rental_uris": {"android": "https://dc.lft.to/lastmile_qr_scan", "ios": "https://dc.lft.to/lastmile_qr_scan"}, "is_reserved": 0, "name": "81f0c1e51c2155d6ccc8b7f1839fadf0", "lon": -77.01288266666667, "type": "electric_scooter", "bike_id": "81f0c1e51c2155d6ccc8b7f1839fadf0", "fusion_lon": 0.0, "lat": 38.89998466666667, "fusion_lat": 0.0}, {"is_disabled": 0, "rental_uris": {"android": "https://dc.lft.to/lastmile_qr_scan", "ios": "https://dc.lft.to/lastmile_qr_scan"}, "is_reserved": 0, "name": "7c40df48a21be046a2f886cf539346de", "lon": -76.96522733333333, "type": "electric_scooter", "bike_id": "7c40df48a21be046a2f886cf539346de", "fusion_lon": 0.0, "lat": 38.85080983333334, "fusion_lat": 0.0}, {"is_disabled": 0, "rental_uris": {"android": "https://dc.lft.to/lastmile_qr_scan", "ios": "https://dc.lft.to/lastmile_qr_scan"}, "is_reserved": 0, "name": "95af73e6bd556df66e4e91872e438746", "lon": -77.0269465, "type": "electric_scooter", "bike_id": "95af73e6bd556df66e4e91872e438746", "fusion_lon": 0.0, "lat": 38.911385833333334, "fusion_lat": 0.0}, {"is_disabled": 0, "rental_uris": {"android": "https://dc.lft.to/lastmile_qr_scan", "ios": "https://dc.lft.to/lastmile_qr_scan"}, "is_reserved": 0, "name": "91255ab546369bd65c40b4fec8e2899f", "lon": -77.03813283333334, "type": "electric_scooter", "bike_id": "91255ab546369bd65c40b4fec8e2899f", "fusion_lon": 0.0, "lat": 38.909698166666665, "fusion_lat": 0.0}, {"is_disabled": 0, "rental_uris": {"android": "https://dc.lft.to/lastmile_qr_scan", "ios": "https://dc.lft.to/lastmile_qr_scan"}, "is_reserved": 0, "name": "e65e9aa28a6ffbd1c1c7aa4fb8955ec6", "lon": -77.03228833333333, "type": "electric_scooter", "bike_id": "e65e9aa28a6ffbd1c1c7aa4fb8955ec6", "fusion_lon": 0.0, "lat": 38.9052775, "fusion_lat": 0.0}, {"is_disabled": 0, "rental_uris": {"android": "https://dc.lft.to/lastmile_qr_scan", "ios": "https://dc.lft.to/lastmile_qr_scan"}, "is_reserved": 0, "name": "023f11e6f4eaf606ce1c50ce998e1c38", "lon": -77.00759133333334, "type": "electric_scooter", "bike_id": "023f11e6f4eaf606ce1c50ce998e1c38", "fusion_lon": 0.0, "lat": 38.91027783333333, "fusion_lat": 0.0}, {"is_disabled": 0, "rental_uris": {"android": "https://dc.lft.to/lastmile_qr_scan", "ios": "https://dc.lft.to/lastmile_qr_scan"}, "is_reserved": 0, "name": "6cfb89fbe8bbb9ae44c66b763ab02d5e", "lon": -77.04168816666666, "type": "electric_scooter", "bike_id": "6cfb89fbe8bbb9ae44c66b763ab02d5e", "fusion_lon": 0.0, "lat": 38.901537833333336, "fusion_lat": 0.0}, {"is_disabled": 0, "rental_uris": {"android": "https://dc.lft.to/lastmile_qr_scan", "ios": "https://dc.lft.to/lastmile_qr_scan"}, "is_reserved": 0, "name": "cc10bac1144243d2c59c2fe62e53a742", "lon": -77.01780033333333, "type": "electric_scooter", "bike_id": "cc10bac1144243d2c59c2fe62e53a742", "fusion_lon": 0.0, "lat": 38.877275, "fusion_lat": 0.0}, {"is_disabled": 0, "rental_uris": {"android": "https://dc.lft.to/lastmile_qr_scan", "ios": "https://dc.lft.to/lastmile_qr_scan"}, "is_reserved": 0, "name": "457a587dc3f8251b43127d537bf65141", "lon": -76.98332566666667, "type": "electric_scooter", "bike_id": "457a587dc3f8251b43127d537bf65141", "fusion_lon": 0.0, "lat": 38.8954405, "fusion_lat": 0.0}, {"is_disabled": 0, "rental_uris": {"android": "https://dc.lft.to/lastmile_qr_scan", "ios": "https://dc.lft.to/lastmile_qr_scan"}, "is_reserved": 0, "name": "735a5e40a306a7aab1fea7df74ff102c", "lon": -77.053297, "type": "electric_scooter", "bike_id": "735a5e40a306a7aab1fea7df74ff102c", "fusion_lon": 0.0, "lat": 38.92316433333333, "fusion_lat": 0.0}, {"is_disabled": 0, "rental_uris": {"android": "https://dc.lft.to/lastmile_qr_scan", "ios": "https://dc.lft.to/lastmile_qr_scan"}, "is_reserved": 0, "name": "6c3db1866e1ac7075d412c3beb522c29", "lon": -77.0085935, "type": "electric_bike", "bike_id": "6c3db1866e1ac7075d412c3beb522c29", "fusion_lon": 0.0, "lat": 38.827292666666665, "fusion_lat": 0.0}, {"is_disabled": 0, "rental_uris": {"android": "https://dc.lft.to/lastmile_qr_scan", "ios": "https://dc.lft.to/lastmile_qr_scan"}, "is_reserved": 0, "name": "d177fd26b0e2d1ceca3a0ab7a8197e39", "lon": -77.02925866666666, "type": "electric_scooter", "bike_id": "d177fd26b0e2d1ceca3a0ab7a8197e39", "fusion_lon": 0.0, "lat": 38.88216933333333, "fusion_lat": 0.0}, {"is_disabled": 0, "rental_uris": {"android": "https://dc.lft.to/lastmile_qr_scan", "ios": "https://dc.lft.to/lastmile_qr_scan"}, "is_reserved": 0, "name": "cb5f905c7e13438aaa7d6bc45182f1d7", "lon": -77.038596, "type": "electric_scooter", "bike_id": "cb5f905c7e13438aaa7d6bc45182f1d7", "fusion_lon": 0.0, "lat": 38.917164666666665, "fusion_lat": 0.0}, {"is_disabled": 0, "rental_uris": {"android": "https://dc.lft.to/lastmile_qr_scan", "ios": "https://dc.lft.to/lastmile_qr_scan"}, "is_reserved": 0, "name": "bc6960043c48635447ac068a273abb78", "lon": -77.04187266666666, "type": "electric_scooter", "bike_id": "bc6960043c48635447ac068a273abb78", "fusion_lon": 0.0, "lat": 38.916534666666664, "fusion_lat": 0.0}, {"is_disabled": 0, "rental_uris": {"android": "https://dc.lft.to/lastmile_qr_scan", "ios": "https://dc.lft.to/lastmile_qr_scan"}, "is_reserved": 0, "name": "fbd43b608ef968f2b8b6a512e3790c3e", "lon": -77.0294225, "type": "electric_scooter", "bike_id": "fbd43b608ef968f2b8b6a512e3790c3e", "fusion_lon": 0.0, "lat": 38.917045333333334, "fusion_lat": 0.0}, {"is_disabled": 0, "rental_uris": {"android": "https://dc.lft.to/lastmile_qr_scan", "ios": "https://dc.lft.to/lastmile_qr_scan"}, "is_reserved": 0, "name": "166951f3601e92f06821d39d2e359bfe", "lon": -77.02585766666667, "type": "electric_scooter", "bike_id": "166951f3601e92f06821d39d2e359bfe", "fusion_lon": 0.0, "lat": 38.9203495, "fusion_lat": 0.0}, {"is_disabled": 0, "rental_uris": {"android": "https://dc.lft.to/lastmile_qr_scan", "ios": "https://dc.lft.to/lastmile_qr_scan"}, "is_reserved": 0, "name": "e10378830a66e51755a743370d44b492", "lon": -77.0021215, "type": "electric_scooter", "bike_id": "e10378830a66e51755a743370d44b492", "fusion_lon": 0.0, "lat": 38.9025755, "fusion_lat": 0.0}, {"is_disabled": 0, "rental_uris": {"android": "https://dc.lft.to/lastmile_qr_scan", "ios": "https://dc.lft.to/lastmile_qr_scan"}, "is_reserved": 0, "name": "98e8de27102b7fba83df6da5781b24df", "lon": -76.91416483333333, "type": "electric_bike", "bike_id": "98e8de27102b7fba83df6da5781b24df", "fusion_lon": 0.0, "lat": 38.898311166666666, "fusion_lat": 0.0}, {"is_disabled": 0, "rental_uris": {"android": "https://dc.lft.to/lastmile_qr_scan", "ios": "https://dc.lft.to/lastmile_qr_scan"}, "is_reserved": 0, "name": "31c5915bb236109ab9a02ea47fe27ab2", "lon": -77.0320035, "type": "electric_scooter", "bike_id": "31c5915bb236109ab9a02ea47fe27ab2", "fusion_lon": 0.0, "lat": 38.918471833333335, "fusion_lat": 0.0}, {"is_disabled": 0, "rental_uris": {"android": "https://dc.lft.to/lastmile_qr_scan", "ios": "https://dc.lft.to/lastmile_qr_scan"}, "is_reserved": 0, "name": "216ab746c427ad2698f846594f8ddacc", "lon": -77.05987816666666, "type": "electric_scooter", "bike_id": "216ab746c427ad2698f846594f8ddacc", "fusion_lon": 0.0, "lat": 38.9119475, "fusion_lat": 0.0}, {"is_disabled": 0, "rental_uris": {"android": "https://dc.lft.to/lastmile_qr_scan", "ios": "https://dc.lft.to/lastmile_qr_scan"}, "is_reserved": 0, "name": "aa6492bb66e6828b2ab7ba6e4cbab74f", "lon": -77.018578, "type": "electric_scooter", "bike_id": "aa6492bb66e6828b2ab7ba6e4cbab74f", "fusion_lon": 0.0, "lat": 38.915687, "fusion_lat": 0.0}, {"is_disabled": 0, "rental_uris": {"android": "https://dc.lft.to/lastmile_qr_scan", "ios": "https://dc.lft.to/lastmile_qr_scan"}, "is_reserved": 0, "name": "484621ff81df61c3501add64d9487f12", "lon": -76.9187585, "type": "electric_scooter", "bike_id": "484621ff81df61c3501add64d9487f12", "fusion_lon": 0.0, "lat": 38.89083, "fusion_lat": 0.0}, {"is_disabled": 0, "rental_uris": {"android": "https://dc.lft.to/lastmile_qr_scan", "ios": "https://dc.lft.to/lastmile_qr_scan"}, "is_reserved": 0, "name": "d443e83d73d509b4e148d8f34eadd4b7", "lon": -77.04056166666666, "type": "electric_scooter", "bike_id": "d443e83d73d509b4e148d8f34eadd4b7", "fusion_lon": 0.0, "lat": 38.9014325, "fusion_lat": 0.0}, {"is_disabled": 0, "rental_uris": {"android": "https://dc.lft.to/lastmile_qr_scan", "ios": "https://dc.lft.to/lastmile_qr_scan"}, "is_reserved": 0, "name": "49888c252f7efe235bfe8233d5edef8d", "lon": -77.03946133333334, "type": "electric_scooter", "bike_id": "49888c252f7efe235bfe8233d5edef8d", "fusion_lon": 0.0, "lat": 38.9082875, "fusion_lat": 0.0}, {"is_disabled": 0, "rental_uris": {"android": "https://dc.lft.to/lastmile_qr_scan", "ios": "https://dc.lft.to/lastmile_qr_scan"}, "is_reserved": 0, "name": "2adf93b6bd62956f6cf48c900c1cf4b2", "lon": -77.03954033333333, "type": "electric_scooter", "bike_id": "2adf93b6bd62956f6cf48c900c1cf4b2", "fusion_lon": 0.0, "lat": 38.8990375, "fusion_lat": 0.0}, {"is_disabled": 0, "rental_uris": {"android": "https://dc.lft.to/lastmile_qr_scan", "ios": "https://dc.lft.to/lastmile_qr_scan"}, "is_reserved": 0, "name": "19dd0aba36f933efdc17f38f3d80f11a", "lon": -77.02161266666667, "type": "electric_scooter", "bike_id": "19dd0aba36f933efdc17f38f3d80f11a", "fusion_lon": 0.0, "lat": 38.8863125, "fusion_lat": 0.0}, {"is_disabled": 0, "rental_uris": {"android": "https://dc.lft.to/lastmile_qr_scan", "ios": "https://dc.lft.to/lastmile_qr_scan"}, "is_reserved": 0, "name": "6d081f0c517c9ad80a438983efff4adc", "lon": -76.9903615, "type": "electric_scooter", "bike_id": "6d081f0c517c9ad80a438983efff4adc", "fusion_lon": 0.0, "lat": 38.902759833333334, "fusion_lat": 0.0}, {"is_disabled": 0, "rental_uris": {"android": "https://dc.lft.to/lastmile_qr_scan", "ios": "https://dc.lft.to/lastmile_qr_scan"}, "is_reserved": 0, "name": "02dc9fe69d90ccb4be751772f93790a0", "lon": -77.00580133333334, "type": "electric_scooter", "bike_id": "02dc9fe69d90ccb4be751772f93790a0", "fusion_lon": 0.0, "lat": 38.905621, "fusion_lat": 0.0}, {"is_disabled": 0, "rental_uris": {"android": "https://dc.lft.to/lastmile_qr_scan", "ios": "https://dc.lft.to/lastmile_qr_scan"}, "is_reserved": 0, "name": "7788fa39c4a8abed76780c382c583fba", "lon": -77.04893016666666, "type": "electric_scooter", "bike_id": "7788fa39c4a8abed76780c382c583fba", "fusion_lon": 0.0, "lat": 38.898107333333336, "fusion_lat": 0.0}, {"is_disabled": 0, "rental_uris": {"android": "https://dc.lft.to/lastmile_qr_scan", "ios": "https://dc.lft.to/lastmile_qr_scan"}, "is_reserved": 0, "name": "5d12334f39a613f37550635b6810d93f", "lon": -76.9301865, "type": "electric_bike", "bike_id": "5d12334f39a613f37550635b6810d93f", "fusion_lon": 0.0, "lat": 38.966440666666664, "fusion_lat": 0.0}, {"is_disabled": 0, "rental_uris": {"android": "https://dc.lft.to/lastmile_qr_scan", "ios": "https://dc.lft.to/lastmile_qr_scan"}, "is_reserved": 0, "name": "6e76582f7a0cec249837314fe80d1207", "lon": -77.005049, "type": "electric_scooter", "bike_id": "6e76582f7a0cec249837314fe80d1207", "fusion_lon": 0.0, "lat": 38.8968385, "fusion_lat": 0.0}, {"is_disabled": 0, "rental_uris": {"android": "https://dc.lft.to/lastmile_qr_scan", "ios": "https://dc.lft.to/lastmile_qr_scan"}, "is_reserved": 0, "name": "1f884593c41e22674176e73fe55c1345", "lon": -77.032786, "type": "electric_scooter", "bike_id": "1f884593c41e22674176e73fe55c1345", "fusion_lon": 0.0, "lat": 38.935419, "fusion_lat": 0.0}, {"is_disabled": 0, "rental_uris": {"android": "https://dc.lft.to/lastmile_qr_scan", "ios": "https://dc.lft.to/lastmile_qr_scan"}, "is_reserved": 0, "name": "d0580d392ecae74a13ae8e991e0acb7c", "lon": -77.048774, "type": "electric_scooter", "bike_id": "d0580d392ecae74a13ae8e991e0acb7c", "fusion_lon": 0.0, "lat": 38.90832783333333, "fusion_lat": 0.0}, {"is_disabled": 0, "rental_uris": {"android": "https://dc.lft.to/lastmile_qr_scan", "ios": "https://dc.lft.to/lastmile_qr_scan"}, "is_reserved": 0, "name": "4027b37d817371db2eac9d72c5b484c2", "lon": -77.0325585, "type": "electric_scooter", "bike_id": "4027b37d817371db2eac9d72c5b484c2", "fusion_lon": 0.0, "lat": 38.90960366666667, "fusion_lat": 0.0}, {"is_disabled": 0, "rental_uris": {"android": "https://dc.lft.to/lastmile_qr_scan", "ios": "https://dc.lft.to/lastmile_qr_scan"}, "is_reserved": 0, "name": "7ed4144caf902a05bd045f244fd0438a", "lon": -77.07271266666666, "type": "electric_scooter", "bike_id": "7ed4144caf902a05bd045f244fd0438a", "fusion_lon": 0.0, "lat": 38.934719333333334, "fusion_lat": 0.0}, {"is_disabled": 0, "rental_uris": {"android": "https://dc.lft.to/lastmile_qr_scan", "ios": "https://dc.lft.to/lastmile_qr_scan"}, "is_reserved": 0, "name": "564d1dc33cb8040aeea1d7452f48d6a7", "lon": -77.03404533333334, "type": "electric_scooter", "bike_id": "564d1dc33cb8040aeea1d7452f48d6a7", "fusion_lon": 0.0, "lat": 38.92155016666667, "fusion_lat": 0.0}, {"is_disabled": 0, "rental_uris": {"android": "https://dc.lft.to/lastmile_qr_scan", "ios": "https://dc.lft.to/lastmile_qr_scan"}, "is_reserved": 0, "name": "3cf3aa331c668d31025662c0f989980e", "lon": -77.02546816666667, "type": "electric_scooter", "bike_id": "3cf3aa331c668d31025662c0f989980e", "fusion_lon": 0.0, "lat": 38.94839066666667, "fusion_lat": 0.0}, {"is_disabled": 0, "rental_uris": {"android": "https://dc.lft.to/lastmile_qr_scan", "ios": "https://dc.lft.to/lastmile_qr_scan"}, "is_reserved": 0, "name": "23a9a51b7a50aedbb3d98c6597365078", "lon": -76.9522, "type": "electric_bike", "bike_id": "23a9a51b7a50aedbb3d98c6597365078", "fusion_lon": 0.0, "lat": 38.89234183333333, "fusion_lat": 0.0}, {"is_disabled": 0, "rental_uris": {"android": "https://dc.lft.to/lastmile_qr_scan", "ios": "https://dc.lft.to/lastmile_qr_scan"}, "is_reserved": 0, "name": "b16eeac4387839346cd675c2cefc6b02", "lon": -76.889072, "type": "electric_bike", "bike_id": "b16eeac4387839346cd675c2cefc6b02", "fusion_lon": 0.0, "lat": 38.92592066666667, "fusion_lat": 0.0}, {"is_disabled": 0, "rental_uris": {"android": "https://dc.lft.to/lastmile_qr_scan", "ios": "https://dc.lft.to/lastmile_qr_scan"}, "is_reserved": 0, "name": "bca646c46883f5c1a772860940aed23e", "lon": -77.00914733333333, "type": "electric_scooter", "bike_id": "bca646c46883f5c1a772860940aed23e", "fusion_lon": 0.0, "lat": 38.896168833333334, "fusion_lat": 0.0}, {"is_disabled": 0, "rental_uris": {"android": "https://dc.lft.to/lastmile_qr_scan", "ios": "https://dc.lft.to/lastmile_qr_scan"}, "is_reserved": 0, "name": "6564f940175d70d4102191285f5b5f8f", "lon": -77.0141255, "type": "electric_scooter", "bike_id": "6564f940175d70d4102191285f5b5f8f", "fusion_lon": 0.0, "lat": 38.9277895, "fusion_lat": 0.0}, {"is_disabled": 0, "rental_uris": {"android": "https://dc.lft.to/lastmile_qr_scan", "ios": "https://dc.lft.to/lastmile_qr_scan"}, "is_reserved": 0, "name": "982b61f78625148431a8d363151de3ce", "lon": -77.01074983333334, "type": "electric_scooter", "bike_id": "982b61f78625148431a8d363151de3ce", "fusion_lon": 0.0, "lat": 38.91815233333333, "fusion_lat": 0.0}, {"is_disabled": 0, "rental_uris": {"android": "https://dc.lft.to/lastmile_qr_scan", "ios": "https://dc.lft.to/lastmile_qr_scan"}, "is_reserved": 0, "name": "eb8fc231c1473f9b720de7230b3f0d8b", "lon": -77.00202216666666, "type": "electric_scooter", "bike_id": "eb8fc231c1473f9b720de7230b3f0d8b", "fusion_lon": 0.0, "lat": 38.900591666666664, "fusion_lat": 0.0}, {"is_disabled": 0, "rental_uris": {"android": "https://dc.lft.to/lastmile_qr_scan", "ios": "https://dc.lft.to/lastmile_qr_scan"}, "is_reserved": 0, "name": "323c0f2320e604db60834447379df4ee", "lon": -77.05416566666666, "type": "electric_scooter", "bike_id": "323c0f2320e604db60834447379df4ee", "fusion_lon": 0.0, "lat": 38.89919616666667, "fusion_lat": 0.0}, {"is_disabled": 0, "rental_uris": {"android": "https://dc.lft.to/lastmile_qr_scan", "ios": "https://dc.lft.to/lastmile_qr_scan"}, "is_reserved": 0, "name": "d43ee60356b11fd5746eda53a216dddb", "lon": -76.97164816666667, "type": "electric_bike", "bike_id": "d43ee60356b11fd5746eda53a216dddb", "fusion_lon": 0.0, "lat": 38.97676633333333, "fusion_lat": 0.0}, {"is_disabled": 0, "rental_uris": {"android": "https://dc.lft.to/lastmile_qr_scan", "ios": "https://dc.lft.to/lastmile_qr_scan"}, "is_reserved": 0, "name": "e1559b106ca684046c75bb490cd4324f", "lon": -77.02082166666666, "type": "electric_scooter", "bike_id": "e1559b106ca684046c75bb490cd4324f", "fusion_lon": 0.0, "lat": 38.93006033333333, "fusion_lat": 0.0}, {"is_disabled": 0, "rental_uris": {"android": "https://dc.lft.to/lastmile_qr_scan", "ios": "https://dc.lft.to/lastmile_qr_scan"}, "is_reserved": 0, "name": "d8810de633477521f73e4e30271e05d7", "lon": -77.0074205, "type": "electric_bike", "bike_id": "d8810de633477521f73e4e30271e05d7", "fusion_lon": 0.0, "lat": 38.90454166666667, "fusion_lat": 0.0}, {"is_disabled": 0, "rental_uris": {"android": "https://dc.lft.to/lastmile_qr_scan", "ios": "https://dc.lft.to/lastmile_qr_scan"}, "is_reserved": 0, "name": "fcca6fff0454a50ee0d3d5b687f10e02", "lon": -77.05150833333333, "type": "electric_scooter", "bike_id": "fcca6fff0454a50ee0d3d5b687f10e02", "fusion_lon": 0.0, "lat": 38.905914333333335, "fusion_lat": 0.0}, {"is_disabled": 0, "rental_uris": {"android": "https://dc.lft.to/lastmile_qr_scan", "ios": "https://dc.lft.to/lastmile_qr_scan"}, "is_reserved": 0, "name": "55152fc4442b2c50db6b96c3eb1ad6e2", "lon": -77.036662, "type": "electric_scooter", "bike_id": "55152fc4442b2c50db6b96c3eb1ad6e2", "fusion_lon": 0.0, "lat": 38.91716483333333, "fusion_lat": 0.0}, {"is_disabled": 0, "rental_uris": {"android": "https://dc.lft.to/lastmile_qr_scan", "ios": "https://dc.lft.to/lastmile_qr_scan"}, "is_reserved": 0, "name": "e73d39e27d95c25571ce467f7e1bef64", "lon": -77.00827483333333, "type": "electric_scooter", "bike_id": "e73d39e27d95c25571ce467f7e1bef64", "fusion_lon": 0.0, "lat": 38.9125975, "fusion_lat": 0.0}, {"is_disabled": 0, "rental_uris": {"android": "https://dc.lft.to/lastmile_qr_scan", "ios": "https://dc.lft.to/lastmile_qr_scan"}, "is_reserved": 0, "name": "08bee14d70afdc963f40817f6c6efa85", "lon": -77.022239, "type": "electric_scooter", "bike_id": "08bee14d70afdc963f40817f6c6efa85", "fusion_lon": 0.0, "lat": 38.912686666666666, "fusion_lat": 0.0}, {"is_disabled": 0, "rental_uris": {"android": "https://dc.lft.to/lastmile_qr_scan", "ios": "https://dc.lft.to/lastmile_qr_scan"}, "is_reserved": 0, "name": "89ba4243dcc419e31b195b3c5003dd1e", "lon": -77.03183866666667, "type": "electric_scooter", "bike_id": "89ba4243dcc419e31b195b3c5003dd1e", "fusion_lon": 0.0, "lat": 38.91571733333333, "fusion_lat": 0.0}, {"is_disabled": 0, "rental_uris": {"android": "https://dc.lft.to/lastmile_qr_scan", "ios": "https://dc.lft.to/lastmile_qr_scan"}, "is_reserved": 0, "name": "2475b449b3835cfc92b73c008c0aaedd", "lon": -77.0315065, "type": "electric_scooter", "bike_id": "2475b449b3835cfc92b73c008c0aaedd", "fusion_lon": 0.0, "lat": 38.9096895, "fusion_lat": 0.0}, {"is_disabled": 0, "rental_uris": {"android": "https://dc.lft.to/lastmile_qr_scan", "ios": "https://dc.lft.to/lastmile_qr_scan"}, "is_reserved": 0, "name": "0fef6ab837e8f972962474bfba7809be", "lon": -77.04001133333334, "type": "electric_scooter", "bike_id": "0fef6ab837e8f972962474bfba7809be", "fusion_lon": 0.0, "lat": 38.9099785, "fusion_lat": 0.0}, {"is_disabled": 0, "rental_uris": {"android": "https://dc.lft.to/lastmile_qr_scan", "ios": "https://dc.lft.to/lastmile_qr_scan"}, "is_reserved": 0, "name": "b0a2a196dfbbe39a0e180ac176d11eb4", "lon": -77.03197533333334, "type": "electric_scooter", "bike_id": "b0a2a196dfbbe39a0e180ac176d11eb4", "fusion_lon": 0.0, "lat": 38.918083833333334, "fusion_lat": 0.0}, {"is_disabled": 0, "rental_uris": {"android": "https://dc.lft.to/lastmile_qr_scan", "ios": "https://dc.lft.to/lastmile_qr_scan"}, "is_reserved": 0, "name": "4557a295d9c4efcd627cbac20ca9431d", "lon": -77.0058235, "type": "electric_bike", "bike_id": "4557a295d9c4efcd627cbac20ca9431d", "fusion_lon": 0.0, "lat": 38.836929833333336, "fusion_lat": 0.0}, {"is_disabled": 0, "rental_uris": {"android": "https://dc.lft.to/lastmile_qr_scan", "ios": "https://dc.lft.to/lastmile_qr_scan"}, "is_reserved": 0, "name": "0b6dcce54471facb8eeff98e2e496197", "lon": -76.96174133333334, "type": "electric_bike", "bike_id": "0b6dcce54471facb8eeff98e2e496197", "fusion_lon": 0.0, "lat": 38.918626833333335, "fusion_lat": 0.0}, {"is_disabled": 0, "rental_uris": {"android": "https://dc.lft.to/lastmile_qr_scan", "ios": "https://dc.lft.to/lastmile_qr_scan"}, "is_reserved": 0, "name": "868bde918742727895d81858d83f50d3", "lon": -77.00191333333333, "type": "electric_scooter", "bike_id": "868bde918742727895d81858d83f50d3", "fusion_lon": 0.0, "lat": 38.91637083333333, "fusion_lat": 0.0}, {"is_disabled": 0, "rental_uris": {"android": "https://dc.lft.to/lastmile_qr_scan", "ios": "https://dc.lft.to/lastmile_qr_scan"}, "is_reserved": 0, "name": "217bc53a58324bbfec857da5052b7d07", "lon": -77.01508766666667, "type": "electric_scooter", "bike_id": "217bc53a58324bbfec857da5052b7d07", "fusion_lon": 0.0, "lat": 38.902454, "fusion_lat": 0.0}, {"is_disabled": 0, "rental_uris": {"android": "https://dc.lft.to/lastmile_qr_scan", "ios": "https://dc.lft.to/lastmile_qr_scan"}, "is_reserved": 0, "name": "05f790f682202ff1f9b08c18e7becd75", "lon": -77.0117925, "type": "electric_scooter", "bike_id": "05f790f682202ff1f9b08c18e7becd75", "fusion_lon": 0.0, "lat": 38.87077133333333, "fusion_lat": 0.0}, {"is_disabled": 0, "rental_uris": {"android": "https://dc.lft.to/lastmile_qr_scan", "ios": "https://dc.lft.to/lastmile_qr_scan"}, "is_reserved": 0, "name": "dbd42fde1da3befc02a354fbe30dc307", "lon": -77.0383325, "type": "electric_scooter", "bike_id": "dbd42fde1da3befc02a354fbe30dc307", "fusion_lon": 0.0, "lat": 38.911091166666665, "fusion_lat": 0.0}, {"is_disabled": 0, "rental_uris": {"android": "https://dc.lft.to/lastmile_qr_scan", "ios": "https://dc.lft.to/lastmile_qr_scan"}, "is_reserved": 0, "name": "b707aaaa8cc6ec4c346f25f6261c8cd3", "lon": -76.929251, "type": "electric_bike", "bike_id": "b707aaaa8cc6ec4c346f25f6261c8cd3", "fusion_lon": 0.0, "lat": 38.90291916666666, "fusion_lat": 0.0}, {"is_disabled": 0, "rental_uris": {"android": "https://dc.lft.to/lastmile_qr_scan", "ios": "https://dc.lft.to/lastmile_qr_scan"}, "is_reserved": 0, "name": "18b96369eb30f1ec9d4627ef0eb0c9e8", "lon": -77.0634715, "type": "electric_scooter", "bike_id": "18b96369eb30f1ec9d4627ef0eb0c9e8", "fusion_lon": 0.0, "lat": 38.944412166666666, "fusion_lat": 0.0}, {"is_disabled": 0, "rental_uris": {"android": "https://dc.lft.to/lastmile_qr_scan", "ios": "https://dc.lft.to/lastmile_qr_scan"}, "is_reserved": 0, "name": "250f0ac15559946e06c64c6bc29fb24f", "lon": -76.933836, "type": "electric_scooter", "bike_id": "250f0ac15559946e06c64c6bc29fb24f", "fusion_lon": 0.0, "lat": 38.899073333333334, "fusion_lat": 0.0}, {"is_disabled": 0, "rental_uris": {"android": "https://dc.lft.to/lastmile_qr_scan", "ios": "https://dc.lft.to/lastmile_qr_scan"}, "is_reserved": 0, "name": "e2e7b9804be979e17ffbe9bca5cc0840", "lon": -77.02481016666667, "type": "electric_scooter", "bike_id": "e2e7b9804be979e17ffbe9bca5cc0840", "fusion_lon": 0.0, "lat": 38.90246233333333, "fusion_lat": 0.0}, {"is_disabled": 0, "rental_uris": {"android": "https://dc.lft.to/lastmile_qr_scan", "ios": "https://dc.lft.to/lastmile_qr_scan"}, "is_reserved": 0, "name": "45133ad25e9b1a2717329331803c0e8c", "lon": -77.03260916666666, "type": "electric_scooter", "bike_id": "45133ad25e9b1a2717329331803c0e8c", "fusion_lon": 0.0, "lat": 38.937358, "fusion_lat": 0.0}, {"is_disabled": 0, "rental_uris": {"android": "https://dc.lft.to/lastmile_qr_scan", "ios": "https://dc.lft.to/lastmile_qr_scan"}, "is_reserved": 0, "name": "29b77d8fbcc52aefcaa1af0c54c9d20c", "lon": -77.03579183333333, "type": "electric_scooter", "bike_id": "29b77d8fbcc52aefcaa1af0c54c9d20c", "fusion_lon": 0.0, "lat": 38.9076005, "fusion_lat": 0.0}, {"is_disabled": 0, "rental_uris": {"android": "https://dc.lft.to/lastmile_qr_scan", "ios": "https://dc.lft.to/lastmile_qr_scan"}, "is_reserved": 0, "name": "e78a0435e2663e4c58a7be0c73f6df30", "lon": -77.03085, "type": "electric_scooter", "bike_id": "e78a0435e2663e4c58a7be0c73f6df30", "fusion_lon": 0.0, "lat": 38.935368, "fusion_lat": 0.0}, {"is_disabled": 0, "rental_uris": {"android": "https://dc.lft.to/lastmile_qr_scan", "ios": "https://dc.lft.to/lastmile_qr_scan"}, "is_reserved": 0, "name": "ab52c64d43426acf084c01fc064d5d99", "lon": -77.03126766666666, "type": "electric_scooter", "bike_id": "ab52c64d43426acf084c01fc064d5d99", "fusion_lon": 0.0, "lat": 38.923782, "fusion_lat": 0.0}, {"is_disabled": 0, "rental_uris": {"android": "https://dc.lft.to/lastmile_qr_scan", "ios": "https://dc.lft.to/lastmile_qr_scan"}, "is_reserved": 0, "name": "3f3e9c50848303fb01baa6d2c261309a", "lon": -77.03254783333334, "type": "electric_scooter", "bike_id": "3f3e9c50848303fb01baa6d2c261309a", "fusion_lon": 0.0, "lat": 38.9288725, "fusion_lat": 0.0}, {"is_disabled": 0, "rental_uris": {"android": "https://dc.lft.to/lastmile_qr_scan", "ios": "https://dc.lft.to/lastmile_qr_scan"}, "is_reserved": 0, "name": "11ea6f5a0cbd62b9fe8b88f21330a932", "lon": -77.02121633333333, "type": "electric_scooter", "bike_id": "11ea6f5a0cbd62b9fe8b88f21330a932", "fusion_lon": 0.0, "lat": 38.887445166666666, "fusion_lat": 0.0}, {"is_disabled": 0, "rental_uris": {"android": "https://dc.lft.to/lastmile_qr_scan", "ios": "https://dc.lft.to/lastmile_qr_scan"}, "is_reserved": 0, "name": "c426a7feb0ab9373cd2d21d9eb7066dd", "lon": -77.0222395, "type": "electric_scooter", "bike_id": "c426a7feb0ab9373cd2d21d9eb7066dd", "fusion_lon": 0.0, "lat": 38.887448666666664, "fusion_lat": 0.0}, {"is_disabled": 0, "rental_uris": {"android": "https://dc.lft.to/lastmile_qr_scan", "ios": "https://dc.lft.to/lastmile_qr_scan"}, "is_reserved": 0, "name": "906fc3bd098615155531a9fdd84fceb0", "lon": -77.0415905, "type": "electric_scooter", "bike_id": "906fc3bd098615155531a9fdd84fceb0", "fusion_lon": 0.0, "lat": 38.91027183333333, "fusion_lat": 0.0}, {"is_disabled": 0, "rental_uris": {"android": "https://dc.lft.to/lastmile_qr_scan", "ios": "https://dc.lft.to/lastmile_qr_scan"}, "is_reserved": 0, "name": "6e2c70bad03f008a5a867e9a0d6c449d", "lon": -77.06147233333333, "type": "electric_scooter", "bike_id": "6e2c70bad03f008a5a867e9a0d6c449d", "fusion_lon": 0.0, "lat": 38.9051865, "fusion_lat": 0.0}, {"is_disabled": 0, "rental_uris": {"android": "https://dc.lft.to/lastmile_qr_scan", "ios": "https://dc.lft.to/lastmile_qr_scan"}, "is_reserved": 0, "name": "159da1e0f49553a67baf462e709aebcd", "lon": -77.02647083333333, "type": "electric_bike", "bike_id": "159da1e0f49553a67baf462e709aebcd", "fusion_lon": 0.0, "lat": 38.9881845, "fusion_lat": 0.0}, {"is_disabled": 0, "rental_uris": {"android": "https://dc.lft.to/lastmile_qr_scan", "ios": "https://dc.lft.to/lastmile_qr_scan"}, "is_reserved": 0, "name": "985775b5efc87e53d97685f64a565d89", "lon": -77.0319395, "type": "electric_scooter", "bike_id": "985775b5efc87e53d97685f64a565d89", "fusion_lon": 0.0, "lat": 38.91985833333333, "fusion_lat": 0.0}, {"is_disabled": 0, "rental_uris": {"android": "https://dc.lft.to/lastmile_qr_scan", "ios": "https://dc.lft.to/lastmile_qr_scan"}, "is_reserved": 0, "name": "35b55854fc897f74e6383f391d1f9df2", "lon": -77.17518916666667, "type": "electric_bike", "bike_id": "35b55854fc897f74e6383f391d1f9df2", "fusion_lon": 0.0, "lat": 39.09596633333334, "fusion_lat": 0.0}, {"is_disabled": 0, "rental_uris": {"android": "https://dc.lft.to/lastmile_qr_scan", "ios": "https://dc.lft.to/lastmile_qr_scan"}, "is_reserved": 0, "name": "f20883b18911315f6254fd329a9d4e5a", "lon": -77.00331033333333, "type": "electric_scooter", "bike_id": "f20883b18911315f6254fd329a9d4e5a", "fusion_lon": 0.0, "lat": 38.89356883333333, "fusion_lat": 0.0}, {"is_disabled": 0, "rental_uris": {"android": "https://dc.lft.to/lastmile_qr_scan", "ios": "https://dc.lft.to/lastmile_qr_scan"}, "is_reserved": 0, "name": "f4432da9d4e9879eb3c6cc0742113301", "lon": -77.041583, "type": "electric_scooter", "bike_id": "f4432da9d4e9879eb3c6cc0742113301", "fusion_lon": 0.0, "lat": 38.91571616666667, "fusion_lat": 0.0}, {"is_disabled": 0, "rental_uris": {"android": "https://dc.lft.to/lastmile_qr_scan", "ios": "https://dc.lft.to/lastmile_qr_scan"}, "is_reserved": 0, "name": "9b72d563044c01239034da9635d26348", "lon": -77.0229815, "type": "electric_scooter", "bike_id": "9b72d563044c01239034da9635d26348", "fusion_lon": 0.0, "lat": 38.917927166666665, "fusion_lat": 0.0}, {"is_disabled": 0, "rental_uris": {"android": "https://dc.lft.to/lastmile_qr_scan", "ios": "https://dc.lft.to/lastmile_qr_scan"}, "is_reserved": 0, "name": "ed2da4d6ad8e3638ac818d443d3734af", "lon": -77.04869266666667, "type": "electric_scooter", "bike_id": "ed2da4d6ad8e3638ac818d443d3734af", "fusion_lon": 0.0, "lat": 38.909494333333335, "fusion_lat": 0.0}, {"is_disabled": 0, "rental_uris": {"android": "https://dc.lft.to/lastmile_qr_scan", "ios": "https://dc.lft.to/lastmile_qr_scan"}, "is_reserved": 0, "name": "5f44bbc6d58abe84e44f437f4d3fde4a", "lon": -77.00736866666666, "type": "electric_scooter", "bike_id": "5f44bbc6d58abe84e44f437f4d3fde4a", "fusion_lon": 0.0, "lat": 38.915491, "fusion_lat": 0.0}, {"is_disabled": 0, "rental_uris": {"android": "https://dc.lft.to/lastmile_qr_scan", "ios": "https://dc.lft.to/lastmile_qr_scan"}, "is_reserved": 0, "name": "6fd2cd32d4f0ea37b6d3085493b05da3", "lon": -77.12623966666666, "type": "electric_bike", "bike_id": "6fd2cd32d4f0ea37b6d3085493b05da3", "fusion_lon": 0.0, "lat": 39.058114333333336, "fusion_lat": 0.0}, {"is_disabled": 0, "rental_uris": {"android": "https://dc.lft.to/lastmile_qr_scan", "ios": "https://dc.lft.to/lastmile_qr_scan"}, "is_reserved": 0, "name": "40279cd5284023a480e1454b6d186b4a", "lon": -77.02951416666667, "type": "electric_scooter", "bike_id": "40279cd5284023a480e1454b6d186b4a", "fusion_lon": 0.0, "lat": 38.892209, "fusion_lat": 0.0}, {"is_disabled": 0, "rental_uris": {"android": "https://dc.lft.to/lastmile_qr_scan", "ios": "https://dc.lft.to/lastmile_qr_scan"}, "is_reserved": 0, "name": "73a0b11c198939dc81c257bc60b3047a", "lon": -77.02415283333333, "type": "electric_scooter", "bike_id": "73a0b11c198939dc81c257bc60b3047a", "fusion_lon": 0.0, "lat": 38.892526, "fusion_lat": 0.0}, {"is_disabled": 0, "rental_uris": {"android": "https://dc.lft.to/lastmile_qr_scan", "ios": "https://dc.lft.to/lastmile_qr_scan"}, "is_reserved": 0, "name": "01975fecbb0a64c2854486271f3c9954", "lon": -76.963822, "type": "electric_bike", "bike_id": "01975fecbb0a64c2854486271f3c9954", "fusion_lon": 0.0, "lat": 38.97580266666667, "fusion_lat": 0.0}, {"is_disabled": 0, "rental_uris": {"android": "https://dc.lft.to/lastmile_qr_scan", "ios": "https://dc.lft.to/lastmile_qr_scan"}, "is_reserved": 0, "name": "60a228faab8543d59c6935c0941e1257", "lon": -76.9335175, "type": "electric_scooter", "bike_id": "60a228faab8543d59c6935c0941e1257", "fusion_lon": 0.0, "lat": 38.899091166666665, "fusion_lat": 0.0}, {"is_disabled": 0, "rental_uris": {"android": "https://dc.lft.to/lastmile_qr_scan", "ios": "https://dc.lft.to/lastmile_qr_scan"}, "is_reserved": 0, "name": "f1d8b4c582117786839f2b81a6fb89ca", "lon": -76.98374583333333, "type": "electric_scooter", "bike_id": "f1d8b4c582117786839f2b81a6fb89ca", "fusion_lon": 0.0, "lat": 38.844473666666666, "fusion_lat": 0.0}, {"is_disabled": 0, "rental_uris": {"android": "https://dc.lft.to/lastmile_qr_scan", "ios": "https://dc.lft.to/lastmile_qr_scan"}, "is_reserved": 0, "name": "959b4278c110fd9bebb7506154128268", "lon": -77.01628566666666, "type": "electric_scooter", "bike_id": "959b4278c110fd9bebb7506154128268", "fusion_lon": 0.0, "lat": 38.92893316666667, "fusion_lat": 0.0}, {"is_disabled": 0, "rental_uris": {"android": "https://dc.lft.to/lastmile_qr_scan", "ios": "https://dc.lft.to/lastmile_qr_scan"}, "is_reserved": 0, "name": "cc7d98147e3c41ddf7f316f4cb82b57e", "lon": -77.007802, "type": "electric_bike", "bike_id": "cc7d98147e3c41ddf7f316f4cb82b57e", "fusion_lon": 0.0, "lat": 38.98127083333333, "fusion_lat": 0.0}, {"is_disabled": 0, "rental_uris": {"android": "https://dc.lft.to/lastmile_qr_scan", "ios": "https://dc.lft.to/lastmile_qr_scan"}, "is_reserved": 0, "name": "76f118708f0e51cfcb43c4a1cf6ecb13", "lon": -76.87773333333334, "type": "electric_bike", "bike_id": "76f118708f0e51cfcb43c4a1cf6ecb13", "fusion_lon": 0.0, "lat": 38.99224383333333, "fusion_lat": 0.0}, {"is_disabled": 0, "rental_uris": {"android": "https://dc.lft.to/lastmile_qr_scan", "ios": "https://dc.lft.to/lastmile_qr_scan"}, "is_reserved": 0, "name": "d3cf8a2ea15d29396000f807a22a6461", "lon": -77.01473266666666, "type": "electric_scooter", "bike_id": "d3cf8a2ea15d29396000f807a22a6461", "fusion_lon": 0.0, "lat": 38.8764195, "fusion_lat": 0.0}, {"is_disabled": 0, "rental_uris": {"android": "https://dc.lft.to/lastmile_qr_scan", "ios": "https://dc.lft.to/lastmile_qr_scan"}, "is_reserved": 0, "name": "28f1080640c0eb31babe954c40698458", "lon": -77.029582, "type": "electric_scooter", "bike_id": "28f1080640c0eb31babe954c40698458", "fusion_lon": 0.0, "lat": 38.924652333333334, "fusion_lat": 0.0}, {"is_disabled": 0, "rental_uris": {"android": "https://dc.lft.to/lastmile_qr_scan", "ios": "https://dc.lft.to/lastmile_qr_scan"}, "is_reserved": 0, "name": "fb46c46471646783de248372c7fd3d5d", "lon": -77.1071705, "type": "electric_bike", "bike_id": "fb46c46471646783de248372c7fd3d5d", "fusion_lon": 0.0, "lat": 38.855473, "fusion_lat": 0.0}, {"is_disabled": 0, "rental_uris": {"android": "https://dc.lft.to/lastmile_qr_scan", "ios": "https://dc.lft.to/lastmile_qr_scan"}, "is_reserved": 0, "name": "52adcfd1bb2d11e0518b60a2d8b5d3b5", "lon": -77.0131635, "type": "electric_scooter", "bike_id": "52adcfd1bb2d11e0518b60a2d8b5d3b5", "fusion_lon": 0.0, "lat": 38.9013675, "fusion_lat": 0.0}, {"is_disabled": 0, "rental_uris": {"android": "https://dc.lft.to/lastmile_qr_scan", "ios": "https://dc.lft.to/lastmile_qr_scan"}, "is_reserved": 0, "name": "18fd3f40e5ea7e40ae17dd36ee5174ef", "lon": -76.94864416666667, "type": "electric_bike", "bike_id": "18fd3f40e5ea7e40ae17dd36ee5174ef", "fusion_lon": 0.0, "lat": 38.8897455, "fusion_lat": 0.0}, {"is_disabled": 0, "rental_uris": {"android": "https://dc.lft.to/lastmile_qr_scan", "ios": "https://dc.lft.to/lastmile_qr_scan"}, "is_reserved": 0, "name": "d61c1954384453ccd07832d948571990", "lon": -77.039966, "type": "electric_scooter", "bike_id": "d61c1954384453ccd07832d948571990", "fusion_lon": 0.0, "lat": 38.914129, "fusion_lat": 0.0}, {"is_disabled": 0, "rental_uris": {"android": "https://dc.lft.to/lastmile_qr_scan", "ios": "https://dc.lft.to/lastmile_qr_scan"}, "is_reserved": 0, "name": "8f59913b8316da1f598c13b30e93d65c", "lon": -77.061881, "type": "electric_scooter", "bike_id": "8f59913b8316da1f598c13b30e93d65c", "fusion_lon": 0.0, "lat": 38.930117833333334, "fusion_lat": 0.0}, {"is_disabled": 0, "rental_uris": {"android": "https://dc.lft.to/lastmile_qr_scan", "ios": "https://dc.lft.to/lastmile_qr_scan"}, "is_reserved": 0, "name": "ac13ca213cef50721afa8a8c627b89e9", "lon": -77.0483105, "type": "electric_scooter", "bike_id": "ac13ca213cef50721afa8a8c627b89e9", "fusion_lon": 0.0, "lat": 38.902547166666665, "fusion_lat": 0.0}, {"is_disabled": 0, "rental_uris": {"android": "https://dc.lft.to/lastmile_qr_scan", "ios": "https://dc.lft.to/lastmile_qr_scan"}, "is_reserved": 0, "name": "771f35969ed42be15a57c185857ce0c8", "lon": -77.03180916666666, "type": "electric_scooter", "bike_id": "771f35969ed42be15a57c185857ce0c8", "fusion_lon": 0.0, "lat": 38.91904266666667, "fusion_lat": 0.0}, {"is_disabled": 0, "rental_uris": {"android": "https://dc.lft.to/lastmile_qr_scan", "ios": "https://dc.lft.to/lastmile_qr_scan"}, "is_reserved": 0, "name": "a770216f7a1493bd8960127262f112ff", "lon": -77.0122185, "type": "electric_scooter", "bike_id": "a770216f7a1493bd8960127262f112ff", "fusion_lon": 0.0, "lat": 38.9149805, "fusion_lat": 0.0}, {"is_disabled": 0, "rental_uris": {"android": "https://dc.lft.to/lastmile_qr_scan", "ios": "https://dc.lft.to/lastmile_qr_scan"}, "is_reserved": 0, "name": "f62ba54f5f586a3276c283ff9c8afd2b", "lon": -77.01175933333333, "type": "electric_scooter", "bike_id": "f62ba54f5f586a3276c283ff9c8afd2b", "fusion_lon": 0.0, "lat": 38.86807483333333, "fusion_lat": 0.0}, {"is_disabled": 0, "rental_uris": {"android": "https://dc.lft.to/lastmile_qr_scan", "ios": "https://dc.lft.to/lastmile_qr_scan"}, "is_reserved": 0, "name": "767a6d7a5fb6c495fb51fb58f8e16aa8", "lon": -77.0345905, "type": "electric_scooter", "bike_id": "767a6d7a5fb6c495fb51fb58f8e16aa8", "fusion_lon": 0.0, "lat": 38.91669, "fusion_lat": 0.0}, {"is_disabled": 0, "rental_uris": {"android": "https://dc.lft.to/lastmile_qr_scan", "ios": "https://dc.lft.to/lastmile_qr_scan"}, "is_reserved": 0, "name": "9cc1356a488455f27c16cd8f9b09323b", "lon": -76.98876766666666, "type": "electric_scooter", "bike_id": "9cc1356a488455f27c16cd8f9b09323b", "fusion_lon": 0.0, "lat": 38.866705833333334, "fusion_lat": 0.0}, {"is_disabled": 0, "rental_uris": {"android": "https://dc.lft.to/lastmile_qr_scan", "ios": "https://dc.lft.to/lastmile_qr_scan"}, "is_reserved": 0, "name": "255a5516202e932a59ad8eb40b31325f", "lon": -77.34407683333333, "type": "electric_bike", "bike_id": "255a5516202e932a59ad8eb40b31325f", "fusion_lon": 0.0, "lat": 38.945891333333336, "fusion_lat": 0.0}, {"is_disabled": 0, "rental_uris": {"android": "https://dc.lft.to/lastmile_qr_scan", "ios": "https://dc.lft.to/lastmile_qr_scan"}, "is_reserved": 0, "name": "22cae3817953938287bbbd87f73f3ec2", "lon": -77.143245, "type": "electric_bike", "bike_id": "22cae3817953938287bbbd87f73f3ec2", "fusion_lon": 0.0, "lat": 39.054523333333336, "fusion_lat": 0.0}, {"is_disabled": 0, "rental_uris": {"android": "https://dc.lft.to/lastmile_qr_scan", "ios": "https://dc.lft.to/lastmile_qr_scan"}, "is_reserved": 0, "name": "14ecd5c6f33a899813cf70d02f642a2a", "lon": -77.04518933333334, "type": "electric_scooter", "bike_id": "14ecd5c6f33a899813cf70d02f642a2a", "fusion_lon": 0.0, "lat": 38.90775216666667, "fusion_lat": 0.0}, {"is_disabled": 0, "rental_uris": {"android": "https://dc.lft.to/lastmile_qr_scan", "ios": "https://dc.lft.to/lastmile_qr_scan"}, "is_reserved": 0, "name": "cbe59bc449ea5bdcdd44573809eede53", "lon": -76.94894766666667, "type": "electric_scooter", "bike_id": "cbe59bc449ea5bdcdd44573809eede53", "fusion_lon": 0.0, "lat": 38.89530533333333, "fusion_lat": 0.0}, {"is_disabled": 0, "rental_uris": {"android": "https://dc.lft.to/lastmile_qr_scan", "ios": "https://dc.lft.to/lastmile_qr_scan"}, "is_reserved": 0, "name": "2d7e0e5e850ecdc41897c7fe144e89b3", "lon": -77.02917366666667, "type": "electric_scooter", "bike_id": "2d7e0e5e850ecdc41897c7fe144e89b3", "fusion_lon": 0.0, "lat": 38.89878366666667, "fusion_lat": 0.0}, {"is_disabled": 0, "rental_uris": {"android": "https://dc.lft.to/lastmile_qr_scan", "ios": "https://dc.lft.to/lastmile_qr_scan"}, "is_reserved": 0, "name": "a373105eda63a3b5bd71dcde659c3f96", "lon": -77.02967283333334, "type": "electric_scooter", "bike_id": "a373105eda63a3b5bd71dcde659c3f96", "fusion_lon": 0.0, "lat": 38.907319333333334, "fusion_lat": 0.0}, {"is_disabled": 0, "rental_uris": {"android": "https://dc.lft.to/lastmile_qr_scan", "ios": "https://dc.lft.to/lastmile_qr_scan"}, "is_reserved": 0, "name": "8635e0f81700ee9d07ed858e9d71839b", "lon": -77.03274416666666, "type": "electric_scooter", "bike_id": "8635e0f81700ee9d07ed858e9d71839b", "fusion_lon": 0.0, "lat": 38.932529333333335, "fusion_lat": 0.0}, {"is_disabled": 0, "rental_uris": {"android": "https://dc.lft.to/lastmile_qr_scan", "ios": "https://dc.lft.to/lastmile_qr_scan"}, "is_reserved": 0, "name": "1746358c54bb5c735ca2b9b9926a6953", "lon": -77.0314325, "type": "electric_scooter", "bike_id": "1746358c54bb5c735ca2b9b9926a6953", "fusion_lon": 0.0, "lat": 38.8875335, "fusion_lat": 0.0}, {"is_disabled": 0, "rental_uris": {"android": "https://dc.lft.to/lastmile_qr_scan", "ios": "https://dc.lft.to/lastmile_qr_scan"}, "is_reserved": 0, "name": "1684a837ff1e3e4c1bfefbb4cc5c11a7", "lon": -77.04842033333334, "type": "electric_scooter", "bike_id": "1684a837ff1e3e4c1bfefbb4cc5c11a7", "fusion_lon": 0.0, "lat": 38.904280666666665, "fusion_lat": 0.0}, {"is_disabled": 0, "rental_uris": {"android": "https://dc.lft.to/lastmile_qr_scan", "ios": "https://dc.lft.to/lastmile_qr_scan"}, "is_reserved": 0, "name": "d6a549ab71e08c37d060c76450d85fe0", "lon": -77.021446, "type": "electric_scooter", "bike_id": "d6a549ab71e08c37d060c76450d85fe0", "fusion_lon": 0.0, "lat": 38.8996675, "fusion_lat": 0.0}, {"is_disabled": 0, "rental_uris": {"android": "https://dc.lft.to/lastmile_qr_scan", "ios": "https://dc.lft.to/lastmile_qr_scan"}, "is_reserved": 0, "name": "5cd4df51d71b22cf6180ded7717e1b87", "lon": -77.0237105, "type": "electric_scooter", "bike_id": "5cd4df51d71b22cf6180ded7717e1b87", "fusion_lon": 0.0, "lat": 38.90819233333333, "fusion_lat": 0.0}, {"is_disabled": 0, "rental_uris": {"android": "https://dc.lft.to/lastmile_qr_scan", "ios": "https://dc.lft.to/lastmile_qr_scan"}, "is_reserved": 0, "name": "161087f836987dd9d8e7a7ddbaecc25f", "lon": -77.05733333333333, "type": "electric_scooter", "bike_id": "161087f836987dd9d8e7a7ddbaecc25f", "fusion_lon": 0.0, "lat": 38.933635333333335, "fusion_lat": 0.0}, {"is_disabled": 0, "rental_uris": {"android": "https://dc.lft.to/lastmile_qr_scan", "ios": "https://dc.lft.to/lastmile_qr_scan"}, "is_reserved": 0, "name": "f3419f85654666e68a75510fddb4debd", "lon": -77.0460985, "type": "electric_scooter", "bike_id": "f3419f85654666e68a75510fddb4debd", "fusion_lon": 0.0, "lat": 38.89961266666667, "fusion_lat": 0.0}, {"is_disabled": 0, "rental_uris": {"android": "https://dc.lft.to/lastmile_qr_scan", "ios": "https://dc.lft.to/lastmile_qr_scan"}, "is_reserved": 0, "name": "6f7d05dec196a47db96b676e4ccf743b", "lon": -77.02933133333333, "type": "electric_scooter", "bike_id": "6f7d05dec196a47db96b676e4ccf743b", "fusion_lon": 0.0, "lat": 38.92974666666667, "fusion_lat": 0.0}, {"is_disabled": 0, "rental_uris": {"android": "https://dc.lft.to/lastmile_qr_scan", "ios": "https://dc.lft.to/lastmile_qr_scan"}, "is_reserved": 0, "name": "0d5aa6c72477abdb14121710a688cd71", "lon": -77.02721383333333, "type": "electric_scooter", "bike_id": "0d5aa6c72477abdb14121710a688cd71", "fusion_lon": 0.0, "lat": 38.92480333333334, "fusion_lat": 0.0}, {"is_disabled": 0, "rental_uris": {"android": "https://dc.lft.to/lastmile_qr_scan", "ios": "https://dc.lft.to/lastmile_qr_scan"}, "is_reserved": 0, "name": "fa195eb81968bfdc7907cfafd5f41d5d", "lon": -76.98021233333333, "type": "electric_bike", "bike_id": "fa195eb81968bfdc7907cfafd5f41d5d", "fusion_lon": 0.0, "lat": 38.95753033333333, "fusion_lat": 0.0}, {"is_disabled": 0, "rental_uris": {"android": "https://dc.lft.to/lastmile_qr_scan", "ios": "https://dc.lft.to/lastmile_qr_scan"}, "is_reserved": 0, "name": "6f2a44c1023e0dedf9cb30b85feedd6d", "lon": -77.04405816666667, "type": "electric_scooter", "bike_id": "6f2a44c1023e0dedf9cb30b85feedd6d", "fusion_lon": 0.0, "lat": 38.900685833333334, "fusion_lat": 0.0}, {"is_disabled": 0, "rental_uris": {"android": "https://dc.lft.to/lastmile_qr_scan", "ios": "https://dc.lft.to/lastmile_qr_scan"}, "is_reserved": 0, "name": "36a4ff679940404674a35b0143cbd5b8", "lon": -77.0344025, "type": "electric_scooter", "bike_id": "36a4ff679940404674a35b0143cbd5b8", "fusion_lon": 0.0, "lat": 38.91806716666667, "fusion_lat": 0.0}, {"is_disabled": 0, "rental_uris": {"android": "https://dc.lft.to/lastmile_qr_scan", "ios": "https://dc.lft.to/lastmile_qr_scan"}, "is_reserved": 0, "name": "52619112aea7f8ff1082c2f8f7000476", "lon": -77.05518033333334, "type": "electric_scooter", "bike_id": "52619112aea7f8ff1082c2f8f7000476", "fusion_lon": 0.0, "lat": 38.94417033333333, "fusion_lat": 0.0}, {"is_disabled": 0, "rental_uris": {"android": "https://dc.lft.to/lastmile_qr_scan", "ios": "https://dc.lft.to/lastmile_qr_scan"}, "is_reserved": 0, "name": "01c28abb9f53058bfcd29b8c609ef56b", "lon": -77.03625616666666, "type": "electric_scooter", "bike_id": "01c28abb9f53058bfcd29b8c609ef56b", "fusion_lon": 0.0, "lat": 38.936828, "fusion_lat": 0.0}, {"is_disabled": 0, "rental_uris": {"android": "https://dc.lft.to/lastmile_qr_scan", "ios": "https://dc.lft.to/lastmile_qr_scan"}, "is_reserved": 0, "name": "6a41c6a661dd1df46895213c115e1fef", "lon": -77.03662, "type": "electric_scooter", "bike_id": "6a41c6a661dd1df46895213c115e1fef", "fusion_lon": 0.0, "lat": 38.92262383333333, "fusion_lat": 0.0}, {"is_disabled": 0, "rental_uris": {"android": "https://dc.lft.to/lastmile_qr_scan", "ios": "https://dc.lft.to/lastmile_qr_scan"}, "is_reserved": 0, "name": "2caa04d7d99e6ffad702907e3e94f27b", "lon": -77.078912, "type": "electric_bike", "bike_id": "2caa04d7d99e6ffad702907e3e94f27b", "fusion_lon": 0.0, "lat": 38.839337, "fusion_lat": 0.0}, {"is_disabled": 0, "rental_uris": {"android": "https://dc.lft.to/lastmile_qr_scan", "ios": "https://dc.lft.to/lastmile_qr_scan"}, "is_reserved": 0, "name": "12dd8e635c225b1e77d11818abfc6258", "lon": -77.03471383333333, "type": "electric_scooter", "bike_id": "12dd8e635c225b1e77d11818abfc6258", "fusion_lon": 0.0, "lat": 38.92157066666667, "fusion_lat": 0.0}, {"is_disabled": 0, "rental_uris": {"android": "https://dc.lft.to/lastmile_qr_scan", "ios": "https://dc.lft.to/lastmile_qr_scan"}, "is_reserved": 0, "name": "7eae549cbdd1c9a7cd7c739fe3b33f43", "lon": -77.04014066666667, "type": "electric_scooter", "bike_id": "7eae549cbdd1c9a7cd7c739fe3b33f43", "fusion_lon": 0.0, "lat": 38.920876666666665, "fusion_lat": 0.0}, {"is_disabled": 0, "rental_uris": {"android": "https://dc.lft.to/lastmile_qr_scan", "ios": "https://dc.lft.to/lastmile_qr_scan"}, "is_reserved": 0, "name": "911fb14a6c71005b3cf071187b163ea3", "lon": -77.0510895, "type": "electric_scooter", "bike_id": "911fb14a6c71005b3cf071187b163ea3", "fusion_lon": 0.0, "lat": 38.9236145, "fusion_lat": 0.0}, {"is_disabled": 0, "rental_uris": {"android": "https://dc.lft.to/lastmile_qr_scan", "ios": "https://dc.lft.to/lastmile_qr_scan"}, "is_reserved": 0, "name": "695af1a58d4db65b036646eae356cfa9", "lon": -76.95205466666667, "type": "electric_scooter", "bike_id": "695af1a58d4db65b036646eae356cfa9", "fusion_lon": 0.0, "lat": 38.89249133333333, "fusion_lat": 0.0}, {"is_disabled": 0, "rental_uris": {"android": "https://dc.lft.to/lastmile_qr_scan", "ios": "https://dc.lft.to/lastmile_qr_scan"}, "is_reserved": 0, "name": "1f10654ed32e35ebe7c26de6e4fc53ae", "lon": -77.05125533333333, "type": "electric_scooter", "bike_id": "1f10654ed32e35ebe7c26de6e4fc53ae", "fusion_lon": 0.0, "lat": 38.906017, "fusion_lat": 0.0}, {"is_disabled": 0, "rental_uris": {"android": "https://dc.lft.to/lastmile_qr_scan", "ios": "https://dc.lft.to/lastmile_qr_scan"}, "is_reserved": 0, "name": "a400efbaeb63df48c8025ecf4266f7b3", "lon": -77.04353883333333, "type": "electric_scooter", "bike_id": "a400efbaeb63df48c8025ecf4266f7b3", "fusion_lon": 0.0, "lat": 38.898392333333334, "fusion_lat": 0.0}, {"is_disabled": 0, "rental_uris": {"android": "https://dc.lft.to/lastmile_qr_scan", "ios": "https://dc.lft.to/lastmile_qr_scan"}, "is_reserved": 0, "name": "f87deec19473425d3dc4848a648efb5c", "lon": -77.04450066666666, "type": "electric_scooter", "bike_id": "f87deec19473425d3dc4848a648efb5c", "fusion_lon": 0.0, "lat": 38.91864733333333, "fusion_lat": 0.0}, {"is_disabled": 0, "rental_uris": {"android": "https://dc.lft.to/lastmile_qr_scan", "ios": "https://dc.lft.to/lastmile_qr_scan"}, "is_reserved": 0, "name": "d0fccf04ffc04259b16c86e8679a9f24", "lon": -77.00331383333334, "type": "electric_scooter", "bike_id": "d0fccf04ffc04259b16c86e8679a9f24", "fusion_lon": 0.0, "lat": 38.89357833333333, "fusion_lat": 0.0}, {"is_disabled": 0, "rental_uris": {"android": "https://dc.lft.to/lastmile_qr_scan", "ios": "https://dc.lft.to/lastmile_qr_scan"}, "is_reserved": 0, "name": "cedb202efafe3fe2e190816f64726759", "lon": -77.00333733333333, "type": "electric_scooter", "bike_id": "cedb202efafe3fe2e190816f64726759", "fusion_lon": 0.0, "lat": 38.90457983333334, "fusion_lat": 0.0}, {"is_disabled": 0, "rental_uris": {"android": "https://dc.lft.to/lastmile_qr_scan", "ios": "https://dc.lft.to/lastmile_qr_scan"}, "is_reserved": 0, "name": "eb9bd076fa1725d62c2c8022a8ad4e13", "lon": -77.04692966666667, "type": "electric_scooter", "bike_id": "eb9bd076fa1725d62c2c8022a8ad4e13", "fusion_lon": 0.0, "lat": 38.915757, "fusion_lat": 0.0}, {"is_disabled": 0, "rental_uris": {"android": "https://dc.lft.to/lastmile_qr_scan", "ios": "https://dc.lft.to/lastmile_qr_scan"}, "is_reserved": 0, "name": "09c06a5cf06539a4d8dcbc4c5ef996e2", "lon": -77.0417085, "type": "electric_scooter", "bike_id": "09c06a5cf06539a4d8dcbc4c5ef996e2", "fusion_lon": 0.0, "lat": 38.912705333333335, "fusion_lat": 0.0}, {"is_disabled": 0, "rental_uris": {"android": "https://dc.lft.to/lastmile_qr_scan", "ios": "https://dc.lft.to/lastmile_qr_scan"}, "is_reserved": 0, "name": "07ed1c9231d3cf2a4f257acb9564cfd3", "lon": -77.03489216666667, "type": "electric_scooter", "bike_id": "07ed1c9231d3cf2a4f257acb9564cfd3", "fusion_lon": 0.0, "lat": 38.921518666666664, "fusion_lat": 0.0}, {"is_disabled": 0, "rental_uris": {"android": "https://dc.lft.to/lastmile_qr_scan", "ios": "https://dc.lft.to/lastmile_qr_scan"}, "is_reserved": 0, "name": "5c1262531fa2fecfd9379b10cf6dc3b1", "lon": -77.04664683333333, "type": "electric_scooter", "bike_id": "5c1262531fa2fecfd9379b10cf6dc3b1", "fusion_lon": 0.0, "lat": 38.907459833333334, "fusion_lat": 0.0}, {"is_disabled": 0, "rental_uris": {"android": "https://dc.lft.to/lastmile_qr_scan", "ios": "https://dc.lft.to/lastmile_qr_scan"}, "is_reserved": 0, "name": "f7ddae11a18a44547889ac2556e92d41", "lon": -77.00755783333334, "type": "electric_scooter", "bike_id": "f7ddae11a18a44547889ac2556e92d41", "fusion_lon": 0.0, "lat": 38.907340833333336, "fusion_lat": 0.0}, {"is_disabled": 0, "rental_uris": {"android": "https://dc.lft.to/lastmile_qr_scan", "ios": "https://dc.lft.to/lastmile_qr_scan"}, "is_reserved": 0, "name": "875a144faa3c8b28f963d31e37b163aa", "lon": -77.05205366666667, "type": "electric_scooter", "bike_id": "875a144faa3c8b28f963d31e37b163aa", "fusion_lon": 0.0, "lat": 38.9244195, "fusion_lat": 0.0}, {"is_disabled": 0, "rental_uris": {"android": "https://dc.lft.to/lastmile_qr_scan", "ios": "https://dc.lft.to/lastmile_qr_scan"}, "is_reserved": 0, "name": "e2092fc44c166fe2ecf11cd0611f569f", "lon": -77.0610165, "type": "electric_scooter", "bike_id": "e2092fc44c166fe2ecf11cd0611f569f", "fusion_lon": 0.0, "lat": 38.94368816666667, "fusion_lat": 0.0}, {"is_disabled": 0, "rental_uris": {"android": "https://dc.lft.to/lastmile_qr_scan", "ios": "https://dc.lft.to/lastmile_qr_scan"}, "is_reserved": 0, "name": "126c527281f2826e086d56c67eb46f9c", "lon": -77.01754083333333, "type": "electric_scooter", "bike_id": "126c527281f2826e086d56c67eb46f9c", "fusion_lon": 0.0, "lat": 38.90126016666667, "fusion_lat": 0.0}, {"is_disabled": 0, "rental_uris": {"android": "https://dc.lft.to/lastmile_qr_scan", "ios": "https://dc.lft.to/lastmile_qr_scan"}, "is_reserved": 0, "name": "fb970637cb4ae4e0dccb72ecc86e9d9a", "lon": -77.03435083333333, "type": "electric_scooter", "bike_id": "fb970637cb4ae4e0dccb72ecc86e9d9a", "fusion_lon": 0.0, "lat": 38.93439333333333, "fusion_lat": 0.0}, {"is_disabled": 0, "rental_uris": {"android": "https://dc.lft.to/lastmile_qr_scan", "ios": "https://dc.lft.to/lastmile_qr_scan"}, "is_reserved": 0, "name": "dab8a7bcf1ab498b170a60f4e940d5d4", "lon": -77.03341033333334, "type": "electric_scooter", "bike_id": "dab8a7bcf1ab498b170a60f4e940d5d4", "fusion_lon": 0.0, "lat": 38.93784733333333, "fusion_lat": 0.0}, {"is_disabled": 0, "rental_uris": {"android": "https://dc.lft.to/lastmile_qr_scan", "ios": "https://dc.lft.to/lastmile_qr_scan"}, "is_reserved": 0, "name": "d670164e26f1ef284ff4b44d3fda39b0", "lon": -77.017731, "type": "electric_scooter", "bike_id": "d670164e26f1ef284ff4b44d3fda39b0", "fusion_lon": 0.0, "lat": 38.91897983333333, "fusion_lat": 0.0}, {"is_disabled": 0, "rental_uris": {"android": "https://dc.lft.to/lastmile_qr_scan", "ios": "https://dc.lft.to/lastmile_qr_scan"}, "is_reserved": 0, "name": "ff94051c49d14051f5a200f116fbae97", "lon": -77.05289216666667, "type": "electric_scooter", "bike_id": "ff94051c49d14051f5a200f116fbae97", "fusion_lon": 0.0, "lat": 38.9033695, "fusion_lat": 0.0}, {"is_disabled": 0, "rental_uris": {"android": "https://dc.lft.to/lastmile_qr_scan", "ios": "https://dc.lft.to/lastmile_qr_scan"}, "is_reserved": 0, "name": "c31efa4cff1f87dac15af9512d5b298b", "lon": -76.98708033333334, "type": "electric_scooter", "bike_id": "c31efa4cff1f87dac15af9512d5b298b", "fusion_lon": 0.0, "lat": 38.866988166666665, "fusion_lat": 0.0}, {"is_disabled": 0, "rental_uris": {"android": "https://dc.lft.to/lastmile_qr_scan", "ios": "https://dc.lft.to/lastmile_qr_scan"}, "is_reserved": 0, "name": "9ced4b38eb32ff3b57ecf45d9eb8ef72", "lon": -77.0060675, "type": "electric_scooter", "bike_id": "9ced4b38eb32ff3b57ecf45d9eb8ef72", "fusion_lon": 0.0, "lat": 38.905831666666664, "fusion_lat": 0.0}, {"is_disabled": 0, "rental_uris": {"android": "https://dc.lft.to/lastmile_qr_scan", "ios": "https://dc.lft.to/lastmile_qr_scan"}, "is_reserved": 0, "name": "1151d143c2231727f387af6d49613dfd", "lon": -77.02692366666666, "type": "electric_scooter", "bike_id": "1151d143c2231727f387af6d49613dfd", "fusion_lon": 0.0, "lat": 38.9073255, "fusion_lat": 0.0}, {"is_disabled": 0, "rental_uris": {"android": "https://dc.lft.to/lastmile_qr_scan", "ios": "https://dc.lft.to/lastmile_qr_scan"}, "is_reserved": 0, "name": "8033ae583ddbf1b24516df9a0b7c5447", "lon": -77.00921416666667, "type": "electric_scooter", "bike_id": "8033ae583ddbf1b24516df9a0b7c5447", "fusion_lon": 0.0, "lat": 38.8978455, "fusion_lat": 0.0}, {"is_disabled": 0, "rental_uris": {"android": "https://dc.lft.to/lastmile_qr_scan", "ios": "https://dc.lft.to/lastmile_qr_scan"}, "is_reserved": 0, "name": "d3aada2fa57b2ec54d7ca4a15e965d81", "lon": -77.041965, "type": "electric_scooter", "bike_id": "d3aada2fa57b2ec54d7ca4a15e965d81", "fusion_lon": 0.0, "lat": 38.92967266666667, "fusion_lat": 0.0}, {"is_disabled": 0, "rental_uris": {"android": "https://dc.lft.to/lastmile_qr_scan", "ios": "https://dc.lft.to/lastmile_qr_scan"}, "is_reserved": 0, "name": "26f2d8f5939ea170a0b51648d8bd8c15", "lon": -77.02260616666666, "type": "electric_scooter", "bike_id": "26f2d8f5939ea170a0b51648d8bd8c15", "fusion_lon": 0.0, "lat": 38.927364833333336, "fusion_lat": 0.0}, {"is_disabled": 0, "rental_uris": {"android": "https://dc.lft.to/lastmile_qr_scan", "ios": "https://dc.lft.to/lastmile_qr_scan"}, "is_reserved": 0, "name": "133168ed228944c0fcb6cf997137c748", "lon": -76.94999566666667, "type": "electric_scooter", "bike_id": "133168ed228944c0fcb6cf997137c748", "fusion_lon": 0.0, "lat": 38.8939225, "fusion_lat": 0.0}, {"is_disabled": 0, "rental_uris": {"android": "https://dc.lft.to/lastmile_qr_scan", "ios": "https://dc.lft.to/lastmile_qr_scan"}, "is_reserved": 0, "name": "c7c81d7a367b1d482d64156acab5963c", "lon": -76.991091, "type": "electric_bike", "bike_id": "c7c81d7a367b1d482d64156acab5963c", "fusion_lon": 0.0, "lat": 38.94498083333333, "fusion_lat": 0.0}, {"is_disabled": 0, "rental_uris": {"android": "https://dc.lft.to/lastmile_qr_scan", "ios": "https://dc.lft.to/lastmile_qr_scan"}, "is_reserved": 0, "name": "07fc27a2b749ead1c2dddb93a9759cff", "lon": -77.03232, "type": "electric_scooter", "bike_id": "07fc27a2b749ead1c2dddb93a9759cff", "fusion_lon": 0.0, "lat": 38.92893683333333, "fusion_lat": 0.0}, {"is_disabled": 0, "rental_uris": {"android": "https://dc.lft.to/lastmile_qr_scan", "ios": "https://dc.lft.to/lastmile_qr_scan"}, "is_reserved": 0, "name": "ffe6f3a6246bbf7ee1f36c06041cce79", "lon": -77.04165966666666, "type": "electric_scooter", "bike_id": "ffe6f3a6246bbf7ee1f36c06041cce79", "fusion_lon": 0.0, "lat": 38.910305, "fusion_lat": 0.0}, {"is_disabled": 0, "rental_uris": {"android": "https://dc.lft.to/lastmile_qr_scan", "ios": "https://dc.lft.to/lastmile_qr_scan"}, "is_reserved": 0, "name": "690644ca9435bbe75d786deefa1ae529", "lon": -77.0525335, "type": "electric_scooter", "bike_id": "690644ca9435bbe75d786deefa1ae529", "fusion_lon": 0.0, "lat": 38.92736033333333, "fusion_lat": 0.0}, {"is_disabled": 0, "rental_uris": {"android": "https://dc.lft.to/lastmile_qr_scan", "ios": "https://dc.lft.to/lastmile_qr_scan"}, "is_reserved": 0, "name": "d0e91dd81099054cf58be26c7776490c", "lon": -76.94118183333333, "type": "electric_scooter", "bike_id": "d0e91dd81099054cf58be26c7776490c", "fusion_lon": 0.0, "lat": 38.907931166666664, "fusion_lat": 0.0}, {"is_disabled": 0, "rental_uris": {"android": "https://dc.lft.to/lastmile_qr_scan", "ios": "https://dc.lft.to/lastmile_qr_scan"}, "is_reserved": 0, "name": "9e89c5c0b0cf3738f78a989baf0cc5e4", "lon": -77.05100416666667, "type": "electric_scooter", "bike_id": "9e89c5c0b0cf3738f78a989baf0cc5e4", "fusion_lon": 0.0, "lat": 38.92360016666667, "fusion_lat": 0.0}, {"is_disabled": 0, "rental_uris": {"android": "https://dc.lft.to/lastmile_qr_scan", "ios": "https://dc.lft.to/lastmile_qr_scan"}, "is_reserved": 0, "name": "3e48d67dab209d9af37820c5e5ccf543", "lon": -77.02400833333333, "type": "electric_scooter", "bike_id": "3e48d67dab209d9af37820c5e5ccf543", "fusion_lon": 0.0, "lat": 38.937031, "fusion_lat": 0.0}, {"is_disabled": 0, "rental_uris": {"android": "https://dc.lft.to/lastmile_qr_scan", "ios": "https://dc.lft.to/lastmile_qr_scan"}, "is_reserved": 0, "name": "581bd82abb0ed5b62e9b03e46a93bbf4", "lon": -77.01372066666667, "type": "electric_scooter", "bike_id": "581bd82abb0ed5b62e9b03e46a93bbf4", "fusion_lon": 0.0, "lat": 38.910332333333336, "fusion_lat": 0.0}, {"is_disabled": 0, "rental_uris": {"android": "https://dc.lft.to/lastmile_qr_scan", "ios": "https://dc.lft.to/lastmile_qr_scan"}, "is_reserved": 0, "name": "c2c2ff43a6f21a09db26c0239e1de458", "lon": -77.01236116666666, "type": "electric_scooter", "bike_id": "c2c2ff43a6f21a09db26c0239e1de458", "fusion_lon": 0.0, "lat": 38.874752666666666, "fusion_lat": 0.0}, {"is_disabled": 0, "rental_uris": {"android": "https://dc.lft.to/lastmile_qr_scan", "ios": "https://dc.lft.to/lastmile_qr_scan"}, "is_reserved": 0, "name": "a52e7250e7f5284d3732e4c11d945564", "lon": -77.014178, "type": "electric_scooter", "bike_id": "a52e7250e7f5284d3732e4c11d945564", "fusion_lon": 0.0, "lat": 38.928086666666665, "fusion_lat": 0.0}, {"is_disabled": 0, "rental_uris": {"android": "https://dc.lft.to/lastmile_qr_scan", "ios": "https://dc.lft.to/lastmile_qr_scan"}, "is_reserved": 0, "name": "ef71e8c60a7d3fe487988e9f45212780", "lon": -77.04176883333334, "type": "electric_scooter", "bike_id": "ef71e8c60a7d3fe487988e9f45212780", "fusion_lon": 0.0, "lat": 38.91406166666667, "fusion_lat": 0.0}, {"is_disabled": 0, "rental_uris": {"android": "https://dc.lft.to/lastmile_qr_scan", "ios": "https://dc.lft.to/lastmile_qr_scan"}, "is_reserved": 0, "name": "9ce720f2e2465a1cc6440f1ae6ba546f", "lon": -77.12401566666666, "type": "electric_bike", "bike_id": "9ce720f2e2465a1cc6440f1ae6ba546f", "fusion_lon": 0.0, "lat": 38.893356833333335, "fusion_lat": 0.0}, {"is_disabled": 0, "rental_uris": {"android": "https://dc.lft.to/lastmile_qr_scan", "ios": "https://dc.lft.to/lastmile_qr_scan"}, "is_reserved": 0, "name": "611a2242b10484ae22333cbdec7fee52", "lon": -77.017623, "type": "electric_scooter", "bike_id": "611a2242b10484ae22333cbdec7fee52", "fusion_lon": 0.0, "lat": 38.87227033333333, "fusion_lat": 0.0}, {"is_disabled": 0, "rental_uris": {"android": "https://dc.lft.to/lastmile_qr_scan", "ios": "https://dc.lft.to/lastmile_qr_scan"}, "is_reserved": 0, "name": "f36f1de5546568a807c27e9c3f2ac6ed", "lon": -77.02711466666666, "type": "electric_scooter", "bike_id": "f36f1de5546568a807c27e9c3f2ac6ed", "fusion_lon": 0.0, "lat": 38.91963883333333, "fusion_lat": 0.0}, {"is_disabled": 0, "rental_uris": {"android": "https://dc.lft.to/lastmile_qr_scan", "ios": "https://dc.lft.to/lastmile_qr_scan"}, "is_reserved": 0, "name": "3b73aa835b54c14e2b6f89513c70a356", "lon": -77.02791816666667, "type": "electric_scooter", "bike_id": "3b73aa835b54c14e2b6f89513c70a356", "fusion_lon": 0.0, "lat": 38.90385116666667, "fusion_lat": 0.0}, {"is_disabled": 0, "rental_uris": {"android": "https://dc.lft.to/lastmile_qr_scan", "ios": "https://dc.lft.to/lastmile_qr_scan"}, "is_reserved": 0, "name": "533167df14f5384221e6625c2546036b", "lon": -77.02468116666667, "type": "electric_scooter", "bike_id": "533167df14f5384221e6625c2546036b", "fusion_lon": 0.0, "lat": 38.9377265, "fusion_lat": 0.0}, {"is_disabled": 0, "rental_uris": {"android": "https://dc.lft.to/lastmile_qr_scan", "ios": "https://dc.lft.to/lastmile_qr_scan"}, "is_reserved": 0, "name": "664f48ae2db6fc3c0e68f36e35eae676", "lon": -76.99533933333333, "type": "electric_scooter", "bike_id": "664f48ae2db6fc3c0e68f36e35eae676", "fusion_lon": 0.0, "lat": 38.862523333333336, "fusion_lat": 0.0}, {"is_disabled": 0, "rental_uris": {"android": "https://dc.lft.to/lastmile_qr_scan", "ios": "https://dc.lft.to/lastmile_qr_scan"}, "is_reserved": 0, "name": "a43206e8b80bcfca0100f770d91ae72f", "lon": -77.03227666666666, "type": "electric_scooter", "bike_id": "a43206e8b80bcfca0100f770d91ae72f", "fusion_lon": 0.0, "lat": 38.92068316666666, "fusion_lat": 0.0}, {"is_disabled": 0, "rental_uris": {"android": "https://dc.lft.to/lastmile_qr_scan", "ios": "https://dc.lft.to/lastmile_qr_scan"}, "is_reserved": 0, "name": "edea37dcf1b555bc69c74ee56b5a8642", "lon": -77.027054, "type": "electric_scooter", "bike_id": "edea37dcf1b555bc69c74ee56b5a8642", "fusion_lon": 0.0, "lat": 38.8972265, "fusion_lat": 0.0}, {"is_disabled": 0, "rental_uris": {"android": "https://dc.lft.to/lastmile_qr_scan", "ios": "https://dc.lft.to/lastmile_qr_scan"}, "is_reserved": 0, "name": "135f309330851a460f90a452b92ff0c7", "lon": -77.04605616666667, "type": "electric_scooter", "bike_id": "135f309330851a460f90a452b92ff0c7", "fusion_lon": 0.0, "lat": 38.89969216666667, "fusion_lat": 0.0}, {"is_disabled": 0, "rental_uris": {"android": "https://dc.lft.to/lastmile_qr_scan", "ios": "https://dc.lft.to/lastmile_qr_scan"}, "is_reserved": 0, "name": "d7e67a02a1c5629a7bcd14890b5266c0", "lon": -77.0415045, "type": "electric_scooter", "bike_id": "d7e67a02a1c5629a7bcd14890b5266c0", "fusion_lon": 0.0, "lat": 38.907957833333334, "fusion_lat": 0.0}, {"is_disabled": 0, "rental_uris": {"android": "https://dc.lft.to/lastmile_qr_scan", "ios": "https://dc.lft.to/lastmile_qr_scan"}, "is_reserved": 0, "name": "1ede1ea10222f660af575d4f64850e51", "lon": -77.03175983333334, "type": "electric_scooter", "bike_id": "1ede1ea10222f660af575d4f64850e51", "fusion_lon": 0.0, "lat": 38.892282333333334, "fusion_lat": 0.0}, {"is_disabled": 0, "rental_uris": {"android": "https://dc.lft.to/lastmile_qr_scan", "ios": "https://dc.lft.to/lastmile_qr_scan"}, "is_reserved": 0, "name": "b6a78cb93fa0fad0fd2d52b1aa639cdf", "lon": -77.05412483333333, "type": "electric_scooter", "bike_id": "b6a78cb93fa0fad0fd2d52b1aa639cdf", "fusion_lon": 0.0, "lat": 38.928238666666665, "fusion_lat": 0.0}, {"is_disabled": 0, "rental_uris": {"android": "https://dc.lft.to/lastmile_qr_scan", "ios": "https://dc.lft.to/lastmile_qr_scan"}, "is_reserved": 0, "name": "9c24f78c88406c1ac544ddd0cd509e20", "lon": -77.01217383333334, "type": "electric_scooter", "bike_id": "9c24f78c88406c1ac544ddd0cd509e20", "fusion_lon": 0.0, "lat": 38.9169505, "fusion_lat": 0.0}, {"is_disabled": 0, "rental_uris": {"android": "https://dc.lft.to/lastmile_qr_scan", "ios": "https://dc.lft.to/lastmile_qr_scan"}, "is_reserved": 0, "name": "f31202804ddfea805f55d2cef07e8ae7", "lon": -76.94717266666666, "type": "electric_scooter", "bike_id": "f31202804ddfea805f55d2cef07e8ae7", "fusion_lon": 0.0, "lat": 38.896772166666665, "fusion_lat": 0.0}, {"is_disabled": 0, "rental_uris": {"android": "https://dc.lft.to/lastmile_qr_scan", "ios": "https://dc.lft.to/lastmile_qr_scan"}, "is_reserved": 0, "name": "5de1c611df96070223eda416f9c740aa", "lon": -77.0458925, "type": "electric_scooter", "bike_id": "5de1c611df96070223eda416f9c740aa", "fusion_lon": 0.0, "lat": 38.917126, "fusion_lat": 0.0}, {"is_disabled": 0, "rental_uris": {"android": "https://dc.lft.to/lastmile_qr_scan", "ios": "https://dc.lft.to/lastmile_qr_scan"}, "is_reserved": 0, "name": "e9547b933ef1bec8184c367c48da77a7", "lon": -77.0345865, "type": "electric_scooter", "bike_id": "e9547b933ef1bec8184c367c48da77a7", "fusion_lon": 0.0, "lat": 38.909827, "fusion_lat": 0.0}, {"is_disabled": 0, "rental_uris": {"android": "https://dc.lft.to/lastmile_qr_scan", "ios": "https://dc.lft.to/lastmile_qr_scan"}, "is_reserved": 0, "name": "97c8b7d66bee495925628775c3e429a7", "lon": -77.0222575, "type": "electric_scooter", "bike_id": "97c8b7d66bee495925628775c3e429a7", "fusion_lon": 0.0, "lat": 38.887433333333334, "fusion_lat": 0.0}, {"is_disabled": 0, "rental_uris": {"android": "https://dc.lft.to/lastmile_qr_scan", "ios": "https://dc.lft.to/lastmile_qr_scan"}, "is_reserved": 0, "name": "ffcc2d83f232993b5375649db3ea2e4d", "lon": -76.957492, "type": "electric_scooter", "bike_id": "ffcc2d83f232993b5375649db3ea2e4d", "fusion_lon": 0.0, "lat": 38.8843075, "fusion_lat": 0.0}, {"is_disabled": 0, "rental_uris": {"android": "https://dc.lft.to/lastmile_qr_scan", "ios": "https://dc.lft.to/lastmile_qr_scan"}, "is_reserved": 0, "name": "62fa6afa1b488846e30e57475ea3ba08", "lon": -76.966804, "type": "electric_bike", "bike_id": "62fa6afa1b488846e30e57475ea3ba08", "fusion_lon": 0.0, "lat": 38.958906999999996, "fusion_lat": 0.0}, {"is_disabled": 0, "rental_uris": {"android": "https://dc.lft.to/lastmile_qr_scan", "ios": "https://dc.lft.to/lastmile_qr_scan"}, "is_reserved": 0, "name": "a020f6ab983f8217d6610bb014c39440", "lon": -76.9883805, "type": "electric_scooter", "bike_id": "a020f6ab983f8217d6610bb014c39440", "fusion_lon": 0.0, "lat": 38.899936833333335, "fusion_lat": 0.0}, {"is_disabled": 0, "rental_uris": {"android": "https://dc.lft.to/lastmile_qr_scan", "ios": "https://dc.lft.to/lastmile_qr_scan"}, "is_reserved": 0, "name": "755079428165c8d98b26da88fad3b333", "lon": -77.05026483333333, "type": "electric_scooter", "bike_id": "755079428165c8d98b26da88fad3b333", "fusion_lon": 0.0, "lat": 38.89576316666667, "fusion_lat": 0.0}, {"is_disabled": 0, "rental_uris": {"android": "https://dc.lft.to/lastmile_qr_scan", "ios": "https://dc.lft.to/lastmile_qr_scan"}, "is_reserved": 0, "name": "eb29a2a1f70fe213fb5597a262a3aa6a", "lon": -76.9499815, "type": "electric_scooter", "bike_id": "eb29a2a1f70fe213fb5597a262a3aa6a", "fusion_lon": 0.0, "lat": 38.8939305, "fusion_lat": 0.0}, {"is_disabled": 0, "rental_uris": {"android": "https://dc.lft.to/lastmile_qr_scan", "ios": "https://dc.lft.to/lastmile_qr_scan"}, "is_reserved": 0, "name": "508bec96e5f4786b592f4da346777443", "lon": -77.06528466666667, "type": "electric_scooter", "bike_id": "508bec96e5f4786b592f4da346777443", "fusion_lon": 0.0, "lat": 38.90522133333333, "fusion_lat": 0.0}, {"is_disabled": 0, "rental_uris": {"android": "https://dc.lft.to/lastmile_qr_scan", "ios": "https://dc.lft.to/lastmile_qr_scan"}, "is_reserved": 0, "name": "2fca63850f01b46b01f789bcb22d1d1b", "lon": -77.04653816666666, "type": "electric_scooter", "bike_id": "2fca63850f01b46b01f789bcb22d1d1b", "fusion_lon": 0.0, "lat": 38.89334916666667, "fusion_lat": 0.0}, {"is_disabled": 0, "rental_uris": {"android": "https://dc.lft.to/lastmile_qr_scan", "ios": "https://dc.lft.to/lastmile_qr_scan"}, "is_reserved": 0, "name": "0ee62f50fc8468de931b29cea3926479", "lon": -77.044721, "type": "electric_scooter", "bike_id": "0ee62f50fc8468de931b29cea3926479", "fusion_lon": 0.0, "lat": 38.90862633333333, "fusion_lat": 0.0}, {"is_disabled": 0, "rental_uris": {"android": "https://dc.lft.to/lastmile_qr_scan", "ios": "https://dc.lft.to/lastmile_qr_scan"}, "is_reserved": 0, "name": "da2e727be2d14f391f199159b2ccb97c", "lon": -77.019848, "type": "electric_scooter", "bike_id": "da2e727be2d14f391f199159b2ccb97c", "fusion_lon": 0.0, "lat": 38.87574216666667, "fusion_lat": 0.0}, {"is_disabled": 0, "rental_uris": {"android": "https://dc.lft.to/lastmile_qr_scan", "ios": "https://dc.lft.to/lastmile_qr_scan"}, "is_reserved": 0, "name": "6eb4fb79317499836fddb013de90b08d", "lon": -77.05185516666667, "type": "electric_scooter", "bike_id": "6eb4fb79317499836fddb013de90b08d", "fusion_lon": 0.0, "lat": 38.92544133333333, "fusion_lat": 0.0}, {"is_disabled": 0, "rental_uris": {"android": "https://dc.lft.to/lastmile_qr_scan", "ios": "https://dc.lft.to/lastmile_qr_scan"}, "is_reserved": 0, "name": "d508784b139bf3434db7ac3b10835d67", "lon": -77.026928, "type": "electric_scooter", "bike_id": "d508784b139bf3434db7ac3b10835d67", "fusion_lon": 0.0, "lat": 38.9073255, "fusion_lat": 0.0}, {"is_disabled": 0, "rental_uris": {"android": "https://dc.lft.to/lastmile_qr_scan", "ios": "https://dc.lft.to/lastmile_qr_scan"}, "is_reserved": 0, "name": "4a4ded51bac0bfdf379c10c2c5e0865f", "lon": -77.0804425, "type": "electric_bike", "bike_id": "4a4ded51bac0bfdf379c10c2c5e0865f", "fusion_lon": 0.0, "lat": 38.8484305, "fusion_lat": 0.0}, {"is_disabled": 0, "rental_uris": {"android": "https://dc.lft.to/lastmile_qr_scan", "ios": "https://dc.lft.to/lastmile_qr_scan"}, "is_reserved": 0, "name": "ba9f9f5f13ea7eaa74966c10baf4810e", "lon": -77.02041583333333, "type": "electric_scooter", "bike_id": "ba9f9f5f13ea7eaa74966c10baf4810e", "fusion_lon": 0.0, "lat": 38.915585, "fusion_lat": 0.0}, {"is_disabled": 0, "rental_uris": {"android": "https://dc.lft.to/lastmile_qr_scan", "ios": "https://dc.lft.to/lastmile_qr_scan"}, "is_reserved": 0, "name": "317de16a47821d56cf03ce0b1cb2a6e9", "lon": -77.041562, "type": "electric_scooter", "bike_id": "317de16a47821d56cf03ce0b1cb2a6e9", "fusion_lon": 0.0, "lat": 38.914171833333334, "fusion_lat": 0.0}, {"is_disabled": 0, "rental_uris": {"android": "https://dc.lft.to/lastmile_qr_scan", "ios": "https://dc.lft.to/lastmile_qr_scan"}, "is_reserved": 0, "name": "7c28c34ad0209d7086d2c3305bfc57ad", "lon": -77.02414116666667, "type": "electric_scooter", "bike_id": "7c28c34ad0209d7086d2c3305bfc57ad", "fusion_lon": 0.0, "lat": 38.909620833333335, "fusion_lat": 0.0}, {"is_disabled": 0, "rental_uris": {"android": "https://dc.lft.to/lastmile_qr_scan", "ios": "https://dc.lft.to/lastmile_qr_scan"}, "is_reserved": 0, "name": "97a4a9845f5d7ea5523b9f2f4832fd03", "lon": -76.954851, "type": "electric_bike", "bike_id": "97a4a9845f5d7ea5523b9f2f4832fd03", "fusion_lon": 0.0, "lat": 38.872077, "fusion_lat": 0.0}, {"is_disabled": 0, "rental_uris": {"android": "https://dc.lft.to/lastmile_qr_scan", "ios": "https://dc.lft.to/lastmile_qr_scan"}, "is_reserved": 0, "name": "6573bc8da9802eec83b1aabb89f0cd2b", "lon": -77.02779533333333, "type": "electric_scooter", "bike_id": "6573bc8da9802eec83b1aabb89f0cd2b", "fusion_lon": 0.0, "lat": 38.91015, "fusion_lat": 0.0}, {"is_disabled": 0, "rental_uris": {"android": "https://dc.lft.to/lastmile_qr_scan", "ios": "https://dc.lft.to/lastmile_qr_scan"}, "is_reserved": 0, "name": "9671a86a28760496535ad1acff6a411b", "lon": -77.03463466666666, "type": "electric_scooter", "bike_id": "9671a86a28760496535ad1acff6a411b", "fusion_lon": 0.0, "lat": 38.92155116666667, "fusion_lat": 0.0}, {"is_disabled": 0, "rental_uris": {"android": "https://dc.lft.to/lastmile_qr_scan", "ios": "https://dc.lft.to/lastmile_qr_scan"}, "is_reserved": 0, "name": "31074227fcd05be8ebb4db76304ebe86", "lon": -76.9861785, "type": "electric_scooter", "bike_id": "31074227fcd05be8ebb4db76304ebe86", "fusion_lon": 0.0, "lat": 38.88276316666666, "fusion_lat": 0.0}, {"is_disabled": 0, "rental_uris": {"android": "https://dc.lft.to/lastmile_qr_scan", "ios": "https://dc.lft.to/lastmile_qr_scan"}, "is_reserved": 0, "name": "1b357a0fdeba1bd50d4baf73394b5569", "lon": -77.03263816666667, "type": "electric_scooter", "bike_id": "1b357a0fdeba1bd50d4baf73394b5569", "fusion_lon": 0.0, "lat": 38.9069845, "fusion_lat": 0.0}, {"is_disabled": 0, "rental_uris": {"android": "https://dc.lft.to/lastmile_qr_scan", "ios": "https://dc.lft.to/lastmile_qr_scan"}, "is_reserved": 0, "name": "7165bbd364add705dc25b9cec0c22498", "lon": -77.00195666666667, "type": "electric_scooter", "bike_id": "7165bbd364add705dc25b9cec0c22498", "fusion_lon": 0.0, "lat": 38.902415833333336, "fusion_lat": 0.0}, {"is_disabled": 0, "rental_uris": {"android": "https://dc.lft.to/lastmile_qr_scan", "ios": "https://dc.lft.to/lastmile_qr_scan"}, "is_reserved": 0, "name": "807cea6b9061663e1102beda4c68ca43", "lon": -77.02154616666667, "type": "electric_scooter", "bike_id": "807cea6b9061663e1102beda4c68ca43", "fusion_lon": 0.0, "lat": 38.92614533333333, "fusion_lat": 0.0}, {"is_disabled": 0, "rental_uris": {"android": "https://dc.lft.to/lastmile_qr_scan", "ios": "https://dc.lft.to/lastmile_qr_scan"}, "is_reserved": 0, "name": "a6faeb5359d0d1e56b46d79733571d61", "lon": -77.037142, "type": "electric_scooter", "bike_id": "a6faeb5359d0d1e56b46d79733571d61", "fusion_lon": 0.0, "lat": 38.911145166666664, "fusion_lat": 0.0}, {"is_disabled": 0, "rental_uris": {"android": "https://dc.lft.to/lastmile_qr_scan", "ios": "https://dc.lft.to/lastmile_qr_scan"}, "is_reserved": 0, "name": "033402f95b61b28abe8e7ccbb2952c78", "lon": -76.98612816666666, "type": "electric_scooter", "bike_id": "033402f95b61b28abe8e7ccbb2952c78", "fusion_lon": 0.0, "lat": 38.903499833333335, "fusion_lat": 0.0}, {"is_disabled": 0, "rental_uris": {"android": "https://dc.lft.to/lastmile_qr_scan", "ios": "https://dc.lft.to/lastmile_qr_scan"}, "is_reserved": 0, "name": "e2f5fa398a515419c22f86f113c2494b", "lon": -77.12736966666667, "type": "electric_bike", "bike_id": "e2f5fa398a515419c22f86f113c2494b", "fusion_lon": 0.0, "lat": 38.88820283333333, "fusion_lat": 0.0}, {"is_disabled": 0, "rental_uris": {"android": "https://dc.lft.to/lastmile_qr_scan", "ios": "https://dc.lft.to/lastmile_qr_scan"}, "is_reserved": 0, "name": "e1e71106571e369f4386872e57d2402e", "lon": -77.04353516666667, "type": "electric_scooter", "bike_id": "e1e71106571e369f4386872e57d2402e", "fusion_lon": 0.0, "lat": 38.9216935, "fusion_lat": 0.0}, {"is_disabled": 0, "rental_uris": {"android": "https://dc.lft.to/lastmile_qr_scan", "ios": "https://dc.lft.to/lastmile_qr_scan"}, "is_reserved": 0, "name": "9fa5aee4a27f098a15d5f5f1177b9712", "lon": -77.02174683333334, "type": "electric_scooter", "bike_id": "9fa5aee4a27f098a15d5f5f1177b9712", "fusion_lon": 0.0, "lat": 38.895204666666665, "fusion_lat": 0.0}, {"is_disabled": 0, "rental_uris": {"android": "https://dc.lft.to/lastmile_qr_scan", "ios": "https://dc.lft.to/lastmile_qr_scan"}, "is_reserved": 0, "name": "bd36e1fe07681c00522d4f7414491a58", "lon": -77.06900166666667, "type": "electric_scooter", "bike_id": "bd36e1fe07681c00522d4f7414491a58", "fusion_lon": 0.0, "lat": 38.9078165, "fusion_lat": 0.0}, {"is_disabled": 0, "rental_uris": {"android": "https://dc.lft.to/lastmile_qr_scan", "ios": "https://dc.lft.to/lastmile_qr_scan"}, "is_reserved": 0, "name": "a2f2a9b877790f0bffc30f1f116348e6", "lon": -77.04995633333333, "type": "electric_scooter", "bike_id": "a2f2a9b877790f0bffc30f1f116348e6", "fusion_lon": 0.0, "lat": 38.8922785, "fusion_lat": 0.0}, {"is_disabled": 0, "rental_uris": {"android": "https://dc.lft.to/lastmile_qr_scan", "ios": "https://dc.lft.to/lastmile_qr_scan"}, "is_reserved": 0, "name": "7173d9b658dd6d5564f6460b986c69bb", "lon": -76.99486416666667, "type": "electric_scooter", "bike_id": "7173d9b658dd6d5564f6460b986c69bb", "fusion_lon": 0.0, "lat": 38.86237333333333, "fusion_lat": 0.0}, {"is_disabled": 0, "rental_uris": {"android": "https://dc.lft.to/lastmile_qr_scan", "ios": "https://dc.lft.to/lastmile_qr_scan"}, "is_reserved": 0, "name": "19baf0cf9c7e00700ca3e3b58db8cae7", "lon": -77.03167, "type": "electric_scooter", "bike_id": "19baf0cf9c7e00700ca3e3b58db8cae7", "fusion_lon": 0.0, "lat": 38.8918235, "fusion_lat": 0.0}, {"is_disabled": 0, "rental_uris": {"android": "https://dc.lft.to/lastmile_qr_scan", "ios": "https://dc.lft.to/lastmile_qr_scan"}, "is_reserved": 0, "name": "0ed274f0e93b04b863e425956299d804", "lon": -76.96912233333333, "type": "electric_scooter", "bike_id": "0ed274f0e93b04b863e425956299d804", "fusion_lon": 0.0, "lat": 38.855228, "fusion_lat": 0.0}, {"is_disabled": 0, "rental_uris": {"android": "https://dc.lft.to/lastmile_qr_scan", "ios": "https://dc.lft.to/lastmile_qr_scan"}, "is_reserved": 0, "name": "cfa9e1997520b5f19df07dd870188223", "lon": -77.01209716666666, "type": "electric_scooter", "bike_id": "cfa9e1997520b5f19df07dd870188223", "fusion_lon": 0.0, "lat": 38.918216666666666, "fusion_lat": 0.0}, {"is_disabled": 0, "rental_uris": {"android": "https://dc.lft.to/lastmile_qr_scan", "ios": "https://dc.lft.to/lastmile_qr_scan"}, "is_reserved": 0, "name": "86b4a7e18c5313e9bf854565ebb2310c", "lon": -77.02457816666667, "type": "electric_scooter", "bike_id": "86b4a7e18c5313e9bf854565ebb2310c", "fusion_lon": 0.0, "lat": 38.9391035, "fusion_lat": 0.0}, {"is_disabled": 0, "rental_uris": {"android": "https://dc.lft.to/lastmile_qr_scan", "ios": "https://dc.lft.to/lastmile_qr_scan"}, "is_reserved": 0, "name": "513885f44f3899c6430aa313ccc69af5", "lon": -76.98521216666667, "type": "electric_scooter", "bike_id": "513885f44f3899c6430aa313ccc69af5", "fusion_lon": 0.0, "lat": 38.86006033333334, "fusion_lat": 0.0}, {"is_disabled": 0, "rental_uris": {"android": "https://dc.lft.to/lastmile_qr_scan", "ios": "https://dc.lft.to/lastmile_qr_scan"}, "is_reserved": 0, "name": "55caa82f4fb68b7123fb8b498a57b4bc", "lon": -77.059268, "type": "electric_scooter", "bike_id": "55caa82f4fb68b7123fb8b498a57b4bc", "fusion_lon": 0.0, "lat": 38.936682166666664, "fusion_lat": 0.0}, {"is_disabled": 0, "rental_uris": {"android": "https://dc.lft.to/lastmile_qr_scan", "ios": "https://dc.lft.to/lastmile_qr_scan"}, "is_reserved": 0, "name": "2355073524c9321d713a06bd5ed2e8ed", "lon": -76.9310695, "type": "electric_scooter", "bike_id": "2355073524c9321d713a06bd5ed2e8ed", "fusion_lon": 0.0, "lat": 38.8801995, "fusion_lat": 0.0}, {"is_disabled": 0, "rental_uris": {"android": "https://dc.lft.to/lastmile_qr_scan", "ios": "https://dc.lft.to/lastmile_qr_scan"}, "is_reserved": 0, "name": "f83790dc9e93af2898c2bf93f46c7368", "lon": -77.02845683333334, "type": "electric_scooter", "bike_id": "f83790dc9e93af2898c2bf93f46c7368", "fusion_lon": 0.0, "lat": 38.895233, "fusion_lat": 0.0}, {"is_disabled": 0, "rental_uris": {"android": "https://dc.lft.to/lastmile_qr_scan", "ios": "https://dc.lft.to/lastmile_qr_scan"}, "is_reserved": 0, "name": "a9e2fe87f51c6543863923cf2cf110e6", "lon": -77.0158175, "type": "electric_bike", "bike_id": "a9e2fe87f51c6543863923cf2cf110e6", "fusion_lon": 0.0, "lat": 39.04635233333333, "fusion_lat": 0.0}, {"is_disabled": 0, "rental_uris": {"android": "https://dc.lft.to/lastmile_qr_scan", "ios": "https://dc.lft.to/lastmile_qr_scan"}, "is_reserved": 0, "name": "d068c441591e09fd8a9fb2e10c1c340f", "lon": -77.18289683333333, "type": "electric_bike", "bike_id": "d068c441591e09fd8a9fb2e10c1c340f", "fusion_lon": 0.0, "lat": 38.883389333333334, "fusion_lat": 0.0}, {"is_disabled": 0, "rental_uris": {"android": "https://dc.lft.to/lastmile_qr_scan", "ios": "https://dc.lft.to/lastmile_qr_scan"}, "is_reserved": 0, "name": "33ffbac3648f6259f29d59a4c766993e", "lon": -77.0428265, "type": "electric_scooter", "bike_id": "33ffbac3648f6259f29d59a4c766993e", "fusion_lon": 0.0, "lat": 38.911069, "fusion_lat": 0.0}, {"is_disabled": 0, "rental_uris": {"android": "https://dc.lft.to/lastmile_qr_scan", "ios": "https://dc.lft.to/lastmile_qr_scan"},