{"data": {"bikes": [{"name": "e9bfbbedf79dca327e5cb388bf3b06b1", "lon": -77.04484283333333, "lat": 38.92426783333333, "type": "electric_scooter", "fusion_lon": 0.0, "is_reserved": 0, "bike_id": "e9bfbbedf79dca327e5cb388bf3b06b1", "fusion_lat": 0.0, "is_disabled": 0, "rental_uris": {"ios": "https://dc.lft.to/lastmile_qr_scan", "android": "https://dc.lft.to/lastmile_qr_scan"}}, {"name": "8f6e0364cbaf704c3a4b6b59bec90332", "lon": -76.89533833333333, "lat": 38.945517, "type": "electric_bike", "fusion_lon": 0.0, "is_reserved": 0, "bike_id": "8f6e0364cbaf704c3a4b6b59bec90332", "fusion_lat": 0.0, "is_disabled": 0, "rental_uris": {"ios": "https://dc.lft.to/lastmile_qr_scan", "android": "https://dc.lft.to/lastmile_qr_scan"}}, {"name": "04ccc85bce5d8aac886604eb4d0f10cb", "lon": -77.04643716666666, "lat": 38.91935466666666, "type": "electric_scooter", "fusion_lon": 0.0, "is_reserved": 0, "bike_id": "04ccc85bce5d8aac886604eb4d0f10cb", "fusion_lat": 0.0, "is_disabled": 0, "rental_uris": {"ios": "https://dc.lft.to/lastmile_qr_scan", "android": "https://dc.lft.to/lastmile_qr_scan"}}, {"name": "925032f2c036c6ea944b8a9b01940568", "lon": -77.04530816666667, "lat": 38.902665, "type": "electric_scooter", "fusion_lon": 0.0, "is_reserved": 0, "bike_id": "925032f2c036c6ea944b8a9b01940568", "fusion_lat": 0.0, "is_disabled": 0, "rental_uris": {"ios": "https://dc.lft.to/lastmile_qr_scan", "android": "https://dc.lft.to/lastmile_qr_scan"}}, {"name": "072cda407acbad09e0890d7bf9d9fc76", "lon": -77.06334466666667, "lat": 38.94426283333333, "type": "electric_scooter", "fusion_lon": 0.0, "is_reserved": 0, "bike_id": "072cda407acbad09e0890d7bf9d9fc76", "fusion_lat": 0.0, "is_disabled": 0, "rental_uris": {"ios": "https://dc.lft.to/lastmile_qr_scan", "android": "https://dc.lft.to/lastmile_qr_scan"}}, {"name": "dc43196ca2c2f1d148b3ce545d65d902", "lon": -77.041424, "lat": 38.89355033333333, "type": "electric_scooter", "fusion_lon": 0.0, "is_reserved": 0, "bike_id": "dc43196ca2c2f1d148b3ce545d65d902", "fusion_lat": 0.0, "is_disabled": 0, "rental_uris": {"ios": "https://dc.lft.to/lastmile_qr_scan", "android": "https://dc.lft.to/lastmile_qr_scan"}}, {"name": "be0e73a6445ecdae71c8e946d7e95f67", "lon": -77.027306, "lat": 38.940893333333335, "type": "electric_scooter", "fusion_lon": 0.0, "is_reserved": 0, "bike_id": "be0e73a6445ecdae71c8e946d7e95f67", "fusion_lat": 0.0, "is_disabled": 0, "rental_uris": {"ios": "https://dc.lft.to/lastmile_qr_scan", "android": "https://dc.lft.to/lastmile_qr_scan"}}, {"name": "c9a89d2224bea140b442831e843799e2", "lon": -77.0217075, "lat": 38.90560116666666, "type": "electric_scooter", "fusion_lon": 0.0, "is_reserved": 0, "bike_id": "c9a89d2224bea140b442831e843799e2", "fusion_lat": 0.0, "is_disabled": 0, "rental_uris": {"ios": "https://dc.lft.to/lastmile_qr_scan", "android": "https://dc.lft.to/lastmile_qr_scan"}}, {"name": "1cff36fb20f411f8b869e46d34091ce2", "lon": -77.03175283333333, "lat": 38.91419416666667, "type": "electric_scooter", "fusion_lon": 0.0, "is_reserved": 0, "bike_id": "1cff36fb20f411f8b869e46d34091ce2", "fusion_lat": 0.0, "is_disabled": 0, "rental_uris": {"ios": "https://dc.lft.to/lastmile_qr_scan", "android": "https://dc.lft.to/lastmile_qr_scan"}}, {"name": "dcb7abd897d09a72732c9d56c76bbecb", "lon": -77.063555, "lat": 38.94449733333333, "type": "electric_scooter", "fusion_lon": 0.0, "is_reserved": 0, "bike_id": "dcb7abd897d09a72732c9d56c76bbecb", "fusion_lat": 0.0, "is_disabled": 0, "rental_uris": {"ios": "https://dc.lft.to/lastmile_qr_scan", "android": "https://dc.lft.to/lastmile_qr_scan"}}, {"name": "0b0636458fcc93c11fb9c6b79e5a05ae", "lon": -76.9825115, "lat": 38.86459816666667, "type": "electric_scooter", "fusion_lon": 0.0, "is_reserved": 0, "bike_id": "0b0636458fcc93c11fb9c6b79e5a05ae", "fusion_lat": 0.0, "is_disabled": 0, "rental_uris": {"ios": "https://dc.lft.to/lastmile_qr_scan", "android": "https://dc.lft.to/lastmile_qr_scan"}}, {"name": "7d1a82ffedb7466c366dfdbdba792ff2", "lon": -77.01672883333333, "lat": 38.88121683333333, "type": "electric_scooter", "fusion_lon": 0.0, "is_reserved": 0, "bike_id": "7d1a82ffedb7466c366dfdbdba792ff2", "fusion_lat": 0.0, "is_disabled": 0, "rental_uris": {"ios": "https://dc.lft.to/lastmile_qr_scan", "android": "https://dc.lft.to/lastmile_qr_scan"}}, {"name": "707f54ce3c0e735d804a7398cd772ef7", "lon": -77.03263716666666, "lat": 38.939764833333335, "type": "electric_scooter", "fusion_lon": 0.0, "is_reserved": 0, "bike_id": "707f54ce3c0e735d804a7398cd772ef7", "fusion_lat": 0.0, "is_disabled": 0, "rental_uris": {"ios": "https://dc.lft.to/lastmile_qr_scan", "android": "https://dc.lft.to/lastmile_qr_scan"}}, {"name": "d45fb65e92ed58976597b0b98368c837", "lon": -77.02812616666667, "lat": 38.92366466666667, "type": "electric_scooter", "fusion_lon": 0.0, "is_reserved": 0, "bike_id": "d45fb65e92ed58976597b0b98368c837", "fusion_lat": 0.0, "is_disabled": 0, "rental_uris": {"ios": "https://dc.lft.to/lastmile_qr_scan", "android": "https://dc.lft.to/lastmile_qr_scan"}}, {"name": "0bf79de0e1903b723df5ec937b8d0743", "lon": -77.0239715, "lat": 38.916391, "type": "electric_scooter", "fusion_lon": 0.0, "is_reserved": 0, "bike_id": "0bf79de0e1903b723df5ec937b8d0743", "fusion_lat": 0.0, "is_disabled": 0, "rental_uris": {"ios": "https://dc.lft.to/lastmile_qr_scan", "android": "https://dc.lft.to/lastmile_qr_scan"}}, {"name": "4f507c3935d78c8b02325edac0b23a72", "lon": -77.01764616666667, "lat": 38.87723733333333, "type": "electric_scooter", "fusion_lon": 0.0, "is_reserved": 0, "bike_id": "4f507c3935d78c8b02325edac0b23a72", "fusion_lat": 0.0, "is_disabled": 0, "rental_uris": {"ios": "https://dc.lft.to/lastmile_qr_scan", "android": "https://dc.lft.to/lastmile_qr_scan"}}, {"name": "09d28eba88bd7b80055312b739ee4f59", "lon": -77.09457516666667, "lat": 38.80756683333333, "type": "electric_bike", "fusion_lon": 0.0, "is_reserved": 0, "bike_id": "09d28eba88bd7b80055312b739ee4f59", "fusion_lat": 0.0, "is_disabled": 0, "rental_uris": {"ios": "https://dc.lft.to/lastmile_qr_scan", "android": "https://dc.lft.to/lastmile_qr_scan"}}, {"name": "6ddc444d5e0eb61f829e29faed0bb9be", "lon": -77.0334815, "lat": 38.900032333333336, "type": "electric_scooter", "fusion_lon": 0.0, "is_reserved": 0, "bike_id": "6ddc444d5e0eb61f829e29faed0bb9be", "fusion_lat": 0.0, "is_disabled": 0, "rental_uris": {"ios": "https://dc.lft.to/lastmile_qr_scan", "android": "https://dc.lft.to/lastmile_qr_scan"}}, {"name": "6575f718ef12fa558c2f41ca929a83a1", "lon": -76.99541033333334, "lat": 38.879365166666666, "type": "electric_scooter", "fusion_lon": 0.0, "is_reserved": 0, "bike_id": "6575f718ef12fa558c2f41ca929a83a1", "fusion_lat": 0.0, "is_disabled": 0, "rental_uris": {"ios": "https://dc.lft.to/lastmile_qr_scan", "android": "https://dc.lft.to/lastmile_qr_scan"}}, {"name": "401c4bcbdbff3c17b1b05c2616be10df", "lon": -76.99266816666666, "lat": 38.86253216666667, "type": "electric_scooter", "fusion_lon": 0.0, "is_reserved": 0, "bike_id": "401c4bcbdbff3c17b1b05c2616be10df", "fusion_lat": 0.0, "is_disabled": 0, "rental_uris": {"ios": "https://dc.lft.to/lastmile_qr_scan", "android": "https://dc.lft.to/lastmile_qr_scan"}}, {"name": "49c5dbac82e2e4592f90e4145037aa58", "lon": -77.0431155, "lat": 38.9288945, "type": "electric_bike", "fusion_lon": 0.0, "is_reserved": 0, "bike_id": "49c5dbac82e2e4592f90e4145037aa58", "fusion_lat": 0.0, "is_disabled": 0, "rental_uris": {"ios": "https://dc.lft.to/lastmile_qr_scan", "android": "https://dc.lft.to/lastmile_qr_scan"}}, {"name": "f769363b0456d9546b3f11cea25482c1", "lon": -77.01757116666667, "lat": 38.8768665, "type": "electric_scooter", "fusion_lon": 0.0, "is_reserved": 0, "bike_id": "f769363b0456d9546b3f11cea25482c1", "fusion_lat": 0.0, "is_disabled": 0, "rental_uris": {"ios": "https://dc.lft.to/lastmile_qr_scan", "android": "https://dc.lft.to/lastmile_qr_scan"}}, {"name": "b49db42912c06327f267f7f16fbbdc43", "lon": -77.12015933333333, "lat": 38.855119, "type": "electric_bike", "fusion_lon": 0.0, "is_reserved": 0, "bike_id": "b49db42912c06327f267f7f16fbbdc43", "fusion_lat": 0.0, "is_disabled": 0, "rental_uris": {"ios": "https://dc.lft.to/lastmile_qr_scan", "android": "https://dc.lft.to/lastmile_qr_scan"}}, {"name": "bfc66a98ab6855f071e02c1fc4cd9da9", "lon": -77.042012, "lat": 38.89365766666667, "type": "electric_scooter", "fusion_lon": 0.0, "is_reserved": 0, "bike_id": "bfc66a98ab6855f071e02c1fc4cd9da9", "fusion_lat": 0.0, "is_disabled": 0, "rental_uris": {"ios": "https://dc.lft.to/lastmile_qr_scan", "android": "https://dc.lft.to/lastmile_qr_scan"}}, {"name": "c581edc0d86f50d5cafbe294c8557960", "lon": -77.03839833333333, "lat": 38.910116, "type": "electric_scooter", "fusion_lon": 0.0, "is_reserved": 0, "bike_id": "c581edc0d86f50d5cafbe294c8557960", "fusion_lat": 0.0, "is_disabled": 0, "rental_uris": {"ios": "https://dc.lft.to/lastmile_qr_scan", "android": "https://dc.lft.to/lastmile_qr_scan"}}, {"name": "71e97ab1a091a799ea1120728951f03a", "lon": -77.001953, "lat": 38.89351766666667, "type": "electric_scooter", "fusion_lon": 0.0, "is_reserved": 0, "bike_id": "71e97ab1a091a799ea1120728951f03a", "fusion_lat": 0.0, "is_disabled": 0, "rental_uris": {"ios": "https://dc.lft.to/lastmile_qr_scan", "android": "https://dc.lft.to/lastmile_qr_scan"}}, {"name": "814ee3915167dc274a53762e6d9a671f", "lon": -77.00495466666666, "lat": 38.896879, "type": "electric_scooter", "fusion_lon": 0.0, "is_reserved": 0, "bike_id": "814ee3915167dc274a53762e6d9a671f", "fusion_lat": 0.0, "is_disabled": 0, "rental_uris": {"ios": "https://dc.lft.to/lastmile_qr_scan", "android": "https://dc.lft.to/lastmile_qr_scan"}}, {"name": "38af0d183610aa201f53857ef8d64ff7", "lon": -77.04518733333333, "lat": 38.8922355, "type": "electric_scooter", "fusion_lon": 0.0, "is_reserved": 0, "bike_id": "38af0d183610aa201f53857ef8d64ff7", "fusion_lat": 0.0, "is_disabled": 0, "rental_uris": {"ios": "https://dc.lft.to/lastmile_qr_scan", "android": "https://dc.lft.to/lastmile_qr_scan"}}, {"name": "9d333833953fa4c60ede69a843ed67b7", "lon": -77.03916216666667, "lat": 38.917609166666665, "type": "electric_scooter", "fusion_lon": 0.0, "is_reserved": 0, "bike_id": "9d333833953fa4c60ede69a843ed67b7", "fusion_lat": 0.0, "is_disabled": 0, "rental_uris": {"ios": "https://dc.lft.to/lastmile_qr_scan", "android": "https://dc.lft.to/lastmile_qr_scan"}}, {"name": "ece427da980092272ef4236bfdf53b8c", "lon": -77.04479966666666, "lat": 38.91870883333333, "type": "electric_scooter", "fusion_lon": 0.0, "is_reserved": 0, "bike_id": "ece427da980092272ef4236bfdf53b8c", "fusion_lat": 0.0, "is_disabled": 0, "rental_uris": {"ios": "https://dc.lft.to/lastmile_qr_scan", "android": "https://dc.lft.to/lastmile_qr_scan"}}, {"name": "fb6f756b182cfb701d1fbe4b58245283", "lon": -77.0641375, "lat": 38.90524, "type": "electric_scooter", "fusion_lon": 0.0, "is_reserved": 0, "bike_id": "fb6f756b182cfb701d1fbe4b58245283", "fusion_lat": 0.0, "is_disabled": 0, "rental_uris": {"ios": "https://dc.lft.to/lastmile_qr_scan", "android": "https://dc.lft.to/lastmile_qr_scan"}}, {"name": "7d6159b8d83dbf6199b54f0c07081758", "lon": -76.94191716666667, "lat": 38.89754883333333, "type": "electric_scooter", "fusion_lon": 0.0, "is_reserved": 0, "bike_id": "7d6159b8d83dbf6199b54f0c07081758", "fusion_lat": 0.0, "is_disabled": 0, "rental_uris": {"ios": "https://dc.lft.to/lastmile_qr_scan", "android": "https://dc.lft.to/lastmile_qr_scan"}}, {"name": "68feacb83b088ad1e3b580c8612cdcb4", "lon": -77.02515116666666, "lat": 38.93094083333333, "type": "electric_scooter", "fusion_lon": 0.0, "is_reserved": 0, "bike_id": "68feacb83b088ad1e3b580c8612cdcb4", "fusion_lat": 0.0, "is_disabled": 0, "rental_uris": {"ios": "https://dc.lft.to/lastmile_qr_scan", "android": "https://dc.lft.to/lastmile_qr_scan"}}, {"name": "ebf71e7eb00fc757e255db8883d78650", "lon": -77.03213833333334, "lat": 38.89223766666667, "type": "electric_scooter", "fusion_lon": 0.0, "is_reserved": 0, "bike_id": "ebf71e7eb00fc757e255db8883d78650", "fusion_lat": 0.0, "is_disabled": 0, "rental_uris": {"ios": "https://dc.lft.to/lastmile_qr_scan", "android": "https://dc.lft.to/lastmile_qr_scan"}}, {"name": "1615ef147b9a3c4cfb9b3322e46e65ad", "lon": -77.02558883333333, "lat": 38.924785666666665, "type": "electric_scooter", "fusion_lon": 0.0, "is_reserved": 0, "bike_id": "1615ef147b9a3c4cfb9b3322e46e65ad", "fusion_lat": 0.0, "is_disabled": 0, "rental_uris": {"ios": "https://dc.lft.to/lastmile_qr_scan", "android": "https://dc.lft.to/lastmile_qr_scan"}}, {"name": "8629f354074a1818dc7131900a799621", "lon": -76.98303966666667, "lat": 38.90527516666667, "type": "electric_scooter", "fusion_lon": 0.0, "is_reserved": 0, "bike_id": "8629f354074a1818dc7131900a799621", "fusion_lat": 0.0, "is_disabled": 0, "rental_uris": {"ios": "https://dc.lft.to/lastmile_qr_scan", "android": "https://dc.lft.to/lastmile_qr_scan"}}, {"name": "9d53f55a80a648d4d11025d2e7f45cfb", "lon": -77.02583416666667, "lat": 38.9203325, "type": "electric_scooter", "fusion_lon": 0.0, "is_reserved": 0, "bike_id": "9d53f55a80a648d4d11025d2e7f45cfb", "fusion_lat": 0.0, "is_disabled": 0, "rental_uris": {"ios": "https://dc.lft.to/lastmile_qr_scan", "android": "https://dc.lft.to/lastmile_qr_scan"}}, {"name": "5c098a864a9af6a8a4e8a94818475382", "lon": -77.03836583333333, "lat": 38.911227333333336, "type": "electric_scooter", "fusion_lon": 0.0, "is_reserved": 0, "bike_id": "5c098a864a9af6a8a4e8a94818475382", "fusion_lat": 0.0, "is_disabled": 0, "rental_uris": {"ios": "https://dc.lft.to/lastmile_qr_scan", "android": "https://dc.lft.to/lastmile_qr_scan"}}, {"name": "08388212bda049871bf96127422685c6", "lon": -77.03660866666667, "lat": 38.93640933333333, "type": "electric_scooter", "fusion_lon": 0.0, "is_reserved": 0, "bike_id": "08388212bda049871bf96127422685c6", "fusion_lat": 0.0, "is_disabled": 0, "rental_uris": {"ios": "https://dc.lft.to/lastmile_qr_scan", "android": "https://dc.lft.to/lastmile_qr_scan"}}, {"name": "3280478c6905da70fe4aca091d69404b", "lon": -77.00382916666666, "lat": 38.83607533333333, "type": "electric_bike", "fusion_lon": 0.0, "is_reserved": 0, "bike_id": "3280478c6905da70fe4aca091d69404b", "fusion_lat": 0.0, "is_disabled": 0, "rental_uris": {"ios": "https://dc.lft.to/lastmile_qr_scan", "android": "https://dc.lft.to/lastmile_qr_scan"}}, {"name": "05e5b9bd77c00f98b6f6893d28435cd3", "lon": -77.02785983333334, "lat": 38.89723583333333, "type": "electric_scooter", "fusion_lon": 0.0, "is_reserved": 0, "bike_id": "05e5b9bd77c00f98b6f6893d28435cd3", "fusion_lat": 0.0, "is_disabled": 0, "rental_uris": {"ios": "https://dc.lft.to/lastmile_qr_scan", "android": "https://dc.lft.to/lastmile_qr_scan"}}, {"name": "8d48418fab6898c2be7417fe3c38df27", "lon": -77.01409733333334, "lat": 38.881258333333335, "type": "electric_scooter", "fusion_lon": 0.0, "is_reserved": 0, "bike_id": "8d48418fab6898c2be7417fe3c38df27", "fusion_lat": 0.0, "is_disabled": 0, "rental_uris": {"ios": "https://dc.lft.to/lastmile_qr_scan", "android": "https://dc.lft.to/lastmile_qr_scan"}}, {"name": "5fea7f2fd8d61abe3848a52dd40f4cde", "lon": -77.01441933333334, "lat": 38.91967133333333, "type": "electric_scooter", "fusion_lon": 0.0, "is_reserved": 0, "bike_id": "5fea7f2fd8d61abe3848a52dd40f4cde", "fusion_lat": 0.0, "is_disabled": 0, "rental_uris": {"ios": "https://dc.lft.to/lastmile_qr_scan", "android": "https://dc.lft.to/lastmile_qr_scan"}}, {"name": "69a8edbee8fef0320b00a87f8aee63d4", "lon": -77.04147083333334, "lat": 38.93070983333333, "type": "electric_scooter", "fusion_lon": 0.0, "is_reserved": 0, "bike_id": "69a8edbee8fef0320b00a87f8aee63d4", "fusion_lat": 0.0, "is_disabled": 0, "rental_uris": {"ios": "https://dc.lft.to/lastmile_qr_scan", "android": "https://dc.lft.to/lastmile_qr_scan"}}, {"name": "dd60cfe389018d5cf8cdf93b95a99297", "lon": -77.02326833333333, "lat": 38.90735633333333, "type": "electric_scooter", "fusion_lon": 0.0, "is_reserved": 0, "bike_id": "dd60cfe389018d5cf8cdf93b95a99297", "fusion_lat": 0.0, "is_disabled": 0, "rental_uris": {"ios": "https://dc.lft.to/lastmile_qr_scan", "android": "https://dc.lft.to/lastmile_qr_scan"}}, {"name": "eeac9636c750f76a9c2fb781bf2912c2", "lon": -77.04631233333333, "lat": 38.91928216666667, "type": "electric_scooter", "fusion_lon": 0.0, "is_reserved": 0, "bike_id": "eeac9636c750f76a9c2fb781bf2912c2", "fusion_lat": 0.0, "is_disabled": 0, "rental_uris": {"ios": "https://dc.lft.to/lastmile_qr_scan", "android": "https://dc.lft.to/lastmile_qr_scan"}}, {"name": "bdcfa297522fe8f08c9ffe4a130873f8", "lon": -77.025554, "lat": 38.92489066666667, "type": "electric_scooter", "fusion_lon": 0.0, "is_reserved": 0, "bike_id": "bdcfa297522fe8f08c9ffe4a130873f8", "fusion_lat": 0.0, "is_disabled": 0, "rental_uris": {"ios": "https://dc.lft.to/lastmile_qr_scan", "android": "https://dc.lft.to/lastmile_qr_scan"}}, {"name": "23d950680d329753e193136172964edc", "lon": -76.982196, "lat": 38.901971, "type": "electric_scooter", "fusion_lon": 0.0, "is_reserved": 0, "bike_id": "23d950680d329753e193136172964edc", "fusion_lat": 0.0, "is_disabled": 0, "rental_uris": {"ios": "https://dc.lft.to/lastmile_qr_scan", "android": "https://dc.lft.to/lastmile_qr_scan"}}, {"name": "262541fdad030bf31c6f715ec14e1877", "lon": -76.99605533333333, "lat": 38.886332333333335, "type": "electric_scooter", "fusion_lon": 0.0, "is_reserved": 0, "bike_id": "262541fdad030bf31c6f715ec14e1877", "fusion_lat": 0.0, "is_disabled": 0, "rental_uris": {"ios": "https://dc.lft.to/lastmile_qr_scan", "android": "https://dc.lft.to/lastmile_qr_scan"}}, {"name": "fe349226032e77b85a324767094f3729", "lon": -77.02813816666666, "lat": 38.881815333333336, "type": "electric_scooter", "fusion_lon": 0.0, "is_reserved": 0, "bike_id": "fe349226032e77b85a324767094f3729", "fusion_lat": 0.0, "is_disabled": 0, "rental_uris": {"ios": "https://dc.lft.to/lastmile_qr_scan", "android": "https://dc.lft.to/lastmile_qr_scan"}}, {"name": "f7ecd48956de5daaa81adf4409a82625", "lon": -77.06934216666667, "lat": 38.907794333333335, "type": "electric_scooter", "fusion_lon": 0.0, "is_reserved": 0, "bike_id": "f7ecd48956de5daaa81adf4409a82625", "fusion_lat": 0.0, "is_disabled": 0, "rental_uris": {"ios": "https://dc.lft.to/lastmile_qr_scan", "android": "https://dc.lft.to/lastmile_qr_scan"}}, {"name": "50b19c879792d277cb475cd10ba064b0", "lon": -77.043345, "lat": 38.90786883333333, "type": "electric_scooter", "fusion_lon": 0.0, "is_reserved": 0, "bike_id": "50b19c879792d277cb475cd10ba064b0", "fusion_lat": 0.0, "is_disabled": 0, "rental_uris": {"ios": "https://dc.lft.to/lastmile_qr_scan", "android": "https://dc.lft.to/lastmile_qr_scan"}}, {"name": "d99a63da52876bbcc5580ac2090100a7", "lon": -77.03089283333334, "lat": 38.93170533333333, "type": "electric_scooter", "fusion_lon": 0.0, "is_reserved": 0, "bike_id": "d99a63da52876bbcc5580ac2090100a7", "fusion_lat": 0.0, "is_disabled": 0, "rental_uris": {"ios": "https://dc.lft.to/lastmile_qr_scan", "android": "https://dc.lft.to/lastmile_qr_scan"}}, {"name": "558f8725021fc6b0aeba81b6ff73a231", "lon": -77.0464105, "lat": 38.91603683333334, "type": "electric_scooter", "fusion_lon": 0.0, "is_reserved": 0, "bike_id": "558f8725021fc6b0aeba81b6ff73a231", "fusion_lat": 0.0, "is_disabled": 0, "rental_uris": {"ios": "https://dc.lft.to/lastmile_qr_scan", "android": "https://dc.lft.to/lastmile_qr_scan"}}, {"name": "d523d46dce8dc9e71c6403c3d3438c0d", "lon": -77.03978083333334, "lat": 38.902750166666664, "type": "electric_scooter", "fusion_lon": 0.0, "is_reserved": 0, "bike_id": "d523d46dce8dc9e71c6403c3d3438c0d", "fusion_lat": 0.0, "is_disabled": 0, "rental_uris": {"ios": "https://dc.lft.to/lastmile_qr_scan", "android": "https://dc.lft.to/lastmile_qr_scan"}}, {"name": "27791ef52598bdf284b3c5551c60ff53", "lon": -77.04104133333334, "lat": 38.9177865, "type": "electric_scooter", "fusion_lon": 0.0, "is_reserved": 0, "bike_id": "27791ef52598bdf284b3c5551c60ff53", "fusion_lat": 0.0, "is_disabled": 0, "rental_uris": {"ios": "https://dc.lft.to/lastmile_qr_scan", "android": "https://dc.lft.to/lastmile_qr_scan"}}, {"name": "ebc214e28e4a81b9944e3e0c351e5817", "lon": -77.02136166666666, "lat": 38.937630166666665, "type": "electric_scooter", "fusion_lon": 0.0, "is_reserved": 0, "bike_id": "ebc214e28e4a81b9944e3e0c351e5817", "fusion_lat": 0.0, "is_disabled": 0, "rental_uris": {"ios": "https://dc.lft.to/lastmile_qr_scan", "android": "https://dc.lft.to/lastmile_qr_scan"}}, {"name": "2d5ce7a1cf5e6d706e81d2b4bf96e69c", "lon": -77.0610895, "lat": 38.93709966666667, "type": "electric_scooter", "fusion_lon": 0.0, "is_reserved": 0, "bike_id": "2d5ce7a1cf5e6d706e81d2b4bf96e69c", "fusion_lat": 0.0, "is_disabled": 0, "rental_uris": {"ios": "https://dc.lft.to/lastmile_qr_scan", "android": "https://dc.lft.to/lastmile_qr_scan"}}, {"name": "40104d26812ff48cf112f4fde3210484", "lon": -77.04252933333333, "lat": 38.905473666666666, "type": "electric_scooter", "fusion_lon": 0.0, "is_reserved": 0, "bike_id": "40104d26812ff48cf112f4fde3210484", "fusion_lat": 0.0, "is_disabled": 0, "rental_uris": {"ios": "https://dc.lft.to/lastmile_qr_scan", "android": "https://dc.lft.to/lastmile_qr_scan"}}, {"name": "b7b5d5af1a91df7fcc21e97579d9c000", "lon": -76.98842933333333, "lat": 38.90203966666667, "type": "electric_scooter", "fusion_lon": 0.0, "is_reserved": 0, "bike_id": "b7b5d5af1a91df7fcc21e97579d9c000", "fusion_lat": 0.0, "is_disabled": 0, "rental_uris": {"ios": "https://dc.lft.to/lastmile_qr_scan", "android": "https://dc.lft.to/lastmile_qr_scan"}}, {"name": "fe12eb1110252bd4a4f73682030f27e4", "lon": -77.02603316666666, "lat": 38.916943333333336, "type": "electric_scooter", "fusion_lon": 0.0, "is_reserved": 0, "bike_id": "fe12eb1110252bd4a4f73682030f27e4", "fusion_lat": 0.0, "is_disabled": 0, "rental_uris": {"ios": "https://dc.lft.to/lastmile_qr_scan", "android": "https://dc.lft.to/lastmile_qr_scan"}}, {"name": "3bf719fc4dd8c4f3871da20170218368", "lon": -77.02442116666667, "lat": 38.9096345, "type": "electric_scooter", "fusion_lon": 0.0, "is_reserved": 0, "bike_id": "3bf719fc4dd8c4f3871da20170218368", "fusion_lat": 0.0, "is_disabled": 0, "rental_uris": {"ios": "https://dc.lft.to/lastmile_qr_scan", "android": "https://dc.lft.to/lastmile_qr_scan"}}, {"name": "ef4b30f8e79d7bff625147c0663b2ef0", "lon": -77.03299683333333, "lat": 38.92058166666666, "type": "electric_scooter", "fusion_lon": 0.0, "is_reserved": 0, "bike_id": "ef4b30f8e79d7bff625147c0663b2ef0", "fusion_lat": 0.0, "is_disabled": 0, "rental_uris": {"ios": "https://dc.lft.to/lastmile_qr_scan", "android": "https://dc.lft.to/lastmile_qr_scan"}}, {"name": "b77de7441c92a4443ee49574e84b5d7a", "lon": -77.03380566666667, "lat": 38.903989833333334, "type": "electric_scooter", "fusion_lon": 0.0, "is_reserved": 0, "bike_id": "b77de7441c92a4443ee49574e84b5d7a", "fusion_lat": 0.0, "is_disabled": 0, "rental_uris": {"ios": "https://dc.lft.to/lastmile_qr_scan", "android": "https://dc.lft.to/lastmile_qr_scan"}}, {"name": "8e0fb0bf9f87656f43c5f8d7301888e0", "lon": -76.98603833333334, "lat": 38.90626266666666, "type": "electric_bike", "fusion_lon": 0.0, "is_reserved": 0, "bike_id": "8e0fb0bf9f87656f43c5f8d7301888e0", "fusion_lat": 0.0, "is_disabled": 0, "rental_uris": {"ios": "https://dc.lft.to/lastmile_qr_scan", "android": "https://dc.lft.to/lastmile_qr_scan"}}, {"name": "4922d644e8b4a74e68aedca35024fd5d", "lon": -77.03050616666667, "lat": 38.91336283333333, "type": "electric_scooter", "fusion_lon": 0.0, "is_reserved": 0, "bike_id": "4922d644e8b4a74e68aedca35024fd5d", "fusion_lat": 0.0, "is_disabled": 0, "rental_uris": {"ios": "https://dc.lft.to/lastmile_qr_scan", "android": "https://dc.lft.to/lastmile_qr_scan"}}, {"name": "e7fe2f3103807a9699941c585caadcfb", "lon": -77.02445366666667, "lat": 38.9240685, "type": "electric_scooter", "fusion_lon": 0.0, "is_reserved": 0, "bike_id": "e7fe2f3103807a9699941c585caadcfb", "fusion_lat": 0.0, "is_disabled": 0, "rental_uris": {"ios": "https://dc.lft.to/lastmile_qr_scan", "android": "https://dc.lft.to/lastmile_qr_scan"}}, {"name": "5bd8d366ebe1f6510d1931a37ddac8a5", "lon": -76.99520316666667, "lat": 38.88379883333333, "type": "electric_scooter", "fusion_lon": 0.0, "is_reserved": 0, "bike_id": "5bd8d366ebe1f6510d1931a37ddac8a5", "fusion_lat": 0.0, "is_disabled": 0, "rental_uris": {"ios": "https://dc.lft.to/lastmile_qr_scan", "android": "https://dc.lft.to/lastmile_qr_scan"}}, {"name": "62440bd7e1af786787468e5e99a8e62c", "lon": -77.04558483333334, "lat": 38.941063666666665, "type": "electric_scooter", "fusion_lon": 0.0, "is_reserved": 0, "bike_id": "62440bd7e1af786787468e5e99a8e62c", "fusion_lat": 0.0, "is_disabled": 0, "rental_uris": {"ios": "https://dc.lft.to/lastmile_qr_scan", "android": "https://dc.lft.to/lastmile_qr_scan"}}, {"name": "d80896623edab5bb9373041c7f61a320", "lon": -76.99838066666666, "lat": 38.8908735, "type": "electric_scooter", "fusion_lon": 0.0, "is_reserved": 0, "bike_id": "d80896623edab5bb9373041c7f61a320", "fusion_lat": 0.0, "is_disabled": 0, "rental_uris": {"ios": "https://dc.lft.to/lastmile_qr_scan", "android": "https://dc.lft.to/lastmile_qr_scan"}}, {"name": "3edad46445efe43125bd96f0d9b02d52", "lon": -77.027735, "lat": 38.939586, "type": "electric_scooter", "fusion_lon": 0.0, "is_reserved": 0, "bike_id": "3edad46445efe43125bd96f0d9b02d52", "fusion_lat": 0.0, "is_disabled": 0, "rental_uris": {"ios": "https://dc.lft.to/lastmile_qr_scan", "android": "https://dc.lft.to/lastmile_qr_scan"}}, {"name": "2de7d9147a31e19cc76f8b9e48247408", "lon": -77.04626966666666, "lat": 38.91928466666667, "type": "electric_scooter", "fusion_lon": 0.0, "is_reserved": 0, "bike_id": "2de7d9147a31e19cc76f8b9e48247408", "fusion_lat": 0.0, "is_disabled": 0, "rental_uris": {"ios": "https://dc.lft.to/lastmile_qr_scan", "android": "https://dc.lft.to/lastmile_qr_scan"}}, {"name": "b9e73062e2ff43a66a0f87c7acf2c2b9", "lon": -77.02339733333334, "lat": 38.92620566666667, "type": "electric_scooter", "fusion_lon": 0.0, "is_reserved": 0, "bike_id": "b9e73062e2ff43a66a0f87c7acf2c2b9", "fusion_lat": 0.0, "is_disabled": 0, "rental_uris": {"ios": "https://dc.lft.to/lastmile_qr_scan", "android": "https://dc.lft.to/lastmile_qr_scan"}}, {"name": "a8e99172dc69d946e8839cc2317105e6", "lon": -76.9847915, "lat": 38.910925166666665, "type": "electric_bike", "fusion_lon": 0.0, "is_reserved": 0, "bike_id": "a8e99172dc69d946e8839cc2317105e6", "fusion_lat": 0.0, "is_disabled": 0, "rental_uris": {"ios": "https://dc.lft.to/lastmile_qr_scan", "android": "https://dc.lft.to/lastmile_qr_scan"}}, {"name": "6bcecb0e90e7377098fb1e70461d9572", "lon": -76.99876833333333, "lat": 38.9003235, "type": "electric_scooter", "fusion_lon": 0.0, "is_reserved": 0, "bike_id": "6bcecb0e90e7377098fb1e70461d9572", "fusion_lat": 0.0, "is_disabled": 0, "rental_uris": {"ios": "https://dc.lft.to/lastmile_qr_scan", "android": "https://dc.lft.to/lastmile_qr_scan"}}, {"name": "832e2e64939fa0ec94eefd30dff75765", "lon": -77.05136216666666, "lat": 38.907158333333335, "type": "electric_scooter", "fusion_lon": 0.0, "is_reserved": 0, "bike_id": "832e2e64939fa0ec94eefd30dff75765", "fusion_lat": 0.0, "is_disabled": 0, "rental_uris": {"ios": "https://dc.lft.to/lastmile_qr_scan", "android": "https://dc.lft.to/lastmile_qr_scan"}}, {"name": "c12a27bce70f2cd76ee616ef7b539bed", "lon": -77.0077725, "lat": 38.92673933333333, "type": "electric_scooter", "fusion_lon": 0.0, "is_reserved": 0, "bike_id": "c12a27bce70f2cd76ee616ef7b539bed", "fusion_lat": 0.0, "is_disabled": 0, "rental_uris": {"ios": "https://dc.lft.to/lastmile_qr_scan", "android": "https://dc.lft.to/lastmile_qr_scan"}}, {"name": "9b50b7396e0d143b34273d399872e26f", "lon": -76.96710983333334, "lat": 38.84798116666666, "type": "electric_scooter", "fusion_lon": 0.0, "is_reserved": 0, "bike_id": "9b50b7396e0d143b34273d399872e26f", "fusion_lat": 0.0, "is_disabled": 0, "rental_uris": {"ios": "https://dc.lft.to/lastmile_qr_scan", "android": "https://dc.lft.to/lastmile_qr_scan"}}, {"name": "84a004ead4f6a9224c8ece00cf5fefd8", "lon": -77.023527, "lat": 38.94616233333333, "type": "electric_scooter", "fusion_lon": 0.0, "is_reserved": 0, "bike_id": "84a004ead4f6a9224c8ece00cf5fefd8", "fusion_lat": 0.0, "is_disabled": 0, "rental_uris": {"ios": "https://dc.lft.to/lastmile_qr_scan", "android": "https://dc.lft.to/lastmile_qr_scan"}}, {"name": "17bebc8a7055bcbbb979fdf70b55257a", "lon": -77.00272316666667, "lat": 38.88723066666667, "type": "electric_scooter", "fusion_lon": 0.0, "is_reserved": 0, "bike_id": "17bebc8a7055bcbbb979fdf70b55257a", "fusion_lat": 0.0, "is_disabled": 0, "rental_uris": {"ios": "https://dc.lft.to/lastmile_qr_scan", "android": "https://dc.lft.to/lastmile_qr_scan"}}, {"name": "f8ea94a7014ea03539674b7618cbe57d", "lon": -77.02806383333333, "lat": 38.932951, "type": "electric_scooter", "fusion_lon": 0.0, "is_reserved": 0, "bike_id": "f8ea94a7014ea03539674b7618cbe57d", "fusion_lat": 0.0, "is_disabled": 0, "rental_uris": {"ios": "https://dc.lft.to/lastmile_qr_scan", "android": "https://dc.lft.to/lastmile_qr_scan"}}, {"name": "ed626f9f76a670b88cad849130a605b3", "lon": -77.04243783333334, "lat": 38.913367, "type": "electric_scooter", "fusion_lon": 0.0, "is_reserved": 0, "bike_id": "ed626f9f76a670b88cad849130a605b3", "fusion_lat": 0.0, "is_disabled": 0, "rental_uris": {"ios": "https://dc.lft.to/lastmile_qr_scan", "android": "https://dc.lft.to/lastmile_qr_scan"}}, {"name": "6b1abbcbed3462b53e5724061250fea0", "lon": -77.05200866666667, "lat": 38.90388083333333, "type": "electric_scooter", "fusion_lon": 0.0, "is_reserved": 0, "bike_id": "6b1abbcbed3462b53e5724061250fea0", "fusion_lat": 0.0, "is_disabled": 0, "rental_uris": {"ios": "https://dc.lft.to/lastmile_qr_scan", "android": "https://dc.lft.to/lastmile_qr_scan"}}, {"name": "1c35c00ce2e198112a64d053feab38ed", "lon": -76.94423466666667, "lat": 38.96620883333333, "type": "electric_bike", "fusion_lon": 0.0, "is_reserved": 0, "bike_id": "1c35c00ce2e198112a64d053feab38ed", "fusion_lat": 0.0, "is_disabled": 0, "rental_uris": {"ios": "https://dc.lft.to/lastmile_qr_scan", "android": "https://dc.lft.to/lastmile_qr_scan"}}, {"name": "bbc698e0423d6493ea24fd6d3ea92710", "lon": -76.92337016666667, "lat": 38.8711155, "type": "electric_bike", "fusion_lon": 0.0, "is_reserved": 0, "bike_id": "bbc698e0423d6493ea24fd6d3ea92710", "fusion_lat": 0.0, "is_disabled": 0, "rental_uris": {"ios": "https://dc.lft.to/lastmile_qr_scan", "android": "https://dc.lft.to/lastmile_qr_scan"}}, {"name": "621503a47fdc6f411004b9c6b348f595", "lon": -77.02877866666667, "lat": 38.904191, "type": "electric_scooter", "fusion_lon": 0.0, "is_reserved": 0, "bike_id": "621503a47fdc6f411004b9c6b348f595", "fusion_lat": 0.0, "is_disabled": 0, "rental_uris": {"ios": "https://dc.lft.to/lastmile_qr_scan", "android": "https://dc.lft.to/lastmile_qr_scan"}}, {"name": "677a9905811f80c9e3b82befb1d2e7c5", "lon": -77.0470215, "lat": 38.9024255, "type": "electric_scooter", "fusion_lon": 0.0, "is_reserved": 0, "bike_id": "677a9905811f80c9e3b82befb1d2e7c5", "fusion_lat": 0.0, "is_disabled": 0, "rental_uris": {"ios": "https://dc.lft.to/lastmile_qr_scan", "android": "https://dc.lft.to/lastmile_qr_scan"}}, {"name": "746f9b0865ab6ddf6d2ed330f1acf4fd", "lon": -77.03362133333333, "lat": 38.9286725, "type": "electric_scooter", "fusion_lon": 0.0, "is_reserved": 0, "bike_id": "746f9b0865ab6ddf6d2ed330f1acf4fd", "fusion_lat": 0.0, "is_disabled": 0, "rental_uris": {"ios": "https://dc.lft.to/lastmile_qr_scan", "android": "https://dc.lft.to/lastmile_qr_scan"}}, {"name": "81cbcd91aab5b6ca9a01a1a9d24cf02d", "lon": -77.02394733333334, "lat": 38.91746366666667, "type": "electric_scooter", "fusion_lon": 0.0, "is_reserved": 0, "bike_id": "81cbcd91aab5b6ca9a01a1a9d24cf02d", "fusion_lat": 0.0, "is_disabled": 0, "rental_uris": {"ios": "https://dc.lft.to/lastmile_qr_scan", "android": "https://dc.lft.to/lastmile_qr_scan"}}, {"name": "983a1a1d8c5247fb906f3f64e53dc087", "lon": -77.0343935, "lat": 38.91808533333333, "type": "electric_scooter", "fusion_lon": 0.0, "is_reserved": 0, "bike_id": "983a1a1d8c5247fb906f3f64e53dc087", "fusion_lat": 0.0, "is_disabled": 0, "rental_uris": {"ios": "https://dc.lft.to/lastmile_qr_scan", "android": "https://dc.lft.to/lastmile_qr_scan"}}, {"name": "3cae93eb190f22dcad55d5af9e64453e", "lon": -77.03181066666667, "lat": 38.919265, "type": "electric_scooter", "fusion_lon": 0.0, "is_reserved": 0, "bike_id": "3cae93eb190f22dcad55d5af9e64453e", "fusion_lat": 0.0, "is_disabled": 0, "rental_uris": {"ios": "https://dc.lft.to/lastmile_qr_scan", "android": "https://dc.lft.to/lastmile_qr_scan"}}, {"name": "006359e39d96bc14e581be322dcb9184", "lon": -76.998359, "lat": 38.8832195, "type": "electric_scooter", "fusion_lon": 0.0, "is_reserved": 0, "bike_id": "006359e39d96bc14e581be322dcb9184", "fusion_lat": 0.0, "is_disabled": 0, "rental_uris": {"ios": "https://dc.lft.to/lastmile_qr_scan", "android": "https://dc.lft.to/lastmile_qr_scan"}}, {"name": "cc796dcc3d7a194e4ea9d0030d6c5b26", "lon": -77.03013183333333, "lat": 38.99146016666667, "type": "electric_bike", "fusion_lon": 0.0, "is_reserved": 0, "bike_id": "cc796dcc3d7a194e4ea9d0030d6c5b26", "fusion_lat": 0.0, "is_disabled": 0, "rental_uris": {"ios": "https://dc.lft.to/lastmile_qr_scan", "android": "https://dc.lft.to/lastmile_qr_scan"}}, {"name": "c765fbeb4b331ee1e9c79249b3174156", "lon": -76.99357066666667, "lat": 38.84507266666667, "type": "electric_bike", "fusion_lon": 0.0, "is_reserved": 0, "bike_id": "c765fbeb4b331ee1e9c79249b3174156", "fusion_lat": 0.0, "is_disabled": 0, "rental_uris": {"ios": "https://dc.lft.to/lastmile_qr_scan", "android": "https://dc.lft.to/lastmile_qr_scan"}}, {"name": "62b4d882f2e2b3f4d5bfdbb606a8466e", "lon": -77.021277, "lat": 38.92411833333333, "type": "electric_scooter", "fusion_lon": 0.0, "is_reserved": 0, "bike_id": "62b4d882f2e2b3f4d5bfdbb606a8466e", "fusion_lat": 0.0, "is_disabled": 0, "rental_uris": {"ios": "https://dc.lft.to/lastmile_qr_scan", "android": "https://dc.lft.to/lastmile_qr_scan"}}, {"name": "efc60defed459251d5f14ea4e38c30cb", "lon": -77.00127, "lat": 38.878038, "type": "electric_scooter", "fusion_lon": 0.0, "is_reserved": 0, "bike_id": "efc60defed459251d5f14ea4e38c30cb", "fusion_lat": 0.0, "is_disabled": 0, "rental_uris": {"ios": "https://dc.lft.to/lastmile_qr_scan", "android": "https://dc.lft.to/lastmile_qr_scan"}}, {"name": "e2e1ac1ed9cc916cf7232a60fbffbb34", "lon": -77.04002833333334, "lat": 38.88870216666667, "type": "electric_scooter", "fusion_lon": 0.0, "is_reserved": 0, "bike_id": "e2e1ac1ed9cc916cf7232a60fbffbb34", "fusion_lat": 0.0, "is_disabled": 0, "rental_uris": {"ios": "https://dc.lft.to/lastmile_qr_scan", "android": "https://dc.lft.to/lastmile_qr_scan"}}, {"name": "b681151438f3064d18bdb31dee9c1d9f", "lon": -77.02710366666666, "lat": 38.906689, "type": "electric_scooter", "fusion_lon": 0.0, "is_reserved": 0, "bike_id": "b681151438f3064d18bdb31dee9c1d9f", "fusion_lat": 0.0, "is_disabled": 0, "rental_uris": {"ios": "https://dc.lft.to/lastmile_qr_scan", "android": "https://dc.lft.to/lastmile_qr_scan"}}, {"name": "d89182bd9c0d6ce22d0aa88b21e62617", "lon": -77.03377516666667, "lat": 38.92045516666667, "type": "electric_scooter", "fusion_lon": 0.0, "is_reserved": 0, "bike_id": "d89182bd9c0d6ce22d0aa88b21e62617", "fusion_lat": 0.0, "is_disabled": 0, "rental_uris": {"ios": "https://dc.lft.to/lastmile_qr_scan", "android": "https://dc.lft.to/lastmile_qr_scan"}}, {"name": "5e4c5b356c2fbc00fbb4eae68e82f94c", "lon": -76.97792716666666, "lat": 38.888638, "type": "electric_bike", "fusion_lon": 0.0, "is_reserved": 0, "bike_id": "5e4c5b356c2fbc00fbb4eae68e82f94c", "fusion_lat": 0.0, "is_disabled": 0, "rental_uris": {"ios": "https://dc.lft.to/lastmile_qr_scan", "android": "https://dc.lft.to/lastmile_qr_scan"}}, {"name": "04874339d06dea941c22bbc0a759a5e6", "lon": -76.989789, "lat": 38.86513766666667, "type": "electric_scooter", "fusion_lon": 0.0, "is_reserved": 0, "bike_id": "04874339d06dea941c22bbc0a759a5e6", "fusion_lat": 0.0, "is_disabled": 0, "rental_uris": {"ios": "https://dc.lft.to/lastmile_qr_scan", "android": "https://dc.lft.to/lastmile_qr_scan"}}, {"name": "6e4c059ba9e3f82edff66148d4bd4d01", "lon": -77.0238255, "lat": 38.929151833333336, "type": "electric_bike", "fusion_lon": 0.0, "is_reserved": 0, "bike_id": "6e4c059ba9e3f82edff66148d4bd4d01", "fusion_lat": 0.0, "is_disabled": 0, "rental_uris": {"ios": "https://dc.lft.to/lastmile_qr_scan", "android": "https://dc.lft.to/lastmile_qr_scan"}}, {"name": "8a133323fa5bec6a6bc88a4a9d88be34", "lon": -77.02366, "lat": 38.92514, "type": "electric_scooter", "fusion_lon": 0.0, "is_reserved": 0, "bike_id": "8a133323fa5bec6a6bc88a4a9d88be34", "fusion_lat": 0.0, "is_disabled": 0, "rental_uris": {"ios": "https://dc.lft.to/lastmile_qr_scan", "android": "https://dc.lft.to/lastmile_qr_scan"}}, {"name": "c5605d835665e8bc8f5356103846d0a0", "lon": -77.03595433333334, "lat": 38.9126785, "type": "electric_scooter", "fusion_lon": 0.0, "is_reserved": 0, "bike_id": "c5605d835665e8bc8f5356103846d0a0", "fusion_lat": 0.0, "is_disabled": 0, "rental_uris": {"ios": "https://dc.lft.to/lastmile_qr_scan", "android": "https://dc.lft.to/lastmile_qr_scan"}}, {"name": "8a0c3a1e4881167d50e9bd73c3e57815", "lon": -76.95188616666667, "lat": 38.907393, "type": "electric_scooter", "fusion_lon": 0.0, "is_reserved": 0, "bike_id": "8a0c3a1e4881167d50e9bd73c3e57815", "fusion_lat": 0.0, "is_disabled": 0, "rental_uris": {"ios": "https://dc.lft.to/lastmile_qr_scan", "android": "https://dc.lft.to/lastmile_qr_scan"}}, {"name": "fd9677e87adea9d24b8038002d36b6ec", "lon": -77.00139733333333, "lat": 38.905179833333335, "type": "electric_scooter", "fusion_lon": 0.0, "is_reserved": 0, "bike_id": "fd9677e87adea9d24b8038002d36b6ec", "fusion_lat": 0.0, "is_disabled": 0, "rental_uris": {"ios": "https://dc.lft.to/lastmile_qr_scan", "android": "https://dc.lft.to/lastmile_qr_scan"}}, {"name": "de8583198795d3d74f6210c8fd1b1cf9", "lon": -77.0819, "lat": 38.855714166666665, "type": "electric_bike", "fusion_lon": 0.0, "is_reserved": 0, "bike_id": "de8583198795d3d74f6210c8fd1b1cf9", "fusion_lat": 0.0, "is_disabled": 0, "rental_uris": {"ios": "https://dc.lft.to/lastmile_qr_scan", "android": "https://dc.lft.to/lastmile_qr_scan"}}, {"name": "3a4efb62a8126213899a1a24cda4ec95", "lon": -77.05119516666667, "lat": 38.90521233333333, "type": "electric_scooter", "fusion_lon": 0.0, "is_reserved": 0, "bike_id": "3a4efb62a8126213899a1a24cda4ec95", "fusion_lat": 0.0, "is_disabled": 0, "rental_uris": {"ios": "https://dc.lft.to/lastmile_qr_scan", "android": "https://dc.lft.to/lastmile_qr_scan"}}, {"name": "e0aca04d08b8b0ea104e115a77324678", "lon": -77.00496816666667, "lat": 38.90572933333333, "type": "electric_scooter", "fusion_lon": 0.0, "is_reserved": 0, "bike_id": "e0aca04d08b8b0ea104e115a77324678", "fusion_lat": 0.0, "is_disabled": 0, "rental_uris": {"ios": "https://dc.lft.to/lastmile_qr_scan", "android": "https://dc.lft.to/lastmile_qr_scan"}}, {"name": "b8b8290e2b300a13919a91d56e3e2b17", "lon": -77.0230815, "lat": 38.9179555, "type": "electric_scooter", "fusion_lon": 0.0, "is_reserved": 0, "bike_id": "b8b8290e2b300a13919a91d56e3e2b17", "fusion_lat": 0.0, "is_disabled": 0, "rental_uris": {"ios": "https://dc.lft.to/lastmile_qr_scan", "android": "https://dc.lft.to/lastmile_qr_scan"}}, {"name": "7e024e30d6f0aafcf648528f2916e755", "lon": -76.98849666666666, "lat": 38.90044066666667, "type": "electric_scooter", "fusion_lon": 0.0, "is_reserved": 0, "bike_id": "7e024e30d6f0aafcf648528f2916e755", "fusion_lat": 0.0, "is_disabled": 0, "rental_uris": {"ios": "https://dc.lft.to/lastmile_qr_scan", "android": "https://dc.lft.to/lastmile_qr_scan"}}, {"name": "db47c0f40226e04a13fe01b9954d4180", "lon": -76.99606566666667, "lat": 38.8857895, "type": "electric_scooter", "fusion_lon": 0.0, "is_reserved": 0, "bike_id": "db47c0f40226e04a13fe01b9954d4180", "fusion_lat": 0.0, "is_disabled": 0, "rental_uris": {"ios": "https://dc.lft.to/lastmile_qr_scan", "android": "https://dc.lft.to/lastmile_qr_scan"}}, {"name": "4f78f7b5c0e8818462d28b985dbafaa3", "lon": -77.003497, "lat": 38.88706033333333, "type": "electric_scooter", "fusion_lon": 0.0, "is_reserved": 0, "bike_id": "4f78f7b5c0e8818462d28b985dbafaa3", "fusion_lat": 0.0, "is_disabled": 0, "rental_uris": {"ios": "https://dc.lft.to/lastmile_qr_scan", "android": "https://dc.lft.to/lastmile_qr_scan"}}, {"name": "720ee0b0508cefe15b400995a0a73862", "lon": -77.02643766666667, "lat": 38.8919505, "type": "electric_scooter", "fusion_lon": 0.0, "is_reserved": 0, "bike_id": "720ee0b0508cefe15b400995a0a73862", "fusion_lat": 0.0, "is_disabled": 0, "rental_uris": {"ios": "https://dc.lft.to/lastmile_qr_scan", "android": "https://dc.lft.to/lastmile_qr_scan"}}, {"name": "09b8acd478a8520b6ad79d14644b4a0b", "lon": -76.98700283333334, "lat": 38.86259233333333, "type": "electric_scooter", "fusion_lon": 0.0, "is_reserved": 0, "bike_id": "09b8acd478a8520b6ad79d14644b4a0b", "fusion_lat": 0.0, "is_disabled": 0, "rental_uris": {"ios": "https://dc.lft.to/lastmile_qr_scan", "android": "https://dc.lft.to/lastmile_qr_scan"}}, {"name": "76c3f7c1e1c688a1b41c3415f52720ef", "lon": -77.02795816666666, "lat": 38.96147083333334, "type": "electric_scooter", "fusion_lon": 0.0, "is_reserved": 0, "bike_id": "76c3f7c1e1c688a1b41c3415f52720ef", "fusion_lat": 0.0, "is_disabled": 0, "rental_uris": {"ios": "https://dc.lft.to/lastmile_qr_scan", "android": "https://dc.lft.to/lastmile_qr_scan"}}, {"name": "bc445e6b6443c0c6821a41fe92f0081a", "lon": -77.00847883333333, "lat": 38.9125505, "type": "electric_scooter", "fusion_lon": 0.0, "is_reserved": 0, "bike_id": "bc445e6b6443c0c6821a41fe92f0081a", "fusion_lat": 0.0, "is_disabled": 0, "rental_uris": {"ios": "https://dc.lft.to/lastmile_qr_scan", "android": "https://dc.lft.to/lastmile_qr_scan"}}, {"name": "25a77e9442d63ef066658fb102fb5d04", "lon": -77.02730166666667, "lat": 38.93425533333333, "type": "electric_scooter", "fusion_lon": 0.0, "is_reserved": 0, "bike_id": "25a77e9442d63ef066658fb102fb5d04", "fusion_lat": 0.0, "is_disabled": 0, "rental_uris": {"ios": "https://dc.lft.to/lastmile_qr_scan", "android": "https://dc.lft.to/lastmile_qr_scan"}}, {"name": "238219633b760fb29485be955a5061fe", "lon": -77.06327616666667, "lat": 38.90763066666667, "type": "electric_scooter", "fusion_lon": 0.0, "is_reserved": 0, "bike_id": "238219633b760fb29485be955a5061fe", "fusion_lat": 0.0, "is_disabled": 0, "rental_uris": {"ios": "https://dc.lft.to/lastmile_qr_scan", "android": "https://dc.lft.to/lastmile_qr_scan"}}, {"name": "8e035680c2f1815a0612efb0376fbe44", "lon": -77.0328745, "lat": 38.93671066666667, "type": "electric_scooter", "fusion_lon": 0.0, "is_reserved": 0, "bike_id": "8e035680c2f1815a0612efb0376fbe44", "fusion_lat": 0.0, "is_disabled": 0, "rental_uris": {"ios": "https://dc.lft.to/lastmile_qr_scan", "android": "https://dc.lft.to/lastmile_qr_scan"}}, {"name": "5b5f39eb9c736c83bd4d3df95279edef", "lon": -77.01441633333333, "lat": 38.91968216666667, "type": "electric_scooter", "fusion_lon": 0.0, "is_reserved": 0, "bike_id": "5b5f39eb9c736c83bd4d3df95279edef", "fusion_lat": 0.0, "is_disabled": 0, "rental_uris": {"ios": "https://dc.lft.to/lastmile_qr_scan", "android": "https://dc.lft.to/lastmile_qr_scan"}}, {"name": "e9732f971f97bef3cdf24ea6f257a79c", "lon": -77.027647, "lat": 38.95424283333333, "type": "electric_scooter", "fusion_lon": 0.0, "is_reserved": 0, "bike_id": "e9732f971f97bef3cdf24ea6f257a79c", "fusion_lat": 0.0, "is_disabled": 0, "rental_uris": {"ios": "https://dc.lft.to/lastmile_qr_scan", "android": "https://dc.lft.to/lastmile_qr_scan"}}, {"name": "e3bc63a330ce99b22311ee128e464dc5", "lon": -77.05349, "lat": 38.923489000000004, "type": "electric_scooter", "fusion_lon": 0.0, "is_reserved": 0, "bike_id": "e3bc63a330ce99b22311ee128e464dc5", "fusion_lat": 0.0, "is_disabled": 0, "rental_uris": {"ios": "https://dc.lft.to/lastmile_qr_scan", "android": "https://dc.lft.to/lastmile_qr_scan"}}, {"name": "24f56366e3066034faad8bffc6969b80", "lon": -77.03072583333334, "lat": 38.92246466666667, "type": "electric_scooter", "fusion_lon": 0.0, "is_reserved": 0, "bike_id": "24f56366e3066034faad8bffc6969b80", "fusion_lat": 0.0, "is_disabled": 0, "rental_uris": {"ios": "https://dc.lft.to/lastmile_qr_scan", "android": "https://dc.lft.to/lastmile_qr_scan"}}, {"name": "5fa4a28cce7e65821cbf22a491f2da36", "lon": -77.02206766666667, "lat": 38.90206083333333, "type": "electric_scooter", "fusion_lon": 0.0, "is_reserved": 0, "bike_id": "5fa4a28cce7e65821cbf22a491f2da36", "fusion_lat": 0.0, "is_disabled": 0, "rental_uris": {"ios": "https://dc.lft.to/lastmile_qr_scan", "android": "https://dc.lft.to/lastmile_qr_scan"}}, {"name": "3229cc8cd65d60d8fe5f4d87ec89b11d", "lon": -77.01601333333333, "lat": 38.9179985, "type": "electric_scooter", "fusion_lon": 0.0, "is_reserved": 0, "bike_id": "3229cc8cd65d60d8fe5f4d87ec89b11d", "fusion_lat": 0.0, "is_disabled": 0, "rental_uris": {"ios": "https://dc.lft.to/lastmile_qr_scan", "android": "https://dc.lft.to/lastmile_qr_scan"}}, {"name": "61c004f065791f383e9a5ea2bbc6aef3", "lon": -76.99739266666667, "lat": 38.901337166666664, "type": "electric_scooter", "fusion_lon": 0.0, "is_reserved": 0, "bike_id": "61c004f065791f383e9a5ea2bbc6aef3", "fusion_lat": 0.0, "is_disabled": 0, "rental_uris": {"ios": "https://dc.lft.to/lastmile_qr_scan", "android": "https://dc.lft.to/lastmile_qr_scan"}}, {"name": "5c2772248a93c6dadc187407b39cbe60", "lon": -77.06302766666667, "lat": 38.90399933333333, "type": "electric_scooter", "fusion_lon": 0.0, "is_reserved": 0, "bike_id": "5c2772248a93c6dadc187407b39cbe60", "fusion_lat": 0.0, "is_disabled": 0, "rental_uris": {"ios": "https://dc.lft.to/lastmile_qr_scan", "android": "https://dc.lft.to/lastmile_qr_scan"}}, {"name": "a504988e33fcd049fea0e6643e1d9793", "lon": -77.018184, "lat": 38.923684333333334, "type": "electric_scooter", "fusion_lon": 0.0, "is_reserved": 0, "bike_id": "a504988e33fcd049fea0e6643e1d9793", "fusion_lat": 0.0, "is_disabled": 0, "rental_uris": {"ios": "https://dc.lft.to/lastmile_qr_scan", "android": "https://dc.lft.to/lastmile_qr_scan"}}, {"name": "b4f98c7a8927ecdc577c1cec47dc96fb", "lon": -77.04583483333333, "lat": 38.9133975, "type": "electric_scooter", "fusion_lon": 0.0, "is_reserved": 0, "bike_id": "b4f98c7a8927ecdc577c1cec47dc96fb", "fusion_lat": 0.0, "is_disabled": 0, "rental_uris": {"ios": "https://dc.lft.to/lastmile_qr_scan", "android": "https://dc.lft.to/lastmile_qr_scan"}}, {"name": "cbeff0ba3f491e29c67358f9193d5e03", "lon": -77.01533233333333, "lat": 38.887404833333335, "type": "electric_scooter", "fusion_lon": 0.0, "is_reserved": 0, "bike_id": "cbeff0ba3f491e29c67358f9193d5e03", "fusion_lat": 0.0, "is_disabled": 0, "rental_uris": {"ios": "https://dc.lft.to/lastmile_qr_scan", "android": "https://dc.lft.to/lastmile_qr_scan"}}, {"name": "8db2861bad9a60ba845313b0f59ef812", "lon": -77.00750716666667, "lat": 38.898392333333334, "type": "electric_scooter", "fusion_lon": 0.0, "is_reserved": 0, "bike_id": "8db2861bad9a60ba845313b0f59ef812", "fusion_lat": 0.0, "is_disabled": 0, "rental_uris": {"ios": "https://dc.lft.to/lastmile_qr_scan", "android": "https://dc.lft.to/lastmile_qr_scan"}}, {"name": "b6bb64155459c493087a30b6fbc9319d", "lon": -77.00757066666667, "lat": 38.910289166666665, "type": "electric_scooter", "fusion_lon": 0.0, "is_reserved": 0, "bike_id": "b6bb64155459c493087a30b6fbc9319d", "fusion_lat": 0.0, "is_disabled": 0, "rental_uris": {"ios": "https://dc.lft.to/lastmile_qr_scan", "android": "https://dc.lft.to/lastmile_qr_scan"}}, {"name": "a33e681c1b28fbba48e06fb68719c7f3", "lon": -77.03625, "lat": 38.928611, "type": "electric_scooter", "fusion_lon": 0.0, "is_reserved": 0, "bike_id": "a33e681c1b28fbba48e06fb68719c7f3", "fusion_lat": 0.0, "is_disabled": 0, "rental_uris": {"ios": "https://dc.lft.to/lastmile_qr_scan", "android": "https://dc.lft.to/lastmile_qr_scan"}}, {"name": "f901c223b791bf92eca1e76330b03ed5", "lon": -77.0585995, "lat": 38.9360565, "type": "electric_scooter", "fusion_lon": 0.0, "is_reserved": 0, "bike_id": "f901c223b791bf92eca1e76330b03ed5", "fusion_lat": 0.0, "is_disabled": 0, "rental_uris": {"ios": "https://dc.lft.to/lastmile_qr_scan", "android": "https://dc.lft.to/lastmile_qr_scan"}}, {"name": "af7d67f93abf91c2a0a5339c969631a6", "lon": -77.04356016666667, "lat": 38.913570166666666, "type": "electric_scooter", "fusion_lon": 0.0, "is_reserved": 0, "bike_id": "af7d67f93abf91c2a0a5339c969631a6", "fusion_lat": 0.0, "is_disabled": 0, "rental_uris": {"ios": "https://dc.lft.to/lastmile_qr_scan", "android": "https://dc.lft.to/lastmile_qr_scan"}}, {"name": "c3ef7f859a0c052fc6d0dac47bfac037", "lon": -77.02397366666666, "lat": 38.9174395, "type": "electric_scooter", "fusion_lon": 0.0, "is_reserved": 0, "bike_id": "c3ef7f859a0c052fc6d0dac47bfac037", "fusion_lat": 0.0, "is_disabled": 0, "rental_uris": {"ios": "https://dc.lft.to/lastmile_qr_scan", "android": "https://dc.lft.to/lastmile_qr_scan"}}, {"name": "8e458a4efc46ebc4e8f39b99297a4ba2", "lon": -77.03513566666666, "lat": 38.962055, "type": "electric_bike", "fusion_lon": 0.0, "is_reserved": 0, "bike_id": "8e458a4efc46ebc4e8f39b99297a4ba2", "fusion_lat": 0.0, "is_disabled": 0, "rental_uris": {"ios": "https://dc.lft.to/lastmile_qr_scan", "android": "https://dc.lft.to/lastmile_qr_scan"}}, {"name": "aefc27c849d0af7186182d9de61d6458", "lon": -77.04551133333334, "lat": 38.93414816666667, "type": "electric_scooter", "fusion_lon": 0.0, "is_reserved": 0, "bike_id": "aefc27c849d0af7186182d9de61d6458", "fusion_lat": 0.0, "is_disabled": 0, "rental_uris": {"ios": "https://dc.lft.to/lastmile_qr_scan", "android": "https://dc.lft.to/lastmile_qr_scan"}}, {"name": "de83a2fa37ebed3268c1a2742254ebfe", "lon": -77.0010945, "lat": 38.9074575, "type": "electric_scooter", "fusion_lon": 0.0, "is_reserved": 0, "bike_id": "de83a2fa37ebed3268c1a2742254ebfe", "fusion_lat": 0.0, "is_disabled": 0, "rental_uris": {"ios": "https://dc.lft.to/lastmile_qr_scan", "android": "https://dc.lft.to/lastmile_qr_scan"}}, {"name": "1b6c449bfa8f18bff6f897d0f94e7778", "lon": -77.00601866666666, "lat": 38.87553366666667, "type": "electric_scooter", "fusion_lon": 0.0, "is_reserved": 0, "bike_id": "1b6c449bfa8f18bff6f897d0f94e7778", "fusion_lat": 0.0, "is_disabled": 0, "rental_uris": {"ios": "https://dc.lft.to/lastmile_qr_scan", "android": "https://dc.lft.to/lastmile_qr_scan"}}, {"name": "362a7465a00d32ae9f91a0c3593e0b6d", "lon": -77.01185216666667, "lat": 38.900312, "type": "electric_scooter", "fusion_lon": 0.0, "is_reserved": 0, "bike_id": "362a7465a00d32ae9f91a0c3593e0b6d", "fusion_lat": 0.0, "is_disabled": 0, "rental_uris": {"ios": "https://dc.lft.to/lastmile_qr_scan", "android": "https://dc.lft.to/lastmile_qr_scan"}}, {"name": "cfd4d0b2abb1343730c4b85344398c80", "lon": -77.04143566666667, "lat": 38.922937, "type": "electric_scooter", "fusion_lon": 0.0, "is_reserved": 0, "bike_id": "cfd4d0b2abb1343730c4b85344398c80", "fusion_lat": 0.0, "is_disabled": 0, "rental_uris": {"ios": "https://dc.lft.to/lastmile_qr_scan", "android": "https://dc.lft.to/lastmile_qr_scan"}}, {"name": "5f14abc2adcecb7f23e3f4851e660bfb", "lon": -77.04749533333333, "lat": 38.91666083333333, "type": "electric_scooter", "fusion_lon": 0.0, "is_reserved": 0, "bike_id": "5f14abc2adcecb7f23e3f4851e660bfb", "fusion_lat": 0.0, "is_disabled": 0, "rental_uris": {"ios": "https://dc.lft.to/lastmile_qr_scan", "android": "https://dc.lft.to/lastmile_qr_scan"}}, {"name": "cb6dda6cce74d080413b0097874c9eec", "lon": -77.0417945, "lat": 38.919896, "type": "electric_scooter", "fusion_lon": 0.0, "is_reserved": 0, "bike_id": "cb6dda6cce74d080413b0097874c9eec", "fusion_lat": 0.0, "is_disabled": 0, "rental_uris": {"ios": "https://dc.lft.to/lastmile_qr_scan", "android": "https://dc.lft.to/lastmile_qr_scan"}}, {"name": "047cf08ffec486d13aa650a0e3ca1ea0", "lon": -77.03503283333333, "lat": 38.90057816666667, "type": "electric_scooter", "fusion_lon": 0.0, "is_reserved": 0, "bike_id": "047cf08ffec486d13aa650a0e3ca1ea0", "fusion_lat": 0.0, "is_disabled": 0, "rental_uris": {"ios": "https://dc.lft.to/lastmile_qr_scan", "android": "https://dc.lft.to/lastmile_qr_scan"}}, {"name": "edffeb56691b37b887e7a0967072df9d", "lon": -77.0388825, "lat": 38.92258233333333, "type": "electric_scooter", "fusion_lon": 0.0, "is_reserved": 0, "bike_id": "edffeb56691b37b887e7a0967072df9d", "fusion_lat": 0.0, "is_disabled": 0, "rental_uris": {"ios": "https://dc.lft.to/lastmile_qr_scan", "android": "https://dc.lft.to/lastmile_qr_scan"}}, {"name": "eef632ea24c6bab66d6555b49a3711d9", "lon": -77.02204016666667, "lat": 38.88641666666667, "type": "electric_scooter", "fusion_lon": 0.0, "is_reserved": 0, "bike_id": "eef632ea24c6bab66d6555b49a3711d9", "fusion_lat": 0.0, "is_disabled": 0, "rental_uris": {"ios": "https://dc.lft.to/lastmile_qr_scan", "android": "https://dc.lft.to/lastmile_qr_scan"}}, {"name": "23eb2ed008de3d17d877c64a7357e93d", "lon": -76.993368, "lat": 38.92447083333333, "type": "electric_scooter", "fusion_lon": 0.0, "is_reserved": 0, "bike_id": "23eb2ed008de3d17d877c64a7357e93d", "fusion_lat": 0.0, "is_disabled": 0, "rental_uris": {"ios": "https://dc.lft.to/lastmile_qr_scan", "android": "https://dc.lft.to/lastmile_qr_scan"}}, {"name": "07883f3b17efa1f115ffc9b7e1aa6809", "lon": -77.038218, "lat": 38.90655433333333, "type": "electric_scooter", "fusion_lon": 0.0, "is_reserved": 0, "bike_id": "07883f3b17efa1f115ffc9b7e1aa6809", "fusion_lat": 0.0, "is_disabled": 0, "rental_uris": {"ios": "https://dc.lft.to/lastmile_qr_scan", "android": "https://dc.lft.to/lastmile_qr_scan"}}, {"name": "37efceea6c88026b305033bd26eca968", "lon": -76.98501133333333, "lat": 38.91514016666667, "type": "electric_scooter", "fusion_lon": 0.0, "is_reserved": 0, "bike_id": "37efceea6c88026b305033bd26eca968", "fusion_lat": 0.0, "is_disabled": 0, "rental_uris": {"ios": "https://dc.lft.to/lastmile_qr_scan", "android": "https://dc.lft.to/lastmile_qr_scan"}}, {"name": "4dbef931a91ba7877f710863793263c7", "lon": -77.037091, "lat": 38.9203995, "type": "electric_bike", "fusion_lon": 0.0, "is_reserved": 0, "bike_id": "4dbef931a91ba7877f710863793263c7", "fusion_lat": 0.0, "is_disabled": 0, "rental_uris": {"ios": "https://dc.lft.to/lastmile_qr_scan", "android": "https://dc.lft.to/lastmile_qr_scan"}}, {"name": "764ad408f26f977b9a1b8ac0ba4bf007", "lon": -77.036597, "lat": 38.9180535, "type": "electric_scooter", "fusion_lon": 0.0, "is_reserved": 0, "bike_id": "764ad408f26f977b9a1b8ac0ba4bf007", "fusion_lat": 0.0, "is_disabled": 0, "rental_uris": {"ios": "https://dc.lft.to/lastmile_qr_scan", "android": "https://dc.lft.to/lastmile_qr_scan"}}, {"name": "5fc4f436921e1406179076d54745173c", "lon": -77.03479383333334, "lat": 38.9254755, "type": "electric_scooter", "fusion_lon": 0.0, "is_reserved": 0, "bike_id": "5fc4f436921e1406179076d54745173c", "fusion_lat": 0.0, "is_disabled": 0, "rental_uris": {"ios": "https://dc.lft.to/lastmile_qr_scan", "android": "https://dc.lft.to/lastmile_qr_scan"}}, {"name": "5c5d80cc7e637a4842c97d9da8619cc6", "lon": -76.97240783333334, "lat": 38.949062166666664, "type": "electric_bike", "fusion_lon": 0.0, "is_reserved": 0, "bike_id": "5c5d80cc7e637a4842c97d9da8619cc6", "fusion_lat": 0.0, "is_disabled": 0, "rental_uris": {"ios": "https://dc.lft.to/lastmile_qr_scan", "android": "https://dc.lft.to/lastmile_qr_scan"}}, {"name": "015976b11c7b538fa9a3ede8029679d9", "lon": -77.08590466666666, "lat": 38.84440266666667, "type": "electric_bike", "fusion_lon": 0.0, "is_reserved": 0, "bike_id": "015976b11c7b538fa9a3ede8029679d9", "fusion_lat": 0.0, "is_disabled": 0, "rental_uris": {"ios": "https://dc.lft.to/lastmile_qr_scan", "android": "https://dc.lft.to/lastmile_qr_scan"}}, {"name": "d7aa0c62516d586f360a70351f907386", "lon": -77.0387005, "lat": 38.91712116666667, "type": "electric_scooter", "fusion_lon": 0.0, "is_reserved": 0, "bike_id": "d7aa0c62516d586f360a70351f907386", "fusion_lat": 0.0, "is_disabled": 0, "rental_uris": {"ios": "https://dc.lft.to/lastmile_qr_scan", "android": "https://dc.lft.to/lastmile_qr_scan"}}, {"name": "71d70bd5ac63d5b4b0f00a8bf2baa2b9", "lon": -77.04158666666666, "lat": 38.92277266666667, "type": "electric_scooter", "fusion_lon": 0.0, "is_reserved": 0, "bike_id": "71d70bd5ac63d5b4b0f00a8bf2baa2b9", "fusion_lat": 0.0, "is_disabled": 0, "rental_uris": {"ios": "https://dc.lft.to/lastmile_qr_scan", "android": "https://dc.lft.to/lastmile_qr_scan"}}, {"name": "80404bc38a0d876c3c88d94b23863b4e", "lon": -77.02610183333333, "lat": 38.905618833333335, "type": "electric_scooter", "fusion_lon": 0.0, "is_reserved": 0, "bike_id": "80404bc38a0d876c3c88d94b23863b4e", "fusion_lat": 0.0, "is_disabled": 0, "rental_uris": {"ios": "https://dc.lft.to/lastmile_qr_scan", "android": "https://dc.lft.to/lastmile_qr_scan"}}, {"name": "52b00c21177c28b0bdb57c0f749e1324", "lon": -77.03918783333333, "lat": 38.90817166666667, "type": "electric_scooter", "fusion_lon": 0.0, "is_reserved": 0, "bike_id": "52b00c21177c28b0bdb57c0f749e1324", "fusion_lat": 0.0, "is_disabled": 0, "rental_uris": {"ios": "https://dc.lft.to/lastmile_qr_scan", "android": "https://dc.lft.to/lastmile_qr_scan"}}, {"name": "dfec40554927ee93e43dbf9378bb9e6d", "lon": -77.008932, "lat": 38.90348133333333, "type": "electric_scooter", "fusion_lon": 0.0, "is_reserved": 0, "bike_id": "dfec40554927ee93e43dbf9378bb9e6d", "fusion_lat": 0.0, "is_disabled": 0, "rental_uris": {"ios": "https://dc.lft.to/lastmile_qr_scan", "android": "https://dc.lft.to/lastmile_qr_scan"}}, {"name": "5f8957e52237d4a782f96c502dfb6a8e", "lon": -77.00836216666667, "lat": 38.82917366666667, "type": "electric_bike", "fusion_lon": 0.0, "is_reserved": 0, "bike_id": "5f8957e52237d4a782f96c502dfb6a8e", "fusion_lat": 0.0, "is_disabled": 0, "rental_uris": {"ios": "https://dc.lft.to/lastmile_qr_scan", "android": "https://dc.lft.to/lastmile_qr_scan"}}, {"name": "32589046e604780f108e20248ca43765", "lon": -76.94944016666666, "lat": 38.89494766666667, "type": "electric_scooter", "fusion_lon": 0.0, "is_reserved": 0, "bike_id": "32589046e604780f108e20248ca43765", "fusion_lat": 0.0, "is_disabled": 0, "rental_uris": {"ios": "https://dc.lft.to/lastmile_qr_scan", "android": "https://dc.lft.to/lastmile_qr_scan"}}, {"name": "24a639b4a5f12d77f9d4783e69a511de", "lon": -76.99604333333333, "lat": 38.85692216666666, "type": "electric_scooter", "fusion_lon": 0.0, "is_reserved": 0, "bike_id": "24a639b4a5f12d77f9d4783e69a511de", "fusion_lat": 0.0, "is_disabled": 0, "rental_uris": {"ios": "https://dc.lft.to/lastmile_qr_scan", "android": "https://dc.lft.to/lastmile_qr_scan"}}, {"name": "43976cca4e9e864490a27c31c1526306", "lon": -77.03183816666666, "lat": 38.9135295, "type": "electric_scooter", "fusion_lon": 0.0, "is_reserved": 0, "bike_id": "43976cca4e9e864490a27c31c1526306", "fusion_lat": 0.0, "is_disabled": 0, "rental_uris": {"ios": "https://dc.lft.to/lastmile_qr_scan", "android": "https://dc.lft.to/lastmile_qr_scan"}}, {"name": "6140499ac19e4eb0fadd88a635c554e3", "lon": -77.03797416666667, "lat": 38.91542166666667, "type": "electric_scooter", "fusion_lon": 0.0, "is_reserved": 0, "bike_id": "6140499ac19e4eb0fadd88a635c554e3", "fusion_lat": 0.0, "is_disabled": 0, "rental_uris": {"ios": "https://dc.lft.to/lastmile_qr_scan", "android": "https://dc.lft.to/lastmile_qr_scan"}}, {"name": "c37bec40155db70f07a245b9275e9515", "lon": -77.03442466666667, "lat": 38.909716833333334, "type": "electric_scooter", "fusion_lon": 0.0, "is_reserved": 0, "bike_id": "c37bec40155db70f07a245b9275e9515", "fusion_lat": 0.0, "is_disabled": 0, "rental_uris": {"ios": "https://dc.lft.to/lastmile_qr_scan", "android": "https://dc.lft.to/lastmile_qr_scan"}}, {"name": "0604448619241fadc54b71e7dc6e3b5c", "lon": -77.00059816666666, "lat": 38.8767225, "type": "electric_scooter", "fusion_lon": 0.0, "is_reserved": 0, "bike_id": "0604448619241fadc54b71e7dc6e3b5c", "fusion_lat": 0.0, "is_disabled": 0, "rental_uris": {"ios": "https://dc.lft.to/lastmile_qr_scan", "android": "https://dc.lft.to/lastmile_qr_scan"}}, {"name": "fa20e4390c0767ab77cf9b003a39c627", "lon": -77.01512466666667, "lat": 38.910480166666666, "type": "electric_scooter", "fusion_lon": 0.0, "is_reserved": 0, "bike_id": "fa20e4390c0767ab77cf9b003a39c627", "fusion_lat": 0.0, "is_disabled": 0, "rental_uris": {"ios": "https://dc.lft.to/lastmile_qr_scan", "android": "https://dc.lft.to/lastmile_qr_scan"}}, {"name": "8fd4af61fa0b7beef38fa328a512347c", "lon": -77.07185883333334, "lat": 38.95960483333333, "type": "electric_scooter", "fusion_lon": 0.0, "is_reserved": 0, "bike_id": "8fd4af61fa0b7beef38fa328a512347c", "fusion_lat": 0.0, "is_disabled": 0, "rental_uris": {"ios": "https://dc.lft.to/lastmile_qr_scan", "android": "https://dc.lft.to/lastmile_qr_scan"}}, {"name": "c053a2d93c4336fd0faf8b18287570e5", "lon": -76.959813, "lat": 38.8700445, "type": "electric_bike", "fusion_lon": 0.0, "is_reserved": 0, "bike_id": "c053a2d93c4336fd0faf8b18287570e5", "fusion_lat": 0.0, "is_disabled": 0, "rental_uris": {"ios": "https://dc.lft.to/lastmile_qr_scan", "android": "https://dc.lft.to/lastmile_qr_scan"}}, {"name": "24f8ea33546bb5e935764d97793c656f", "lon": -77.018143, "lat": 38.901393166666665, "type": "electric_scooter", "fusion_lon": 0.0, "is_reserved": 0, "bike_id": "24f8ea33546bb5e935764d97793c656f", "fusion_lat": 0.0, "is_disabled": 0, "rental_uris": {"ios": "https://dc.lft.to/lastmile_qr_scan", "android": "https://dc.lft.to/lastmile_qr_scan"}}, {"name": "2ec9c4dbf010d047c8e10b363104395b", "lon": -76.94250516666666, "lat": 38.89672683333333, "type": "electric_scooter", "fusion_lon": 0.0, "is_reserved": 0, "bike_id": "2ec9c4dbf010d047c8e10b363104395b", "fusion_lat": 0.0, "is_disabled": 0, "rental_uris": {"ios": "https://dc.lft.to/lastmile_qr_scan", "android": "https://dc.lft.to/lastmile_qr_scan"}}, {"name": "09173ff353b60a80c89b01ec526c38a8", "lon": -77.009263, "lat": 38.913417833333334, "type": "electric_scooter", "fusion_lon": 0.0, "is_reserved": 0, "bike_id": "09173ff353b60a80c89b01ec526c38a8", "fusion_lat": 0.0, "is_disabled": 0, "rental_uris": {"ios": "https://dc.lft.to/lastmile_qr_scan", "android": "https://dc.lft.to/lastmile_qr_scan"}}, {"name": "0ec166d8387d7113cac2d4ac70cf2142", "lon": -77.02968733333333, "lat": 38.896299666666664, "type": "electric_scooter", "fusion_lon": 0.0, "is_reserved": 0, "bike_id": "0ec166d8387d7113cac2d4ac70cf2142", "fusion_lat": 0.0, "is_disabled": 0, "rental_uris": {"ios": "https://dc.lft.to/lastmile_qr_scan", "android": "https://dc.lft.to/lastmile_qr_scan"}}, {"name": "ca3878ec0404c1b749719690cca52fb2", "lon": -77.05759833333333, "lat": 38.92501133333333, "type": "electric_scooter", "fusion_lon": 0.0, "is_reserved": 0, "bike_id": "ca3878ec0404c1b749719690cca52fb2", "fusion_lat": 0.0, "is_disabled": 0, "rental_uris": {"ios": "https://dc.lft.to/lastmile_qr_scan", "android": "https://dc.lft.to/lastmile_qr_scan"}}, {"name": "e2631b1c1331c943d64859476d2f715e", "lon": -77.00890766666667, "lat": 38.92485683333334, "type": "electric_scooter", "fusion_lon": 0.0, "is_reserved": 0, "bike_id": "e2631b1c1331c943d64859476d2f715e", "fusion_lat": 0.0, "is_disabled": 0, "rental_uris": {"ios": "https://dc.lft.to/lastmile_qr_scan", "android": "https://dc.lft.to/lastmile_qr_scan"}}, {"name": "b06096291c1754eaf7c2ee545d84c790", "lon": -77.01425833333333, "lat": 38.90573583333333, "type": "electric_bike", "fusion_lon": 0.0, "is_reserved": 0, "bike_id": "b06096291c1754eaf7c2ee545d84c790", "fusion_lat": 0.0, "is_disabled": 0, "rental_uris": {"ios": "https://dc.lft.to/lastmile_qr_scan", "android": "https://dc.lft.to/lastmile_qr_scan"}}, {"name": "a787eb44eab26928397ebf92f060c8dc", "lon": -77.0353665, "lat": 38.92538783333333, "type": "electric_scooter", "fusion_lon": 0.0, "is_reserved": 0, "bike_id": "a787eb44eab26928397ebf92f060c8dc", "fusion_lat": 0.0, "is_disabled": 0, "rental_uris": {"ios": "https://dc.lft.to/lastmile_qr_scan", "android": "https://dc.lft.to/lastmile_qr_scan"}}, {"name": "21ca60d7b8d7be7cb6cc1abde3ce5ac1", "lon": -76.96630533333334, "lat": 38.871059833333334, "type": "electric_scooter", "fusion_lon": 0.0, "is_reserved": 0, "bike_id": "21ca60d7b8d7be7cb6cc1abde3ce5ac1", "fusion_lat": 0.0, "is_disabled": 0, "rental_uris": {"ios": "https://dc.lft.to/lastmile_qr_scan", "android": "https://dc.lft.to/lastmile_qr_scan"}}, {"name": "86dd21d82ad53e54fcbf2eea229222b7", "lon": -77.00125333333334, "lat": 38.9050755, "type": "electric_scooter", "fusion_lon": 0.0, "is_reserved": 0, "bike_id": "86dd21d82ad53e54fcbf2eea229222b7", "fusion_lat": 0.0, "is_disabled": 0, "rental_uris": {"ios": "https://dc.lft.to/lastmile_qr_scan", "android": "https://dc.lft.to/lastmile_qr_scan"}}, {"name": "da43c1c941bb88dd2a99cf3cd04e22c4", "lon": -76.94622933333333, "lat": 38.832417166666666, "type": "electric_bike", "fusion_lon": 0.0, "is_reserved": 0, "bike_id": "da43c1c941bb88dd2a99cf3cd04e22c4", "fusion_lat": 0.0, "is_disabled": 0, "rental_uris": {"ios": "https://dc.lft.to/lastmile_qr_scan", "android": "https://dc.lft.to/lastmile_qr_scan"}}, {"name": "bdbb84c9728df412bf3ccce38624baf6", "lon": -77.03294516666666, "lat": 38.95633616666667, "type": "electric_scooter", "fusion_lon": 0.0, "is_reserved": 0, "bike_id": "bdbb84c9728df412bf3ccce38624baf6", "fusion_lat": 0.0, "is_disabled": 0, "rental_uris": {"ios": "https://dc.lft.to/lastmile_qr_scan", "android": "https://dc.lft.to/lastmile_qr_scan"}}, {"name": "12eda253cad6e1d6099d7e693af9e2e6", "lon": -77.03039833333334, "lat": 38.898356666666665, "type": "electric_scooter", "fusion_lon": 0.0, "is_reserved": 0, "bike_id": "12eda253cad6e1d6099d7e693af9e2e6", "fusion_lat": 0.0, "is_disabled": 0, "rental_uris": {"ios": "https://dc.lft.to/lastmile_qr_scan", "android": "https://dc.lft.to/lastmile_qr_scan"}}, {"name": "e272217c62efa8d51544f0d242bfd617", "lon": -77.04979166666666, "lat": 39.062941, "type": "electric_bike", "fusion_lon": 0.0, "is_reserved": 0, "bike_id": "e272217c62efa8d51544f0d242bfd617", "fusion_lat": 0.0, "is_disabled": 0, "rental_uris": {"ios": "https://dc.lft.to/lastmile_qr_scan", "android": "https://dc.lft.to/lastmile_qr_scan"}}, {"name": "7c0e04708672ba527db1f3566cdcf288", "lon": -77.04327616666667, "lat": 38.89227016666667, "type": "electric_scooter", "fusion_lon": 0.0, "is_reserved": 0, "bike_id": "7c0e04708672ba527db1f3566cdcf288", "fusion_lat": 0.0, "is_disabled": 0, "rental_uris": {"ios": "https://dc.lft.to/lastmile_qr_scan", "android": "https://dc.lft.to/lastmile_qr_scan"}}, {"name": "ab5a35e006fe6121694206031e389885", "lon": -77.11619466666667, "lat": 38.85492166666667, "type": "electric_bike", "fusion_lon": 0.0, "is_reserved": 0, "bike_id": "ab5a35e006fe6121694206031e389885", "fusion_lat": 0.0, "is_disabled": 0, "rental_uris": {"ios": "https://dc.lft.to/lastmile_qr_scan", "android": "https://dc.lft.to/lastmile_qr_scan"}}, {"name": "77527fa5826dfe98b1b44094ce8a4192", "lon": -77.03637466666666, "lat": 38.927467166666666, "type": "electric_scooter", "fusion_lon": 0.0, "is_reserved": 0, "bike_id": "77527fa5826dfe98b1b44094ce8a4192", "fusion_lat": 0.0, "is_disabled": 0, "rental_uris": {"ios": "https://dc.lft.to/lastmile_qr_scan", "android": "https://dc.lft.to/lastmile_qr_scan"}}, {"name": "93b5370a7b9858fc9f72ac348f2bd7ac", "lon": -76.93196966666666, "lat": 38.89881616666667, "type": "electric_scooter", "fusion_lon": 0.0, "is_reserved": 0, "bike_id": "93b5370a7b9858fc9f72ac348f2bd7ac", "fusion_lat": 0.0, "is_disabled": 0, "rental_uris": {"ios": "https://dc.lft.to/lastmile_qr_scan", "android": "https://dc.lft.to/lastmile_qr_scan"}}, {"name": "8614d5db0a98361c4abfe3efd8fc6d56", "lon": -77.127319, "lat": 38.895613166666664, "type": "electric_bike", "fusion_lon": 0.0, "is_reserved": 0, "bike_id": "8614d5db0a98361c4abfe3efd8fc6d56", "fusion_lat": 0.0, "is_disabled": 0, "rental_uris": {"ios": "https://dc.lft.to/lastmile_qr_scan", "android": "https://dc.lft.to/lastmile_qr_scan"}}, {"name": "0b901bfe1bc7b2fd69499ef51e958451", "lon": -76.9962565, "lat": 38.900966333333336, "type": "electric_scooter", "fusion_lon": 0.0, "is_reserved": 0, "bike_id": "0b901bfe1bc7b2fd69499ef51e958451", "fusion_lat": 0.0, "is_disabled": 0, "rental_uris": {"ios": "https://dc.lft.to/lastmile_qr_scan", "android": "https://dc.lft.to/lastmile_qr_scan"}}, {"name": "7e2111d7236f7c72bc49f0ab7164a7dc", "lon": -77.027133, "lat": 38.928823333333334, "type": "electric_scooter", "fusion_lon": 0.0, "is_reserved": 0, "bike_id": "7e2111d7236f7c72bc49f0ab7164a7dc", "fusion_lat": 0.0, "is_disabled": 0, "rental_uris": {"ios": "https://dc.lft.to/lastmile_qr_scan", "android": "https://dc.lft.to/lastmile_qr_scan"}}, {"name": "4696308f4c67194a4da56a06e5d607f1", "lon": -76.99901483333333, "lat": 38.9481725, "type": "electric_scooter", "fusion_lon": 0.0, "is_reserved": 0, "bike_id": "4696308f4c67194a4da56a06e5d607f1", "fusion_lat": 0.0, "is_disabled": 0, "rental_uris": {"ios": "https://dc.lft.to/lastmile_qr_scan", "android": "https://dc.lft.to/lastmile_qr_scan"}}, {"name": "53cc01c70fd8316e5d0e10d7b059b01f", "lon": -77.0294725, "lat": 38.899394, "type": "electric_scooter", "fusion_lon": 0.0, "is_reserved": 0, "bike_id": "53cc01c70fd8316e5d0e10d7b059b01f", "fusion_lat": 0.0, "is_disabled": 0, "rental_uris": {"ios": "https://dc.lft.to/lastmile_qr_scan", "android": "https://dc.lft.to/lastmile_qr_scan"}}, {"name": "cbba17b995db788c376b6fcf3c28ac9b", "lon": -77.04097366666667, "lat": 38.92396216666667, "type": "electric_scooter", "fusion_lon": 0.0, "is_reserved": 0, "bike_id": "cbba17b995db788c376b6fcf3c28ac9b", "fusion_lat": 0.0, "is_disabled": 0, "rental_uris": {"ios": "https://dc.lft.to/lastmile_qr_scan", "android": "https://dc.lft.to/lastmile_qr_scan"}}, {"name": "e0976dabc5073b094df1353ef2253089", "lon": -77.0271765, "lat": 38.92464583333334, "type": "electric_scooter", "fusion_lon": 0.0, "is_reserved": 0, "bike_id": "e0976dabc5073b094df1353ef2253089", "fusion_lat": 0.0, "is_disabled": 0, "rental_uris": {"ios": "https://dc.lft.to/lastmile_qr_scan", "android": "https://dc.lft.to/lastmile_qr_scan"}}, {"name": "31f0372abbf133cc3966e55ddec7722c", "lon": -77.0229315, "lat": 38.91613983333333, "type": "electric_scooter", "fusion_lon": 0.0, "is_reserved": 0, "bike_id": "31f0372abbf133cc3966e55ddec7722c", "fusion_lat": 0.0, "is_disabled": 0, "rental_uris": {"ios": "https://dc.lft.to/lastmile_qr_scan", "android": "https://dc.lft.to/lastmile_qr_scan"}}, {"name": "81c0f90b45519ae3e194a71bf90837ac", "lon": -77.02396666666667, "lat": 38.927604, "type": "electric_bike", "fusion_lon": 0.0, "is_reserved": 0, "bike_id": "81c0f90b45519ae3e194a71bf90837ac", "fusion_lat": 0.0, "is_disabled": 0, "rental_uris": {"ios": "https://dc.lft.to/lastmile_qr_scan", "android": "https://dc.lft.to/lastmile_qr_scan"}}, {"name": "6feb5cf0fb847d27d24cd95c581aaed3", "lon": -77.11058466666667, "lat": 38.8708185, "type": "electric_bike", "fusion_lon": 0.0, "is_reserved": 0, "bike_id": "6feb5cf0fb847d27d24cd95c581aaed3", "fusion_lat": 0.0, "is_disabled": 0, "rental_uris": {"ios": "https://dc.lft.to/lastmile_qr_scan", "android": "https://dc.lft.to/lastmile_qr_scan"}}, {"name": "70716d703daed9073e4263347719a82a", "lon": -77.018372, "lat": 38.909597, "type": "electric_scooter", "fusion_lon": 0.0, "is_reserved": 0, "bike_id": "70716d703daed9073e4263347719a82a", "fusion_lat": 0.0, "is_disabled": 0, "rental_uris": {"ios": "https://dc.lft.to/lastmile_qr_scan", "android": "https://dc.lft.to/lastmile_qr_scan"}}, {"name": "cfdeb2289c7b16b23e96104a561534d1", "lon": -77.02964316666667, "lat": 38.905170166666664, "type": "electric_scooter", "fusion_lon": 0.0, "is_reserved": 0, "bike_id": "cfdeb2289c7b16b23e96104a561534d1", "fusion_lat": 0.0, "is_disabled": 0, "rental_uris": {"ios": "https://dc.lft.to/lastmile_qr_scan", "android": "https://dc.lft.to/lastmile_qr_scan"}}, {"name": "253c711051892ee4c9e78057abb12612", "lon": -76.9809535, "lat": 38.88137866666667, "type": "electric_bike", "fusion_lon": 0.0, "is_reserved": 0, "bike_id": "253c711051892ee4c9e78057abb12612", "fusion_lat": 0.0, "is_disabled": 0, "rental_uris": {"ios": "https://dc.lft.to/lastmile_qr_scan", "android": "https://dc.lft.to/lastmile_qr_scan"}}, {"name": "a35e8e1bc3f84f2c320878cb5b98f4dd", "lon": -77.0563615, "lat": 38.92425383333333, "type": "electric_scooter", "fusion_lon": 0.0, "is_reserved": 0, "bike_id": "a35e8e1bc3f84f2c320878cb5b98f4dd", "fusion_lat": 0.0, "is_disabled": 0, "rental_uris": {"ios": "https://dc.lft.to/lastmile_qr_scan", "android": "https://dc.lft.to/lastmile_qr_scan"}}, {"name": "f457f11518c5cf9bd85aa04691f275ca", "lon": -76.94635666666667, "lat": 38.898465, "type": "electric_scooter", "fusion_lon": 0.0, "is_reserved": 0, "bike_id": "f457f11518c5cf9bd85aa04691f275ca", "fusion_lat": 0.0, "is_disabled": 0, "rental_uris": {"ios": "https://dc.lft.to/lastmile_qr_scan", "android": "https://dc.lft.to/lastmile_qr_scan"}}, {"name": "08e68a6b3058a785b13c40a5298287d7", "lon": -76.98240333333334, "lat": 38.9089295, "type": "electric_scooter", "fusion_lon": 0.0, "is_reserved": 0, "bike_id": "08e68a6b3058a785b13c40a5298287d7", "fusion_lat": 0.0, "is_disabled": 0, "rental_uris": {"ios": "https://dc.lft.to/lastmile_qr_scan", "android": "https://dc.lft.to/lastmile_qr_scan"}}, {"name": "99b6205cf1d76a7d1af3a9a267cc4b55", "lon": -77.01763916666667, "lat": 38.921011, "type": "electric_scooter", "fusion_lon": 0.0, "is_reserved": 0, "bike_id": "99b6205cf1d76a7d1af3a9a267cc4b55", "fusion_lat": 0.0, "is_disabled": 0, "rental_uris": {"ios": "https://dc.lft.to/lastmile_qr_scan", "android": "https://dc.lft.to/lastmile_qr_scan"}}, {"name": "2775e5ef0393f69a3ec874f368bbb183", "lon": -77.00227, "lat": 38.90040033333333, "type": "electric_scooter", "fusion_lon": 0.0, "is_reserved": 0, "bike_id": "2775e5ef0393f69a3ec874f368bbb183", "fusion_lat": 0.0, "is_disabled": 0, "rental_uris": {"ios": "https://dc.lft.to/lastmile_qr_scan", "android": "https://dc.lft.to/lastmile_qr_scan"}}, {"name": "0acb5381bc8fac02166471c252243be7", "lon": -77.027824, "lat": 38.898324833333334, "type": "electric_scooter", "fusion_lon": 0.0, "is_reserved": 0, "bike_id": "0acb5381bc8fac02166471c252243be7", "fusion_lat": 0.0, "is_disabled": 0, "rental_uris": {"ios": "https://dc.lft.to/lastmile_qr_scan", "android": "https://dc.lft.to/lastmile_qr_scan"}}, {"name": "2848b8e1c0ab4ada4f759f8f06d8e950", "lon": -77.00237716666666, "lat": 38.900309666666665, "type": "electric_scooter", "fusion_lon": 0.0, "is_reserved": 0, "bike_id": "2848b8e1c0ab4ada4f759f8f06d8e950", "fusion_lat": 0.0, "is_disabled": 0, "rental_uris": {"ios": "https://dc.lft.to/lastmile_qr_scan", "android": "https://dc.lft.to/lastmile_qr_scan"}}, {"name": "45af73a5f4f34b7e718f5187feba4b75", "lon": -76.91134516666666, "lat": 38.89425, "type": "electric_scooter", "fusion_lon": 0.0, "is_reserved": 0, "bike_id": "45af73a5f4f34b7e718f5187feba4b75", "fusion_lat": 0.0, "is_disabled": 0, "rental_uris": {"ios": "https://dc.lft.to/lastmile_qr_scan", "android": "https://dc.lft.to/lastmile_qr_scan"}}, {"name": "d0fa40133e3ed594e1d67abacc6a98a3", "lon": -77.03518183333334, "lat": 38.927297833333334, "type": "electric_scooter", "fusion_lon": 0.0, "is_reserved": 0, "bike_id": "d0fa40133e3ed594e1d67abacc6a98a3", "fusion_lat": 0.0, "is_disabled": 0, "rental_uris": {"ios": "https://dc.lft.to/lastmile_qr_scan", "android": "https://dc.lft.to/lastmile_qr_scan"}}, {"name": "b106b0ebe6296330b23c2485014f5c9c", "lon": -77.02299933333333, "lat": 38.92808816666667, "type": "electric_scooter", "fusion_lon": 0.0, "is_reserved": 0, "bike_id": "b106b0ebe6296330b23c2485014f5c9c", "fusion_lat": 0.0, "is_disabled": 0, "rental_uris": {"ios": "https://dc.lft.to/lastmile_qr_scan", "android": "https://dc.lft.to/lastmile_qr_scan"}}, {"name": "399f13ebd18fdec69d3552d2f65eb287", "lon": -77.05419133333334, "lat": 38.90247266666667, "type": "electric_scooter", "fusion_lon": 0.0, "is_reserved": 0, "bike_id": "399f13ebd18fdec69d3552d2f65eb287", "fusion_lat": 0.0, "is_disabled": 0, "rental_uris": {"ios": "https://dc.lft.to/lastmile_qr_scan", "android": "https://dc.lft.to/lastmile_qr_scan"}}, {"name": "63b7ce46406d1c1662f43bdc54597063", "lon": -76.99352916666666, "lat": 38.84507083333333, "type": "electric_scooter", "fusion_lon": 0.0, "is_reserved": 0, "bike_id": "63b7ce46406d1c1662f43bdc54597063", "fusion_lat": 0.0, "is_disabled": 0, "rental_uris": {"ios": "https://dc.lft.to/lastmile_qr_scan", "android": "https://dc.lft.to/lastmile_qr_scan"}}, {"name": "0391d0b9bd2cc3b59376cf037d80a8bd", "lon": -76.99853033333333, "lat": 38.8874825, "type": "electric_scooter", "fusion_lon": 0.0, "is_reserved": 0, "bike_id": "0391d0b9bd2cc3b59376cf037d80a8bd", "fusion_lat": 0.0, "is_disabled": 0, "rental_uris": {"ios": "https://dc.lft.to/lastmile_qr_scan", "android": "https://dc.lft.to/lastmile_qr_scan"}}, {"name": "e7a29d3d1dae18249a79ae1f8eef2898", "lon": -76.9836945, "lat": 38.915173, "type": "electric_scooter", "fusion_lon": 0.0, "is_reserved": 0, "bike_id": "e7a29d3d1dae18249a79ae1f8eef2898", "fusion_lat": 0.0, "is_disabled": 0, "rental_uris": {"ios": "https://dc.lft.to/lastmile_qr_scan", "android": "https://dc.lft.to/lastmile_qr_scan"}}, {"name": "0d8a79411e7a080269733ecd5ef97178", "lon": -77.04193616666667, "lat": 38.926323, "type": "electric_scooter", "fusion_lon": 0.0, "is_reserved": 0, "bike_id": "0d8a79411e7a080269733ecd5ef97178", "fusion_lat": 0.0, "is_disabled": 0, "rental_uris": {"ios": "https://dc.lft.to/lastmile_qr_scan", "android": "https://dc.lft.to/lastmile_qr_scan"}}, {"name": "6ee9d8175a719e7af4d4240cec8629b8", "lon": -77.034382, "lat": 38.90573333333333, "type": "electric_scooter", "fusion_lon": 0.0, "is_reserved": 0, "bike_id": "6ee9d8175a719e7af4d4240cec8629b8", "fusion_lat": 0.0, "is_disabled": 0, "rental_uris": {"ios": "https://dc.lft.to/lastmile_qr_scan", "android": "https://dc.lft.to/lastmile_qr_scan"}}, {"name": "f24728e6beada2755c16fc85b1c9cfd0", "lon": -76.98697716666666, "lat": 38.8626095, "type": "electric_scooter", "fusion_lon": 0.0, "is_reserved": 0, "bike_id": "f24728e6beada2755c16fc85b1c9cfd0", "fusion_lat": 0.0, "is_disabled": 0, "rental_uris": {"ios": "https://dc.lft.to/lastmile_qr_scan", "android": "https://dc.lft.to/lastmile_qr_scan"}}, {"name": "338b9213197e2b3e08e02610ceb1833d", "lon": -77.02280716666667, "lat": 38.9095735, "type": "electric_scooter", "fusion_lon": 0.0, "is_reserved": 0, "bike_id": "338b9213197e2b3e08e02610ceb1833d", "fusion_lat": 0.0, "is_disabled": 0, "rental_uris": {"ios": "https://dc.lft.to/lastmile_qr_scan", "android": "https://dc.lft.to/lastmile_qr_scan"}}, {"name": "00d45356f7c87ff24847d90edb1dcd82", "lon": -77.058605, "lat": 38.93606533333333, "type": "electric_scooter", "fusion_lon": 0.0, "is_reserved": 0, "bike_id": "00d45356f7c87ff24847d90edb1dcd82", "fusion_lat": 0.0, "is_disabled": 0, "rental_uris": {"ios": "https://dc.lft.to/lastmile_qr_scan", "android": "https://dc.lft.to/lastmile_qr_scan"}}, {"name": "f3edb7bdd1f6398d54e1240d8ccd4426", "lon": -77.00209666666667, "lat": 38.895447833333336, "type": "electric_scooter", "fusion_lon": 0.0, "is_reserved": 0, "bike_id": "f3edb7bdd1f6398d54e1240d8ccd4426", "fusion_lat": 0.0, "is_disabled": 0, "rental_uris": {"ios": "https://dc.lft.to/lastmile_qr_scan", "android": "https://dc.lft.to/lastmile_qr_scan"}}, {"name": "f7800b8b7e6f8223c291457d785df11a", "lon": -77.02983833333333, "lat": 38.937005166666665, "type": "electric_bike", "fusion_lon": 0.0, "is_reserved": 0, "bike_id": "f7800b8b7e6f8223c291457d785df11a", "fusion_lat": 0.0, "is_disabled": 0, "rental_uris": {"ios": "https://dc.lft.to/lastmile_qr_scan", "android": "https://dc.lft.to/lastmile_qr_scan"}}, {"name": "b68affd5449a1b21a785e69b7924289b", "lon": -76.99365433333334, "lat": 38.928414, "type": "electric_scooter", "fusion_lon": 0.0, "is_reserved": 0, "bike_id": "b68affd5449a1b21a785e69b7924289b", "fusion_lat": 0.0, "is_disabled": 0, "rental_uris": {"ios": "https://dc.lft.to/lastmile_qr_scan", "android": "https://dc.lft.to/lastmile_qr_scan"}}, {"name": "8f7c40bf9c4b3eec573ff7baa8f9a19d", "lon": -77.029778, "lat": 38.92197766666666, "type": "electric_scooter", "fusion_lon": 0.0, "is_reserved": 0, "bike_id": "8f7c40bf9c4b3eec573ff7baa8f9a19d", "fusion_lat": 0.0, "is_disabled": 0, "rental_uris": {"ios": "https://dc.lft.to/lastmile_qr_scan", "android": "https://dc.lft.to/lastmile_qr_scan"}}, {"name": "d0687eaa221ad70cde6043a7376f129b", "lon": -77.0433205, "lat": 38.89225883333334, "type": "electric_scooter", "fusion_lon": 0.0, "is_reserved": 0, "bike_id": "d0687eaa221ad70cde6043a7376f129b", "fusion_lat": 0.0, "is_disabled": 0, "rental_uris": {"ios": "https://dc.lft.to/lastmile_qr_scan", "android": "https://dc.lft.to/lastmile_qr_scan"}}, {"name": "35a3782d7d78b5ec20f73cf07d71ea98", "lon": -77.0345445, "lat": 38.9214635, "type": "electric_scooter", "fusion_lon": 0.0, "is_reserved": 0, "bike_id": "35a3782d7d78b5ec20f73cf07d71ea98", "fusion_lat": 0.0, "is_disabled": 0, "rental_uris": {"ios": "https://dc.lft.to/lastmile_qr_scan", "android": "https://dc.lft.to/lastmile_qr_scan"}}, {"name": "f82d7ff305671ebac7f4ad3fd81fc0d2", "lon": -76.9878115, "lat": 38.882971166666664, "type": "electric_scooter", "fusion_lon": 0.0, "is_reserved": 0, "bike_id": "f82d7ff305671ebac7f4ad3fd81fc0d2", "fusion_lat": 0.0, "is_disabled": 0, "rental_uris": {"ios": "https://dc.lft.to/lastmile_qr_scan", "android": "https://dc.lft.to/lastmile_qr_scan"}}, {"name": "250982cb9ea77eb6f5c3a5f5b4c0c733", "lon": -77.0332695, "lat": 38.92158416666667, "type": "electric_scooter", "fusion_lon": 0.0, "is_reserved": 0, "bike_id": "250982cb9ea77eb6f5c3a5f5b4c0c733", "fusion_lat": 0.0, "is_disabled": 0, "rental_uris": {"ios": "https://dc.lft.to/lastmile_qr_scan", "android": "https://dc.lft.to/lastmile_qr_scan"}}, {"name": "8e29554dfc1b6ecd0be6c256feb00c3b", "lon": -77.0027895, "lat": 38.91173633333333, "type": "electric_bike", "fusion_lon": 0.0, "is_reserved": 0, "bike_id": "8e29554dfc1b6ecd0be6c256feb00c3b", "fusion_lat": 0.0, "is_disabled": 0, "rental_uris": {"ios": "https://dc.lft.to/lastmile_qr_scan", "android": "https://dc.lft.to/lastmile_qr_scan"}}, {"name": "d4f558b6c39057d14c4aba13a3b7e3e5", "lon": -77.0089085, "lat": 38.92485, "type": "electric_scooter", "fusion_lon": 0.0, "is_reserved": 0, "bike_id": "d4f558b6c39057d14c4aba13a3b7e3e5", "fusion_lat": 0.0, "is_disabled": 0, "rental_uris": {"ios": "https://dc.lft.to/lastmile_qr_scan", "android": "https://dc.lft.to/lastmile_qr_scan"}}, {"name": "783f1af1c7a400f5d8e35dccbc316c7b", "lon": -77.07152366666666, "lat": 38.92041366666667, "type": "electric_scooter", "fusion_lon": 0.0, "is_reserved": 0, "bike_id": "783f1af1c7a400f5d8e35dccbc316c7b", "fusion_lat": 0.0, "is_disabled": 0, "rental_uris": {"ios": "https://dc.lft.to/lastmile_qr_scan", "android": "https://dc.lft.to/lastmile_qr_scan"}}, {"name": "5c72ad097ea266ddf9713c04819db6fc", "lon": -77.024448, "lat": 38.90974466666667, "type": "electric_scooter", "fusion_lon": 0.0, "is_reserved": 0, "bike_id": "5c72ad097ea266ddf9713c04819db6fc", "fusion_lat": 0.0, "is_disabled": 0, "rental_uris": {"ios": "https://dc.lft.to/lastmile_qr_scan", "android": "https://dc.lft.to/lastmile_qr_scan"}}, {"name": "681d4044ece0a94860508ac2e7371e41", "lon": -77.03465183333333, "lat": 38.90656083333333, "type": "electric_scooter", "fusion_lon": 0.0, "is_reserved": 0, "bike_id": "681d4044ece0a94860508ac2e7371e41", "fusion_lat": 0.0, "is_disabled": 0, "rental_uris": {"ios": "https://dc.lft.to/lastmile_qr_scan", "android": "https://dc.lft.to/lastmile_qr_scan"}}, {"name": "7f0e439ee71f2a62b8e15c79b10c7fb4", "lon": -77.03860583333334, "lat": 38.90376416666667, "type": "electric_scooter", "fusion_lon": 0.0, "is_reserved": 0, "bike_id": "7f0e439ee71f2a62b8e15c79b10c7fb4", "fusion_lat": 0.0, "is_disabled": 0, "rental_uris": {"ios": "https://dc.lft.to/lastmile_qr_scan", "android": "https://dc.lft.to/lastmile_qr_scan"}}, {"name": "585fd930ce125150f49746228bf59354", "lon": -76.987762, "lat": 38.86598016666667, "type": "electric_bike", "fusion_lon": 0.0, "is_reserved": 0, "bike_id": "585fd930ce125150f49746228bf59354", "fusion_lat": 0.0, "is_disabled": 0, "rental_uris": {"ios": "https://dc.lft.to/lastmile_qr_scan", "android": "https://dc.lft.to/lastmile_qr_scan"}}, {"name": "e01cddf475fe96c3c1e8e8b65190c07e", "lon": -77.00268366666667, "lat": 38.9224385, "type": "electric_scooter", "fusion_lon": 0.0, "is_reserved": 0, "bike_id": "e01cddf475fe96c3c1e8e8b65190c07e", "fusion_lat": 0.0, "is_disabled": 0, "rental_uris": {"ios": "https://dc.lft.to/lastmile_qr_scan", "android": "https://dc.lft.to/lastmile_qr_scan"}}, {"name": "54f982fadcc11bb04190a66a1615e7e6", "lon": -77.01647083333333, "lat": 38.88099066666667, "type": "electric_scooter", "fusion_lon": 0.0, "is_reserved": 0, "bike_id": "54f982fadcc11bb04190a66a1615e7e6", "fusion_lat": 0.0, "is_disabled": 0, "rental_uris": {"ios": "https://dc.lft.to/lastmile_qr_scan", "android": "https://dc.lft.to/lastmile_qr_scan"}}, {"name": "a0215f4b699a402e4b73e6672799aaa4", "lon": -77.04033466666667, "lat": 38.92359583333333, "type": "electric_scooter", "fusion_lon": 0.0, "is_reserved": 0, "bike_id": "a0215f4b699a402e4b73e6672799aaa4", "fusion_lat": 0.0, "is_disabled": 0, "rental_uris": {"ios": "https://dc.lft.to/lastmile_qr_scan", "android": "https://dc.lft.to/lastmile_qr_scan"}}, {"name": "2437cd204ff793e405c41802c0d1fbf4", "lon": -77.16089633333333, "lat": 38.88688366666667, "type": "electric_bike", "fusion_lon": 0.0, "is_reserved": 0, "bike_id": "2437cd204ff793e405c41802c0d1fbf4", "fusion_lat": 0.0, "is_disabled": 0, "rental_uris": {"ios": "https://dc.lft.to/lastmile_qr_scan", "android": "https://dc.lft.to/lastmile_qr_scan"}}, {"name": "eeb6b0cf6a93a1b63685fcc0a02f5c00", "lon": -77.04068233333334, "lat": 38.923708500000004, "type": "electric_scooter", "fusion_lon": 0.0, "is_reserved": 0, "bike_id": "eeb6b0cf6a93a1b63685fcc0a02f5c00", "fusion_lat": 0.0, "is_disabled": 0, "rental_uris": {"ios": "https://dc.lft.to/lastmile_qr_scan", "android": "https://dc.lft.to/lastmile_qr_scan"}}, {"name": "176150d45f6e037696be65cf0c6ac6ed", "lon": -77.02251816666667, "lat": 38.924654833333335, "type": "electric_scooter", "fusion_lon": 0.0, "is_reserved": 0, "bike_id": "176150d45f6e037696be65cf0c6ac6ed", "fusion_lat": 0.0, "is_disabled": 0, "rental_uris": {"ios": "https://dc.lft.to/lastmile_qr_scan", "android": "https://dc.lft.to/lastmile_qr_scan"}}, {"name": "b6cad02ea3df3f7080e24dda9269f013", "lon": -77.07920233333333, "lat": 38.802297333333335, "type": "electric_bike", "fusion_lon": 0.0, "is_reserved": 0, "bike_id": "b6cad02ea3df3f7080e24dda9269f013", "fusion_lat": 0.0, "is_disabled": 0, "rental_uris": {"ios": "https://dc.lft.to/lastmile_qr_scan", "android": "https://dc.lft.to/lastmile_qr_scan"}}, {"name": "f78c3174130e1750acc2ff97467815b0", "lon": -77.03474583333333, "lat": 38.91708583333333, "type": "electric_scooter", "fusion_lon": 0.0, "is_reserved": 0, "bike_id": "f78c3174130e1750acc2ff97467815b0", "fusion_lat": 0.0, "is_disabled": 0, "rental_uris": {"ios": "https://dc.lft.to/lastmile_qr_scan", "android": "https://dc.lft.to/lastmile_qr_scan"}}, {"name": "6bb35eb8d32c8ac622e7da95c2fbbfd2", "lon": -77.01462083333334, "lat": 38.87659933333333, "type": "electric_bike", "fusion_lon": 0.0, "is_reserved": 0, "bike_id": "6bb35eb8d32c8ac622e7da95c2fbbfd2", "fusion_lat": 0.0, "is_disabled": 0, "rental_uris": {"ios": "https://dc.lft.to/lastmile_qr_scan", "android": "https://dc.lft.to/lastmile_qr_scan"}}, {"name": "324932cd7d415a62b505730455f79f22", "lon": -77.0217335, "lat": 38.90558933333333, "type": "electric_scooter", "fusion_lon": 0.0, "is_reserved": 0, "bike_id": "324932cd7d415a62b505730455f79f22", "fusion_lat": 0.0, "is_disabled": 0, "rental_uris": {"ios": "https://dc.lft.to/lastmile_qr_scan", "android": "https://dc.lft.to/lastmile_qr_scan"}}, {"name": "9b4dda8c85db19366d840e87ae9678cb", "lon": -76.9952205, "lat": 38.88377966666667, "type": "electric_scooter", "fusion_lon": 0.0, "is_reserved": 0, "bike_id": "9b4dda8c85db19366d840e87ae9678cb", "fusion_lat": 0.0, "is_disabled": 0, "rental_uris": {"ios": "https://dc.lft.to/lastmile_qr_scan", "android": "https://dc.lft.to/lastmile_qr_scan"}}, {"name": "6bd92199ddcd33e39d1ece8a812d358d", "lon": -77.0401265, "lat": 38.92580483333333, "type": "electric_scooter", "fusion_lon": 0.0, "is_reserved": 0, "bike_id": "6bd92199ddcd33e39d1ece8a812d358d", "fusion_lat": 0.0, "is_disabled": 0, "rental_uris": {"ios": "https://dc.lft.to/lastmile_qr_scan", "android": "https://dc.lft.to/lastmile_qr_scan"}}, {"name": "f2afa68a57516bfe8cce813f4c7a89b2", "lon": -77.0182185, "lat": 38.920427, "type": "electric_scooter", "fusion_lon": 0.0, "is_reserved": 0, "bike_id": "f2afa68a57516bfe8cce813f4c7a89b2", "fusion_lat": 0.0, "is_disabled": 0, "rental_uris": {"ios": "https://dc.lft.to/lastmile_qr_scan", "android": "https://dc.lft.to/lastmile_qr_scan"}}, {"name": "9457b97dc96bb641494235c0e88c00d7", "lon": -76.98067516666667, "lat": 38.9570445, "type": "electric_bike", "fusion_lon": 0.0, "is_reserved": 0, "bike_id": "9457b97dc96bb641494235c0e88c00d7", "fusion_lat": 0.0, "is_disabled": 0, "rental_uris": {"ios": "https://dc.lft.to/lastmile_qr_scan", "android": "https://dc.lft.to/lastmile_qr_scan"}}, {"name": "629650aedf3d2f104108a90c46c916a4", "lon": -77.02644216666667, "lat": 38.89224766666667, "type": "electric_scooter", "fusion_lon": 0.0, "is_reserved": 0, "bike_id": "629650aedf3d2f104108a90c46c916a4", "fusion_lat": 0.0, "is_disabled": 0, "rental_uris": {"ios": "https://dc.lft.to/lastmile_qr_scan", "android": "https://dc.lft.to/lastmile_qr_scan"}}, {"name": "3448626234e249edad37fd638c567d08", "lon": -76.98886416666667, "lat": 38.8666105, "type": "electric_scooter", "fusion_lon": 0.0, "is_reserved": 0, "bike_id": "3448626234e249edad37fd638c567d08", "fusion_lat": 0.0, "is_disabled": 0, "rental_uris": {"ios": "https://dc.lft.to/lastmile_qr_scan", "android": "https://dc.lft.to/lastmile_qr_scan"}}, {"name": "c21476f1130c17c54b4e82d46c2bbef8", "lon": -77.02508566666667, "lat": 38.905669833333334, "type": "electric_scooter", "fusion_lon": 0.0, "is_reserved": 0, "bike_id": "c21476f1130c17c54b4e82d46c2bbef8", "fusion_lat": 0.0, "is_disabled": 0, "rental_uris": {"ios": "https://dc.lft.to/lastmile_qr_scan", "android": "https://dc.lft.to/lastmile_qr_scan"}}, {"name": "44c1c1b131e2571280dab8e91a7de328", "lon": -77.0048805, "lat": 38.874749, "type": "electric_scooter", "fusion_lon": 0.0, "is_reserved": 0, "bike_id": "44c1c1b131e2571280dab8e91a7de328", "fusion_lat": 0.0, "is_disabled": 0, "rental_uris": {"ios": "https://dc.lft.to/lastmile_qr_scan", "android": "https://dc.lft.to/lastmile_qr_scan"}}, {"name": "5922b791fb3bc95b32c4eca2dc22c642", "lon": -76.97733533333333, "lat": 38.895196, "type": "electric_scooter", "fusion_lon": 0.0, "is_reserved": 0, "bike_id": "5922b791fb3bc95b32c4eca2dc22c642", "fusion_lat": 0.0, "is_disabled": 0, "rental_uris": {"ios": "https://dc.lft.to/lastmile_qr_scan", "android": "https://dc.lft.to/lastmile_qr_scan"}}, {"name": "c4ca7426f436080548654e01836ac04b", "lon": -77.02184766666667, "lat": 38.91571883333334, "type": "electric_scooter", "fusion_lon": 0.0, "is_reserved": 0, "bike_id": "c4ca7426f436080548654e01836ac04b", "fusion_lat": 0.0, "is_disabled": 0, "rental_uris": {"ios": "https://dc.lft.to/lastmile_qr_scan", "android": "https://dc.lft.to/lastmile_qr_scan"}}, {"name": "c47d3b39a640f4f5f11114d11d7c4b99", "lon": -77.03220916666666, "lat": 38.896822666666665, "type": "electric_scooter", "fusion_lon": 0.0, "is_reserved": 0, "bike_id": "c47d3b39a640f4f5f11114d11d7c4b99", "fusion_lat": 0.0, "is_disabled": 0, "rental_uris": {"ios": "https://dc.lft.to/lastmile_qr_scan", "android": "https://dc.lft.to/lastmile_qr_scan"}}, {"name": "764a61f05b5206e659e04456ade5d12e", "lon": -76.97913, "lat": 38.86349516666667, "type": "electric_scooter", "fusion_lon": 0.0, "is_reserved": 0, "bike_id": "764a61f05b5206e659e04456ade5d12e", "fusion_lat": 0.0, "is_disabled": 0, "rental_uris": {"ios": "https://dc.lft.to/lastmile_qr_scan", "android": "https://dc.lft.to/lastmile_qr_scan"}}, {"name": "8a0d4e738279dc89b02395d81ea86e8d", "lon": -77.038161, "lat": 38.914308, "type": "electric_scooter", "fusion_lon": 0.0, "is_reserved": 0, "bike_id": "8a0d4e738279dc89b02395d81ea86e8d", "fusion_lat": 0.0, "is_disabled": 0, "rental_uris": {"ios": "https://dc.lft.to/lastmile_qr_scan", "android": "https://dc.lft.to/lastmile_qr_scan"}}, {"name": "55c531fe40193a88951cfa950d7fc0ec", "lon": -76.99611633333333, "lat": 38.90027383333333, "type": "electric_scooter", "fusion_lon": 0.0, "is_reserved": 0, "bike_id": "55c531fe40193a88951cfa950d7fc0ec", "fusion_lat": 0.0, "is_disabled": 0, "rental_uris": {"ios": "https://dc.lft.to/lastmile_qr_scan", "android": "https://dc.lft.to/lastmile_qr_scan"}}, {"name": "07d53fa04b6fba47b34f4d0b2eaf7b6a", "lon": -77.03972533333334, "lat": 38.90268433333333, "type": "electric_scooter", "fusion_lon": 0.0, "is_reserved": 0, "bike_id": "07d53fa04b6fba47b34f4d0b2eaf7b6a", "fusion_lat": 0.0, "is_disabled": 0, "rental_uris": {"ios": "https://dc.lft.to/lastmile_qr_scan", "android": "https://dc.lft.to/lastmile_qr_scan"}}, {"name": "e3fce5a8f8e0bf5b92f67f987fe91a85", "lon": -77.02763183333333, "lat": 38.954270666666666, "type": "electric_scooter", "fusion_lon": 0.0, "is_reserved": 0, "bike_id": "e3fce5a8f8e0bf5b92f67f987fe91a85", "fusion_lat": 0.0, "is_disabled": 0, "rental_uris": {"ios": "https://dc.lft.to/lastmile_qr_scan", "android": "https://dc.lft.to/lastmile_qr_scan"}}, {"name": "263af38fcf69a18d3eec0d2e014806a5", "lon": -76.93387466666667, "lat": 38.89887683333333, "type": "electric_scooter", "fusion_lon": 0.0, "is_reserved": 0, "bike_id": "263af38fcf69a18d3eec0d2e014806a5", "fusion_lat": 0.0, "is_disabled": 0, "rental_uris": {"ios": "https://dc.lft.to/lastmile_qr_scan", "android": "https://dc.lft.to/lastmile_qr_scan"}}, {"name": "45d6c8ecba6402a1c1d2c7e9511a3636", "lon": -77.0222525, "lat": 38.910097666666665, "type": "electric_scooter", "fusion_lon": 0.0, "is_reserved": 0, "bike_id": "45d6c8ecba6402a1c1d2c7e9511a3636", "fusion_lat": 0.0, "is_disabled": 0, "rental_uris": {"ios": "https://dc.lft.to/lastmile_qr_scan", "android": "https://dc.lft.to/lastmile_qr_scan"}}, {"name": "b3b28e279e63312218d02de508a06a4d", "lon": -77.0317815, "lat": 38.921105, "type": "electric_scooter", "fusion_lon": 0.0, "is_reserved": 0, "bike_id": "b3b28e279e63312218d02de508a06a4d", "fusion_lat": 0.0, "is_disabled": 0, "rental_uris": {"ios": "https://dc.lft.to/lastmile_qr_scan", "android": "https://dc.lft.to/lastmile_qr_scan"}}, {"name": "84158c4e01e6c8b42aa2a0e46c7dca4d", "lon": -77.0428605, "lat": 38.908919833333336, "type": "electric_scooter", "fusion_lon": 0.0, "is_reserved": 0, "bike_id": "84158c4e01e6c8b42aa2a0e46c7dca4d", "fusion_lat": 0.0, "is_disabled": 0, "rental_uris": {"ios": "https://dc.lft.to/lastmile_qr_scan", "android": "https://dc.lft.to/lastmile_qr_scan"}}, {"name": "ce4931c64090e9a4fa535c7c734cdf59", "lon": -76.991272, "lat": 38.86206583333333, "type": "electric_scooter", "fusion_lon": 0.0, "is_reserved": 0, "bike_id": "ce4931c64090e9a4fa535c7c734cdf59", "fusion_lat": 0.0, "is_disabled": 0, "rental_uris": {"ios": "https://dc.lft.to/lastmile_qr_scan", "android": "https://dc.lft.to/lastmile_qr_scan"}}, {"name": "7d7ba8fc0dce0c569f5de4092db5eee6", "lon": -77.04184483333333, "lat": 38.892893666666666, "type": "electric_scooter", "fusion_lon": 0.0, "is_reserved": 0, "bike_id": "7d7ba8fc0dce0c569f5de4092db5eee6", "fusion_lat": 0.0, "is_disabled": 0, "rental_uris": {"ios": "https://dc.lft.to/lastmile_qr_scan", "android": "https://dc.lft.to/lastmile_qr_scan"}}, {"name": "21c9fe6acddac0f5a04fd1d3eb053183", "lon": -77.02915183333333, "lat": 38.898384166666666, "type": "electric_scooter", "fusion_lon": 0.0, "is_reserved": 0, "bike_id": "21c9fe6acddac0f5a04fd1d3eb053183", "fusion_lat": 0.0, "is_disabled": 0, "rental_uris": {"ios": "https://dc.lft.to/lastmile_qr_scan", "android": "https://dc.lft.to/lastmile_qr_scan"}}, {"name": "49433df2dce12bf627dd48bcad3bd160", "lon": -77.022997, "lat": 38.928102333333335, "type": "electric_scooter", "fusion_lon": 0.0, "is_reserved": 0, "bike_id": "49433df2dce12bf627dd48bcad3bd160", "fusion_lat": 0.0, "is_disabled": 0, "rental_uris": {"ios": "https://dc.lft.to/lastmile_qr_scan", "android": "https://dc.lft.to/lastmile_qr_scan"}}, {"name": "063b9fa1f661b0391da0ac68c5e599aa", "lon": -77.056697, "lat": 38.92873483333333, "type": "electric_bike", "fusion_lon": 0.0, "is_reserved": 0, "bike_id": "063b9fa1f661b0391da0ac68c5e599aa", "fusion_lat": 0.0, "is_disabled": 0, "rental_uris": {"ios": "https://dc.lft.to/lastmile_qr_scan", "android": "https://dc.lft.to/lastmile_qr_scan"}}, {"name": "6e9d5d011489cb060fd69f33470c8ca5", "lon": -77.047406, "lat": 38.9095785, "type": "electric_scooter", "fusion_lon": 0.0, "is_reserved": 0, "bike_id": "6e9d5d011489cb060fd69f33470c8ca5", "fusion_lat": 0.0, "is_disabled": 0, "rental_uris": {"ios": "https://dc.lft.to/lastmile_qr_scan", "android": "https://dc.lft.to/lastmile_qr_scan"}}, {"name": "e9dca77e82d293ab33a99cb68491f094", "lon": -77.02726966666667, "lat": 38.89499816666667, "type": "electric_scooter", "fusion_lon": 0.0, "is_reserved": 0, "bike_id": "e9dca77e82d293ab33a99cb68491f094", "fusion_lat": 0.0, "is_disabled": 0, "rental_uris": {"ios": "https://dc.lft.to/lastmile_qr_scan", "android": "https://dc.lft.to/lastmile_qr_scan"}}, {"name": "dbdde29898e2bf7b7aab4063719ea449", "lon": -77.03442, "lat": 38.909728, "type": "electric_scooter", "fusion_lon": 0.0, "is_reserved": 0, "bike_id": "dbdde29898e2bf7b7aab4063719ea449", "fusion_lat": 0.0, "is_disabled": 0, "rental_uris": {"ios": "https://dc.lft.to/lastmile_qr_scan", "android": "https://dc.lft.to/lastmile_qr_scan"}}, {"name": "573c62e7b31e4112d2574277e5b8266f", "lon": -77.01027266666667, "lat": 38.917060666666664, "type": "electric_scooter", "fusion_lon": 0.0, "is_reserved": 0, "bike_id": "573c62e7b31e4112d2574277e5b8266f", "fusion_lat": 0.0, "is_disabled": 0, "rental_uris": {"ios": "https://dc.lft.to/lastmile_qr_scan", "android": "https://dc.lft.to/lastmile_qr_scan"}}, {"name": "440fc7734673cc90b828ec6397ba4a35", "lon": -77.03996116666667, "lat": 38.91763866666667, "type": "electric_scooter", "fusion_lon": 0.0, "is_reserved": 0, "bike_id": "440fc7734673cc90b828ec6397ba4a35", "fusion_lat": 0.0, "is_disabled": 0, "rental_uris": {"ios": "https://dc.lft.to/lastmile_qr_scan", "android": "https://dc.lft.to/lastmile_qr_scan"}}, {"name": "6cfa89e19fd3cf6ef11d94ecd63c322e", "lon": -77.02739366666667, "lat": 38.92852083333333, "type": "electric_scooter", "fusion_lon": 0.0, "is_reserved": 0, "bike_id": "6cfa89e19fd3cf6ef11d94ecd63c322e", "fusion_lat": 0.0, "is_disabled": 0, "rental_uris": {"ios": "https://dc.lft.to/lastmile_qr_scan", "android": "https://dc.lft.to/lastmile_qr_scan"}}, {"name": "aa49bb6aa3bcb96562ca4b812f5788b7", "lon": -77.00099866666666, "lat": 38.920242, "type": "electric_scooter", "fusion_lon": 0.0, "is_reserved": 0, "bike_id": "aa49bb6aa3bcb96562ca4b812f5788b7", "fusion_lat": 0.0, "is_disabled": 0, "rental_uris": {"ios": "https://dc.lft.to/lastmile_qr_scan", "android": "https://dc.lft.to/lastmile_qr_scan"}}, {"name": "90b8554ac934af03a6407c39170321c0", "lon": -77.02718233333333, "lat": 38.906887833333336, "type": "electric_scooter", "fusion_lon": 0.0, "is_reserved": 0, "bike_id": "90b8554ac934af03a6407c39170321c0", "fusion_lat": 0.0, "is_disabled": 0, "rental_uris": {"ios": "https://dc.lft.to/lastmile_qr_scan", "android": "https://dc.lft.to/lastmile_qr_scan"}}, {"name": "e605ec0a243d76f69cb3e072d1c4ada1", "lon": -77.03616683333334, "lat": 38.92856966666667, "type": "electric_scooter", "fusion_lon": 0.0, "is_reserved": 0, "bike_id": "e605ec0a243d76f69cb3e072d1c4ada1", "fusion_lat": 0.0, "is_disabled": 0, "rental_uris": {"ios": "https://dc.lft.to/lastmile_qr_scan", "android": "https://dc.lft.to/lastmile_qr_scan"}}, {"name": "8d577e95346b6a6934a35ef0a299818d", "lon": -77.00881833333334, "lat": 38.876527, "type": "electric_scooter", "fusion_lon": 0.0, "is_reserved": 0, "bike_id": "8d577e95346b6a6934a35ef0a299818d", "fusion_lat": 0.0, "is_disabled": 0, "rental_uris": {"ios": "https://dc.lft.to/lastmile_qr_scan", "android": "https://dc.lft.to/lastmile_qr_scan"}}, {"name": "71aa8f353bd7b6effb5033f5aaeffd07", "lon": -76.98998433333334, "lat": 38.8650195, "type": "electric_scooter", "fusion_lon": 0.0, "is_reserved": 0, "bike_id": "71aa8f353bd7b6effb5033f5aaeffd07", "fusion_lat": 0.0, "is_disabled": 0, "rental_uris": {"ios": "https://dc.lft.to/lastmile_qr_scan", "android": "https://dc.lft.to/lastmile_qr_scan"}},