{"data": {"bikes": [{"lon": -77.03280966666667, "bike_id": "c1d0cec8444b0dbfdb1506ec5dd0ad2c", "lat": 38.935534833333335, "fusion_lon": 0.0, "fusion_lat": 0.0, "type": "electric_scooter", "name": "c1d0cec8444b0dbfdb1506ec5dd0ad2c", "is_disabled": 0, "rental_uris": {"ios": "https://dc.lft.to/lastmile_qr_scan", "android": "https://dc.lft.to/lastmile_qr_scan"}, "is_reserved": 0}, {"lon": -77.0457835, "bike_id": "945374c896bb4147d28127eb1b712105", "lat": 38.91859766666666, "fusion_lon": 0.0, "fusion_lat": 0.0, "type": "electric_scooter", "name": "945374c896bb4147d28127eb1b712105", "is_disabled": 0, "rental_uris": {"ios": "https://dc.lft.to/lastmile_qr_scan", "android": "https://dc.lft.to/lastmile_qr_scan"}, "is_reserved": 0}, {"lon": -77.042154, "bike_id": "b21a2586c3471f5777d6c2bf04b77dc1", "lat": 38.92124883333334, "fusion_lon": 0.0, "fusion_lat": 0.0, "type": "electric_scooter", "name": "b21a2586c3471f5777d6c2bf04b77dc1", "is_disabled": 0, "rental_uris": {"ios": "https://dc.lft.to/lastmile_qr_scan", "android": "https://dc.lft.to/lastmile_qr_scan"}, "is_reserved": 0}, {"lon": -77.04363366666666, "bike_id": "3a766979cc08223a2cdb71280112845b", "lat": 39.01535966666667, "fusion_lon": 0.0, "fusion_lat": 0.0, "type": "electric_bike", "name": "3a766979cc08223a2cdb71280112845b", "is_disabled": 0, "rental_uris": {"ios": "https://dc.lft.to/lastmile_qr_scan", "android": "https://dc.lft.to/lastmile_qr_scan"}, "is_reserved": 0}, {"lon": -76.986888, "bike_id": "3fbfedf2d19dc25a178e0e4cb35c0efd", "lat": 38.9072705, "fusion_lon": 0.0, "fusion_lat": 0.0, "type": "electric_bike", "name": "3fbfedf2d19dc25a178e0e4cb35c0efd", "is_disabled": 0, "rental_uris": {"ios": "https://dc.lft.to/lastmile_qr_scan", "android": "https://dc.lft.to/lastmile_qr_scan"}, "is_reserved": 0}, {"lon": -77.02812533333334, "bike_id": "3ddb73a947f73ceed0e406eb146370fa", "lat": 38.94192816666666, "fusion_lon": 0.0, "fusion_lat": 0.0, "type": "electric_scooter", "name": "3ddb73a947f73ceed0e406eb146370fa", "is_disabled": 0, "rental_uris": {"ios": "https://dc.lft.to/lastmile_qr_scan", "android": "https://dc.lft.to/lastmile_qr_scan"}, "is_reserved": 0}, {"lon": -77.030474, "bike_id": "2f73da06124d8b9551d462870ec6cc80", "lat": 38.913282833333334, "fusion_lon": 0.0, "fusion_lat": 0.0, "type": "electric_scooter", "name": "2f73da06124d8b9551d462870ec6cc80", "is_disabled": 0, "rental_uris": {"ios": "https://dc.lft.to/lastmile_qr_scan", "android": "https://dc.lft.to/lastmile_qr_scan"}, "is_reserved": 0}, {"lon": -77.0422125, "bike_id": "1ea2633cdc61d0d0f245bd6a44ceaf2c", "lat": 38.9211645, "fusion_lon": 0.0, "fusion_lat": 0.0, "type": "electric_scooter", "name": "1ea2633cdc61d0d0f245bd6a44ceaf2c", "is_disabled": 0, "rental_uris": {"ios": "https://dc.lft.to/lastmile_qr_scan", "android": "https://dc.lft.to/lastmile_qr_scan"}, "is_reserved": 0}, {"lon": -76.98615716666667, "bike_id": "029abd38553bc7e91134520499ca3428", "lat": 38.88264433333333, "fusion_lon": 0.0, "fusion_lat": 0.0, "type": "electric_scooter", "name": "029abd38553bc7e91134520499ca3428", "is_disabled": 0, "rental_uris": {"ios": "https://dc.lft.to/lastmile_qr_scan", "android": "https://dc.lft.to/lastmile_qr_scan"}, "is_reserved": 0}, {"lon": -77.03230466666666, "bike_id": "5378169ef720d3fdf178f19bd06e8d9f", "lat": 38.9170195, "fusion_lon": 0.0, "fusion_lat": 0.0, "type": "electric_scooter", "name": "5378169ef720d3fdf178f19bd06e8d9f", "is_disabled": 0, "rental_uris": {"ios": "https://dc.lft.to/lastmile_qr_scan", "android": "https://dc.lft.to/lastmile_qr_scan"}, "is_reserved": 0}, {"lon": -76.97331199999999, "bike_id": "6bcda50db34cd123c33a99db44be562d", "lat": 38.86509133333333, "fusion_lon": 0.0, "fusion_lat": 0.0, "type": "electric_scooter", "name": "6bcda50db34cd123c33a99db44be562d", "is_disabled": 0, "rental_uris": {"ios": "https://dc.lft.to/lastmile_qr_scan", "android": "https://dc.lft.to/lastmile_qr_scan"}, "is_reserved": 0}, {"lon": -77.02777866666666, "bike_id": "26ae2910e8d5c0f4c6a43e87e6882013", "lat": 38.954204, "fusion_lon": 0.0, "fusion_lat": 0.0, "type": "electric_scooter", "name": "26ae2910e8d5c0f4c6a43e87e6882013", "is_disabled": 0, "rental_uris": {"ios": "https://dc.lft.to/lastmile_qr_scan", "android": "https://dc.lft.to/lastmile_qr_scan"}, "is_reserved": 0}, {"lon": -77.03267683333333, "bike_id": "332d2378694949da9d618102ff847eab", "lat": 38.937252, "fusion_lon": 0.0, "fusion_lat": 0.0, "type": "electric_scooter", "name": "332d2378694949da9d618102ff847eab", "is_disabled": 0, "rental_uris": {"ios": "https://dc.lft.to/lastmile_qr_scan", "android": "https://dc.lft.to/lastmile_qr_scan"}, "is_reserved": 0}, {"lon": -77.06836183333333, "bike_id": "a906a42fea6bec02b37eca4afeff8a11", "lat": 38.805624333333334, "fusion_lon": 0.0, "fusion_lat": 0.0, "type": "electric_bike", "name": "a906a42fea6bec02b37eca4afeff8a11", "is_disabled": 0, "rental_uris": {"ios": "https://dc.lft.to/lastmile_qr_scan", "android": "https://dc.lft.to/lastmile_qr_scan"}, "is_reserved": 0}, {"lon": -77.03869266666666, "bike_id": "8a75045dba071690613897a288aa8104", "lat": 38.9038995, "fusion_lon": 0.0, "fusion_lat": 0.0, "type": "electric_scooter", "name": "8a75045dba071690613897a288aa8104", "is_disabled": 0, "rental_uris": {"ios": "https://dc.lft.to/lastmile_qr_scan", "android": "https://dc.lft.to/lastmile_qr_scan"}, "is_reserved": 0}, {"lon": -76.98087366666667, "bike_id": "952ddab962b39c0c7ff430efa3667824", "lat": 38.907078, "fusion_lon": 0.0, "fusion_lat": 0.0, "type": "electric_scooter", "name": "952ddab962b39c0c7ff430efa3667824", "is_disabled": 0, "rental_uris": {"ios": "https://dc.lft.to/lastmile_qr_scan", "android": "https://dc.lft.to/lastmile_qr_scan"}, "is_reserved": 0}, {"lon": -77.04358533333334, "bike_id": "f071a10e888ffe3b8fe9438a00ad9f06", "lat": 38.91047566666667, "fusion_lon": 0.0, "fusion_lat": 0.0, "type": "electric_scooter", "name": "f071a10e888ffe3b8fe9438a00ad9f06", "is_disabled": 0, "rental_uris": {"ios": "https://dc.lft.to/lastmile_qr_scan", "android": "https://dc.lft.to/lastmile_qr_scan"}, "is_reserved": 0}, {"lon": -77.0033285, "bike_id": "ff3bb1007947df197e26c7f6901e6208", "lat": 38.89726266666667, "fusion_lon": 0.0, "fusion_lat": 0.0, "type": "electric_scooter", "name": "ff3bb1007947df197e26c7f6901e6208", "is_disabled": 0, "rental_uris": {"ios": "https://dc.lft.to/lastmile_qr_scan", "android": "https://dc.lft.to/lastmile_qr_scan"}, "is_reserved": 0}, {"lon": -77.032369, "bike_id": "d2b40f83883ef4bf2a13994d3708e98b", "lat": 38.938846166666664, "fusion_lon": 0.0, "fusion_lat": 0.0, "type": "electric_scooter", "name": "d2b40f83883ef4bf2a13994d3708e98b", "is_disabled": 0, "rental_uris": {"ios": "https://dc.lft.to/lastmile_qr_scan", "android": "https://dc.lft.to/lastmile_qr_scan"}, "is_reserved": 0}, {"lon": -77.03330583333333, "bike_id": "af7181f56c8a99737bf1fd84d4423534", "lat": 38.915644, "fusion_lon": 0.0, "fusion_lat": 0.0, "type": "electric_scooter", "name": "af7181f56c8a99737bf1fd84d4423534", "is_disabled": 0, "rental_uris": {"ios": "https://dc.lft.to/lastmile_qr_scan", "android": "https://dc.lft.to/lastmile_qr_scan"}, "is_reserved": 0}, {"lon": -77.05233316666667, "bike_id": "ffacf5f5d5bc0aa2d87b63c370b08b1e", "lat": 38.923383666666666, "fusion_lon": 0.0, "fusion_lat": 0.0, "type": "electric_scooter", "name": "ffacf5f5d5bc0aa2d87b63c370b08b1e", "is_disabled": 0, "rental_uris": {"ios": "https://dc.lft.to/lastmile_qr_scan", "android": "https://dc.lft.to/lastmile_qr_scan"}, "is_reserved": 0}, {"lon": -76.98768, "bike_id": "6dd9520d5a4c3d9b2215c6560b52281a", "lat": 38.857673, "fusion_lon": 0.0, "fusion_lat": 0.0, "type": "electric_bike", "name": "6dd9520d5a4c3d9b2215c6560b52281a", "is_disabled": 0, "rental_uris": {"ios": "https://dc.lft.to/lastmile_qr_scan", "android": "https://dc.lft.to/lastmile_qr_scan"}, "is_reserved": 0}, {"lon": -76.99913383333333, "bike_id": "fc61200695b99add8bb3ac64f1d04a29", "lat": 38.909119, "fusion_lon": 0.0, "fusion_lat": 0.0, "type": "electric_scooter", "name": "fc61200695b99add8bb3ac64f1d04a29", "is_disabled": 0, "rental_uris": {"ios": "https://dc.lft.to/lastmile_qr_scan", "android": "https://dc.lft.to/lastmile_qr_scan"}, "is_reserved": 0}, {"lon": -77.07862516666667, "bike_id": "64740ac29e53f21ef847682dda06ade7", "lat": 38.92456216666667, "fusion_lon": 0.0, "fusion_lat": 0.0, "type": "electric_scooter", "name": "64740ac29e53f21ef847682dda06ade7", "is_disabled": 0, "rental_uris": {"ios": "https://dc.lft.to/lastmile_qr_scan", "android": "https://dc.lft.to/lastmile_qr_scan"}, "is_reserved": 0}, {"lon": -77.03292583333334, "bike_id": "f3cd2ece0610ea77e18fffb50e0bfb17", "lat": 38.956497, "fusion_lon": 0.0, "fusion_lat": 0.0, "type": "electric_scooter", "name": "f3cd2ece0610ea77e18fffb50e0bfb17", "is_disabled": 0, "rental_uris": {"ios": "https://dc.lft.to/lastmile_qr_scan", "android": "https://dc.lft.to/lastmile_qr_scan"}, "is_reserved": 0}, {"lon": -76.99622416666666, "bike_id": "9abae4fa44a4d02925d22c2ee10ca833", "lat": 38.8943, "fusion_lon": 0.0, "fusion_lat": 0.0, "type": "electric_bike", "name": "9abae4fa44a4d02925d22c2ee10ca833", "is_disabled": 0, "rental_uris": {"ios": "https://dc.lft.to/lastmile_qr_scan", "android": "https://dc.lft.to/lastmile_qr_scan"}, "is_reserved": 0}, {"lon": -77.17847683333333, "bike_id": "21c63f184ef1b8e6ee5af4bbb836a10a", "lat": 39.08849133333333, "fusion_lon": 0.0, "fusion_lat": 0.0, "type": "electric_bike", "name": "21c63f184ef1b8e6ee5af4bbb836a10a", "is_disabled": 0, "rental_uris": {"ios": "https://dc.lft.to/lastmile_qr_scan", "android": "https://dc.lft.to/lastmile_qr_scan"}, "is_reserved": 0}, {"lon": -77.02492033333333, "bike_id": "5d0c6189789f62e3d74a4f75f17f37d4", "lat": 38.936203166666665, "fusion_lon": 0.0, "fusion_lat": 0.0, "type": "electric_scooter", "name": "5d0c6189789f62e3d74a4f75f17f37d4", "is_disabled": 0, "rental_uris": {"ios": "https://dc.lft.to/lastmile_qr_scan", "android": "https://dc.lft.to/lastmile_qr_scan"}, "is_reserved": 0}, {"lon": -77.03284116666667, "bike_id": "7b3a8698e3b8e9eae19240ca9da38979", "lat": 38.936413333333334, "fusion_lon": 0.0, "fusion_lat": 0.0, "type": "electric_scooter", "name": "7b3a8698e3b8e9eae19240ca9da38979", "is_disabled": 0, "rental_uris": {"ios": "https://dc.lft.to/lastmile_qr_scan", "android": "https://dc.lft.to/lastmile_qr_scan"}, "is_reserved": 0}, {"lon": -77.02389316666667, "bike_id": "05214c1295b009d4597af52b8260233d", "lat": 38.881159, "fusion_lon": 0.0, "fusion_lat": 0.0, "type": "electric_bike", "name": "05214c1295b009d4597af52b8260233d", "is_disabled": 0, "rental_uris": {"ios": "https://dc.lft.to/lastmile_qr_scan", "android": "https://dc.lft.to/lastmile_qr_scan"}, "is_reserved": 0}, {"lon": -77.00753916666666, "bike_id": "1959ddfb194e25a6b99231f451b134e4", "lat": 38.90730033333333, "fusion_lon": 0.0, "fusion_lat": 0.0, "type": "electric_scooter", "name": "1959ddfb194e25a6b99231f451b134e4", "is_disabled": 0, "rental_uris": {"ios": "https://dc.lft.to/lastmile_qr_scan", "android": "https://dc.lft.to/lastmile_qr_scan"}, "is_reserved": 0}, {"lon": -77.02277733333334, "bike_id": "7e83e12e3ebf05f6a35c6491b19e26b3", "lat": 38.878370833333335, "fusion_lon": 0.0, "fusion_lat": 0.0, "type": "electric_scooter", "name": "7e83e12e3ebf05f6a35c6491b19e26b3", "is_disabled": 0, "rental_uris": {"ios": "https://dc.lft.to/lastmile_qr_scan", "android": "https://dc.lft.to/lastmile_qr_scan"}, "is_reserved": 0}, {"lon": -76.987177, "bike_id": "152eacafdff10092e8e5a4ba4ec2694e", "lat": 38.86624116666667, "fusion_lon": 0.0, "fusion_lat": 0.0, "type": "electric_scooter", "name": "152eacafdff10092e8e5a4ba4ec2694e", "is_disabled": 0, "rental_uris": {"ios": "https://dc.lft.to/lastmile_qr_scan", "android": "https://dc.lft.to/lastmile_qr_scan"}, "is_reserved": 0}, {"lon": -77.054255, "bike_id": "ed2ef552ca60e72ce54e3d5024027349", "lat": 38.9284005, "fusion_lon": 0.0, "fusion_lat": 0.0, "type": "electric_scooter", "name": "ed2ef552ca60e72ce54e3d5024027349", "is_disabled": 0, "rental_uris": {"ios": "https://dc.lft.to/lastmile_qr_scan", "android": "https://dc.lft.to/lastmile_qr_scan"}, "is_reserved": 0}, {"lon": -77.02209683333334, "bike_id": "9f318bb2a62ed5bcdf7dfd410bace27d", "lat": 38.914777, "fusion_lon": 0.0, "fusion_lat": 0.0, "type": "electric_scooter", "name": "9f318bb2a62ed5bcdf7dfd410bace27d", "is_disabled": 0, "rental_uris": {"ios": "https://dc.lft.to/lastmile_qr_scan", "android": "https://dc.lft.to/lastmile_qr_scan"}, "is_reserved": 0}, {"lon": -76.96065283333333, "bike_id": "8985f2bc622f57e9d9451c4d54dc8cb5", "lat": 38.8840095, "fusion_lon": 0.0, "fusion_lat": 0.0, "type": "electric_bike", "name": "8985f2bc622f57e9d9451c4d54dc8cb5", "is_disabled": 0, "rental_uris": {"ios": "https://dc.lft.to/lastmile_qr_scan", "android": "https://dc.lft.to/lastmile_qr_scan"}, "is_reserved": 0}, {"lon": -77.054947, "bike_id": "e100f16acb7fc9695f5bc10d507b639a", "lat": 38.908401, "fusion_lon": 0.0, "fusion_lat": 0.0, "type": "electric_scooter", "name": "e100f16acb7fc9695f5bc10d507b639a", "is_disabled": 0, "rental_uris": {"ios": "https://dc.lft.to/lastmile_qr_scan", "android": "https://dc.lft.to/lastmile_qr_scan"}, "is_reserved": 0}, {"lon": -76.989395, "bike_id": "928ea5b80bfee71b059e4bf54fde9c4f", "lat": 38.918359333333335, "fusion_lon": 0.0, "fusion_lat": 0.0, "type": "electric_scooter", "name": "928ea5b80bfee71b059e4bf54fde9c4f", "is_disabled": 0, "rental_uris": {"ios": "https://dc.lft.to/lastmile_qr_scan", "android": "https://dc.lft.to/lastmile_qr_scan"}, "is_reserved": 0}, {"lon": -76.98409166666667, "bike_id": "1a0720189728c1d37dd97f8eb8b58c0c", "lat": 38.90630216666667, "fusion_lon": 0.0, "fusion_lat": 0.0, "type": "electric_scooter", "name": "1a0720189728c1d37dd97f8eb8b58c0c", "is_disabled": 0, "rental_uris": {"ios": "https://dc.lft.to/lastmile_qr_scan", "android": "https://dc.lft.to/lastmile_qr_scan"}, "is_reserved": 0}, {"lon": -77.02588066666667, "bike_id": "d5234650cd3872ada959807b940b4b37", "lat": 38.90062533333333, "fusion_lon": 0.0, "fusion_lat": 0.0, "type": "electric_scooter", "name": "d5234650cd3872ada959807b940b4b37", "is_disabled": 0, "rental_uris": {"ios": "https://dc.lft.to/lastmile_qr_scan", "android": "https://dc.lft.to/lastmile_qr_scan"}, "is_reserved": 0}, {"lon": -77.024169, "bike_id": "f77e1507fd050aed006972ce4ad8baa8", "lat": 38.92078766666667, "fusion_lon": 0.0, "fusion_lat": 0.0, "type": "electric_scooter", "name": "f77e1507fd050aed006972ce4ad8baa8", "is_disabled": 0, "rental_uris": {"ios": "https://dc.lft.to/lastmile_qr_scan", "android": "https://dc.lft.to/lastmile_qr_scan"}, "is_reserved": 0}, {"lon": -77.0593305, "bike_id": "422e0519eca46060c8ad49919517b957", "lat": 38.90530116666667, "fusion_lon": 0.0, "fusion_lat": 0.0, "type": "electric_scooter", "name": "422e0519eca46060c8ad49919517b957", "is_disabled": 0, "rental_uris": {"ios": "https://dc.lft.to/lastmile_qr_scan", "android": "https://dc.lft.to/lastmile_qr_scan"}, "is_reserved": 0}, {"lon": -77.025609, "bike_id": "f24ca5af1d7712b995752c9b56a2d2e1", "lat": 38.90715383333333, "fusion_lon": 0.0, "fusion_lat": 0.0, "type": "electric_scooter", "name": "f24ca5af1d7712b995752c9b56a2d2e1", "is_disabled": 0, "rental_uris": {"ios": "https://dc.lft.to/lastmile_qr_scan", "android": "https://dc.lft.to/lastmile_qr_scan"}, "is_reserved": 0}, {"lon": -77.02316766666667, "bike_id": "674be3e8a9c6fadf777f2b5868df9434", "lat": 38.908957666666666, "fusion_lon": 0.0, "fusion_lat": 0.0, "type": "electric_scooter", "name": "674be3e8a9c6fadf777f2b5868df9434", "is_disabled": 0, "rental_uris": {"ios": "https://dc.lft.to/lastmile_qr_scan", "android": "https://dc.lft.to/lastmile_qr_scan"}, "is_reserved": 0}, {"lon": -77.03741616666667, "bike_id": "40d85511bca5e02b28358ad35722429d", "lat": 38.87993566666667, "fusion_lon": 0.0, "fusion_lat": 0.0, "type": "electric_scooter", "name": "40d85511bca5e02b28358ad35722429d", "is_disabled": 0, "rental_uris": {"ios": "https://dc.lft.to/lastmile_qr_scan", "android": "https://dc.lft.to/lastmile_qr_scan"}, "is_reserved": 0}, {"lon": -77.03769916666667, "bike_id": "9f4a9018a3ea7abec4edb2fd76b4f63a", "lat": 38.9296555, "fusion_lon": 0.0, "fusion_lat": 0.0, "type": "electric_scooter", "name": "9f4a9018a3ea7abec4edb2fd76b4f63a", "is_disabled": 0, "rental_uris": {"ios": "https://dc.lft.to/lastmile_qr_scan", "android": "https://dc.lft.to/lastmile_qr_scan"}, "is_reserved": 0}, {"lon": -77.04995716666667, "bike_id": "809f901fdbcfdf77b0d2b31bbd331180", "lat": 38.900634833333335, "fusion_lon": 0.0, "fusion_lat": 0.0, "type": "electric_scooter", "name": "809f901fdbcfdf77b0d2b31bbd331180", "is_disabled": 0, "rental_uris": {"ios": "https://dc.lft.to/lastmile_qr_scan", "android": "https://dc.lft.to/lastmile_qr_scan"}, "is_reserved": 0}, {"lon": -77.033494, "bike_id": "f5d9eff4c3b4a4e9d3e37bc0ccb8ac02", "lat": 38.916842833333334, "fusion_lon": 0.0, "fusion_lat": 0.0, "type": "electric_scooter", "name": "f5d9eff4c3b4a4e9d3e37bc0ccb8ac02", "is_disabled": 0, "rental_uris": {"ios": "https://dc.lft.to/lastmile_qr_scan", "android": "https://dc.lft.to/lastmile_qr_scan"}, "is_reserved": 0}, {"lon": -77.02397116666667, "bike_id": "affd944629211a85980d88080cbb7546", "lat": 38.903003166666664, "fusion_lon": 0.0, "fusion_lat": 0.0, "type": "electric_scooter", "name": "affd944629211a85980d88080cbb7546", "is_disabled": 0, "rental_uris": {"ios": "https://dc.lft.to/lastmile_qr_scan", "android": "https://dc.lft.to/lastmile_qr_scan"}, "is_reserved": 0}, {"lon": -77.05433683333334, "bike_id": "78e8472c8243e5157b1cc4f1a3a91cb5", "lat": 38.92837766666667, "fusion_lon": 0.0, "fusion_lat": 0.0, "type": "electric_scooter", "name": "78e8472c8243e5157b1cc4f1a3a91cb5", "is_disabled": 0, "rental_uris": {"ios": "https://dc.lft.to/lastmile_qr_scan", "android": "https://dc.lft.to/lastmile_qr_scan"}, "is_reserved": 0}, {"lon": -77.04338733333333, "bike_id": "1f732ceb3f7ae7b81b1bede830b49787", "lat": 38.922086, "fusion_lon": 0.0, "fusion_lat": 0.0, "type": "electric_scooter", "name": "1f732ceb3f7ae7b81b1bede830b49787", "is_disabled": 0, "rental_uris": {"ios": "https://dc.lft.to/lastmile_qr_scan", "android": "https://dc.lft.to/lastmile_qr_scan"}, "is_reserved": 0}, {"lon": -77.03426616666667, "bike_id": "03c26708ba1103b6260c579f76927119", "lat": 38.90358, "fusion_lon": 0.0, "fusion_lat": 0.0, "type": "electric_scooter", "name": "03c26708ba1103b6260c579f76927119", "is_disabled": 0, "rental_uris": {"ios": "https://dc.lft.to/lastmile_qr_scan", "android": "https://dc.lft.to/lastmile_qr_scan"}, "is_reserved": 0}, {"lon": -77.05205033333333, "bike_id": "157fe98d9c2f193329535180678c55a9", "lat": 38.9243665, "fusion_lon": 0.0, "fusion_lat": 0.0, "type": "electric_scooter", "name": "157fe98d9c2f193329535180678c55a9", "is_disabled": 0, "rental_uris": {"ios": "https://dc.lft.to/lastmile_qr_scan", "android": "https://dc.lft.to/lastmile_qr_scan"}, "is_reserved": 0}, {"lon": -77.03806016666667, "bike_id": "3770af2ee33953235f226b98304925c5", "lat": 38.920576833333335, "fusion_lon": 0.0, "fusion_lat": 0.0, "type": "electric_scooter", "name": "3770af2ee33953235f226b98304925c5", "is_disabled": 0, "rental_uris": {"ios": "https://dc.lft.to/lastmile_qr_scan", "android": "https://dc.lft.to/lastmile_qr_scan"}, "is_reserved": 0}, {"lon": -77.04122, "bike_id": "138265ed1073570e607adece5de061ad", "lat": 38.944082, "fusion_lon": 0.0, "fusion_lat": 0.0, "type": "electric_bike", "name": "138265ed1073570e607adece5de061ad", "is_disabled": 0, "rental_uris": {"ios": "https://dc.lft.to/lastmile_qr_scan", "android": "https://dc.lft.to/lastmile_qr_scan"}, "is_reserved": 0}, {"lon": -76.98559683333333, "bike_id": "26beb980b762434e5e0261d59cc2c21d", "lat": 38.910289666666664, "fusion_lon": 0.0, "fusion_lat": 0.0, "type": "electric_scooter", "name": "26beb980b762434e5e0261d59cc2c21d", "is_disabled": 0, "rental_uris": {"ios": "https://dc.lft.to/lastmile_qr_scan", "android": "https://dc.lft.to/lastmile_qr_scan"}, "is_reserved": 0}, {"lon": -76.9982595, "bike_id": "2cdc4913e02e2e41eab803c80630aa41", "lat": 38.90716833333333, "fusion_lon": 0.0, "fusion_lat": 0.0, "type": "electric_scooter", "name": "2cdc4913e02e2e41eab803c80630aa41", "is_disabled": 0, "rental_uris": {"ios": "https://dc.lft.to/lastmile_qr_scan", "android": "https://dc.lft.to/lastmile_qr_scan"}, "is_reserved": 0}, {"lon": -77.00204883333333, "bike_id": "c4f056e6b016635135a56add94c176c9", "lat": 38.895394833333334, "fusion_lon": 0.0, "fusion_lat": 0.0, "type": "electric_scooter", "name": "c4f056e6b016635135a56add94c176c9", "is_disabled": 0, "rental_uris": {"ios": "https://dc.lft.to/lastmile_qr_scan", "android": "https://dc.lft.to/lastmile_qr_scan"}, "is_reserved": 0}, {"lon": -76.93737266666666, "bike_id": "22763877b4e5c542c583abeaf0c66dbf", "lat": 38.88995, "fusion_lon": 0.0, "fusion_lat": 0.0, "type": "electric_scooter", "name": "22763877b4e5c542c583abeaf0c66dbf", "is_disabled": 0, "rental_uris": {"ios": "https://dc.lft.to/lastmile_qr_scan", "android": "https://dc.lft.to/lastmile_qr_scan"}, "is_reserved": 0}, {"lon": -77.022217, "bike_id": "d3bf41ad1af2d175cf302443b56e2a74", "lat": 38.91118016666667, "fusion_lon": 0.0, "fusion_lat": 0.0, "type": "electric_scooter", "name": "d3bf41ad1af2d175cf302443b56e2a74", "is_disabled": 0, "rental_uris": {"ios": "https://dc.lft.to/lastmile_qr_scan", "android": "https://dc.lft.to/lastmile_qr_scan"}, "is_reserved": 0}, {"lon": -77.02265633333333, "bike_id": "367a4e936e9c26ccc38a99a2769397b7", "lat": 38.93760066666667, "fusion_lon": 0.0, "fusion_lat": 0.0, "type": "electric_scooter", "name": "367a4e936e9c26ccc38a99a2769397b7", "is_disabled": 0, "rental_uris": {"ios": "https://dc.lft.to/lastmile_qr_scan", "android": "https://dc.lft.to/lastmile_qr_scan"}, "is_reserved": 0}, {"lon": -77.022158, "bike_id": "fbf0eab6f3739c19729e33677db522ba", "lat": 38.91269583333333, "fusion_lon": 0.0, "fusion_lat": 0.0, "type": "electric_scooter", "name": "fbf0eab6f3739c19729e33677db522ba", "is_disabled": 0, "rental_uris": {"ios": "https://dc.lft.to/lastmile_qr_scan", "android": "https://dc.lft.to/lastmile_qr_scan"}, "is_reserved": 0}, {"lon": -76.99557633333333, "bike_id": "c21937410e1004369f75aa391c9ae6ad", "lat": 38.90028066666667, "fusion_lon": 0.0, "fusion_lat": 0.0, "type": "electric_scooter", "name": "c21937410e1004369f75aa391c9ae6ad", "is_disabled": 0, "rental_uris": {"ios": "https://dc.lft.to/lastmile_qr_scan", "android": "https://dc.lft.to/lastmile_qr_scan"}, "is_reserved": 0}, {"lon": -77.0056745, "bike_id": "61d04601072000c08ba56116c93548bc", "lat": 38.87434016666667, "fusion_lon": 0.0, "fusion_lat": 0.0, "type": "electric_scooter", "name": "61d04601072000c08ba56116c93548bc", "is_disabled": 0, "rental_uris": {"ios": "https://dc.lft.to/lastmile_qr_scan", "android": "https://dc.lft.to/lastmile_qr_scan"}, "is_reserved": 0}, {"lon": -76.9760295, "bike_id": "18295593cb3d056296fed89038bc0b20", "lat": 38.905674833333336, "fusion_lon": 0.0, "fusion_lat": 0.0, "type": "electric_scooter", "name": "18295593cb3d056296fed89038bc0b20", "is_disabled": 0, "rental_uris": {"ios": "https://dc.lft.to/lastmile_qr_scan", "android": "https://dc.lft.to/lastmile_qr_scan"}, "is_reserved": 0}, {"lon": -76.97324133333333, "bike_id": "d01a2e6143f43e4b6f1c136eef6889df", "lat": 38.917724666666665, "fusion_lon": 0.0, "fusion_lat": 0.0, "type": "electric_scooter", "name": "d01a2e6143f43e4b6f1c136eef6889df", "is_disabled": 0, "rental_uris": {"ios": "https://dc.lft.to/lastmile_qr_scan", "android": "https://dc.lft.to/lastmile_qr_scan"}, "is_reserved": 0}, {"lon": -77.00541183333333, "bike_id": "e4ce7ff4797a76aeb9403af6750866e8", "lat": 38.92975666666667, "fusion_lon": 0.0, "fusion_lat": 0.0, "type": "electric_scooter", "name": "e4ce7ff4797a76aeb9403af6750866e8", "is_disabled": 0, "rental_uris": {"ios": "https://dc.lft.to/lastmile_qr_scan", "android": "https://dc.lft.to/lastmile_qr_scan"}, "is_reserved": 0}, {"lon": -76.98698983333334, "bike_id": "e44a45a8bf8d65ef908debfcd2442ef3", "lat": 38.862494, "fusion_lon": 0.0, "fusion_lat": 0.0, "type": "electric_scooter", "name": "e44a45a8bf8d65ef908debfcd2442ef3", "is_disabled": 0, "rental_uris": {"ios": "https://dc.lft.to/lastmile_qr_scan", "android": "https://dc.lft.to/lastmile_qr_scan"}, "is_reserved": 0}, {"lon": -77.03214533333333, "bike_id": "a51deabe7cd1f5af78cd9ff5910d2c7c", "lat": 38.8841435, "fusion_lon": 0.0, "fusion_lat": 0.0, "type": "electric_scooter", "name": "a51deabe7cd1f5af78cd9ff5910d2c7c", "is_disabled": 0, "rental_uris": {"ios": "https://dc.lft.to/lastmile_qr_scan", "android": "https://dc.lft.to/lastmile_qr_scan"}, "is_reserved": 0}, {"lon": -77.0143, "bike_id": "3c9358688aada954a55a12aa80efefc1", "lat": 38.97211016666667, "fusion_lon": 0.0, "fusion_lat": 0.0, "type": "electric_bike", "name": "3c9358688aada954a55a12aa80efefc1", "is_disabled": 0, "rental_uris": {"ios": "https://dc.lft.to/lastmile_qr_scan", "android": "https://dc.lft.to/lastmile_qr_scan"}, "is_reserved": 0}, {"lon": -77.03885016666666, "bike_id": "988f7b1d9276f34d330b5c4c8e003d8a", "lat": 38.9325115, "fusion_lon": 0.0, "fusion_lat": 0.0, "type": "electric_scooter", "name": "988f7b1d9276f34d330b5c4c8e003d8a", "is_disabled": 0, "rental_uris": {"ios": "https://dc.lft.to/lastmile_qr_scan", "android": "https://dc.lft.to/lastmile_qr_scan"}, "is_reserved": 0}, {"lon": -77.038666, "bike_id": "d639de7ec69c8fd271f25df916633f5e", "lat": 38.91543733333334, "fusion_lon": 0.0, "fusion_lat": 0.0, "type": "electric_scooter", "name": "d639de7ec69c8fd271f25df916633f5e", "is_disabled": 0, "rental_uris": {"ios": "https://dc.lft.to/lastmile_qr_scan", "android": "https://dc.lft.to/lastmile_qr_scan"}, "is_reserved": 0}, {"lon": -77.0068155, "bike_id": "5a98ea305fdd5fee0cce2a5887332154", "lat": 38.9000125, "fusion_lon": 0.0, "fusion_lat": 0.0, "type": "electric_scooter", "name": "5a98ea305fdd5fee0cce2a5887332154", "is_disabled": 0, "rental_uris": {"ios": "https://dc.lft.to/lastmile_qr_scan", "android": "https://dc.lft.to/lastmile_qr_scan"}, "is_reserved": 0}, {"lon": -77.05457383333334, "bike_id": "24a0d8418a24581477cdc6f1b1b47891", "lat": 38.855468333333334, "fusion_lon": 0.0, "fusion_lat": 0.0, "type": "electric_bike", "name": "24a0d8418a24581477cdc6f1b1b47891", "is_disabled": 0, "rental_uris": {"ios": "https://dc.lft.to/lastmile_qr_scan", "android": "https://dc.lft.to/lastmile_qr_scan"}, "is_reserved": 0}, {"lon": -77.02188133333334, "bike_id": "1e2f2daf2ca5719df55257a28d621c99", "lat": 38.91645066666667, "fusion_lon": 0.0, "fusion_lat": 0.0, "type": "electric_scooter", "name": "1e2f2daf2ca5719df55257a28d621c99", "is_disabled": 0, "rental_uris": {"ios": "https://dc.lft.to/lastmile_qr_scan", "android": "https://dc.lft.to/lastmile_qr_scan"}, "is_reserved": 0}, {"lon": -77.028731, "bike_id": "775a09e41c515f9ce6ca63ed715cae18", "lat": 38.88478466666667, "fusion_lon": 0.0, "fusion_lat": 0.0, "type": "electric_scooter", "name": "775a09e41c515f9ce6ca63ed715cae18", "is_disabled": 0, "rental_uris": {"ios": "https://dc.lft.to/lastmile_qr_scan", "android": "https://dc.lft.to/lastmile_qr_scan"}, "is_reserved": 0}, {"lon": -76.97620333333333, "bike_id": "281a6753428b33a6ae94f1931a75012e", "lat": 38.92645566666667, "fusion_lon": 0.0, "fusion_lat": 0.0, "type": "electric_scooter", "name": "281a6753428b33a6ae94f1931a75012e", "is_disabled": 0, "rental_uris": {"ios": "https://dc.lft.to/lastmile_qr_scan", "android": "https://dc.lft.to/lastmile_qr_scan"}, "is_reserved": 0}, {"lon": -77.04338066666666, "bike_id": "bc076b4d4aec568c4df3dd3cf22d62e8", "lat": 38.92133, "fusion_lon": 0.0, "fusion_lat": 0.0, "type": "electric_scooter", "name": "bc076b4d4aec568c4df3dd3cf22d62e8", "is_disabled": 0, "rental_uris": {"ios": "https://dc.lft.to/lastmile_qr_scan", "android": "https://dc.lft.to/lastmile_qr_scan"}, "is_reserved": 0}, {"lon": -77.0020105, "bike_id": "96836d121f0e0f88dfde5d2a9d4839aa", "lat": 38.90231933333333, "fusion_lon": 0.0, "fusion_lat": 0.0, "type": "electric_scooter", "name": "96836d121f0e0f88dfde5d2a9d4839aa", "is_disabled": 0, "rental_uris": {"ios": "https://dc.lft.to/lastmile_qr_scan", "android": "https://dc.lft.to/lastmile_qr_scan"}, "is_reserved": 0}, {"lon": -77.018712, "bike_id": "7c28a29b5ba765df1cdf909495e2d515", "lat": 38.951517, "fusion_lon": 0.0, "fusion_lat": 0.0, "type": "electric_scooter", "name": "7c28a29b5ba765df1cdf909495e2d515", "is_disabled": 0, "rental_uris": {"ios": "https://dc.lft.to/lastmile_qr_scan", "android": "https://dc.lft.to/lastmile_qr_scan"}, "is_reserved": 0}, {"lon": -77.1298425, "bike_id": "d0fd0962be8bc6597d4044df256acafc", "lat": 38.7998265, "fusion_lon": 0.0, "fusion_lat": 0.0, "type": "electric_bike", "name": "d0fd0962be8bc6597d4044df256acafc", "is_disabled": 0, "rental_uris": {"ios": "https://dc.lft.to/lastmile_qr_scan", "android": "https://dc.lft.to/lastmile_qr_scan"}, "is_reserved": 0}, {"lon": -76.9817315, "bike_id": "0396438f35ab462280382147f4467794", "lat": 38.904411, "fusion_lon": 0.0, "fusion_lat": 0.0, "type": "electric_scooter", "name": "0396438f35ab462280382147f4467794", "is_disabled": 0, "rental_uris": {"ios": "https://dc.lft.to/lastmile_qr_scan", "android": "https://dc.lft.to/lastmile_qr_scan"}, "is_reserved": 0}, {"lon": -77.02152016666666, "bike_id": "1f0d733d582ae5a763715a2b51d3650a", "lat": 38.879047666666665, "fusion_lon": 0.0, "fusion_lat": 0.0, "type": "electric_scooter", "name": "1f0d733d582ae5a763715a2b51d3650a", "is_disabled": 0, "rental_uris": {"ios": "https://dc.lft.to/lastmile_qr_scan", "android": "https://dc.lft.to/lastmile_qr_scan"}, "is_reserved": 0}, {"lon": -76.981121, "bike_id": "2a513663e9b8cb780867975c3236b323", "lat": 38.9039715, "fusion_lon": 0.0, "fusion_lat": 0.0, "type": "electric_scooter", "name": "2a513663e9b8cb780867975c3236b323", "is_disabled": 0, "rental_uris": {"ios": "https://dc.lft.to/lastmile_qr_scan", "android": "https://dc.lft.to/lastmile_qr_scan"}, "is_reserved": 0}, {"lon": -77.0265115, "bike_id": "bbb75a8158032cac2b08718cb0407467", "lat": 38.892216, "fusion_lon": 0.0, "fusion_lat": 0.0, "type": "electric_scooter", "name": "bbb75a8158032cac2b08718cb0407467", "is_disabled": 0, "rental_uris": {"ios": "https://dc.lft.to/lastmile_qr_scan", "android": "https://dc.lft.to/lastmile_qr_scan"}, "is_reserved": 0}, {"lon": -77.02347383333333, "bike_id": "acb9bfaf4e4c36f055ea8d35ebe28656", "lat": 38.92243783333333, "fusion_lon": 0.0, "fusion_lat": 0.0, "type": "electric_scooter", "name": "acb9bfaf4e4c36f055ea8d35ebe28656", "is_disabled": 0, "rental_uris": {"ios": "https://dc.lft.to/lastmile_qr_scan", "android": "https://dc.lft.to/lastmile_qr_scan"}, "is_reserved": 0}, {"lon": -76.98694983333333, "bike_id": "a90d0b15ef3601dfc669ca3e694e863d", "lat": 38.91214766666667, "fusion_lon": 0.0, "fusion_lat": 0.0, "type": "electric_scooter", "name": "a90d0b15ef3601dfc669ca3e694e863d", "is_disabled": 0, "rental_uris": {"ios": "https://dc.lft.to/lastmile_qr_scan", "android": "https://dc.lft.to/lastmile_qr_scan"}, "is_reserved": 0}, {"lon": -77.0216635, "bike_id": "b15717ffbe06afb14ce7ab0ff230a5c5", "lat": 38.90966133333333, "fusion_lon": 0.0, "fusion_lat": 0.0, "type": "electric_scooter", "name": "b15717ffbe06afb14ce7ab0ff230a5c5", "is_disabled": 0, "rental_uris": {"ios": "https://dc.lft.to/lastmile_qr_scan", "android": "https://dc.lft.to/lastmile_qr_scan"}, "is_reserved": 0}, {"lon": -77.02385116666666, "bike_id": "9744e1d56e0e1c9d5242c0bfabea2f45", "lat": 38.909417, "fusion_lon": 0.0, "fusion_lat": 0.0, "type": "electric_scooter", "name": "9744e1d56e0e1c9d5242c0bfabea2f45", "is_disabled": 0, "rental_uris": {"ios": "https://dc.lft.to/lastmile_qr_scan", "android": "https://dc.lft.to/lastmile_qr_scan"}, "is_reserved": 0}, {"lon": -77.03324633333334, "bike_id": "5001c34efc160212a226212c7f4ce66d", "lat": 38.88887316666667, "fusion_lon": 0.0, "fusion_lat": 0.0, "type": "electric_scooter", "name": "5001c34efc160212a226212c7f4ce66d", "is_disabled": 0, "rental_uris": {"ios": "https://dc.lft.to/lastmile_qr_scan", "android": "https://dc.lft.to/lastmile_qr_scan"}, "is_reserved": 0}, {"lon": -77.0031615, "bike_id": "3b3be52ec884f910d01abbeb8dddbb32", "lat": 38.9189395, "fusion_lon": 0.0, "fusion_lat": 0.0, "type": "electric_scooter", "name": "3b3be52ec884f910d01abbeb8dddbb32", "is_disabled": 0, "rental_uris": {"ios": "https://dc.lft.to/lastmile_qr_scan", "android": "https://dc.lft.to/lastmile_qr_scan"}, "is_reserved": 0}, {"lon": -77.033523, "bike_id": "d02fe334f171645671d1a5143b050dfa", "lat": 38.89855983333333, "fusion_lon": 0.0, "fusion_lat": 0.0, "type": "electric_scooter", "name": "d02fe334f171645671d1a5143b050dfa", "is_disabled": 0, "rental_uris": {"ios": "https://dc.lft.to/lastmile_qr_scan", "android": "https://dc.lft.to/lastmile_qr_scan"}, "is_reserved": 0}, {"lon": -77.02275116666667, "bike_id": "4674265642819c2d1125842c778e8faf", "lat": 38.87826066666667, "fusion_lon": 0.0, "fusion_lat": 0.0, "type": "electric_scooter", "name": "4674265642819c2d1125842c778e8faf", "is_disabled": 0, "rental_uris": {"ios": "https://dc.lft.to/lastmile_qr_scan", "android": "https://dc.lft.to/lastmile_qr_scan"}, "is_reserved": 0}, {"lon": -77.03622366666667, "bike_id": "c2536e9a86d94ade685e0e2ece37f29e", "lat": 38.93154283333333, "fusion_lon": 0.0, "fusion_lat": 0.0, "type": "electric_scooter", "name": "c2536e9a86d94ade685e0e2ece37f29e", "is_disabled": 0, "rental_uris": {"ios": "https://dc.lft.to/lastmile_qr_scan", "android": "https://dc.lft.to/lastmile_qr_scan"}, "is_reserved": 0}, {"lon": -77.12525866666667, "bike_id": "872cd88d6e15ec6e87774ca87bd31458", "lat": 39.05631833333333, "fusion_lon": 0.0, "fusion_lat": 0.0, "type": "electric_bike", "name": "872cd88d6e15ec6e87774ca87bd31458", "is_disabled": 0, "rental_uris": {"ios": "https://dc.lft.to/lastmile_qr_scan", "android": "https://dc.lft.to/lastmile_qr_scan"}, "is_reserved": 0}, {"lon": -76.97635566666666, "bike_id": "b8ce2b1fb9ea2060163ed23aa9ac9fa2", "lat": 38.905694833333335, "fusion_lon": 0.0, "fusion_lat": 0.0, "type": "electric_scooter", "name": "b8ce2b1fb9ea2060163ed23aa9ac9fa2", "is_disabled": 0, "rental_uris": {"ios": "https://dc.lft.to/lastmile_qr_scan", "android": "https://dc.lft.to/lastmile_qr_scan"}, "is_reserved": 0}, {"lon": -77.02388483333333, "bike_id": "21ac4f657b25c96fff1142ac3d6e8e61", "lat": 38.91521933333333, "fusion_lon": 0.0, "fusion_lat": 0.0, "type": "electric_scooter", "name": "21ac4f657b25c96fff1142ac3d6e8e61", "is_disabled": 0, "rental_uris": {"ios": "https://dc.lft.to/lastmile_qr_scan", "android": "https://dc.lft.to/lastmile_qr_scan"}, "is_reserved": 0}, {"lon": -77.02601266666667, "bike_id": "3bb800d9335dc7dee523f5bab10bb0b1", "lat": 38.88360683333333, "fusion_lon": 0.0, "fusion_lat": 0.0, "type": "electric_scooter", "name": "3bb800d9335dc7dee523f5bab10bb0b1", "is_disabled": 0, "rental_uris": {"ios": "https://dc.lft.to/lastmile_qr_scan", "android": "https://dc.lft.to/lastmile_qr_scan"}, "is_reserved": 0}, {"lon": -77.07456233333333, "bike_id": "66ee17a741fe49dfc6825c9d803d3445", "lat": 38.945037666666664, "fusion_lon": 0.0, "fusion_lat": 0.0, "type": "electric_scooter", "name": "66ee17a741fe49dfc6825c9d803d3445", "is_disabled": 0, "rental_uris": {"ios": "https://dc.lft.to/lastmile_qr_scan", "android": "https://dc.lft.to/lastmile_qr_scan"}, "is_reserved": 0}, {"lon": -77.03674666666667, "bike_id": "4fc053833abd9a7cf62cc77095656b1e", "lat": 38.908232166666664, "fusion_lon": 0.0, "fusion_lat": 0.0, "type": "electric_scooter", "name": "4fc053833abd9a7cf62cc77095656b1e", "is_disabled": 0, "rental_uris": {"ios": "https://dc.lft.to/lastmile_qr_scan", "android": "https://dc.lft.to/lastmile_qr_scan"}, "is_reserved": 0}, {"lon": -76.9938815, "bike_id": "262a88b7de2dbcb937a52c1677107c31", "lat": 38.900475166666666, "fusion_lon": 0.0, "fusion_lat": 0.0, "type": "electric_scooter", "name": "262a88b7de2dbcb937a52c1677107c31", "is_disabled": 0, "rental_uris": {"ios": "https://dc.lft.to/lastmile_qr_scan", "android": "https://dc.lft.to/lastmile_qr_scan"}, "is_reserved": 0}, {"lon": -77.03543166666667, "bike_id": "09c11238f4c9e45acc2c8ad16c05b86c", "lat": 38.90351533333333, "fusion_lon": 0.0, "fusion_lat": 0.0, "type": "electric_scooter", "name": "09c11238f4c9e45acc2c8ad16c05b86c", "is_disabled": 0, "rental_uris": {"ios": "https://dc.lft.to/lastmile_qr_scan", "android": "https://dc.lft.to/lastmile_qr_scan"}, "is_reserved": 0}, {"lon": -77.04587316666667, "bike_id": "43a9075ed9f5d6b000c18f5b8c8dacf1", "lat": 38.91354883333333, "fusion_lon": 0.0, "fusion_lat": 0.0, "type": "electric_scooter", "name": "43a9075ed9f5d6b000c18f5b8c8dacf1", "is_disabled": 0, "rental_uris": {"ios": "https://dc.lft.to/lastmile_qr_scan", "android": "https://dc.lft.to/lastmile_qr_scan"}, "is_reserved": 0}, {"lon": -77.010726, "bike_id": "d0bd7c493b72ef9804c577b25aaf7bd9", "lat": 38.894377166666665, "fusion_lon": 0.0, "fusion_lat": 0.0, "type": "electric_scooter", "name": "d0bd7c493b72ef9804c577b25aaf7bd9", "is_disabled": 0, "rental_uris": {"ios": "https://dc.lft.to/lastmile_qr_scan", "android": "https://dc.lft.to/lastmile_qr_scan"}, "is_reserved": 0}, {"lon": -77.06293966666667, "bike_id": "6704d6a2c09fde620ed803f8b389f934", "lat": 38.90678716666667, "fusion_lon": 0.0, "fusion_lat": 0.0, "type": "electric_scooter", "name": "6704d6a2c09fde620ed803f8b389f934", "is_disabled": 0, "rental_uris": {"ios": "https://dc.lft.to/lastmile_qr_scan", "android": "https://dc.lft.to/lastmile_qr_scan"}, "is_reserved": 0}, {"lon": -76.99874283333334, "bike_id": "c38331ced67e2da4e826bb7677d506c7", "lat": 38.90015983333333, "fusion_lon": 0.0, "fusion_lat": 0.0, "type": "electric_scooter", "name": "c38331ced67e2da4e826bb7677d506c7", "is_disabled": 0, "rental_uris": {"ios": "https://dc.lft.to/lastmile_qr_scan", "android": "https://dc.lft.to/lastmile_qr_scan"}, "is_reserved": 0}, {"lon": -76.98556933333333, "bike_id": "53310d2d1bb61c7e00bd6f2ab464433a", "lat": 38.9250245, "fusion_lon": 0.0, "fusion_lat": 0.0, "type": "electric_bike", "name": "53310d2d1bb61c7e00bd6f2ab464433a", "is_disabled": 0, "rental_uris": {"ios": "https://dc.lft.to/lastmile_qr_scan", "android": "https://dc.lft.to/lastmile_qr_scan"}, "is_reserved": 0}, {"lon": -77.03647216666667, "bike_id": "20da9c4dc3e9e10945ef704a764584fe", "lat": 38.936651166666664, "fusion_lon": 0.0, "fusion_lat": 0.0, "type": "electric_scooter", "name": "20da9c4dc3e9e10945ef704a764584fe", "is_disabled": 0, "rental_uris": {"ios": "https://dc.lft.to/lastmile_qr_scan", "android": "https://dc.lft.to/lastmile_qr_scan"}, "is_reserved": 0}, {"lon": -77.015235, "bike_id": "7f98d1abac8ff53d02359032f42100e3", "lat": 38.88498366666666, "fusion_lon": 0.0, "fusion_lat": 0.0, "type": "electric_scooter", "name": "7f98d1abac8ff53d02359032f42100e3", "is_disabled": 0, "rental_uris": {"ios": "https://dc.lft.to/lastmile_qr_scan", "android": "https://dc.lft.to/lastmile_qr_scan"}, "is_reserved": 0}, {"lon": -77.0132575, "bike_id": "0e6649e5699ea9b9573ae392d9f07ffb", "lat": 38.88036566666667, "fusion_lon": 0.0, "fusion_lat": 0.0, "type": "electric_bike", "name": "0e6649e5699ea9b9573ae392d9f07ffb", "is_disabled": 0, "rental_uris": {"ios": "https://dc.lft.to/lastmile_qr_scan", "android": "https://dc.lft.to/lastmile_qr_scan"}, "is_reserved": 0}, {"lon": -77.03358416666667, "bike_id": "8f963a685b3a101a793a53534a5bea32", "lat": 38.89224033333333, "fusion_lon": 0.0, "fusion_lat": 0.0, "type": "electric_scooter", "name": "8f963a685b3a101a793a53534a5bea32", "is_disabled": 0, "rental_uris": {"ios": "https://dc.lft.to/lastmile_qr_scan", "android": "https://dc.lft.to/lastmile_qr_scan"}, "is_reserved": 0}, {"lon": -77.00008666666666, "bike_id": "3949ab095ca5a016237e083b2a2e5845", "lat": 38.89741716666666, "fusion_lon": 0.0, "fusion_lat": 0.0, "type": "electric_scooter", "name": "3949ab095ca5a016237e083b2a2e5845", "is_disabled": 0, "rental_uris": {"ios": "https://dc.lft.to/lastmile_qr_scan", "android": "https://dc.lft.to/lastmile_qr_scan"}, "is_reserved": 0}, {"lon": -77.06491866666667, "bike_id": "a013b4252b9f5ea94e82c8cca3f0702e", "lat": 38.909669666666666, "fusion_lon": 0.0, "fusion_lat": 0.0, "type": "electric_scooter", "name": "a013b4252b9f5ea94e82c8cca3f0702e", "is_disabled": 0, "rental_uris": {"ios": "https://dc.lft.to/lastmile_qr_scan", "android": "https://dc.lft.to/lastmile_qr_scan"}, "is_reserved": 0}, {"lon": -76.964978, "bike_id": "69ce028f559f370addd8628e7ca4521a", "lat": 38.876432666666666, "fusion_lon": 0.0, "fusion_lat": 0.0, "type": "electric_scooter", "name": "69ce028f559f370addd8628e7ca4521a", "is_disabled": 0, "rental_uris": {"ios": "https://dc.lft.to/lastmile_qr_scan", "android": "https://dc.lft.to/lastmile_qr_scan"}, "is_reserved": 0}, {"lon": -77.02210666666667, "bike_id": "365cee275ddc7bdba3b8c0fc1e4f8ed1", "lat": 38.91450483333333, "fusion_lon": 0.0, "fusion_lat": 0.0, "type": "electric_scooter", "name": "365cee275ddc7bdba3b8c0fc1e4f8ed1", "is_disabled": 0, "rental_uris": {"ios": "https://dc.lft.to/lastmile_qr_scan", "android": "https://dc.lft.to/lastmile_qr_scan"}, "is_reserved": 0}, {"lon": -77.10812016666667, "bike_id": "a795260c8190fd34f6c1a49fda33e39a", "lat": 38.81199266666667, "fusion_lon": 0.0, "fusion_lat": 0.0, "type": "electric_bike", "name": "a795260c8190fd34f6c1a49fda33e39a", "is_disabled": 0, "rental_uris": {"ios": "https://dc.lft.to/lastmile_qr_scan", "android": "https://dc.lft.to/lastmile_qr_scan"}, "is_reserved": 0}, {"lon": -77.03353533333333, "bike_id": "8e0fb263c3c30a16994cd330444ffc78", "lat": 38.94506033333333, "fusion_lon": 0.0, "fusion_lat": 0.0, "type": "electric_bike", "name": "8e0fb263c3c30a16994cd330444ffc78", "is_disabled": 0, "rental_uris": {"ios": "https://dc.lft.to/lastmile_qr_scan", "android": "https://dc.lft.to/lastmile_qr_scan"}, "is_reserved": 0}, {"lon": -76.96913566666667, "bike_id": "5113a1a397b48087eeac9cb540b42c3d", "lat": 38.8460885, "fusion_lon": 0.0, "fusion_lat": 0.0, "type": "electric_bike", "name": "5113a1a397b48087eeac9cb540b42c3d", "is_disabled": 0, "rental_uris": {"ios": "https://dc.lft.to/lastmile_qr_scan", "android": "https://dc.lft.to/lastmile_qr_scan"}, "is_reserved": 0}, {"lon": -77.02368116666666, "bike_id": "7c612ba02e788f924ca487851f270770", "lat": 38.899563666666666, "fusion_lon": 0.0, "fusion_lat": 0.0, "type": "electric_scooter", "name": "7c612ba02e788f924ca487851f270770", "is_disabled": 0, "rental_uris": {"ios": "https://dc.lft.to/lastmile_qr_scan", "android": "https://dc.lft.to/lastmile_qr_scan"}, "is_reserved": 0}, {"lon": -77.03187066666666, "bike_id": "4af4fce230aae3633ff8615c3c2b633a", "lat": 38.91428416666667, "fusion_lon": 0.0, "fusion_lat": 0.0, "type": "electric_scooter", "name": "4af4fce230aae3633ff8615c3c2b633a", "is_disabled": 0, "rental_uris": {"ios": "https://dc.lft.to/lastmile_qr_scan", "android": "https://dc.lft.to/lastmile_qr_scan"}, "is_reserved": 0}, {"lon": -77.11593183333333, "bike_id": "f144b4defcfde7f6465e2412c4fcd348", "lat": 39.074927333333335, "fusion_lon": 0.0, "fusion_lat": 0.0, "type": "electric_bike", "name": "f144b4defcfde7f6465e2412c4fcd348", "is_disabled": 0, "rental_uris": {"ios": "https://dc.lft.to/lastmile_qr_scan", "android": "https://dc.lft.to/lastmile_qr_scan"}, "is_reserved": 0}, {"lon": -77.02256366666667, "bike_id": "dbb4c43760ac922fe3585fcce28105df", "lat": 38.89982083333334, "fusion_lon": 0.0, "fusion_lat": 0.0, "type": "electric_scooter", "name": "dbb4c43760ac922fe3585fcce28105df", "is_disabled": 0, "rental_uris": {"ios": "https://dc.lft.to/lastmile_qr_scan", "android": "https://dc.lft.to/lastmile_qr_scan"}, "is_reserved": 0}, {"lon": -77.01418183333334, "bike_id": "19aaea43c5eadf5df53d62a1c77ad1ce", "lat": 38.928425, "fusion_lon": 0.0, "fusion_lat": 0.0, "type": "electric_scooter", "name": "19aaea43c5eadf5df53d62a1c77ad1ce", "is_disabled": 0, "rental_uris": {"ios": "https://dc.lft.to/lastmile_qr_scan", "android": "https://dc.lft.to/lastmile_qr_scan"}, "is_reserved": 0}, {"lon": -76.99702966666666, "bike_id": "bf38378b70e5fc8f4216032b3560e9bb", "lat": 38.9079765, "fusion_lon": 0.0, "fusion_lat": 0.0, "type": "electric_scooter", "name": "bf38378b70e5fc8f4216032b3560e9bb", "is_disabled": 0, "rental_uris": {"ios": "https://dc.lft.to/lastmile_qr_scan", "android": "https://dc.lft.to/lastmile_qr_scan"}, "is_reserved": 0}, {"lon": -77.04343616666667, "bike_id": "a2e7b464693a384f2cd8dec891aa77ca", "lat": 38.91515166666667, "fusion_lon": 0.0, "fusion_lat": 0.0, "type": "electric_scooter", "name": "a2e7b464693a384f2cd8dec891aa77ca", "is_disabled": 0, "rental_uris": {"ios": "https://dc.lft.to/lastmile_qr_scan", "android": "https://dc.lft.to/lastmile_qr_scan"}, "is_reserved": 0}, {"lon": -77.04217933333334, "bike_id": "23f26ee81003aeec6957d363415b70c6", "lat": 38.92125566666667, "fusion_lon": 0.0, "fusion_lat": 0.0, "type": "electric_scooter", "name": "23f26ee81003aeec6957d363415b70c6", "is_disabled": 0, "rental_uris": {"ios": "https://dc.lft.to/lastmile_qr_scan", "android": "https://dc.lft.to/lastmile_qr_scan"}, "is_reserved": 0}, {"lon": -76.98926783333333, "bike_id": "44416e9a8cce038f2c98045294fd3096", "lat": 38.858108333333334, "fusion_lon": 0.0, "fusion_lat": 0.0, "type": "electric_scooter", "name": "44416e9a8cce038f2c98045294fd3096", "is_disabled": 0, "rental_uris": {"ios": "https://dc.lft.to/lastmile_qr_scan", "android": "https://dc.lft.to/lastmile_qr_scan"}, "is_reserved": 0}, {"lon": -77.02113816666666, "bike_id": "ed23f2e4a8803fea7b9489d04f046579", "lat": 38.9059935, "fusion_lon": 0.0, "fusion_lat": 0.0, "type": "electric_scooter", "name": "ed23f2e4a8803fea7b9489d04f046579", "is_disabled": 0, "rental_uris": {"ios": "https://dc.lft.to/lastmile_qr_scan", "android": "https://dc.lft.to/lastmile_qr_scan"}, "is_reserved": 0}, {"lon": -76.99262, "bike_id": "1902bfb64f3514f79ed0fff8d7366bd1", "lat": 38.89943366666667, "fusion_lon": 0.0, "fusion_lat": 0.0, "type": "electric_scooter", "name": "1902bfb64f3514f79ed0fff8d7366bd1", "is_disabled": 0, "rental_uris": {"ios": "https://dc.lft.to/lastmile_qr_scan", "android": "https://dc.lft.to/lastmile_qr_scan"}, "is_reserved": 0}, {"lon": -77.03863433333333, "bike_id": "54e927e9a14c35db5d327326cbca867b", "lat": 38.931686666666664, "fusion_lon": 0.0, "fusion_lat": 0.0, "type": "electric_scooter", "name": "54e927e9a14c35db5d327326cbca867b", "is_disabled": 0, "rental_uris": {"ios": "https://dc.lft.to/lastmile_qr_scan", "android": "https://dc.lft.to/lastmile_qr_scan"}, "is_reserved": 0}, {"lon": -77.05249916666666, "bike_id": "cb879f007323189730831c6af66f04c5", "lat": 38.9001195, "fusion_lon": 0.0, "fusion_lat": 0.0, "type": "electric_scooter", "name": "cb879f007323189730831c6af66f04c5", "is_disabled": 0, "rental_uris": {"ios": "https://dc.lft.to/lastmile_qr_scan", "android": "https://dc.lft.to/lastmile_qr_scan"}, "is_reserved": 0}, {"lon": -77.043947, "bike_id": "fdeb76013b490028e8cf13b14ce8183b", "lat": 39.047155833333335, "fusion_lon": 0.0, "fusion_lat": 0.0, "type": "electric_bike", "name": "fdeb76013b490028e8cf13b14ce8183b", "is_disabled": 0, "rental_uris": {"ios": "https://dc.lft.to/lastmile_qr_scan", "android": "https://dc.lft.to/lastmile_qr_scan"}, "is_reserved": 0}, {"lon": -77.032335, "bike_id": "aef5d649cbc3ba3ad2ff010e934f244a", "lat": 38.92977666666667, "fusion_lon": 0.0, "fusion_lat": 0.0, "type": "electric_scooter", "name": "aef5d649cbc3ba3ad2ff010e934f244a", "is_disabled": 0, "rental_uris": {"ios": "https://dc.lft.to/lastmile_qr_scan", "android": "https://dc.lft.to/lastmile_qr_scan"}, "is_reserved": 0}, {"lon": -77.0439345, "bike_id": "215c64868add6550c6e5ee1b0e4bf047", "lat": 38.92442783333333, "fusion_lon": 0.0, "fusion_lat": 0.0, "type": "electric_scooter", "name": "215c64868add6550c6e5ee1b0e4bf047", "is_disabled": 0, "rental_uris": {"ios": "https://dc.lft.to/lastmile_qr_scan", "android": "https://dc.lft.to/lastmile_qr_scan"}, "is_reserved": 0}, {"lon": -77.022351, "bike_id": "fff500bc53caab965ea57763a1ae0cda", "lat": 38.92601783333333, "fusion_lon": 0.0, "fusion_lat": 0.0, "type": "electric_scooter", "name": "fff500bc53caab965ea57763a1ae0cda", "is_disabled": 0, "rental_uris": {"ios": "https://dc.lft.to/lastmile_qr_scan", "android": "https://dc.lft.to/lastmile_qr_scan"}, "is_reserved": 0}, {"lon": -77.07689966666666, "bike_id": "273fb49d94afa2dfbc1c1796b54d1389", "lat": 38.888513, "fusion_lon": 0.0, "fusion_lat": 0.0, "type": "electric_bike", "name": "273fb49d94afa2dfbc1c1796b54d1389", "is_disabled": 0, "rental_uris": {"ios": "https://dc.lft.to/lastmile_qr_scan", "android": "https://dc.lft.to/lastmile_qr_scan"}, "is_reserved": 0}, {"lon": -77.00367716666666, "bike_id": "8f02ad41244140e388fe02e099e041bf", "lat": 38.88714133333333, "fusion_lon": 0.0, "fusion_lat": 0.0, "type": "electric_scooter", "name": "8f02ad41244140e388fe02e099e041bf", "is_disabled": 0, "rental_uris": {"ios": "https://dc.lft.to/lastmile_qr_scan", "android": "https://dc.lft.to/lastmile_qr_scan"}, "is_reserved": 0}, {"lon": -77.03555166666666, "bike_id": "2f92dbaf1fdd9c369495605c098ca143", "lat": 38.92413633333334, "fusion_lon": 0.0, "fusion_lat": 0.0, "type": "electric_scooter", "name": "2f92dbaf1fdd9c369495605c098ca143", "is_disabled": 0, "rental_uris": {"ios": "https://dc.lft.to/lastmile_qr_scan", "android": "https://dc.lft.to/lastmile_qr_scan"}, "is_reserved": 0}, {"lon": -77.13103866666667, "bike_id": "5c3b999f48388d05d3f598e7ece9ad1c", "lat": 39.024296166666666, "fusion_lon": 0.0, "fusion_lat": 0.0, "type": "electric_bike", "name": "5c3b999f48388d05d3f598e7ece9ad1c", "is_disabled": 0, "rental_uris": {"ios": "https://dc.lft.to/lastmile_qr_scan", "android": "https://dc.lft.to/lastmile_qr_scan"}, "is_reserved": 0}, {"lon": -77.011186, "bike_id": "65595bb090cccd5fac363815f6ff53a9", "lat": 38.885487499999996, "fusion_lon": 0.0, "fusion_lat": 0.0, "type": "electric_scooter", "name": "65595bb090cccd5fac363815f6ff53a9", "is_disabled": 0, "rental_uris": {"ios": "https://dc.lft.to/lastmile_qr_scan", "android": "https://dc.lft.to/lastmile_qr_scan"}, "is_reserved": 0}, {"lon": -77.04342016666666, "bike_id": "1988428dc1f7bb64504a83bcd838fe46", "lat": 38.906281, "fusion_lon": 0.0, "fusion_lat": 0.0, "type": "electric_scooter", "name": "1988428dc1f7bb64504a83bcd838fe46", "is_disabled": 0, "rental_uris": {"ios": "https://dc.lft.to/lastmile_qr_scan", "android": "https://dc.lft.to/lastmile_qr_scan"}, "is_reserved": 0}, {"lon": -77.056328, "bike_id": "eae949ba2fd0888be239993875882741", "lat": 38.96068116666667, "fusion_lon": 0.0, "fusion_lat": 0.0, "type": "electric_scooter", "name": "eae949ba2fd0888be239993875882741", "is_disabled": 0, "rental_uris": {"ios": "https://dc.lft.to/lastmile_qr_scan", "android": "https://dc.lft.to/lastmile_qr_scan"}, "is_reserved": 0}, {"lon": -77.02963266666667, "bike_id": "a4ee88a94437dd03522347d678637040", "lat": 38.916755333333334, "fusion_lon": 0.0, "fusion_lat": 0.0, "type": "electric_scooter", "name": "a4ee88a94437dd03522347d678637040", "is_disabled": 0, "rental_uris": {"ios": "https://dc.lft.to/lastmile_qr_scan", "android": "https://dc.lft.to/lastmile_qr_scan"}, "is_reserved": 0}, {"lon": -76.988244, "bike_id": "75f53b70f78d7c7b2a3ca3a5e4c7a35b", "lat": 38.90039933333333, "fusion_lon": 0.0, "fusion_lat": 0.0, "type": "electric_scooter", "name": "75f53b70f78d7c7b2a3ca3a5e4c7a35b", "is_disabled": 0, "rental_uris": {"ios": "https://dc.lft.to/lastmile_qr_scan", "android": "https://dc.lft.to/lastmile_qr_scan"}, "is_reserved": 0}, {"lon": -77.036161, "bike_id": "ee163e91038aefd74e4cde4c23d48a0c", "lat": 38.923385833333334, "fusion_lon": 0.0, "fusion_lat": 0.0, "type": "electric_scooter", "name": "ee163e91038aefd74e4cde4c23d48a0c", "is_disabled": 0, "rental_uris": {"ios": "https://dc.lft.to/lastmile_qr_scan", "android": "https://dc.lft.to/lastmile_qr_scan"}, "is_reserved": 0}, {"lon": -77.01600016666667, "bike_id": "7c074243e758be8b4e35ce55fc796c03", "lat": 38.89966966666667, "fusion_lon": 0.0, "fusion_lat": 0.0, "type": "electric_scooter", "name": "7c074243e758be8b4e35ce55fc796c03", "is_disabled": 0, "rental_uris": {"ios": "https://dc.lft.to/lastmile_qr_scan", "android": "https://dc.lft.to/lastmile_qr_scan"}, "is_reserved": 0}, {"lon": -77.08460733333334, "bike_id": "097a75b0c2f0c298f34e5b10bb419801", "lat": 38.84814216666667, "fusion_lon": 0.0, "fusion_lat": 0.0, "type": "electric_bike", "name": "097a75b0c2f0c298f34e5b10bb419801", "is_disabled": 0, "rental_uris": {"ios": "https://dc.lft.to/lastmile_qr_scan", "android": "https://dc.lft.to/lastmile_qr_scan"}, "is_reserved": 0}, {"lon": -77.07155833333333, "bike_id": "4d3a5ecf67344a41b9adb02a30bc78e7", "lat": 38.9087185, "fusion_lon": 0.0, "fusion_lat": 0.0, "type": "electric_scooter", "name": "4d3a5ecf67344a41b9adb02a30bc78e7", "is_disabled": 0, "rental_uris": {"ios": "https://dc.lft.to/lastmile_qr_scan", "android": "https://dc.lft.to/lastmile_qr_scan"}, "is_reserved": 0}, {"lon": -77.03272633333333, "bike_id": "e4fb6fac0e15e760ba59f1708743d300", "lat": 38.91810783333333, "fusion_lon": 0.0, "fusion_lat": 0.0, "type": "electric_scooter", "name": "e4fb6fac0e15e760ba59f1708743d300", "is_disabled": 0, "rental_uris": {"ios": "https://dc.lft.to/lastmile_qr_scan", "android": "https://dc.lft.to/lastmile_qr_scan"}, "is_reserved": 0}, {"lon": -77.04251266666667, "bike_id": "7b6f5b19b860182f107b2cd6f2ada2c9", "lat": 38.92168783333334, "fusion_lon": 0.0, "fusion_lat": 0.0, "type": "electric_scooter", "name": "7b6f5b19b860182f107b2cd6f2ada2c9", "is_disabled": 0, "rental_uris": {"ios": "https://dc.lft.to/lastmile_qr_scan", "android": "https://dc.lft.to/lastmile_qr_scan"}, "is_reserved": 0}, {"lon": -77.02419116666667, "bike_id": "b40082e32bcc3fa2d4d3087afe0096fe", "lat": 38.92648966666667, "fusion_lon": 0.0, "fusion_lat": 0.0, "type": "electric_scooter", "name": "b40082e32bcc3fa2d4d3087afe0096fe", "is_disabled": 0, "rental_uris": {"ios": "https://dc.lft.to/lastmile_qr_scan", "android": "https://dc.lft.to/lastmile_qr_scan"}, "is_reserved": 0}, {"lon": -77.00360166666667, "bike_id": "b21493e02a6ee7ca3a1d9e270d4163bc", "lat": 38.920427833333335, "fusion_lon": 0.0, "fusion_lat": 0.0, "type": "electric_scooter", "name": "b21493e02a6ee7ca3a1d9e270d4163bc", "is_disabled": 0, "rental_uris": {"ios": "https://dc.lft.to/lastmile_qr_scan", "android": "https://dc.lft.to/lastmile_qr_scan"}, "is_reserved": 0}, {"lon": -77.0341035, "bike_id": "ed198da2670cbb85590639a168c9a449", "lat": 38.922486166666665, "fusion_lon": 0.0, "fusion_lat": 0.0, "type": "electric_scooter", "name": "ed198da2670cbb85590639a168c9a449", "is_disabled": 0, "rental_uris": {"ios": "https://dc.lft.to/lastmile_qr_scan", "android": "https://dc.lft.to/lastmile_qr_scan"}, "is_reserved": 0}, {"lon": -77.031889, "bike_id": "8764cb6b3939ca6cfe3c7875275954ef", "lat": 38.90869516666667, "fusion_lon": 0.0, "fusion_lat": 0.0, "type": "electric_scooter", "name": "8764cb6b3939ca6cfe3c7875275954ef", "is_disabled": 0, "rental_uris": {"ios": "https://dc.lft.to/lastmile_qr_scan", "android": "https://dc.lft.to/lastmile_qr_scan"}, "is_reserved": 0}, {"lon": -77.041603, "bike_id": "6b880a6eca1ee6b537f482a117d30578", "lat": 38.90363766666667, "fusion_lon": 0.0, "fusion_lat": 0.0, "type": "electric_scooter", "name": "6b880a6eca1ee6b537f482a117d30578", "is_disabled": 0, "rental_uris": {"ios": "https://dc.lft.to/lastmile_qr_scan", "android": "https://dc.lft.to/lastmile_qr_scan"}, "is_reserved": 0}, {"lon": -77.03122133333333, "bike_id": "ed27ce9882d224fba9e1e967341dd60b", "lat": 38.92011933333333, "fusion_lon": 0.0, "fusion_lat": 0.0, "type": "electric_scooter", "name": "ed27ce9882d224fba9e1e967341dd60b", "is_disabled": 0, "rental_uris": {"ios": "https://dc.lft.to/lastmile_qr_scan", "android": "https://dc.lft.to/lastmile_qr_scan"}, "is_reserved": 0}, {"lon": -77.18740366666667, "bike_id": "c0c0d9c7a905c5cd4fa153eb51e20244", "lat": 38.89351816666667, "fusion_lon": 0.0, "fusion_lat": 0.0, "type": "electric_bike", "name": "c0c0d9c7a905c5cd4fa153eb51e20244", "is_disabled": 0, "rental_uris": {"ios": "https://dc.lft.to/lastmile_qr_scan", "android": "https://dc.lft.to/lastmile_qr_scan"}, "is_reserved": 0}, {"lon": -77.0133275, "bike_id": "e65af703975555f7b95bb471560fcb4f", "lat": 38.879124833333336, "fusion_lon": 0.0, "fusion_lat": 0.0, "type": "electric_scooter", "name": "e65af703975555f7b95bb471560fcb4f", "is_disabled": 0, "rental_uris": {"ios": "https://dc.lft.to/lastmile_qr_scan", "android": "https://dc.lft.to/lastmile_qr_scan"}, "is_reserved": 0}, {"lon": -77.0553765, "bike_id": "b8803432ecf4c305d9b3d528d9986248", "lat": 38.93427033333333, "fusion_lon": 0.0, "fusion_lat": 0.0, "type": "electric_scooter", "name": "b8803432ecf4c305d9b3d528d9986248", "is_disabled": 0, "rental_uris": {"ios": "https://dc.lft.to/lastmile_qr_scan", "android": "https://dc.lft.to/lastmile_qr_scan"}, "is_reserved": 0}, {"lon": -77.03913366666667, "bike_id": "8c235bbef3538845e0db500761971941", "lat": 38.923503833333335, "fusion_lon": 0.0, "fusion_lat": 0.0, "type": "electric_scooter", "name": "8c235bbef3538845e0db500761971941", "is_disabled": 0, "rental_uris": {"ios": "https://dc.lft.to/lastmile_qr_scan", "android": "https://dc.lft.to/lastmile_qr_scan"}, "is_reserved": 0}, {"lon": -77.0241475, "bike_id": "4676b6cb2b86182d9b98cd2bab681d25", "lat": 38.90970733333333, "fusion_lon": 0.0, "fusion_lat": 0.0, "type": "electric_scooter", "name": "4676b6cb2b86182d9b98cd2bab681d25", "is_disabled": 0, "rental_uris": {"ios": "https://dc.lft.to/lastmile_qr_scan", "android": "https://dc.lft.to/lastmile_qr_scan"}, "is_reserved": 0}, {"lon": -77.035072, "bike_id": "420563c1fdac3f64074042b976323eaa", "lat": 38.93746816666667, "fusion_lon": 0.0, "fusion_lat": 0.0, "type": "electric_scooter", "name": "420563c1fdac3f64074042b976323eaa", "is_disabled": 0, "rental_uris": {"ios": "https://dc.lft.to/lastmile_qr_scan", "android": "https://dc.lft.to/lastmile_qr_scan"}, "is_reserved": 0}, {"lon": -76.98839566666666, "bike_id": "a5b6a6c1b6a2bd31d9db677e4755593d", "lat": 38.900680333333334, "fusion_lon": 0.0, "fusion_lat": 0.0, "type": "electric_scooter", "name": "a5b6a6c1b6a2bd31d9db677e4755593d", "is_disabled": 0, "rental_uris": {"ios": "https://dc.lft.to/lastmile_qr_scan", "android": "https://dc.lft.to/lastmile_qr_scan"}, "is_reserved": 0}, {"lon": -77.03182466666667, "bike_id": "cf7e0e9c320df5a60ef3593b24f09612", "lat": 38.915670166666665, "fusion_lon": 0.0, "fusion_lat": 0.0, "type": "electric_scooter", "name": "cf7e0e9c320df5a60ef3593b24f09612", "is_disabled": 0, "rental_uris": {"ios": "https://dc.lft.to/lastmile_qr_scan", "android": "https://dc.lft.to/lastmile_qr_scan"}, "is_reserved": 0}, {"lon": -77.02246083333333, "bike_id": "a034facb69b175155c029640aef4882f", "lat": 38.92267983333333, "fusion_lon": 0.0, "fusion_lat": 0.0, "type": "electric_scooter", "name": "a034facb69b175155c029640aef4882f", "is_disabled": 0, "rental_uris": {"ios": "https://dc.lft.to/lastmile_qr_scan", "android": "https://dc.lft.to/lastmile_qr_scan"}, "is_reserved": 0}, {"lon": -76.94607766666667, "bike_id": "82a15c93b0677b2818fbdc08aa8d4455", "lat": 38.90148383333333, "fusion_lon": 0.0, "fusion_lat": 0.0, "type": "electric_scooter", "name": "82a15c93b0677b2818fbdc08aa8d4455", "is_disabled": 0, "rental_uris": {"ios": "https://dc.lft.to/lastmile_qr_scan", "android": "https://dc.lft.to/lastmile_qr_scan"}, "is_reserved": 0}, {"lon": -77.00320816666667, "bike_id": "34971670b8351655004c48f8f427e9ce", "lat": 38.91893683333333, "fusion_lon": 0.0, "fusion_lat": 0.0, "type": "electric_scooter", "name": "34971670b8351655004c48f8f427e9ce", "is_disabled": 0, "rental_uris": {"ios": "https://dc.lft.to/lastmile_qr_scan", "android": "https://dc.lft.to/lastmile_qr_scan"}, "is_reserved": 0}, {"lon": -76.98065566666666, "bike_id": "e788440ad4c077fb7e7522c22d69970f", "lat": 38.884934666666666, "fusion_lon": 0.0, "fusion_lat": 0.0, "type": "electric_scooter", "name": "e788440ad4c077fb7e7522c22d69970f", "is_disabled": 0, "rental_uris": {"ios": "https://dc.lft.to/lastmile_qr_scan", "android": "https://dc.lft.to/lastmile_qr_scan"}, "is_reserved": 0}, {"lon": -77.08808383333333, "bike_id": "fe39d53184db8cdbab39a3f155b30720", "lat": 38.91173166666667, "fusion_lon": 0.0, "fusion_lat": 0.0, "type": "electric_scooter", "name": "fe39d53184db8cdbab39a3f155b30720", "is_disabled": 0, "rental_uris": {"ios": "https://dc.lft.to/lastmile_qr_scan", "android": "https://dc.lft.to/lastmile_qr_scan"}, "is_reserved": 0}, {"lon": -76.98946983333333, "bike_id": "5294798d2f61696fbe7228dbd1e90912", "lat": 38.86487733333333, "fusion_lon": 0.0, "fusion_lat": 0.0, "type": "electric_scooter", "name": "5294798d2f61696fbe7228dbd1e90912", "is_disabled": 0, "rental_uris": {"ios": "https://dc.lft.to/lastmile_qr_scan", "android": "https://dc.lft.to/lastmile_qr_scan"}, "is_reserved": 0}, {"lon": -77.08492516666666, "bike_id": "7cacdaba4b4f05b508371052a08dbf12", "lat": 38.8484475, "fusion_lon": 0.0, "fusion_lat": 0.0, "type": "electric_bike", "name": "7cacdaba4b4f05b508371052a08dbf12", "is_disabled": 0, "rental_uris": {"ios": "https://dc.lft.to/lastmile_qr_scan", "android": "https://dc.lft.to/lastmile_qr_scan"}, "is_reserved": 0}, {"lon": -77.0399915, "bike_id": "424e180b25e6e4c27419f1e17fbba4cf", "lat": 38.934323, "fusion_lon": 0.0, "fusion_lat": 0.0, "type": "electric_scooter", "name": "424e180b25e6e4c27419f1e17fbba4cf", "is_disabled": 0, "rental_uris": {"ios": "https://dc.lft.to/lastmile_qr_scan", "android": "https://dc.lft.to/lastmile_qr_scan"}, "is_reserved": 0}, {"lon": -77.0238825, "bike_id": "f82af137c3379433109c9f0ae28d280f", "lat": 38.90954883333333, "fusion_lon": 0.0, "fusion_lat": 0.0, "type": "electric_scooter", "name": "f82af137c3379433109c9f0ae28d280f", "is_disabled": 0, "rental_uris": {"ios": "https://dc.lft.to/lastmile_qr_scan", "android": "https://dc.lft.to/lastmile_qr_scan"}, "is_reserved": 0}, {"lon": -77.030366, "bike_id": "58a17325d040425e15706983bc1bef7d", "lat": 38.88397483333333, "fusion_lon": 0.0, "fusion_lat": 0.0, "type": "electric_scooter", "name": "58a17325d040425e15706983bc1bef7d", "is_disabled": 0, "rental_uris": {"ios": "https://dc.lft.to/lastmile_qr_scan", "android": "https://dc.lft.to/lastmile_qr_scan"}, "is_reserved": 0}, {"lon": -77.04205633333333, "bike_id": "a6ba9e6b52347953a61aec7eb25bd189", "lat": 38.9229345, "fusion_lon": 0.0, "fusion_lat": 0.0, "type": "electric_scooter", "name": "a6ba9e6b52347953a61aec7eb25bd189", "is_disabled": 0, "rental_uris": {"ios": "https://dc.lft.to/lastmile_qr_scan", "android": "https://dc.lft.to/lastmile_qr_scan"}, "is_reserved": 0}, {"lon": -76.97395083333333, "bike_id": "e153db4ee0f29711a9663d61ab0e9c61", "lat": 38.9029405, "fusion_lon": 0.0, "fusion_lat": 0.0, "type": "electric_scooter", "name": "e153db4ee0f29711a9663d61ab0e9c61", "is_disabled": 0, "rental_uris": {"ios": "https://dc.lft.to/lastmile_qr_scan", "android": "https://dc.lft.to/lastmile_qr_scan"}, "is_reserved": 0}, {"lon": -77.0472335, "bike_id": "056b95644b30a6db37d17a99a439f89b", "lat": 38.90311233333333, "fusion_lon": 0.0, "fusion_lat": 0.0, "type": "electric_scooter", "name": "056b95644b30a6db37d17a99a439f89b", "is_disabled": 0, "rental_uris": {"ios": "https://dc.lft.to/lastmile_qr_scan", "android": "https://dc.lft.to/lastmile_qr_scan"}, "is_reserved": 0}, {"lon": -77.03946766666667, "bike_id": "c01b12590f224137e0a7f91d219caf4e", "lat": 38.91569333333333, "fusion_lon": 0.0, "fusion_lat": 0.0, "type": "electric_scooter", "name": "c01b12590f224137e0a7f91d219caf4e", "is_disabled": 0, "rental_uris": {"ios": "https://dc.lft.to/lastmile_qr_scan", "android": "https://dc.lft.to/lastmile_qr_scan"}, "is_reserved": 0}, {"lon": -77.00719516666666, "bike_id": "5add83e59c5439606646765fbc49d430", "lat": 38.9057945, "fusion_lon": 0.0, "fusion_lat": 0.0, "type": "electric_scooter", "name": "5add83e59c5439606646765fbc49d430", "is_disabled": 0, "rental_uris": {"ios": "https://dc.lft.to/lastmile_qr_scan", "android": "https://dc.lft.to/lastmile_qr_scan"}, "is_reserved": 0}, {"lon": -77.03041716666667, "bike_id": "28f8bb27a555a14376b3c30b06b33f37", "lat": 38.93715433333333, "fusion_lon": 0.0, "fusion_lat": 0.0, "type": "electric_scooter", "name": "28f8bb27a555a14376b3c30b06b33f37", "is_disabled": 0, "rental_uris": {"ios": "https://dc.lft.to/lastmile_qr_scan", "android": "https://dc.lft.to/lastmile_qr_scan"}, "is_reserved": 0}, {"lon": -77.074173, "bike_id": "09d953e31e0a9fd68467f8b2c4a2885e", "lat": 38.928813, "fusion_lon": 0.0, "fusion_lat": 0.0, "type": "electric_scooter", "name": "09d953e31e0a9fd68467f8b2c4a2885e", "is_disabled": 0, "rental_uris": {"ios": "https://dc.lft.to/lastmile_qr_scan", "android": "https://dc.lft.to/lastmile_qr_scan"}, "is_reserved": 0}, {"lon": -76.99524466666666, "bike_id": "529d1020f478f4d8a0c3bfebae83e078", "lat": 38.9001285, "fusion_lon": 0.0, "fusion_lat": 0.0, "type": "electric_scooter", "name": "529d1020f478f4d8a0c3bfebae83e078", "is_disabled": 0, "rental_uris": {"ios": "https://dc.lft.to/lastmile_qr_scan", "android": "https://dc.lft.to/lastmile_qr_scan"}, "is_reserved": 0}, {"lon": -76.9951195, "bike_id": "0334362c540380423eaad59ec8759bd9", "lat": 38.8777665, "fusion_lon": 0.0, "fusion_lat": 0.0, "type": "electric_scooter", "name": "0334362c540380423eaad59ec8759bd9", "is_disabled": 0, "rental_uris": {"ios": "https://dc.lft.to/lastmile_qr_scan", "android": "https://dc.lft.to/lastmile_qr_scan"}, "is_reserved": 0}, {"lon": -76.99785883333334, "bike_id": "ad7ed11eb6f6e9eb92fb8eee905e543d", "lat": 38.84425733333333, "fusion_lon": 0.0, "fusion_lat": 0.0, "type": "electric_scooter", "name": "ad7ed11eb6f6e9eb92fb8eee905e543d", "is_disabled": 0, "rental_uris": {"ios": "https://dc.lft.to/lastmile_qr_scan", "android": "https://dc.lft.to/lastmile_qr_scan"}, "is_reserved": 0}, {"lon": -77.04320083333333, "bike_id": "261b0a975a120963a9630871b5ea64ec", "lat": 38.91873866666667, "fusion_lon": 0.0, "fusion_lat": 0.0, "type": "electric_scooter", "name": "261b0a975a120963a9630871b5ea64ec", "is_disabled": 0, "rental_uris": {"ios": "https://dc.lft.to/lastmile_qr_scan", "android": "https://dc.lft.to/lastmile_qr_scan"}, "is_reserved": 0}, {"lon": -77.022414, "bike_id": "d7ac28596a2e84e95fa0265a675961b5", "lat": 38.90188533333333, "fusion_lon": 0.0, "fusion_lat": 0.0, "type": "electric_scooter", "name": "d7ac28596a2e84e95fa0265a675961b5", "is_disabled": 0, "rental_uris": {"ios": "https://dc.lft.to/lastmile_qr_scan", "android": "https://dc.lft.to/lastmile_qr_scan"}, "is_reserved": 0}, {"lon": -77.0244045, "bike_id": "3c60f8c7561a4c9cee37973ee655e35d", "lat": 38.927544, "fusion_lon": 0.0, "fusion_lat": 0.0, "type": "electric_scooter", "name": "3c60f8c7561a4c9cee37973ee655e35d", "is_disabled": 0, "rental_uris": {"ios": "https://dc.lft.to/lastmile_qr_scan", "android": "https://dc.lft.to/lastmile_qr_scan"}, "is_reserved": 0}, {"lon": -77.03189883333333, "bike_id": "c8c04c349e856432a2e423f93ec984ca", "lat": 38.909023833333336, "fusion_lon": 0.0, "fusion_lat": 0.0, "type": "electric_scooter", "name": "c8c04c349e856432a2e423f93ec984ca", "is_disabled": 0, "rental_uris": {"ios": "https://dc.lft.to/lastmile_qr_scan", "android": "https://dc.lft.to/lastmile_qr_scan"}, "is_reserved": 0}, {"lon": -77.02625583333334, "bike_id": "20cc368e10f4b9fbe9710bb938e6cffa", "lat": 38.915251833333336, "fusion_lon": 0.0, "fusion_lat": 0.0, "type": "electric_scooter", "name": "20cc368e10f4b9fbe9710bb938e6cffa", "is_disabled": 0, "rental_uris": {"ios": "https://dc.lft.to/lastmile_qr_scan", "android": "https://dc.lft.to/lastmile_qr_scan"}, "is_reserved": 0}, {"lon": -77.0028995, "bike_id": "4683b9f3c4ee0bc0b8c80c913d8e1f3f", "lat": 38.95693816666667, "fusion_lon": 0.0, "fusion_lat": 0.0, "type": "electric_bike", "name": "4683b9f3c4ee0bc0b8c80c913d8e1f3f", "is_disabled": 0, "rental_uris": {"ios": "https://dc.lft.to/lastmile_qr_scan", "android": "https://dc.lft.to/lastmile_qr_scan"}, "is_reserved": 0}, {"lon": -76.96586233333333, "bike_id": "e9f3747516a006f99972bc5311557a16", "lat": 38.87127616666667, "fusion_lon": 0.0, "fusion_lat": 0.0, "type": "electric_scooter", "name": "e9f3747516a006f99972bc5311557a16", "is_disabled": 0, "rental_uris": {"ios": "https://dc.lft.to/lastmile_qr_scan", "android": "https://dc.lft.to/lastmile_qr_scan"}, "is_reserved": 0}, {"lon": -77.12493, "bike_id": "b1f085737f252e6dad73c2fa42ab5906", "lat": 38.82781166666667, "fusion_lon": 0.0, "fusion_lat": 0.0, "type": "electric_bike", "name": "b1f085737f252e6dad73c2fa42ab5906", "is_disabled": 0, "rental_uris": {"ios": "https://dc.lft.to/lastmile_qr_scan", "android": "https://dc.lft.to/lastmile_qr_scan"}, "is_reserved": 0}, {"lon": -77.06426516666667, "bike_id": "be94499540c90c2ab95fdb4541f694b7", "lat": 38.90882233333333, "fusion_lon": 0.0, "fusion_lat": 0.0, "type": "electric_scooter", "name": "be94499540c90c2ab95fdb4541f694b7", "is_disabled": 0, "rental_uris": {"ios": "https://dc.lft.to/lastmile_qr_scan", "android": "https://dc.lft.to/lastmile_qr_scan"}, "is_reserved": 0}, {"lon": -77.03410733333334, "bike_id": "e1f0d0f8018446ae899f1599b668c8bb", "lat": 38.9602625, "fusion_lon": 0.0, "fusion_lat": 0.0, "type": "electric_bike", "name": "e1f0d0f8018446ae899f1599b668c8bb", "is_disabled": 0, "rental_uris": {"ios": "https://dc.lft.to/lastmile_qr_scan", "android": "https://dc.lft.to/lastmile_qr_scan"}, "is_reserved": 0}, {"lon": -77.011114, "bike_id": "d3621ec0ddd02dc8c8abd94800ce5120", "lat": 38.9077545, "fusion_lon": 0.0, "fusion_lat": 0.0, "type": "electric_scooter", "name": "d3621ec0ddd02dc8c8abd94800ce5120", "is_disabled": 0, "rental_uris": {"ios": "https://dc.lft.to/lastmile_qr_scan", "android": "https://dc.lft.to/lastmile_qr_scan"}, "is_reserved": 0}, {"lon": -77.03664533333334, "bike_id": "4483b86097304c4eb456afbfa0e2d3ce", "lat": 38.90424083333333, "fusion_lon": 0.0, "fusion_lat": 0.0, "type": "electric_scooter", "name": "4483b86097304c4eb456afbfa0e2d3ce", "is_disabled": 0, "rental_uris": {"ios": "https://dc.lft.to/lastmile_qr_scan", "android": "https://dc.lft.to/lastmile_qr_scan"}, "is_reserved": 0}, {"lon": -76.99023116666666, "bike_id": "d246ec5db06ba719defc93e8e40d23c3", "lat": 38.866423833333336, "fusion_lon": 0.0, "fusion_lat": 0.0, "type": "electric_scooter", "name": "d246ec5db06ba719defc93e8e40d23c3", "is_disabled": 0, "rental_uris": {"ios": "https://dc.lft.to/lastmile_qr_scan", "android": "https://dc.lft.to/lastmile_qr_scan"}, "is_reserved": 0}, {"lon": -77.06383533333333, "bike_id": "897e16be5763421d1b01a1a4d011b438", "lat": 38.90287983333333, "fusion_lon": 0.0, "fusion_lat": 0.0, "type": "electric_scooter", "name": "897e16be5763421d1b01a1a4d011b438", "is_disabled": 0, "rental_uris": {"ios": "https://dc.lft.to/lastmile_qr_scan", "android": "https://dc.lft.to/lastmile_qr_scan"}, "is_reserved": 0}, {"lon": -77.00687483333333, "bike_id": "c91cc5d6cca32884eb8cfa7dd448c180", "lat": 38.90010816666667, "fusion_lon": 0.0, "fusion_lat": 0.0, "type": "electric_scooter", "name": "c91cc5d6cca32884eb8cfa7dd448c180", "is_disabled": 0, "rental_uris": {"ios": "https://dc.lft.to/lastmile_qr_scan", "android": "https://dc.lft.to/lastmile_qr_scan"}, "is_reserved": 0}, {"lon": -77.04200366666667, "bike_id": "bed7204da47c26aefe8f78db4a25ba73", "lat": 38.9063245, "fusion_lon": 0.0, "fusion_lat": 0.0, "type": "electric_scooter", "name": "bed7204da47c26aefe8f78db4a25ba73", "is_disabled": 0, "rental_uris": {"ios": "https://dc.lft.to/lastmile_qr_scan", "android": "https://dc.lft.to/lastmile_qr_scan"}, "is_reserved": 0}, {"lon": -77.02858716666667, "bike_id": "cb2b4d2a6852a8159a2e0dd5aeb4fdd5", "lat": 38.956337833333336, "fusion_lon": 0.0, "fusion_lat": 0.0, "type": "electric_scooter", "name": "cb2b4d2a6852a8159a2e0dd5aeb4fdd5", "is_disabled": 0, "rental_uris": {"ios": "https://dc.lft.to/lastmile_qr_scan", "android": "https://dc.lft.to/lastmile_qr_scan"}, "is_reserved": 0}, {"lon": -77.02638533333334, "bike_id": "7b46254180cf2a21619597c78f90f9fe", "lat": 38.916863166666666, "fusion_lon": 0.0, "fusion_lat": 0.0, "type": "electric_scooter", "name": "7b46254180cf2a21619597c78f90f9fe", "is_disabled": 0, "rental_uris": {"ios": "https://dc.lft.to/lastmile_qr_scan", "android": "https://dc.lft.to/lastmile_qr_scan"}, "is_reserved": 0}, {"lon": -77.03654583333334, "bike_id": "bfcdb4c1c4646bd841c3c886f1181fed", "lat": 38.9362945, "fusion_lon": 0.0, "fusion_lat": 0.0, "type": "electric_scooter", "name": "bfcdb4c1c4646bd841c3c886f1181fed", "is_disabled": 0, "rental_uris": {"ios": "https://dc.lft.to/lastmile_qr_scan", "android": "https://dc.lft.to/lastmile_qr_scan"}, "is_reserved": 0}, {"lon": -77.02804216666667, "bike_id": "e8ce63932020c9a66f2518520cd80a2a", "lat": 38.931425, "fusion_lon": 0.0, "fusion_lat": 0.0, "type": "electric_scooter", "name": "e8ce63932020c9a66f2518520cd80a2a", "is_disabled": 0, "rental_uris": {"ios": "https://dc.lft.to/lastmile_qr_scan", "android": "https://dc.lft.to/lastmile_qr_scan"}, "is_reserved": 0}, {"lon": -77.04241216666667, "bike_id": "bc65436cd0ada2d7b2fddd69ed597ebd", "lat": 38.92174466666667, "fusion_lon": 0.0, "fusion_lat": 0.0, "type": "electric_scooter", "name": "bc65436cd0ada2d7b2fddd69ed597ebd", "is_disabled": 0, "rental_uris": {"ios": "https://dc.lft.to/lastmile_qr_scan", "android": "https://dc.lft.to/lastmile_qr_scan"}, "is_reserved": 0}, {"lon": -77.02127933333334, "bike_id": "ef8e216256346310d2f099678b95ae23", "lat": 38.9029185, "fusion_lon": 0.0, "fusion_lat": 0.0, "type": "electric_scooter", "name": "ef8e216256346310d2f099678b95ae23", "is_disabled": 0, "rental_uris": {"ios": "https://dc.lft.to/lastmile_qr_scan", "android": "https://dc.lft.to/lastmile_qr_scan"}, "is_reserved": 0}, {"lon": -77.02068133333333, "bike_id": "a6adaa7cccf3029fb39c16e0fd72ad0d", "lat": 38.897152, "fusion_lon": 0.0, "fusion_lat": 0.0, "type": "electric_scooter", "name": "a6adaa7cccf3029fb39c16e0fd72ad0d", "is_disabled": 0, "rental_uris": {"ios": "https://dc.lft.to/lastmile_qr_scan", "android": "https://dc.lft.to/lastmile_qr_scan"}, "is_reserved": 0}, {"lon": -76.97480683333333, "bike_id": "d44bab95fda90663ddffc2a1858ff830", "lat": 38.903436, "fusion_lon": 0.0, "fusion_lat": 0.0, "type": "electric_scooter", "name": "d44bab95fda90663ddffc2a1858ff830", "is_disabled": 0, "rental_uris": {"ios": "https://dc.lft.to/lastmile_qr_scan", "android": "https://dc.lft.to/lastmile_qr_scan"}, "is_reserved": 0}, {"lon": -76.99088866666666, "bike_id": "ce73ee418d25f250730ccaa7ee40780b", "lat": 38.862278833333335, "fusion_lon": 0.0, "fusion_lat": 0.0, "type": "electric_bike", "name": "ce73ee418d25f250730ccaa7ee40780b", "is_disabled": 0, "rental_uris": {"ios": "https://dc.lft.to/lastmile_qr_scan", "android": "https://dc.lft.to/lastmile_qr_scan"}, "is_reserved": 0}, {"lon": -77.02095933333334, "bike_id": "fb25bcc1b52da65464f2874fc5127a04", "lat": 38.9270905, "fusion_lon": 0.0, "fusion_lat": 0.0, "type": "electric_scooter", "name": "fb25bcc1b52da65464f2874fc5127a04", "is_disabled": 0, "rental_uris": {"ios": "https://dc.lft.to/lastmile_qr_scan", "android": "https://dc.lft.to/lastmile_qr_scan"}, "is_reserved": 0}, {"lon": -77.08073283333333, "bike_id": "a29bc5dcdcea65f4e24ed418cc57da77", "lat": 39.0527925, "fusion_lon": 0.0, "fusion_lat": 0.0, "type": "electric_bike", "name": "a29bc5dcdcea65f4e24ed418cc57da77", "is_disabled": 0, "rental_uris": {"ios": "https://dc.lft.to/lastmile_qr_scan", "android": "https://dc.lft.to/lastmile_qr_scan"}, "is_reserved": 0}, {"lon": -76.986122, "bike_id": "05f32e2d6a73804c797357ed3dc66ca2", "lat": 38.86238916666667, "fusion_lon": 0.0, "fusion_lat": 0.0, "type": "electric_scooter", "name": "05f32e2d6a73804c797357ed3dc66ca2", "is_disabled": 0, "rental_uris": {"ios": "https://dc.lft.to/lastmile_qr_scan", "android": "https://dc.lft.to/lastmile_qr_scan"}, "is_reserved": 0}, {"lon": -77.02380183333334, "bike_id": "9ef86d111c988a882659825fa5561e4b", "lat": 38.89218833333334, "fusion_lon": 0.0, "fusion_lat": 0.0, "type": "electric_scooter", "name": "9ef86d111c988a882659825fa5561e4b", "is_disabled": 0, "rental_uris": {"ios": "https://dc.lft.to/lastmile_qr_scan", "android": "https://dc.lft.to/lastmile_qr_scan"}, "is_reserved": 0}, {"lon": -77.0298645, "bike_id": "5a17083ef20e633ea5b6c47b1ba99f80", "lat": 38.947369, "fusion_lon": 0.0, "fusion_lat": 0.0, "type": "electric_scooter", "name": "5a17083ef20e633ea5b6c47b1ba99f80", "is_disabled": 0, "rental_uris": {"ios": "https://dc.lft.to/lastmile_qr_scan", "android": "https://dc.lft.to/lastmile_qr_scan"}, "is_reserved": 0}, {"lon": -77.000751, "bike_id": "dbd93b523e4a2801a2396b07b712247a", "lat": 38.901445333333335, "fusion_lon": 0.0, "fusion_lat": 0.0, "type": "electric_scooter", "name": "dbd93b523e4a2801a2396b07b712247a", "is_disabled": 0, "rental_uris": {"ios": "https://dc.lft.to/lastmile_qr_scan", "android": "https://dc.lft.to/lastmile_qr_scan"}, "is_reserved": 0}, {"lon": -77.04636033333334, "bike_id": "9bf4be0559a46b8a2aec0bd7f5a45a19", "lat": 38.921170833333335, "fusion_lon": 0.0, "fusion_lat": 0.0, "type": "electric_scooter", "name": "9bf4be0559a46b8a2aec0bd7f5a45a19", "is_disabled": 0, "rental_uris": {"ios": "https://dc.lft.to/lastmile_qr_scan", "android": "https://dc.lft.to/lastmile_qr_scan"}, "is_reserved": 0}, {"lon": -77.031624, "bike_id": "c1f3a46bca9af6adb531135b0d3733c0", "lat": 38.916906166666664, "fusion_lon": 0.0, "fusion_lat": 0.0, "type": "electric_scooter", "name": "c1f3a46bca9af6adb531135b0d3733c0", "is_disabled": 0, "rental_uris": {"ios": "https://dc.lft.to/lastmile_qr_scan", "android": "https://dc.lft.to/lastmile_qr_scan"}, "is_reserved": 0}, {"lon": -76.985429, "bike_id": "f56271115ef70b79f63b81a7bb9c1c1d", "lat": 38.910232, "fusion_lon": 0.0, "fusion_lat": 0.0, "type": "electric_scooter", "name": "f56271115ef70b79f63b81a7bb9c1c1d", "is_disabled": 0, "rental_uris": {"ios": "https://dc.lft.to/lastmile_qr_scan", "android": "https://dc.lft.to/lastmile_qr_scan"}, "is_reserved": 0}, {"lon": -77.03843466666666, "bike_id": "a442940d1b6cd409bcab339b5d5492fd", "lat": 38.91031, "fusion_lon": 0.0, "fusion_lat": 0.0, "type": "electric_scooter", "name": "a442940d1b6cd409bcab339b5d5492fd", "is_disabled": 0, "rental_uris": {"ios": "https://dc.lft.to/lastmile_qr_scan", "android": "https://dc.lft.to/lastmile_qr_scan"}, "is_reserved": 0}, {"lon": -77.03416383333334, "bike_id": "723d4949329ba7d1b5bb464873d7f4e8", "lat": 38.93420366666667, "fusion_lon": 0.0, "fusion_lat": 0.0, "type": "electric_scooter", "name": "723d4949329ba7d1b5bb464873d7f4e8", "is_disabled": 0, "rental_uris": {"ios": "https://dc.lft.to/lastmile_qr_scan", "android": "https://dc.lft.to/lastmile_qr_scan"}, "is_reserved": 0}, {"lon": -77.04229766666667, "bike_id": "6c656346688b6f03963bea0316129368", "lat": 38.903766, "fusion_lon": 0.0, "fusion_lat": 0.0, "type": "electric_bike", "name": "6c656346688b6f03963bea0316129368", "is_disabled": 0, "rental_uris": {"ios": "https://dc.lft.to/lastmile_qr_scan", "android": "https://dc.lft.to/lastmile_qr_scan"}, "is_reserved": 0}, {"lon": -76.98727066666666, "bike_id": "17448550a0fe4802708e0f8efeabfe16", "lat": 38.866972, "fusion_lon": 0.0, "fusion_lat": 0.0, "type": "electric_scooter", "name": "17448550a0fe4802708e0f8efeabfe16", "is_disabled": 0, "rental_uris": {"ios": "https://dc.lft.to/lastmile_qr_scan", "android": "https://dc.lft.to/lastmile_qr_scan"}, "is_reserved": 0}, {"lon": -77.02560633333333, "bike_id": "1cf866a29e7b7fc6cd3c586a1fece985", "lat": 38.924781333333335, "fusion_lon": 0.0, "fusion_lat": 0.0, "type": "electric_scooter", "name": "1cf866a29e7b7fc6cd3c586a1fece985", "is_disabled": 0, "rental_uris": {"ios": "https://dc.lft.to/lastmile_qr_scan", "android": "https://dc.lft.to/lastmile_qr_scan"}, "is_reserved": 0}, {"lon": -77.04111616666667, "bike_id": "f7e560e083eecd37709a607912002dfb", "lat": 38.928016666666664, "fusion_lon": 0.0, "fusion_lat": 0.0, "type": "electric_scooter", "name": "f7e560e083eecd37709a607912002dfb", "is_disabled": 0, "rental_uris": {"ios": "https://dc.lft.to/lastmile_qr_scan", "android": "https://dc.lft.to/lastmile_qr_scan"}, "is_reserved": 0}, {"lon": -77.0278395, "bike_id": "4994d1bff4451b57e5fb6d7f875f93a8", "lat": 38.892062, "fusion_lon": 0.0, "fusion_lat": 0.0, "type": "electric_scooter", "name": "4994d1bff4451b57e5fb6d7f875f93a8", "is_disabled": 0, "rental_uris": {"ios": "https://dc.lft.to/lastmile_qr_scan", "android": "https://dc.lft.to/lastmile_qr_scan"}, "is_reserved": 0}, {"lon": -77.03545066666666, "bike_id": "32308b34481703d6f352e8ebf00b6ff8", "lat": 38.925700166666665, "fusion_lon": 0.0, "fusion_lat": 0.0, "type": "electric_scooter", "name": "32308b34481703d6f352e8ebf00b6ff8", "is_disabled": 0, "rental_uris": {"ios": "https://dc.lft.to/lastmile_qr_scan", "android": "https://dc.lft.to/lastmile_qr_scan"}, "is_reserved": 0}, {"lon": -77.009384, "bike_id": "71bec5498e1aed8bb88f943db5d75b7c", "lat": 38.8830915, "fusion_lon": 0.0, "fusion_lat": 0.0, "type": "electric_scooter", "name": "71bec5498e1aed8bb88f943db5d75b7c", "is_disabled": 0, "rental_uris": {"ios": "https://dc.lft.to/lastmile_qr_scan", "android": "https://dc.lft.to/lastmile_qr_scan"}, "is_reserved": 0}, {"lon": -77.037685, "bike_id": "c23d0714c567fd1168f99ae2b636943a", "lat": 38.92007816666667, "fusion_lon": 0.0, "fusion_lat": 0.0, "type": "electric_scooter", "name": "c23d0714c567fd1168f99ae2b636943a", "is_disabled": 0, "rental_uris": {"ios": "https://dc.lft.to/lastmile_qr_scan", "android": "https://dc.lft.to/lastmile_qr_scan"}, "is_reserved": 0}, {"lon": -77.0445595, "bike_id": "27b224f9e995d4d97f32963b35cd5450", "lat": 38.91524833333333, "fusion_lon": 0.0, "fusion_lat": 0.0, "type": "electric_scooter", "name": "27b224f9e995d4d97f32963b35cd5450", "is_disabled": 0, "rental_uris": {"ios": "https://dc.lft.to/lastmile_qr_scan", "android": "https://dc.lft.to/lastmile_qr_scan"}, "is_reserved": 0}, {"lon": -77.0072285, "bike_id": "545b6a755d0b2cf1f5b4d9ecd3b26f6b", "lat": 38.833398, "fusion_lon": 0.0, "fusion_lat": 0.0, "type": "electric_bike", "name": "545b6a755d0b2cf1f5b4d9ecd3b26f6b", "is_disabled": 0, "rental_uris": {"ios": "https://dc.lft.to/lastmile_qr_scan", "android": "https://dc.lft.to/lastmile_qr_scan"}, "is_reserved": 0}, {"lon": -77.00959216666666, "bike_id": "bf09fd40f1d237b947e3d9439e881bec", "lat": 38.92124066666667, "fusion_lon": 0.0, "fusion_lat": 0.0, "type": "electric_scooter", "name": "bf09fd40f1d237b947e3d9439e881bec", "is_disabled": 0, "rental_uris": {"ios": "https://dc.lft.to/lastmile_qr_scan", "android": "https://dc.lft.to/lastmile_qr_scan"}, "is_reserved": 0}, {"lon": -77.02709866666666, "bike_id": "6a343466d74fa293837cc281c58f4c87", "lat": 38.924014, "fusion_lon": 0.0, "fusion_lat": 0.0, "type": "electric_scooter", "name": "6a343466d74fa293837cc281c58f4c87", "is_disabled": 0, "rental_uris": {"ios": "https://dc.lft.to/lastmile_qr_scan", "android": "https://dc.lft.to/lastmile_qr_scan"}, "is_reserved": 0}, {"lon": -77.03158233333333, "bike_id": "6d2615b003acff2f9fe30102eb2fe2fa", "lat": 38.916066, "fusion_lon": 0.0, "fusion_lat": 0.0, "type": "electric_scooter", "name": "6d2615b003acff2f9fe30102eb2fe2fa", "is_disabled": 0, "rental_uris": {"ios": "https://dc.lft.to/lastmile_qr_scan", "android": "https://dc.lft.to/lastmile_qr_scan"}, "is_reserved": 0}, {"lon": -77.046622, "bike_id": "2fc7081081bead677098e72e2d44139d", "lat": 38.90438, "fusion_lon": 0.0, "fusion_lat": 0.0, "type": "electric_scooter", "name": "2fc7081081bead677098e72e2d44139d", "is_disabled": 0, "rental_uris": {"ios": "https://dc.lft.to/lastmile_qr_scan", "android": "https://dc.lft.to/lastmile_qr_scan"}, "is_reserved": 0}, {"lon": -76.983811, "bike_id": "4b4c4b08492da6a09ff812791390cde0", "lat": 38.896033833333334, "fusion_lon": 0.0, "fusion_lat": 0.0, "type": "electric_scooter", "name": "4b4c4b08492da6a09ff812791390cde0", "is_disabled": 0, "rental_uris": {"ios": "https://dc.lft.to/lastmile_qr_scan", "android": "https://dc.lft.to/lastmile_qr_scan"}, "is_reserved": 0}, {"lon": -77.0127655, "bike_id": "0d225701be99c17dcdbeeab9b7a70950", "lat": 38.888732833333336, "fusion_lon": 0.0, "fusion_lat": 0.0, "type": "electric_bike", "name": "0d225701be99c17dcdbeeab9b7a70950", "is_disabled": 0, "rental_uris": {"ios": "https://dc.lft.to/lastmile_qr_scan", "android": "https://dc.lft.to/lastmile_qr_scan"}, "is_reserved": 0}, {"lon": -76.98760233333333, "bike_id": "bfe1738f6aea16e047037e799bb76d2b", "lat": 38.9001875, "fusion_lon": 0.0, "fusion_lat": 0.0, "type": "electric_scooter", "name": "bfe1738f6aea16e047037e799bb76d2b", "is_disabled": 0, "rental_uris": {"ios": "https://dc.lft.to/lastmile_qr_scan", "android": "https://dc.lft.to/lastmile_qr_scan"}, "is_reserved": 0}, {"lon": -77.02769566666667, "bike_id": "293afff1167a1e4eb87fd02b695f9ecf", "lat": 38.92376333333333, "fusion_lon": 0.0, "fusion_lat": 0.0, "type": "electric_scooter", "name": "293afff1167a1e4eb87fd02b695f9ecf", "is_disabled": 0, "rental_uris": {"ios": "https://dc.lft.to/lastmile_qr_scan", "android": "https://dc.lft.to/lastmile_qr_scan"}, "is_reserved": 0}, {"lon": -77.01840766666666, "bike_id": "5b44e8523758cb236a32e5cee10caf88", "lat": 38.9093005, "fusion_lon": 0.0, "fusion_lat": 0.0, "type": "electric_scooter", "name": "5b44e8523758cb236a32e5cee10caf88", "is_disabled": 0, "rental_uris": {"ios": "https://dc.lft.to/lastmile_qr_scan", "android": "https://dc.lft.to/lastmile_qr_scan"}, "is_reserved": 0}, {"lon": -76.99703133333334, "bike_id": "ed5e7ebd79a93ef1f159e1e0ea71b891", "lat": 38.844292833333334, "fusion_lon": 0.0, "fusion_lat": 0.0, "type": "electric_scooter", "name": "ed5e7ebd79a93ef1f159e1e0ea71b891", "is_disabled": 0, "rental_uris": {"ios": "https://dc.lft.to/lastmile_qr_scan", "android": "https://dc.lft.to/lastmile_qr_scan"}, "is_reserved": 0}, {"lon": -77.025234, "bike_id": "1a4abe4b0b3e8c542eecfb118d39eff2", "lat": 38.942033333333335, "fusion_lon": 0.0, "fusion_lat": 0.0, "type": "electric_scooter", "name": "1a4abe4b0b3e8c542eecfb118d39eff2", "is_disabled": 0, "rental_uris": {"ios": "https://dc.lft.to/lastmile_qr_scan", "android": "https://dc.lft.to/lastmile_qr_scan"}, "is_reserved": 0}, {"lon": -77.0176525, "bike_id": "a377b8cb9e239834327baea0e50b1c25", "lat": 38.88196383333333, "fusion_lon": 0.0, "fusion_lat": 0.0, "type": "electric_scooter", "name": "a377b8cb9e239834327baea0e50b1c25", "is_disabled": 0, "rental_uris": {"ios": "https://dc.lft.to/lastmile_qr_scan", "android": "https://dc.lft.to/lastmile_qr_scan"}, "is_reserved": 0}, {"lon": -77.00545916666667, "bike_id": "f814b36964256bcf09d00a86518edac3", "lat": 38.875445, "fusion_lon": 0.0, "fusion_lat": 0.0, "type": "electric_scooter", "name": "f814b36964256bcf09d00a86518edac3", "is_disabled": 0, "rental_uris": {"ios": "https://dc.lft.to/lastmile_qr_scan", "android": "https://dc.lft.to/lastmile_qr_scan"}, "is_reserved": 0}, {"lon": -77.027641, "bike_id": "953c7bd67d2d6854ffebfbe79998c2cf", "lat": 38.927567333333336, "fusion_lon": 0.0, "fusion_lat": 0.0, "type": "electric_scooter", "name": "953c7bd67d2d6854ffebfbe79998c2cf", "is_disabled": 0, "rental_uris": {"ios": "https://dc.lft.to/lastmile_qr_scan", "android": "https://dc.lft.to/lastmile_qr_scan"}, "is_reserved": 0}, {"lon": -76.979449, "bike_id": "cc8b82148972d766bf667a22a40378fb", "lat": 38.89994383333333, "fusion_lon": 0.0, "fusion_lat": 0.0, "type": "electric_scooter", "name": "cc8b82148972d766bf667a22a40378fb", "is_disabled": 0, "rental_uris": {"ios": "https://dc.lft.to/lastmile_qr_scan", "android": "https://dc.lft.to/lastmile_qr_scan"}, "is_reserved": 0}, {"lon": -76.97891966666667, "bike_id": "86716e6378273dddce175ec6534de366", "lat": 38.885409833333334, "fusion_lon": 0.0, "fusion_lat": 0.0, "type": "electric_scooter", "name": "86716e6378273dddce175ec6534de366", "is_disabled": 0, "rental_uris": {"ios": "https://dc.lft.to/lastmile_qr_scan", "android": "https://dc.lft.to/lastmile_qr_scan"}, "is_reserved": 0}, {"lon": -76.98334883333334, "bike_id": "bb4739bde535eb2b0088fc734e8afc5a", "lat": 38.89543233333333, "fusion_lon": 0.0, "fusion_lat": 0.0, "type": "electric_scooter", "name": "bb4739bde535eb2b0088fc734e8afc5a", "is_disabled": 0, "rental_uris": {"ios": "https://dc.lft.to/lastmile_qr_scan", "android": "https://dc.lft.to/lastmile_qr_scan"}, "is_reserved": 0}, {"lon": -76.98572, "bike_id": "e74aba333e5e8a8b07df64dd2b73c210", "lat": 38.90713933333333, "fusion_lon": 0.0, "fusion_lat": 0.0, "type": "electric_scooter", "name": "e74aba333e5e8a8b07df64dd2b73c210", "is_disabled": 0, "rental_uris": {"ios": "https://dc.lft.to/lastmile_qr_scan", "android": "https://dc.lft.to/lastmile_qr_scan"}, "is_reserved": 0}, {"lon": -77.119115, "bike_id": "4d19d81de24963a96304a3dddbcf198c", "lat": 38.880899, "fusion_lon": 0.0, "fusion_lat": 0.0, "type": "electric_bike", "name": "4d19d81de24963a96304a3dddbcf198c", "is_disabled": 0, "rental_uris": {"ios": "https://dc.lft.to/lastmile_qr_scan", "android": "https://dc.lft.to/lastmile_qr_scan"}, "is_reserved": 0}, {"lon": -77.04176183333334, "bike_id": "cf619892257ae53cca9b4c1d9a0f9b12", "lat": 38.916339666666666, "fusion_lon": 0.0, "fusion_lat": 0.0, "type": "electric_scooter", "name": "cf619892257ae53cca9b4c1d9a0f9b12", "is_disabled": 0, "rental_uris": {"ios": "https://dc.lft.to/lastmile_qr_scan", "android": "https://dc.lft.to/lastmile_qr_scan"}, "is_reserved": 0}, {"lon": -77.02966766666667, "bike_id": "3bb130aed2f58dbdc24cce5fc8c63f5d", "lat": 38.912699333333336, "fusion_lon": 0.0, "fusion_lat": 0.0, "type": "electric_scooter", "name": "3bb130aed2f58dbdc24cce5fc8c63f5d", "is_disabled": 0, "rental_uris": {"ios": "https://dc.lft.to/lastmile_qr_scan", "android": "https://dc.lft.to/lastmile_qr_scan"}, "is_reserved": 0}, {"lon": -76.93735716666667, "bike_id": "a7489323619f8ff28ff6d19ea4d9a6a7", "lat": 38.8899895, "fusion_lon": 0.0, "fusion_lat": 0.0, "type": "electric_scooter", "name": "a7489323619f8ff28ff6d19ea4d9a6a7", "is_disabled": 0, "rental_uris": {"ios": "https://dc.lft.to/lastmile_qr_scan", "android": "https://dc.lft.to/lastmile_qr_scan"}, "is_reserved": 0}, {"lon": -77.03262916666667, "bike_id": "d42aaf1eefc6a1cd902a33eaca854f45", "lat": 38.93691783333333, "fusion_lon": 0.0, "fusion_lat": 0.0, "type": "electric_scooter", "name": "d42aaf1eefc6a1cd902a33eaca854f45", "is_disabled": 0, "rental_uris": {"ios": "https://dc.lft.to/lastmile_qr_scan", "android": "https://dc.lft.to/lastmile_qr_scan"}, "is_reserved": 0}, {"lon": -77.031866, "bike_id": "1d05ed0bb764caa52227fad95a9c297a", "lat": 38.9132535, "fusion_lon": 0.0, "fusion_lat": 0.0, "type": "electric_scooter", "name": "1d05ed0bb764caa52227fad95a9c297a", "is_disabled": 0, "rental_uris": {"ios": "https://dc.lft.to/lastmile_qr_scan", "android": "https://dc.lft.to/lastmile_qr_scan"}, "is_reserved": 0}, {"lon": -76.93754066666666, "bike_id": "2a15d70bf916181ae3f21e7dbfdb4518", "lat": 38.8904405, "fusion_lon": 0.0, "fusion_lat": 0.0, "type": "electric_scooter", "name": "2a15d70bf916181ae3f21e7dbfdb4518", "is_disabled": 0, "rental_uris": {"ios": "https://dc.lft.to/lastmile_qr_scan", "android": "https://dc.lft.to/lastmile_qr_scan"}, "is_reserved": 0}, {"lon": -77.04208266666667, "bike_id": "80a681093fd068a7939abde5cd9d2f56", "lat": 38.8926395, "fusion_lon": 0.0, "fusion_lat": 0.0, "type": "electric_scooter", "name": "80a681093fd068a7939abde5cd9d2f56", "is_disabled": 0, "rental_uris": {"ios": "https://dc.lft.to/lastmile_qr_scan", "android": "https://dc.lft.to/lastmile_qr_scan"}, "is_reserved": 0}, {"lon": -77.05233266666667, "bike_id": "622ab623ce80a8b09e94e851b43d8d50", "lat": 38.924497333333335, "fusion_lon": 0.0, "fusion_lat": 0.0, "type": "electric_scooter", "name": "622ab623ce80a8b09e94e851b43d8d50", "is_disabled": 0, "rental_uris": {"ios": "https://dc.lft.to/lastmile_qr_scan", "android": "https://dc.lft.to/lastmile_qr_scan"}, "is_reserved": 0}, {"lon": -76.9954995, "bike_id": "72e45bdb160a5064a7165faea4fcc201", "lat": 38.862586, "fusion_lon": 0.0, "fusion_lat": 0.0, "type": "electric_scooter", "name": "72e45bdb160a5064a7165faea4fcc201", "is_disabled": 0, "rental_uris": {"ios": "https://dc.lft.to/lastmile_qr_scan", "android": "https://dc.lft.to/lastmile_qr_scan"}, "is_reserved": 0}, {"lon": -77.01631833333333, "bike_id": "efac0fc52f6157150c0daf658425f4c1", "lat": 38.928962, "fusion_lon": 0.0, "fusion_lat": 0.0, "type": "electric_scooter", "name": "efac0fc52f6157150c0daf658425f4c1", "is_disabled": 0, "rental_uris": {"ios": "https://dc.lft.to/lastmile_qr_scan", "android": "https://dc.lft.to/lastmile_qr_scan"}, "is_reserved": 0}, {"lon": -77.05808733333333, "bike_id": "b6021ccf356857af3979be2d203c46da", "lat": 38.93449283333333, "fusion_lon": 0.0, "fusion_lat": 0.0, "type": "electric_scooter", "name": "b6021ccf356857af3979be2d203c46da", "is_disabled": 0, "rental_uris": {"ios": "https://dc.lft.to/lastmile_qr_scan", "android": "https://dc.lft.to/lastmile_qr_scan"}, "is_reserved": 0}, {"lon": -77.04900433333333, "bike_id": "e54bdc9efdadaf9b99724ad15d35fd5d", "lat": 38.90346433333333, "fusion_lon": 0.0, "fusion_lat": 0.0, "type": "electric_scooter", "name": "e54bdc9efdadaf9b99724ad15d35fd5d", "is_disabled": 0, "rental_uris": {"ios": "https://dc.lft.to/lastmile_qr_scan", "android": "https://dc.lft.to/lastmile_qr_scan"}, "is_reserved": 0}, {"lon": -77.03680133333333, "bike_id": "5b4557f8c4e78a686ae98b9cb6f15b9a", "lat": 38.90958333333333, "fusion_lon": 0.0, "fusion_lat": 0.0, "type": "electric_scooter", "name": "5b4557f8c4e78a686ae98b9cb6f15b9a", "is_disabled": 0, "rental_uris": {"ios": "https://dc.lft.to/lastmile_qr_scan", "android": "https://dc.lft.to/lastmile_qr_scan"}, "is_reserved": 0}, {"lon": -77.00675466666667, "bike_id": "6723fb573373172415e246fa315b2727", "lat": 38.900166, "fusion_lon": 0.0, "fusion_lat": 0.0, "type": "electric_scooter", "name": "6723fb573373172415e246fa315b2727", "is_disabled": 0, "rental_uris": {"ios": "https://dc.lft.to/lastmile_qr_scan", "android": "https://dc.lft.to/lastmile_qr_scan"}, "is_reserved": 0}, {"lon": -77.0057455, "bike_id": "814214edb358c611bfec6548bd4acaec", "lat": 38.90389916666667, "fusion_lon": 0.0, "fusion_lat": 0.0, "type": "electric_scooter", "name": "814214edb358c611bfec6548bd4acaec", "is_disabled": 0, "rental_uris": {"ios": "https://dc.lft.to/lastmile_qr_scan", "android": "https://dc.lft.to/lastmile_qr_scan"}, "is_reserved": 0}, {"lon": -76.98838683333334, "bike_id": "69bd8b86dcc0c9ccfad346c35cb6233e", "lat": 38.89663866666667, "fusion_lon": 0.0, "fusion_lat": 0.0, "type": "electric_scooter", "name": "69bd8b86dcc0c9ccfad346c35cb6233e", "is_disabled": 0, "rental_uris": {"ios": "https://dc.lft.to/lastmile_qr_scan", "android": "https://dc.lft.to/lastmile_qr_scan"}, "is_reserved": 0}, {"lon": -77.026001, "bike_id": "aece7312c549adaec464d577c3da7583", "lat": 38.90040316666666, "fusion_lon": 0.0, "fusion_lat": 0.0, "type": "electric_scooter", "name": "aece7312c549adaec464d577c3da7583", "is_disabled": 0, "rental_uris": {"ios": "https://dc.lft.to/lastmile_qr_scan", "android": "https://dc.lft.to/lastmile_qr_scan"}, "is_reserved": 0}, {"lon": -77.00757566666667, "bike_id": "67c7e2269bd69d824893c4078e427d6a", "lat": 38.87090516666667, "fusion_lon": 0.0, "fusion_lat": 0.0, "type": "electric_scooter", "name": "67c7e2269bd69d824893c4078e427d6a", "is_disabled": 0, "rental_uris": {"ios": "https://dc.lft.to/lastmile_qr_scan", "android": "https://dc.lft.to/lastmile_qr_scan"}, "is_reserved": 0}, {"lon": -76.98498483333333, "bike_id": "c4c7f744a652a6c009b8efd9e45cd9e4", "lat": 38.89346316666666, "fusion_lon": 0.0, "fusion_lat": 0.0, "type": "electric_scooter", "name": "c4c7f744a652a6c009b8efd9e45cd9e4", "is_disabled": 0, "rental_uris": {"ios": "https://dc.lft.to/lastmile_qr_scan", "android": "https://dc.lft.to/lastmile_qr_scan"}, "is_reserved": 0}, {"lon": -77.02403266666667, "bike_id": "44b1a070dc13d04528c8feca363de6ff", "lat": 38.92047083333333, "fusion_lon": 0.0, "fusion_lat": 0.0, "type": "electric_scooter", "name": "44b1a070dc13d04528c8feca363de6ff", "is_disabled": 0, "rental_uris": {"ios": "https://dc.lft.to/lastmile_qr_scan", "android": "https://dc.lft.to/lastmile_qr_scan"}, "is_reserved": 0}, {"lon": -77.0652295, "bike_id": "d6f8a5a4a3f03a4cbf00de8fedf20355", "lat": 38.908828666666665, "fusion_lon": 0.0, "fusion_lat": 0.0, "type": "electric_scooter", "name": "d6f8a5a4a3f03a4cbf00de8fedf20355", "is_disabled": 0, "rental_uris": {"ios": "https://dc.lft.to/lastmile_qr_scan", "android": "https://dc.lft.to/lastmile_qr_scan"}, "is_reserved": 0}, {"lon": -76.99799183333333, "bike_id": "601896b82db9badd0af8e8973631adf8", "lat": 38.9564035, "fusion_lon": 0.0, "fusion_lat": 0.0, "type": "electric_bike", "name": "601896b82db9badd0af8e8973631adf8", "is_disabled": 0, "rental_uris": {"ios": "https://dc.lft.to/lastmile_qr_scan", "android": "https://dc.lft.to/lastmile_qr_scan"}, "is_reserved": 0}, {"lon": -76.97324366666666, "bike_id": "510afe09fa2f0ddbfdb18f51e5a24e85", "lat": 38.904771, "fusion_lon": 0.0, "fusion_lat": 0.0, "type": "electric_bike", "name": "510afe09fa2f0ddbfdb18f51e5a24e85", "is_disabled": 0, "rental_uris": {"ios": "https://dc.lft.to/lastmile_qr_scan", "android": "https://dc.lft.to/lastmile_qr_scan"}, "is_reserved": 0}, {"lon": -76.95547, "bike_id": "5e18f6cdc334e00a8afc00774acb0ab9", "lat": 38.887773333333335, "fusion_lon": 0.0, "fusion_lat": 0.0, "type": "electric_scooter", "name": "5e18f6cdc334e00a8afc00774acb0ab9", "is_disabled": 0, "rental_uris": {"ios": "https://dc.lft.to/lastmile_qr_scan", "android": "https://dc.lft.to/lastmile_qr_scan"}, "is_reserved": 0}, {"lon": -77.02682033333333, "bike_id": "1f6f58200e64857151b29c39b9ce6f87", "lat": 38.912562333333334, "fusion_lon": 0.0, "fusion_lat": 0.0, "type": "electric_scooter", "name": "1f6f58200e64857151b29c39b9ce6f87", "is_disabled": 0, "rental_uris": {"ios": "https://dc.lft.to/lastmile_qr_scan", "android": "https://dc.lft.to/lastmile_qr_scan"}, "is_reserved": 0}, {"lon": -77.03270466666666, "bike_id": "3249d9195d2390151fbe4636af9655e4", "lat": 38.919807166666665, "fusion_lon": 0.0, "fusion_lat": 0.0, "type": "electric_scooter", "name": "3249d9195d2390151fbe4636af9655e4", "is_disabled": 0, "rental_uris": {"ios": "https://dc.lft.to/lastmile_qr_scan", "android": "https://dc.lft.to/lastmile_qr_scan"}, "is_reserved": 0}, {"lon": -77.04109816666667, "bike_id": "5fe06cd83d26e8be1623aa01f58bcc2b", "lat": 38.925230666666664, "fusion_lon": 0.0, "fusion_lat": 0.0, "type": "electric_scooter", "name": "5fe06cd83d26e8be1623aa01f58bcc2b", "is_disabled": 0, "rental_uris": {"ios": "https://dc.lft.to/lastmile_qr_scan", "android": "https://dc.lft.to/lastmile_qr_scan"}, "is_reserved": 0}, {"lon": -77.032038, "bike_id": "c32849d8adaa7219e29d1b1cc355d4c5", "lat": 38.896767833333335, "fusion_lon": 0.0, "fusion_lat": 0.0, "type": "electric_scooter", "name": "c32849d8adaa7219e29d1b1cc355d4c5", "is_disabled": 0, "rental_uris": {"ios": "https://dc.lft.to/lastmile_qr_scan", "android": "https://dc.lft.to/lastmile_qr_scan"}, "is_reserved": 0}, {"lon": -77.0289565, "bike_id": "a5f3a31632c438eeef39530e3dcf303a", "lat": 38.907091666666666, "fusion_lon": 0.0, "fusion_lat": 0.0, "type": "electric_scooter", "name": "a5f3a31632c438eeef39530e3dcf303a", "is_disabled": 0, "rental_uris": {"ios": "https://dc.lft.to/lastmile_qr_scan", "android": "https://dc.lft.to/lastmile_qr_scan"}, "is_reserved": 0}, {"lon": -77.05733516666666, "bike_id": "8eebfad387ed56b42e10c9e0586c3fa2", "lat": 38.93356283333333, "fusion_lon": 0.0, "fusion_lat": 0.0, "type": "electric_scooter", "name": "8eebfad387ed56b42e10c9e0586c3fa2", "is_disabled": 0, "rental_uris": {"ios": "https://dc.lft.to/lastmile_qr_scan", "android": "https://dc.lft.to/lastmile_qr_scan"}, "is_reserved": 0}, {"lon": -76.97907016666667, "bike_id": "7b71ec68fff69df226eadc1820442df0", "lat": 38.9245555, "fusion_lon": 0.0, "fusion_lat": 0.0, "type": "electric_bike", "name": "7b71ec68fff69df226eadc1820442df0", "is_disabled": 0, "rental_uris": {"ios": "https://dc.lft.to/lastmile_qr_scan", "android": "https://dc.lft.to/lastmile_qr_scan"}, "is_reserved": 0}, {"lon": -77.03840916666667, "bike_id": "a06da467a1f393c1ca9d65ef58afaa3c", "lat": 38.9068275, "fusion_lon": 0.0, "fusion_lat": 0.0, "type": "electric_scooter", "name": "a06da467a1f393c1ca9d65ef58afaa3c", "is_disabled": 0, "rental_uris": {"ios": "https://dc.lft.to/lastmile_qr_scan", "android": "https://dc.lft.to/lastmile_qr_scan"}, "is_reserved": 0}, {"lon": -77.0340945, "bike_id": "af586e7d0f23c5cca08ff7dccc2ad6eb", "lat": 38.93120966666667, "fusion_lon": 0.0, "fusion_lat": 0.0, "type": "electric_scooter", "name": "af586e7d0f23c5cca08ff7dccc2ad6eb", "is_disabled": 0, "rental_uris": {"ios": "https://dc.lft.to/lastmile_qr_scan", "android": "https://dc.lft.to/lastmile_qr_scan"}, "is_reserved": 0},