{"data": {"bikes": [{"fusion_lat": 0.0, "name": "945d7b82baa0c5bacebe14c2a03725ea", "is_disabled": 0, "rental_uris": {"android": "https://dc.lft.to/lastmile_qr_scan", "ios": "https://dc.lft.to/lastmile_qr_scan"}, "fusion_lon": 0.0, "lat": 38.90973916666667, "bike_id": "945d7b82baa0c5bacebe14c2a03725ea", "type": "electric_scooter", "is_reserved": 0, "lon": -77.00900916666667}, {"fusion_lat": 0.0, "name": "64bf734b346005fd47774882396c201b", "is_disabled": 0, "rental_uris": {"android": "https://dc.lft.to/lastmile_qr_scan", "ios": "https://dc.lft.to/lastmile_qr_scan"}, "fusion_lon": 0.0, "lat": 38.839237833333335, "bike_id": "64bf734b346005fd47774882396c201b", "type": "electric_bike", "is_reserved": 0, "lon": -77.07901783333334}, {"fusion_lat": 0.0, "name": "3230f447ae3b94e4d6b0562dddc5336d", "is_disabled": 0, "rental_uris": {"android": "https://dc.lft.to/lastmile_qr_scan", "ios": "https://dc.lft.to/lastmile_qr_scan"}, "fusion_lon": 0.0, "lat": 38.9251055, "bike_id": "3230f447ae3b94e4d6b0562dddc5336d", "type": "electric_scooter", "is_reserved": 0, "lon": -77.02257133333333}, {"fusion_lat": 0.0, "name": "93c1b7d261d8d086a48d0b07457d31b4", "is_disabled": 0, "rental_uris": {"android": "https://dc.lft.to/lastmile_qr_scan", "ios": "https://dc.lft.to/lastmile_qr_scan"}, "fusion_lon": 0.0, "lat": 38.91581716666666, "bike_id": "93c1b7d261d8d086a48d0b07457d31b4", "type": "electric_scooter", "is_reserved": 0, "lon": -77.03215466666667}, {"fusion_lat": 0.0, "name": "ae014548b6be8a8b53b658d690985fce", "is_disabled": 0, "rental_uris": {"android": "https://dc.lft.to/lastmile_qr_scan", "ios": "https://dc.lft.to/lastmile_qr_scan"}, "fusion_lon": 0.0, "lat": 38.91824783333333, "bike_id": "ae014548b6be8a8b53b658d690985fce", "type": "electric_scooter", "is_reserved": 0, "lon": -77.03840516666666}, {"fusion_lat": 0.0, "name": "97959e5031f5a83659964bfab2cc5f1b", "is_disabled": 0, "rental_uris": {"android": "https://dc.lft.to/lastmile_qr_scan", "ios": "https://dc.lft.to/lastmile_qr_scan"}, "fusion_lon": 0.0, "lat": 38.933568, "bike_id": "97959e5031f5a83659964bfab2cc5f1b", "type": "electric_scooter", "is_reserved": 0, "lon": -77.03886716666666}, {"fusion_lat": 0.0, "name": "f48028455871cadabc911b4f10977cdb", "is_disabled": 0, "rental_uris": {"android": "https://dc.lft.to/lastmile_qr_scan", "ios": "https://dc.lft.to/lastmile_qr_scan"}, "fusion_lon": 0.0, "lat": 38.9413525, "bike_id": "f48028455871cadabc911b4f10977cdb", "type": "electric_scooter", "is_reserved": 0, "lon": -77.00609016666667}, {"fusion_lat": 0.0, "name": "669d0d983e06282150691e19aea3bfbc", "is_disabled": 0, "rental_uris": {"android": "https://dc.lft.to/lastmile_qr_scan", "ios": "https://dc.lft.to/lastmile_qr_scan"}, "fusion_lon": 0.0, "lat": 38.90012016666667, "bike_id": "669d0d983e06282150691e19aea3bfbc", "type": "electric_scooter", "is_reserved": 0, "lon": -77.03031283333333}, {"fusion_lat": 0.0, "name": "e008a14bc8b52a41de3afd075f46dcc6", "is_disabled": 0, "rental_uris": {"android": "https://dc.lft.to/lastmile_qr_scan", "ios": "https://dc.lft.to/lastmile_qr_scan"}, "fusion_lon": 0.0, "lat": 38.9033415, "bike_id": "e008a14bc8b52a41de3afd075f46dcc6", "type": "electric_scooter", "is_reserved": 0, "lon": -76.97251183333333}, {"fusion_lat": 0.0, "name": "0888ec5363cd0b606b00e015e19b22b8", "is_disabled": 0, "rental_uris": {"android": "https://dc.lft.to/lastmile_qr_scan", "ios": "https://dc.lft.to/lastmile_qr_scan"}, "fusion_lon": 0.0, "lat": 38.89737983333333, "bike_id": "0888ec5363cd0b606b00e015e19b22b8", "type": "electric_scooter", "is_reserved": 0, "lon": -77.03222833333334}, {"fusion_lat": 0.0, "name": "80e9fada92abed2f4b4a7faa2d775611", "is_disabled": 0, "rental_uris": {"android": "https://dc.lft.to/lastmile_qr_scan", "ios": "https://dc.lft.to/lastmile_qr_scan"}, "fusion_lon": 0.0, "lat": 38.876317, "bike_id": "80e9fada92abed2f4b4a7faa2d775611", "type": "electric_scooter", "is_reserved": 0, "lon": -77.00729316666667}, {"fusion_lat": 0.0, "name": "ae36f855a22a533a02ba052180a867c3", "is_disabled": 0, "rental_uris": {"android": "https://dc.lft.to/lastmile_qr_scan", "ios": "https://dc.lft.to/lastmile_qr_scan"}, "fusion_lon": 0.0, "lat": 38.84909483333333, "bike_id": "ae36f855a22a533a02ba052180a867c3", "type": "electric_bike", "is_reserved": 0, "lon": -77.0997795}, {"fusion_lat": 0.0, "name": "b2f4ad127419482b42ae4b481f879483", "is_disabled": 0, "rental_uris": {"android": "https://dc.lft.to/lastmile_qr_scan", "ios": "https://dc.lft.to/lastmile_qr_scan"}, "fusion_lon": 0.0, "lat": 38.9035565, "bike_id": "b2f4ad127419482b42ae4b481f879483", "type": "electric_scooter", "is_reserved": 0, "lon": -77.06269066666667}, {"fusion_lat": 0.0, "name": "6fb5f109a85c9331beb8fcb92a845f85", "is_disabled": 0, "rental_uris": {"android": "https://dc.lft.to/lastmile_qr_scan", "ios": "https://dc.lft.to/lastmile_qr_scan"}, "fusion_lon": 0.0, "lat": 38.969253, "bike_id": "6fb5f109a85c9331beb8fcb92a845f85", "type": "electric_bike", "is_reserved": 0, "lon": -77.02616566666667}, {"fusion_lat": 0.0, "name": "15818263815921edb665bedd117749b5", "is_disabled": 0, "rental_uris": {"android": "https://dc.lft.to/lastmile_qr_scan", "ios": "https://dc.lft.to/lastmile_qr_scan"}, "fusion_lon": 0.0, "lat": 38.876835666666665, "bike_id": "15818263815921edb665bedd117749b5", "type": "electric_scooter", "is_reserved": 0, "lon": -77.00716983333334}, {"fusion_lat": 0.0, "name": "136791ba698922c3682f1fd1c7f73c02", "is_disabled": 0, "rental_uris": {"android": "https://dc.lft.to/lastmile_qr_scan", "ios": "https://dc.lft.to/lastmile_qr_scan"}, "fusion_lon": 0.0, "lat": 38.90395133333333, "bike_id": "136791ba698922c3682f1fd1c7f73c02", "type": "electric_scooter", "is_reserved": 0, "lon": -77.032941}, {"fusion_lat": 0.0, "name": "80114c41e7132cd8dfbb73cd67a5d685", "is_disabled": 0, "rental_uris": {"android": "https://dc.lft.to/lastmile_qr_scan", "ios": "https://dc.lft.to/lastmile_qr_scan"}, "fusion_lon": 0.0, "lat": 38.928113333333336, "bike_id": "80114c41e7132cd8dfbb73cd67a5d685", "type": "electric_scooter", "is_reserved": 0, "lon": -77.04357016666667}, {"fusion_lat": 0.0, "name": "fdeb4c7bc55a613a3d34131d8bb363f6", "is_disabled": 0, "rental_uris": {"android": "https://dc.lft.to/lastmile_qr_scan", "ios": "https://dc.lft.to/lastmile_qr_scan"}, "fusion_lon": 0.0, "lat": 38.86515983333334, "bike_id": "fdeb4c7bc55a613a3d34131d8bb363f6", "type": "electric_bike", "is_reserved": 0, "lon": -76.97322783333334}, {"fusion_lat": 0.0, "name": "e2ae0c9c29aaf157fd6830d667e71f0c", "is_disabled": 0, "rental_uris": {"android": "https://dc.lft.to/lastmile_qr_scan", "ios": "https://dc.lft.to/lastmile_qr_scan"}, "fusion_lon": 0.0, "lat": 38.941508166666665, "bike_id": "e2ae0c9c29aaf157fd6830d667e71f0c", "type": "electric_bike", "is_reserved": 0, "lon": -77.00188183333333}, {"fusion_lat": 0.0, "name": "f0e9bca27b8d915615331d10133b7c49", "is_disabled": 0, "rental_uris": {"android": "https://dc.lft.to/lastmile_qr_scan", "ios": "https://dc.lft.to/lastmile_qr_scan"}, "fusion_lon": 0.0, "lat": 38.89464866666667, "bike_id": "f0e9bca27b8d915615331d10133b7c49", "type": "electric_scooter", "is_reserved": 0, "lon": -77.041784}, {"fusion_lat": 0.0, "name": "97c980521512198b9fe66d25d5d70ee0", "is_disabled": 0, "rental_uris": {"android": "https://dc.lft.to/lastmile_qr_scan", "ios": "https://dc.lft.to/lastmile_qr_scan"}, "fusion_lon": 0.0, "lat": 38.98780983333333, "bike_id": "97c980521512198b9fe66d25d5d70ee0", "type": "electric_bike", "is_reserved": 0, "lon": -77.14098483333333}, {"fusion_lat": 0.0, "name": "f86aea50c61bd91d201db5fe1e90c46f", "is_disabled": 0, "rental_uris": {"android": "https://dc.lft.to/lastmile_qr_scan", "ios": "https://dc.lft.to/lastmile_qr_scan"}, "fusion_lon": 0.0, "lat": 38.91265166666667, "bike_id": "f86aea50c61bd91d201db5fe1e90c46f", "type": "electric_scooter", "is_reserved": 0, "lon": -77.03179383333334}, {"fusion_lat": 0.0, "name": "8d7cd7bdb04a47f64a5a4a7c5988a5ad", "is_disabled": 0, "rental_uris": {"android": "https://dc.lft.to/lastmile_qr_scan", "ios": "https://dc.lft.to/lastmile_qr_scan"}, "fusion_lon": 0.0, "lat": 38.92427683333333, "bike_id": "8d7cd7bdb04a47f64a5a4a7c5988a5ad", "type": "electric_scooter", "is_reserved": 0, "lon": -77.022688}, {"fusion_lat": 0.0, "name": "28ad2f20d2b5ef77c2be000cc70b677f", "is_disabled": 0, "rental_uris": {"android": "https://dc.lft.to/lastmile_qr_scan", "ios": "https://dc.lft.to/lastmile_qr_scan"}, "fusion_lon": 0.0, "lat": 38.873713333333335, "bike_id": "28ad2f20d2b5ef77c2be000cc70b677f", "type": "electric_scooter", "is_reserved": 0, "lon": -77.00062483333333}, {"fusion_lat": 0.0, "name": "c7eeb6c6f0422f620988dff7ac423fb4", "is_disabled": 0, "rental_uris": {"android": "https://dc.lft.to/lastmile_qr_scan", "ios": "https://dc.lft.to/lastmile_qr_scan"}, "fusion_lon": 0.0, "lat": 38.9415845, "bike_id": "c7eeb6c6f0422f620988dff7ac423fb4", "type": "electric_bike", "is_reserved": 0, "lon": -76.96650866666667}, {"fusion_lat": 0.0, "name": "850fa8d1ae7c73aa07e57528aaa8e687", "is_disabled": 0, "rental_uris": {"android": "https://dc.lft.to/lastmile_qr_scan", "ios": "https://dc.lft.to/lastmile_qr_scan"}, "fusion_lon": 0.0, "lat": 38.87840883333333, "bike_id": "850fa8d1ae7c73aa07e57528aaa8e687", "type": "electric_scooter", "is_reserved": 0, "lon": -77.01970266666666}, {"fusion_lat": 0.0, "name": "999dad64ace56f02bcf845983fdb1733", "is_disabled": 0, "rental_uris": {"android": "https://dc.lft.to/lastmile_qr_scan", "ios": "https://dc.lft.to/lastmile_qr_scan"}, "fusion_lon": 0.0, "lat": 38.887276, "bike_id": "999dad64ace56f02bcf845983fdb1733", "type": "electric_scooter", "is_reserved": 0, "lon": -77.02272816666667}, {"fusion_lat": 0.0, "name": "a5c28f57f1b50def7c71c9db5b979e1f", "is_disabled": 0, "rental_uris": {"android": "https://dc.lft.to/lastmile_qr_scan", "ios": "https://dc.lft.to/lastmile_qr_scan"}, "fusion_lon": 0.0, "lat": 38.956316, "bike_id": "a5c28f57f1b50def7c71c9db5b979e1f", "type": "electric_scooter", "is_reserved": 0, "lon": -77.03301}, {"fusion_lat": 0.0, "name": "b47a718b3baa08ee0c6e1cea315cc7ab", "is_disabled": 0, "rental_uris": {"android": "https://dc.lft.to/lastmile_qr_scan", "ios": "https://dc.lft.to/lastmile_qr_scan"}, "fusion_lon": 0.0, "lat": 38.95567616666666, "bike_id": "b47a718b3baa08ee0c6e1cea315cc7ab", "type": "electric_bike", "is_reserved": 0, "lon": -77.01006366666667}, {"fusion_lat": 0.0, "name": "4760f78a7af7cbabec9cd37e2f1001fc", "is_disabled": 0, "rental_uris": {"android": "https://dc.lft.to/lastmile_qr_scan", "ios": "https://dc.lft.to/lastmile_qr_scan"}, "fusion_lon": 0.0, "lat": 38.958708666666666, "bike_id": "4760f78a7af7cbabec9cd37e2f1001fc", "type": "electric_bike", "is_reserved": 0, "lon": -76.97052366666667}, {"fusion_lat": 0.0, "name": "4d3b5856a78cbc4ef013783d8cbbbdb7", "is_disabled": 0, "rental_uris": {"android": "https://dc.lft.to/lastmile_qr_scan", "ios": "https://dc.lft.to/lastmile_qr_scan"}, "fusion_lon": 0.0, "lat": 38.9037295, "bike_id": "4d3b5856a78cbc4ef013783d8cbbbdb7", "type": "electric_scooter", "is_reserved": 0, "lon": -77.0502335}, {"fusion_lat": 0.0, "name": "066eb7f4e1a5ddfaa81d2814b48742c1", "is_disabled": 0, "rental_uris": {"android": "https://dc.lft.to/lastmile_qr_scan", "ios": "https://dc.lft.to/lastmile_qr_scan"}, "fusion_lon": 0.0, "lat": 38.92179733333333, "bike_id": "066eb7f4e1a5ddfaa81d2814b48742c1", "type": "electric_scooter", "is_reserved": 0, "lon": -77.0434465}, {"fusion_lat": 0.0, "name": "b9fae7cf8d4fbeaccfb2219c213341a7", "is_disabled": 0, "rental_uris": {"android": "https://dc.lft.to/lastmile_qr_scan", "ios": "https://dc.lft.to/lastmile_qr_scan"}, "fusion_lon": 0.0, "lat": 38.93026, "bike_id": "b9fae7cf8d4fbeaccfb2219c213341a7", "type": "electric_scooter", "is_reserved": 0, "lon": -77.03294383333333}, {"fusion_lat": 0.0, "name": "9e277339b4977bbe3f734a8f6774e5b1", "is_disabled": 0, "rental_uris": {"android": "https://dc.lft.to/lastmile_qr_scan", "ios": "https://dc.lft.to/lastmile_qr_scan"}, "fusion_lon": 0.0, "lat": 38.89016266666667, "bike_id": "9e277339b4977bbe3f734a8f6774e5b1", "type": "electric_scooter", "is_reserved": 0, "lon": -76.937384}, {"fusion_lat": 0.0, "name": "e54b34837cd25225b521803c9d96c7cf", "is_disabled": 0, "rental_uris": {"android": "https://dc.lft.to/lastmile_qr_scan", "ios": "https://dc.lft.to/lastmile_qr_scan"}, "fusion_lon": 0.0, "lat": 38.9063555, "bike_id": "e54b34837cd25225b521803c9d96c7cf", "type": "electric_scooter", "is_reserved": 0, "lon": -77.037083}, {"fusion_lat": 0.0, "name": "61e8654359f12b990abec861d406882d", "is_disabled": 0, "rental_uris": {"android": "https://dc.lft.to/lastmile_qr_scan", "ios": "https://dc.lft.to/lastmile_qr_scan"}, "fusion_lon": 0.0, "lat": 38.92540366666667, "bike_id": "61e8654359f12b990abec861d406882d", "type": "electric_scooter", "is_reserved": 0, "lon": -77.03830316666667}, {"fusion_lat": 0.0, "name": "51e1fdb1c1b4146954d9f62d4d6abd66", "is_disabled": 0, "rental_uris": {"android": "https://dc.lft.to/lastmile_qr_scan", "ios": "https://dc.lft.to/lastmile_qr_scan"}, "fusion_lon": 0.0, "lat": 38.938598999999996, "bike_id": "51e1fdb1c1b4146954d9f62d4d6abd66", "type": "electric_scooter", "is_reserved": 0, "lon": -77.02467716666666}, {"fusion_lat": 0.0, "name": "de73b3a820b5f1fcec3be5edeaf1062c", "is_disabled": 0, "rental_uris": {"android": "https://dc.lft.to/lastmile_qr_scan", "ios": "https://dc.lft.to/lastmile_qr_scan"}, "fusion_lon": 0.0, "lat": 38.915615, "bike_id": "de73b3a820b5f1fcec3be5edeaf1062c", "type": "electric_scooter", "is_reserved": 0, "lon": -77.03853616666666}, {"fusion_lat": 0.0, "name": "8920948fee943d743486c76f240f2b39", "is_disabled": 0, "rental_uris": {"android": "https://dc.lft.to/lastmile_qr_scan", "ios": "https://dc.lft.to/lastmile_qr_scan"}, "fusion_lon": 0.0, "lat": 38.90088333333333, "bike_id": "8920948fee943d743486c76f240f2b39", "type": "electric_scooter", "is_reserved": 0, "lon": -76.983331}, {"fusion_lat": 0.0, "name": "42894fd689c17114da555db686a25b7d", "is_disabled": 0, "rental_uris": {"android": "https://dc.lft.to/lastmile_qr_scan", "ios": "https://dc.lft.to/lastmile_qr_scan"}, "fusion_lon": 0.0, "lat": 38.910427166666665, "bike_id": "42894fd689c17114da555db686a25b7d", "type": "electric_scooter", "is_reserved": 0, "lon": -77.00829266666666}, {"fusion_lat": 0.0, "name": "4f7fc2cdf0056926e36009a61b321758", "is_disabled": 0, "rental_uris": {"android": "https://dc.lft.to/lastmile_qr_scan", "ios": "https://dc.lft.to/lastmile_qr_scan"}, "fusion_lon": 0.0, "lat": 38.89885233333333, "bike_id": "4f7fc2cdf0056926e36009a61b321758", "type": "electric_scooter", "is_reserved": 0, "lon": -77.01525666666667}, {"fusion_lat": 0.0, "name": "5fae83b46b10c1f37f68a5ba8db31999", "is_disabled": 0, "rental_uris": {"android": "https://dc.lft.to/lastmile_qr_scan", "ios": "https://dc.lft.to/lastmile_qr_scan"}, "fusion_lon": 0.0, "lat": 38.87573583333333, "bike_id": "5fae83b46b10c1f37f68a5ba8db31999", "type": "electric_scooter", "is_reserved": 0, "lon": -77.00580183333334}, {"fusion_lat": 0.0, "name": "b9255336430ca7a0c099e8476856da44", "is_disabled": 0, "rental_uris": {"android": "https://dc.lft.to/lastmile_qr_scan", "ios": "https://dc.lft.to/lastmile_qr_scan"}, "fusion_lon": 0.0, "lat": 38.9396105, "bike_id": "b9255336430ca7a0c099e8476856da44", "type": "electric_scooter", "is_reserved": 0, "lon": -77.03282266666666}, {"fusion_lat": 0.0, "name": "6f49454e6b32be042cf32e8031136351", "is_disabled": 0, "rental_uris": {"android": "https://dc.lft.to/lastmile_qr_scan", "ios": "https://dc.lft.to/lastmile_qr_scan"}, "fusion_lon": 0.0, "lat": 38.874659333333334, "bike_id": "6f49454e6b32be042cf32e8031136351", "type": "electric_scooter", "is_reserved": 0, "lon": -77.0047235}, {"fusion_lat": 0.0, "name": "6b1d683b467f2e69338aa8ef19ba6554", "is_disabled": 0, "rental_uris": {"android": "https://dc.lft.to/lastmile_qr_scan", "ios": "https://dc.lft.to/lastmile_qr_scan"}, "fusion_lon": 0.0, "lat": 38.915789, "bike_id": "6b1d683b467f2e69338aa8ef19ba6554", "type": "electric_scooter", "is_reserved": 0, "lon": -77.01233033333334}, {"fusion_lat": 0.0, "name": "2beda121ad9ad28430f1dbfe1dfa8c7d", "is_disabled": 0, "rental_uris": {"android": "https://dc.lft.to/lastmile_qr_scan", "ios": "https://dc.lft.to/lastmile_qr_scan"}, "fusion_lon": 0.0, "lat": 38.87654916666666, "bike_id": "2beda121ad9ad28430f1dbfe1dfa8c7d", "type": "electric_scooter", "is_reserved": 0, "lon": -77.0031175}, {"fusion_lat": 0.0, "name": "71b80468d00c78349e5e302a73e28a4f", "is_disabled": 0, "rental_uris": {"android": "https://dc.lft.to/lastmile_qr_scan", "ios": "https://dc.lft.to/lastmile_qr_scan"}, "fusion_lon": 0.0, "lat": 38.920785333333335, "bike_id": "71b80468d00c78349e5e302a73e28a4f", "type": "electric_scooter", "is_reserved": 0, "lon": -77.0230425}, {"fusion_lat": 0.0, "name": "0c9a20c87d2f62a39f4559c3250a039c", "is_disabled": 0, "rental_uris": {"android": "https://dc.lft.to/lastmile_qr_scan", "ios": "https://dc.lft.to/lastmile_qr_scan"}, "fusion_lon": 0.0, "lat": 38.9227165, "bike_id": "0c9a20c87d2f62a39f4559c3250a039c", "type": "electric_scooter", "is_reserved": 0, "lon": -77.03358083333333}, {"fusion_lat": 0.0, "name": "d7ddc7c3bcfacc02695e843c640fe4c8", "is_disabled": 0, "rental_uris": {"android": "https://dc.lft.to/lastmile_qr_scan", "ios": "https://dc.lft.to/lastmile_qr_scan"}, "fusion_lon": 0.0, "lat": 38.9140125, "bike_id": "d7ddc7c3bcfacc02695e843c640fe4c8", "type": "electric_scooter", "is_reserved": 0, "lon": -77.03227316666667}, {"fusion_lat": 0.0, "name": "5e4e2cdb2ad2831af24724e5c982055c", "is_disabled": 0, "rental_uris": {"android": "https://dc.lft.to/lastmile_qr_scan", "ios": "https://dc.lft.to/lastmile_qr_scan"}, "fusion_lon": 0.0, "lat": 38.910815, "bike_id": "5e4e2cdb2ad2831af24724e5c982055c", "type": "electric_scooter", "is_reserved": 0, "lon": -77.0672745}, {"fusion_lat": 0.0, "name": "27f5c907345603e308548fc5aa6a9e6d", "is_disabled": 0, "rental_uris": {"android": "https://dc.lft.to/lastmile_qr_scan", "ios": "https://dc.lft.to/lastmile_qr_scan"}, "fusion_lon": 0.0, "lat": 38.90759633333333, "bike_id": "27f5c907345603e308548fc5aa6a9e6d", "type": "electric_scooter", "is_reserved": 0, "lon": -77.0565165}, {"fusion_lat": 0.0, "name": "6bac6d78478e8d5c61e92a0782d20a28", "is_disabled": 0, "rental_uris": {"android": "https://dc.lft.to/lastmile_qr_scan", "ios": "https://dc.lft.to/lastmile_qr_scan"}, "fusion_lon": 0.0, "lat": 38.797569, "bike_id": "6bac6d78478e8d5c61e92a0782d20a28", "type": "electric_bike", "is_reserved": 0, "lon": -77.04751916666666}, {"fusion_lat": 0.0, "name": "fe316876f9d7a95e000595f85c7281f6", "is_disabled": 0, "rental_uris": {"android": "https://dc.lft.to/lastmile_qr_scan", "ios": "https://dc.lft.to/lastmile_qr_scan"}, "fusion_lon": 0.0, "lat": 38.88142833333333, "bike_id": "fe316876f9d7a95e000595f85c7281f6", "type": "electric_scooter", "is_reserved": 0, "lon": -76.994957}, {"fusion_lat": 0.0, "name": "d751d65384fb5e02614c4c873debcfdf", "is_disabled": 0, "rental_uris": {"android": "https://dc.lft.to/lastmile_qr_scan", "ios": "https://dc.lft.to/lastmile_qr_scan"}, "fusion_lon": 0.0, "lat": 38.937721, "bike_id": "d751d65384fb5e02614c4c873debcfdf", "type": "electric_scooter", "is_reserved": 0, "lon": -77.03264716666666}, {"fusion_lat": 0.0, "name": "cf5e47e626d29c99e38fefcfe741b490", "is_disabled": 0, "rental_uris": {"android": "https://dc.lft.to/lastmile_qr_scan", "ios": "https://dc.lft.to/lastmile_qr_scan"}, "fusion_lon": 0.0, "lat": 38.88484733333333, "bike_id": "cf5e47e626d29c99e38fefcfe741b490", "type": "electric_scooter", "is_reserved": 0, "lon": -77.01731433333333}, {"fusion_lat": 0.0, "name": "3012e76ae1d092420a03edc702f90167", "is_disabled": 0, "rental_uris": {"android": "https://dc.lft.to/lastmile_qr_scan", "ios": "https://dc.lft.to/lastmile_qr_scan"}, "fusion_lon": 0.0, "lat": 38.82777933333333, "bike_id": "3012e76ae1d092420a03edc702f90167", "type": "electric_bike", "is_reserved": 0, "lon": -77.1248225}, {"fusion_lat": 0.0, "name": "0aa39d97fec373dab085c1bfd9d8d611", "is_disabled": 0, "rental_uris": {"android": "https://dc.lft.to/lastmile_qr_scan", "ios": "https://dc.lft.to/lastmile_qr_scan"}, "fusion_lon": 0.0, "lat": 38.922273833333335, "bike_id": "0aa39d97fec373dab085c1bfd9d8d611", "type": "electric_scooter", "is_reserved": 0, "lon": -77.02366816666667}, {"fusion_lat": 0.0, "name": "def5f931445524aee915593e92af8ae0", "is_disabled": 0, "rental_uris": {"android": "https://dc.lft.to/lastmile_qr_scan", "ios": "https://dc.lft.to/lastmile_qr_scan"}, "fusion_lon": 0.0, "lat": 38.883261166666664, "bike_id": "def5f931445524aee915593e92af8ae0", "type": "electric_bike", "is_reserved": 0, "lon": -76.9605825}, {"fusion_lat": 0.0, "name": "8966c69641ed3354a5add97eeb33bc15", "is_disabled": 0, "rental_uris": {"android": "https://dc.lft.to/lastmile_qr_scan", "ios": "https://dc.lft.to/lastmile_qr_scan"}, "fusion_lon": 0.0, "lat": 38.89793433333333, "bike_id": "8966c69641ed3354a5add97eeb33bc15", "type": "electric_scooter", "is_reserved": 0, "lon": -77.0294425}, {"fusion_lat": 0.0, "name": "7eb6c2eec8263e2041a7b4d4e1924673", "is_disabled": 0, "rental_uris": {"android": "https://dc.lft.to/lastmile_qr_scan", "ios": "https://dc.lft.to/lastmile_qr_scan"}, "fusion_lon": 0.0, "lat": 38.9011805, "bike_id": "7eb6c2eec8263e2041a7b4d4e1924673", "type": "electric_scooter", "is_reserved": 0, "lon": -77.01713433333333}, {"fusion_lat": 0.0, "name": "9d3147d0b091fea134804f5d18242c3f", "is_disabled": 0, "rental_uris": {"android": "https://dc.lft.to/lastmile_qr_scan", "ios": "https://dc.lft.to/lastmile_qr_scan"}, "fusion_lon": 0.0, "lat": 38.89839583333333, "bike_id": "9d3147d0b091fea134804f5d18242c3f", "type": "electric_scooter", "is_reserved": 0, "lon": -77.02261683333333}, {"fusion_lat": 0.0, "name": "97eccae21d3c67eac8f8c65b21a285e4", "is_disabled": 0, "rental_uris": {"android": "https://dc.lft.to/lastmile_qr_scan", "ios": "https://dc.lft.to/lastmile_qr_scan"}, "fusion_lon": 0.0, "lat": 38.918712, "bike_id": "97eccae21d3c67eac8f8c65b21a285e4", "type": "electric_scooter", "is_reserved": 0, "lon": -77.0259525}, {"fusion_lat": 0.0, "name": "7652361b24942109ac088c868dd6f134", "is_disabled": 0, "rental_uris": {"android": "https://dc.lft.to/lastmile_qr_scan", "ios": "https://dc.lft.to/lastmile_qr_scan"}, "fusion_lon": 0.0, "lat": 38.905875, "bike_id": "7652361b24942109ac088c868dd6f134", "type": "electric_scooter", "is_reserved": 0, "lon": -77.00596483333334}, {"fusion_lat": 0.0, "name": "1ba11bcba06f6f5235bc97b9c3bcfdfb", "is_disabled": 0, "rental_uris": {"android": "https://dc.lft.to/lastmile_qr_scan", "ios": "https://dc.lft.to/lastmile_qr_scan"}, "fusion_lon": 0.0, "lat": 38.9030525, "bike_id": "1ba11bcba06f6f5235bc97b9c3bcfdfb", "type": "electric_scooter", "is_reserved": 0, "lon": -76.97656033333334}, {"fusion_lat": 0.0, "name": "707df347c733b7e89ad12a4b8f7ff5ba", "is_disabled": 0, "rental_uris": {"android": "https://dc.lft.to/lastmile_qr_scan", "ios": "https://dc.lft.to/lastmile_qr_scan"}, "fusion_lon": 0.0, "lat": 38.940468833333334, "bike_id": "707df347c733b7e89ad12a4b8f7ff5ba", "type": "electric_bike", "is_reserved": 0, "lon": -76.90420133333333}, {"fusion_lat": 0.0, "name": "4446d64b746e6ca683089f8fe946e4e5", "is_disabled": 0, "rental_uris": {"android": "https://dc.lft.to/lastmile_qr_scan", "ios": "https://dc.lft.to/lastmile_qr_scan"}, "fusion_lon": 0.0, "lat": 38.994411666666664, "bike_id": "4446d64b746e6ca683089f8fe946e4e5", "type": "electric_bike", "is_reserved": 0, "lon": -76.99586933333333}, {"fusion_lat": 0.0, "name": "59ca1b58ee23edefc51337c459fbba38", "is_disabled": 0, "rental_uris": {"android": "https://dc.lft.to/lastmile_qr_scan", "ios": "https://dc.lft.to/lastmile_qr_scan"}, "fusion_lon": 0.0, "lat": 38.883801166666665, "bike_id": "59ca1b58ee23edefc51337c459fbba38", "type": "electric_scooter", "is_reserved": 0, "lon": -77.0298995}, {"fusion_lat": 0.0, "name": "7e862e2a7b63d3a192e32a45d7f0e445", "is_disabled": 0, "rental_uris": {"android": "https://dc.lft.to/lastmile_qr_scan", "ios": "https://dc.lft.to/lastmile_qr_scan"}, "fusion_lon": 0.0, "lat": 38.916766333333335, "bike_id": "7e862e2a7b63d3a192e32a45d7f0e445", "type": "electric_scooter", "is_reserved": 0, "lon": -77.04189483333333}, {"fusion_lat": 0.0, "name": "a238188f6c6c1abca6db1155437e4d52", "is_disabled": 0, "rental_uris": {"android": "https://dc.lft.to/lastmile_qr_scan", "ios": "https://dc.lft.to/lastmile_qr_scan"}, "fusion_lon": 0.0, "lat": 38.91458933333333, "bike_id": "a238188f6c6c1abca6db1155437e4d52", "type": "electric_scooter", "is_reserved": 0, "lon": -76.98440483333333}, {"fusion_lat": 0.0, "name": "deb6940349d1ec3e8fe351dfcb7914ae", "is_disabled": 0, "rental_uris": {"android": "https://dc.lft.to/lastmile_qr_scan", "ios": "https://dc.lft.to/lastmile_qr_scan"}, "fusion_lon": 0.0, "lat": 38.84268466666666, "bike_id": "deb6940349d1ec3e8fe351dfcb7914ae", "type": "electric_bike", "is_reserved": 0, "lon": -76.9884535}, {"fusion_lat": 0.0, "name": "dbbfdb5a809fad7e669afddb121acbea", "is_disabled": 0, "rental_uris": {"android": "https://dc.lft.to/lastmile_qr_scan", "ios": "https://dc.lft.to/lastmile_qr_scan"}, "fusion_lon": 0.0, "lat": 38.89976333333333, "bike_id": "dbbfdb5a809fad7e669afddb121acbea", "type": "electric_scooter", "is_reserved": 0, "lon": -77.04044483333334}, {"fusion_lat": 0.0, "name": "90616984b251b3ef4c3f0046cb206a23", "is_disabled": 0, "rental_uris": {"android": "https://dc.lft.to/lastmile_qr_scan", "ios": "https://dc.lft.to/lastmile_qr_scan"}, "fusion_lon": 0.0, "lat": 38.9021175, "bike_id": "90616984b251b3ef4c3f0046cb206a23", "type": "electric_scooter", "is_reserved": 0, "lon": -77.02309083333333}, {"fusion_lat": 0.0, "name": "6b07a072fcdce7e9dedea50284847e78", "is_disabled": 0, "rental_uris": {"android": "https://dc.lft.to/lastmile_qr_scan", "ios": "https://dc.lft.to/lastmile_qr_scan"}, "fusion_lon": 0.0, "lat": 38.91002183333333, "bike_id": "6b07a072fcdce7e9dedea50284847e78", "type": "electric_scooter", "is_reserved": 0, "lon": -77.03455516666666}, {"fusion_lat": 0.0, "name": "a1c64b406a7e7fb3b3e1be26bd7b5be8", "is_disabled": 0, "rental_uris": {"android": "https://dc.lft.to/lastmile_qr_scan", "ios": "https://dc.lft.to/lastmile_qr_scan"}, "fusion_lon": 0.0, "lat": 38.900202666666665, "bike_id": "a1c64b406a7e7fb3b3e1be26bd7b5be8", "type": "electric_scooter", "is_reserved": 0, "lon": -77.01172766666667}, {"fusion_lat": 0.0, "name": "67bcf233827297cf211a08a243eef91c", "is_disabled": 0, "rental_uris": {"android": "https://dc.lft.to/lastmile_qr_scan", "ios": "https://dc.lft.to/lastmile_qr_scan"}, "fusion_lon": 0.0, "lat": 38.917836666666666, "bike_id": "67bcf233827297cf211a08a243eef91c", "type": "electric_scooter", "is_reserved": 0, "lon": -77.0402185}, {"fusion_lat": 0.0, "name": "2558fb246971e59a1288e3d679622a6d", "is_disabled": 0, "rental_uris": {"android": "https://dc.lft.to/lastmile_qr_scan", "ios": "https://dc.lft.to/lastmile_qr_scan"}, "fusion_lon": 0.0, "lat": 38.932130666666666, "bike_id": "2558fb246971e59a1288e3d679622a6d", "type": "electric_scooter", "is_reserved": 0, "lon": -77.04417266666667}, {"fusion_lat": 0.0, "name": "36d4c510e6b3bcbb4b7c384a968c611d", "is_disabled": 0, "rental_uris": {"android": "https://dc.lft.to/lastmile_qr_scan", "ios": "https://dc.lft.to/lastmile_qr_scan"}, "fusion_lon": 0.0, "lat": 38.938739166666664, "bike_id": "36d4c510e6b3bcbb4b7c384a968c611d", "type": "electric_scooter", "is_reserved": 0, "lon": -77.03228033333333}, {"fusion_lat": 0.0, "name": "bdf8f83178d621b9b832e3d4f366bc0a", "is_disabled": 0, "rental_uris": {"android": "https://dc.lft.to/lastmile_qr_scan", "ios": "https://dc.lft.to/lastmile_qr_scan"}, "fusion_lon": 0.0, "lat": 38.90715133333333, "bike_id": "bdf8f83178d621b9b832e3d4f366bc0a", "type": "electric_scooter", "is_reserved": 0, "lon": -77.02889533333334}, {"fusion_lat": 0.0, "name": "b4fc9a55122cf0c24f2ee3b4e51dcdb1", "is_disabled": 0, "rental_uris": {"android": "https://dc.lft.to/lastmile_qr_scan", "ios": "https://dc.lft.to/lastmile_qr_scan"}, "fusion_lon": 0.0, "lat": 38.906339333333335, "bike_id": "b4fc9a55122cf0c24f2ee3b4e51dcdb1", "type": "electric_scooter", "is_reserved": 0, "lon": -77.00669816666667}, {"fusion_lat": 0.0, "name": "eb5ef96ddecc9b9933b1b2a8614ee94e", "is_disabled": 0, "rental_uris": {"android": "https://dc.lft.to/lastmile_qr_scan", "ios": "https://dc.lft.to/lastmile_qr_scan"}, "fusion_lon": 0.0, "lat": 38.905321666666666, "bike_id": "eb5ef96ddecc9b9933b1b2a8614ee94e", "type": "electric_scooter", "is_reserved": 0, "lon": -77.05873866666667}, {"fusion_lat": 0.0, "name": "9a478cf6df2ec5b626b985a71824639b", "is_disabled": 0, "rental_uris": {"android": "https://dc.lft.to/lastmile_qr_scan", "ios": "https://dc.lft.to/lastmile_qr_scan"}, "fusion_lon": 0.0, "lat": 38.966705833333336, "bike_id": "9a478cf6df2ec5b626b985a71824639b", "type": "electric_scooter", "is_reserved": 0, "lon": -77.0254955}, {"fusion_lat": 0.0, "name": "c5cce9f44a8e719ba513014aedd557a3", "is_disabled": 0, "rental_uris": {"android": "https://dc.lft.to/lastmile_qr_scan", "ios": "https://dc.lft.to/lastmile_qr_scan"}, "fusion_lon": 0.0, "lat": 38.9131115, "bike_id": "c5cce9f44a8e719ba513014aedd557a3", "type": "electric_scooter", "is_reserved": 0, "lon": -77.03637716666667}, {"fusion_lat": 0.0, "name": "92ed6f50d1e2352cfc024a29027b777b", "is_disabled": 0, "rental_uris": {"android": "https://dc.lft.to/lastmile_qr_scan", "ios": "https://dc.lft.to/lastmile_qr_scan"}, "fusion_lon": 0.0, "lat": 38.88141533333334, "bike_id": "92ed6f50d1e2352cfc024a29027b777b", "type": "electric_scooter", "is_reserved": 0, "lon": -76.9949995}, {"fusion_lat": 0.0, "name": "d282300bd08f74a070cd96ace64a537a", "is_disabled": 0, "rental_uris": {"android": "https://dc.lft.to/lastmile_qr_scan", "ios": "https://dc.lft.to/lastmile_qr_scan"}, "fusion_lon": 0.0, "lat": 38.89682216666667, "bike_id": "d282300bd08f74a070cd96ace64a537a", "type": "electric_scooter", "is_reserved": 0, "lon": -77.00552566666667}, {"fusion_lat": 0.0, "name": "5d8063dd7c1661ef499118db103c9ae0", "is_disabled": 0, "rental_uris": {"android": "https://dc.lft.to/lastmile_qr_scan", "ios": "https://dc.lft.to/lastmile_qr_scan"}, "fusion_lon": 0.0, "lat": 38.886044166666665, "bike_id": "5d8063dd7c1661ef499118db103c9ae0", "type": "electric_scooter", "is_reserved": 0, "lon": -77.0033965}, {"fusion_lat": 0.0, "name": "9ec0c2790ab2b7b00f3525223bfec40b", "is_disabled": 0, "rental_uris": {"android": "https://dc.lft.to/lastmile_qr_scan", "ios": "https://dc.lft.to/lastmile_qr_scan"}, "fusion_lon": 0.0, "lat": 38.903429, "bike_id": "9ec0c2790ab2b7b00f3525223bfec40b", "type": "electric_scooter", "is_reserved": 0, "lon": -77.066667}, {"fusion_lat": 0.0, "name": "e470a37ea1341815b15366057efbbb8f", "is_disabled": 0, "rental_uris": {"android": "https://dc.lft.to/lastmile_qr_scan", "ios": "https://dc.lft.to/lastmile_qr_scan"}, "fusion_lon": 0.0, "lat": 38.91401583333333, "bike_id": "e470a37ea1341815b15366057efbbb8f", "type": "electric_scooter", "is_reserved": 0, "lon": -77.04095983333333}, {"fusion_lat": 0.0, "name": "3a46a1aa7e6c15ef5a5cfda905111768", "is_disabled": 0, "rental_uris": {"android": "https://dc.lft.to/lastmile_qr_scan", "ios": "https://dc.lft.to/lastmile_qr_scan"}, "fusion_lon": 0.0, "lat": 38.930034166666665, "bike_id": "3a46a1aa7e6c15ef5a5cfda905111768", "type": "electric_scooter", "is_reserved": 0, "lon": -77.021115}, {"fusion_lat": 0.0, "name": "b16a0482053c7bcc8896f65bc5b8d698", "is_disabled": 0, "rental_uris": {"android": "https://dc.lft.to/lastmile_qr_scan", "ios": "https://dc.lft.to/lastmile_qr_scan"}, "fusion_lon": 0.0, "lat": 38.9561735, "bike_id": "b16a0482053c7bcc8896f65bc5b8d698", "type": "electric_bike", "is_reserved": 0, "lon": -76.9387085}, {"fusion_lat": 0.0, "name": "a15abb1e61491c8ae97e4a6f7e42dee7", "is_disabled": 0, "rental_uris": {"android": "https://dc.lft.to/lastmile_qr_scan", "ios": "https://dc.lft.to/lastmile_qr_scan"}, "fusion_lon": 0.0, "lat": 38.945235, "bike_id": "a15abb1e61491c8ae97e4a6f7e42dee7", "type": "electric_scooter", "is_reserved": 0, "lon": -77.02087}, {"fusion_lat": 0.0, "name": "43375e676573d93e658752d7b737dc14", "is_disabled": 0, "rental_uris": {"android": "https://dc.lft.to/lastmile_qr_scan", "ios": "https://dc.lft.to/lastmile_qr_scan"}, "fusion_lon": 0.0, "lat": 39.010746, "bike_id": "43375e676573d93e658752d7b737dc14", "type": "electric_bike", "is_reserved": 0, "lon": -76.91065616666667}, {"fusion_lat": 0.0, "name": "bdc3ffca9940c7dd2745586a8bf17aa8", "is_disabled": 0, "rental_uris": {"android": "https://dc.lft.to/lastmile_qr_scan", "ios": "https://dc.lft.to/lastmile_qr_scan"}, "fusion_lon": 0.0, "lat": 38.8816435, "bike_id": "bdc3ffca9940c7dd2745586a8bf17aa8", "type": "electric_scooter", "is_reserved": 0, "lon": -77.02769683333334}, {"fusion_lat": 0.0, "name": "1ea9ac22db82b2e7877f1c86d3556c7d", "is_disabled": 0, "rental_uris": {"android": "https://dc.lft.to/lastmile_qr_scan", "ios": "https://dc.lft.to/lastmile_qr_scan"}, "fusion_lon": 0.0, "lat": 38.894854, "bike_id": "1ea9ac22db82b2e7877f1c86d3556c7d", "type": "electric_scooter", "is_reserved": 0, "lon": -77.01072733333334}, {"fusion_lat": 0.0, "name": "06f950888ba7efc8d57ded116e7b9fb0", "is_disabled": 0, "rental_uris": {"android": "https://dc.lft.to/lastmile_qr_scan", "ios": "https://dc.lft.to/lastmile_qr_scan"}, "fusion_lon": 0.0, "lat": 38.91666083333333, "bike_id": "06f950888ba7efc8d57ded116e7b9fb0", "type": "electric_scooter", "is_reserved": 0, "lon": -77.02277983333333}, {"fusion_lat": 0.0, "name": "f4adda3819113cf3135b93cc14a8705b", "is_disabled": 0, "rental_uris": {"android": "https://dc.lft.to/lastmile_qr_scan", "ios": "https://dc.lft.to/lastmile_qr_scan"}, "fusion_lon": 0.0, "lat": 38.902842666666665, "bike_id": "f4adda3819113cf3135b93cc14a8705b", "type": "electric_scooter", "is_reserved": 0, "lon": -77.03642283333333}, {"fusion_lat": 0.0, "name": "2fa0266021f17cdd809c4713f0c11e5f", "is_disabled": 0, "rental_uris": {"android": "https://dc.lft.to/lastmile_qr_scan", "ios": "https://dc.lft.to/lastmile_qr_scan"}, "fusion_lon": 0.0, "lat": 38.93049883333333, "bike_id": "2fa0266021f17cdd809c4713f0c11e5f", "type": "electric_scooter", "is_reserved": 0, "lon": -77.04061183333333}, {"fusion_lat": 0.0, "name": "7a9b3e4b18d0dbdd16685e096b4919b4", "is_disabled": 0, "rental_uris": {"android": "https://dc.lft.to/lastmile_qr_scan", "ios": "https://dc.lft.to/lastmile_qr_scan"}, "fusion_lon": 0.0, "lat": 38.91912766666667, "bike_id": "7a9b3e4b18d0dbdd16685e096b4919b4", "type": "electric_scooter", "is_reserved": 0, "lon": -77.01215633333334}, {"fusion_lat": 0.0, "name": "9675b87417aa0fda030b3403d4f9a91a", "is_disabled": 0, "rental_uris": {"android": "https://dc.lft.to/lastmile_qr_scan", "ios": "https://dc.lft.to/lastmile_qr_scan"}, "fusion_lon": 0.0, "lat": 38.9167985, "bike_id": "9675b87417aa0fda030b3403d4f9a91a", "type": "electric_scooter", "is_reserved": 0, "lon": -77.029659}, {"fusion_lat": 0.0, "name": "1d10d394632f52a4fb1202e9bf18ac04", "is_disabled": 0, "rental_uris": {"android": "https://dc.lft.to/lastmile_qr_scan", "ios": "https://dc.lft.to/lastmile_qr_scan"}, "fusion_lon": 0.0, "lat": 38.925538, "bike_id": "1d10d394632f52a4fb1202e9bf18ac04", "type": "electric_scooter", "is_reserved": 0, "lon": -77.02275366666667}, {"fusion_lat": 0.0, "name": "bf6539e1ab2df323f7f40e4b9962dcd2", "is_disabled": 0, "rental_uris": {"android": "https://dc.lft.to/lastmile_qr_scan", "ios": "https://dc.lft.to/lastmile_qr_scan"}, "fusion_lon": 0.0, "lat": 38.90718233333333, "bike_id": "bf6539e1ab2df323f7f40e4b9962dcd2", "type": "electric_scooter", "is_reserved": 0, "lon": -77.04016083333333}, {"fusion_lat": 0.0, "name": "10294e9181b2c7813bbf6d27cb31be07", "is_disabled": 0, "rental_uris": {"android": "https://dc.lft.to/lastmile_qr_scan", "ios": "https://dc.lft.to/lastmile_qr_scan"}, "fusion_lon": 0.0, "lat": 38.926987833333335, "bike_id": "10294e9181b2c7813bbf6d27cb31be07", "type": "electric_scooter", "is_reserved": 0, "lon": -77.02409666666667}, {"fusion_lat": 0.0, "name": "0a9cde7a685627280516e7d600cf904f", "is_disabled": 0, "rental_uris": {"android": "https://dc.lft.to/lastmile_qr_scan", "ios": "https://dc.lft.to/lastmile_qr_scan"}, "fusion_lon": 0.0, "lat": 38.8871145, "bike_id": "0a9cde7a685627280516e7d600cf904f", "type": "electric_scooter", "is_reserved": 0, "lon": -77.01770616666667}, {"fusion_lat": 0.0, "name": "b411d5ed1958e15ab866cc54b3f7933e", "is_disabled": 0, "rental_uris": {"android": "https://dc.lft.to/lastmile_qr_scan", "ios": "https://dc.lft.to/lastmile_qr_scan"}, "fusion_lon": 0.0, "lat": 38.94224416666667, "bike_id": "b411d5ed1958e15ab866cc54b3f7933e", "type": "electric_scooter", "is_reserved": 0, "lon": -77.0138435}, {"fusion_lat": 0.0, "name": "9f16246d222d83abd61929d6ff39b966", "is_disabled": 0, "rental_uris": {"android": "https://dc.lft.to/lastmile_qr_scan", "ios": "https://dc.lft.to/lastmile_qr_scan"}, "fusion_lon": 0.0, "lat": 38.887406, "bike_id": "9f16246d222d83abd61929d6ff39b966", "type": "electric_scooter", "is_reserved": 0, "lon": -77.02378533333334}, {"fusion_lat": 0.0, "name": "dbb509afb63f91349e74facf3140e3be", "is_disabled": 0, "rental_uris": {"android": "https://dc.lft.to/lastmile_qr_scan", "ios": "https://dc.lft.to/lastmile_qr_scan"}, "fusion_lon": 0.0, "lat": 38.883082, "bike_id": "dbb509afb63f91349e74facf3140e3be", "type": "electric_scooter", "is_reserved": 0, "lon": -77.01758483333333}, {"fusion_lat": 0.0, "name": "136b6db5fa5130c9dd251d2b41c2280b", "is_disabled": 0, "rental_uris": {"android": "https://dc.lft.to/lastmile_qr_scan", "ios": "https://dc.lft.to/lastmile_qr_scan"}, "fusion_lon": 0.0, "lat": 38.920761166666665, "bike_id": "136b6db5fa5130c9dd251d2b41c2280b", "type": "electric_bike", "is_reserved": 0, "lon": -76.9894745}, {"fusion_lat": 0.0, "name": "a796047dd38ba40537d95be77f1b1d0a", "is_disabled": 0, "rental_uris": {"android": "https://dc.lft.to/lastmile_qr_scan", "ios": "https://dc.lft.to/lastmile_qr_scan"}, "fusion_lon": 0.0, "lat": 38.88720816666667, "bike_id": "a796047dd38ba40537d95be77f1b1d0a", "type": "electric_scooter", "is_reserved": 0, "lon": -76.9835655}, {"fusion_lat": 0.0, "name": "3da055cce4e271709e56df0d9f3caccd", "is_disabled": 0, "rental_uris": {"android": "https://dc.lft.to/lastmile_qr_scan", "ios": "https://dc.lft.to/lastmile_qr_scan"}, "fusion_lon": 0.0, "lat": 38.91634616666666, "bike_id": "3da055cce4e271709e56df0d9f3caccd", "type": "electric_scooter", "is_reserved": 0, "lon": -77.0280565}, {"fusion_lat": 0.0, "name": "e889e1d3302bca60ea4750102d53e761", "is_disabled": 0, "rental_uris": {"android": "https://dc.lft.to/lastmile_qr_scan", "ios": "https://dc.lft.to/lastmile_qr_scan"}, "fusion_lon": 0.0, "lat": 38.89964116666667, "bike_id": "e889e1d3302bca60ea4750102d53e761", "type": "electric_scooter", "is_reserved": 0, "lon": -76.987154}, {"fusion_lat": 0.0, "name": "b7cfaa7af1c46802e74286daffbbbafc", "is_disabled": 0, "rental_uris": {"android": "https://dc.lft.to/lastmile_qr_scan", "ios": "https://dc.lft.to/lastmile_qr_scan"}, "fusion_lon": 0.0, "lat": 38.91716383333333, "bike_id": "b7cfaa7af1c46802e74286daffbbbafc", "type": "electric_scooter", "is_reserved": 0, "lon": -76.96872533333334}, {"fusion_lat": 0.0, "name": "f7ebdd2d4f38140ad8c8d4799147a16f", "is_disabled": 0, "rental_uris": {"android": "https://dc.lft.to/lastmile_qr_scan", "ios": "https://dc.lft.to/lastmile_qr_scan"}, "fusion_lon": 0.0, "lat": 38.90521183333333, "bike_id": "f7ebdd2d4f38140ad8c8d4799147a16f", "type": "electric_scooter", "is_reserved": 0, "lon": -77.06142716666666}, {"fusion_lat": 0.0, "name": "8e8ace0edd20cc829992b89754101357", "is_disabled": 0, "rental_uris": {"android": "https://dc.lft.to/lastmile_qr_scan", "ios": "https://dc.lft.to/lastmile_qr_scan"}, "fusion_lon": 0.0, "lat": 38.91386633333333, "bike_id": "8e8ace0edd20cc829992b89754101357", "type": "electric_scooter", "is_reserved": 0, "lon": -77.03946366666666}, {"fusion_lat": 0.0, "name": "b5a92120dc212ea4245fd387b165702e", "is_disabled": 0, "rental_uris": {"android": "https://dc.lft.to/lastmile_qr_scan", "ios": "https://dc.lft.to/lastmile_qr_scan"}, "fusion_lon": 0.0, "lat": 38.913192333333335, "bike_id": "b5a92120dc212ea4245fd387b165702e", "type": "electric_scooter", "is_reserved": 0, "lon": -77.04706783333333}, {"fusion_lat": 0.0, "name": "29d63900d8b0ac6abbb510ae6eb2a97b", "is_disabled": 0, "rental_uris": {"android": "https://dc.lft.to/lastmile_qr_scan", "ios": "https://dc.lft.to/lastmile_qr_scan"}, "fusion_lon": 0.0, "lat": 38.910207, "bike_id": "29d63900d8b0ac6abbb510ae6eb2a97b", "type": "electric_scooter", "is_reserved": 0, "lon": -77.00756633333333}, {"fusion_lat": 0.0, "name": "c88cf92c5eecff175dbd83da10991b40", "is_disabled": 0, "rental_uris": {"android": "https://dc.lft.to/lastmile_qr_scan", "ios": "https://dc.lft.to/lastmile_qr_scan"}, "fusion_lon": 0.0, "lat": 38.91478133333333, "bike_id": "c88cf92c5eecff175dbd83da10991b40", "type": "electric_scooter", "is_reserved": 0, "lon": -77.032181}, {"fusion_lat": 0.0, "name": "e45426822f9da57e84913d6ce4062d8c", "is_disabled": 0, "rental_uris": {"android": "https://dc.lft.to/lastmile_qr_scan", "ios": "https://dc.lft.to/lastmile_qr_scan"}, "fusion_lon": 0.0, "lat": 38.90790166666667, "bike_id": "e45426822f9da57e84913d6ce4062d8c", "type": "electric_scooter", "is_reserved": 0, "lon": -76.99430933333333}, {"fusion_lat": 0.0, "name": "15a916dd2222d423f70e5386480da39b", "is_disabled": 0, "rental_uris": {"android": "https://dc.lft.to/lastmile_qr_scan", "ios": "https://dc.lft.to/lastmile_qr_scan"}, "fusion_lon": 0.0, "lat": 38.91702766666667, "bike_id": "15a916dd2222d423f70e5386480da39b", "type": "electric_scooter", "is_reserved": 0, "lon": -77.01354983333333}, {"fusion_lat": 0.0, "name": "5d8e0a6e1f68012aededb832a379dcdd", "is_disabled": 0, "rental_uris": {"android": "https://dc.lft.to/lastmile_qr_scan", "ios": "https://dc.lft.to/lastmile_qr_scan"}, "fusion_lon": 0.0, "lat": 38.922438166666666, "bike_id": "5d8e0a6e1f68012aededb832a379dcdd", "type": "electric_scooter", "is_reserved": 0, "lon": -77.07448916666667}, {"fusion_lat": 0.0, "name": "3e73120875100734d47ca051d8754d39", "is_disabled": 0, "rental_uris": {"android": "https://dc.lft.to/lastmile_qr_scan", "ios": "https://dc.lft.to/lastmile_qr_scan"}, "fusion_lon": 0.0, "lat": 38.904255166666665, "bike_id": "3e73120875100734d47ca051d8754d39", "type": "electric_scooter", "is_reserved": 0, "lon": -76.98282133333333}, {"fusion_lat": 0.0, "name": "68ae4de96669a7c927045f19e8e0caa6", "is_disabled": 0, "rental_uris": {"android": "https://dc.lft.to/lastmile_qr_scan", "ios": "https://dc.lft.to/lastmile_qr_scan"}, "fusion_lon": 0.0, "lat": 38.9111835, "bike_id": "68ae4de96669a7c927045f19e8e0caa6", "type": "electric_scooter", "is_reserved": 0, "lon": -76.99725216666667}, {"fusion_lat": 0.0, "name": "c96867fbf000c15f2de1ec6f529338e5", "is_disabled": 0, "rental_uris": {"android": "https://dc.lft.to/lastmile_qr_scan", "ios": "https://dc.lft.to/lastmile_qr_scan"}, "fusion_lon": 0.0, "lat": 38.888283333333334, "bike_id": "c96867fbf000c15f2de1ec6f529338e5", "type": "electric_scooter", "is_reserved": 0, "lon": -76.98664566666666}, {"fusion_lat": 0.0, "name": "8a63001aa2784163ca05274e8d9fda63", "is_disabled": 0, "rental_uris": {"android": "https://dc.lft.to/lastmile_qr_scan", "ios": "https://dc.lft.to/lastmile_qr_scan"}, "fusion_lon": 0.0, "lat": 38.915011, "bike_id": "8a63001aa2784163ca05274e8d9fda63", "type": "electric_scooter", "is_reserved": 0, "lon": -77.06728966666667}, {"fusion_lat": 0.0, "name": "88bf5eedabed4f306fec28ca4a33bd44", "is_disabled": 0, "rental_uris": {"android": "https://dc.lft.to/lastmile_qr_scan", "ios": "https://dc.lft.to/lastmile_qr_scan"}, "fusion_lon": 0.0, "lat": 38.9318795, "bike_id": "88bf5eedabed4f306fec28ca4a33bd44", "type": "electric_scooter", "is_reserved": 0, "lon": -77.04294466666667}, {"fusion_lat": 0.0, "name": "d758e66363d88ac4ad16dcb011e94eac", "is_disabled": 0, "rental_uris": {"android": "https://dc.lft.to/lastmile_qr_scan", "ios": "https://dc.lft.to/lastmile_qr_scan"}, "fusion_lon": 0.0, "lat": 38.905596833333334, "bike_id": "d758e66363d88ac4ad16dcb011e94eac", "type": "electric_scooter", "is_reserved": 0, "lon": -77.06254533333333}, {"fusion_lat": 0.0, "name": "8dd2b7bea3b75411d77e961c80ea4a5b", "is_disabled": 0, "rental_uris": {"android": "https://dc.lft.to/lastmile_qr_scan", "ios": "https://dc.lft.to/lastmile_qr_scan"}, "fusion_lon": 0.0, "lat": 38.898028333333336, "bike_id": "8dd2b7bea3b75411d77e961c80ea4a5b", "type": "electric_scooter", "is_reserved": 0, "lon": -77.02919166666666}, {"fusion_lat": 0.0, "name": "9ba78b32b4b4235e16a5526e8007b216", "is_disabled": 0, "rental_uris": {"android": "https://dc.lft.to/lastmile_qr_scan", "ios": "https://dc.lft.to/lastmile_qr_scan"}, "fusion_lon": 0.0, "lat": 38.88726, "bike_id": "9ba78b32b4b4235e16a5526e8007b216", "type": "electric_scooter", "is_reserved": 0, "lon": -76.98356833333334}, {"fusion_lat": 0.0, "name": "d44535d28d3783cf450792c4d2de57c6", "is_disabled": 0, "rental_uris": {"android": "https://dc.lft.to/lastmile_qr_scan", "ios": "https://dc.lft.to/lastmile_qr_scan"}, "fusion_lon": 0.0, "lat": 38.90983516666667, "bike_id": "d44535d28d3783cf450792c4d2de57c6", "type": "electric_scooter", "is_reserved": 0, "lon": -77.03384983333333}, {"fusion_lat": 0.0, "name": "8a99499d3c0c6331fc733edf9d2d4cab", "is_disabled": 0, "rental_uris": {"android": "https://dc.lft.to/lastmile_qr_scan", "ios": "https://dc.lft.to/lastmile_qr_scan"}, "fusion_lon": 0.0, "lat": 38.886028333333336, "bike_id": "8a99499d3c0c6331fc733edf9d2d4cab", "type": "electric_scooter", "is_reserved": 0, "lon": -77.0451145}, {"fusion_lat": 0.0, "name": "e166ade01dbb4a946448b21fca01d5d6", "is_disabled": 0, "rental_uris": {"android": "https://dc.lft.to/lastmile_qr_scan", "ios": "https://dc.lft.to/lastmile_qr_scan"}, "fusion_lon": 0.0, "lat": 38.841314, "bike_id": "e166ade01dbb4a946448b21fca01d5d6", "type": "electric_bike", "is_reserved": 0, "lon": -76.94762016666667}, {"fusion_lat": 0.0, "name": "c57e880fb7467df9a6d174af5f9a94ff", "is_disabled": 0, "rental_uris": {"android": "https://dc.lft.to/lastmile_qr_scan", "ios": "https://dc.lft.to/lastmile_qr_scan"}, "fusion_lon": 0.0, "lat": 38.881407833333334, "bike_id": "c57e880fb7467df9a6d174af5f9a94ff", "type": "electric_scooter", "is_reserved": 0, "lon": -77.01648083333333}, {"fusion_lat": 0.0, "name": "f02203190aa289a0e51836b38291e556", "is_disabled": 0, "rental_uris": {"android": "https://dc.lft.to/lastmile_qr_scan", "ios": "https://dc.lft.to/lastmile_qr_scan"}, "fusion_lon": 0.0, "lat": 38.92547183333333, "bike_id": "f02203190aa289a0e51836b38291e556", "type": "electric_scooter", "is_reserved": 0, "lon": -77.0530335}, {"fusion_lat": 0.0, "name": "f0ab4952d967a3ae8b79704dfbf32c92", "is_disabled": 0, "rental_uris": {"android": "https://dc.lft.to/lastmile_qr_scan", "ios": "https://dc.lft.to/lastmile_qr_scan"}, "fusion_lon": 0.0, "lat": 38.864610666666664, "bike_id": "f0ab4952d967a3ae8b79704dfbf32c92", "type": "electric_bike", "is_reserved": 0, "lon": -76.94530233333333}, {"fusion_lat": 0.0, "name": "e74123478a52194d692f060c347b7a12", "is_disabled": 0, "rental_uris": {"android": "https://dc.lft.to/lastmile_qr_scan", "ios": "https://dc.lft.to/lastmile_qr_scan"}, "fusion_lon": 0.0, "lat": 38.90565133333333, "bike_id": "e74123478a52194d692f060c347b7a12", "type": "electric_scooter", "is_reserved": 0, "lon": -77.00586033333333}, {"fusion_lat": 0.0, "name": "01aa684f898aaa6dd61f2b89b9f3dc4e", "is_disabled": 0, "rental_uris": {"android": "https://dc.lft.to/lastmile_qr_scan", "ios": "https://dc.lft.to/lastmile_qr_scan"}, "fusion_lon": 0.0, "lat": 38.88485566666667, "bike_id": "01aa684f898aaa6dd61f2b89b9f3dc4e", "type": "electric_scooter", "is_reserved": 0, "lon": -77.02525966666667}, {"fusion_lat": 0.0, "name": "90caf23d2128aab202581d11024da6a9", "is_disabled": 0, "rental_uris": {"android": "https://dc.lft.to/lastmile_qr_scan", "ios": "https://dc.lft.to/lastmile_qr_scan"}, "fusion_lon": 0.0, "lat": 38.819341333333334, "bike_id": "90caf23d2128aab202581d11024da6a9", "type": "electric_bike", "is_reserved": 0, "lon": -77.002028}, {"fusion_lat": 0.0, "name": "4b4181034271df9ca9fddffee146dd90", "is_disabled": 0, "rental_uris": {"android": "https://dc.lft.to/lastmile_qr_scan", "ios": "https://dc.lft.to/lastmile_qr_scan"}, "fusion_lon": 0.0, "lat": 38.91385283333334, "bike_id": "4b4181034271df9ca9fddffee146dd90", "type": "electric_scooter", "is_reserved": 0, "lon": -77.032104}, {"fusion_lat": 0.0, "name": "1f7240164e2c2e5c253d6eab23bc3e47", "is_disabled": 0, "rental_uris": {"android": "https://dc.lft.to/lastmile_qr_scan", "ios": "https://dc.lft.to/lastmile_qr_scan"}, "fusion_lon": 0.0, "lat": 38.9005735, "bike_id": "1f7240164e2c2e5c253d6eab23bc3e47", "type": "electric_scooter", "is_reserved": 0, "lon": -77.04538983333333}, {"fusion_lat": 0.0, "name": "dec0c5c630bc8f42b5672e9e24bf78ac", "is_disabled": 0, "rental_uris": {"android": "https://dc.lft.to/lastmile_qr_scan", "ios": "https://dc.lft.to/lastmile_qr_scan"}, "fusion_lon": 0.0, "lat": 38.9314255, "bike_id": "dec0c5c630bc8f42b5672e9e24bf78ac", "type": "electric_scooter", "is_reserved": 0, "lon": -77.03968916666666}, {"fusion_lat": 0.0, "name": "df8278012e54b8bb2696a4a099492aaa", "is_disabled": 0, "rental_uris": {"android": "https://dc.lft.to/lastmile_qr_scan", "ios": "https://dc.lft.to/lastmile_qr_scan"}, "fusion_lon": 0.0, "lat": 38.9073335, "bike_id": "df8278012e54b8bb2696a4a099492aaa", "type": "electric_scooter", "is_reserved": 0, "lon": -77.02070333333333}, {"fusion_lat": 0.0, "name": "7e953082ef15e2468ebc5f2e379bfab3", "is_disabled": 0, "rental_uris": {"android": "https://dc.lft.to/lastmile_qr_scan", "ios": "https://dc.lft.to/lastmile_qr_scan"}, "fusion_lon": 0.0, "lat": 38.9507875, "bike_id": "7e953082ef15e2468ebc5f2e379bfab3", "type": "electric_bike", "is_reserved": 0, "lon": -77.01225233333334}, {"fusion_lat": 0.0, "name": "0121bd0d536fe597893aa1a50d5d1785", "is_disabled": 0, "rental_uris": {"android": "https://dc.lft.to/lastmile_qr_scan", "ios": "https://dc.lft.to/lastmile_qr_scan"}, "fusion_lon": 0.0, "lat": 38.887016, "bike_id": "0121bd0d536fe597893aa1a50d5d1785", "type": "electric_scooter", "is_reserved": 0, "lon": -76.99605783333334}, {"fusion_lat": 0.0, "name": "2a5ab3a00a053a3b2952d68f17354361", "is_disabled": 0, "rental_uris": {"android": "https://dc.lft.to/lastmile_qr_scan", "ios": "https://dc.lft.to/lastmile_qr_scan"}, "fusion_lon": 0.0, "lat": 38.834979, "bike_id": "2a5ab3a00a053a3b2952d68f17354361", "type": "electric_bike", "is_reserved": 0, "lon": -77.09023733333333}, {"fusion_lat": 0.0, "name": "c8599742fb69773d503c6310fa64afde", "is_disabled": 0, "rental_uris": {"android": "https://dc.lft.to/lastmile_qr_scan", "ios": "https://dc.lft.to/lastmile_qr_scan"}, "fusion_lon": 0.0, "lat": 38.909792333333336, "bike_id": "c8599742fb69773d503c6310fa64afde", "type": "electric_scooter", "is_reserved": 0, "lon": -77.03852066666667}, {"fusion_lat": 0.0, "name": "a78972143e84dbf9b8f47464b1c19d63", "is_disabled": 0, "rental_uris": {"android": "https://dc.lft.to/lastmile_qr_scan", "ios": "https://dc.lft.to/lastmile_qr_scan"}, "fusion_lon": 0.0, "lat": 38.913444166666665, "bike_id": "a78972143e84dbf9b8f47464b1c19d63", "type": "electric_scooter", "is_reserved": 0, "lon": -77.04871416666667}, {"fusion_lat": 0.0, "name": "98842eb4da4d21834cf612dd33f37651", "is_disabled": 0, "rental_uris": {"android": "https://dc.lft.to/lastmile_qr_scan", "ios": "https://dc.lft.to/lastmile_qr_scan"}, "fusion_lon": 0.0, "lat": 38.924056, "bike_id": "98842eb4da4d21834cf612dd33f37651", "type": "electric_scooter", "is_reserved": 0, "lon": -77.03637766666667}, {"fusion_lat": 0.0, "name": "d96970e495d3fce25ee78bca4da82186", "is_disabled": 0, "rental_uris": {"android": "https://dc.lft.to/lastmile_qr_scan", "ios": "https://dc.lft.to/lastmile_qr_scan"}, "fusion_lon": 0.0, "lat": 38.9230965, "bike_id": "d96970e495d3fce25ee78bca4da82186", "type": "electric_scooter", "is_reserved": 0, "lon": -77.04262983333334}, {"fusion_lat": 0.0, "name": "67710551106354cfeae7ec9d66f6d1d5", "is_disabled": 0, "rental_uris": {"android": "https://dc.lft.to/lastmile_qr_scan", "ios": "https://dc.lft.to/lastmile_qr_scan"}, "fusion_lon": 0.0, "lat": 38.90771733333333, "bike_id": "67710551106354cfeae7ec9d66f6d1d5", "type": "electric_scooter", "is_reserved": 0, "lon": -77.03471116666667}, {"fusion_lat": 0.0, "name": "ebd08a5f3e4b17e966320542fa24384e", "is_disabled": 0, "rental_uris": {"android": "https://dc.lft.to/lastmile_qr_scan", "ios": "https://dc.lft.to/lastmile_qr_scan"}, "fusion_lon": 0.0, "lat": 38.912453166666666, "bike_id": "ebd08a5f3e4b17e966320542fa24384e", "type": "electric_scooter", "is_reserved": 0, "lon": -77.049249}, {"fusion_lat": 0.0, "name": "048d00ff4f2c141210de3b2143339311", "is_disabled": 0, "rental_uris": {"android": "https://dc.lft.to/lastmile_qr_scan", "ios": "https://dc.lft.to/lastmile_qr_scan"}, "fusion_lon": 0.0, "lat": 38.8945755, "bike_id": "048d00ff4f2c141210de3b2143339311", "type": "electric_scooter", "is_reserved": 0, "lon": -77.01822683333333}, {"fusion_lat": 0.0, "name": "8fd25d741b4887b14740a72a91c63078", "is_disabled": 0, "rental_uris": {"android": "https://dc.lft.to/lastmile_qr_scan", "ios": "https://dc.lft.to/lastmile_qr_scan"}, "fusion_lon": 0.0, "lat": 38.92363233333333, "bike_id": "8fd25d741b4887b14740a72a91c63078", "type": "electric_scooter", "is_reserved": 0, "lon": -77.02055}, {"fusion_lat": 0.0, "name": "aa16cd745614d58122ba977f86a0d108", "is_disabled": 0, "rental_uris": {"android": "https://dc.lft.to/lastmile_qr_scan", "ios": "https://dc.lft.to/lastmile_qr_scan"}, "fusion_lon": 0.0, "lat": 38.914044, "bike_id": "aa16cd745614d58122ba977f86a0d108", "type": "electric_scooter", "is_reserved": 0, "lon": -77.0321645}, {"fusion_lat": 0.0, "name": "777112291973b502a909833a6d893551", "is_disabled": 0, "rental_uris": {"android": "https://dc.lft.to/lastmile_qr_scan", "ios": "https://dc.lft.to/lastmile_qr_scan"}, "fusion_lon": 0.0, "lat": 38.9263665, "bike_id": "777112291973b502a909833a6d893551", "type": "electric_scooter", "is_reserved": 0, "lon": -77.0414165}, {"fusion_lat": 0.0, "name": "e217c44898427f41c95629e0fb8b2ca0", "is_disabled": 0, "rental_uris": {"android": "https://dc.lft.to/lastmile_qr_scan", "ios": "https://dc.lft.to/lastmile_qr_scan"}, "fusion_lon": 0.0, "lat": 38.87368333333333, "bike_id": "e217c44898427f41c95629e0fb8b2ca0", "type": "electric_scooter", "is_reserved": 0, "lon": -77.00067133333333}, {"fusion_lat": 0.0, "name": "020d70dcb90eda6ff6a377fc75dbe2a7", "is_disabled": 0, "rental_uris": {"android": "https://dc.lft.to/lastmile_qr_scan", "ios": "https://dc.lft.to/lastmile_qr_scan"}, "fusion_lon": 0.0, "lat": 38.90778433333333, "bike_id": "020d70dcb90eda6ff6a377fc75dbe2a7", "type": "electric_scooter", "is_reserved": 0, "lon": -77.00158133333333}, {"fusion_lat": 0.0, "name": "635c41fa6f35cfe60850fdcbdf5bc349", "is_disabled": 0, "rental_uris": {"android": "https://dc.lft.to/lastmile_qr_scan", "ios": "https://dc.lft.to/lastmile_qr_scan"}, "fusion_lon": 0.0, "lat": 38.88674433333333, "bike_id": "635c41fa6f35cfe60850fdcbdf5bc349", "type": "electric_scooter", "is_reserved": 0, "lon": -77.0137205}, {"fusion_lat": 0.0, "name": "27839e466bc7e0d987fd7d113bbdc5bd", "is_disabled": 0, "rental_uris": {"android": "https://dc.lft.to/lastmile_qr_scan", "ios": "https://dc.lft.to/lastmile_qr_scan"}, "fusion_lon": 0.0, "lat": 38.88754683333333, "bike_id": "27839e466bc7e0d987fd7d113bbdc5bd", "type": "electric_scooter", "is_reserved": 0, "lon": -77.03362116666666}, {"fusion_lat": 0.0, "name": "bb4a5ac2b0c1659db7b70c57e7f879ff", "is_disabled": 0, "rental_uris": {"android": "https://dc.lft.to/lastmile_qr_scan", "ios": "https://dc.lft.to/lastmile_qr_scan"}, "fusion_lon": 0.0, "lat": 38.835178166666665, "bike_id": "bb4a5ac2b0c1659db7b70c57e7f879ff", "type": "electric_bike", "is_reserved": 0, "lon": -76.9867095}, {"fusion_lat": 0.0, "name": "753ce5c82770e0a989fde45e4c7513a3", "is_disabled": 0, "rental_uris": {"android": "https://dc.lft.to/lastmile_qr_scan", "ios": "https://dc.lft.to/lastmile_qr_scan"}, "fusion_lon": 0.0, "lat": 38.89714766666667, "bike_id": "753ce5c82770e0a989fde45e4c7513a3", "type": "electric_scooter", "is_reserved": 0, "lon": -77.02156666666667}, {"fusion_lat": 0.0, "name": "be7c88a41c0cfa24074056e665c8d328", "is_disabled": 0, "rental_uris": {"android": "https://dc.lft.to/lastmile_qr_scan", "ios": "https://dc.lft.to/lastmile_qr_scan"}, "fusion_lon": 0.0, "lat": 38.942691833333335, "bike_id": "be7c88a41c0cfa24074056e665c8d328", "type": "electric_scooter", "is_reserved": 0, "lon": -77.03257216666667}, {"fusion_lat": 0.0, "name": "51c67a04b7be2fe2cd3a340d7ca6bbb0", "is_disabled": 0, "rental_uris": {"android": "https://dc.lft.to/lastmile_qr_scan", "ios": "https://dc.lft.to/lastmile_qr_scan"}, "fusion_lon": 0.0, "lat": 38.911503, "bike_id": "51c67a04b7be2fe2cd3a340d7ca6bbb0", "type": "electric_scooter", "is_reserved": 0, "lon": -77.07262383333334}, {"fusion_lat": 0.0, "name": "c32db6b970865a5412f12eac9df4cfd7", "is_disabled": 0, "rental_uris": {"android": "https://dc.lft.to/lastmile_qr_scan", "ios": "https://dc.lft.to/lastmile_qr_scan"}, "fusion_lon": 0.0, "lat": 38.915519833333335, "bike_id": "c32db6b970865a5412f12eac9df4cfd7", "type": "electric_scooter", "is_reserved": 0, "lon": -77.01131}, {"fusion_lat": 0.0, "name": "1a365edf1083313aa99b75e233bce2a6", "is_disabled": 0, "rental_uris": {"android": "https://dc.lft.to/lastmile_qr_scan", "ios": "https://dc.lft.to/lastmile_qr_scan"}, "fusion_lon": 0.0, "lat": 38.940052333333334, "bike_id": "1a365edf1083313aa99b75e233bce2a6", "type": "electric_scooter", "is_reserved": 0, "lon": -77.0841955}, {"fusion_lat": 0.0, "name": "16ab0c59b9cdb0484e21038a861037d8", "is_disabled": 0, "rental_uris": {"android": "https://dc.lft.to/lastmile_qr_scan", "ios": "https://dc.lft.to/lastmile_qr_scan"}, "fusion_lon": 0.0, "lat": 38.900131, "bike_id": "16ab0c59b9cdb0484e21038a861037d8", "type": "electric_scooter", "is_reserved": 0, "lon": -77.01623216666667}, {"fusion_lat": 0.0, "name": "3e84f440f042d4190f845cd88062985e", "is_disabled": 0, "rental_uris": {"android": "https://dc.lft.to/lastmile_qr_scan", "ios": "https://dc.lft.to/lastmile_qr_scan"}, "fusion_lon": 0.0, "lat": 38.9006105, "bike_id": "3e84f440f042d4190f845cd88062985e", "type": "electric_scooter", "is_reserved": 0, "lon": -76.93387466666667}, {"fusion_lat": 0.0, "name": "7ad5a0e3f653619701e867a759cf8577", "is_disabled": 0, "rental_uris": {"android": "https://dc.lft.to/lastmile_qr_scan", "ios": "https://dc.lft.to/lastmile_qr_scan"}, "fusion_lon": 0.0, "lat": 38.91533666666667, "bike_id": "7ad5a0e3f653619701e867a759cf8577", "type": "electric_scooter", "is_reserved": 0, "lon": -77.0665785}, {"fusion_lat": 0.0, "name": "55122ccc131b60d3e4841ae3792a18ca", "is_disabled": 0, "rental_uris": {"android": "https://dc.lft.to/lastmile_qr_scan", "ios": "https://dc.lft.to/lastmile_qr_scan"}, "fusion_lon": 0.0, "lat": 38.907696333333334, "bike_id": "55122ccc131b60d3e4841ae3792a18ca", "type": "electric_scooter", "is_reserved": 0, "lon": -77.05590566666666}, {"fusion_lat": 0.0, "name": "b9bc2773a0949bfe50351efca6e5db1e", "is_disabled": 0, "rental_uris": {"android": "https://dc.lft.to/lastmile_qr_scan", "ios": "https://dc.lft.to/lastmile_qr_scan"}, "fusion_lon": 0.0, "lat": 38.9307655, "bike_id": "b9bc2773a0949bfe50351efca6e5db1e", "type": "electric_bike", "is_reserved": 0, "lon": -76.9849975}, {"fusion_lat": 0.0, "name": "ff474ed93f86734063651609f5910b5c", "is_disabled": 0, "rental_uris": {"android": "https://dc.lft.to/lastmile_qr_scan", "ios": "https://dc.lft.to/lastmile_qr_scan"}, "fusion_lon": 0.0, "lat": 38.8821215, "bike_id": "ff474ed93f86734063651609f5910b5c", "type": "electric_scooter", "is_reserved": 0, "lon": -77.02938383333333}, {"fusion_lat": 0.0, "name": "f7438d36d3d5517986f1586b0a42901f", "is_disabled": 0, "rental_uris": {"android": "https://dc.lft.to/lastmile_qr_scan", "ios": "https://dc.lft.to/lastmile_qr_scan"}, "fusion_lon": 0.0, "lat": 38.935484, "bike_id": "f7438d36d3d5517986f1586b0a42901f", "type": "electric_scooter", "is_reserved": 0, "lon": -77.03093333333334}, {"fusion_lat": 0.0, "name": "792a425664b7281419c6bd9ef5018c75", "is_disabled": 0, "rental_uris": {"android": "https://dc.lft.to/lastmile_qr_scan", "ios": "https://dc.lft.to/lastmile_qr_scan"}, "fusion_lon": 0.0, "lat": 38.8888975, "bike_id": "792a425664b7281419c6bd9ef5018c75", "type": "electric_bike", "is_reserved": 0, "lon": -77.1152575}, {"fusion_lat": 0.0, "name": "542a534421bec39280677030478f012e", "is_disabled": 0, "rental_uris": {"android": "https://dc.lft.to/lastmile_qr_scan", "ios": "https://dc.lft.to/lastmile_qr_scan"}, "fusion_lon": 0.0, "lat": 38.895303166666665, "bike_id": "542a534421bec39280677030478f012e", "type": "electric_scooter", "is_reserved": 0, "lon": -77.03061116666667}, {"fusion_lat": 0.0, "name": "aa1ba3e4a4493a339741d5832d00dcb6", "is_disabled": 0, "rental_uris": {"android": "https://dc.lft.to/lastmile_qr_scan", "ios": "https://dc.lft.to/lastmile_qr_scan"}, "fusion_lon": 0.0, "lat": 38.907384666666665, "bike_id": "aa1ba3e4a4493a339741d5832d00dcb6", "type": "electric_scooter", "is_reserved": 0, "lon": -77.06339016666666}, {"fusion_lat": 0.0, "name": "a6981d8ce563093a1c042f4082e41207", "is_disabled": 0, "rental_uris": {"android": "https://dc.lft.to/lastmile_qr_scan", "ios": "https://dc.lft.to/lastmile_qr_scan"}, "fusion_lon": 0.0, "lat": 38.918180166666666, "bike_id": "a6981d8ce563093a1c042f4082e41207", "type": "electric_scooter", "is_reserved": 0, "lon": -77.02534083333333}, {"fusion_lat": 0.0, "name": "db6a1e247ba8e1198f452e48628dfbe6", "is_disabled": 0, "rental_uris": {"android": "https://dc.lft.to/lastmile_qr_scan", "ios": "https://dc.lft.to/lastmile_qr_scan"}, "fusion_lon": 0.0, "lat": 38.934151666666665, "bike_id": "db6a1e247ba8e1198f452e48628dfbe6", "type": "electric_scooter", "is_reserved": 0, "lon": -76.97962}, {"fusion_lat": 0.0, "name": "62b526b5d5b5e8b69d3b248454604e2b", "is_disabled": 0, "rental_uris": {"android": "https://dc.lft.to/lastmile_qr_scan", "ios": "https://dc.lft.to/lastmile_qr_scan"}, "fusion_lon": 0.0, "lat": 38.93087166666667, "bike_id": "62b526b5d5b5e8b69d3b248454604e2b", "type": "electric_scooter", "is_reserved": 0, "lon": -77.0375975}, {"fusion_lat": 0.0, "name": "11df2271b4e5356c654aca97064e7125", "is_disabled": 0, "rental_uris": {"android": "https://dc.lft.to/lastmile_qr_scan", "ios": "https://dc.lft.to/lastmile_qr_scan"}, "fusion_lon": 0.0, "lat": 38.9155745, "bike_id": "11df2271b4e5356c654aca97064e7125", "type": "electric_scooter", "is_reserved": 0, "lon": -77.03171816666666}, {"fusion_lat": 0.0, "name": "bb48eebd36a9f3fadd5a862e10b6f3cb", "is_disabled": 0, "rental_uris": {"android": "https://dc.lft.to/lastmile_qr_scan", "ios": "https://dc.lft.to/lastmile_qr_scan"}, "fusion_lon": 0.0, "lat": 38.91318533333333, "bike_id": "bb48eebd36a9f3fadd5a862e10b6f3cb", "type": "electric_scooter", "is_reserved": 0, "lon": -77.02132833333333}, {"fusion_lat": 0.0, "name": "b8c4a706929eabfb66bba10d0173e714", "is_disabled": 0, "rental_uris": {"android": "https://dc.lft.to/lastmile_qr_scan", "ios": "https://dc.lft.to/lastmile_qr_scan"}, "fusion_lon": 0.0, "lat": 38.92048316666666, "bike_id": "b8c4a706929eabfb66bba10d0173e714", "type": "electric_scooter", "is_reserved": 0, "lon": -77.03468433333333}, {"fusion_lat": 0.0, "name": "dffaec527dd666ff422bba066f05d087", "is_disabled": 0, "rental_uris": {"android": "https://dc.lft.to/lastmile_qr_scan", "ios": "https://dc.lft.to/lastmile_qr_scan"}, "fusion_lon": 0.0, "lat": 38.879645333333336, "bike_id": "dffaec527dd666ff422bba066f05d087", "type": "electric_bike", "is_reserved": 0, "lon": -76.91614716666666}, {"fusion_lat": 0.0, "name": "45317bf2bf44bba773775d0e237726fb", "is_disabled": 0, "rental_uris": {"android": "https://dc.lft.to/lastmile_qr_scan", "ios": "https://dc.lft.to/lastmile_qr_scan"}, "fusion_lon": 0.0, "lat": 38.91795283333333, "bike_id": "45317bf2bf44bba773775d0e237726fb", "type": "electric_scooter", "is_reserved": 0, "lon": -77.03303566666666}, {"fusion_lat": 0.0, "name": "76533076b2633bdee75339fb45102a0e", "is_disabled": 0, "rental_uris": {"android": "https://dc.lft.to/lastmile_qr_scan", "ios": "https://dc.lft.to/lastmile_qr_scan"}, "fusion_lon": 0.0, "lat": 38.938716, "bike_id": "76533076b2633bdee75339fb45102a0e", "type": "electric_scooter", "is_reserved": 0, "lon": -77.0246415}, {"fusion_lat": 0.0, "name": "b6b7297a8ebf10518dff3153e7dbcc95", "is_disabled": 0, "rental_uris": {"android": "https://dc.lft.to/lastmile_qr_scan", "ios": "https://dc.lft.to/lastmile_qr_scan"}, "fusion_lon": 0.0, "lat": 38.924173, "bike_id": "b6b7297a8ebf10518dff3153e7dbcc95", "type": "electric_scooter", "is_reserved": 0, "lon": -77.01964366666667}, {"fusion_lat": 0.0, "name": "05c0f4a94a234ff7f1422a017810bba3", "is_disabled": 0, "rental_uris": {"android": "https://dc.lft.to/lastmile_qr_scan", "ios": "https://dc.lft.to/lastmile_qr_scan"}, "fusion_lon": 0.0, "lat": 38.91790816666666, "bike_id": "05c0f4a94a234ff7f1422a017810bba3", "type": "electric_scooter", "is_reserved": 0, "lon": -77.040249}, {"fusion_lat": 0.0, "name": "93053d769b7c490483b8dddd37496ddc", "is_disabled": 0, "rental_uris": {"android": "https://dc.lft.to/lastmile_qr_scan", "ios": "https://dc.lft.to/lastmile_qr_scan"}, "fusion_lon": 0.0, "lat": 38.89712316666667, "bike_id": "93053d769b7c490483b8dddd37496ddc", "type": "electric_scooter", "is_reserved": 0, "lon": -77.02157983333333}, {"fusion_lat": 0.0, "name": "93ffac697cf47c0cf8de47a3ec2b6ce2", "is_disabled": 0, "rental_uris": {"android": "https://dc.lft.to/lastmile_qr_scan", "ios": "https://dc.lft.to/lastmile_qr_scan"}, "fusion_lon": 0.0, "lat": 38.913979, "bike_id": "93ffac697cf47c0cf8de47a3ec2b6ce2", "type": "electric_scooter", "is_reserved": 0, "lon": -77.04333016666666}, {"fusion_lat": 0.0, "name": "8b67d005528ad550e7016da9b581f31e", "is_disabled": 0, "rental_uris": {"android": "https://dc.lft.to/lastmile_qr_scan", "ios": "https://dc.lft.to/lastmile_qr_scan"}, "fusion_lon": 0.0, "lat": 38.90006966666667, "bike_id": "8b67d005528ad550e7016da9b581f31e", "type": "electric_scooter", "is_reserved": 0, "lon": -76.994503}, {"fusion_lat": 0.0, "name": "415ff7ef0f06d6f67e4bfa6405628587", "is_disabled": 0, "rental_uris": {"android": "https://dc.lft.to/lastmile_qr_scan", "ios": "https://dc.lft.to/lastmile_qr_scan"}, "fusion_lon": 0.0, "lat": 38.9231785, "bike_id": "415ff7ef0f06d6f67e4bfa6405628587", "type": "electric_scooter", "is_reserved": 0, "lon": -77.05366066666667}, {"fusion_lat": 0.0, "name": "2c0f11c2d87dfd42e62e4bdd44bba56a", "is_disabled": 0, "rental_uris": {"android": "https://dc.lft.to/lastmile_qr_scan", "ios": "https://dc.lft.to/lastmile_qr_scan"}, "fusion_lon": 0.0, "lat": 38.928111333333334, "bike_id": "2c0f11c2d87dfd42e62e4bdd44bba56a", "type": "electric_scooter", "is_reserved": 0, "lon": -77.04362683333333}, {"fusion_lat": 0.0, "name": "542714e5a218758f6400902be0922c92", "is_disabled": 0, "rental_uris": {"android": "https://dc.lft.to/lastmile_qr_scan", "ios": "https://dc.lft.to/lastmile_qr_scan"}, "fusion_lon": 0.0, "lat": 38.90500083333333, "bike_id": "542714e5a218758f6400902be0922c92", "type": "electric_scooter", "is_reserved": 0, "lon": -77.04823266666666}, {"fusion_lat": 0.0, "name": "68cb51001a3568a1fcedc1c4337d1f83", "is_disabled": 0, "rental_uris": {"android": "https://dc.lft.to/lastmile_qr_scan", "ios": "https://dc.lft.to/lastmile_qr_scan"}, "fusion_lon": 0.0, "lat": 38.90009883333333, "bike_id": "68cb51001a3568a1fcedc1c4337d1f83", "type": "electric_scooter", "is_reserved": 0, "lon": -77.00369966666666}, {"fusion_lat": 0.0, "name": "ca5227f6c6e3e3476d5920ce133c6162", "is_disabled": 0, "rental_uris": {"android": "https://dc.lft.to/lastmile_qr_scan", "ios": "https://dc.lft.to/lastmile_qr_scan"}, "fusion_lon": 0.0, "lat": 38.87895183333333, "bike_id": "ca5227f6c6e3e3476d5920ce133c6162", "type": "electric_scooter", "is_reserved": 0, "lon": -77.0072}, {"fusion_lat": 0.0, "name": "c631072700286adee799e6d818054f22", "is_disabled": 0, "rental_uris": {"android": "https://dc.lft.to/lastmile_qr_scan", "ios": "https://dc.lft.to/lastmile_qr_scan"}, "fusion_lon": 0.0, "lat": 38.901145, "bike_id": "c631072700286adee799e6d818054f22", "type": "electric_scooter", "is_reserved": 0, "lon": -76.97425583333333}, {"fusion_lat": 0.0, "name": "6590a35cffee12da7309d2fb55640deb", "is_disabled": 0, "rental_uris": {"android": "https://dc.lft.to/lastmile_qr_scan", "ios": "https://dc.lft.to/lastmile_qr_scan"}, "fusion_lon": 0.0, "lat": 38.921051166666665, "bike_id": "6590a35cffee12da7309d2fb55640deb", "type": "electric_scooter", "is_reserved": 0, "lon": -77.07476166666666}, {"fusion_lat": 0.0, "name": "3418d93ff9f975f0782c7f3ba32dcf35", "is_disabled": 0, "rental_uris": {"android": "https://dc.lft.to/lastmile_qr_scan", "ios": "https://dc.lft.to/lastmile_qr_scan"}, "fusion_lon": 0.0, "lat": 38.89871983333333, "bike_id": "3418d93ff9f975f0782c7f3ba32dcf35", "type": "electric_scooter", "is_reserved": 0, "lon": -77.02024183333333}, {"fusion_lat": 0.0, "name": "504a2d9a1e8e12a3f5064e5fc6861e0d", "is_disabled": 0, "rental_uris": {"android": "https://dc.lft.to/lastmile_qr_scan", "ios": "https://dc.lft.to/lastmile_qr_scan"}, "fusion_lon": 0.0, "lat": 38.90022333333334, "bike_id": "504a2d9a1e8e12a3f5064e5fc6861e0d", "type": "electric_scooter", "is_reserved": 0, "lon": -77.0447305}, {"fusion_lat": 0.0, "name": "21ed88a9a3bd6280dee86b950872d4af", "is_disabled": 0, "rental_uris": {"android": "https://dc.lft.to/lastmile_qr_scan", "ios": "https://dc.lft.to/lastmile_qr_scan"}, "fusion_lon": 0.0, "lat": 38.90773016666667, "bike_id": "21ed88a9a3bd6280dee86b950872d4af", "type": "electric_scooter", "is_reserved": 0, "lon": -77.04265566666666}, {"fusion_lat": 0.0, "name": "9c38c4c9f23e4bb900fddfe6dd88fe36", "is_disabled": 0, "rental_uris": {"android": "https://dc.lft.to/lastmile_qr_scan", "ios": "https://dc.lft.to/lastmile_qr_scan"}, "fusion_lon": 0.0, "lat": 38.904104, "bike_id": "9c38c4c9f23e4bb900fddfe6dd88fe36", "type": "electric_scooter", "is_reserved": 0, "lon": -76.9733095}, {"fusion_lat": 0.0, "name": "24a3c4b9d61d88a923d0f56edbccf57c", "is_disabled": 0, "rental_uris": {"android": "https://dc.lft.to/lastmile_qr_scan", "ios": "https://dc.lft.to/lastmile_qr_scan"}, "fusion_lon": 0.0, "lat": 38.884375666666664, "bike_id": "24a3c4b9d61d88a923d0f56edbccf57c", "type": "electric_scooter", "is_reserved": 0, "lon": -77.00348116666666}, {"fusion_lat": 0.0, "name": "a86ec2ac1308bc420a72dd9c67cb804f", "is_disabled": 0, "rental_uris": {"android": "https://dc.lft.to/lastmile_qr_scan", "ios": "https://dc.lft.to/lastmile_qr_scan"}, "fusion_lon": 0.0, "lat": 38.92249783333333, "bike_id": "a86ec2ac1308bc420a72dd9c67cb804f", "type": "electric_scooter", "is_reserved": 0, "lon": -77.03386233333333}, {"fusion_lat": 0.0, "name": "84222a41bf8c9a7050d0fdc2d9a57be5", "is_disabled": 0, "rental_uris": {"android": "https://dc.lft.to/lastmile_qr_scan", "ios": "https://dc.lft.to/lastmile_qr_scan"}, "fusion_lon": 0.0, "lat": 38.9357245, "bike_id": "84222a41bf8c9a7050d0fdc2d9a57be5", "type": "electric_scooter", "is_reserved": 0, "lon": -77.0192915}, {"fusion_lat": 0.0, "name": "a3c43b2969991345f44735043f81f9f4", "is_disabled": 0, "rental_uris": {"android": "https://dc.lft.to/lastmile_qr_scan", "ios": "https://dc.lft.to/lastmile_qr_scan"}, "fusion_lon": 0.0, "lat": 38.897622166666665, "bike_id": "a3c43b2969991345f44735043f81f9f4", "type": "electric_scooter", "is_reserved": 0, "lon": -77.05143083333333}, {"fusion_lat": 0.0, "name": "fdecba698a83c0164cf169f54386db4b", "is_disabled": 0, "rental_uris": {"android": "https://dc.lft.to/lastmile_qr_scan", "ios": "https://dc.lft.to/lastmile_qr_scan"}, "fusion_lon": 0.0, "lat": 38.86210766666667, "bike_id": "fdecba698a83c0164cf169f54386db4b", "type": "electric_bike", "is_reserved": 0, "lon": -76.99556866666667}, {"fusion_lat": 0.0, "name": "4cecd5d230d10eed11a7a1ba86825697", "is_disabled": 0, "rental_uris": {"android": "https://dc.lft.to/lastmile_qr_scan", "ios": "https://dc.lft.to/lastmile_qr_scan"}, "fusion_lon": 0.0, "lat": 38.9147825, "bike_id": "4cecd5d230d10eed11a7a1ba86825697", "type": "electric_scooter", "is_reserved": 0, "lon": -77.03831733333334}, {"fusion_lat": 0.0, "name": "d4f481b24e22fd2d2cd210758026b29f", "is_disabled": 0, "rental_uris": {"android": "https://dc.lft.to/lastmile_qr_scan", "ios": "https://dc.lft.to/lastmile_qr_scan"}, "fusion_lon": 0.0, "lat": 38.900302833333335, "bike_id": "d4f481b24e22fd2d2cd210758026b29f", "type": "electric_scooter", "is_reserved": 0, "lon": -76.98932483333333}, {"fusion_lat": 0.0, "name": "160230afde3ee0e67abf6bdc18da1ff8", "is_disabled": 0, "rental_uris": {"android": "https://dc.lft.to/lastmile_qr_scan", "ios": "https://dc.lft.to/lastmile_qr_scan"}, "fusion_lon": 0.0, "lat": 38.884533166666664, "bike_id": "160230afde3ee0e67abf6bdc18da1ff8", "type": "electric_scooter", "is_reserved": 0, "lon": -77.02087683333333}, {"fusion_lat": 0.0, "name": "88a6dcba3704fe05ba10fd55d36acda8", "is_disabled": 0, "rental_uris": {"android": "https://dc.lft.to/lastmile_qr_scan", "ios": "https://dc.lft.to/lastmile_qr_scan"}, "fusion_lon": 0.0, "lat": 38.89834366666667, "bike_id": "88a6dcba3704fe05ba10fd55d36acda8", "type": "electric_scooter", "is_reserved": 0, "lon": -77.02276566666667}, {"fusion_lat": 0.0, "name": "8dbb77ad3817a2cb5fdbdf73285d3b71", "is_disabled": 0, "rental_uris": {"android": "https://dc.lft.to/lastmile_qr_scan", "ios": "https://dc.lft.to/lastmile_qr_scan"}, "fusion_lon": 0.0, "lat": 38.915585, "bike_id": "8dbb77ad3817a2cb5fdbdf73285d3b71", "type": "electric_scooter", "is_reserved": 0, "lon": -77.03202983333334}, {"fusion_lat": 0.0, "name": "0804ce352829d05ebaa538d526c2c30c", "is_disabled": 0, "rental_uris": {"android": "https://dc.lft.to/lastmile_qr_scan", "ios": "https://dc.lft.to/lastmile_qr_scan"}, "fusion_lon": 0.0, "lat": 39.07049583333333, "bike_id": "0804ce352829d05ebaa538d526c2c30c", "type": "electric_bike", "is_reserved": 0, "lon": -77.11485383333333}, {"fusion_lat": 0.0, "name": "9bb15ce3504f4d17038fc9b5241ae4d6", "is_disabled": 0, "rental_uris": {"android": "https://dc.lft.to/lastmile_qr_scan", "ios": "https://dc.lft.to/lastmile_qr_scan"}, "fusion_lon": 0.0, "lat": 38.93542716666666, "bike_id": "9bb15ce3504f4d17038fc9b5241ae4d6", "type": "electric_scooter", "is_reserved": 0, "lon": -77.03471683333333}, {"fusion_lat": 0.0, "name": "8ddb9ef657fe41c8871f37d7a1349b88", "is_disabled": 0, "rental_uris": {"android": "https://dc.lft.to/lastmile_qr_scan", "ios": "https://dc.lft.to/lastmile_qr_scan"}, "fusion_lon": 0.0, "lat": 38.900106666666666, "bike_id": "8ddb9ef657fe41c8871f37d7a1349b88", "type": "electric_scooter", "is_reserved": 0, "lon": -76.98696233333334}, {"fusion_lat": 0.0, "name": "bf8d470bffae6d710028abcd3103943b", "is_disabled": 0, "rental_uris": {"android": "https://dc.lft.to/lastmile_qr_scan", "ios": "https://dc.lft.to/lastmile_qr_scan"}, "fusion_lon": 0.0, "lat": 38.902179833333335, "bike_id": "bf8d470bffae6d710028abcd3103943b", "type": "electric_scooter", "is_reserved": 0, "lon": -77.0164905}, {"fusion_lat": 0.0, "name": "78349e6357d45b19aaa44c51756fb4cb", "is_disabled": 0, "rental_uris": {"android": "https://dc.lft.to/lastmile_qr_scan", "ios": "https://dc.lft.to/lastmile_qr_scan"}, "fusion_lon": 0.0, "lat": 38.9271575, "bike_id": "78349e6357d45b19aaa44c51756fb4cb", "type": "electric_scooter", "is_reserved": 0, "lon": -77.0419515}, {"fusion_lat": 0.0, "name": "bb2c821d8bb5340c047210fbfeca9cd9", "is_disabled": 0, "rental_uris": {"android": "https://dc.lft.to/lastmile_qr_scan", "ios": "https://dc.lft.to/lastmile_qr_scan"}, "fusion_lon": 0.0, "lat": 38.802930333333336, "bike_id": "bb2c821d8bb5340c047210fbfeca9cd9", "type": "electric_bike", "is_reserved": 0, "lon": -77.059369}, {"fusion_lat": 0.0, "name": "92782b7adf942f521925e300b0850d11", "is_disabled": 0, "rental_uris": {"android": "https://dc.lft.to/lastmile_qr_scan", "ios": "https://dc.lft.to/lastmile_qr_scan"}, "fusion_lon": 0.0, "lat": 38.89684416666667, "bike_id": "92782b7adf942f521925e300b0850d11", "type": "electric_scooter", "is_reserved": 0, "lon": -76.93711566666667}, {"fusion_lat": 0.0, "name": "ff351748ffa7a4da467f228be7f07a42", "is_disabled": 0, "rental_uris": {"android": "https://dc.lft.to/lastmile_qr_scan", "ios": "https://dc.lft.to/lastmile_qr_scan"}, "fusion_lon": 0.0, "lat": 38.923887666666666, "bike_id": "ff351748ffa7a4da467f228be7f07a42", "type": "electric_scooter", "is_reserved": 0, "lon": -77.04307666666666}, {"fusion_lat": 0.0, "name": "2566368ed065fa58291206c62f8a96a4", "is_disabled": 0, "rental_uris": {"android": "https://dc.lft.to/lastmile_qr_scan", "ios": "https://dc.lft.to/lastmile_qr_scan"}, "fusion_lon": 0.0, "lat": 38.89247866666667, "bike_id": "2566368ed065fa58291206c62f8a96a4", "type": "electric_scooter", "is_reserved": 0, "lon": -77.0200435}, {"fusion_lat": 0.0, "name": "71ec74f3d270c2d82ac18f1c6ce87eaf", "is_disabled": 0, "rental_uris": {"android": "https://dc.lft.to/lastmile_qr_scan", "ios": "https://dc.lft.to/lastmile_qr_scan"}, "fusion_lon": 0.0, "lat": 38.90424266666667, "bike_id": "71ec74f3d270c2d82ac18f1c6ce87eaf", "type": "electric_scooter", "is_reserved": 0, "lon": -77.05127733333333}, {"fusion_lat": 0.0, "name": "0a3473bd78e6de7c081df3feafd00c61", "is_disabled": 0, "rental_uris": {"android": "https://dc.lft.to/lastmile_qr_scan", "ios": "https://dc.lft.to/lastmile_qr_scan"}, "fusion_lon": 0.0, "lat": 38.90029966666667, "bike_id": "0a3473bd78e6de7c081df3feafd00c61", "type": "electric_scooter", "is_reserved": 0, "lon": -77.01172783333334}, {"fusion_lat": 0.0, "name": "25bdf81b25e98133809099add2b727ac", "is_disabled": 0, "rental_uris": {"android": "https://dc.lft.to/lastmile_qr_scan", "ios": "https://dc.lft.to/lastmile_qr_scan"}, "fusion_lon": 0.0, "lat": 38.899961166666664, "bike_id": "25bdf81b25e98133809099add2b727ac", "type": "electric_scooter", "is_reserved": 0, "lon": -76.99703366666667}, {"fusion_lat": 0.0, "name": "8bf55346eafa0f303b3f3e66c0df77a6", "is_disabled": 0, "rental_uris": {"android": "https://dc.lft.to/lastmile_qr_scan", "ios": "https://dc.lft.to/lastmile_qr_scan"}, "fusion_lon": 0.0, "lat": 38.8944195, "bike_id": "8bf55346eafa0f303b3f3e66c0df77a6", "type": "electric_scooter", "is_reserved": 0, "lon": -77.04546566666667}, {"fusion_lat": 0.0, "name": "3fe965bb3c976bb715170f265f7d0966", "is_disabled": 0, "rental_uris": {"android": "https://dc.lft.to/lastmile_qr_scan", "ios": "https://dc.lft.to/lastmile_qr_scan"}, "fusion_lon": 0.0, "lat": 38.9392885, "bike_id": "3fe965bb3c976bb715170f265f7d0966", "type": "electric_scooter", "is_reserved": 0, "lon": -77.0747725}, {"fusion_lat": 0.0, "name": "f888864d01f02ecfd0cd65f68f59eabb", "is_disabled": 0, "rental_uris": {"android": "https://dc.lft.to/lastmile_qr_scan", "ios": "https://dc.lft.to/lastmile_qr_scan"}, "fusion_lon": 0.0, "lat": 38.881895666666665, "bike_id": "f888864d01f02ecfd0cd65f68f59eabb", "type": "electric_scooter", "is_reserved": 0, "lon": -77.0035515}, {"fusion_lat": 0.0, "name": "99a009766cdd827435a837320f7af7a7", "is_disabled": 0, "rental_uris": {"android": "https://dc.lft.to/lastmile_qr_scan", "ios": "https://dc.lft.to/lastmile_qr_scan"}, "fusion_lon": 0.0, "lat": 38.89623733333333, "bike_id": "99a009766cdd827435a837320f7af7a7", "type": "electric_scooter", "is_reserved": 0, "lon": -76.95735133333334}, {"fusion_lat": 0.0, "name": "5118c7e16bc66933bccdce4aa44aaffb", "is_disabled": 0, "rental_uris": {"android": "https://dc.lft.to/lastmile_qr_scan", "ios": "https://dc.lft.to/lastmile_qr_scan"}, "fusion_lon": 0.0, "lat": 38.92789, "bike_id": "5118c7e16bc66933bccdce4aa44aaffb", "type": "electric_scooter", "is_reserved": 0, "lon": -77.031517}, {"fusion_lat": 0.0, "name": "9490231f16b4d1475976e4564b4024fa", "is_disabled": 0, "rental_uris": {"android": "https://dc.lft.to/lastmile_qr_scan", "ios": "https://dc.lft.to/lastmile_qr_scan"}, "fusion_lon": 0.0, "lat": 38.90657316666667, "bike_id": "9490231f16b4d1475976e4564b4024fa", "type": "electric_bike", "is_reserved": 0, "lon": -77.00893316666667}, {"fusion_lat": 0.0, "name": "19a746942dba1c785e2447d5f30c85cd", "is_disabled": 0, "rental_uris": {"android": "https://dc.lft.to/lastmile_qr_scan", "ios": "https://dc.lft.to/lastmile_qr_scan"}, "fusion_lon": 0.0, "lat": 38.941176166666665, "bike_id": "19a746942dba1c785e2447d5f30c85cd", "type": "electric_bike", "is_reserved": 0, "lon": -76.99034883333333}, {"fusion_lat": 0.0, "name": "ee954eba3039ace69cab9dfa85cfa6db", "is_disabled": 0, "rental_uris": {"android": "https://dc.lft.to/lastmile_qr_scan", "ios": "https://dc.lft.to/lastmile_qr_scan"}, "fusion_lon": 0.0, "lat": 38.88411966666666, "bike_id": "ee954eba3039ace69cab9dfa85cfa6db", "type": "electric_scooter", "is_reserved": 0, "lon": -77.025708}, {"fusion_lat": 0.0, "name": "de0f004b0d9069fdc573abff62447364", "is_disabled": 0, "rental_uris": {"android": "https://dc.lft.to/lastmile_qr_scan", "ios": "https://dc.lft.to/lastmile_qr_scan"}, "fusion_lon": 0.0, "lat": 38.93382666666667, "bike_id": "de0f004b0d9069fdc573abff62447364", "type": "electric_scooter", "is_reserved": 0, "lon": -77.02416833333334}, {"fusion_lat": 0.0, "name": "bf13a09ede45c1e69854486614985add", "is_disabled": 0, "rental_uris": {"android": "https://dc.lft.to/lastmile_qr_scan", "ios": "https://dc.lft.to/lastmile_qr_scan"}, "fusion_lon": 0.0, "lat": 38.9005285, "bike_id": "bf13a09ede45c1e69854486614985add", "type": "electric_scooter", "is_reserved": 0, "lon": -77.01361366666667}, {"fusion_lat": 0.0, "name": "cad95ae412d8e265866e35ee52db683a", "is_disabled": 0, "rental_uris": {"android": "https://dc.lft.to/lastmile_qr_scan", "ios": "https://dc.lft.to/lastmile_qr_scan"}, "fusion_lon": 0.0, "lat": 38.893633, "bike_id": "cad95ae412d8e265866e35ee52db683a", "type": "electric_scooter", "is_reserved": 0, "lon": -77.00077266666666}, {"fusion_lat": 0.0, "name": "08b30c7b6d1691668873e39081d235e3", "is_disabled": 0, "rental_uris": {"android": "https://dc.lft.to/lastmile_qr_scan", "ios": "https://dc.lft.to/lastmile_qr_scan"}, "fusion_lon": 0.0, "lat": 38.91619716666666, "bike_id": "08b30c7b6d1691668873e39081d235e3", "type": "electric_scooter", "is_reserved": 0, "lon": -77.03853483333333}, {"fusion_lat": 0.0, "name": "67ad55d560997841217c7c27a934d192", "is_disabled": 0, "rental_uris": {"android": "https://dc.lft.to/lastmile_qr_scan", "ios": "https://dc.lft.to/lastmile_qr_scan"}, "fusion_lon": 0.0, "lat": 38.9304785, "bike_id": "67ad55d560997841217c7c27a934d192", "type": "electric_scooter", "is_reserved": 0, "lon": -77.03362116666666}, {"fusion_lat": 0.0, "name": "8a930f64a98f90a7407f362b33ccfcac", "is_disabled": 0, "rental_uris": {"android": "https://dc.lft.to/lastmile_qr_scan", "ios": "https://dc.lft.to/lastmile_qr_scan"}, "fusion_lon": 0.0, "lat": 38.94925933333333, "bike_id": "8a930f64a98f90a7407f362b33ccfcac", "type": "electric_scooter", "is_reserved": 0, "lon": -77.018562}, {"fusion_lat": 0.0, "name": "a98c9d52a31adbba77f0b23220ef0923", "is_disabled": 0, "rental_uris": {"android": "https://dc.lft.to/lastmile_qr_scan", "ios": "https://dc.lft.to/lastmile_qr_scan"}, "fusion_lon": 0.0, "lat": 38.878958833333336, "bike_id": "a98c9d52a31adbba77f0b23220ef0923", "type": "electric_scooter", "is_reserved": 0, "lon": -77.021928}, {"fusion_lat": 0.0, "name": "d0a6252881eb0a5c73905c02b117cecd", "is_disabled": 0, "rental_uris": {"android": "https://dc.lft.to/lastmile_qr_scan", "ios": "https://dc.lft.to/lastmile_qr_scan"}, "fusion_lon": 0.0, "lat": 38.89848, "bike_id": "d0a6252881eb0a5c73905c02b117cecd", "type": "electric_scooter", "is_reserved": 0, "lon": -76.99030833333333}, {"fusion_lat": 0.0, "name": "86827d5d515b7c50ac8574df18469dbc", "is_disabled": 0, "rental_uris": {"android": "https://dc.lft.to/lastmile_qr_scan", "ios": "https://dc.lft.to/lastmile_qr_scan"}, "fusion_lon": 0.0, "lat": 38.90763033333333, "bike_id": "86827d5d515b7c50ac8574df18469dbc", "type": "electric_scooter", "is_reserved": 0, "lon": -77.0501425}, {"fusion_lat": 0.0, "name": "f0f6694b7ba47f93b3fb52362662ee5b", "is_disabled": 0, "rental_uris": {"android": "https://dc.lft.to/lastmile_qr_scan", "ios": "https://dc.lft.to/lastmile_qr_scan"}, "fusion_lon": 0.0, "lat": 38.914100833333336, "bike_id": "f0f6694b7ba47f93b3fb52362662ee5b", "type": "electric_scooter", "is_reserved": 0, "lon": -77.02817983333334}, {"fusion_lat": 0.0, "name": "1788cb7b8e0efc7eedfc87553156e427", "is_disabled": 0, "rental_uris": {"android": "https://dc.lft.to/lastmile_qr_scan", "ios": "https://dc.lft.to/lastmile_qr_scan"}, "fusion_lon": 0.0, "lat": 38.898721, "bike_id": "1788cb7b8e0efc7eedfc87553156e427", "type": "electric_scooter", "is_reserved": 0, "lon": -76.93185133333333}, {"fusion_lat": 0.0, "name": "a66fd7ef24be51b23542d47cdae2f940", "is_disabled": 0, "rental_uris": {"android": "https://dc.lft.to/lastmile_qr_scan", "ios": "https://dc.lft.to/lastmile_qr_scan"}, "fusion_lon": 0.0, "lat": 38.907517166666665, "bike_id": "a66fd7ef24be51b23542d47cdae2f940", "type": "electric_scooter", "is_reserved": 0, "lon": -77.0455605}, {"fusion_lat": 0.0, "name": "9a79140e97b61eebf7cba0f8f343d9a8", "is_disabled": 0, "rental_uris": {"android": "https://dc.lft.to/lastmile_qr_scan", "ios": "https://dc.lft.to/lastmile_qr_scan"}, "fusion_lon": 0.0, "lat": 38.905246166666664, "bike_id": "9a79140e97b61eebf7cba0f8f343d9a8", "type": "electric_scooter", "is_reserved": 0, "lon": -77.05939533333333}, {"fusion_lat": 0.0, "name": "caf4431234b70d53c773af187c0d1755", "is_disabled": 0, "rental_uris": {"android": "https://dc.lft.to/lastmile_qr_scan", "ios": "https://dc.lft.to/lastmile_qr_scan"}, "fusion_lon": 0.0, "lat": 38.935212, "bike_id": "caf4431234b70d53c773af187c0d1755", "type": "electric_scooter", "is_reserved": 0, "lon": -77.072642}, {"fusion_lat": 0.0, "name": "3c17cd836b08e489fadd2b32f5f00910", "is_disabled": 0, "rental_uris": {"android": "https://dc.lft.to/lastmile_qr_scan", "ios": "https://dc.lft.to/lastmile_qr_scan"}, "fusion_lon": 0.0, "lat": 39.052561833333336, "bike_id": "3c17cd836b08e489fadd2b32f5f00910", "type": "electric_bike", "is_reserved": 0, "lon": -77.08068433333334}, {"fusion_lat": 0.0, "name": "6d9f5cb52118ff247a176ed9e0022cfa", "is_disabled": 0, "rental_uris": {"android": "https://dc.lft.to/lastmile_qr_scan", "ios": "https://dc.lft.to/lastmile_qr_scan"}, "fusion_lon": 0.0, "lat": 38.8475345, "bike_id": "6d9f5cb52118ff247a176ed9e0022cfa", "type": "electric_scooter", "is_reserved": 0, "lon": -76.9949965}, {"fusion_lat": 0.0, "name": "797661f43a8b4fdb97af67eb8824c7d7", "is_disabled": 0, "rental_uris": {"android": "https://dc.lft.to/lastmile_qr_scan", "ios": "https://dc.lft.to/lastmile_qr_scan"}, "fusion_lon": 0.0, "lat": 38.89436883333333, "bike_id": "797661f43a8b4fdb97af67eb8824c7d7", "type": "electric_scooter", "is_reserved": 0, "lon": -76.93680033333334}, {"fusion_lat": 0.0, "name": "ce17f4dbd59b705075cee78454d21d14", "is_disabled": 0, "rental_uris": {"android": "https://dc.lft.to/lastmile_qr_scan", "ios": "https://dc.lft.to/lastmile_qr_scan"}, "fusion_lon": 0.0, "lat": 38.93552316666667, "bike_id": "ce17f4dbd59b705075cee78454d21d14", "type": "electric_bike", "is_reserved": 0, "lon": -77.03704883333333}, {"fusion_lat": 0.0, "name": "0504cc1ddc4b4b329934a9c65cc7a95e", "is_disabled": 0, "rental_uris": {"android": "https://dc.lft.to/lastmile_qr_scan", "ios": "https://dc.lft.to/lastmile_qr_scan"}, "fusion_lon": 0.0, "lat": 38.9316475, "bike_id": "0504cc1ddc4b4b329934a9c65cc7a95e", "type": "electric_scooter", "is_reserved": 0, "lon": -77.033121}, {"fusion_lat": 0.0, "name": "fb497e0970dfcbf2929e3a95b198298c", "is_disabled": 0, "rental_uris": {"android": "https://dc.lft.to/lastmile_qr_scan", "ios": "https://dc.lft.to/lastmile_qr_scan"}, "fusion_lon": 0.0, "lat": 38.90485183333333, "bike_id": "fb497e0970dfcbf2929e3a95b198298c", "type": "electric_scooter", "is_reserved": 0, "lon": -76.9495715}, {"fusion_lat": 0.0, "name": "632015897659cb51c9c41bc3d2837d23", "is_disabled": 0, "rental_uris": {"android": "https://dc.lft.to/lastmile_qr_scan", "ios": "https://dc.lft.to/lastmile_qr_scan"}, "fusion_lon": 0.0, "lat": 38.911042, "bike_id": "632015897659cb51c9c41bc3d2837d23", "type": "electric_scooter", "is_reserved": 0, "lon": -77.03828533333333}, {"fusion_lat": 0.0, "name": "bc9d83f8dc6a56eccc305aba3e1177dd", "is_disabled": 0, "rental_uris": {"android": "https://dc.lft.to/lastmile_qr_scan", "ios": "https://dc.lft.to/lastmile_qr_scan"}, "fusion_lon": 0.0, "lat": 38.9305415, "bike_id": "bc9d83f8dc6a56eccc305aba3e1177dd", "type": "electric_scooter", "is_reserved": 0, "lon": -77.039504}, {"fusion_lat": 0.0, "name": "4bc8915e50aa9d26701e032adff9e367", "is_disabled": 0, "rental_uris": {"android": "https://dc.lft.to/lastmile_qr_scan", "ios": "https://dc.lft.to/lastmile_qr_scan"}, "fusion_lon": 0.0, "lat": 38.92792816666667, "bike_id": "4bc8915e50aa9d26701e032adff9e367", "type": "electric_scooter", "is_reserved": 0, "lon": -76.9556085}, {"fusion_lat": 0.0, "name": "514391261db0dfcf600c7a464ff9093e", "is_disabled": 0, "rental_uris": {"android": "https://dc.lft.to/lastmile_qr_scan", "ios": "https://dc.lft.to/lastmile_qr_scan"}, "fusion_lon": 0.0, "lat": 38.902574666666666, "bike_id": "514391261db0dfcf600c7a464ff9093e", "type": "electric_scooter", "is_reserved": 0, "lon": -77.00200683333334}, {"fusion_lat": 0.0, "name": "d5e3fdbed6e6edc5b757029d56f6eaea", "is_disabled": 0, "rental_uris": {"android": "https://dc.lft.to/lastmile_qr_scan", "ios": "https://dc.lft.to/lastmile_qr_scan"}, "fusion_lon": 0.0, "lat": 38.91759716666667, "bike_id": "d5e3fdbed6e6edc5b757029d56f6eaea", "type": "electric_scooter", "is_reserved": 0, "lon": -77.0364975}, {"fusion_lat": 0.0, "name": "be6a01a96479a462061492bccc68c85a", "is_disabled": 0, "rental_uris": {"android": "https://dc.lft.to/lastmile_qr_scan", "ios": "https://dc.lft.to/lastmile_qr_scan"}, "fusion_lon": 0.0, "lat": 38.90771066666667, "bike_id": "be6a01a96479a462061492bccc68c85a", "type": "electric_scooter", "is_reserved": 0, "lon": -77.06230433333333}, {"fusion_lat": 0.0, "name": "5cb406767f42ca2c12f9da72b64c3e76", "is_disabled": 0, "rental_uris": {"android": "https://dc.lft.to/lastmile_qr_scan", "ios": "https://dc.lft.to/lastmile_qr_scan"}, "fusion_lon": 0.0, "lat": 38.89825416666667, "bike_id": "5cb406767f42ca2c12f9da72b64c3e76", "type": "electric_bike", "is_reserved": 0, "lon": -77.04683183333333}, {"fusion_lat": 0.0, "name": "6f5d253f3b8f85a9b4f27bc57a0184f3", "is_disabled": 0, "rental_uris": {"android": "https://dc.lft.to/lastmile_qr_scan", "ios": "https://dc.lft.to/lastmile_qr_scan"}, "fusion_lon": 0.0, "lat": 38.908889333333335, "bike_id": "6f5d253f3b8f85a9b4f27bc57a0184f3", "type": "electric_scooter", "is_reserved": 0, "lon": -77.03656766666667}, {"fusion_lat": 0.0, "name": "1301bc26b118cf96ae9e8473c1f3d489", "is_disabled": 0, "rental_uris": {"android": "https://dc.lft.to/lastmile_qr_scan", "ios": "https://dc.lft.to/lastmile_qr_scan"}, "fusion_lon": 0.0, "lat": 38.888451833333335, "bike_id": "1301bc26b118cf96ae9e8473c1f3d489", "type": "electric_scooter", "is_reserved": 0, "lon": -76.926829}, {"fusion_lat": 0.0, "name": "c12e5c3b2da9e70d752ff67019da3964", "is_disabled": 0, "rental_uris": {"android": "https://dc.lft.to/lastmile_qr_scan", "ios": "https://dc.lft.to/lastmile_qr_scan"}, "fusion_lon": 0.0, "lat": 38.9386875, "bike_id": "c12e5c3b2da9e70d752ff67019da3964", "type": "electric_bike", "is_reserved": 0, "lon": -77.02918266666667}, {"fusion_lat": 0.0, "name": "3f40841ba4c3a711602c6ae9ae7cee82", "is_disabled": 0, "rental_uris": {"android": "https://dc.lft.to/lastmile_qr_scan", "ios": "https://dc.lft.to/lastmile_qr_scan"}, "fusion_lon": 0.0, "lat": 38.897223333333336, "bike_id": "3f40841ba4c3a711602c6ae9ae7cee82", "type": "electric_scooter", "is_reserved": 0, "lon": -77.0076355}, {"fusion_lat": 0.0, "name": "6861654b2f5cfc887b2c9aaf6883e4a8", "is_disabled": 0, "rental_uris": {"android": "https://dc.lft.to/lastmile_qr_scan", "ios": "https://dc.lft.to/lastmile_qr_scan"}, "fusion_lon": 0.0, "lat": 38.909425666666664, "bike_id": "6861654b2f5cfc887b2c9aaf6883e4a8", "type": "electric_scooter", "is_reserved": 0, "lon": -76.98769166666666}, {"fusion_lat": 0.0, "name": "cdcd20eca57589d34fc80ba2711e5183", "is_disabled": 0, "rental_uris": {"android": "https://dc.lft.to/lastmile_qr_scan", "ios": "https://dc.lft.to/lastmile_qr_scan"}, "fusion_lon": 0.0, "lat": 38.903011, "bike_id": "cdcd20eca57589d34fc80ba2711e5183", "type": "electric_scooter", "is_reserved": 0, "lon": -77.02904066666666}, {"fusion_lat": 0.0, "name": "a7749e4fdbec695215270df1e794355b", "is_disabled": 0, "rental_uris": {"android": "https://dc.lft.to/lastmile_qr_scan", "ios": "https://dc.lft.to/lastmile_qr_scan"}, "fusion_lon": 0.0, "lat": 38.8946745, "bike_id": "a7749e4fdbec695215270df1e794355b", "type": "electric_scooter", "is_reserved": 0, "lon": -77.021293}, {"fusion_lat": 0.0, "name": "38e8d5c69fd2cc68ccd9151d347a4d89", "is_disabled": 0, "rental_uris": {"android": "https://dc.lft.to/lastmile_qr_scan", "ios": "https://dc.lft.to/lastmile_qr_scan"}, "fusion_lon": 0.0, "lat": 38.88491916666667, "bike_id": "38e8d5c69fd2cc68ccd9151d347a4d89", "type": "electric_scooter", "is_reserved": 0, "lon": -77.010842}, {"fusion_lat": 0.0, "name": "44e84f7a85bbc42540a6e90a2734caed", "is_disabled": 0, "rental_uris": {"android": "https://dc.lft.to/lastmile_qr_scan", "ios": "https://dc.lft.to/lastmile_qr_scan"}, "fusion_lon": 0.0, "lat": 38.92284, "bike_id": "44e84f7a85bbc42540a6e90a2734caed", "type": "electric_scooter", "is_reserved": 0, "lon": -76.9977655}, {"fusion_lat": 0.0, "name": "dfcf316751a46c5fc6f0c2283091f26d", "is_disabled": 0, "rental_uris": {"android": "https://dc.lft.to/lastmile_qr_scan", "ios": "https://dc.lft.to/lastmile_qr_scan"}, "fusion_lon": 0.0, "lat": 38.910229, "bike_id": "dfcf316751a46c5fc6f0c2283091f26d", "type": "electric_scooter", "is_reserved": 0, "lon": -77.02923}, {"fusion_lat": 0.0, "name": "4fe6431a18453fee2c88d8b802e621d1", "is_disabled": 0, "rental_uris": {"android": "https://dc.lft.to/lastmile_qr_scan", "ios": "https://dc.lft.to/lastmile_qr_scan"}, "fusion_lon": 0.0, "lat": 38.9246155, "bike_id": "4fe6431a18453fee2c88d8b802e621d1", "type": "electric_scooter", "is_reserved": 0, "lon": -77.02075483333333}, {"fusion_lat": 0.0, "name": "54fe47c203cef54393814ac726a49527", "is_disabled": 0, "rental_uris": {"android": "https://dc.lft.to/lastmile_qr_scan", "ios": "https://dc.lft.to/lastmile_qr_scan"}, "fusion_lon": 0.0, "lat": 38.911731333333336, "bike_id": "54fe47c203cef54393814ac726a49527", "type": "electric_scooter", "is_reserved": 0, "lon": -77.02828683333334}, {"fusion_lat": 0.0, "name": "4d490d3a8176c400c3219b15de64aeff", "is_disabled": 0, "rental_uris": {"android": "https://dc.lft.to/lastmile_qr_scan", "ios": "https://dc.lft.to/lastmile_qr_scan"}, "fusion_lon": 0.0, "lat": 38.9072535, "bike_id": "4d490d3a8176c400c3219b15de64aeff", "type": "electric_scooter", "is_reserved": 0, "lon": -77.04761383333333}, {"fusion_lat": 0.0, "name": "17bd8108f0b6815419ed67f5c019982b", "is_disabled": 0, "rental_uris": {"android": "https://dc.lft.to/lastmile_qr_scan", "ios": "https://dc.lft.to/lastmile_qr_scan"}, "fusion_lon": 0.0, "lat": 38.920778166666665, "bike_id": "17bd8108f0b6815419ed67f5c019982b", "type": "electric_scooter", "is_reserved": 0, "lon": -77.02305716666666}, {"fusion_lat": 0.0, "name": "1796482282c9bd27569331e373954553", "is_disabled": 0, "rental_uris": {"android": "https://dc.lft.to/lastmile_qr_scan", "ios": "https://dc.lft.to/lastmile_qr_scan"}, "fusion_lon": 0.0, "lat": 38.892411333333335, "bike_id": "1796482282c9bd27569331e373954553", "type": "electric_scooter", "is_reserved": 0, "lon": -77.00275616666667}, {"fusion_lat": 0.0, "name": "c55c95c00ec0e82914c96be0541db731", "is_disabled": 0, "rental_uris": {"android": "https://dc.lft.to/lastmile_qr_scan", "ios": "https://dc.lft.to/lastmile_qr_scan"}, "fusion_lon": 0.0, "lat": 38.922995, "bike_id": "c55c95c00ec0e82914c96be0541db731", "type": "electric_scooter", "is_reserved": 0, "lon": -77.01826766666667}, {"fusion_lat": 0.0, "name": "d7c3d01d6dfcf6412e2b3e6a5cbc587e", "is_disabled": 0, "rental_uris": {"android": "https://dc.lft.to/lastmile_qr_scan", "ios": "https://dc.lft.to/lastmile_qr_scan"}, "fusion_lon": 0.0, "lat": 38.90099133333333, "bike_id": "d7c3d01d6dfcf6412e2b3e6a5cbc587e", "type": "electric_scooter", "is_reserved": 0, "lon": -76.93049283333333}, {"fusion_lat": 0.0, "name": "2371cc8114687cfdf10e1d87be92a19c", "is_disabled": 0, "rental_uris": {"android": "https://dc.lft.to/lastmile_qr_scan", "ios": "https://dc.lft.to/lastmile_qr_scan"}, "fusion_lon": 0.0, "lat": 38.911772666666664, "bike_id": "2371cc8114687cfdf10e1d87be92a19c", "type": "electric_scooter", "is_reserved": 0, "lon": -77.02958333333333}, {"fusion_lat": 0.0, "name": "9583f7fb7c98e92d5f01cabbdc0f07be", "is_disabled": 0, "rental_uris": {"android": "https://dc.lft.to/lastmile_qr_scan", "ios": "https://dc.lft.to/lastmile_qr_scan"}, "fusion_lon": 0.0, "lat": 38.89708016666667, "bike_id": "9583f7fb7c98e92d5f01cabbdc0f07be", "type": "electric_scooter", "is_reserved": 0, "lon": -77.02449833333333}, {"fusion_lat": 0.0, "name": "355326cf4b379f1d31767d3716d707dc", "is_disabled": 0, "rental_uris": {"android": "https://dc.lft.to/lastmile_qr_scan", "ios": "https://dc.lft.to/lastmile_qr_scan"}, "fusion_lon": 0.0, "lat": 38.90908483333333, "bike_id": "355326cf4b379f1d31767d3716d707dc", "type": "electric_scooter", "is_reserved": 0, "lon": -76.99934483333334}, {"fusion_lat": 0.0, "name": "c579525c2187956291509a2b8151db43", "is_disabled": 0, "rental_uris": {"android": "https://dc.lft.to/lastmile_qr_scan", "ios": "https://dc.lft.to/lastmile_qr_scan"}, "fusion_lon": 0.0, "lat": 38.93627383333333, "bike_id": "c579525c2187956291509a2b8151db43", "type": "electric_scooter", "is_reserved": 0, "lon": -77.0365635}, {"fusion_lat": 0.0, "name": "e3ee2643d384cb5017e1b3e4911e5ffc", "is_disabled": 0, "rental_uris": {"android": "https://dc.lft.to/lastmile_qr_scan", "ios": "https://dc.lft.to/lastmile_qr_scan"}, "fusion_lon": 0.0, "lat": 38.90773766666667, "bike_id": "e3ee2643d384cb5017e1b3e4911e5ffc", "type": "electric_scooter", "is_reserved": 0, "lon": -77.04266766666667}, {"fusion_lat": 0.0, "name": "4e357cdb579dd72d8add58fc8b6f7aea", "is_disabled": 0, "rental_uris": {"android": "https://dc.lft.to/lastmile_qr_scan", "ios": "https://dc.lft.to/lastmile_qr_scan"}, "fusion_lon": 0.0, "lat": 38.914265, "bike_id": "4e357cdb579dd72d8add58fc8b6f7aea", "type": "electric_scooter", "is_reserved": 0, "lon": -77.03207933333333}, {"fusion_lat": 0.0, "name": "77b3b95b706e46a0d3e8e7f1cdcbf0c4", "is_disabled": 0, "rental_uris": {"android": "https://dc.lft.to/lastmile_qr_scan", "ios": "https://dc.lft.to/lastmile_qr_scan"}, "fusion_lon": 0.0, "lat": 38.8877245, "bike_id": "77b3b95b706e46a0d3e8e7f1cdcbf0c4", "type": "electric_scooter", "is_reserved": 0, "lon": -77.033369}, {"fusion_lat": 0.0, "name": "ebf46a1c25101c6ab88b773af89f2f95", "is_disabled": 0, "rental_uris": {"android": "https://dc.lft.to/lastmile_qr_scan", "ios": "https://dc.lft.to/lastmile_qr_scan"}, "fusion_lon": 0.0, "lat": 38.89526016666667, "bike_id": "ebf46a1c25101c6ab88b773af89f2f95", "type": "electric_scooter", "is_reserved": 0, "lon": -77.04227283333333}, {"fusion_lat": 0.0, "name": "652d2844aac7e5c5c935f611dd9ce7ce", "is_disabled": 0, "rental_uris": {"android": "https://dc.lft.to/lastmile_qr_scan", "ios": "https://dc.lft.to/lastmile_qr_scan"}, "fusion_lon": 0.0, "lat": 38.91002183333333, "bike_id": "652d2844aac7e5c5c935f611dd9ce7ce", "type": "electric_scooter", "is_reserved": 0, "lon": -77.01510766666667}, {"fusion_lat": 0.0, "name": "2accf8aeb1e3101e553ec4bad5997d6b", "is_disabled": 0, "rental_uris": {"android": "https://dc.lft.to/lastmile_qr_scan", "ios": "https://dc.lft.to/lastmile_qr_scan"}, "fusion_lon": 0.0, "lat": 38.843475166666664, "bike_id": "2accf8aeb1e3101e553ec4bad5997d6b", "type": "electric_bike", "is_reserved": 0, "lon": -76.978123}, {"fusion_lat": 0.0, "name": "13d5e00fa5911fb40c6feb3cf5f9483b", "is_disabled": 0, "rental_uris": {"android": "https://dc.lft.to/lastmile_qr_scan", "ios": "https://dc.lft.to/lastmile_qr_scan"}, "fusion_lon": 0.0, "lat": 38.94500766666667, "bike_id": "13d5e00fa5911fb40c6feb3cf5f9483b", "type": "electric_scooter", "is_reserved": 0, "lon": -77.031473},