{"data": {"bikes": [{"rental_uris": {"android": "https://dc.lft.to/lastmile_qr_scan", "ios": "https://dc.lft.to/lastmile_qr_scan"}, "fusion_lat": 0.0, "is_reserved": 0, "lat": 38.8820295, "name": "2fea8e55c96fbee9c0c490566cca4bcc", "bike_id": "2fea8e55c96fbee9c0c490566cca4bcc", "is_disabled": 0, "fusion_lon": 0.0, "type": "electric_scooter", "lon": -76.9891375}, {"rental_uris": {"android": "https://dc.lft.to/lastmile_qr_scan", "ios": "https://dc.lft.to/lastmile_qr_scan"}, "fusion_lat": 0.0, "is_reserved": 0, "lat": 38.835871833333336, "name": "2047f082cfa8be896728b1f2bb1399ba", "bike_id": "2047f082cfa8be896728b1f2bb1399ba", "is_disabled": 0, "fusion_lon": 0.0, "type": "electric_bike", "lon": -76.99023866666667}, {"rental_uris": {"android": "https://dc.lft.to/lastmile_qr_scan", "ios": "https://dc.lft.to/lastmile_qr_scan"}, "fusion_lat": 0.0, "is_reserved": 0, "lat": 38.899645, "name": "019c2af1944e24e15d520d7d83b24c47", "bike_id": "019c2af1944e24e15d520d7d83b24c47", "is_disabled": 0, "fusion_lon": 0.0, "type": "electric_scooter", "lon": -77.026029}, {"rental_uris": {"android": "https://dc.lft.to/lastmile_qr_scan", "ios": "https://dc.lft.to/lastmile_qr_scan"}, "fusion_lat": 0.0, "is_reserved": 0, "lat": 38.9355665, "name": "c8e14041e481f7c9c7158b07917d352f", "bike_id": "c8e14041e481f7c9c7158b07917d352f", "is_disabled": 0, "fusion_lon": 0.0, "type": "electric_scooter", "lon": -77.07464716666667}, {"rental_uris": {"android": "https://dc.lft.to/lastmile_qr_scan", "ios": "https://dc.lft.to/lastmile_qr_scan"}, "fusion_lat": 0.0, "is_reserved": 0, "lat": 38.8974505, "name": "2e6e84fe106130323ff3e7fe4693e3bf", "bike_id": "2e6e84fe106130323ff3e7fe4693e3bf", "is_disabled": 0, "fusion_lon": 0.0, "type": "electric_scooter", "lon": -77.022072}, {"rental_uris": {"android": "https://dc.lft.to/lastmile_qr_scan", "ios": "https://dc.lft.to/lastmile_qr_scan"}, "fusion_lat": 0.0, "is_reserved": 0, "lat": 38.922359666666665, "name": "4cccc9fbb5608ba0121fa0d6fcbf69e9", "bike_id": "4cccc9fbb5608ba0121fa0d6fcbf69e9", "is_disabled": 0, "fusion_lon": 0.0, "type": "electric_scooter", "lon": -77.0335625}, {"rental_uris": {"android": "https://dc.lft.to/lastmile_qr_scan", "ios": "https://dc.lft.to/lastmile_qr_scan"}, "fusion_lat": 0.0, "is_reserved": 0, "lat": 38.8634, "name": "de5eb56b175737a2c0d823a9bf586f2c", "bike_id": "de5eb56b175737a2c0d823a9bf586f2c", "is_disabled": 0, "fusion_lon": 0.0, "type": "electric_scooter", "lon": -76.98691383333333}, {"rental_uris": {"android": "https://dc.lft.to/lastmile_qr_scan", "ios": "https://dc.lft.to/lastmile_qr_scan"}, "fusion_lat": 0.0, "is_reserved": 0, "lat": 38.909428166666665, "name": "74c08e9131c913ec6ebdc66450e41fa7", "bike_id": "74c08e9131c913ec6ebdc66450e41fa7", "is_disabled": 0, "fusion_lon": 0.0, "type": "electric_scooter", "lon": -77.03215616666667}, {"rental_uris": {"android": "https://dc.lft.to/lastmile_qr_scan", "ios": "https://dc.lft.to/lastmile_qr_scan"}, "fusion_lat": 0.0, "is_reserved": 0, "lat": 38.9246875, "name": "987958165d64eafe57c55225a2a9ff51", "bike_id": "987958165d64eafe57c55225a2a9ff51", "is_disabled": 0, "fusion_lon": 0.0, "type": "electric_scooter", "lon": -77.02218633333334}, {"rental_uris": {"android": "https://dc.lft.to/lastmile_qr_scan", "ios": "https://dc.lft.to/lastmile_qr_scan"}, "fusion_lat": 0.0, "is_reserved": 0, "lat": 38.893380666666665, "name": "c7092431f6bfd125e1847c1bc0106732", "bike_id": "c7092431f6bfd125e1847c1bc0106732", "is_disabled": 0, "fusion_lon": 0.0, "type": "electric_scooter", "lon": -77.04872366666666}, {"rental_uris": {"android": "https://dc.lft.to/lastmile_qr_scan", "ios": "https://dc.lft.to/lastmile_qr_scan"}, "fusion_lat": 0.0, "is_reserved": 0, "lat": 38.89827316666667, "name": "430eb4b7fd7c078ba96d427e859e728e", "bike_id": "430eb4b7fd7c078ba96d427e859e728e", "is_disabled": 0, "fusion_lon": 0.0, "type": "electric_scooter", "lon": -76.93007266666666}, {"rental_uris": {"android": "https://dc.lft.to/lastmile_qr_scan", "ios": "https://dc.lft.to/lastmile_qr_scan"}, "fusion_lat": 0.0, "is_reserved": 0, "lat": 38.92999533333333, "name": "bd8b6bd7ec8f9740dc7cb4028226c967", "bike_id": "bd8b6bd7ec8f9740dc7cb4028226c967", "is_disabled": 0, "fusion_lon": 0.0, "type": "electric_scooter", "lon": -77.03797683333333}, {"rental_uris": {"android": "https://dc.lft.to/lastmile_qr_scan", "ios": "https://dc.lft.to/lastmile_qr_scan"}, "fusion_lat": 0.0, "is_reserved": 0, "lat": 38.900170833333334, "name": "5ed9fbd0097dd4a48ad1974df3367ec3", "bike_id": "5ed9fbd0097dd4a48ad1974df3367ec3", "is_disabled": 0, "fusion_lon": 0.0, "type": "electric_scooter", "lon": -76.9891585}, {"rental_uris": {"android": "https://dc.lft.to/lastmile_qr_scan", "ios": "https://dc.lft.to/lastmile_qr_scan"}, "fusion_lat": 0.0, "is_reserved": 0, "lat": 38.936385333333334, "name": "563b4b2ee7376753f4fc173681e36087", "bike_id": "563b4b2ee7376753f4fc173681e36087", "is_disabled": 0, "fusion_lon": 0.0, "type": "electric_scooter", "lon": -77.06005916666666}, {"rental_uris": {"android": "https://dc.lft.to/lastmile_qr_scan", "ios": "https://dc.lft.to/lastmile_qr_scan"}, "fusion_lat": 0.0, "is_reserved": 0, "lat": 38.917061833333335, "name": "c3bf3be238593e0a567c872a8f2f3757", "bike_id": "c3bf3be238593e0a567c872a8f2f3757", "is_disabled": 0, "fusion_lon": 0.0, "type": "electric_scooter", "lon": -77.01068733333334}, {"rental_uris": {"android": "https://dc.lft.to/lastmile_qr_scan", "ios": "https://dc.lft.to/lastmile_qr_scan"}, "fusion_lat": 0.0, "is_reserved": 0, "lat": 38.89712216666667, "name": "6b1fe0848a23fa09c86c46e4ef6795e7", "bike_id": "6b1fe0848a23fa09c86c46e4ef6795e7", "is_disabled": 0, "fusion_lon": 0.0, "type": "electric_scooter", "lon": -76.99117483333333}, {"rental_uris": {"android": "https://dc.lft.to/lastmile_qr_scan", "ios": "https://dc.lft.to/lastmile_qr_scan"}, "fusion_lat": 0.0, "is_reserved": 0, "lat": 38.89130216666667, "name": "6a613e01d4981feeb37f367a9441ce7c", "bike_id": "6a613e01d4981feeb37f367a9441ce7c", "is_disabled": 0, "fusion_lon": 0.0, "type": "electric_bike", "lon": -76.991607}, {"rental_uris": {"android": "https://dc.lft.to/lastmile_qr_scan", "ios": "https://dc.lft.to/lastmile_qr_scan"}, "fusion_lat": 0.0, "is_reserved": 0, "lat": 39.094406166666666, "name": "0e8f311b40807d22ad7d04a04edf55dd", "bike_id": "0e8f311b40807d22ad7d04a04edf55dd", "is_disabled": 0, "fusion_lon": 0.0, "type": "electric_bike", "lon": -77.13460683333334}, {"rental_uris": {"android": "https://dc.lft.to/lastmile_qr_scan", "ios": "https://dc.lft.to/lastmile_qr_scan"}, "fusion_lat": 0.0, "is_reserved": 0, "lat": 38.92372116666667, "name": "b5c11239af492ff5e031528d83aefb6b", "bike_id": "b5c11239af492ff5e031528d83aefb6b", "is_disabled": 0, "fusion_lon": 0.0, "type": "electric_scooter", "lon": -77.08060383333333}, {"rental_uris": {"android": "https://dc.lft.to/lastmile_qr_scan", "ios": "https://dc.lft.to/lastmile_qr_scan"}, "fusion_lat": 0.0, "is_reserved": 0, "lat": 38.900065, "name": "6318aa0661301eafc7e46fbb25ad836e", "bike_id": "6318aa0661301eafc7e46fbb25ad836e", "is_disabled": 0, "fusion_lon": 0.0, "type": "electric_scooter", "lon": -77.04479583333334}, {"rental_uris": {"android": "https://dc.lft.to/lastmile_qr_scan", "ios": "https://dc.lft.to/lastmile_qr_scan"}, "fusion_lat": 0.0, "is_reserved": 0, "lat": 38.91599933333333, "name": "8812aed1aeeaacc81593b8dcf75b063b", "bike_id": "8812aed1aeeaacc81593b8dcf75b063b", "is_disabled": 0, "fusion_lon": 0.0, "type": "electric_scooter", "lon": -77.01223616666667}, {"rental_uris": {"android": "https://dc.lft.to/lastmile_qr_scan", "ios": "https://dc.lft.to/lastmile_qr_scan"}, "fusion_lat": 0.0, "is_reserved": 0, "lat": 38.895605333333336, "name": "9c962193cf04aa4632c1f91a35fcd6f0", "bike_id": "9c962193cf04aa4632c1f91a35fcd6f0", "is_disabled": 0, "fusion_lon": 0.0, "type": "electric_scooter", "lon": -77.029588}, {"rental_uris": {"android": "https://dc.lft.to/lastmile_qr_scan", "ios": "https://dc.lft.to/lastmile_qr_scan"}, "fusion_lat": 0.0, "is_reserved": 0, "lat": 38.939490666666664, "name": "d5e0cc722a9cfa5b0d966e71861f316f", "bike_id": "d5e0cc722a9cfa5b0d966e71861f316f", "is_disabled": 0, "fusion_lon": 0.0, "type": "electric_scooter", "lon": -77.03268733333333}, {"rental_uris": {"android": "https://dc.lft.to/lastmile_qr_scan", "ios": "https://dc.lft.to/lastmile_qr_scan"}, "fusion_lat": 0.0, "is_reserved": 0, "lat": 38.9181975, "name": "a7c508d33bc67c2bb6545497a6c05ec5", "bike_id": "a7c508d33bc67c2bb6545497a6c05ec5", "is_disabled": 0, "fusion_lon": 0.0, "type": "electric_scooter", "lon": -77.02534916666667}, {"rental_uris": {"android": "https://dc.lft.to/lastmile_qr_scan", "ios": "https://dc.lft.to/lastmile_qr_scan"}, "fusion_lat": 0.0, "is_reserved": 0, "lat": 38.91707133333333, "name": "1170302d1c77015e33e04c9a1127aa5f", "bike_id": "1170302d1c77015e33e04c9a1127aa5f", "is_disabled": 0, "fusion_lon": 0.0, "type": "electric_scooter", "lon": -77.0273535}, {"rental_uris": {"android": "https://dc.lft.to/lastmile_qr_scan", "ios": "https://dc.lft.to/lastmile_qr_scan"}, "fusion_lat": 0.0, "is_reserved": 0, "lat": 38.924759333333334, "name": "1a60abd020dbef1af6f2322ea80c6420", "bike_id": "1a60abd020dbef1af6f2322ea80c6420", "is_disabled": 0, "fusion_lon": 0.0, "type": "electric_scooter", "lon": -77.021119}, {"rental_uris": {"android": "https://dc.lft.to/lastmile_qr_scan", "ios": "https://dc.lft.to/lastmile_qr_scan"}, "fusion_lat": 0.0, "is_reserved": 0, "lat": 38.85783466666667, "name": "f5e9358722d08e1018185e414fdfa00c", "bike_id": "f5e9358722d08e1018185e414fdfa00c", "is_disabled": 0, "fusion_lon": 0.0, "type": "electric_bike", "lon": -76.98752966666666}, {"rental_uris": {"android": "https://dc.lft.to/lastmile_qr_scan", "ios": "https://dc.lft.to/lastmile_qr_scan"}, "fusion_lat": 0.0, "is_reserved": 0, "lat": 38.920255833333336, "name": "f1e1b04afb29c3ab32e82ca709e0e6ca", "bike_id": "f1e1b04afb29c3ab32e82ca709e0e6ca", "is_disabled": 0, "fusion_lon": 0.0, "type": "electric_scooter", "lon": -77.031285}, {"rental_uris": {"android": "https://dc.lft.to/lastmile_qr_scan", "ios": "https://dc.lft.to/lastmile_qr_scan"}, "fusion_lat": 0.0, "is_reserved": 0, "lat": 38.911929, "name": "e40e80065d3d35d8ee64d3d509a31d54", "bike_id": "e40e80065d3d35d8ee64d3d509a31d54", "is_disabled": 0, "fusion_lon": 0.0, "type": "electric_scooter", "lon": -77.038319}, {"rental_uris": {"android": "https://dc.lft.to/lastmile_qr_scan", "ios": "https://dc.lft.to/lastmile_qr_scan"}, "fusion_lat": 0.0, "is_reserved": 0, "lat": 38.905011333333334, "name": "e903db515bc78cf762f994b9528eb5ba", "bike_id": "e903db515bc78cf762f994b9528eb5ba", "is_disabled": 0, "fusion_lon": 0.0, "type": "electric_scooter", "lon": -76.98036066666667}, {"rental_uris": {"android": "https://dc.lft.to/lastmile_qr_scan", "ios": "https://dc.lft.to/lastmile_qr_scan"}, "fusion_lat": 0.0, "is_reserved": 0, "lat": 38.83030083333333, "name": "9781db2144da6c6bc05fdf5e10c04ebf", "bike_id": "9781db2144da6c6bc05fdf5e10c04ebf", "is_disabled": 0, "fusion_lon": 0.0, "type": "electric_bike", "lon": -77.0838055}, {"rental_uris": {"android": "https://dc.lft.to/lastmile_qr_scan", "ios": "https://dc.lft.to/lastmile_qr_scan"}, "fusion_lat": 0.0, "is_reserved": 0, "lat": 38.92013766666667, "name": "a91e8507ed80e311093a5ad069d2f83c", "bike_id": "a91e8507ed80e311093a5ad069d2f83c", "is_disabled": 0, "fusion_lon": 0.0, "type": "electric_scooter", "lon": -77.01791833333333}, {"rental_uris": {"android": "https://dc.lft.to/lastmile_qr_scan", "ios": "https://dc.lft.to/lastmile_qr_scan"}, "fusion_lat": 0.0, "is_reserved": 0, "lat": 38.90734, "name": "935293dfac4d50b9efa9b6301ff56acc", "bike_id": "935293dfac4d50b9efa9b6301ff56acc", "is_disabled": 0, "fusion_lon": 0.0, "type": "electric_scooter", "lon": -77.00337816666666}, {"rental_uris": {"android": "https://dc.lft.to/lastmile_qr_scan", "ios": "https://dc.lft.to/lastmile_qr_scan"}, "fusion_lat": 0.0, "is_reserved": 0, "lat": 38.92607666666667, "name": "4fccd514857f1536605282b4f4f1d049", "bike_id": "4fccd514857f1536605282b4f4f1d049", "is_disabled": 0, "fusion_lon": 0.0, "type": "electric_scooter", "lon": -77.021533}, {"rental_uris": {"android": "https://dc.lft.to/lastmile_qr_scan", "ios": "https://dc.lft.to/lastmile_qr_scan"}, "fusion_lat": 0.0, "is_reserved": 0, "lat": 38.92246316666667, "name": "bc28f879f384ee8c88809adbe9ed1ed2", "bike_id": "bc28f879f384ee8c88809adbe9ed1ed2", "is_disabled": 0, "fusion_lon": 0.0, "type": "electric_scooter", "lon": -77.03085283333333}, {"rental_uris": {"android": "https://dc.lft.to/lastmile_qr_scan", "ios": "https://dc.lft.to/lastmile_qr_scan"}, "fusion_lat": 0.0, "is_reserved": 0, "lat": 38.919418666666665, "name": "d1b88e20d4f1fec6af12b2dba89bc10b", "bike_id": "d1b88e20d4f1fec6af12b2dba89bc10b", "is_disabled": 0, "fusion_lon": 0.0, "type": "electric_scooter", "lon": -77.04889283333333}, {"rental_uris": {"android": "https://dc.lft.to/lastmile_qr_scan", "ios": "https://dc.lft.to/lastmile_qr_scan"}, "fusion_lat": 0.0, "is_reserved": 0, "lat": 38.923885166666665, "name": "96fdd5049700515c768ce0651b799df2", "bike_id": "96fdd5049700515c768ce0651b799df2", "is_disabled": 0, "fusion_lon": 0.0, "type": "electric_scooter", "lon": -77.0268275}, {"rental_uris": {"android": "https://dc.lft.to/lastmile_qr_scan", "ios": "https://dc.lft.to/lastmile_qr_scan"}, "fusion_lat": 0.0, "is_reserved": 0, "lat": 38.899103, "name": "b8499af9c1d76092e617cbdcf8a79df8", "bike_id": "b8499af9c1d76092e617cbdcf8a79df8", "is_disabled": 0, "fusion_lon": 0.0, "type": "electric_scooter", "lon": -76.98572316666667}, {"rental_uris": {"android": "https://dc.lft.to/lastmile_qr_scan", "ios": "https://dc.lft.to/lastmile_qr_scan"}, "fusion_lat": 0.0, "is_reserved": 0, "lat": 38.901588, "name": "ccd36a7c76ec960a0cb3e1f22a65a76d", "bike_id": "ccd36a7c76ec960a0cb3e1f22a65a76d", "is_disabled": 0, "fusion_lon": 0.0, "type": "electric_scooter", "lon": -76.92134316666667}, {"rental_uris": {"android": "https://dc.lft.to/lastmile_qr_scan", "ios": "https://dc.lft.to/lastmile_qr_scan"}, "fusion_lat": 0.0, "is_reserved": 0, "lat": 38.91706766666667, "name": "93e51344b8f3d10f59d75b50b15fcc5f", "bike_id": "93e51344b8f3d10f59d75b50b15fcc5f", "is_disabled": 0, "fusion_lon": 0.0, "type": "electric_scooter", "lon": -77.03164033333333}, {"rental_uris": {"android": "https://dc.lft.to/lastmile_qr_scan", "ios": "https://dc.lft.to/lastmile_qr_scan"}, "fusion_lat": 0.0, "is_reserved": 0, "lat": 38.936145333333336, "name": "b301741fb229476894a6d76c3cdd5860", "bike_id": "b301741fb229476894a6d76c3cdd5860", "is_disabled": 0, "fusion_lon": 0.0, "type": "electric_scooter", "lon": -77.0321655}, {"rental_uris": {"android": "https://dc.lft.to/lastmile_qr_scan", "ios": "https://dc.lft.to/lastmile_qr_scan"}, "fusion_lat": 0.0, "is_reserved": 0, "lat": 38.85223933333333, "name": "442b3f7b084ca360f28506c5c98cff34", "bike_id": "442b3f7b084ca360f28506c5c98cff34", "is_disabled": 0, "fusion_lon": 0.0, "type": "electric_scooter", "lon": -76.99426666666666}, {"rental_uris": {"android": "https://dc.lft.to/lastmile_qr_scan", "ios": "https://dc.lft.to/lastmile_qr_scan"}, "fusion_lat": 0.0, "is_reserved": 0, "lat": 38.916039, "name": "6ddf9cc3b380e9d01f17e841a72a5e51", "bike_id": "6ddf9cc3b380e9d01f17e841a72a5e51", "is_disabled": 0, "fusion_lon": 0.0, "type": "electric_scooter", "lon": -77.02581316666667}, {"rental_uris": {"android": "https://dc.lft.to/lastmile_qr_scan", "ios": "https://dc.lft.to/lastmile_qr_scan"}, "fusion_lat": 0.0, "is_reserved": 0, "lat": 38.8764045, "name": "278c7630eacab6d6c9e117b015c80685", "bike_id": "278c7630eacab6d6c9e117b015c80685", "is_disabled": 0, "fusion_lon": 0.0, "type": "electric_scooter", "lon": -77.00054966666667}, {"rental_uris": {"android": "https://dc.lft.to/lastmile_qr_scan", "ios": "https://dc.lft.to/lastmile_qr_scan"}, "fusion_lat": 0.0, "is_reserved": 0, "lat": 38.892224666666664, "name": "626073281c55e77a3599f45848766f2d", "bike_id": "626073281c55e77a3599f45848766f2d", "is_disabled": 0, "fusion_lon": 0.0, "type": "electric_scooter", "lon": -77.03993216666667}, {"rental_uris": {"android": "https://dc.lft.to/lastmile_qr_scan", "ios": "https://dc.lft.to/lastmile_qr_scan"}, "fusion_lat": 0.0, "is_reserved": 0, "lat": 38.91605916666666, "name": "18954abab2555d535b113265b3e82afe", "bike_id": "18954abab2555d535b113265b3e82afe", "is_disabled": 0, "fusion_lon": 0.0, "type": "electric_scooter", "lon": -77.0240385}, {"rental_uris": {"android": "https://dc.lft.to/lastmile_qr_scan", "ios": "https://dc.lft.to/lastmile_qr_scan"}, "fusion_lat": 0.0, "is_reserved": 0, "lat": 38.932550666666664, "name": "bcea333724d60453bf6100090146d5dd", "bike_id": "bcea333724d60453bf6100090146d5dd", "is_disabled": 0, "fusion_lon": 0.0, "type": "electric_scooter", "lon": -77.030976}, {"rental_uris": {"android": "https://dc.lft.to/lastmile_qr_scan", "ios": "https://dc.lft.to/lastmile_qr_scan"}, "fusion_lat": 0.0, "is_reserved": 0, "lat": 38.895703166666664, "name": "5af1d32e5d72daf74db227a7391fe4ab", "bike_id": "5af1d32e5d72daf74db227a7391fe4ab", "is_disabled": 0, "fusion_lon": 0.0, "type": "electric_scooter", "lon": -77.0221675}, {"rental_uris": {"android": "https://dc.lft.to/lastmile_qr_scan", "ios": "https://dc.lft.to/lastmile_qr_scan"}, "fusion_lat": 0.0, "is_reserved": 0, "lat": 38.898528166666665, "name": "b5cd60f07b29c19955261beaa83472ba", "bike_id": "b5cd60f07b29c19955261beaa83472ba", "is_disabled": 0, "fusion_lon": 0.0, "type": "electric_scooter", "lon": -77.019876}, {"rental_uris": {"android": "https://dc.lft.to/lastmile_qr_scan", "ios": "https://dc.lft.to/lastmile_qr_scan"}, "fusion_lat": 0.0, "is_reserved": 0, "lat": 38.8988695, "name": "9197a68c1efcabe44c11a1cc9416b200", "bike_id": "9197a68c1efcabe44c11a1cc9416b200", "is_disabled": 0, "fusion_lon": 0.0, "type": "electric_scooter", "lon": -76.93174566666667}, {"rental_uris": {"android": "https://dc.lft.to/lastmile_qr_scan", "ios": "https://dc.lft.to/lastmile_qr_scan"}, "fusion_lat": 0.0, "is_reserved": 0, "lat": 38.9181145, "name": "190b4b16407df3e8ee44ab6f14ed9e84", "bike_id": "190b4b16407df3e8ee44ab6f14ed9e84", "is_disabled": 0, "fusion_lon": 0.0, "type": "electric_scooter", "lon": -77.0398525}, {"rental_uris": {"android": "https://dc.lft.to/lastmile_qr_scan", "ios": "https://dc.lft.to/lastmile_qr_scan"}, "fusion_lat": 0.0, "is_reserved": 0, "lat": 38.915517666666666, "name": "19ca258c7e4c4ad123a990a03de65272", "bike_id": "19ca258c7e4c4ad123a990a03de65272", "is_disabled": 0, "fusion_lon": 0.0, "type": "electric_scooter", "lon": -77.02366483333333}, {"rental_uris": {"android": "https://dc.lft.to/lastmile_qr_scan", "ios": "https://dc.lft.to/lastmile_qr_scan"}, "fusion_lat": 0.0, "is_reserved": 0, "lat": 38.87182116666666, "name": "2ae0650f802030f0641cdeb3516daff8", "bike_id": "2ae0650f802030f0641cdeb3516daff8", "is_disabled": 0, "fusion_lon": 0.0, "type": "electric_scooter", "lon": -77.0060455}, {"rental_uris": {"android": "https://dc.lft.to/lastmile_qr_scan", "ios": "https://dc.lft.to/lastmile_qr_scan"}, "fusion_lat": 0.0, "is_reserved": 0, "lat": 38.900669, "name": "e7d3c92f42e178dea2b19ac028ff075f", "bike_id": "e7d3c92f42e178dea2b19ac028ff075f", "is_disabled": 0, "fusion_lon": 0.0, "type": "electric_scooter", "lon": -77.04818216666666}, {"rental_uris": {"android": "https://dc.lft.to/lastmile_qr_scan", "ios": "https://dc.lft.to/lastmile_qr_scan"}, "fusion_lat": 0.0, "is_reserved": 0, "lat": 38.897386833333336, "name": "ee6b9cf518c653c7e1dd18ac0f03748f", "bike_id": "ee6b9cf518c653c7e1dd18ac0f03748f", "is_disabled": 0, "fusion_lon": 0.0, "type": "electric_scooter", "lon": -77.016691}, {"rental_uris": {"android": "https://dc.lft.to/lastmile_qr_scan", "ios": "https://dc.lft.to/lastmile_qr_scan"}, "fusion_lat": 0.0, "is_reserved": 0, "lat": 38.91709683333333, "name": "f3fd2c99a05f1aa072123d5d038b0ddc", "bike_id": "f3fd2c99a05f1aa072123d5d038b0ddc", "is_disabled": 0, "fusion_lon": 0.0, "type": "electric_scooter", "lon": -77.033345}, {"rental_uris": {"android": "https://dc.lft.to/lastmile_qr_scan", "ios": "https://dc.lft.to/lastmile_qr_scan"}, "fusion_lat": 0.0, "is_reserved": 0, "lat": 38.89847833333334, "name": "05310be6a3a975ea8350d46224667cc3", "bike_id": "05310be6a3a975ea8350d46224667cc3", "is_disabled": 0, "fusion_lon": 0.0, "type": "electric_bike", "lon": -76.9422675}, {"rental_uris": {"android": "https://dc.lft.to/lastmile_qr_scan", "ios": "https://dc.lft.to/lastmile_qr_scan"}, "fusion_lat": 0.0, "is_reserved": 0, "lat": 38.89976566666667, "name": "3691fcfcd98c19f2fafa4a304254ce3e", "bike_id": "3691fcfcd98c19f2fafa4a304254ce3e", "is_disabled": 0, "fusion_lon": 0.0, "type": "electric_scooter", "lon": -77.0270115}, {"rental_uris": {"android": "https://dc.lft.to/lastmile_qr_scan", "ios": "https://dc.lft.to/lastmile_qr_scan"}, "fusion_lat": 0.0, "is_reserved": 0, "lat": 38.910654, "name": "cb266cc5a5e841ddd59cbfc1bcdb726a", "bike_id": "cb266cc5a5e841ddd59cbfc1bcdb726a", "is_disabled": 0, "fusion_lon": 0.0, "type": "electric_scooter", "lon": -77.04672066666667}, {"rental_uris": {"android": "https://dc.lft.to/lastmile_qr_scan", "ios": "https://dc.lft.to/lastmile_qr_scan"}, "fusion_lat": 0.0, "is_reserved": 0, "lat": 38.87536016666667, "name": "7aaba49c152eb98521bada020fb3a9cf", "bike_id": "7aaba49c152eb98521bada020fb3a9cf", "is_disabled": 0, "fusion_lon": 0.0, "type": "electric_scooter", "lon": -77.01746883333334}, {"rental_uris": {"android": "https://dc.lft.to/lastmile_qr_scan", "ios": "https://dc.lft.to/lastmile_qr_scan"}, "fusion_lat": 0.0, "is_reserved": 0, "lat": 38.90349533333333, "name": "08e7a1592a06b3ca0258169f2614e6b7", "bike_id": "08e7a1592a06b3ca0258169f2614e6b7", "is_disabled": 0, "fusion_lon": 0.0, "type": "electric_scooter", "lon": -76.9861315}, {"rental_uris": {"android": "https://dc.lft.to/lastmile_qr_scan", "ios": "https://dc.lft.to/lastmile_qr_scan"}, "fusion_lat": 0.0, "is_reserved": 0, "lat": 38.924519, "name": "2649677abb4bcb411aeca76d46f27f00", "bike_id": "2649677abb4bcb411aeca76d46f27f00", "is_disabled": 0, "fusion_lon": 0.0, "type": "electric_scooter", "lon": -77.02154416666667}, {"rental_uris": {"android": "https://dc.lft.to/lastmile_qr_scan", "ios": "https://dc.lft.to/lastmile_qr_scan"}, "fusion_lat": 0.0, "is_reserved": 0, "lat": 38.915664, "name": "15320ae7776eabf07c55cf44d2742e45", "bike_id": "15320ae7776eabf07c55cf44d2742e45", "is_disabled": 0, "fusion_lon": 0.0, "type": "electric_scooter", "lon": -77.03242616666667}, {"rental_uris": {"android": "https://dc.lft.to/lastmile_qr_scan", "ios": "https://dc.lft.to/lastmile_qr_scan"}, "fusion_lat": 0.0, "is_reserved": 0, "lat": 38.8930765, "name": "34287310046feea88ece6043f59658f3", "bike_id": "34287310046feea88ece6043f59658f3", "is_disabled": 0, "fusion_lon": 0.0, "type": "electric_scooter", "lon": -76.93967383333333}, {"rental_uris": {"android": "https://dc.lft.to/lastmile_qr_scan", "ios": "https://dc.lft.to/lastmile_qr_scan"}, "fusion_lat": 0.0, "is_reserved": 0, "lat": 38.91772266666667, "name": "ef3d5281daa7b464769eb0a6adcd9ce0", "bike_id": "ef3d5281daa7b464769eb0a6adcd9ce0", "is_disabled": 0, "fusion_lon": 0.0, "type": "electric_scooter", "lon": -77.04747666666667}, {"rental_uris": {"android": "https://dc.lft.to/lastmile_qr_scan", "ios": "https://dc.lft.to/lastmile_qr_scan"}, "fusion_lat": 0.0, "is_reserved": 0, "lat": 38.973682833333335, "name": "91f4460a29df6c072aab714e8db3f017", "bike_id": "91f4460a29df6c072aab714e8db3f017", "is_disabled": 0, "fusion_lon": 0.0, "type": "electric_scooter", "lon": -77.02679366666666}, {"rental_uris": {"android": "https://dc.lft.to/lastmile_qr_scan", "ios": "https://dc.lft.to/lastmile_qr_scan"}, "fusion_lat": 0.0, "is_reserved": 0, "lat": 38.928716666666666, "name": "ec3188aed9f5cf03bf38f789581b72d1", "bike_id": "ec3188aed9f5cf03bf38f789581b72d1", "is_disabled": 0, "fusion_lon": 0.0, "type": "electric_scooter", "lon": -77.03429533333333}, {"rental_uris": {"android": "https://dc.lft.to/lastmile_qr_scan", "ios": "https://dc.lft.to/lastmile_qr_scan"}, "fusion_lat": 0.0, "is_reserved": 0, "lat": 38.905911333333336, "name": "7d194924aba8e16ec6f7f72cad276f35", "bike_id": "7d194924aba8e16ec6f7f72cad276f35", "is_disabled": 0, "fusion_lon": 0.0, "type": "electric_scooter", "lon": -77.02183366666667}, {"rental_uris": {"android": "https://dc.lft.to/lastmile_qr_scan", "ios": "https://dc.lft.to/lastmile_qr_scan"}, "fusion_lat": 0.0, "is_reserved": 0, "lat": 38.90582216666667, "name": "258a578550a1a1b3e2264908417f07f2", "bike_id": "258a578550a1a1b3e2264908417f07f2", "is_disabled": 0, "fusion_lon": 0.0, "type": "electric_scooter", "lon": -77.04119033333333}, {"rental_uris": {"android": "https://dc.lft.to/lastmile_qr_scan", "ios": "https://dc.lft.to/lastmile_qr_scan"}, "fusion_lat": 0.0, "is_reserved": 0, "lat": 38.9052355, "name": "f5db139c148c348b0a84a164dea901bc", "bike_id": "f5db139c148c348b0a84a164dea901bc", "is_disabled": 0, "fusion_lon": 0.0, "type": "electric_scooter", "lon": -77.02962566666666}, {"rental_uris": {"android": "https://dc.lft.to/lastmile_qr_scan", "ios": "https://dc.lft.to/lastmile_qr_scan"}, "fusion_lat": 0.0, "is_reserved": 0, "lat": 38.94876333333333, "name": "d99c0cae2951609cb1d07eb4dca1a602", "bike_id": "d99c0cae2951609cb1d07eb4dca1a602", "is_disabled": 0, "fusion_lon": 0.0, "type": "electric_scooter", "lon": -77.032853}, {"rental_uris": {"android": "https://dc.lft.to/lastmile_qr_scan", "ios": "https://dc.lft.to/lastmile_qr_scan"}, "fusion_lat": 0.0, "is_reserved": 0, "lat": 38.892265333333334, "name": "b12a68342adde9ce1021deb1ceea352c", "bike_id": "b12a68342adde9ce1021deb1ceea352c", "is_disabled": 0, "fusion_lon": 0.0, "type": "electric_scooter", "lon": -77.03183083333333}, {"rental_uris": {"android": "https://dc.lft.to/lastmile_qr_scan", "ios": "https://dc.lft.to/lastmile_qr_scan"}, "fusion_lat": 0.0, "is_reserved": 0, "lat": 38.914934333333335, "name": "104ecf7b683cf4cff822a4c4d626ddab", "bike_id": "104ecf7b683cf4cff822a4c4d626ddab", "is_disabled": 0, "fusion_lon": 0.0, "type": "electric_scooter", "lon": -77.03227516666666}, {"rental_uris": {"android": "https://dc.lft.to/lastmile_qr_scan", "ios": "https://dc.lft.to/lastmile_qr_scan"}, "fusion_lat": 0.0, "is_reserved": 0, "lat": 39.084944, "name": "b45366c074a012e9b79b0497d50a210a", "bike_id": "b45366c074a012e9b79b0497d50a210a", "is_disabled": 0, "fusion_lon": 0.0, "type": "electric_bike", "lon": -76.950592}, {"rental_uris": {"android": "https://dc.lft.to/lastmile_qr_scan", "ios": "https://dc.lft.to/lastmile_qr_scan"}, "fusion_lat": 0.0, "is_reserved": 0, "lat": 38.8923055, "name": "220d78b1e805b39778bfcfa43bfddbbd", "bike_id": "220d78b1e805b39778bfcfa43bfddbbd", "is_disabled": 0, "fusion_lon": 0.0, "type": "electric_scooter", "lon": -77.02516316666667}, {"rental_uris": {"android": "https://dc.lft.to/lastmile_qr_scan", "ios": "https://dc.lft.to/lastmile_qr_scan"}, "fusion_lat": 0.0, "is_reserved": 0, "lat": 38.8935215, "name": "0fb02cbb7001977adb660c913aa00a74", "bike_id": "0fb02cbb7001977adb660c913aa00a74", "is_disabled": 0, "fusion_lon": 0.0, "type": "electric_scooter", "lon": -76.9947245}, {"rental_uris": {"android": "https://dc.lft.to/lastmile_qr_scan", "ios": "https://dc.lft.to/lastmile_qr_scan"}, "fusion_lat": 0.0, "is_reserved": 0, "lat": 38.9078955, "name": "5a2ae8e74061eae5d99a8e36032a91d2", "bike_id": "5a2ae8e74061eae5d99a8e36032a91d2", "is_disabled": 0, "fusion_lon": 0.0, "type": "electric_scooter", "lon": -77.0037595}, {"rental_uris": {"android": "https://dc.lft.to/lastmile_qr_scan", "ios": "https://dc.lft.to/lastmile_qr_scan"}, "fusion_lat": 0.0, "is_reserved": 0, "lat": 38.921453666666665, "name": "2a67884a2a1a841c3df7e08894e59a41", "bike_id": "2a67884a2a1a841c3df7e08894e59a41", "is_disabled": 0, "fusion_lon": 0.0, "type": "electric_scooter", "lon": -77.04587233333334}, {"rental_uris": {"android": "https://dc.lft.to/lastmile_qr_scan", "ios": "https://dc.lft.to/lastmile_qr_scan"}, "fusion_lat": 0.0, "is_reserved": 0, "lat": 38.918223833333336, "name": "56d6189e74512575a57aa865c8ebef39", "bike_id": "56d6189e74512575a57aa865c8ebef39", "is_disabled": 0, "fusion_lon": 0.0, "type": "electric_scooter", "lon": -77.02425266666667}, {"rental_uris": {"android": "https://dc.lft.to/lastmile_qr_scan", "ios": "https://dc.lft.to/lastmile_qr_scan"}, "fusion_lat": 0.0, "is_reserved": 0, "lat": 38.901948833333336, "name": "5514294e3edb089782632a284b447b4f", "bike_id": "5514294e3edb089782632a284b447b4f", "is_disabled": 0, "fusion_lon": 0.0, "type": "electric_scooter", "lon": -77.0590295}, {"rental_uris": {"android": "https://dc.lft.to/lastmile_qr_scan", "ios": "https://dc.lft.to/lastmile_qr_scan"}, "fusion_lat": 0.0, "is_reserved": 0, "lat": 38.894519, "name": "a38f3e57e48464ad4aa3e9e18bb0d5bb", "bike_id": "a38f3e57e48464ad4aa3e9e18bb0d5bb", "is_disabled": 0, "fusion_lon": 0.0, "type": "electric_scooter", "lon": -77.02681166666666}, {"rental_uris": {"android": "https://dc.lft.to/lastmile_qr_scan", "ios": "https://dc.lft.to/lastmile_qr_scan"}, "fusion_lat": 0.0, "is_reserved": 0, "lat": 38.895285333333334, "name": "78e5a6a1fbc4ea4d4d44ea0c17d3121d", "bike_id": "78e5a6a1fbc4ea4d4d44ea0c17d3121d", "is_disabled": 0, "fusion_lon": 0.0, "type": "electric_scooter", "lon": -77.04469683333333}, {"rental_uris": {"android": "https://dc.lft.to/lastmile_qr_scan", "ios": "https://dc.lft.to/lastmile_qr_scan"}, "fusion_lat": 0.0, "is_reserved": 0, "lat": 38.905486333333336, "name": "cc49a88a80635045def6262aa3ca4783", "bike_id": "cc49a88a80635045def6262aa3ca4783", "is_disabled": 0, "fusion_lon": 0.0, "type": "electric_scooter", "lon": -77.04963}, {"rental_uris": {"android": "https://dc.lft.to/lastmile_qr_scan", "ios": "https://dc.lft.to/lastmile_qr_scan"}, "fusion_lat": 0.0, "is_reserved": 0, "lat": 38.91192483333333, "name": "7265cd54c2172b18718cd84b375d6989", "bike_id": "7265cd54c2172b18718cd84b375d6989", "is_disabled": 0, "fusion_lon": 0.0, "type": "electric_scooter", "lon": -77.0385545}, {"rental_uris": {"android": "https://dc.lft.to/lastmile_qr_scan", "ios": "https://dc.lft.to/lastmile_qr_scan"}, "fusion_lat": 0.0, "is_reserved": 0, "lat": 38.94424333333333, "name": "79b9e4efe0a8dd6152b667fdd8014f5a", "bike_id": "79b9e4efe0a8dd6152b667fdd8014f5a", "is_disabled": 0, "fusion_lon": 0.0, "type": "electric_scooter", "lon": -77.05520433333334}, {"rental_uris": {"android": "https://dc.lft.to/lastmile_qr_scan", "ios": "https://dc.lft.to/lastmile_qr_scan"}, "fusion_lat": 0.0, "is_reserved": 0, "lat": 38.92487233333333, "name": "d4bb2c0cdf74231adb60dd4d315cca51", "bike_id": "d4bb2c0cdf74231adb60dd4d315cca51", "is_disabled": 0, "fusion_lon": 0.0, "type": "electric_scooter", "lon": -77.03055283333333}, {"rental_uris": {"android": "https://dc.lft.to/lastmile_qr_scan", "ios": "https://dc.lft.to/lastmile_qr_scan"}, "fusion_lat": 0.0, "is_reserved": 0, "lat": 38.90392116666666, "name": "9f9096eabb175c9671f5c11c9739322f", "bike_id": "9f9096eabb175c9671f5c11c9739322f", "is_disabled": 0, "fusion_lon": 0.0, "type": "electric_scooter", "lon": -76.9810455}, {"rental_uris": {"android": "https://dc.lft.to/lastmile_qr_scan", "ios": "https://dc.lft.to/lastmile_qr_scan"}, "fusion_lat": 0.0, "is_reserved": 0, "lat": 38.892251333333334, "name": "3451295412281393a2c12d39979c6663", "bike_id": "3451295412281393a2c12d39979c6663", "is_disabled": 0, "fusion_lon": 0.0, "type": "electric_scooter", "lon": -77.03983183333334}, {"rental_uris": {"android": "https://dc.lft.to/lastmile_qr_scan", "ios": "https://dc.lft.to/lastmile_qr_scan"}, "fusion_lat": 0.0, "is_reserved": 0, "lat": 38.92760966666667, "name": "543cd6e0fb389d3aa2620f54102bdfda", "bike_id": "543cd6e0fb389d3aa2620f54102bdfda", "is_disabled": 0, "fusion_lon": 0.0, "type": "electric_scooter", "lon": -77.06886266666666}, {"rental_uris": {"android": "https://dc.lft.to/lastmile_qr_scan", "ios": "https://dc.lft.to/lastmile_qr_scan"}, "fusion_lat": 0.0, "is_reserved": 0, "lat": 38.9264945, "name": "27e53aac9113659c28be43ec866dfb6c", "bike_id": "27e53aac9113659c28be43ec866dfb6c", "is_disabled": 0, "fusion_lon": 0.0, "type": "electric_scooter", "lon": -77.040714}, {"rental_uris": {"android": "https://dc.lft.to/lastmile_qr_scan", "ios": "https://dc.lft.to/lastmile_qr_scan"}, "fusion_lat": 0.0, "is_reserved": 0, "lat": 38.87682816666667, "name": "42102eac011f0e45933c6de4905250c7", "bike_id": "42102eac011f0e45933c6de4905250c7", "is_disabled": 0, "fusion_lon": 0.0, "type": "electric_scooter", "lon": -77.019681}, {"rental_uris": {"android": "https://dc.lft.to/lastmile_qr_scan", "ios": "https://dc.lft.to/lastmile_qr_scan"}, "fusion_lat": 0.0, "is_reserved": 0, "lat": 38.89391966666667, "name": "6652a941e5a4e6f5d3b377051032cfd9", "bike_id": "6652a941e5a4e6f5d3b377051032cfd9", "is_disabled": 0, "fusion_lon": 0.0, "type": "electric_bike", "lon": -76.86848316666666}, {"rental_uris": {"android": "https://dc.lft.to/lastmile_qr_scan", "ios": "https://dc.lft.to/lastmile_qr_scan"}, "fusion_lat": 0.0, "is_reserved": 0, "lat": 38.89477733333333, "name": "2cb6781476494d555c6fa900a0eaad27", "bike_id": "2cb6781476494d555c6fa900a0eaad27", "is_disabled": 0, "fusion_lon": 0.0, "type": "electric_scooter", "lon": -77.02653933333333}, {"rental_uris": {"android": "https://dc.lft.to/lastmile_qr_scan", "ios": "https://dc.lft.to/lastmile_qr_scan"}, "fusion_lat": 0.0, "is_reserved": 0, "lat": 38.9178015, "name": "c971ddae4eb9704a377a4c98f5f2d170", "bike_id": "c971ddae4eb9704a377a4c98f5f2d170", "is_disabled": 0, "fusion_lon": 0.0, "type": "electric_scooter", "lon": -77.0440725}, {"rental_uris": {"android": "https://dc.lft.to/lastmile_qr_scan", "ios": "https://dc.lft.to/lastmile_qr_scan"}, "fusion_lat": 0.0, "is_reserved": 0, "lat": 38.91475633333334, "name": "719ec79d6c577741d687a4f30906cc03", "bike_id": "719ec79d6c577741d687a4f30906cc03", "is_disabled": 0, "fusion_lon": 0.0, "type": "electric_scooter", "lon": -77.03208733333334}, {"rental_uris": {"android": "https://dc.lft.to/lastmile_qr_scan", "ios": "https://dc.lft.to/lastmile_qr_scan"}, "fusion_lat": 0.0, "is_reserved": 0, "lat": 38.92129716666667, "name": "c2cddce54a4b18840bef0fd03e81098f", "bike_id": "c2cddce54a4b18840bef0fd03e81098f", "is_disabled": 0, "fusion_lon": 0.0, "type": "electric_scooter", "lon": -77.02437483333334}, {"rental_uris": {"android": "https://dc.lft.to/lastmile_qr_scan", "ios": "https://dc.lft.to/lastmile_qr_scan"}, "fusion_lat": 0.0, "is_reserved": 0, "lat": 38.91827283333333, "name": "b5e720e26c1474fe1374d7ea0b0c24bb", "bike_id": "b5e720e26c1474fe1374d7ea0b0c24bb", "is_disabled": 0, "fusion_lon": 0.0, "type": "electric_scooter", "lon": -77.03189466666667}, {"rental_uris": {"android": "https://dc.lft.to/lastmile_qr_scan", "ios": "https://dc.lft.to/lastmile_qr_scan"}, "fusion_lat": 0.0, "is_reserved": 0, "lat": 38.90590566666667, "name": "c1402c439c33b1633ca3c9746a50d2b9", "bike_id": "c1402c439c33b1633ca3c9746a50d2b9", "is_disabled": 0, "fusion_lon": 0.0, "type": "electric_scooter", "lon": -77.029792}, {"rental_uris": {"android": "https://dc.lft.to/lastmile_qr_scan", "ios": "https://dc.lft.to/lastmile_qr_scan"}, "fusion_lat": 0.0, "is_reserved": 0, "lat": 38.89211, "name": "45dd81648c6213dc3bfe9682e3b81ebf", "bike_id": "45dd81648c6213dc3bfe9682e3b81ebf", "is_disabled": 0, "fusion_lon": 0.0, "type": "electric_scooter", "lon": -76.99566233333333}, {"rental_uris": {"android": "https://dc.lft.to/lastmile_qr_scan", "ios": "https://dc.lft.to/lastmile_qr_scan"}, "fusion_lat": 0.0, "is_reserved": 0, "lat": 38.9335385, "name": "b1f38a8b1b42844317f78bf0d139517a", "bike_id": "b1f38a8b1b42844317f78bf0d139517a", "is_disabled": 0, "fusion_lon": 0.0, "type": "electric_scooter", "lon": -77.05695516666667}, {"rental_uris": {"android": "https://dc.lft.to/lastmile_qr_scan", "ios": "https://dc.lft.to/lastmile_qr_scan"}, "fusion_lat": 0.0, "is_reserved": 0, "lat": 38.840347, "name": "07fda219ea35bb3f6ff128ce02664312", "bike_id": "07fda219ea35bb3f6ff128ce02664312", "is_disabled": 0, "fusion_lon": 0.0, "type": "electric_bike", "lon": -76.97617733333334}, {"rental_uris": {"android": "https://dc.lft.to/lastmile_qr_scan", "ios": "https://dc.lft.to/lastmile_qr_scan"}, "fusion_lat": 0.0, "is_reserved": 0, "lat": 38.884822666666665, "name": "9324ba5ffcab5c4ddcd7d829968db3a1", "bike_id": "9324ba5ffcab5c4ddcd7d829968db3a1", "is_disabled": 0, "fusion_lon": 0.0, "type": "electric_scooter", "lon": -77.01523183333333}, {"rental_uris": {"android": "https://dc.lft.to/lastmile_qr_scan", "ios": "https://dc.lft.to/lastmile_qr_scan"}, "fusion_lat": 0.0, "is_reserved": 0, "lat": 38.9350495, "name": "a29b5b2fd8a882fc682516c2faa88f25", "bike_id": "a29b5b2fd8a882fc682516c2faa88f25", "is_disabled": 0, "fusion_lon": 0.0, "type": "electric_scooter", "lon": -77.0200895}, {"rental_uris": {"android": "https://dc.lft.to/lastmile_qr_scan", "ios": "https://dc.lft.to/lastmile_qr_scan"}, "fusion_lat": 0.0, "is_reserved": 0, "lat": 38.9139985, "name": "f12b8d9c8f1c0f71c440bd369e96b0a6", "bike_id": "f12b8d9c8f1c0f71c440bd369e96b0a6", "is_disabled": 0, "fusion_lon": 0.0, "type": "electric_scooter", "lon": -77.03179883333334}, {"rental_uris": {"android": "https://dc.lft.to/lastmile_qr_scan", "ios": "https://dc.lft.to/lastmile_qr_scan"}, "fusion_lat": 0.0, "is_reserved": 0, "lat": 38.896000666666666, "name": "e5ce7dc19af19c22c55ad3832f05bb2f", "bike_id": "e5ce7dc19af19c22c55ad3832f05bb2f", "is_disabled": 0, "fusion_lon": 0.0, "type": "electric_scooter", "lon": -77.02784183333333}, {"rental_uris": {"android": "https://dc.lft.to/lastmile_qr_scan", "ios": "https://dc.lft.to/lastmile_qr_scan"}, "fusion_lat": 0.0, "is_reserved": 0, "lat": 38.9110375, "name": "add82c026eec82d5ed703bfec0c65520", "bike_id": "add82c026eec82d5ed703bfec0c65520", "is_disabled": 0, "fusion_lon": 0.0, "type": "electric_scooter", "lon": -77.00215666666666}, {"rental_uris": {"android": "https://dc.lft.to/lastmile_qr_scan", "ios": "https://dc.lft.to/lastmile_qr_scan"}, "fusion_lat": 0.0, "is_reserved": 0, "lat": 38.91708583333333, "name": "f330f402b7a3dfc9809fe454d3e29eed", "bike_id": "f330f402b7a3dfc9809fe454d3e29eed", "is_disabled": 0, "fusion_lon": 0.0, "type": "electric_scooter", "lon": -77.02503116666666}, {"rental_uris": {"android": "https://dc.lft.to/lastmile_qr_scan", "ios": "https://dc.lft.to/lastmile_qr_scan"}, "fusion_lat": 0.0, "is_reserved": 0, "lat": 38.973384, "name": "5b1bac1780416673bd4e4eaf9e3b9dcf", "bike_id": "5b1bac1780416673bd4e4eaf9e3b9dcf", "is_disabled": 0, "fusion_lon": 0.0, "type": "electric_bike", "lon": -76.99584383333334}, {"rental_uris": {"android": "https://dc.lft.to/lastmile_qr_scan", "ios": "https://dc.lft.to/lastmile_qr_scan"}, "fusion_lat": 0.0, "is_reserved": 0, "lat": 39.042326, "name": "696da16f0419e359a55859aa957e023f", "bike_id": "696da16f0419e359a55859aa957e023f", "is_disabled": 0, "fusion_lon": 0.0, "type": "electric_bike", "lon": -76.99736216666666}, {"rental_uris": {"android": "https://dc.lft.to/lastmile_qr_scan", "ios": "https://dc.lft.to/lastmile_qr_scan"}, "fusion_lat": 0.0, "is_reserved": 0, "lat": 38.920523833333334, "name": "8086a99e88fe75f8fc7c3e11900243b8", "bike_id": "8086a99e88fe75f8fc7c3e11900243b8", "is_disabled": 0, "fusion_lon": 0.0, "type": "electric_scooter", "lon": -76.98426716666667}, {"rental_uris": {"android": "https://dc.lft.to/lastmile_qr_scan", "ios": "https://dc.lft.to/lastmile_qr_scan"}, "fusion_lat": 0.0, "is_reserved": 0, "lat": 38.93194833333333, "name": "fa34f49bc32c9967517f74f9e6c09ed1", "bike_id": "fa34f49bc32c9967517f74f9e6c09ed1", "is_disabled": 0, "fusion_lon": 0.0, "type": "electric_scooter", "lon": -77.02838383333334}, {"rental_uris": {"android": "https://dc.lft.to/lastmile_qr_scan", "ios": "https://dc.lft.to/lastmile_qr_scan"}, "fusion_lat": 0.0, "is_reserved": 0, "lat": 38.89821766666667, "name": "bc08bb6ab7bbec8d24345e75b35f7636", "bike_id": "bc08bb6ab7bbec8d24345e75b35f7636", "is_disabled": 0, "fusion_lon": 0.0, "type": "electric_scooter", "lon": -77.02493816666667}, {"rental_uris": {"android": "https://dc.lft.to/lastmile_qr_scan", "ios": "https://dc.lft.to/lastmile_qr_scan"}, "fusion_lat": 0.0, "is_reserved": 0, "lat": 38.90131383333333, "name": "cad07a8464ae23502497dedfae12d114", "bike_id": "cad07a8464ae23502497dedfae12d114", "is_disabled": 0, "fusion_lon": 0.0, "type": "electric_scooter", "lon": -77.04668816666667}, {"rental_uris": {"android": "https://dc.lft.to/lastmile_qr_scan", "ios": "https://dc.lft.to/lastmile_qr_scan"}, "fusion_lat": 0.0, "is_reserved": 0, "lat": 38.91179866666667, "name": "b41ff6d5f9de978dc0be84210092bd3a", "bike_id": "b41ff6d5f9de978dc0be84210092bd3a", "is_disabled": 0, "fusion_lon": 0.0, "type": "electric_scooter", "lon": -77.05923883333334}, {"rental_uris": {"android": "https://dc.lft.to/lastmile_qr_scan", "ios": "https://dc.lft.to/lastmile_qr_scan"}, "fusion_lat": 0.0, "is_reserved": 0, "lat": 38.923730166666665, "name": "b3fa6d67e03dd5bc5e14e77df9c22ab7", "bike_id": "b3fa6d67e03dd5bc5e14e77df9c22ab7", "is_disabled": 0, "fusion_lon": 0.0, "type": "electric_scooter", "lon": -76.99375333333333}, {"rental_uris": {"android": "https://dc.lft.to/lastmile_qr_scan", "ios": "https://dc.lft.to/lastmile_qr_scan"}, "fusion_lat": 0.0, "is_reserved": 0, "lat": 38.923404833333336, "name": "866848e674cbe70d9fc9af334dec4a20", "bike_id": "866848e674cbe70d9fc9af334dec4a20", "is_disabled": 0, "fusion_lon": 0.0, "type": "electric_scooter", "lon": -77.03634466666666}, {"rental_uris": {"android": "https://dc.lft.to/lastmile_qr_scan", "ios": "https://dc.lft.to/lastmile_qr_scan"}, "fusion_lat": 0.0, "is_reserved": 0, "lat": 38.92947483333333, "name": "0c0b209cde11478c7dc47792ce275ff3", "bike_id": "0c0b209cde11478c7dc47792ce275ff3", "is_disabled": 0, "fusion_lon": 0.0, "type": "electric_scooter", "lon": -77.03477716666667}, {"rental_uris": {"android": "https://dc.lft.to/lastmile_qr_scan", "ios": "https://dc.lft.to/lastmile_qr_scan"}, "fusion_lat": 0.0, "is_reserved": 0, "lat": 38.92331516666667, "name": "84c52c6ff04b5ea44b5ba4ade1b74409", "bike_id": "84c52c6ff04b5ea44b5ba4ade1b74409", "is_disabled": 0, "fusion_lon": 0.0, "type": "electric_scooter", "lon": -77.04614083333334}, {"rental_uris": {"android": "https://dc.lft.to/lastmile_qr_scan", "ios": "https://dc.lft.to/lastmile_qr_scan"}, "fusion_lat": 0.0, "is_reserved": 0, "lat": 38.89622083333333, "name": "d66070e6e72cd5045133e6c75753b8a8", "bike_id": "d66070e6e72cd5045133e6c75753b8a8", "is_disabled": 0, "fusion_lon": 0.0, "type": "electric_scooter", "lon": -77.01627666666667}, {"rental_uris": {"android": "https://dc.lft.to/lastmile_qr_scan", "ios": "https://dc.lft.to/lastmile_qr_scan"}, "fusion_lat": 0.0, "is_reserved": 0, "lat": 38.918665833333336, "name": "18343a9f1d54f7bb4f6c7010c0a970cb", "bike_id": "18343a9f1d54f7bb4f6c7010c0a970cb", "is_disabled": 0, "fusion_lon": 0.0, "type": "electric_scooter", "lon": -76.9655}, {"rental_uris": {"android": "https://dc.lft.to/lastmile_qr_scan", "ios": "https://dc.lft.to/lastmile_qr_scan"}, "fusion_lat": 0.0, "is_reserved": 0, "lat": 38.90411366666667, "name": "baf6b1a31489a253dea4a09910f05c98", "bike_id": "baf6b1a31489a253dea4a09910f05c98", "is_disabled": 0, "fusion_lon": 0.0, "type": "electric_scooter", "lon": -76.97329383333333}, {"rental_uris": {"android": "https://dc.lft.to/lastmile_qr_scan", "ios": "https://dc.lft.to/lastmile_qr_scan"}, "fusion_lat": 0.0, "is_reserved": 0, "lat": 38.911061333333336, "name": "fac4eeddd473940530c123ee3857c2f0", "bike_id": "fac4eeddd473940530c123ee3857c2f0", "is_disabled": 0, "fusion_lon": 0.0, "type": "electric_scooter", "lon": -77.044528}, {"rental_uris": {"android": "https://dc.lft.to/lastmile_qr_scan", "ios": "https://dc.lft.to/lastmile_qr_scan"}, "fusion_lat": 0.0, "is_reserved": 0, "lat": 38.846755333333334, "name": "3aa8279cab6e3b51de3e5888c2ac0f13", "bike_id": "3aa8279cab6e3b51de3e5888c2ac0f13", "is_disabled": 0, "fusion_lon": 0.0, "type": "electric_bike", "lon": -77.13921816666667}, {"rental_uris": {"android": "https://dc.lft.to/lastmile_qr_scan", "ios": "https://dc.lft.to/lastmile_qr_scan"}, "fusion_lat": 0.0, "is_reserved": 0, "lat": 38.92352233333333, "name": "f021867258c99f9615a7cbc31c09526c", "bike_id": "f021867258c99f9615a7cbc31c09526c", "is_disabled": 0, "fusion_lon": 0.0, "type": "electric_scooter", "lon": -77.049486}, {"rental_uris": {"android": "https://dc.lft.to/lastmile_qr_scan", "ios": "https://dc.lft.to/lastmile_qr_scan"}, "fusion_lat": 0.0, "is_reserved": 0, "lat": 38.921350833333335, "name": "8a6f47b9d949b4ee9ce8a9e7b1c5865e", "bike_id": "8a6f47b9d949b4ee9ce8a9e7b1c5865e", "is_disabled": 0, "fusion_lon": 0.0, "type": "electric_scooter", "lon": -77.0364975}, {"rental_uris": {"android": "https://dc.lft.to/lastmile_qr_scan", "ios": "https://dc.lft.to/lastmile_qr_scan"}, "fusion_lat": 0.0, "is_reserved": 0, "lat": 38.871851166666666, "name": "0338c1b7f76189f85711abc342ca114e", "bike_id": "0338c1b7f76189f85711abc342ca114e", "is_disabled": 0, "fusion_lon": 0.0, "type": "electric_scooter", "lon": -77.00604483333333}, {"rental_uris": {"android": "https://dc.lft.to/lastmile_qr_scan", "ios": "https://dc.lft.to/lastmile_qr_scan"}, "fusion_lat": 0.0, "is_reserved": 0, "lat": 38.93048116666667, "name": "727aed03d1e137dd5ab8e9d3f6e633e4", "bike_id": "727aed03d1e137dd5ab8e9d3f6e633e4", "is_disabled": 0, "fusion_lon": 0.0, "type": "electric_scooter", "lon": -76.95833666666667}, {"rental_uris": {"android": "https://dc.lft.to/lastmile_qr_scan", "ios": "https://dc.lft.to/lastmile_qr_scan"}, "fusion_lat": 0.0, "is_reserved": 0, "lat": 38.898304833333334, "name": "cd2c5a385f5f2d95bb4fcbede0b6b459", "bike_id": "cd2c5a385f5f2d95bb4fcbede0b6b459", "is_disabled": 0, "fusion_lon": 0.0, "type": "electric_scooter", "lon": -77.04905583333333}, {"rental_uris": {"android": "https://dc.lft.to/lastmile_qr_scan", "ios": "https://dc.lft.to/lastmile_qr_scan"}, "fusion_lat": 0.0, "is_reserved": 0, "lat": 38.917528833333336, "name": "e8b997c95e4ed3bdfd17ec7483f5b5bb", "bike_id": "e8b997c95e4ed3bdfd17ec7483f5b5bb", "is_disabled": 0, "fusion_lon": 0.0, "type": "electric_scooter", "lon": -77.047665}, {"rental_uris": {"android": "https://dc.lft.to/lastmile_qr_scan", "ios": "https://dc.lft.to/lastmile_qr_scan"}, "fusion_lat": 0.0, "is_reserved": 0, "lat": 38.92081616666667, "name": "6fe0b68903ebf2b2e995aee3f91f2f56", "bike_id": "6fe0b68903ebf2b2e995aee3f91f2f56", "is_disabled": 0, "fusion_lon": 0.0, "type": "electric_scooter", "lon": -77.03565916666666}, {"rental_uris": {"android": "https://dc.lft.to/lastmile_qr_scan", "ios": "https://dc.lft.to/lastmile_qr_scan"}, "fusion_lat": 0.0, "is_reserved": 0, "lat": 38.876569, "name": "1549f5378240f3bd9e5c99a14804451b", "bike_id": "1549f5378240f3bd9e5c99a14804451b", "is_disabled": 0, "fusion_lon": 0.0, "type": "electric_scooter", "lon": -76.99323666666666}, {"rental_uris": {"android": "https://dc.lft.to/lastmile_qr_scan", "ios": "https://dc.lft.to/lastmile_qr_scan"}, "fusion_lat": 0.0, "is_reserved": 0, "lat": 38.926607833333335, "name": "887fc829cf181a909cefe2dbbf6df11a", "bike_id": "887fc829cf181a909cefe2dbbf6df11a", "is_disabled": 0, "fusion_lon": 0.0, "type": "electric_scooter", "lon": -76.99745816666666}, {"rental_uris": {"android": "https://dc.lft.to/lastmile_qr_scan", "ios": "https://dc.lft.to/lastmile_qr_scan"}, "fusion_lat": 0.0, "is_reserved": 0, "lat": 38.8950005, "name": "ecbfc93a973a2be7a0b5efb98bfcbdca", "bike_id": "ecbfc93a973a2be7a0b5efb98bfcbdca", "is_disabled": 0, "fusion_lon": 0.0, "type": "electric_scooter", "lon": -77.04633283333334}, {"rental_uris": {"android": "https://dc.lft.to/lastmile_qr_scan", "ios": "https://dc.lft.to/lastmile_qr_scan"}, "fusion_lat": 0.0, "is_reserved": 0, "lat": 38.895597, "name": "00b83b95c541c9f561c42f2d91dd5440", "bike_id": "00b83b95c541c9f561c42f2d91dd5440", "is_disabled": 0, "fusion_lon": 0.0, "type": "electric_scooter", "lon": -77.01115483333334}, {"rental_uris": {"android": "https://dc.lft.to/lastmile_qr_scan", "ios": "https://dc.lft.to/lastmile_qr_scan"}, "fusion_lat": 0.0, "is_reserved": 0, "lat": 38.89348866666667, "name": "4dcf10306d08064ae6203ca1d07ae918", "bike_id": "4dcf10306d08064ae6203ca1d07ae918", "is_disabled": 0, "fusion_lon": 0.0, "type": "electric_scooter", "lon": -76.95243933333333}, {"rental_uris": {"android": "https://dc.lft.to/lastmile_qr_scan", "ios": "https://dc.lft.to/lastmile_qr_scan"}, "fusion_lat": 0.0, "is_reserved": 0, "lat": 38.91806416666667, "name": "4d60a5fff0359d2f1eaf6f3c43afdef7", "bike_id": "4d60a5fff0359d2f1eaf6f3c43afdef7", "is_disabled": 0, "fusion_lon": 0.0, "type": "electric_scooter", "lon": -77.02885116666667}, {"rental_uris": {"android": "https://dc.lft.to/lastmile_qr_scan", "ios": "https://dc.lft.to/lastmile_qr_scan"}, "fusion_lat": 0.0, "is_reserved": 0, "lat": 38.93599366666667, "name": "e233937bcfc4b14b3ecf54940737f4a9", "bike_id": "e233937bcfc4b14b3ecf54940737f4a9", "is_disabled": 0, "fusion_lon": 0.0, "type": "electric_bike", "lon": -77.0211415}, {"rental_uris": {"android": "https://dc.lft.to/lastmile_qr_scan", "ios": "https://dc.lft.to/lastmile_qr_scan"}, "fusion_lat": 0.0, "is_reserved": 0, "lat": 38.925198333333334, "name": "956f7532e300aaf5e849ee28988f374b", "bike_id": "956f7532e300aaf5e849ee28988f374b", "is_disabled": 0, "fusion_lon": 0.0, "type": "electric_scooter", "lon": -77.02143666666667}, {"rental_uris": {"android": "https://dc.lft.to/lastmile_qr_scan", "ios": "https://dc.lft.to/lastmile_qr_scan"}, "fusion_lat": 0.0, "is_reserved": 0, "lat": 38.903953333333334, "name": "4a2d6e589d69a27ae1d4a9b9ace4ddd8", "bike_id": "4a2d6e589d69a27ae1d4a9b9ace4ddd8", "is_disabled": 0, "fusion_lon": 0.0, "type": "electric_scooter", "lon": -77.06849616666666}, {"rental_uris": {"android": "https://dc.lft.to/lastmile_qr_scan", "ios": "https://dc.lft.to/lastmile_qr_scan"}, "fusion_lat": 0.0, "is_reserved": 0, "lat": 38.9198025, "name": "4a4a8b49378a23a05d2b621e02304360", "bike_id": "4a4a8b49378a23a05d2b621e02304360", "is_disabled": 0, "fusion_lon": 0.0, "type": "electric_scooter", "lon": -77.0710115}, {"rental_uris": {"android": "https://dc.lft.to/lastmile_qr_scan", "ios": "https://dc.lft.to/lastmile_qr_scan"}, "fusion_lat": 0.0, "is_reserved": 0, "lat": 38.9149315, "name": "6e98df67d6efc5601dfdd6727ba9185d", "bike_id": "6e98df67d6efc5601dfdd6727ba9185d", "is_disabled": 0, "fusion_lon": 0.0, "type": "electric_scooter", "lon": -77.02173066666667}, {"rental_uris": {"android": "https://dc.lft.to/lastmile_qr_scan", "ios": "https://dc.lft.to/lastmile_qr_scan"}, "fusion_lat": 0.0, "is_reserved": 0, "lat": 38.898166, "name": "559eb6deef243fe1d491b8c604155a29", "bike_id": "559eb6deef243fe1d491b8c604155a29", "is_disabled": 0, "fusion_lon": 0.0, "type": "electric_scooter", "lon": -77.0324615}, {"rental_uris": {"android": "https://dc.lft.to/lastmile_qr_scan", "ios": "https://dc.lft.to/lastmile_qr_scan"}, "fusion_lat": 0.0, "is_reserved": 0, "lat": 38.907323166666664, "name": "14f6e3256c0552aed8d107442fcd96be", "bike_id": "14f6e3256c0552aed8d107442fcd96be", "is_disabled": 0, "fusion_lon": 0.0, "type": "electric_scooter", "lon": -77.02810483333333}, {"rental_uris": {"android": "https://dc.lft.to/lastmile_qr_scan", "ios": "https://dc.lft.to/lastmile_qr_scan"}, "fusion_lat": 0.0, "is_reserved": 0, "lat": 38.905307666666666, "name": "b56b9694ea6a8b03a727f3ee3d3d6b92", "bike_id": "b56b9694ea6a8b03a727f3ee3d3d6b92", "is_disabled": 0, "fusion_lon": 0.0, "type": "electric_scooter", "lon": -77.02207933333334}, {"rental_uris": {"android": "https://dc.lft.to/lastmile_qr_scan", "ios": "https://dc.lft.to/lastmile_qr_scan"}, "fusion_lat": 0.0, "is_reserved": 0, "lat": 38.909616166666666, "name": "9ee561b8d98650689bd7e6f6887f12ca", "bike_id": "9ee561b8d98650689bd7e6f6887f12ca", "is_disabled": 0, "fusion_lon": 0.0, "type": "electric_scooter", "lon": -77.0452855}, {"rental_uris": {"android": "https://dc.lft.to/lastmile_qr_scan", "ios": "https://dc.lft.to/lastmile_qr_scan"}, "fusion_lat": 0.0, "is_reserved": 0, "lat": 38.90042233333333, "name": "b5cfda08211adb03df853e2755e829d2", "bike_id": "b5cfda08211adb03df853e2755e829d2", "is_disabled": 0, "fusion_lon": 0.0, "type": "electric_scooter", "lon": -76.98823483333334}, {"rental_uris": {"android": "https://dc.lft.to/lastmile_qr_scan", "ios": "https://dc.lft.to/lastmile_qr_scan"}, "fusion_lat": 0.0, "is_reserved": 0, "lat": 38.89194116666667, "name": "b82ced715b0940c7d306877493bd40cc", "bike_id": "b82ced715b0940c7d306877493bd40cc", "is_disabled": 0, "fusion_lon": 0.0, "type": "electric_scooter", "lon": -77.0222095}, {"rental_uris": {"android": "https://dc.lft.to/lastmile_qr_scan", "ios": "https://dc.lft.to/lastmile_qr_scan"}, "fusion_lat": 0.0, "is_reserved": 0, "lat": 38.9215695, "name": "ba6fa8027b45efa57ffb96e6b1d636ed", "bike_id": "ba6fa8027b45efa57ffb96e6b1d636ed", "is_disabled": 0, "fusion_lon": 0.0, "type": "electric_scooter", "lon": -77.034584}, {"rental_uris": {"android": "https://dc.lft.to/lastmile_qr_scan", "ios": "https://dc.lft.to/lastmile_qr_scan"}, "fusion_lat": 0.0, "is_reserved": 0, "lat": 38.896379, "name": "2d862d81aaff6ed78b2f7d8421c6ef3b", "bike_id": "2d862d81aaff6ed78b2f7d8421c6ef3b", "is_disabled": 0, "fusion_lon": 0.0, "type": "electric_scooter", "lon": -77.04657583333334}, {"rental_uris": {"android": "https://dc.lft.to/lastmile_qr_scan", "ios": "https://dc.lft.to/lastmile_qr_scan"}, "fusion_lat": 0.0, "is_reserved": 0, "lat": 38.89831183333333, "name": "7da7c007b58e0ed8efe8b77a49c04510", "bike_id": "7da7c007b58e0ed8efe8b77a49c04510", "is_disabled": 0, "fusion_lon": 0.0, "type": "electric_scooter", "lon": -77.046118}, {"rental_uris": {"android": "https://dc.lft.to/lastmile_qr_scan", "ios": "https://dc.lft.to/lastmile_qr_scan"}, "fusion_lat": 0.0, "is_reserved": 0, "lat": 38.9005485, "name": "21e6c3cdf3551ed022331db350078ffe", "bike_id": "21e6c3cdf3551ed022331db350078ffe", "is_disabled": 0, "fusion_lon": 0.0, "type": "electric_bike", "lon": -77.05050266666667}, {"rental_uris": {"android": "https://dc.lft.to/lastmile_qr_scan", "ios": "https://dc.lft.to/lastmile_qr_scan"}, "fusion_lat": 0.0, "is_reserved": 0, "lat": 38.882238666666666, "name": "140e14d4fc4d2b373059caa362dd5f8c", "bike_id": "140e14d4fc4d2b373059caa362dd5f8c", "is_disabled": 0, "fusion_lon": 0.0, "type": "electric_scooter", "lon": -76.93910633333333}, {"rental_uris": {"android": "https://dc.lft.to/lastmile_qr_scan", "ios": "https://dc.lft.to/lastmile_qr_scan"}, "fusion_lat": 0.0, "is_reserved": 0, "lat": 38.921860333333335, "name": "2f4ce7fdb025c5189e0d4886eca3a4d3", "bike_id": "2f4ce7fdb025c5189e0d4886eca3a4d3", "is_disabled": 0, "fusion_lon": 0.0, "type": "electric_scooter", "lon": -77.04132333333334}, {"rental_uris": {"android": "https://dc.lft.to/lastmile_qr_scan", "ios": "https://dc.lft.to/lastmile_qr_scan"}, "fusion_lat": 0.0, "is_reserved": 0, "lat": 38.935283166666665, "name": "cff3bec4b8c3e8d6f9e015e7b0e0c00a", "bike_id": "cff3bec4b8c3e8d6f9e015e7b0e0c00a", "is_disabled": 0, "fusion_lon": 0.0, "type": "electric_scooter", "lon": -77.0235735}, {"rental_uris": {"android": "https://dc.lft.to/lastmile_qr_scan", "ios": "https://dc.lft.to/lastmile_qr_scan"}, "fusion_lat": 0.0, "is_reserved": 0, "lat": 38.89422733333333, "name": "a93a918600ae9763d1c6484e36b8774e", "bike_id": "a93a918600ae9763d1c6484e36b8774e", "is_disabled": 0, "fusion_lon": 0.0, "type": "electric_scooter", "lon": -76.99772416666667}, {"rental_uris": {"android": "https://dc.lft.to/lastmile_qr_scan", "ios": "https://dc.lft.to/lastmile_qr_scan"}, "fusion_lat": 0.0, "is_reserved": 0, "lat": 38.8832065, "name": "993a23bd04555c912a501aa5bf8656af", "bike_id": "993a23bd04555c912a501aa5bf8656af", "is_disabled": 0, "fusion_lon": 0.0, "type": "electric_bike", "lon": -76.91093883333333}, {"rental_uris": {"android": "https://dc.lft.to/lastmile_qr_scan", "ios": "https://dc.lft.to/lastmile_qr_scan"}, "fusion_lat": 0.0, "is_reserved": 0, "lat": 38.902436, "name": "bae0b598b6814f125fb12fceec48a96c", "bike_id": "bae0b598b6814f125fb12fceec48a96c", "is_disabled": 0, "fusion_lon": 0.0, "type": "electric_scooter", "lon": -76.97411566666666}, {"rental_uris": {"android": "https://dc.lft.to/lastmile_qr_scan", "ios": "https://dc.lft.to/lastmile_qr_scan"}, "fusion_lat": 0.0, "is_reserved": 0, "lat": 38.876053166666665, "name": "82c359ee32b6937321281a673f8d56cb", "bike_id": "82c359ee32b6937321281a673f8d56cb", "is_disabled": 0, "fusion_lon": 0.0, "type": "electric_scooter", "lon": -77.002598}, {"rental_uris": {"android": "https://dc.lft.to/lastmile_qr_scan", "ios": "https://dc.lft.to/lastmile_qr_scan"}, "fusion_lat": 0.0, "is_reserved": 0, "lat": 38.90127666666667, "name": "d464201d853d8b0fca91e739d6201018", "bike_id": "d464201d853d8b0fca91e739d6201018", "is_disabled": 0, "fusion_lon": 0.0, "type": "electric_scooter", "lon": -77.01773816666666}, {"rental_uris": {"android": "https://dc.lft.to/lastmile_qr_scan", "ios": "https://dc.lft.to/lastmile_qr_scan"}, "fusion_lat": 0.0, "is_reserved": 0, "lat": 38.92438416666667, "name": "25ba263cee7eb6ad361dc4be96b52a72", "bike_id": "25ba263cee7eb6ad361dc4be96b52a72", "is_disabled": 0, "fusion_lon": 0.0, "type": "electric_scooter", "lon": -77.0339865}, {"rental_uris": {"android": "https://dc.lft.to/lastmile_qr_scan", "ios": "https://dc.lft.to/lastmile_qr_scan"}, "fusion_lat": 0.0, "is_reserved": 0, "lat": 38.89222983333333, "name": "b2fb55145dd1d3a620f944b0043e5620", "bike_id": "b2fb55145dd1d3a620f944b0043e5620", "is_disabled": 0, "fusion_lon": 0.0, "type": "electric_scooter", "lon": -77.04370083333333}, {"rental_uris": {"android": "https://dc.lft.to/lastmile_qr_scan", "ios": "https://dc.lft.to/lastmile_qr_scan"}, "fusion_lat": 0.0, "is_reserved": 0, "lat": 38.909692666666665, "name": "2d4902306409a643da0a887f5eeefeaa", "bike_id": "2d4902306409a643da0a887f5eeefeaa", "is_disabled": 0, "fusion_lon": 0.0, "type": "electric_scooter", "lon": -77.0184775}, {"rental_uris": {"android": "https://dc.lft.to/lastmile_qr_scan", "ios": "https://dc.lft.to/lastmile_qr_scan"}, "fusion_lat": 0.0, "is_reserved": 0, "lat": 38.920779333333336, "name": "877bca0ebc40ff14f8775410f830dbea", "bike_id": "877bca0ebc40ff14f8775410f830dbea", "is_disabled": 0, "fusion_lon": 0.0, "type": "electric_scooter", "lon": -77.02315866666666}, {"rental_uris": {"android": "https://dc.lft.to/lastmile_qr_scan", "ios": "https://dc.lft.to/lastmile_qr_scan"}, "fusion_lat": 0.0, "is_reserved": 0, "lat": 39.038110333333336, "name": "1f4e7bebad7bf290f332c89ef7170061", "bike_id": "1f4e7bebad7bf290f332c89ef7170061", "is_disabled": 0, "fusion_lon": 0.0, "type": "electric_bike", "lon": -77.042268}, {"rental_uris": {"android": "https://dc.lft.to/lastmile_qr_scan", "ios": "https://dc.lft.to/lastmile_qr_scan"}, "fusion_lat": 0.0, "is_reserved": 0, "lat": 38.91997466666667, "name": "cea4330a9a17a12c916a83450a7b75ce", "bike_id": "cea4330a9a17a12c916a83450a7b75ce", "is_disabled": 0, "fusion_lon": 0.0, "type": "electric_scooter", "lon": -77.02383816666666}, {"rental_uris": {"android": "https://dc.lft.to/lastmile_qr_scan", "ios": "https://dc.lft.to/lastmile_qr_scan"}, "fusion_lat": 0.0, "is_reserved": 0, "lat": 38.943131, "name": "2a94fce3ebb9e36e6073253c34649a49", "bike_id": "2a94fce3ebb9e36e6073253c34649a49", "is_disabled": 0, "fusion_lon": 0.0, "type": "electric_bike", "lon": -76.9901375}, {"rental_uris": {"android": "https://dc.lft.to/lastmile_qr_scan", "ios": "https://dc.lft.to/lastmile_qr_scan"}, "fusion_lat": 0.0, "is_reserved": 0, "lat": 38.892261500000004, "name": "bb289854378e74f578b7a4a73be172ae", "bike_id": "bb289854378e74f578b7a4a73be172ae", "is_disabled": 0, "fusion_lon": 0.0, "type": "electric_scooter", "lon": -77.03184766666666}, {"rental_uris": {"android": "https://dc.lft.to/lastmile_qr_scan", "ios": "https://dc.lft.to/lastmile_qr_scan"}, "fusion_lat": 0.0, "is_reserved": 0, "lat": 38.90266716666667, "name": "5a33010b2356617cb2ea799bec62ad93", "bike_id": "5a33010b2356617cb2ea799bec62ad93", "is_disabled": 0, "fusion_lon": 0.0, "type": "electric_scooter", "lon": -77.02827666666667}, {"rental_uris": {"android": "https://dc.lft.to/lastmile_qr_scan", "ios": "https://dc.lft.to/lastmile_qr_scan"}, "fusion_lat": 0.0, "is_reserved": 0, "lat": 38.960248, "name": "1321cf424d5a91f09ce6f94bbcc5a4ed", "bike_id": "1321cf424d5a91f09ce6f94bbcc5a4ed", "is_disabled": 0, "fusion_lon": 0.0, "type": "electric_scooter", "lon": -77.02425933333333}, {"rental_uris": {"android": "https://dc.lft.to/lastmile_qr_scan", "ios": "https://dc.lft.to/lastmile_qr_scan"}, "fusion_lat": 0.0, "is_reserved": 0, "lat": 38.8975005, "name": "42b029590399d56ed9022b9b60042cf3", "bike_id": "42b029590399d56ed9022b9b60042cf3", "is_disabled": 0, "fusion_lon": 0.0, "type": "electric_scooter", "lon": -76.97692066666667}, {"rental_uris": {"android": "https://dc.lft.to/lastmile_qr_scan", "ios": "https://dc.lft.to/lastmile_qr_scan"}, "fusion_lat": 0.0, "is_reserved": 0, "lat": 38.806738, "name": "0b27decdec26c377ad2a74c6d3abc41b", "bike_id": "0b27decdec26c377ad2a74c6d3abc41b", "is_disabled": 0, "fusion_lon": 0.0, "type": "electric_bike", "lon": -77.08757233333333}, {"rental_uris": {"android": "https://dc.lft.to/lastmile_qr_scan", "ios": "https://dc.lft.to/lastmile_qr_scan"}, "fusion_lat": 0.0, "is_reserved": 0, "lat": 38.938924666666665, "name": "d5a0de69e7a59ab738fc634faaf922d1", "bike_id": "d5a0de69e7a59ab738fc634faaf922d1", "is_disabled": 0, "fusion_lon": 0.0, "type": "electric_scooter", "lon": -77.01763716666666}, {"rental_uris": {"android": "https://dc.lft.to/lastmile_qr_scan", "ios": "https://dc.lft.to/lastmile_qr_scan"}, "fusion_lat": 0.0, "is_reserved": 0, "lat": 38.912163166666666, "name": "379724e43dfa583f719758fde90ec1b5", "bike_id": "379724e43dfa583f719758fde90ec1b5", "is_disabled": 0, "fusion_lon": 0.0, "type": "electric_scooter", "lon": -76.99479133333334}, {"rental_uris": {"android": "https://dc.lft.to/lastmile_qr_scan", "ios": "https://dc.lft.to/lastmile_qr_scan"}, "fusion_lat": 0.0, "is_reserved": 0, "lat": 38.924707833333336, "name": "40387b336cc9f22723e0da3c152ba488", "bike_id": "40387b336cc9f22723e0da3c152ba488", "is_disabled": 0, "fusion_lon": 0.0, "type": "electric_scooter", "lon": -77.022043}, {"rental_uris": {"android": "https://dc.lft.to/lastmile_qr_scan", "ios": "https://dc.lft.to/lastmile_qr_scan"}, "fusion_lat": 0.0, "is_reserved": 0, "lat": 38.903743, "name": "052ba95c50b381a8675d15a340923157", "bike_id": "052ba95c50b381a8675d15a340923157", "is_disabled": 0, "fusion_lon": 0.0, "type": "electric_scooter", "lon": -77.0354845}, {"rental_uris": {"android": "https://dc.lft.to/lastmile_qr_scan", "ios": "https://dc.lft.to/lastmile_qr_scan"}, "fusion_lat": 0.0, "is_reserved": 0, "lat": 38.91343366666667, "name": "24d3e8c96b3a9a02f35e60b1c981d896", "bike_id": "24d3e8c96b3a9a02f35e60b1c981d896", "is_disabled": 0, "fusion_lon": 0.0, "type": "electric_scooter", "lon": -77.03210516666667}, {"rental_uris": {"android": "https://dc.lft.to/lastmile_qr_scan", "ios": "https://dc.lft.to/lastmile_qr_scan"}, "fusion_lat": 0.0, "is_reserved": 0, "lat": 38.87730033333333, "name": "c29bbb70b16852d26146279ea0954a0a", "bike_id": "c29bbb70b16852d26146279ea0954a0a", "is_disabled": 0, "fusion_lon": 0.0, "type": "electric_scooter", "lon": -77.005653}, {"rental_uris": {"android": "https://dc.lft.to/lastmile_qr_scan", "ios": "https://dc.lft.to/lastmile_qr_scan"}, "fusion_lat": 0.0, "is_reserved": 0, "lat": 38.856013, "name": "847b21be4752d2c8949f3ea9934800a4", "bike_id": "847b21be4752d2c8949f3ea9934800a4", "is_disabled": 0, "fusion_lon": 0.0, "type": "electric_bike", "lon": -76.97458316666666}, {"rental_uris": {"android": "https://dc.lft.to/lastmile_qr_scan", "ios": "https://dc.lft.to/lastmile_qr_scan"}, "fusion_lat": 0.0, "is_reserved": 0, "lat": 38.931156666666666, "name": "d7b9f016322a12058d9e60c3952369a8", "bike_id": "d7b9f016322a12058d9e60c3952369a8", "is_disabled": 0, "fusion_lon": 0.0, "type": "electric_scooter", "lon": -77.030253}, {"rental_uris": {"android": "https://dc.lft.to/lastmile_qr_scan", "ios": "https://dc.lft.to/lastmile_qr_scan"}, "fusion_lat": 0.0, "is_reserved": 0, "lat": 38.90025833333333, "name": "86070c10067e3e24d018561033a87a51", "bike_id": "86070c10067e3e24d018561033a87a51", "is_disabled": 0, "fusion_lon": 0.0, "type": "electric_scooter", "lon": -77.0432345}, {"rental_uris": {"android": "https://dc.lft.to/lastmile_qr_scan", "ios": "https://dc.lft.to/lastmile_qr_scan"}, "fusion_lat": 0.0, "is_reserved": 0, "lat": 38.8985865, "name": "53ede43065c9f6d579e6cc2f6e60ba21", "bike_id": "53ede43065c9f6d579e6cc2f6e60ba21", "is_disabled": 0, "fusion_lon": 0.0, "type": "electric_scooter", "lon": -77.048859}, {"rental_uris": {"android": "https://dc.lft.to/lastmile_qr_scan", "ios": "https://dc.lft.to/lastmile_qr_scan"}, "fusion_lat": 0.0, "is_reserved": 0, "lat": 38.923071666666665, "name": "6836c87407e42631bf5d12c273a0868e", "bike_id": "6836c87407e42631bf5d12c273a0868e", "is_disabled": 0, "fusion_lon": 0.0, "type": "electric_scooter", "lon": -77.04266183333333}, {"rental_uris": {"android": "https://dc.lft.to/lastmile_qr_scan", "ios": "https://dc.lft.to/lastmile_qr_scan"}, "fusion_lat": 0.0, "is_reserved": 0, "lat": 38.9165175, "name": "52fdcc5dcf9f79ab0c71c8244aa46499", "bike_id": "52fdcc5dcf9f79ab0c71c8244aa46499", "is_disabled": 0, "fusion_lon": 0.0, "type": "electric_scooter", "lon": -77.0103355}, {"rental_uris": {"android": "https://dc.lft.to/lastmile_qr_scan", "ios": "https://dc.lft.to/lastmile_qr_scan"}, "fusion_lat": 0.0, "is_reserved": 0, "lat": 38.907895833333335, "name": "98a755f18446606cd110850c8a6fc64c", "bike_id": "98a755f18446606cd110850c8a6fc64c", "is_disabled": 0, "fusion_lon": 0.0, "type": "electric_scooter", "lon": -77.030623}, {"rental_uris": {"android": "https://dc.lft.to/lastmile_qr_scan", "ios": "https://dc.lft.to/lastmile_qr_scan"}, "fusion_lat": 0.0, "is_reserved": 0, "lat": 38.883920333333336, "name": "99602c13eceeaaf4495706a91a7e35c5", "bike_id": "99602c13eceeaaf4495706a91a7e35c5", "is_disabled": 0, "fusion_lon": 0.0, "type": "electric_scooter", "lon": -76.93047766666666}, {"rental_uris": {"android": "https://dc.lft.to/lastmile_qr_scan", "ios": "https://dc.lft.to/lastmile_qr_scan"}, "fusion_lat": 0.0, "is_reserved": 0, "lat": 38.926631, "name": "b46946fc79808686aa06af95ffac5049", "bike_id": "b46946fc79808686aa06af95ffac5049", "is_disabled": 0, "fusion_lon": 0.0, "type": "electric_scooter", "lon": -77.03030366666667}, {"rental_uris": {"android": "https://dc.lft.to/lastmile_qr_scan", "ios": "https://dc.lft.to/lastmile_qr_scan"}, "fusion_lat": 0.0, "is_reserved": 0, "lat": 38.90071983333333, "name": "3b4cc6e6cc5449c45bf7ae2a574ba185", "bike_id": "3b4cc6e6cc5449c45bf7ae2a574ba185", "is_disabled": 0, "fusion_lon": 0.0, "type": "electric_scooter", "lon": -77.02171866666667}, {"rental_uris": {"android": "https://dc.lft.to/lastmile_qr_scan", "ios": "https://dc.lft.to/lastmile_qr_scan"}, "fusion_lat": 0.0, "is_reserved": 0, "lat": 38.91701583333333, "name": "3c9fc2770b1a4e7e4575ee3589fe83b5", "bike_id": "3c9fc2770b1a4e7e4575ee3589fe83b5", "is_disabled": 0, "fusion_lon": 0.0, "type": "electric_scooter", "lon": -77.03110983333333}, {"rental_uris": {"android": "https://dc.lft.to/lastmile_qr_scan", "ios": "https://dc.lft.to/lastmile_qr_scan"}, "fusion_lat": 0.0, "is_reserved": 0, "lat": 38.908358166666666, "name": "45c79f8442ce9fbbf5b06ecc9a10e5d9", "bike_id": "45c79f8442ce9fbbf5b06ecc9a10e5d9", "is_disabled": 0, "fusion_lon": 0.0, "type": "electric_scooter", "lon": -76.99698516666666}, {"rental_uris": {"android": "https://dc.lft.to/lastmile_qr_scan", "ios": "https://dc.lft.to/lastmile_qr_scan"}, "fusion_lat": 0.0, "is_reserved": 0, "lat": 38.89993466666667, "name": "eea9dc1d5e0bf63a515ede8624053bf0", "bike_id": "eea9dc1d5e0bf63a515ede8624053bf0", "is_disabled": 0, "fusion_lon": 0.0, "type": "electric_scooter", "lon": -77.00068783333333}, {"rental_uris": {"android": "https://dc.lft.to/lastmile_qr_scan", "ios": "https://dc.lft.to/lastmile_qr_scan"}, "fusion_lat": 0.0, "is_reserved": 0, "lat": 38.92612716666667, "name": "1e80abbcaded0132681fb1e0545e519e", "bike_id": "1e80abbcaded0132681fb1e0545e519e", "is_disabled": 0, "fusion_lon": 0.0, "type": "electric_scooter", "lon": -77.02160366666666}, {"rental_uris": {"android": "https://dc.lft.to/lastmile_qr_scan", "ios": "https://dc.lft.to/lastmile_qr_scan"}, "fusion_lat": 0.0, "is_reserved": 0, "lat": 38.89616733333333, "name": "ab4821a8c4ed774e5148b82afaffff12", "bike_id": "ab4821a8c4ed774e5148b82afaffff12", "is_disabled": 0, "fusion_lon": 0.0, "type": "electric_scooter", "lon": -76.97681233333333}, {"rental_uris": {"android": "https://dc.lft.to/lastmile_qr_scan", "ios": "https://dc.lft.to/lastmile_qr_scan"}, "fusion_lat": 0.0, "is_reserved": 0, "lat": 38.90903566666667, "name": "8116268764809896c44404e845f9e13c", "bike_id": "8116268764809896c44404e845f9e13c", "is_disabled": 0, "fusion_lon": 0.0, "type": "electric_scooter", "lon": -76.99120216666667}, {"rental_uris": {"android": "https://dc.lft.to/lastmile_qr_scan", "ios": "https://dc.lft.to/lastmile_qr_scan"}, "fusion_lat": 0.0, "is_reserved": 0, "lat": 38.90011833333333, "name": "4a66c050f71a625de421f6db59a596f1", "bike_id": "4a66c050f71a625de421f6db59a596f1", "is_disabled": 0, "fusion_lon": 0.0, "type": "electric_scooter", "lon": -76.93024483333333}, {"rental_uris": {"android": "https://dc.lft.to/lastmile_qr_scan", "ios": "https://dc.lft.to/lastmile_qr_scan"}, "fusion_lat": 0.0, "is_reserved": 0, "lat": 38.879418, "name": "7a8aa4d23094fc8f30e7ed2e16e84c71", "bike_id": "7a8aa4d23094fc8f30e7ed2e16e84c71", "is_disabled": 0, "fusion_lon": 0.0, "type": "electric_scooter", "lon": -77.0215685}, {"rental_uris": {"android": "https://dc.lft.to/lastmile_qr_scan", "ios": "https://dc.lft.to/lastmile_qr_scan"}, "fusion_lat": 0.0, "is_reserved": 0, "lat": 38.902458833333334, "name": "2bf2cc0cc19ec72530900ec5fa22dc04", "bike_id": "2bf2cc0cc19ec72530900ec5fa22dc04", "is_disabled": 0, "fusion_lon": 0.0, "type": "electric_scooter", "lon": -77.00187783333334}, {"rental_uris": {"android": "https://dc.lft.to/lastmile_qr_scan", "ios": "https://dc.lft.to/lastmile_qr_scan"}, "fusion_lat": 0.0, "is_reserved": 0, "lat": 38.9200395, "name": "de8b3db4217a166b7deb9e0afeeff9ac", "bike_id": "de8b3db4217a166b7deb9e0afeeff9ac", "is_disabled": 0, "fusion_lon": 0.0, "type": "electric_scooter", "lon": -77.0235155}, {"rental_uris": {"android": "https://dc.lft.to/lastmile_qr_scan", "ios": "https://dc.lft.to/lastmile_qr_scan"}, "fusion_lat": 0.0, "is_reserved": 0, "lat": 38.892993, "name": "b5295733b758a1dadf8dd672688d8158", "bike_id": "b5295733b758a1dadf8dd672688d8158", "is_disabled": 0, "fusion_lon": 0.0, "type": "electric_scooter", "lon": -76.9299355}, {"rental_uris": {"android": "https://dc.lft.to/lastmile_qr_scan", "ios": "https://dc.lft.to/lastmile_qr_scan"}, "fusion_lat": 0.0, "is_reserved": 0, "lat": 38.918845833333336, "name": "e07f2f96d25fc02fd2647a1b0d0a1e42", "bike_id": "e07f2f96d25fc02fd2647a1b0d0a1e42", "is_disabled": 0, "fusion_lon": 0.0, "type": "electric_scooter", "lon": -77.02188316666667}, {"rental_uris": {"android": "https://dc.lft.to/lastmile_qr_scan", "ios": "https://dc.lft.to/lastmile_qr_scan"}, "fusion_lat": 0.0, "is_reserved": 0, "lat": 38.916969, "name": "ece22f1771214d64e342350cd6cfdd4f", "bike_id": "ece22f1771214d64e342350cd6cfdd4f", "is_disabled": 0, "fusion_lon": 0.0, "type": "electric_scooter", "lon": -77.05297166666666}, {"rental_uris": {"android": "https://dc.lft.to/lastmile_qr_scan", "ios": "https://dc.lft.to/lastmile_qr_scan"}, "fusion_lat": 0.0, "is_reserved": 0, "lat": 38.899066833333336, "name": "e31a67a6f99e590797b4b478bf9d7522", "bike_id": "e31a67a6f99e590797b4b478bf9d7522", "is_disabled": 0, "fusion_lon": 0.0, "type": "electric_scooter", "lon": -76.9882495}, {"rental_uris": {"android": "https://dc.lft.to/lastmile_qr_scan", "ios": "https://dc.lft.to/lastmile_qr_scan"}, "fusion_lat": 0.0, "is_reserved": 0, "lat": 38.870947, "name": "3d1b7788ab8b65cff5a71b637f8b4977", "bike_id": "3d1b7788ab8b65cff5a71b637f8b4977", "is_disabled": 0, "fusion_lon": 0.0, "type": "electric_scooter", "lon": -77.01215516666667}, {"rental_uris": {"android": "https://dc.lft.to/lastmile_qr_scan", "ios": "https://dc.lft.to/lastmile_qr_scan"}, "fusion_lat": 0.0, "is_reserved": 0, "lat": 38.91804283333333, "name": "6f29ff27d71d02d3419449e986c1ddc5", "bike_id": "6f29ff27d71d02d3419449e986c1ddc5", "is_disabled": 0, "fusion_lon": 0.0, "type": "electric_scooter", "lon": -77.00923916666666}, {"rental_uris": {"android": "https://dc.lft.to/lastmile_qr_scan", "ios": "https://dc.lft.to/lastmile_qr_scan"}, "fusion_lat": 0.0, "is_reserved": 0, "lat": 38.8284765, "name": "eb43eb11488bfe2ed27b6357b9d05090", "bike_id": "eb43eb11488bfe2ed27b6357b9d05090", "is_disabled": 0, "fusion_lon": 0.0, "type": "electric_bike", "lon": -77.05903566666667}, {"rental_uris": {"android": "https://dc.lft.to/lastmile_qr_scan", "ios": "https://dc.lft.to/lastmile_qr_scan"}, "fusion_lat": 0.0, "is_reserved": 0, "lat": 38.936944, "name": "520fe3662a79241e44ad79323669c8e1", "bike_id": "520fe3662a79241e44ad79323669c8e1", "is_disabled": 0, "fusion_lon": 0.0, "type": "electric_scooter", "lon": -77.060182}, {"rental_uris": {"android": "https://dc.lft.to/lastmile_qr_scan", "ios": "https://dc.lft.to/lastmile_qr_scan"}, "fusion_lat": 0.0, "is_reserved": 0, "lat": 38.92789783333333, "name": "aadbc00fb9d1fcd674146cc454f5e4e9", "bike_id": "aadbc00fb9d1fcd674146cc454f5e4e9", "is_disabled": 0, "fusion_lon": 0.0, "type": "electric_scooter", "lon": -77.03083833333334}, {"rental_uris": {"android": "https://dc.lft.to/lastmile_qr_scan", "ios": "https://dc.lft.to/lastmile_qr_scan"}, "fusion_lat": 0.0, "is_reserved": 0, "lat": 38.92349216666667, "name": "c357b9951686548ee19823591b78d9fa", "bike_id": "c357b9951686548ee19823591b78d9fa", "is_disabled": 0, "fusion_lon": 0.0, "type": "electric_scooter", "lon": -77.03628516666667}, {"rental_uris": {"android": "https://dc.lft.to/lastmile_qr_scan", "ios": "https://dc.lft.to/lastmile_qr_scan"}, "fusion_lat": 0.0, "is_reserved": 0, "lat": 38.915481, "name": "7f6188f1f69639d5283658c136ad9860", "bike_id": "7f6188f1f69639d5283658c136ad9860", "is_disabled": 0, "fusion_lon": 0.0, "type": "electric_scooter", "lon": -77.023667}, {"rental_uris": {"android": "https://dc.lft.to/lastmile_qr_scan", "ios": "https://dc.lft.to/lastmile_qr_scan"}, "fusion_lat": 0.0, "is_reserved": 0, "lat": 38.89977566666666, "name": "a770e202bac86876cefc22bc1c617e26", "bike_id": "a770e202bac86876cefc22bc1c617e26", "is_disabled": 0, "fusion_lon": 0.0, "type": "electric_scooter", "lon": -76.9836605}, {"rental_uris": {"android": "https://dc.lft.to/lastmile_qr_scan", "ios": "https://dc.lft.to/lastmile_qr_scan"}, "fusion_lat": 0.0, "is_reserved": 0, "lat": 38.90698316666667, "name": "cd8e841431c2db17c458b66bbe248331", "bike_id": "cd8e841431c2db17c458b66bbe248331", "is_disabled": 0, "fusion_lon": 0.0, "type": "electric_scooter", "lon": -76.99764016666667}, {"rental_uris": {"android": "https://dc.lft.to/lastmile_qr_scan", "ios": "https://dc.lft.to/lastmile_qr_scan"}, "fusion_lat": 0.0, "is_reserved": 0, "lat": 38.89451666666667, "name": "85ed154504e96531f4b0a9d07776d451", "bike_id": "85ed154504e96531f4b0a9d07776d451", "is_disabled": 0, "fusion_lon": 0.0, "type": "electric_scooter", "lon": -77.04542433333333}, {"rental_uris": {"android": "https://dc.lft.to/lastmile_qr_scan", "ios": "https://dc.lft.to/lastmile_qr_scan"}, "fusion_lat": 0.0, "is_reserved": 0, "lat": 38.89621233333333, "name": "07fa573946653aeaefae2acef4f1e307", "bike_id": "07fa573946653aeaefae2acef4f1e307", "is_disabled": 0, "fusion_lon": 0.0, "type": "electric_scooter", "lon": -77.0309715}, {"rental_uris": {"android": "https://dc.lft.to/lastmile_qr_scan", "ios": "https://dc.lft.to/lastmile_qr_scan"}, "fusion_lat": 0.0, "is_reserved": 0, "lat": 38.907290833333334, "name": "a6787b853abb596cd85eacb5b24af172", "bike_id": "a6787b853abb596cd85eacb5b24af172", "is_disabled": 0, "fusion_lon": 0.0, "type": "electric_scooter", "lon": -77.025379}, {"rental_uris": {"android": "https://dc.lft.to/lastmile_qr_scan", "ios": "https://dc.lft.to/lastmile_qr_scan"}, "fusion_lat": 0.0, "is_reserved": 0, "lat": 38.849202, "name": "417ae32a059af5bd013602350f4ceebb", "bike_id": "417ae32a059af5bd013602350f4ceebb", "is_disabled": 0, "fusion_lon": 0.0, "type": "electric_bike", "lon": -77.0837045}, {"rental_uris": {"android": "https://dc.lft.to/lastmile_qr_scan", "ios": "https://dc.lft.to/lastmile_qr_scan"}, "fusion_lat": 0.0, "is_reserved": 0, "lat": 38.90268733333333, "name": "3c896a9688f7ea0c7f293ab00de51da6", "bike_id": "3c896a9688f7ea0c7f293ab00de51da6", "is_disabled": 0, "fusion_lon": 0.0, "type": "electric_scooter", "lon": -76.9899575}, {"rental_uris": {"android": "https://dc.lft.to/lastmile_qr_scan", "ios": "https://dc.lft.to/lastmile_qr_scan"}, "fusion_lat": 0.0, "is_reserved": 0, "lat": 38.924781333333335, "name": "86cdd905235c7cfcdd061c8706d8c2bb", "bike_id": "86cdd905235c7cfcdd061c8706d8c2bb", "is_disabled": 0, "fusion_lon": 0.0, "type": "electric_scooter", "lon": -77.02635733333334}, {"rental_uris": {"android": "https://dc.lft.to/lastmile_qr_scan", "ios": "https://dc.lft.to/lastmile_qr_scan"}, "fusion_lat": 0.0, "is_reserved": 0, "lat": 38.917693166666666, "name": "eededfb546881d69392a79f88f9b40ef", "bike_id": "eededfb546881d69392a79f88f9b40ef", "is_disabled": 0, "fusion_lon": 0.0, "type": "electric_scooter", "lon": -77.0406205}, {"rental_uris": {"android": "https://dc.lft.to/lastmile_qr_scan", "ios": "https://dc.lft.to/lastmile_qr_scan"}, "fusion_lat": 0.0, "is_reserved": 0, "lat": 38.90272566666667, "name": "a0a22c626de34cce6fba015d202a4194", "bike_id": "a0a22c626de34cce6fba015d202a4194", "is_disabled": 0, "fusion_lon": 0.0, "type": "electric_scooter", "lon": -77.05803716666667}, {"rental_uris": {"android": "https://dc.lft.to/lastmile_qr_scan", "ios": "https://dc.lft.to/lastmile_qr_scan"}, "fusion_lat": 0.0, "is_reserved": 0, "lat": 38.91073316666667, "name": "aeca1636c0bad0c7ec7db5fa4be45102", "bike_id": "aeca1636c0bad0c7ec7db5fa4be45102", "is_disabled": 0, "fusion_lon": 0.0, "type": "electric_scooter", "lon": -76.99137116666667}, {"rental_uris": {"android": "https://dc.lft.to/lastmile_qr_scan", "ios": "https://dc.lft.to/lastmile_qr_scan"}, "fusion_lat": 0.0, "is_reserved": 0, "lat": 38.914512, "name": "ea5f8460ae084d338d503969dc432825", "bike_id": "ea5f8460ae084d338d503969dc432825", "is_disabled": 0, "fusion_lon": 0.0, "type": "electric_scooter", "lon": -77.02175266666667}, {"rental_uris": {"android": "https://dc.lft.to/lastmile_qr_scan", "ios": "https://dc.lft.to/lastmile_qr_scan"}, "fusion_lat": 0.0, "is_reserved": 0, "lat": 38.91794433333333, "name": "47131ee66eb571ac747e79cd251021c3", "bike_id": "47131ee66eb571ac747e79cd251021c3", "is_disabled": 0, "fusion_lon": 0.0, "type": "electric_scooter", "lon": -77.03182283333334}, {"rental_uris": {"android": "https://dc.lft.to/lastmile_qr_scan", "ios": "https://dc.lft.to/lastmile_qr_scan"}, "fusion_lat": 0.0, "is_reserved": 0, "lat": 38.90737883333333, "name": "5bc2ce7e5e0419a63961e7c177abb622", "bike_id": "5bc2ce7e5e0419a63961e7c177abb622", "is_disabled": 0, "fusion_lon": 0.0, "type": "electric_scooter", "lon": -77.032079}, {"rental_uris": {"android": "https://dc.lft.to/lastmile_qr_scan", "ios": "https://dc.lft.to/lastmile_qr_scan"}, "fusion_lat": 0.0, "is_reserved": 0, "lat": 38.931446333333334, "name": "2faf56d0247ba5acf755b7d254bf1de7", "bike_id": "2faf56d0247ba5acf755b7d254bf1de7", "is_disabled": 0, "fusion_lon": 0.0, "type": "electric_bike", "lon": -77.0282565}, {"rental_uris": {"android": "https://dc.lft.to/lastmile_qr_scan", "ios": "https://dc.lft.to/lastmile_qr_scan"}, "fusion_lat": 0.0, "is_reserved": 0, "lat": 38.91287116666667, "name": "6d8dd238ba20a50b5d8c149634a3ca07", "bike_id": "6d8dd238ba20a50b5d8c149634a3ca07", "is_disabled": 0, "fusion_lon": 0.0, "type": "electric_scooter", "lon": -77.03182283333334}, {"rental_uris": {"android": "https://dc.lft.to/lastmile_qr_scan", "ios": "https://dc.lft.to/lastmile_qr_scan"}, "fusion_lat": 0.0, "is_reserved": 0, "lat": 38.8948325, "name": "a5e51a0fa1482d9fefc84f5280d53d0e", "bike_id": "a5e51a0fa1482d9fefc84f5280d53d0e", "is_disabled": 0, "fusion_lon": 0.0, "type": "electric_scooter", "lon": -76.99574083333333}, {"rental_uris": {"android": "https://dc.lft.to/lastmile_qr_scan", "ios": "https://dc.lft.to/lastmile_qr_scan"}, "fusion_lat": 0.0, "is_reserved": 0, "lat": 38.9227635, "name": "d334378933f591c4cc8225d43223f918", "bike_id": "d334378933f591c4cc8225d43223f918", "is_disabled": 0, "fusion_lon": 0.0, "type": "electric_scooter", "lon": -77.02130216666667}, {"rental_uris": {"android": "https://dc.lft.to/lastmile_qr_scan", "ios": "https://dc.lft.to/lastmile_qr_scan"}, "fusion_lat": 0.0, "is_reserved": 0, "lat": 38.8653635, "name": "72c9031cd501cd9137ad7526c828c63b", "bike_id": "72c9031cd501cd9137ad7526c828c63b", "is_disabled": 0, "fusion_lon": 0.0, "type": "electric_scooter", "lon": -76.97458166666667}, {"rental_uris": {"android": "https://dc.lft.to/lastmile_qr_scan", "ios": "https://dc.lft.to/lastmile_qr_scan"}, "fusion_lat": 0.0, "is_reserved": 0, "lat": 38.9018725, "name": "f8791cb1bf0b7b10814f4bd0e76b7af1", "bike_id": "f8791cb1bf0b7b10814f4bd0e76b7af1", "is_disabled": 0, "fusion_lon": 0.0, "type": "electric_scooter", "lon": -76.93004833333333}, {"rental_uris": {"android": "https://dc.lft.to/lastmile_qr_scan", "ios": "https://dc.lft.to/lastmile_qr_scan"}, "fusion_lat": 0.0, "is_reserved": 0, "lat": 38.913264833333336, "name": "78943792272d4d6b431962ba4b2a3094", "bike_id": "78943792272d4d6b431962ba4b2a3094", "is_disabled": 0, "fusion_lon": 0.0, "type": "electric_scooter", "lon": -77.04482066666667}, {"rental_uris": {"android": "https://dc.lft.to/lastmile_qr_scan", "ios": "https://dc.lft.to/lastmile_qr_scan"}, "fusion_lat": 0.0, "is_reserved": 0, "lat": 38.946506, "name": "8e5a04ae999af6426d8819e91ecddb10", "bike_id": "8e5a04ae999af6426d8819e91ecddb10", "is_disabled": 0, "fusion_lon": 0.0, "type": "electric_scooter", "lon": -77.06478966666667}, {"rental_uris": {"android": "https://dc.lft.to/lastmile_qr_scan", "ios": "https://dc.lft.to/lastmile_qr_scan"}, "fusion_lat": 0.0, "is_reserved": 0, "lat": 38.914700833333335, "name": "fb9a5239483377f21fb20a74d0f64709", "bike_id": "fb9a5239483377f21fb20a74d0f64709", "is_disabled": 0, "fusion_lon": 0.0, "type": "electric_scooter", "lon": -77.02181816666666}, {"rental_uris": {"android": "https://dc.lft.to/lastmile_qr_scan", "ios": "https://dc.lft.to/lastmile_qr_scan"}, "fusion_lat": 0.0, "is_reserved": 0, "lat": 38.9001065, "name": "57677085b2d826431c1cf754a7630020", "bike_id": "57677085b2d826431c1cf754a7630020", "is_disabled": 0, "fusion_lon": 0.0, "type": "electric_scooter", "lon": -77.04659366666667}, {"rental_uris": {"android": "https://dc.lft.to/lastmile_qr_scan", "ios": "https://dc.lft.to/lastmile_qr_scan"}, "fusion_lat": 0.0, "is_reserved": 0, "lat": 38.9159755, "name": "eea6d46e6b3be56fd674b10220e2e6e7", "bike_id": "eea6d46e6b3be56fd674b10220e2e6e7", "is_disabled": 0, "fusion_lon": 0.0, "type": "electric_scooter", "lon": -77.03203833333333}, {"rental_uris": {"android": "https://dc.lft.to/lastmile_qr_scan", "ios": "https://dc.lft.to/lastmile_qr_scan"}, "fusion_lat": 0.0, "is_reserved": 0, "lat": 38.924326666666666, "name": "2ea71a5f562ae97a777c48369c9f7d8d", "bike_id": "2ea71a5f562ae97a777c48369c9f7d8d", "is_disabled": 0, "fusion_lon": 0.0, "type": "electric_scooter", "lon": -77.07786966666667}, {"rental_uris": {"android": "https://dc.lft.to/lastmile_qr_scan", "ios": "https://dc.lft.to/lastmile_qr_scan"}, "fusion_lat": 0.0, "is_reserved": 0, "lat": 38.92260366666667, "name": "76d6aa8e6a9777c33b3f82a706176bdd", "bike_id": "76d6aa8e6a9777c33b3f82a706176bdd", "is_disabled": 0, "fusion_lon": 0.0, "type": "electric_scooter", "lon": -77.04696633333333}, {"rental_uris": {"android": "https://dc.lft.to/lastmile_qr_scan", "ios": "https://dc.lft.to/lastmile_qr_scan"}, "fusion_lat": 0.0, "is_reserved": 0, "lat": 38.922032, "name": "7d3ffbe097f048056911ef6b1488356c", "bike_id": "7d3ffbe097f048056911ef6b1488356c", "is_disabled": 0, "fusion_lon": 0.0, "type": "electric_scooter", "lon": -77.02987666666667}, {"rental_uris": {"android": "https://dc.lft.to/lastmile_qr_scan", "ios": "https://dc.lft.to/lastmile_qr_scan"}, "fusion_lat": 0.0, "is_reserved": 0, "lat": 38.93532116666667, "name": "b43c8ebdd9c61b5ef0c4c732e0e20850", "bike_id": "b43c8ebdd9c61b5ef0c4c732e0e20850", "is_disabled": 0, "fusion_lon": 0.0, "type": "electric_scooter", "lon": -77.072765}, {"rental_uris": {"android": "https://dc.lft.to/lastmile_qr_scan", "ios": "https://dc.lft.to/lastmile_qr_scan"}, "fusion_lat": 0.0, "is_reserved": 0, "lat": 38.907287333333336, "name": "2aa04cbda9e654e735be2990e8f74992", "bike_id": "2aa04cbda9e654e735be2990e8f74992", "is_disabled": 0, "fusion_lon": 0.0, "type": "electric_scooter", "lon": -77.011376}, {"rental_uris": {"android": "https://dc.lft.to/lastmile_qr_scan", "ios": "https://dc.lft.to/lastmile_qr_scan"}, "fusion_lat": 0.0, "is_reserved": 0, "lat": 38.92337166666667, "name": "a01b1648815b858be88488655fd896c8", "bike_id": "a01b1648815b858be88488655fd896c8", "is_disabled": 0, "fusion_lon": 0.0, "type": "electric_scooter", "lon": -77.01914983333333}, {"rental_uris": {"android": "https://dc.lft.to/lastmile_qr_scan", "ios": "https://dc.lft.to/lastmile_qr_scan"}, "fusion_lat": 0.0, "is_reserved": 0, "lat": 38.916817333333334, "name": "3acf1de1678a8602fb02ab16b49c2693", "bike_id": "3acf1de1678a8602fb02ab16b49c2693", "is_disabled": 0, "fusion_lon": 0.0, "type": "electric_scooter", "lon": -77.03038483333333}, {"rental_uris": {"android": "https://dc.lft.to/lastmile_qr_scan", "ios": "https://dc.lft.to/lastmile_qr_scan"}, "fusion_lat": 0.0, "is_reserved": 0, "lat": 38.89969083333333, "name": "25b05a92a4ce88b3522cca27b6607445", "bike_id": "25b05a92a4ce88b3522cca27b6607445", "is_disabled": 0, "fusion_lon": 0.0, "type": "electric_scooter", "lon": -76.93849316666666}, {"rental_uris": {"android": "https://dc.lft.to/lastmile_qr_scan", "ios": "https://dc.lft.to/lastmile_qr_scan"}, "fusion_lat": 0.0, "is_reserved": 0, "lat": 38.8837265, "name": "d8dcecb8500be62babb973679d48806f", "bike_id": "d8dcecb8500be62babb973679d48806f", "is_disabled": 0, "fusion_lon": 0.0, "type": "electric_scooter", "lon": -76.924236}, {"rental_uris": {"android": "https://dc.lft.to/lastmile_qr_scan", "ios": "https://dc.lft.to/lastmile_qr_scan"}, "fusion_lat": 0.0, "is_reserved": 0, "lat": 38.90539783333333, "name": "d20995c23ed6482861e86dd7e9649b47", "bike_id": "d20995c23ed6482861e86dd7e9649b47", "is_disabled": 0, "fusion_lon": 0.0, "type": "electric_scooter", "lon": -77.05912316666667}, {"rental_uris": {"android": "https://dc.lft.to/lastmile_qr_scan", "ios": "https://dc.lft.to/lastmile_qr_scan"}, "fusion_lat": 0.0, "is_reserved": 0, "lat": 38.90588266666666, "name": "3376df0da7edb01bbe668cf7c4e1e6fc", "bike_id": "3376df0da7edb01bbe668cf7c4e1e6fc", "is_disabled": 0, "fusion_lon": 0.0, "type": "electric_scooter", "lon": -77.04234566666666}, {"rental_uris": {"android": "https://dc.lft.to/lastmile_qr_scan", "ios": "https://dc.lft.to/lastmile_qr_scan"}, "fusion_lat": 0.0, "is_reserved": 0, "lat": 38.885189833333335, "name": "226620798226863f57250415028eb6a6", "bike_id": "226620798226863f57250415028eb6a6", "is_disabled": 0, "fusion_lon": 0.0, "type": "electric_scooter", "lon": -77.0218535}, {"rental_uris": {"android": "https://dc.lft.to/lastmile_qr_scan", "ios": "https://dc.lft.to/lastmile_qr_scan"}, "fusion_lat": 0.0, "is_reserved": 0, "lat": 38.92930966666667, "name": "68c2310986a346591b03ae331d0802b5", "bike_id": "68c2310986a346591b03ae331d0802b5", "is_disabled": 0, "fusion_lon": 0.0, "type": "electric_scooter", "lon": -77.02965483333334}, {"rental_uris": {"android": "https://dc.lft.to/lastmile_qr_scan", "ios": "https://dc.lft.to/lastmile_qr_scan"}, "fusion_lat": 0.0, "is_reserved": 0, "lat": 38.92061783333333, "name": "67840a5bcc21b27643fcc356390b9a7b", "bike_id": "67840a5bcc21b27643fcc356390b9a7b", "is_disabled": 0, "fusion_lon": 0.0, "type": "electric_scooter", "lon": -77.034796}, {"rental_uris": {"android": "https://dc.lft.to/lastmile_qr_scan", "ios": "https://dc.lft.to/lastmile_qr_scan"}, "fusion_lat": 0.0, "is_reserved": 0, "lat": 38.87895066666667, "name": "95c1150ee4b992c60e412409e90fb06c", "bike_id": "95c1150ee4b992c60e412409e90fb06c", "is_disabled": 0, "fusion_lon": 0.0, "type": "electric_scooter", "lon": -77.00601633333333}, {"rental_uris": {"android": "https://dc.lft.to/lastmile_qr_scan", "ios": "https://dc.lft.to/lastmile_qr_scan"}, "fusion_lat": 0.0, "is_reserved": 0, "lat": 38.95467266666667, "name": "cf3b36b99d3de8a5c2bad37913cbfbb3", "bike_id": "cf3b36b99d3de8a5c2bad37913cbfbb3", "is_disabled": 0, "fusion_lon": 0.0, "type": "electric_scooter", "lon": -77.07766}, {"rental_uris": {"android": "https://dc.lft.to/lastmile_qr_scan", "ios": "https://dc.lft.to/lastmile_qr_scan"}, "fusion_lat": 0.0, "is_reserved": 0, "lat": 38.90435216666667, "name": "bc949d4b144f21be721d8715ad309f26", "bike_id": "bc949d4b144f21be721d8715ad309f26", "is_disabled": 0, "fusion_lon": 0.0, "type": "electric_scooter", "lon": -77.0258855}, {"rental_uris": {"android": "https://dc.lft.to/lastmile_qr_scan", "ios": "https://dc.lft.to/lastmile_qr_scan"}, "fusion_lat": 0.0, "is_reserved": 0, "lat": 38.9091635, "name": "11497c7b106a59408e89caae6b3679c0", "bike_id": "11497c7b106a59408e89caae6b3679c0", "is_disabled": 0, "fusion_lon": 0.0, "type": "electric_scooter", "lon": -77.03098666666666}, {"rental_uris": {"android": "https://dc.lft.to/lastmile_qr_scan", "ios": "https://dc.lft.to/lastmile_qr_scan"}, "fusion_lat": 0.0, "is_reserved": 0, "lat": 38.915525833333334, "name": "0eced69016a687a5b54f52c34735833e", "bike_id": "0eced69016a687a5b54f52c34735833e", "is_disabled": 0, "fusion_lon": 0.0, "type": "electric_scooter", "lon": -77.03936316666666}, {"rental_uris": {"android": "https://dc.lft.to/lastmile_qr_scan", "ios": "https://dc.lft.to/lastmile_qr_scan"}, "fusion_lat": 0.0, "is_reserved": 0, "lat": 38.905596, "name": "6c3106f858702fea0b15c0b419e279fe", "bike_id": "6c3106f858702fea0b15c0b419e279fe", "is_disabled": 0, "fusion_lon": 0.0, "type": "electric_scooter", "lon": -77.03219483333334}, {"rental_uris": {"android": "https://dc.lft.to/lastmile_qr_scan", "ios": "https://dc.lft.to/lastmile_qr_scan"}, "fusion_lat": 0.0, "is_reserved": 0, "lat": 38.93457683333333, "name": "ea5129ace78c9e88a08a833084470d63", "bike_id": "ea5129ace78c9e88a08a833084470d63", "is_disabled": 0, "fusion_lon": 0.0, "type": "electric_scooter", "lon": -77.02726833333334}, {"rental_uris": {"android": "https://dc.lft.to/lastmile_qr_scan", "ios": "https://dc.lft.to/lastmile_qr_scan"}, "fusion_lat": 0.0, "is_reserved": 0, "lat": 38.9212885, "name": "2d09bcc69463111288c0fbbe759bc5ef", "bike_id": "2d09bcc69463111288c0fbbe759bc5ef", "is_disabled": 0, "fusion_lon": 0.0, "type": "electric_scooter", "lon": -77.03168333333333}, {"rental_uris": {"android": "https://dc.lft.to/lastmile_qr_scan", "ios": "https://dc.lft.to/lastmile_qr_scan"}, "fusion_lat": 0.0, "is_reserved": 0, "lat": 38.9416435, "name": "e5a31b98a6b5961c001febc4cac73485", "bike_id": "e5a31b98a6b5961c001febc4cac73485", "is_disabled": 0, "fusion_lon": 0.0, "type": "electric_scooter", "lon": -77.02555766666667}, {"rental_uris": {"android": "https://dc.lft.to/lastmile_qr_scan", "ios": "https://dc.lft.to/lastmile_qr_scan"}, "fusion_lat": 0.0, "is_reserved": 0, "lat": 38.88411833333333, "name": "265280cf2f84a766baefff62a0c1d82f", "bike_id": "265280cf2f84a766baefff62a0c1d82f", "is_disabled": 0, "fusion_lon": 0.0, "type": "electric_scooter", "lon": -77.02557733333333}, {"rental_uris": {"android": "https://dc.lft.to/lastmile_qr_scan", "ios": "https://dc.lft.to/lastmile_qr_scan"}, "fusion_lat": 0.0, "is_reserved": 0, "lat": 38.9042275, "name": "f840c99ed4b8fc2c4f6454e828c401fc", "bike_id": "f840c99ed4b8fc2c4f6454e828c401fc", "is_disabled": 0, "fusion_lon": 0.0, "type": "electric_scooter", "lon": -77.053306}, {"rental_uris": {"android": "https://dc.lft.to/lastmile_qr_scan", "ios": "https://dc.lft.to/lastmile_qr_scan"}, "fusion_lat": 0.0, "is_reserved": 0, "lat": 38.87937633333333, "name": "5a4fd66e8f589416900e11fd881aad32", "bike_id": "5a4fd66e8f589416900e11fd881aad32", "is_disabled": 0, "fusion_lon": 0.0, "type": "electric_scooter", "lon": -77.00381916666667}, {"rental_uris": {"android": "https://dc.lft.to/lastmile_qr_scan", "ios": "https://dc.lft.to/lastmile_qr_scan"}, "fusion_lat": 0.0, "is_reserved": 0, "lat": 38.88340266666667, "name": "2d2ad9487499c61da029e0a42d0d436e", "bike_id": "2d2ad9487499c61da029e0a42d0d436e", "is_disabled": 0, "fusion_lon": 0.0, "type": "electric_scooter", "lon": -76.94285933333333}, {"rental_uris": {"android": "https://dc.lft.to/lastmile_qr_scan", "ios": "https://dc.lft.to/lastmile_qr_scan"}, "fusion_lat": 0.0, "is_reserved": 0, "lat": 38.904613499999996, "name": "665794aa3a58e6f4f87538d913960e30", "bike_id": "665794aa3a58e6f4f87538d913960e30", "is_disabled": 0, "fusion_lon": 0.0, "type": "electric_scooter", "lon": -77.031428}, {"rental_uris": {"android": "https://dc.lft.to/lastmile_qr_scan", "ios": "https://dc.lft.to/lastmile_qr_scan"}, "fusion_lat": 0.0, "is_reserved": 0, "lat": 38.90364666666667, "name": "9892545a8cc69dda83abdc2d31ab23bc", "bike_id": "9892545a8cc69dda83abdc2d31ab23bc", "is_disabled": 0, "fusion_lon": 0.0, "type": "electric_scooter", "lon": -77.03204116666667}, {"rental_uris": {"android": "https://dc.lft.to/lastmile_qr_scan", "ios": "https://dc.lft.to/lastmile_qr_scan"}, "fusion_lat": 0.0, "is_reserved": 0, "lat": 38.92896916666667, "name": "90083e1ae939a634c4c3aa711a1aa6e4", "bike_id": "90083e1ae939a634c4c3aa711a1aa6e4", "is_disabled": 0, "fusion_lon": 0.0, "type": "electric_scooter", "lon": -77.03263733333333}, {"rental_uris": {"android": "https://dc.lft.to/lastmile_qr_scan", "ios": "https://dc.lft.to/lastmile_qr_scan"}, "fusion_lat": 0.0, "is_reserved": 0, "lat": 38.916198333333334, "name": "27405a3253c607a197ba9286013fb783", "bike_id": "27405a3253c607a197ba9286013fb783", "is_disabled": 0, "fusion_lon": 0.0, "type": "electric_scooter", "lon": -77.04866333333334}, {"rental_uris": {"android": "https://dc.lft.to/lastmile_qr_scan", "ios": "https://dc.lft.to/lastmile_qr_scan"}, "fusion_lat": 0.0, "is_reserved": 0, "lat": 38.94202083333333, "name": "f70a0e0ef1d58765b9c11690ff9152c1", "bike_id": "f70a0e0ef1d58765b9c11690ff9152c1", "is_disabled": 0, "fusion_lon": 0.0, "type": "electric_scooter", "lon": -77.02377666666666}, {"rental_uris": {"android": "https://dc.lft.to/lastmile_qr_scan", "ios": "https://dc.lft.to/lastmile_qr_scan"}, "fusion_lat": 0.0, "is_reserved": 0, "lat": 38.904398666666665, "name": "9d0513a36e439a6c29292bd6eea5657a", "bike_id": "9d0513a36e439a6c29292bd6eea5657a", "is_disabled": 0, "fusion_lon": 0.0, "type": "electric_scooter", "lon": -77.0180295}, {"rental_uris": {"android": "https://dc.lft.to/lastmile_qr_scan", "ios": "https://dc.lft.to/lastmile_qr_scan"}, "fusion_lat": 0.0, "is_reserved": 0, "lat": 38.913313333333335, "name": "cda9c83e0c112b4b177350457b7eb6e8", "bike_id": "cda9c83e0c112b4b177350457b7eb6e8", "is_disabled": 0, "fusion_lon": 0.0, "type": "electric_scooter", "lon": -77.01150183333333}, {"rental_uris": {"android": "https://dc.lft.to/lastmile_qr_scan", "ios": "https://dc.lft.to/lastmile_qr_scan"}, "fusion_lat": 0.0, "is_reserved": 0, "lat": 38.90474533333333, "name": "fd507d6692b848d7111433ee2394c97e", "bike_id": "fd507d6692b848d7111433ee2394c97e", "is_disabled": 0, "fusion_lon": 0.0, "type": "electric_scooter", "lon": -77.03577633333333}, {"rental_uris": {"android": "https://dc.lft.to/lastmile_qr_scan", "ios": "https://dc.lft.to/lastmile_qr_scan"}, "fusion_lat": 0.0, "is_reserved": 0, "lat": 38.8972715, "name": "27b86b54cbb432b1a03a6be016b766a8", "bike_id": "27b86b54cbb432b1a03a6be016b766a8", "is_disabled": 0, "fusion_lon": 0.0, "type": "electric_scooter", "lon": -77.05526316666666}, {"rental_uris": {"android": "https://dc.lft.to/lastmile_qr_scan", "ios": "https://dc.lft.to/lastmile_qr_scan"}, "fusion_lat": 0.0, "is_reserved": 0, "lat": 38.932654166666666, "name": "53009d8f5fb8748e7867abb723704bf2", "bike_id": "53009d8f5fb8748e7867abb723704bf2", "is_disabled": 0, "fusion_lon": 0.0, "type": "electric_scooter", "lon": -77.0209335}, {"rental_uris": {"android": "https://dc.lft.to/lastmile_qr_scan", "ios": "https://dc.lft.to/lastmile_qr_scan"}, "fusion_lat": 0.0, "is_reserved": 0, "lat": 38.92127083333333, "name": "085e98c2b57301eb9fd4de4d0649caca", "bike_id": "085e98c2b57301eb9fd4de4d0649caca", "is_disabled": 0, "fusion_lon": 0.0, "type": "electric_scooter", "lon": -77.03661066666666}, {"rental_uris": {"android": "https://dc.lft.to/lastmile_qr_scan", "ios": "https://dc.lft.to/lastmile_qr_scan"}, "fusion_lat": 0.0, "is_reserved": 0, "lat": 38.905694833333335, "name": "026e6f71b306ab8b760c5a45305f682f", "bike_id": "026e6f71b306ab8b760c5a45305f682f", "is_disabled": 0, "fusion_lon": 0.0, "type": "electric_scooter", "lon": -77.046721}, {"rental_uris": {"android": "https://dc.lft.to/lastmile_qr_scan", "ios": "https://dc.lft.to/lastmile_qr_scan"}, "fusion_lat": 0.0, "is_reserved": 0, "lat": 38.902784, "name": "e050102549ad4cd91f5bcbb3d941122b", "bike_id": "e050102549ad4cd91f5bcbb3d941122b", "is_disabled": 0, "fusion_lon": 0.0, "type": "electric_scooter", "lon": -77.0183125}, {"rental_uris": {"android": "https://dc.lft.to/lastmile_qr_scan", "ios": "https://dc.lft.to/lastmile_qr_scan"}, "fusion_lat": 0.0, "is_reserved": 0, "lat": 38.91355566666667, "name": "e802d6376b06d3a719eb496781ef2ec5", "bike_id": "e802d6376b06d3a719eb496781ef2ec5", "is_disabled": 0, "fusion_lon": 0.0, "type": "electric_scooter", "lon": -77.03357233333334}, {"rental_uris": {"android": "https://dc.lft.to/lastmile_qr_scan", "ios": "https://dc.lft.to/lastmile_qr_scan"}, "fusion_lat": 0.0, "is_reserved": 0, "lat": 38.910352, "name": "82f6ad4f2f85277197dffb84482addd5", "bike_id": "82f6ad4f2f85277197dffb84482addd5", "is_disabled": 0, "fusion_lon": 0.0, "type": "electric_scooter", "lon": -77.0292705}, {"rental_uris": {"android": "https://dc.lft.to/lastmile_qr_scan", "ios": "https://dc.lft.to/lastmile_qr_scan"}, "fusion_lat": 0.0, "is_reserved": 0, "lat": 38.92480666666667, "name": "2b83ac2d6203dba87fb493e4e667457e", "bike_id": "2b83ac2d6203dba87fb493e4e667457e", "is_disabled": 0, "fusion_lon": 0.0, "type": "electric_scooter", "lon": -77.03825216666667}, {"rental_uris": {"android": "https://dc.lft.to/lastmile_qr_scan", "ios": "https://dc.lft.to/lastmile_qr_scan"}, "fusion_lat": 0.0, "is_reserved": 0, "lat": 38.945375166666665, "name": "4a89f955779e53975a05de706b854b49", "bike_id": "4a89f955779e53975a05de706b854b49", "is_disabled": 0, "fusion_lon": 0.0, "type": "electric_bike", "lon": -77.34456916666667}, {"rental_uris": {"android": "https://dc.lft.to/lastmile_qr_scan", "ios": "https://dc.lft.to/lastmile_qr_scan"}, "fusion_lat": 0.0, "is_reserved": 0, "lat": 38.905500833333335, "name": "fd455a3e2824a7e74c3f6428911dd601", "bike_id": "fd455a3e2824a7e74c3f6428911dd601", "is_disabled": 0, "fusion_lon": 0.0, "type": "electric_scooter", "lon": -77.0271645}, {"rental_uris": {"android": "https://dc.lft.to/lastmile_qr_scan", "ios": "https://dc.lft.to/lastmile_qr_scan"}, "fusion_lat": 0.0, "is_reserved": 0, "lat": 38.9053195, "name": "5e259f1e9d7183df297963991bd16dcd", "bike_id": "5e259f1e9d7183df297963991bd16dcd", "is_disabled": 0, "fusion_lon": 0.0, "type": "electric_scooter", "lon": -77.04037133333334}, {"rental_uris": {"android": "https://dc.lft.to/lastmile_qr_scan", "ios": "https://dc.lft.to/lastmile_qr_scan"}, "fusion_lat": 0.0, "is_reserved": 0, "lat": 38.904266, "name": "16c9ded83096417e5ebf85fe433dc032", "bike_id": "16c9ded83096417e5ebf85fe433dc032", "is_disabled": 0, "fusion_lon": 0.0, "type": "electric_scooter", "lon": -77.00608583333333}, {"rental_uris": {"android": "https://dc.lft.to/lastmile_qr_scan", "ios": "https://dc.lft.to/lastmile_qr_scan"}, "fusion_lat": 0.0, "is_reserved": 0, "lat": 38.886594, "name": "7f83390184a5da9ff08b4d28fbc7d82d", "bike_id": "7f83390184a5da9ff08b4d28fbc7d82d", "is_disabled": 0, "fusion_lon": 0.0, "type": "electric_scooter", "lon": -76.93674866666667}, {"rental_uris": {"android": "https://dc.lft.to/lastmile_qr_scan", "ios": "https://dc.lft.to/lastmile_qr_scan"}, "fusion_lat": 0.0, "is_reserved": 0, "lat": 38.86500766666666, "name": "6b737ab4baed119204bc9f94d7613fda", "bike_id": "6b737ab4baed119204bc9f94d7613fda", "is_disabled": 0, "fusion_lon": 0.0, "type": "electric_scooter", "lon": -76.980641},