{"data": {"bikes": [{"is_disabled": 0, "fusion_lon": 0.0, "fusion_lat": 0.0, "lat": 38.942712, "type": "electric_scooter", "lon": -77.032593, "bike_id": "3a876d89f26951e7b14474dd659be158", "rental_uris": {"android": "https://dc.lft.to/lastmile_qr_scan", "ios": "https://dc.lft.to/lastmile_qr_scan"}, "name": "3a876d89f26951e7b14474dd659be158", "is_reserved": 0}, {"is_disabled": 0, "fusion_lon": 0.0, "fusion_lat": 0.0, "lat": 38.900189166666664, "type": "electric_scooter", "lon": -77.004765, "bike_id": "cc5d863afce12d267cbe58705a90a2ad", "rental_uris": {"android": "https://dc.lft.to/lastmile_qr_scan", "ios": "https://dc.lft.to/lastmile_qr_scan"}, "name": "cc5d863afce12d267cbe58705a90a2ad", "is_reserved": 0}, {"is_disabled": 0, "fusion_lon": 0.0, "fusion_lat": 0.0, "lat": 39.02997216666667, "type": "electric_bike", "lon": -77.1065405, "bike_id": "70962cba683fa4283dbd96ff7541b1b9", "rental_uris": {"android": "https://dc.lft.to/lastmile_qr_scan", "ios": "https://dc.lft.to/lastmile_qr_scan"}, "name": "70962cba683fa4283dbd96ff7541b1b9", "is_reserved": 0}, {"is_disabled": 0, "fusion_lon": 0.0, "fusion_lat": 0.0, "lat": 38.85091416666667, "type": "electric_bike", "lon": -76.9570105, "bike_id": "cfaeb0ab43209b2389c44590cbfefe04", "rental_uris": {"android": "https://dc.lft.to/lastmile_qr_scan", "ios": "https://dc.lft.to/lastmile_qr_scan"}, "name": "cfaeb0ab43209b2389c44590cbfefe04", "is_reserved": 0}, {"is_disabled": 0, "fusion_lon": 0.0, "fusion_lat": 0.0, "lat": 38.9088235, "type": "electric_bike", "lon": -77.0435245, "bike_id": "20285546a56e924fdd7f69f65c294cf7", "rental_uris": {"android": "https://dc.lft.to/lastmile_qr_scan", "ios": "https://dc.lft.to/lastmile_qr_scan"}, "name": "20285546a56e924fdd7f69f65c294cf7", "is_reserved": 0}, {"is_disabled": 0, "fusion_lon": 0.0, "fusion_lat": 0.0, "lat": 38.9645035, "type": "electric_bike", "lon": -76.97724433333333, "bike_id": "8270ab84b1e01bdbb86d0e89ce7f87f7", "rental_uris": {"android": "https://dc.lft.to/lastmile_qr_scan", "ios": "https://dc.lft.to/lastmile_qr_scan"}, "name": "8270ab84b1e01bdbb86d0e89ce7f87f7", "is_reserved": 0}, {"is_disabled": 0, "fusion_lon": 0.0, "fusion_lat": 0.0, "lat": 38.95204416666667, "type": "electric_scooter", "lon": -77.02735166666666, "bike_id": "2510fa4ded007a6682591bef336c10f0", "rental_uris": {"android": "https://dc.lft.to/lastmile_qr_scan", "ios": "https://dc.lft.to/lastmile_qr_scan"}, "name": "2510fa4ded007a6682591bef336c10f0", "is_reserved": 0}, {"is_disabled": 0, "fusion_lon": 0.0, "fusion_lat": 0.0, "lat": 38.921538166666664, "type": "electric_scooter", "lon": -77.02976433333333, "bike_id": "3774b8e2b3b7edf11c1cf1daa0483ac1", "rental_uris": {"android": "https://dc.lft.to/lastmile_qr_scan", "ios": "https://dc.lft.to/lastmile_qr_scan"}, "name": "3774b8e2b3b7edf11c1cf1daa0483ac1", "is_reserved": 0}, {"is_disabled": 0, "fusion_lon": 0.0, "fusion_lat": 0.0, "lat": 38.899082, "type": "electric_scooter", "lon": -76.93394666666667, "bike_id": "b6db718d59cd8a075d4fdef22b24cbd5", "rental_uris": {"android": "https://dc.lft.to/lastmile_qr_scan", "ios": "https://dc.lft.to/lastmile_qr_scan"}, "name": "b6db718d59cd8a075d4fdef22b24cbd5", "is_reserved": 0}, {"is_disabled": 0, "fusion_lon": 0.0, "fusion_lat": 0.0, "lat": 38.90576133333333, "type": "electric_scooter", "lon": -77.0418845, "bike_id": "495fac4cfeb99a7378891745df74cdc9", "rental_uris": {"android": "https://dc.lft.to/lastmile_qr_scan", "ios": "https://dc.lft.to/lastmile_qr_scan"}, "name": "495fac4cfeb99a7378891745df74cdc9", "is_reserved": 0}, {"is_disabled": 0, "fusion_lon": 0.0, "fusion_lat": 0.0, "lat": 38.87878366666666, "type": "electric_scooter", "lon": -77.00778933333333, "bike_id": "fc27d566f6199f1f7fcadb8d500ab24d", "rental_uris": {"android": "https://dc.lft.to/lastmile_qr_scan", "ios": "https://dc.lft.to/lastmile_qr_scan"}, "name": "fc27d566f6199f1f7fcadb8d500ab24d", "is_reserved": 0}, {"is_disabled": 0, "fusion_lon": 0.0, "fusion_lat": 0.0, "lat": 38.92555516666667, "type": "electric_scooter", "lon": -77.03798066666667, "bike_id": "f3b97984e98b418fe9402a7c0236a402", "rental_uris": {"android": "https://dc.lft.to/lastmile_qr_scan", "ios": "https://dc.lft.to/lastmile_qr_scan"}, "name": "f3b97984e98b418fe9402a7c0236a402", "is_reserved": 0}, {"is_disabled": 0, "fusion_lon": 0.0, "fusion_lat": 0.0, "lat": 38.898847333333336, "type": "electric_scooter", "lon": -77.03966916666667, "bike_id": "8002f3b17c31bbd0999347e62427943d", "rental_uris": {"android": "https://dc.lft.to/lastmile_qr_scan", "ios": "https://dc.lft.to/lastmile_qr_scan"}, "name": "8002f3b17c31bbd0999347e62427943d", "is_reserved": 0}, {"is_disabled": 0, "fusion_lon": 0.0, "fusion_lat": 0.0, "lat": 38.91552983333333, "type": "electric_scooter", "lon": -77.038845, "bike_id": "a90c19dabfa1b4e4540f41a59a9125e8", "rental_uris": {"android": "https://dc.lft.to/lastmile_qr_scan", "ios": "https://dc.lft.to/lastmile_qr_scan"}, "name": "a90c19dabfa1b4e4540f41a59a9125e8", "is_reserved": 0}, {"is_disabled": 0, "fusion_lon": 0.0, "fusion_lat": 0.0, "lat": 38.91907533333333, "type": "electric_scooter", "lon": -77.03184733333333, "bike_id": "81f70af0350d938b8be75de42ab4119b", "rental_uris": {"android": "https://dc.lft.to/lastmile_qr_scan", "ios": "https://dc.lft.to/lastmile_qr_scan"}, "name": "81f70af0350d938b8be75de42ab4119b", "is_reserved": 0}, {"is_disabled": 0, "fusion_lon": 0.0, "fusion_lat": 0.0, "lat": 38.92320083333333, "type": "electric_scooter", "lon": -77.04209616666667, "bike_id": "23080e0047a267f0c45f7b8c963cb37c", "rental_uris": {"android": "https://dc.lft.to/lastmile_qr_scan", "ios": "https://dc.lft.to/lastmile_qr_scan"}, "name": "23080e0047a267f0c45f7b8c963cb37c", "is_reserved": 0}, {"is_disabled": 0, "fusion_lon": 0.0, "fusion_lat": 0.0, "lat": 38.878355666666664, "type": "electric_scooter", "lon": -76.98351633333333, "bike_id": "eecf39937530651923f6c23dba53b15e", "rental_uris": {"android": "https://dc.lft.to/lastmile_qr_scan", "ios": "https://dc.lft.to/lastmile_qr_scan"}, "name": "eecf39937530651923f6c23dba53b15e", "is_reserved": 0}, {"is_disabled": 0, "fusion_lon": 0.0, "fusion_lat": 0.0, "lat": 38.90491083333333, "type": "electric_scooter", "lon": -76.97329066666667, "bike_id": "947f8a4655bb56dcf201e19d753c04ea", "rental_uris": {"android": "https://dc.lft.to/lastmile_qr_scan", "ios": "https://dc.lft.to/lastmile_qr_scan"}, "name": "947f8a4655bb56dcf201e19d753c04ea", "is_reserved": 0}, {"is_disabled": 0, "fusion_lon": 0.0, "fusion_lat": 0.0, "lat": 38.90043083333333, "type": "electric_scooter", "lon": -76.988383, "bike_id": "26eaedafdef651c6d0b78f70a0958666", "rental_uris": {"android": "https://dc.lft.to/lastmile_qr_scan", "ios": "https://dc.lft.to/lastmile_qr_scan"}, "name": "26eaedafdef651c6d0b78f70a0958666", "is_reserved": 0}, {"is_disabled": 0, "fusion_lon": 0.0, "fusion_lat": 0.0, "lat": 38.90837533333333, "type": "electric_scooter", "lon": -77.0433635, "bike_id": "fa2e3b495aca54ed61f5b793af76f85f", "rental_uris": {"android": "https://dc.lft.to/lastmile_qr_scan", "ios": "https://dc.lft.to/lastmile_qr_scan"}, "name": "fa2e3b495aca54ed61f5b793af76f85f", "is_reserved": 0}, {"is_disabled": 0, "fusion_lon": 0.0, "fusion_lat": 0.0, "lat": 38.93416716666667, "type": "electric_scooter", "lon": -77.0427545, "bike_id": "7e2fed1fd3914be28feddaeec581de08", "rental_uris": {"android": "https://dc.lft.to/lastmile_qr_scan", "ios": "https://dc.lft.to/lastmile_qr_scan"}, "name": "7e2fed1fd3914be28feddaeec581de08", "is_reserved": 0}, {"is_disabled": 0, "fusion_lon": 0.0, "fusion_lat": 0.0, "lat": 38.985028, "type": "electric_bike", "lon": -76.982091, "bike_id": "b3168ce76776b1e5bb82d6b519a64e90", "rental_uris": {"android": "https://dc.lft.to/lastmile_qr_scan", "ios": "https://dc.lft.to/lastmile_qr_scan"}, "name": "b3168ce76776b1e5bb82d6b519a64e90", "is_reserved": 0}, {"is_disabled": 0, "fusion_lon": 0.0, "fusion_lat": 0.0, "lat": 38.9049025, "type": "electric_scooter", "lon": -77.019796, "bike_id": "852d86e457fde18661debca0f320a6b0", "rental_uris": {"android": "https://dc.lft.to/lastmile_qr_scan", "ios": "https://dc.lft.to/lastmile_qr_scan"}, "name": "852d86e457fde18661debca0f320a6b0", "is_reserved": 0}, {"is_disabled": 0, "fusion_lon": 0.0, "fusion_lat": 0.0, "lat": 38.918356, "type": "electric_scooter", "lon": -77.03440366666666, "bike_id": "ec5cb23591a142d3061c87ec8a37b4f9", "rental_uris": {"android": "https://dc.lft.to/lastmile_qr_scan", "ios": "https://dc.lft.to/lastmile_qr_scan"}, "name": "ec5cb23591a142d3061c87ec8a37b4f9", "is_reserved": 0}, {"is_disabled": 0, "fusion_lon": 0.0, "fusion_lat": 0.0, "lat": 38.9286675, "type": "electric_scooter", "lon": -77.03422833333333, "bike_id": "e8684b0f1b1eaa0127a84afd241c1010", "rental_uris": {"android": "https://dc.lft.to/lastmile_qr_scan", "ios": "https://dc.lft.to/lastmile_qr_scan"}, "name": "e8684b0f1b1eaa0127a84afd241c1010", "is_reserved": 0}, {"is_disabled": 0, "fusion_lon": 0.0, "fusion_lat": 0.0, "lat": 38.90783366666667, "type": "electric_scooter", "lon": -77.0319225, "bike_id": "e8c0bddeaef0dcb3d32708f76f737463", "rental_uris": {"android": "https://dc.lft.to/lastmile_qr_scan", "ios": "https://dc.lft.to/lastmile_qr_scan"}, "name": "e8c0bddeaef0dcb3d32708f76f737463", "is_reserved": 0}, {"is_disabled": 0, "fusion_lon": 0.0, "fusion_lat": 0.0, "lat": 38.970494333333335, "type": "electric_bike", "lon": -77.03083033333333, "bike_id": "eeb0caed24f656c955601ffc49789d23", "rental_uris": {"android": "https://dc.lft.to/lastmile_qr_scan", "ios": "https://dc.lft.to/lastmile_qr_scan"}, "name": "eeb0caed24f656c955601ffc49789d23", "is_reserved": 0}, {"is_disabled": 0, "fusion_lon": 0.0, "fusion_lat": 0.0, "lat": 38.916629, "type": "electric_scooter", "lon": -77.02709916666667, "bike_id": "fee542a4dacb4c41bcb337bdd5f3bf9e", "rental_uris": {"android": "https://dc.lft.to/lastmile_qr_scan", "ios": "https://dc.lft.to/lastmile_qr_scan"}, "name": "fee542a4dacb4c41bcb337bdd5f3bf9e", "is_reserved": 0}, {"is_disabled": 0, "fusion_lon": 0.0, "fusion_lat": 0.0, "lat": 38.9126545, "type": "electric_scooter", "lon": -77.01139116666667, "bike_id": "d326e3d74604a99bb75189bf70a85e94", "rental_uris": {"android": "https://dc.lft.to/lastmile_qr_scan", "ios": "https://dc.lft.to/lastmile_qr_scan"}, "name": "d326e3d74604a99bb75189bf70a85e94", "is_reserved": 0}, {"is_disabled": 0, "fusion_lon": 0.0, "fusion_lat": 0.0, "lat": 38.91648, "type": "electric_scooter", "lon": -77.04778983333334, "bike_id": "c3b7bf982ccd6e9fa9573c58b47b7bcf", "rental_uris": {"android": "https://dc.lft.to/lastmile_qr_scan", "ios": "https://dc.lft.to/lastmile_qr_scan"}, "name": "c3b7bf982ccd6e9fa9573c58b47b7bcf", "is_reserved": 0}, {"is_disabled": 0, "fusion_lon": 0.0, "fusion_lat": 0.0, "lat": 38.91319583333333, "type": "electric_scooter", "lon": -77.031999, "bike_id": "cffb96d38fa8da6c90fd00f33c34e52f", "rental_uris": {"android": "https://dc.lft.to/lastmile_qr_scan", "ios": "https://dc.lft.to/lastmile_qr_scan"}, "name": "cffb96d38fa8da6c90fd00f33c34e52f", "is_reserved": 0}, {"is_disabled": 0, "fusion_lon": 0.0, "fusion_lat": 0.0, "lat": 38.90661933333333, "type": "electric_scooter", "lon": -77.02702933333333, "bike_id": "8f11e266e336324aa9b2d631580ff1f3", "rental_uris": {"android": "https://dc.lft.to/lastmile_qr_scan", "ios": "https://dc.lft.to/lastmile_qr_scan"}, "name": "8f11e266e336324aa9b2d631580ff1f3", "is_reserved": 0}, {"is_disabled": 0, "fusion_lon": 0.0, "fusion_lat": 0.0, "lat": 38.861664833333336, "type": "electric_scooter", "lon": -76.96810216666667, "bike_id": "78fef06e2046f47491301867839277ea", "rental_uris": {"android": "https://dc.lft.to/lastmile_qr_scan", "ios": "https://dc.lft.to/lastmile_qr_scan"}, "name": "78fef06e2046f47491301867839277ea", "is_reserved": 0}, {"is_disabled": 0, "fusion_lon": 0.0, "fusion_lat": 0.0, "lat": 38.9143, "type": "electric_scooter", "lon": -77.02958983333333, "bike_id": "562b92fe32d1c4a3fa14ae3be70b7bdd", "rental_uris": {"android": "https://dc.lft.to/lastmile_qr_scan", "ios": "https://dc.lft.to/lastmile_qr_scan"}, "name": "562b92fe32d1c4a3fa14ae3be70b7bdd", "is_reserved": 0}, {"is_disabled": 0, "fusion_lon": 0.0, "fusion_lat": 0.0, "lat": 38.85038983333333, "type": "electric_bike", "lon": -77.1010775, "bike_id": "c24bef4cd23c4e3c350ba27fae11dda3", "rental_uris": {"android": "https://dc.lft.to/lastmile_qr_scan", "ios": "https://dc.lft.to/lastmile_qr_scan"}, "name": "c24bef4cd23c4e3c350ba27fae11dda3", "is_reserved": 0}, {"is_disabled": 0, "fusion_lon": 0.0, "fusion_lat": 0.0, "lat": 38.902436333333334, "type": "electric_bike", "lon": -76.970175, "bike_id": "0c2baa618ac86d7dc77336f542871c81", "rental_uris": {"android": "https://dc.lft.to/lastmile_qr_scan", "ios": "https://dc.lft.to/lastmile_qr_scan"}, "name": "0c2baa618ac86d7dc77336f542871c81", "is_reserved": 0}, {"is_disabled": 0, "fusion_lon": 0.0, "fusion_lat": 0.0, "lat": 38.8968125, "type": "electric_scooter", "lon": -76.97618833333334, "bike_id": "0bdfd21ee95d525ccdb9c3bcd5a2ecc2", "rental_uris": {"android": "https://dc.lft.to/lastmile_qr_scan", "ios": "https://dc.lft.to/lastmile_qr_scan"}, "name": "0bdfd21ee95d525ccdb9c3bcd5a2ecc2", "is_reserved": 0}, {"is_disabled": 0, "fusion_lon": 0.0, "fusion_lat": 0.0, "lat": 38.876249, "type": "electric_scooter", "lon": -76.96536183333333, "bike_id": "5c7fa1c8f0f11a5b9e50837bdd25cb95", "rental_uris": {"android": "https://dc.lft.to/lastmile_qr_scan", "ios": "https://dc.lft.to/lastmile_qr_scan"}, "name": "5c7fa1c8f0f11a5b9e50837bdd25cb95", "is_reserved": 0}, {"is_disabled": 0, "fusion_lon": 0.0, "fusion_lat": 0.0, "lat": 38.928308, "type": "electric_scooter", "lon": -77.02149483333334, "bike_id": "af19bad8c3062d3b9ffae5c2e3a574a9", "rental_uris": {"android": "https://dc.lft.to/lastmile_qr_scan", "ios": "https://dc.lft.to/lastmile_qr_scan"}, "name": "af19bad8c3062d3b9ffae5c2e3a574a9", "is_reserved": 0}, {"is_disabled": 0, "fusion_lon": 0.0, "fusion_lat": 0.0, "lat": 38.914599, "type": "electric_scooter", "lon": -77.02191416666666, "bike_id": "fbd2c2e6a4dc7214a5b000ed1c0a7227", "rental_uris": {"android": "https://dc.lft.to/lastmile_qr_scan", "ios": "https://dc.lft.to/lastmile_qr_scan"}, "name": "fbd2c2e6a4dc7214a5b000ed1c0a7227", "is_reserved": 0}, {"is_disabled": 0, "fusion_lon": 0.0, "fusion_lat": 0.0, "lat": 38.89747166666667, "type": "electric_scooter", "lon": -77.046841, "bike_id": "f5cdf10a95dc54a519f03755f1531e9b", "rental_uris": {"android": "https://dc.lft.to/lastmile_qr_scan", "ios": "https://dc.lft.to/lastmile_qr_scan"}, "name": "f5cdf10a95dc54a519f03755f1531e9b", "is_reserved": 0}, {"is_disabled": 0, "fusion_lon": 0.0, "fusion_lat": 0.0, "lat": 38.90028616666667, "type": "electric_scooter", "lon": -77.0559115, "bike_id": "ff20a653b23eff9f4985fb7870771039", "rental_uris": {"android": "https://dc.lft.to/lastmile_qr_scan", "ios": "https://dc.lft.to/lastmile_qr_scan"}, "name": "ff20a653b23eff9f4985fb7870771039", "is_reserved": 0}, {"is_disabled": 0, "fusion_lon": 0.0, "fusion_lat": 0.0, "lat": 38.93083583333333, "type": "electric_scooter", "lon": -77.03773233333334, "bike_id": "b392b4f4440c2b717572163367691f92", "rental_uris": {"android": "https://dc.lft.to/lastmile_qr_scan", "ios": "https://dc.lft.to/lastmile_qr_scan"}, "name": "b392b4f4440c2b717572163367691f92", "is_reserved": 0}, {"is_disabled": 0, "fusion_lon": 0.0, "fusion_lat": 0.0, "lat": 38.8360305, "type": "electric_scooter", "lon": -77.0036175, "bike_id": "74c9f48ef52ef6aabf5094769580b3a8", "rental_uris": {"android": "https://dc.lft.to/lastmile_qr_scan", "ios": "https://dc.lft.to/lastmile_qr_scan"}, "name": "74c9f48ef52ef6aabf5094769580b3a8", "is_reserved": 0}, {"is_disabled": 0, "fusion_lon": 0.0, "fusion_lat": 0.0, "lat": 38.928340666666664, "type": "electric_scooter", "lon": -77.01402133333333, "bike_id": "db6c5c77af83e74c3868899af552cf4c", "rental_uris": {"android": "https://dc.lft.to/lastmile_qr_scan", "ios": "https://dc.lft.to/lastmile_qr_scan"}, "name": "db6c5c77af83e74c3868899af552cf4c", "is_reserved": 0}, {"is_disabled": 0, "fusion_lon": 0.0, "fusion_lat": 0.0, "lat": 38.96760966666667, "type": "electric_bike", "lon": -77.09162166666667, "bike_id": "70e411306996fcc92437ec8149e69604", "rental_uris": {"android": "https://dc.lft.to/lastmile_qr_scan", "ios": "https://dc.lft.to/lastmile_qr_scan"}, "name": "70e411306996fcc92437ec8149e69604", "is_reserved": 0}, {"is_disabled": 0, "fusion_lon": 0.0, "fusion_lat": 0.0, "lat": 38.91593666666667, "type": "electric_scooter", "lon": -77.04681333333333, "bike_id": "3e766d292c0d9aab5885591d9a5dfb1f", "rental_uris": {"android": "https://dc.lft.to/lastmile_qr_scan", "ios": "https://dc.lft.to/lastmile_qr_scan"}, "name": "3e766d292c0d9aab5885591d9a5dfb1f", "is_reserved": 0}, {"is_disabled": 0, "fusion_lon": 0.0, "fusion_lat": 0.0, "lat": 38.93125, "type": "electric_scooter", "lon": -77.02265416666667, "bike_id": "18884e0d2f26247ce249c1740f227634", "rental_uris": {"android": "https://dc.lft.to/lastmile_qr_scan", "ios": "https://dc.lft.to/lastmile_qr_scan"}, "name": "18884e0d2f26247ce249c1740f227634", "is_reserved": 0}, {"is_disabled": 0, "fusion_lon": 0.0, "fusion_lat": 0.0, "lat": 38.857913833333335, "type": "electric_bike", "lon": -77.0996585, "bike_id": "70a0d1cee5bf36bdb635938608631af9", "rental_uris": {"android": "https://dc.lft.to/lastmile_qr_scan", "ios": "https://dc.lft.to/lastmile_qr_scan"}, "name": "70a0d1cee5bf36bdb635938608631af9", "is_reserved": 0}, {"is_disabled": 0, "fusion_lon": 0.0, "fusion_lat": 0.0, "lat": 38.916281, "type": "electric_scooter", "lon": -77.033683, "bike_id": "f74db64e0bca7cfc2406a11350f00cc8", "rental_uris": {"android": "https://dc.lft.to/lastmile_qr_scan", "ios": "https://dc.lft.to/lastmile_qr_scan"}, "name": "f74db64e0bca7cfc2406a11350f00cc8", "is_reserved": 0}, {"is_disabled": 0, "fusion_lon": 0.0, "fusion_lat": 0.0, "lat": 38.887429, "type": "electric_scooter", "lon": -77.021628, "bike_id": "67fd78cad579f6258bfbbd3f760975bf", "rental_uris": {"android": "https://dc.lft.to/lastmile_qr_scan", "ios": "https://dc.lft.to/lastmile_qr_scan"}, "name": "67fd78cad579f6258bfbbd3f760975bf", "is_reserved": 0}, {"is_disabled": 0, "fusion_lon": 0.0, "fusion_lat": 0.0, "lat": 38.9148355, "type": "electric_scooter", "lon": -76.98360783333334, "bike_id": "9b90fa46e9e2256bae60c49ef975b56a", "rental_uris": {"android": "https://dc.lft.to/lastmile_qr_scan", "ios": "https://dc.lft.to/lastmile_qr_scan"}, "name": "9b90fa46e9e2256bae60c49ef975b56a", "is_reserved": 0}, {"is_disabled": 0, "fusion_lon": 0.0, "fusion_lat": 0.0, "lat": 38.93612566666667, "type": "electric_scooter", "lon": -77.037275, "bike_id": "63c9c09624db672a83a3f51a351ddfa1", "rental_uris": {"android": "https://dc.lft.to/lastmile_qr_scan", "ios": "https://dc.lft.to/lastmile_qr_scan"}, "name": "63c9c09624db672a83a3f51a351ddfa1", "is_reserved": 0}, {"is_disabled": 0, "fusion_lon": 0.0, "fusion_lat": 0.0, "lat": 38.85807533333333, "type": "electric_scooter", "lon": -76.98656483333333, "bike_id": "fbf2c3739a221c975987440d12903d5e", "rental_uris": {"android": "https://dc.lft.to/lastmile_qr_scan", "ios": "https://dc.lft.to/lastmile_qr_scan"}, "name": "fbf2c3739a221c975987440d12903d5e", "is_reserved": 0}, {"is_disabled": 0, "fusion_lon": 0.0, "fusion_lat": 0.0, "lat": 38.9003045, "type": "electric_scooter", "lon": -77.04684866666666, "bike_id": "d67cbb1d474785447f6dd2233cb992aa", "rental_uris": {"android": "https://dc.lft.to/lastmile_qr_scan", "ios": "https://dc.lft.to/lastmile_qr_scan"}, "name": "d67cbb1d474785447f6dd2233cb992aa", "is_reserved": 0}, {"is_disabled": 0, "fusion_lon": 0.0, "fusion_lat": 0.0, "lat": 38.90762516666667, "type": "electric_scooter", "lon": -77.03445733333334, "bike_id": "6d7be2a8f2ca8aea2b01f86013a37753", "rental_uris": {"android": "https://dc.lft.to/lastmile_qr_scan", "ios": "https://dc.lft.to/lastmile_qr_scan"}, "name": "6d7be2a8f2ca8aea2b01f86013a37753", "is_reserved": 0}, {"is_disabled": 0, "fusion_lon": 0.0, "fusion_lat": 0.0, "lat": 38.863347833333336, "type": "electric_scooter", "lon": -76.990557, "bike_id": "46503bd1b2ace36e5c93fc8e55932e59", "rental_uris": {"android": "https://dc.lft.to/lastmile_qr_scan", "ios": "https://dc.lft.to/lastmile_qr_scan"}, "name": "46503bd1b2ace36e5c93fc8e55932e59", "is_reserved": 0}, {"is_disabled": 0, "fusion_lon": 0.0, "fusion_lat": 0.0, "lat": 38.927378833333336, "type": "electric_bike", "lon": -76.99367033333333, "bike_id": "83d2714c93a9fe5e07efd7c61235fce5", "rental_uris": {"android": "https://dc.lft.to/lastmile_qr_scan", "ios": "https://dc.lft.to/lastmile_qr_scan"}, "name": "83d2714c93a9fe5e07efd7c61235fce5", "is_reserved": 0}, {"is_disabled": 0, "fusion_lon": 0.0, "fusion_lat": 0.0, "lat": 38.952273166666664, "type": "electric_scooter", "lon": -77.02761716666667, "bike_id": "aca5b1f1bd23a99680500be96a6cc5e3", "rental_uris": {"android": "https://dc.lft.to/lastmile_qr_scan", "ios": "https://dc.lft.to/lastmile_qr_scan"}, "name": "aca5b1f1bd23a99680500be96a6cc5e3", "is_reserved": 0}, {"is_disabled": 0, "fusion_lon": 0.0, "fusion_lat": 0.0, "lat": 38.902569166666666, "type": "electric_scooter", "lon": -77.034494, "bike_id": "7170a7a02f92ff7132da42f03f4b66b5", "rental_uris": {"android": "https://dc.lft.to/lastmile_qr_scan", "ios": "https://dc.lft.to/lastmile_qr_scan"}, "name": "7170a7a02f92ff7132da42f03f4b66b5", "is_reserved": 0}, {"is_disabled": 0, "fusion_lon": 0.0, "fusion_lat": 0.0, "lat": 38.906855166666666, "type": "electric_scooter", "lon": -77.03764116666666, "bike_id": "f52ad1b93140f4abe6d7b91d7d75046f", "rental_uris": {"android": "https://dc.lft.to/lastmile_qr_scan", "ios": "https://dc.lft.to/lastmile_qr_scan"}, "name": "f52ad1b93140f4abe6d7b91d7d75046f", "is_reserved": 0}, {"is_disabled": 0, "fusion_lon": 0.0, "fusion_lat": 0.0, "lat": 38.89995966666667, "type": "electric_scooter", "lon": -77.05564916666667, "bike_id": "f73af6c0e5918976a7821fd260212d6c", "rental_uris": {"android": "https://dc.lft.to/lastmile_qr_scan", "ios": "https://dc.lft.to/lastmile_qr_scan"}, "name": "f73af6c0e5918976a7821fd260212d6c", "is_reserved": 0}, {"is_disabled": 0, "fusion_lon": 0.0, "fusion_lat": 0.0, "lat": 38.920218166666665, "type": "electric_bike", "lon": -76.97306766666667, "bike_id": "cf2b68ebaac4bc99bcba9f3763b6a167", "rental_uris": {"android": "https://dc.lft.to/lastmile_qr_scan", "ios": "https://dc.lft.to/lastmile_qr_scan"}, "name": "cf2b68ebaac4bc99bcba9f3763b6a167", "is_reserved": 0}, {"is_disabled": 0, "fusion_lon": 0.0, "fusion_lat": 0.0, "lat": 38.90849033333333, "type": "electric_scooter", "lon": -77.04169116666667, "bike_id": "91a8b4544407454468044754deb59b8e", "rental_uris": {"android": "https://dc.lft.to/lastmile_qr_scan", "ios": "https://dc.lft.to/lastmile_qr_scan"}, "name": "91a8b4544407454468044754deb59b8e", "is_reserved": 0}, {"is_disabled": 0, "fusion_lon": 0.0, "fusion_lat": 0.0, "lat": 38.85987316666667, "type": "electric_scooter", "lon": -76.984151, "bike_id": "90efd202f949081b8bf643992f0fbf50", "rental_uris": {"android": "https://dc.lft.to/lastmile_qr_scan", "ios": "https://dc.lft.to/lastmile_qr_scan"}, "name": "90efd202f949081b8bf643992f0fbf50", "is_reserved": 0}, {"is_disabled": 0, "fusion_lon": 0.0, "fusion_lat": 0.0, "lat": 38.85069266666667, "type": "electric_bike", "lon": -76.9733735, "bike_id": "38e74c204b2c6428388e35265cf4ae3c", "rental_uris": {"android": "https://dc.lft.to/lastmile_qr_scan", "ios": "https://dc.lft.to/lastmile_qr_scan"}, "name": "38e74c204b2c6428388e35265cf4ae3c", "is_reserved": 0}, {"is_disabled": 0, "fusion_lon": 0.0, "fusion_lat": 0.0, "lat": 38.9351535, "type": "electric_scooter", "lon": -77.02378666666667, "bike_id": "a12274f9745d7ef8e7fef937a8d81417", "rental_uris": {"android": "https://dc.lft.to/lastmile_qr_scan", "ios": "https://dc.lft.to/lastmile_qr_scan"}, "name": "a12274f9745d7ef8e7fef937a8d81417", "is_reserved": 0}, {"is_disabled": 0, "fusion_lon": 0.0, "fusion_lat": 0.0, "lat": 38.89251183333333, "type": "electric_scooter", "lon": -77.02816216666666, "bike_id": "d87a46ee51afd440724d563178b6a5e3", "rental_uris": {"android": "https://dc.lft.to/lastmile_qr_scan", "ios": "https://dc.lft.to/lastmile_qr_scan"}, "name": "d87a46ee51afd440724d563178b6a5e3", "is_reserved": 0}, {"is_disabled": 0, "fusion_lon": 0.0, "fusion_lat": 0.0, "lat": 38.90977266666667, "type": "electric_scooter", "lon": -77.02180966666667, "bike_id": "5a91e64395432c1230c0938c5a3c1684", "rental_uris": {"android": "https://dc.lft.to/lastmile_qr_scan", "ios": "https://dc.lft.to/lastmile_qr_scan"}, "name": "5a91e64395432c1230c0938c5a3c1684", "is_reserved": 0}, {"is_disabled": 0, "fusion_lon": 0.0, "fusion_lat": 0.0, "lat": 38.881909, "type": "electric_scooter", "lon": -77.00351833333333, "bike_id": "e83bd33c31c7b7dfb3b72e4ce2069dd1", "rental_uris": {"android": "https://dc.lft.to/lastmile_qr_scan", "ios": "https://dc.lft.to/lastmile_qr_scan"}, "name": "e83bd33c31c7b7dfb3b72e4ce2069dd1", "is_reserved": 0}, {"is_disabled": 0, "fusion_lon": 0.0, "fusion_lat": 0.0, "lat": 38.893708333333336, "type": "electric_scooter", "lon": -76.94998083333333, "bike_id": "85f2d6084f3871c4ffd7560925246d29", "rental_uris": {"android": "https://dc.lft.to/lastmile_qr_scan", "ios": "https://dc.lft.to/lastmile_qr_scan"}, "name": "85f2d6084f3871c4ffd7560925246d29", "is_reserved": 0}, {"is_disabled": 0, "fusion_lon": 0.0, "fusion_lat": 0.0, "lat": 38.902496666666664, "type": "electric_scooter", "lon": -77.04550416666666, "bike_id": "f5b05c8370180a4dfa8e795690b2e98d", "rental_uris": {"android": "https://dc.lft.to/lastmile_qr_scan", "ios": "https://dc.lft.to/lastmile_qr_scan"}, "name": "f5b05c8370180a4dfa8e795690b2e98d", "is_reserved": 0}, {"is_disabled": 0, "fusion_lon": 0.0, "fusion_lat": 0.0, "lat": 38.91774816666667, "type": "electric_scooter", "lon": -77.01499383333334, "bike_id": "437aed988975b8659ea7efa7ec9c7351", "rental_uris": {"android": "https://dc.lft.to/lastmile_qr_scan", "ios": "https://dc.lft.to/lastmile_qr_scan"}, "name": "437aed988975b8659ea7efa7ec9c7351", "is_reserved": 0}, {"is_disabled": 0, "fusion_lon": 0.0, "fusion_lat": 0.0, "lat": 38.9345785, "type": "electric_scooter", "lon": -77.07235533333333, "bike_id": "e1289083c4b623d4d8323109375e305e", "rental_uris": {"android": "https://dc.lft.to/lastmile_qr_scan", "ios": "https://dc.lft.to/lastmile_qr_scan"}, "name": "e1289083c4b623d4d8323109375e305e", "is_reserved": 0}, {"is_disabled": 0, "fusion_lon": 0.0, "fusion_lat": 0.0, "lat": 38.9211, "type": "electric_scooter", "lon": -77.03183166666666, "bike_id": "d164c7f8bae4a2b8ff3a5bc75d8899f4", "rental_uris": {"android": "https://dc.lft.to/lastmile_qr_scan", "ios": "https://dc.lft.to/lastmile_qr_scan"}, "name": "d164c7f8bae4a2b8ff3a5bc75d8899f4", "is_reserved": 0}, {"is_disabled": 0, "fusion_lon": 0.0, "fusion_lat": 0.0, "lat": 38.928179, "type": "electric_scooter", "lon": -77.01401283333334, "bike_id": "820157a191ed7b1566fab21f50e46668", "rental_uris": {"android": "https://dc.lft.to/lastmile_qr_scan", "ios": "https://dc.lft.to/lastmile_qr_scan"}, "name": "820157a191ed7b1566fab21f50e46668", "is_reserved": 0}, {"is_disabled": 0, "fusion_lon": 0.0, "fusion_lat": 0.0, "lat": 38.90043766666667, "type": "electric_scooter", "lon": -76.9227295, "bike_id": "f6021b8e17cfcc72a408f690fbd6a02f", "rental_uris": {"android": "https://dc.lft.to/lastmile_qr_scan", "ios": "https://dc.lft.to/lastmile_qr_scan"}, "name": "f6021b8e17cfcc72a408f690fbd6a02f", "is_reserved": 0}, {"is_disabled": 0, "fusion_lon": 0.0, "fusion_lat": 0.0, "lat": 38.89563366666667, "type": "electric_scooter", "lon": -77.04671783333333, "bike_id": "ab876b3741022e40792602ba221c2ebe", "rental_uris": {"android": "https://dc.lft.to/lastmile_qr_scan", "ios": "https://dc.lft.to/lastmile_qr_scan"}, "name": "ab876b3741022e40792602ba221c2ebe", "is_reserved": 0}, {"is_disabled": 0, "fusion_lon": 0.0, "fusion_lat": 0.0, "lat": 38.91270266666667, "type": "electric_scooter", "lon": -77.02237233333334, "bike_id": "5918f6c0d9e9e192dc12d4d29a801ed9", "rental_uris": {"android": "https://dc.lft.to/lastmile_qr_scan", "ios": "https://dc.lft.to/lastmile_qr_scan"}, "name": "5918f6c0d9e9e192dc12d4d29a801ed9", "is_reserved": 0}, {"is_disabled": 0, "fusion_lon": 0.0, "fusion_lat": 0.0, "lat": 38.923698, "type": "electric_scooter", "lon": -77.02814016666666, "bike_id": "d9d2797bf59ead091c2dda8ee89a953e", "rental_uris": {"android": "https://dc.lft.to/lastmile_qr_scan", "ios": "https://dc.lft.to/lastmile_qr_scan"}, "name": "d9d2797bf59ead091c2dda8ee89a953e", "is_reserved": 0}, {"is_disabled": 0, "fusion_lon": 0.0, "fusion_lat": 0.0, "lat": 38.89530666666667, "type": "electric_scooter", "lon": -77.04316983333334, "bike_id": "7a315cd5e0a96da25f4c18b8492b718a", "rental_uris": {"android": "https://dc.lft.to/lastmile_qr_scan", "ios": "https://dc.lft.to/lastmile_qr_scan"}, "name": "7a315cd5e0a96da25f4c18b8492b718a", "is_reserved": 0}, {"is_disabled": 0, "fusion_lon": 0.0, "fusion_lat": 0.0, "lat": 38.918332166666666, "type": "electric_scooter", "lon": -77.034456, "bike_id": "e209d47f2aca118eeffb8ed542f9ab25", "rental_uris": {"android": "https://dc.lft.to/lastmile_qr_scan", "ios": "https://dc.lft.to/lastmile_qr_scan"}, "name": "e209d47f2aca118eeffb8ed542f9ab25", "is_reserved": 0}, {"is_disabled": 0, "fusion_lon": 0.0, "fusion_lat": 0.0, "lat": 38.94970283333333, "type": "electric_scooter", "lon": -77.06700683333334, "bike_id": "81e8b4741f0d47d5cb476b4c32321aac", "rental_uris": {"android": "https://dc.lft.to/lastmile_qr_scan", "ios": "https://dc.lft.to/lastmile_qr_scan"}, "name": "81e8b4741f0d47d5cb476b4c32321aac", "is_reserved": 0}, {"is_disabled": 0, "fusion_lon": 0.0, "fusion_lat": 0.0, "lat": 38.963059666666666, "type": "electric_bike", "lon": -77.01117366666666, "bike_id": "528a06a2f43fadbf9f5355e7b30af8e6", "rental_uris": {"android": "https://dc.lft.to/lastmile_qr_scan", "ios": "https://dc.lft.to/lastmile_qr_scan"}, "name": "528a06a2f43fadbf9f5355e7b30af8e6", "is_reserved": 0}, {"is_disabled": 0, "fusion_lon": 0.0, "fusion_lat": 0.0, "lat": 38.961294, "type": "electric_scooter", "lon": -77.08536466666666, "bike_id": "fd8a88a043244d2a4294c6da13a2eb66", "rental_uris": {"android": "https://dc.lft.to/lastmile_qr_scan", "ios": "https://dc.lft.to/lastmile_qr_scan"}, "name": "fd8a88a043244d2a4294c6da13a2eb66", "is_reserved": 0}, {"is_disabled": 0, "fusion_lon": 0.0, "fusion_lat": 0.0, "lat": 38.922640333333334, "type": "electric_scooter", "lon": -77.04136833333334, "bike_id": "e82f695b12c8206c8652cca75059373c", "rental_uris": {"android": "https://dc.lft.to/lastmile_qr_scan", "ios": "https://dc.lft.to/lastmile_qr_scan"}, "name": "e82f695b12c8206c8652cca75059373c", "is_reserved": 0}, {"is_disabled": 0, "fusion_lon": 0.0, "fusion_lat": 0.0, "lat": 38.939709666666666, "type": "electric_scooter", "lon": -77.03257533333333, "bike_id": "1cab2dbdc6cd05cd1582d6f2934744ab", "rental_uris": {"android": "https://dc.lft.to/lastmile_qr_scan", "ios": "https://dc.lft.to/lastmile_qr_scan"}, "name": "1cab2dbdc6cd05cd1582d6f2934744ab", "is_reserved": 0}, {"is_disabled": 0, "fusion_lon": 0.0, "fusion_lat": 0.0, "lat": 38.9166545, "type": "electric_scooter", "lon": -77.02712116666666, "bike_id": "c526eef2d8130e053f12faf9f02704bf", "rental_uris": {"android": "https://dc.lft.to/lastmile_qr_scan", "ios": "https://dc.lft.to/lastmile_qr_scan"}, "name": "c526eef2d8130e053f12faf9f02704bf", "is_reserved": 0}, {"is_disabled": 0, "fusion_lon": 0.0, "fusion_lat": 0.0, "lat": 38.9260455, "type": "electric_scooter", "lon": -77.02310566666667, "bike_id": "35d51f32958d3efd390658d70f69e448", "rental_uris": {"android": "https://dc.lft.to/lastmile_qr_scan", "ios": "https://dc.lft.to/lastmile_qr_scan"}, "name": "35d51f32958d3efd390658d70f69e448", "is_reserved": 0}, {"is_disabled": 0, "fusion_lon": 0.0, "fusion_lat": 0.0, "lat": 38.90726166666666, "type": "electric_scooter", "lon": -77.00178833333334, "bike_id": "5ddb49af9adf8a1175d08ac85fd59b0e", "rental_uris": {"android": "https://dc.lft.to/lastmile_qr_scan", "ios": "https://dc.lft.to/lastmile_qr_scan"}, "name": "5ddb49af9adf8a1175d08ac85fd59b0e", "is_reserved": 0}, {"is_disabled": 0, "fusion_lon": 0.0, "fusion_lat": 0.0, "lat": 38.93781883333333, "type": "electric_scooter", "lon": -77.01879133333334, "bike_id": "74e73f3a45188b7fcf635f6e70ddf68f", "rental_uris": {"android": "https://dc.lft.to/lastmile_qr_scan", "ios": "https://dc.lft.to/lastmile_qr_scan"}, "name": "74e73f3a45188b7fcf635f6e70ddf68f", "is_reserved": 0}, {"is_disabled": 0, "fusion_lon": 0.0, "fusion_lat": 0.0, "lat": 38.865687333333334, "type": "electric_scooter", "lon": -76.98953966666667, "bike_id": "3d736b573533ce49f6cb88ff7989d5ed", "rental_uris": {"android": "https://dc.lft.to/lastmile_qr_scan", "ios": "https://dc.lft.to/lastmile_qr_scan"}, "name": "3d736b573533ce49f6cb88ff7989d5ed", "is_reserved": 0}, {"is_disabled": 0, "fusion_lon": 0.0, "fusion_lat": 0.0, "lat": 38.87625666666667, "type": "electric_scooter", "lon": -76.96536466666667, "bike_id": "0181b436fc5f606449c8760be3a7e817", "rental_uris": {"android": "https://dc.lft.to/lastmile_qr_scan", "ios": "https://dc.lft.to/lastmile_qr_scan"}, "name": "0181b436fc5f606449c8760be3a7e817", "is_reserved": 0}, {"is_disabled": 0, "fusion_lon": 0.0, "fusion_lat": 0.0, "lat": 38.89881466666667, "type": "electric_scooter", "lon": -76.93159183333333, "bike_id": "468143d4d4b5f4acd3054c48fdadee41", "rental_uris": {"android": "https://dc.lft.to/lastmile_qr_scan", "ios": "https://dc.lft.to/lastmile_qr_scan"}, "name": "468143d4d4b5f4acd3054c48fdadee41", "is_reserved": 0}, {"is_disabled": 0, "fusion_lon": 0.0, "fusion_lat": 0.0, "lat": 38.90294183333334, "type": "electric_scooter", "lon": -77.02419583333334, "bike_id": "e58be614ebf572c44495946f00e43f83", "rental_uris": {"android": "https://dc.lft.to/lastmile_qr_scan", "ios": "https://dc.lft.to/lastmile_qr_scan"}, "name": "e58be614ebf572c44495946f00e43f83", "is_reserved": 0}, {"is_disabled": 0, "fusion_lon": 0.0, "fusion_lat": 0.0, "lat": 38.84101316666667, "type": "electric_bike", "lon": -77.0894285, "bike_id": "f0d2d91e10179cc8a318d267f3fe5549", "rental_uris": {"android": "https://dc.lft.to/lastmile_qr_scan", "ios": "https://dc.lft.to/lastmile_qr_scan"}, "name": "f0d2d91e10179cc8a318d267f3fe5549", "is_reserved": 0}, {"is_disabled": 0, "fusion_lon": 0.0, "fusion_lat": 0.0, "lat": 38.91419166666667, "type": "electric_scooter", "lon": -77.04671033333334, "bike_id": "b6fc7b39ce99d8b131ccc643a408781a", "rental_uris": {"android": "https://dc.lft.to/lastmile_qr_scan", "ios": "https://dc.lft.to/lastmile_qr_scan"}, "name": "b6fc7b39ce99d8b131ccc643a408781a", "is_reserved": 0}, {"is_disabled": 0, "fusion_lon": 0.0, "fusion_lat": 0.0, "lat": 38.85204616666667, "type": "electric_bike", "lon": -77.10134833333333, "bike_id": "bed335330e57ed19ea77e19e1983c25d", "rental_uris": {"android": "https://dc.lft.to/lastmile_qr_scan", "ios": "https://dc.lft.to/lastmile_qr_scan"}, "name": "bed335330e57ed19ea77e19e1983c25d", "is_reserved": 0}, {"is_disabled": 0, "fusion_lon": 0.0, "fusion_lat": 0.0, "lat": 38.90710833333333, "type": "electric_scooter", "lon": -77.04592716666667, "bike_id": "2ac05f16523e6859e3ea43eb4e85226f", "rental_uris": {"android": "https://dc.lft.to/lastmile_qr_scan", "ios": "https://dc.lft.to/lastmile_qr_scan"}, "name": "2ac05f16523e6859e3ea43eb4e85226f", "is_reserved": 0}, {"is_disabled": 0, "fusion_lon": 0.0, "fusion_lat": 0.0, "lat": 38.9193085, "type": "electric_scooter", "lon": -77.03160466666667, "bike_id": "005a79f40f351bfb0d07ff1606b90fb8", "rental_uris": {"android": "https://dc.lft.to/lastmile_qr_scan", "ios": "https://dc.lft.to/lastmile_qr_scan"}, "name": "005a79f40f351bfb0d07ff1606b90fb8", "is_reserved": 0}, {"is_disabled": 0, "fusion_lon": 0.0, "fusion_lat": 0.0, "lat": 38.89564216666667, "type": "electric_scooter", "lon": -77.04188233333333, "bike_id": "b52eecf453ddf8816362f483cdd02dea", "rental_uris": {"android": "https://dc.lft.to/lastmile_qr_scan", "ios": "https://dc.lft.to/lastmile_qr_scan"}, "name": "b52eecf453ddf8816362f483cdd02dea", "is_reserved": 0}, {"is_disabled": 0, "fusion_lon": 0.0, "fusion_lat": 0.0, "lat": 38.91890866666667, "type": "electric_scooter", "lon": -77.04031616666667, "bike_id": "34e9a14ee86c150b3b47f9f682b8c248", "rental_uris": {"android": "https://dc.lft.to/lastmile_qr_scan", "ios": "https://dc.lft.to/lastmile_qr_scan"}, "name": "34e9a14ee86c150b3b47f9f682b8c248", "is_reserved": 0}, {"is_disabled": 0, "fusion_lon": 0.0, "fusion_lat": 0.0, "lat": 38.923632, "type": "electric_scooter", "lon": -77.08062166666667, "bike_id": "0e988d149b515ad9e37bf9d10697b342", "rental_uris": {"android": "https://dc.lft.to/lastmile_qr_scan", "ios": "https://dc.lft.to/lastmile_qr_scan"}, "name": "0e988d149b515ad9e37bf9d10697b342", "is_reserved": 0}, {"is_disabled": 0, "fusion_lon": 0.0, "fusion_lat": 0.0, "lat": 38.90020716666667, "type": "electric_scooter", "lon": -76.9885455, "bike_id": "2ea45dcac314c0c37d3edd7af2357b9c", "rental_uris": {"android": "https://dc.lft.to/lastmile_qr_scan", "ios": "https://dc.lft.to/lastmile_qr_scan"}, "name": "2ea45dcac314c0c37d3edd7af2357b9c", "is_reserved": 0}, {"is_disabled": 0, "fusion_lon": 0.0, "fusion_lat": 0.0, "lat": 38.8586785, "type": "electric_scooter", "lon": -76.99024583333333, "bike_id": "59a6ffe2c4702e2e7c4b02babe23cf82", "rental_uris": {"android": "https://dc.lft.to/lastmile_qr_scan", "ios": "https://dc.lft.to/lastmile_qr_scan"}, "name": "59a6ffe2c4702e2e7c4b02babe23cf82", "is_reserved": 0}, {"is_disabled": 0, "fusion_lon": 0.0, "fusion_lat": 0.0, "lat": 38.91992716666667, "type": "electric_scooter", "lon": -76.97325316666667, "bike_id": "e33079b787578d5b4e71bd16f3270719", "rental_uris": {"android": "https://dc.lft.to/lastmile_qr_scan", "ios": "https://dc.lft.to/lastmile_qr_scan"}, "name": "e33079b787578d5b4e71bd16f3270719", "is_reserved": 0}, {"is_disabled": 0, "fusion_lon": 0.0, "fusion_lat": 0.0, "lat": 38.902952166666665, "type": "electric_scooter", "lon": -77.02412916666667, "bike_id": "edcacfabf0dcc3d3353e0d332096bec5", "rental_uris": {"android": "https://dc.lft.to/lastmile_qr_scan", "ios": "https://dc.lft.to/lastmile_qr_scan"}, "name": "edcacfabf0dcc3d3353e0d332096bec5", "is_reserved": 0}, {"is_disabled": 0, "fusion_lon": 0.0, "fusion_lat": 0.0, "lat": 38.900722333333334, "type": "electric_scooter", "lon": -77.002134, "bike_id": "5f709302271f4ba024ca20cf68dbdc4e", "rental_uris": {"android": "https://dc.lft.to/lastmile_qr_scan", "ios": "https://dc.lft.to/lastmile_qr_scan"}, "name": "5f709302271f4ba024ca20cf68dbdc4e", "is_reserved": 0}, {"is_disabled": 0, "fusion_lon": 0.0, "fusion_lat": 0.0, "lat": 38.91255666666667, "type": "electric_scooter", "lon": -77.04441683333333, "bike_id": "44f8017262a59c8a301a055e6c9971f5", "rental_uris": {"android": "https://dc.lft.to/lastmile_qr_scan", "ios": "https://dc.lft.to/lastmile_qr_scan"}, "name": "44f8017262a59c8a301a055e6c9971f5", "is_reserved": 0}, {"is_disabled": 0, "fusion_lon": 0.0, "fusion_lat": 0.0, "lat": 38.912709166666666, "type": "electric_scooter", "lon": -77.04166683333334, "bike_id": "8af1eb52948dd28fc176be2f059ed114", "rental_uris": {"android": "https://dc.lft.to/lastmile_qr_scan", "ios": "https://dc.lft.to/lastmile_qr_scan"}, "name": "8af1eb52948dd28fc176be2f059ed114", "is_reserved": 0}, {"is_disabled": 0, "fusion_lon": 0.0, "fusion_lat": 0.0, "lat": 38.9404015, "type": "electric_scooter", "lon": -77.0289335, "bike_id": "bca2bb44be688e9a7fd41206286202ca", "rental_uris": {"android": "https://dc.lft.to/lastmile_qr_scan", "ios": "https://dc.lft.to/lastmile_qr_scan"}, "name": "bca2bb44be688e9a7fd41206286202ca", "is_reserved": 0}, {"is_disabled": 0, "fusion_lon": 0.0, "fusion_lat": 0.0, "lat": 38.926131833333336, "type": "electric_scooter", "lon": -77.02164266666666, "bike_id": "6040a1c2d3682c85b340e8759584f8d1", "rental_uris": {"android": "https://dc.lft.to/lastmile_qr_scan", "ios": "https://dc.lft.to/lastmile_qr_scan"}, "name": "6040a1c2d3682c85b340e8759584f8d1", "is_reserved": 0}, {"is_disabled": 0, "fusion_lon": 0.0, "fusion_lat": 0.0, "lat": 38.960349666666666, "type": "electric_bike", "lon": -76.92710416666667, "bike_id": "66283038e40f60302f5629e5484a0dbf", "rental_uris": {"android": "https://dc.lft.to/lastmile_qr_scan", "ios": "https://dc.lft.to/lastmile_qr_scan"}, "name": "66283038e40f60302f5629e5484a0dbf", "is_reserved": 0}, {"is_disabled": 0, "fusion_lon": 0.0, "fusion_lat": 0.0, "lat": 38.893822666666665, "type": "electric_scooter", "lon": -76.97813783333334, "bike_id": "a753a9fefd857249517d03ab0c97d3c5", "rental_uris": {"android": "https://dc.lft.to/lastmile_qr_scan", "ios": "https://dc.lft.to/lastmile_qr_scan"}, "name": "a753a9fefd857249517d03ab0c97d3c5", "is_reserved": 0}, {"is_disabled": 0, "fusion_lon": 0.0, "fusion_lat": 0.0, "lat": 38.918804333333334, "type": "electric_scooter", "lon": -77.03505333333334, "bike_id": "a73caaa259f1161b299ae8dec84418f5", "rental_uris": {"android": "https://dc.lft.to/lastmile_qr_scan", "ios": "https://dc.lft.to/lastmile_qr_scan"}, "name": "a73caaa259f1161b299ae8dec84418f5", "is_reserved": 0}, {"is_disabled": 0, "fusion_lon": 0.0, "fusion_lat": 0.0, "lat": 38.92177316666667, "type": "electric_scooter", "lon": -77.0423465, "bike_id": "37e685c196ce7506acb573fcdeb03071", "rental_uris": {"android": "https://dc.lft.to/lastmile_qr_scan", "ios": "https://dc.lft.to/lastmile_qr_scan"}, "name": "37e685c196ce7506acb573fcdeb03071", "is_reserved": 0}, {"is_disabled": 0, "fusion_lon": 0.0, "fusion_lat": 0.0, "lat": 38.90047416666667, "type": "electric_scooter", "lon": -76.98830866666667, "bike_id": "dbef816030f481051f4a1332727270e8", "rental_uris": {"android": "https://dc.lft.to/lastmile_qr_scan", "ios": "https://dc.lft.to/lastmile_qr_scan"}, "name": "dbef816030f481051f4a1332727270e8", "is_reserved": 0}, {"is_disabled": 0, "fusion_lon": 0.0, "fusion_lat": 0.0, "lat": 38.899081833333334, "type": "electric_scooter", "lon": -77.03340816666666, "bike_id": "0c3ca9a36f130036ec5b738d8b398194", "rental_uris": {"android": "https://dc.lft.to/lastmile_qr_scan", "ios": "https://dc.lft.to/lastmile_qr_scan"}, "name": "0c3ca9a36f130036ec5b738d8b398194", "is_reserved": 0}, {"is_disabled": 0, "fusion_lon": 0.0, "fusion_lat": 0.0, "lat": 38.949314333333334, "type": "electric_scooter", "lon": -77.01939266666666, "bike_id": "dddd503d7b532b8fb0fbd0540534af0d", "rental_uris": {"android": "https://dc.lft.to/lastmile_qr_scan", "ios": "https://dc.lft.to/lastmile_qr_scan"}, "name": "dddd503d7b532b8fb0fbd0540534af0d", "is_reserved": 0}, {"is_disabled": 0, "fusion_lon": 0.0, "fusion_lat": 0.0, "lat": 38.92038566666667, "type": "electric_scooter", "lon": -77.0181945, "bike_id": "3394e856981b0d9c62773bed9442f037", "rental_uris": {"android": "https://dc.lft.to/lastmile_qr_scan", "ios": "https://dc.lft.to/lastmile_qr_scan"}, "name": "3394e856981b0d9c62773bed9442f037", "is_reserved": 0}, {"is_disabled": 0, "fusion_lon": 0.0, "fusion_lat": 0.0, "lat": 38.88614316666666, "type": "electric_scooter", "lon": -77.00577716666666, "bike_id": "29254227f83988e6e36088f5ff42e68b", "rental_uris": {"android": "https://dc.lft.to/lastmile_qr_scan", "ios": "https://dc.lft.to/lastmile_qr_scan"}, "name": "29254227f83988e6e36088f5ff42e68b", "is_reserved": 0}, {"is_disabled": 0, "fusion_lon": 0.0, "fusion_lat": 0.0, "lat": 38.90648, "type": "electric_scooter", "lon": -77.02377616666666, "bike_id": "24a6a38124dace34b9ffdbda7619cce1", "rental_uris": {"android": "https://dc.lft.to/lastmile_qr_scan", "ios": "https://dc.lft.to/lastmile_qr_scan"}, "name": "24a6a38124dace34b9ffdbda7619cce1", "is_reserved": 0}, {"is_disabled": 0, "fusion_lon": 0.0, "fusion_lat": 0.0, "lat": 38.87644316666667, "type": "electric_scooter", "lon": -77.00353416666667, "bike_id": "54a9761492b7cb25bf8802f7132cfa16", "rental_uris": {"android": "https://dc.lft.to/lastmile_qr_scan", "ios": "https://dc.lft.to/lastmile_qr_scan"}, "name": "54a9761492b7cb25bf8802f7132cfa16", "is_reserved": 0}, {"is_disabled": 0, "fusion_lon": 0.0, "fusion_lat": 0.0, "lat": 38.93650183333333, "type": "electric_scooter", "lon": -77.03649133333333, "bike_id": "834def463f3b542ec9a32fc53c972986", "rental_uris": {"android": "https://dc.lft.to/lastmile_qr_scan", "ios": "https://dc.lft.to/lastmile_qr_scan"}, "name": "834def463f3b542ec9a32fc53c972986", "is_reserved": 0}, {"is_disabled": 0, "fusion_lon": 0.0, "fusion_lat": 0.0, "lat": 38.93582883333333, "type": "electric_scooter", "lon": -77.02447933333333, "bike_id": "259c4dd6599be7f6f92f8a185a176a37", "rental_uris": {"android": "https://dc.lft.to/lastmile_qr_scan", "ios": "https://dc.lft.to/lastmile_qr_scan"}, "name": "259c4dd6599be7f6f92f8a185a176a37", "is_reserved": 0}, {"is_disabled": 0, "fusion_lon": 0.0, "fusion_lat": 0.0, "lat": 38.856533, "type": "electric_bike", "lon": -77.08530383333333, "bike_id": "79c33d998c54b10cb17470136a5ffb9b", "rental_uris": {"android": "https://dc.lft.to/lastmile_qr_scan", "ios": "https://dc.lft.to/lastmile_qr_scan"}, "name": "79c33d998c54b10cb17470136a5ffb9b", "is_reserved": 0}, {"is_disabled": 0, "fusion_lon": 0.0, "fusion_lat": 0.0, "lat": 38.899604, "type": "electric_scooter", "lon": -77.05154216666666, "bike_id": "db096d8c9d60f7719cbd5c328b1d993b", "rental_uris": {"android": "https://dc.lft.to/lastmile_qr_scan", "ios": "https://dc.lft.to/lastmile_qr_scan"}, "name": "db096d8c9d60f7719cbd5c328b1d993b", "is_reserved": 0}, {"is_disabled": 0, "fusion_lon": 0.0, "fusion_lat": 0.0, "lat": 38.87052933333333, "type": "electric_scooter", "lon": -76.98083766666667, "bike_id": "03bc6af36b3d6726757cb95c350f3473", "rental_uris": {"android": "https://dc.lft.to/lastmile_qr_scan", "ios": "https://dc.lft.to/lastmile_qr_scan"}, "name": "03bc6af36b3d6726757cb95c350f3473", "is_reserved": 0}, {"is_disabled": 0, "fusion_lon": 0.0, "fusion_lat": 0.0, "lat": 38.9012525, "type": "electric_scooter", "lon": -77.04891166666667, "bike_id": "68b942e8194905fbe459949c236e3ac2", "rental_uris": {"android": "https://dc.lft.to/lastmile_qr_scan", "ios": "https://dc.lft.to/lastmile_qr_scan"}, "name": "68b942e8194905fbe459949c236e3ac2", "is_reserved": 0}, {"is_disabled": 0, "fusion_lon": 0.0, "fusion_lat": 0.0, "lat": 38.90511033333333, "type": "electric_scooter", "lon": -77.06016666666666, "bike_id": "dac16d05e9d7253a8acee87db684e4d0", "rental_uris": {"android": "https://dc.lft.to/lastmile_qr_scan", "ios": "https://dc.lft.to/lastmile_qr_scan"}, "name": "dac16d05e9d7253a8acee87db684e4d0", "is_reserved": 0}, {"is_disabled": 0, "fusion_lon": 0.0, "fusion_lat": 0.0, "lat": 38.9181765, "type": "electric_scooter", "lon": -77.01085883333333, "bike_id": "8497ec39aa0e17221cf32f34f73199a8", "rental_uris": {"android": "https://dc.lft.to/lastmile_qr_scan", "ios": "https://dc.lft.to/lastmile_qr_scan"}, "name": "8497ec39aa0e17221cf32f34f73199a8", "is_reserved": 0}, {"is_disabled": 0, "fusion_lon": 0.0, "fusion_lat": 0.0, "lat": 38.95640566666667, "type": "electric_scooter", "lon": -77.091014, "bike_id": "c6fea39c7bb3c2bccd6ff83e3714121d", "rental_uris": {"android": "https://dc.lft.to/lastmile_qr_scan", "ios": "https://dc.lft.to/lastmile_qr_scan"}, "name": "c6fea39c7bb3c2bccd6ff83e3714121d", "is_reserved": 0}, {"is_disabled": 0, "fusion_lon": 0.0, "fusion_lat": 0.0, "lat": 38.892261500000004, "type": "electric_scooter", "lon": -77.04713883333334, "bike_id": "07bbb6dd73a61f1bb6524c3a20758198", "rental_uris": {"android": "https://dc.lft.to/lastmile_qr_scan", "ios": "https://dc.lft.to/lastmile_qr_scan"}, "name": "07bbb6dd73a61f1bb6524c3a20758198", "is_reserved": 0}, {"is_disabled": 0, "fusion_lon": 0.0, "fusion_lat": 0.0, "lat": 38.937425, "type": "electric_scooter", "lon": -77.02712266666667, "bike_id": "2a96a1b3e80d034efb57ebdd26c45cc8", "rental_uris": {"android": "https://dc.lft.to/lastmile_qr_scan", "ios": "https://dc.lft.to/lastmile_qr_scan"}, "name": "2a96a1b3e80d034efb57ebdd26c45cc8", "is_reserved": 0}, {"is_disabled": 0, "fusion_lon": 0.0, "fusion_lat": 0.0, "lat": 38.849335833333335, "type": "electric_bike", "lon": -77.10016083333333, "bike_id": "300fab2c1d8dbebbde83d1b7f888d8f4", "rental_uris": {"android": "https://dc.lft.to/lastmile_qr_scan", "ios": "https://dc.lft.to/lastmile_qr_scan"}, "name": "300fab2c1d8dbebbde83d1b7f888d8f4", "is_reserved": 0}, {"is_disabled": 0, "fusion_lon": 0.0, "fusion_lat": 0.0, "lat": 38.884356333333336, "type": "electric_scooter", "lon": -77.02960833333333, "bike_id": "0bdd8308e6e8a3c5771384dbf9f7fd12", "rental_uris": {"android": "https://dc.lft.to/lastmile_qr_scan", "ios": "https://dc.lft.to/lastmile_qr_scan"}, "name": "0bdd8308e6e8a3c5771384dbf9f7fd12", "is_reserved": 0}, {"is_disabled": 0, "fusion_lon": 0.0, "fusion_lat": 0.0, "lat": 38.898310333333335, "type": "electric_scooter", "lon": -76.94634666666667, "bike_id": "93181a75047f749b901b5c6f979a81b1", "rental_uris": {"android": "https://dc.lft.to/lastmile_qr_scan", "ios": "https://dc.lft.to/lastmile_qr_scan"}, "name": "93181a75047f749b901b5c6f979a81b1", "is_reserved": 0}, {"is_disabled": 0, "fusion_lon": 0.0, "fusion_lat": 0.0, "lat": 38.9139005, "type": "electric_scooter", "lon": -77.02974366666666, "bike_id": "8a5debc0accefb2cfc88a68c99fe4efa", "rental_uris": {"android": "https://dc.lft.to/lastmile_qr_scan", "ios": "https://dc.lft.to/lastmile_qr_scan"}, "name": "8a5debc0accefb2cfc88a68c99fe4efa", "is_reserved": 0}, {"is_disabled": 0, "fusion_lon": 0.0, "fusion_lat": 0.0, "lat": 38.92474, "type": "electric_scooter", "lon": -77.05756, "bike_id": "d6b0c19778c9ef2e2d71fe4ea895a6d2", "rental_uris": {"android": "https://dc.lft.to/lastmile_qr_scan", "ios": "https://dc.lft.to/lastmile_qr_scan"}, "name": "d6b0c19778c9ef2e2d71fe4ea895a6d2", "is_reserved": 0}, {"is_disabled": 0, "fusion_lon": 0.0, "fusion_lat": 0.0, "lat": 38.91646983333333, "type": "electric_scooter", "lon": -77.041634, "bike_id": "c6ae8016a4f461d6275250d3670bc6d4", "rental_uris": {"android": "https://dc.lft.to/lastmile_qr_scan", "ios": "https://dc.lft.to/lastmile_qr_scan"}, "name": "c6ae8016a4f461d6275250d3670bc6d4", "is_reserved": 0}, {"is_disabled": 0, "fusion_lon": 0.0, "fusion_lat": 0.0, "lat": 38.902876, "type": "electric_scooter", "lon": -77.04047483333333, "bike_id": "afdf2db860ab9e8c9744afdefa571955", "rental_uris": {"android": "https://dc.lft.to/lastmile_qr_scan", "ios": "https://dc.lft.to/lastmile_qr_scan"}, "name": "afdf2db860ab9e8c9744afdefa571955", "is_reserved": 0}, {"is_disabled": 0, "fusion_lon": 0.0, "fusion_lat": 0.0, "lat": 38.91444833333333, "type": "electric_scooter", "lon": -77.00898616666667, "bike_id": "e4490fdc4c9690ddc96fba03523b89aa", "rental_uris": {"android": "https://dc.lft.to/lastmile_qr_scan", "ios": "https://dc.lft.to/lastmile_qr_scan"}, "name": "e4490fdc4c9690ddc96fba03523b89aa", "is_reserved": 0}, {"is_disabled": 0, "fusion_lon": 0.0, "fusion_lat": 0.0, "lat": 38.87299633333333, "type": "electric_scooter", "lon": -77.001608, "bike_id": "e6d3944b7296fec0457f38700d6297c6", "rental_uris": {"android": "https://dc.lft.to/lastmile_qr_scan", "ios": "https://dc.lft.to/lastmile_qr_scan"}, "name": "e6d3944b7296fec0457f38700d6297c6", "is_reserved": 0}, {"is_disabled": 0, "fusion_lon": 0.0, "fusion_lat": 0.0, "lat": 38.863685, "type": "electric_scooter", "lon": -76.990659, "bike_id": "4888fc1b546b82f78876aed26750fdd1", "rental_uris": {"android": "https://dc.lft.to/lastmile_qr_scan", "ios": "https://dc.lft.to/lastmile_qr_scan"}, "name": "4888fc1b546b82f78876aed26750fdd1", "is_reserved": 0}, {"is_disabled": 0, "fusion_lon": 0.0, "fusion_lat": 0.0, "lat": 38.9361075, "type": "electric_scooter", "lon": -77.031852, "bike_id": "220e2c66d9eac8fdfd46aa5c52d4e4d9", "rental_uris": {"android": "https://dc.lft.to/lastmile_qr_scan", "ios": "https://dc.lft.to/lastmile_qr_scan"}, "name": "220e2c66d9eac8fdfd46aa5c52d4e4d9", "is_reserved": 0}, {"is_disabled": 0, "fusion_lon": 0.0, "fusion_lat": 0.0, "lat": 38.916876, "type": "electric_scooter", "lon": -77.03681966666667, "bike_id": "f2bc83af72f10c4eaf83d5357bbf89cc", "rental_uris": {"android": "https://dc.lft.to/lastmile_qr_scan", "ios": "https://dc.lft.to/lastmile_qr_scan"}, "name": "f2bc83af72f10c4eaf83d5357bbf89cc", "is_reserved": 0}, {"is_disabled": 0, "fusion_lon": 0.0, "fusion_lat": 0.0, "lat": 38.95092783333333, "type": "electric_bike", "lon": -77.00859416666667, "bike_id": "7aa9da85f203f3204337572e6dc797d0", "rental_uris": {"android": "https://dc.lft.to/lastmile_qr_scan", "ios": "https://dc.lft.to/lastmile_qr_scan"}, "name": "7aa9da85f203f3204337572e6dc797d0", "is_reserved": 0}, {"is_disabled": 0, "fusion_lon": 0.0, "fusion_lat": 0.0, "lat": 38.909596, "type": "electric_scooter", "lon": -77.038363, "bike_id": "70bac2b05b0338190bf6ea375ba703a2", "rental_uris": {"android": "https://dc.lft.to/lastmile_qr_scan", "ios": "https://dc.lft.to/lastmile_qr_scan"}, "name": "70bac2b05b0338190bf6ea375ba703a2", "is_reserved": 0}, {"is_disabled": 0, "fusion_lon": 0.0, "fusion_lat": 0.0, "lat": 38.895696, "type": "electric_bike", "lon": -77.12739216666667, "bike_id": "a834a728680b49e91f8a546bfd8b3552", "rental_uris": {"android": "https://dc.lft.to/lastmile_qr_scan", "ios": "https://dc.lft.to/lastmile_qr_scan"}, "name": "a834a728680b49e91f8a546bfd8b3552", "is_reserved": 0}, {"is_disabled": 0, "fusion_lon": 0.0, "fusion_lat": 0.0, "lat": 38.89233483333334, "type": "electric_scooter", "lon": -77.02181183333333, "bike_id": "98358b0bd021965e816ec882d666f93c", "rental_uris": {"android": "https://dc.lft.to/lastmile_qr_scan", "ios": "https://dc.lft.to/lastmile_qr_scan"}, "name": "98358b0bd021965e816ec882d666f93c", "is_reserved": 0}, {"is_disabled": 0, "fusion_lon": 0.0, "fusion_lat": 0.0, "lat": 38.93280016666667, "type": "electric_scooter", "lon": -77.0397985, "bike_id": "978760666277ebdab96a8af675f00563", "rental_uris": {"android": "https://dc.lft.to/lastmile_qr_scan", "ios": "https://dc.lft.to/lastmile_qr_scan"}, "name": "978760666277ebdab96a8af675f00563", "is_reserved": 0}, {"is_disabled": 0, "fusion_lon": 0.0, "fusion_lat": 0.0, "lat": 38.88122116666667, "type": "electric_bike", "lon": -77.00188683333333, "bike_id": "8c6ea27ac79d1a4838cb9f956bc8dbdf", "rental_uris": {"android": "https://dc.lft.to/lastmile_qr_scan", "ios": "https://dc.lft.to/lastmile_qr_scan"}, "name": "8c6ea27ac79d1a4838cb9f956bc8dbdf", "is_reserved": 0}, {"is_disabled": 0, "fusion_lon": 0.0, "fusion_lat": 0.0, "lat": 38.913016166666665, "type": "electric_scooter", "lon": -77.03189083333334, "bike_id": "33ed4215ac60e241213b43d0d4e11261", "rental_uris": {"android": "https://dc.lft.to/lastmile_qr_scan", "ios": "https://dc.lft.to/lastmile_qr_scan"}, "name": "33ed4215ac60e241213b43d0d4e11261", "is_reserved": 0}, {"is_disabled": 0, "fusion_lon": 0.0, "fusion_lat": 0.0, "lat": 38.890806833333336, "type": "electric_scooter", "lon": -76.9386645, "bike_id": "1c39d6167a202ffe3256d696fde865fe", "rental_uris": {"android": "https://dc.lft.to/lastmile_qr_scan", "ios": "https://dc.lft.to/lastmile_qr_scan"}, "name": "1c39d6167a202ffe3256d696fde865fe", "is_reserved": 0}, {"is_disabled": 0, "fusion_lon": 0.0, "fusion_lat": 0.0, "lat": 38.90932633333333, "type": "electric_scooter", "lon": -77.03526233333334, "bike_id": "c3fe778f9a5e7dfe7e5fbd2e7f04a12e", "rental_uris": {"android": "https://dc.lft.to/lastmile_qr_scan", "ios": "https://dc.lft.to/lastmile_qr_scan"}, "name": "c3fe778f9a5e7dfe7e5fbd2e7f04a12e", "is_reserved": 0}, {"is_disabled": 0, "fusion_lon": 0.0, "fusion_lat": 0.0, "lat": 38.907906, "type": "electric_scooter", "lon": -77.038531, "bike_id": "60dd3c0a14344e8abcb9b627848289c0", "rental_uris": {"android": "https://dc.lft.to/lastmile_qr_scan", "ios": "https://dc.lft.to/lastmile_qr_scan"}, "name": "60dd3c0a14344e8abcb9b627848289c0", "is_reserved": 0}, {"is_disabled": 0, "fusion_lon": 0.0, "fusion_lat": 0.0, "lat": 38.89222266666667, "type": "electric_scooter", "lon": -77.0471135, "bike_id": "2f2aa9d01d101f9e302ba0b0ffa6ea3c", "rental_uris": {"android": "https://dc.lft.to/lastmile_qr_scan", "ios": "https://dc.lft.to/lastmile_qr_scan"}, "name": "2f2aa9d01d101f9e302ba0b0ffa6ea3c", "is_reserved": 0}, {"is_disabled": 0, "fusion_lon": 0.0, "fusion_lat": 0.0, "lat": 38.950168166666664, "type": "electric_bike", "lon": -77.054748, "bike_id": "dc8bf9961b313663506c58d17e2cd73d", "rental_uris": {"android": "https://dc.lft.to/lastmile_qr_scan", "ios": "https://dc.lft.to/lastmile_qr_scan"}, "name": "dc8bf9961b313663506c58d17e2cd73d", "is_reserved": 0}, {"is_disabled": 0, "fusion_lon": 0.0, "fusion_lat": 0.0, "lat": 38.8922645, "type": "electric_scooter", "lon": -77.0479265, "bike_id": "7d3a80a819322297c4140041d6d62892", "rental_uris": {"android": "https://dc.lft.to/lastmile_qr_scan", "ios": "https://dc.lft.to/lastmile_qr_scan"}, "name": "7d3a80a819322297c4140041d6d62892", "is_reserved": 0}, {"is_disabled": 0, "fusion_lon": 0.0, "fusion_lat": 0.0, "lat": 38.899874, "type": "electric_scooter", "lon": -77.02312683333334, "bike_id": "b0ea7411ef43f6656bf7df62deb7d15c", "rental_uris": {"android": "https://dc.lft.to/lastmile_qr_scan", "ios": "https://dc.lft.to/lastmile_qr_scan"}, "name": "b0ea7411ef43f6656bf7df62deb7d15c", "is_reserved": 0}, {"is_disabled": 0, "fusion_lon": 0.0, "fusion_lat": 0.0, "lat": 38.92114883333333, "type": "electric_scooter", "lon": -77.0300165, "bike_id": "5663cb8ffd42875bd6d54164a6bd16cc", "rental_uris": {"android": "https://dc.lft.to/lastmile_qr_scan", "ios": "https://dc.lft.to/lastmile_qr_scan"}, "name": "5663cb8ffd42875bd6d54164a6bd16cc", "is_reserved": 0}, {"is_disabled": 0, "fusion_lon": 0.0, "fusion_lat": 0.0, "lat": 38.92750616666667, "type": "electric_scooter", "lon": -77.03272066666666, "bike_id": "074347e593b4cf531cc51ea201e3c511", "rental_uris": {"android": "https://dc.lft.to/lastmile_qr_scan", "ios": "https://dc.lft.to/lastmile_qr_scan"}, "name": "074347e593b4cf531cc51ea201e3c511", "is_reserved": 0}, {"is_disabled": 0, "fusion_lon": 0.0, "fusion_lat": 0.0, "lat": 38.905757333333334, "type": "electric_scooter", "lon": -77.005427, "bike_id": "13f7da214d90e903336fa666e6764f98", "rental_uris": {"android": "https://dc.lft.to/lastmile_qr_scan", "ios": "https://dc.lft.to/lastmile_qr_scan"}, "name": "13f7da214d90e903336fa666e6764f98", "is_reserved": 0}, {"is_disabled": 0, "fusion_lon": 0.0, "fusion_lat": 0.0, "lat": 38.92605016666667, "type": "electric_scooter", "lon": -77.02156833333333, "bike_id": "e939b967d9e25b9c6b642c309daf8416", "rental_uris": {"android": "https://dc.lft.to/lastmile_qr_scan", "ios": "https://dc.lft.to/lastmile_qr_scan"}, "name": "e939b967d9e25b9c6b642c309daf8416", "is_reserved": 0}, {"is_disabled": 0, "fusion_lon": 0.0, "fusion_lat": 0.0, "lat": 38.9222795, "type": "electric_scooter", "lon": -77.03458533333334, "bike_id": "c8a4d4371712db5dbb33193e6de65384", "rental_uris": {"android": "https://dc.lft.to/lastmile_qr_scan", "ios": "https://dc.lft.to/lastmile_qr_scan"}, "name": "c8a4d4371712db5dbb33193e6de65384", "is_reserved": 0}, {"is_disabled": 0, "fusion_lon": 0.0, "fusion_lat": 0.0, "lat": 38.90883216666667, "type": "electric_scooter", "lon": -77.04341566666666, "bike_id": "09b21359a1e7b30542bca60dfb585b2d", "rental_uris": {"android": "https://dc.lft.to/lastmile_qr_scan", "ios": "https://dc.lft.to/lastmile_qr_scan"}, "name": "09b21359a1e7b30542bca60dfb585b2d", "is_reserved": 0}, {"is_disabled": 0, "fusion_lon": 0.0, "fusion_lat": 0.0, "lat": 38.919151, "type": "electric_scooter", "lon": -77.03625716666667, "bike_id": "87af121248a46bfb707f4c5df0f8bcf0", "rental_uris": {"android": "https://dc.lft.to/lastmile_qr_scan", "ios": "https://dc.lft.to/lastmile_qr_scan"}, "name": "87af121248a46bfb707f4c5df0f8bcf0", "is_reserved": 0}, {"is_disabled": 0, "fusion_lon": 0.0, "fusion_lat": 0.0, "lat": 38.897288, "type": "electric_scooter", "lon": -77.00979916666667, "bike_id": "dbe7f95a9a2f9957449f80e06e1bb1f1", "rental_uris": {"android": "https://dc.lft.to/lastmile_qr_scan", "ios": "https://dc.lft.to/lastmile_qr_scan"}, "name": "dbe7f95a9a2f9957449f80e06e1bb1f1", "is_reserved": 0}, {"is_disabled": 0, "fusion_lon": 0.0, "fusion_lat": 0.0, "lat": 38.887422666666666, "type": "electric_scooter", "lon": -77.02161016666666, "bike_id": "852dbe3b89571a057aff24d56a81304d", "rental_uris": {"android": "https://dc.lft.to/lastmile_qr_scan", "ios": "https://dc.lft.to/lastmile_qr_scan"}, "name": "852dbe3b89571a057aff24d56a81304d", "is_reserved": 0}, {"is_disabled": 0, "fusion_lon": 0.0, "fusion_lat": 0.0, "lat": 38.942184, "type": "electric_scooter", "lon": -77.024992, "bike_id": "c41f95c06f06ddfadedf537c2a86ff92", "rental_uris": {"android": "https://dc.lft.to/lastmile_qr_scan", "ios": "https://dc.lft.to/lastmile_qr_scan"}, "name": "c41f95c06f06ddfadedf537c2a86ff92", "is_reserved": 0}, {"is_disabled": 0, "fusion_lon": 0.0, "fusion_lat": 0.0, "lat": 38.902686, "type": "electric_scooter", "lon": -77.0428235, "bike_id": "cf4118bed986a1287572e0c7a74693ad", "rental_uris": {"android": "https://dc.lft.to/lastmile_qr_scan", "ios": "https://dc.lft.to/lastmile_qr_scan"}, "name": "cf4118bed986a1287572e0c7a74693ad", "is_reserved": 0}, {"is_disabled": 0, "fusion_lon": 0.0, "fusion_lat": 0.0, "lat": 38.92757483333333, "type": "electric_scooter", "lon": -77.00597183333333, "bike_id": "bbc6a8734cf4e4b03482a97d440e1606", "rental_uris": {"android": "https://dc.lft.to/lastmile_qr_scan", "ios": "https://dc.lft.to/lastmile_qr_scan"}, "name": "bbc6a8734cf4e4b03482a97d440e1606", "is_reserved": 0}, {"is_disabled": 0, "fusion_lon": 0.0, "fusion_lat": 0.0, "lat": 38.87647, "type": "electric_scooter", "lon": -77.0035235, "bike_id": "ff644179be8353fdddc5f0ae73c55e40", "rental_uris": {"android": "https://dc.lft.to/lastmile_qr_scan", "ios": "https://dc.lft.to/lastmile_qr_scan"}, "name": "ff644179be8353fdddc5f0ae73c55e40", "is_reserved": 0}, {"is_disabled": 0, "fusion_lon": 0.0, "fusion_lat": 0.0, "lat": 38.903939333333334, "type": "electric_scooter", "lon": -76.9900825, "bike_id": "5c5c371df68035f36481216c2332feec", "rental_uris": {"android": "https://dc.lft.to/lastmile_qr_scan", "ios": "https://dc.lft.to/lastmile_qr_scan"}, "name": "5c5c371df68035f36481216c2332feec", "is_reserved": 0}, {"is_disabled": 0, "fusion_lon": 0.0, "fusion_lat": 0.0, "lat": 38.93964883333334, "type": "electric_scooter", "lon": -77.03282383333334, "bike_id": "eb4e9bc40443ea4acbdaa339cd8ae8e4", "rental_uris": {"android": "https://dc.lft.to/lastmile_qr_scan", "ios": "https://dc.lft.to/lastmile_qr_scan"}, "name": "eb4e9bc40443ea4acbdaa339cd8ae8e4", "is_reserved": 0}, {"is_disabled": 0, "fusion_lon": 0.0, "fusion_lat": 0.0, "lat": 38.90695016666667, "type": "electric_scooter", "lon": -77.023852, "bike_id": "bb9083a00e146992ac9047a54888ca1a", "rental_uris": {"android": "https://dc.lft.to/lastmile_qr_scan", "ios": "https://dc.lft.to/lastmile_qr_scan"}, "name": "bb9083a00e146992ac9047a54888ca1a", "is_reserved": 0}, {"is_disabled": 0, "fusion_lon": 0.0, "fusion_lat": 0.0, "lat": 38.903347333333336, "type": "electric_scooter", "lon": -77.0383785, "bike_id": "0b4b4e08552adaf85417999ed70ebc7b", "rental_uris": {"android": "https://dc.lft.to/lastmile_qr_scan", "ios": "https://dc.lft.to/lastmile_qr_scan"}, "name": "0b4b4e08552adaf85417999ed70ebc7b", "is_reserved": 0}, {"is_disabled": 0, "fusion_lon": 0.0, "fusion_lat": 0.0, "lat": 38.87743283333333, "type": "electric_scooter", "lon": -76.99624066666667, "bike_id": "4ce84f03d70997758bd36d0a99c67767", "rental_uris": {"android": "https://dc.lft.to/lastmile_qr_scan", "ios": "https://dc.lft.to/lastmile_qr_scan"}, "name": "4ce84f03d70997758bd36d0a99c67767", "is_reserved": 0}, {"is_disabled": 0, "fusion_lon": 0.0, "fusion_lat": 0.0, "lat": 38.944441833333336, "type": "electric_scooter", "lon": -77.06045483333334, "bike_id": "68bea698987c6bcaeb1b8db3cc07b132", "rental_uris": {"android": "https://dc.lft.to/lastmile_qr_scan", "ios": "https://dc.lft.to/lastmile_qr_scan"}, "name": "68bea698987c6bcaeb1b8db3cc07b132", "is_reserved": 0}, {"is_disabled": 0, "fusion_lon": 0.0, "fusion_lat": 0.0, "lat": 38.876510333333336, "type": "electric_scooter", "lon": -77.00762766666666, "bike_id": "069afff235b3566652903139dd9e1afd", "rental_uris": {"android": "https://dc.lft.to/lastmile_qr_scan", "ios": "https://dc.lft.to/lastmile_qr_scan"}, "name": "069afff235b3566652903139dd9e1afd", "is_reserved": 0}, {"is_disabled": 0, "fusion_lon": 0.0, "fusion_lat": 0.0, "lat": 38.926135333333335, "type": "electric_scooter", "lon": -77.0419175, "bike_id": "f0a5d27c9e20edf44345f583b1b6b288", "rental_uris": {"android": "https://dc.lft.to/lastmile_qr_scan", "ios": "https://dc.lft.to/lastmile_qr_scan"}, "name": "f0a5d27c9e20edf44345f583b1b6b288", "is_reserved": 0}, {"is_disabled": 0, "fusion_lon": 0.0, "fusion_lat": 0.0, "lat": 38.89542816666667, "type": "electric_scooter", "lon": -77.02814483333333, "bike_id": "ad2dad76bf7c977c344ec54ac945b104", "rental_uris": {"android": "https://dc.lft.to/lastmile_qr_scan", "ios": "https://dc.lft.to/lastmile_qr_scan"}, "name": "ad2dad76bf7c977c344ec54ac945b104", "is_reserved": 0}, {"is_disabled": 0, "fusion_lon": 0.0, "fusion_lat": 0.0, "lat": 38.909741833333335, "type": "electric_scooter", "lon": -77.0387305, "bike_id": "b6ed3c5b565634b8455b07ac9891b301", "rental_uris": {"android": "https://dc.lft.to/lastmile_qr_scan", "ios": "https://dc.lft.to/lastmile_qr_scan"}, "name": "b6ed3c5b565634b8455b07ac9891b301", "is_reserved": 0}, {"is_disabled": 0, "fusion_lon": 0.0, "fusion_lat": 0.0, "lat": 38.86948866666667, "type": "electric_scooter", "lon": -76.97603733333334, "bike_id": "3b557d0d01f4a6120f9d46e16cad383b", "rental_uris": {"android": "https://dc.lft.to/lastmile_qr_scan", "ios": "https://dc.lft.to/lastmile_qr_scan"}, "name": "3b557d0d01f4a6120f9d46e16cad383b", "is_reserved": 0}, {"is_disabled": 0, "fusion_lon": 0.0, "fusion_lat": 0.0, "lat": 38.92150816666667, "type": "electric_scooter", "lon": -77.03511166666667, "bike_id": "377b76fb7ee8d86ee21afb3ca7c4520c", "rental_uris": {"android": "https://dc.lft.to/lastmile_qr_scan", "ios": "https://dc.lft.to/lastmile_qr_scan"}, "name": "377b76fb7ee8d86ee21afb3ca7c4520c", "is_reserved": 0}, {"is_disabled": 0, "fusion_lon": 0.0, "fusion_lat": 0.0, "lat": 38.9054565, "type": "electric_scooter", "lon": -77.04684433333334, "bike_id": "9626de8cc4d5f8ca0e9033a8a8091263", "rental_uris": {"android": "https://dc.lft.to/lastmile_qr_scan", "ios": "https://dc.lft.to/lastmile_qr_scan"}, "name": "9626de8cc4d5f8ca0e9033a8a8091263", "is_reserved": 0}, {"is_disabled": 0, "fusion_lon": 0.0, "fusion_lat": 0.0, "lat": 38.9967055, "type": "electric_bike", "lon": -76.99142283333333, "bike_id": "0446a35a4888a37ee98ae17708c4d0b0", "rental_uris": {"android": "https://dc.lft.to/lastmile_qr_scan", "ios": "https://dc.lft.to/lastmile_qr_scan"}, "name": "0446a35a4888a37ee98ae17708c4d0b0", "is_reserved": 0}, {"is_disabled": 0, "fusion_lon": 0.0, "fusion_lat": 0.0, "lat": 38.897339833333334, "type": "electric_scooter", "lon": -77.02152083333333, "bike_id": "5560bb65ead0222687774d0076d88285", "rental_uris": {"android": "https://dc.lft.to/lastmile_qr_scan", "ios": "https://dc.lft.to/lastmile_qr_scan"}, "name": "5560bb65ead0222687774d0076d88285", "is_reserved": 0}, {"is_disabled": 0, "fusion_lon": 0.0, "fusion_lat": 0.0, "lat": 38.910733666666665, "type": "electric_scooter", "lon": -77.043944, "bike_id": "8714370d330c2e6a7b7550bf1e165b98", "rental_uris": {"android": "https://dc.lft.to/lastmile_qr_scan", "ios": "https://dc.lft.to/lastmile_qr_scan"}, "name": "8714370d330c2e6a7b7550bf1e165b98", "is_reserved": 0}, {"is_disabled": 0, "fusion_lon": 0.0, "fusion_lat": 0.0, "lat": 38.91487166666667, "type": "electric_scooter", "lon": -77.0393625, "bike_id": "3a3b5dd6f84680ea24a6678e7d9e9920", "rental_uris": {"android": "https://dc.lft.to/lastmile_qr_scan", "ios": "https://dc.lft.to/lastmile_qr_scan"}, "name": "3a3b5dd6f84680ea24a6678e7d9e9920", "is_reserved": 0}, {"is_disabled": 0, "fusion_lon": 0.0, "fusion_lat": 0.0, "lat": 38.90275116666667, "type": "electric_scooter", "lon": -77.03671266666667, "bike_id": "6c4288bc7151ca5289a6ced1ab33b529", "rental_uris": {"android": "https://dc.lft.to/lastmile_qr_scan", "ios": "https://dc.lft.to/lastmile_qr_scan"}, "name": "6c4288bc7151ca5289a6ced1ab33b529", "is_reserved": 0}, {"is_disabled": 0, "fusion_lon": 0.0, "fusion_lat": 0.0, "lat": 38.89542266666667, "type": "electric_scooter", "lon": -76.94930083333334, "bike_id": "3367c13a58de188b3cd58d7da3a8282b", "rental_uris": {"android": "https://dc.lft.to/lastmile_qr_scan", "ios": "https://dc.lft.to/lastmile_qr_scan"}, "name": "3367c13a58de188b3cd58d7da3a8282b", "is_reserved": 0}, {"is_disabled": 0, "fusion_lon": 0.0, "fusion_lat": 0.0, "lat": 38.910401, "type": "electric_scooter", "lon": -77.0425545, "bike_id": "7dcb25e7c4237506b021ab144fa07004", "rental_uris": {"android": "https://dc.lft.to/lastmile_qr_scan", "ios": "https://dc.lft.to/lastmile_qr_scan"}, "name": "7dcb25e7c4237506b021ab144fa07004", "is_reserved": 0}, {"is_disabled": 0, "fusion_lon": 0.0, "fusion_lat": 0.0, "lat": 38.86958766666667, "type": "electric_scooter", "lon": -76.97600283333334, "bike_id": "9ff49c8c4b40996edefbb77718cf72cb", "rental_uris": {"android": "https://dc.lft.to/lastmile_qr_scan", "ios": "https://dc.lft.to/lastmile_qr_scan"}, "name": "9ff49c8c4b40996edefbb77718cf72cb", "is_reserved": 0}, {"is_disabled": 0, "fusion_lon": 0.0, "fusion_lat": 0.0, "lat": 38.909696833333335, "type": "electric_scooter", "lon": -77.03105883333333, "bike_id": "bcd273b1e822a4973fb3ce2ea3f630b0", "rental_uris": {"android": "https://dc.lft.to/lastmile_qr_scan", "ios": "https://dc.lft.to/lastmile_qr_scan"}, "name": "bcd273b1e822a4973fb3ce2ea3f630b0", "is_reserved": 0}, {"is_disabled": 0, "fusion_lon": 0.0, "fusion_lat": 0.0, "lat": 38.9363375, "type": "electric_scooter", "lon": -77.02700916666667, "bike_id": "bafab37f6ba8a70dd589bf6631ba1454", "rental_uris": {"android": "https://dc.lft.to/lastmile_qr_scan", "ios": "https://dc.lft.to/lastmile_qr_scan"}, "name": "bafab37f6ba8a70dd589bf6631ba1454", "is_reserved": 0}, {"is_disabled": 0, "fusion_lon": 0.0, "fusion_lat": 0.0, "lat": 38.873819833333336, "type": "electric_scooter", "lon": -77.00093733333334, "bike_id": "9961e96f0e82ee5bd1f3e84754975d7e", "rental_uris": {"android": "https://dc.lft.to/lastmile_qr_scan", "ios": "https://dc.lft.to/lastmile_qr_scan"}, "name": "9961e96f0e82ee5bd1f3e84754975d7e", "is_reserved": 0}, {"is_disabled": 0, "fusion_lon": 0.0, "fusion_lat": 0.0, "lat": 38.92459783333334, "type": "electric_bike", "lon": -76.99950433333333, "bike_id": "c1443dbb738ae0e8c33cd396b6a6b5d8", "rental_uris": {"android": "https://dc.lft.to/lastmile_qr_scan", "ios": "https://dc.lft.to/lastmile_qr_scan"}, "name": "c1443dbb738ae0e8c33cd396b6a6b5d8", "is_reserved": 0}, {"is_disabled": 0, "fusion_lon": 0.0, "fusion_lat": 0.0, "lat": 38.9052615, "type": "electric_scooter", "lon": -77.02152583333333, "bike_id": "108f65b333d68914fc987a9ebf38651c", "rental_uris": {"android": "https://dc.lft.to/lastmile_qr_scan", "ios": "https://dc.lft.to/lastmile_qr_scan"}, "name": "108f65b333d68914fc987a9ebf38651c", "is_reserved": 0}, {"is_disabled": 0, "fusion_lon": 0.0, "fusion_lat": 0.0, "lat": 38.90180683333333, "type": "electric_scooter", "lon": -77.05268966666667, "bike_id": "19820215478dcb1ce3574d0528b3b3b3", "rental_uris": {"android": "https://dc.lft.to/lastmile_qr_scan", "ios": "https://dc.lft.to/lastmile_qr_scan"}, "name": "19820215478dcb1ce3574d0528b3b3b3", "is_reserved": 0}, {"is_disabled": 0, "fusion_lon": 0.0, "fusion_lat": 0.0, "lat": 38.915719333333335, "type": "electric_scooter", "lon": -77.03238733333333, "bike_id": "0ac34d54559747c6ca399753e0642b1f", "rental_uris": {"android": "https://dc.lft.to/lastmile_qr_scan", "ios": "https://dc.lft.to/lastmile_qr_scan"}, "name": "0ac34d54559747c6ca399753e0642b1f", "is_reserved": 0}, {"is_disabled": 0, "fusion_lon": 0.0, "fusion_lat": 0.0, "lat": 38.95404466666667, "type": "electric_scooter", "lon": -77.02754683333333, "bike_id": "229c8306d317c7cb57881ba80529fcfc", "rental_uris": {"android": "https://dc.lft.to/lastmile_qr_scan", "ios": "https://dc.lft.to/lastmile_qr_scan"}, "name": "229c8306d317c7cb57881ba80529fcfc", "is_reserved": 0}, {"is_disabled": 0, "fusion_lon": 0.0, "fusion_lat": 0.0, "lat": 38.89907083333333, "type": "electric_scooter", "lon": -76.93395783333334, "bike_id": "1a7fa7bf24c6b20a149f8e2fec03044c", "rental_uris": {"android": "https://dc.lft.to/lastmile_qr_scan", "ios": "https://dc.lft.to/lastmile_qr_scan"}, "name": "1a7fa7bf24c6b20a149f8e2fec03044c", "is_reserved": 0}, {"is_disabled": 0, "fusion_lon": 0.0, "fusion_lat": 0.0, "lat": 38.86304033333333, "type": "electric_scooter", "lon": -76.98274416666666, "bike_id": "94496fd52b112155e3d2ce2a976af86c", "rental_uris": {"android": "https://dc.lft.to/lastmile_qr_scan", "ios": "https://dc.lft.to/lastmile_qr_scan"}, "name": "94496fd52b112155e3d2ce2a976af86c", "is_reserved": 0}, {"is_disabled": 0, "fusion_lon": 0.0, "fusion_lat": 0.0, "lat": 38.90728816666667, "type": "electric_scooter", "lon": -77.0021585, "bike_id": "37b8af76d8b79d14cd99d3f6b94ccb92", "rental_uris": {"android": "https://dc.lft.to/lastmile_qr_scan", "ios": "https://dc.lft.to/lastmile_qr_scan"}, "name": "37b8af76d8b79d14cd99d3f6b94ccb92", "is_reserved": 0}, {"is_disabled": 0, "fusion_lon": 0.0, "fusion_lat": 0.0, "lat": 38.92228566666667, "type": "electric_scooter", "lon": -77.04344616666667, "bike_id": "0bcac6880b16afafb803a023564dfaa6", "rental_uris": {"android": "https://dc.lft.to/lastmile_qr_scan", "ios": "https://dc.lft.to/lastmile_qr_scan"}, "name": "0bcac6880b16afafb803a023564dfaa6", "is_reserved": 0}, {"is_disabled": 0, "fusion_lon": 0.0, "fusion_lat": 0.0, "lat": 38.84599633333333, "type": "electric_bike", "lon": -76.96881516666667, "bike_id": "70e52cb79a170a82ada4cb18162036e8", "rental_uris": {"android": "https://dc.lft.to/lastmile_qr_scan", "ios": "https://dc.lft.to/lastmile_qr_scan"}, "name": "70e52cb79a170a82ada4cb18162036e8", "is_reserved": 0}, {"is_disabled": 0, "fusion_lon": 0.0, "fusion_lat": 0.0, "lat": 38.9596515, "type": "electric_scooter", "lon": -77.02113016666667, "bike_id": "7e0dda9d54682d933781b3f56e3260f8", "rental_uris": {"android": "https://dc.lft.to/lastmile_qr_scan", "ios": "https://dc.lft.to/lastmile_qr_scan"}, "name": "7e0dda9d54682d933781b3f56e3260f8", "is_reserved": 0}, {"is_disabled": 0, "fusion_lon": 0.0, "fusion_lat": 0.0, "lat": 38.88370666666667, "type": "electric_bike", "lon": -77.03069566666667, "bike_id": "b40a0299817b0e5bdb6152db09893cb9", "rental_uris": {"android": "https://dc.lft.to/lastmile_qr_scan", "ios": "https://dc.lft.to/lastmile_qr_scan"}, "name": "b40a0299817b0e5bdb6152db09893cb9", "is_reserved": 0}, {"is_disabled": 0, "fusion_lon": 0.0, "fusion_lat": 0.0, "lat": 38.8951855, "type": "electric_scooter", "lon": -77.0228275, "bike_id": "c3f9efec4e086e4c264a9440047239c7", "rental_uris": {"android": "https://dc.lft.to/lastmile_qr_scan", "ios": "https://dc.lft.to/lastmile_qr_scan"}, "name": "c3f9efec4e086e4c264a9440047239c7", "is_reserved": 0}, {"is_disabled": 0, "fusion_lon": 0.0, "fusion_lat": 0.0, "lat": 38.89612983333333, "type": "electric_scooter", "lon": -77.02580316666666, "bike_id": "ca7232a187a2c43bca421ee5d715d565", "rental_uris": {"android": "https://dc.lft.to/lastmile_qr_scan", "ios": "https://dc.lft.to/lastmile_qr_scan"}, "name": "ca7232a187a2c43bca421ee5d715d565", "is_reserved": 0}, {"is_disabled": 0, "fusion_lon": 0.0, "fusion_lat": 0.0, "lat": 38.953215, "type": "electric_bike", "lon": -77.0151615, "bike_id": "ddddb9dc933ac9525ab127ef2dc36328", "rental_uris": {"android": "https://dc.lft.to/lastmile_qr_scan", "ios": "https://dc.lft.to/lastmile_qr_scan"}, "name": "ddddb9dc933ac9525ab127ef2dc36328", "is_reserved": 0}, {"is_disabled": 0, "fusion_lon": 0.0, "fusion_lat": 0.0, "lat": 38.895922166666665, "type": "electric_bike", "lon": -77.0714365, "bike_id": "ff4f91e8cf7d0bc99b92c80d849115f7", "rental_uris": {"android": "https://dc.lft.to/lastmile_qr_scan", "ios": "https://dc.lft.to/lastmile_qr_scan"}, "name": "ff4f91e8cf7d0bc99b92c80d849115f7", "is_reserved": 0}, {"is_disabled": 0, "fusion_lon": 0.0, "fusion_lat": 0.0, "lat": 38.8429915, "type": "electric_bike", "lon": -77.11437783333334, "bike_id": "822ec12fce60f6fd6e66185f42844145", "rental_uris": {"android": "https://dc.lft.to/lastmile_qr_scan", "ios": "https://dc.lft.to/lastmile_qr_scan"}, "name": "822ec12fce60f6fd6e66185f42844145", "is_reserved": 0}, {"is_disabled": 0, "fusion_lon": 0.0, "fusion_lat": 0.0, "lat": 38.8887465, "type": "electric_scooter", "lon": -76.953721, "bike_id": "c312ed30ad86087b065442f46a833e66", "rental_uris": {"android": "https://dc.lft.to/lastmile_qr_scan", "ios": "https://dc.lft.to/lastmile_qr_scan"}, "name": "c312ed30ad86087b065442f46a833e66", "is_reserved": 0}, {"is_disabled": 0, "fusion_lon": 0.0, "fusion_lat": 0.0, "lat": 38.91854383333333, "type": "electric_bike", "lon": -76.96087866666667, "bike_id": "6c8c9e9568606f89b7d694dea7cb2b5f", "rental_uris": {"android": "https://dc.lft.to/lastmile_qr_scan", "ios": "https://dc.lft.to/lastmile_qr_scan"}, "name": "6c8c9e9568606f89b7d694dea7cb2b5f", "is_reserved": 0}, {"is_disabled": 0, "fusion_lon": 0.0, "fusion_lat": 0.0, "lat": 38.918819166666665, "type": "electric_scooter", "lon": -77.0431615, "bike_id": "36a56f40c2f16b52b8d0fcf9baf930db", "rental_uris": {"android": "https://dc.lft.to/lastmile_qr_scan", "ios": "https://dc.lft.to/lastmile_qr_scan"}, "name": "36a56f40c2f16b52b8d0fcf9baf930db", "is_reserved": 0}, {"is_disabled": 0, "fusion_lon": 0.0, "fusion_lat": 0.0, "lat": 38.945485166666664, "type": "electric_scooter", "lon": -77.042502, "bike_id": "4e183dc4b0f75a6583ef81468967d058", "rental_uris": {"android": "https://dc.lft.to/lastmile_qr_scan", "ios": "https://dc.lft.to/lastmile_qr_scan"}, "name": "4e183dc4b0f75a6583ef81468967d058", "is_reserved": 0}, {"is_disabled": 0, "fusion_lon": 0.0, "fusion_lat": 0.0, "lat": 38.926733166666665, "type": "electric_scooter", "lon": -77.04305633333334, "bike_id": "a167b4c06ea75e2dcea6b7b1c1615296", "rental_uris": {"android": "https://dc.lft.to/lastmile_qr_scan", "ios": "https://dc.lft.to/lastmile_qr_scan"}, "name": "a167b4c06ea75e2dcea6b7b1c1615296", "is_reserved": 0}, {"is_disabled": 0, "fusion_lon": 0.0, "fusion_lat": 0.0, "lat": 38.903167833333335, "type": "electric_bike", "lon": -76.97565716666666, "bike_id": "f75ba3fe5c4b9de59abc43b2d0d3dcbd", "rental_uris": {"android": "https://dc.lft.to/lastmile_qr_scan", "ios": "https://dc.lft.to/lastmile_qr_scan"}, "name": "f75ba3fe5c4b9de59abc43b2d0d3dcbd", "is_reserved": 0}, {"is_disabled": 0, "fusion_lon": 0.0, "fusion_lat": 0.0, "lat": 38.92154283333333, "type": "electric_scooter", "lon": -77.0350625, "bike_id": "9d416c97f1135893baaad757b4e0e506", "rental_uris": {"android": "https://dc.lft.to/lastmile_qr_scan", "ios": "https://dc.lft.to/lastmile_qr_scan"}, "name": "9d416c97f1135893baaad757b4e0e506", "is_reserved": 0}, {"is_disabled": 0, "fusion_lon": 0.0, "fusion_lat": 0.0, "lat": 38.92365483333333, "type": "electric_scooter", "lon": -77.05133783333333, "bike_id": "299fd698372bfe6e60cd8daf6f9e5039", "rental_uris": {"android": "https://dc.lft.to/lastmile_qr_scan", "ios": "https://dc.lft.to/lastmile_qr_scan"}, "name": "299fd698372bfe6e60cd8daf6f9e5039", "is_reserved": 0}, {"is_disabled": 0, "fusion_lon": 0.0, "fusion_lat": 0.0, "lat": 38.90198933333333, "type": "electric_scooter", "lon": -77.02380383333333, "bike_id": "d832f5dad72050355bda51ec7579bd20", "rental_uris": {"android": "https://dc.lft.to/lastmile_qr_scan", "ios": "https://dc.lft.to/lastmile_qr_scan"}, "name": "d832f5dad72050355bda51ec7579bd20", "is_reserved": 0}, {"is_disabled": 0, "fusion_lon": 0.0, "fusion_lat": 0.0, "lat": 38.9345845, "type": "electric_scooter", "lon": -77.07270016666666, "bike_id": "503a623ef3c583bf36ff12cbacf67e95", "rental_uris": {"android": "https://dc.lft.to/lastmile_qr_scan", "ios": "https://dc.lft.to/lastmile_qr_scan"}, "name": "503a623ef3c583bf36ff12cbacf67e95", "is_reserved": 0}, {"is_disabled": 0, "fusion_lon": 0.0, "fusion_lat": 0.0, "lat": 38.91273133333333, "type": "electric_scooter", "lon": -77.041662, "bike_id": "3d597c912df575b758d9362ac1a04698", "rental_uris": {"android": "https://dc.lft.to/lastmile_qr_scan", "ios": "https://dc.lft.to/lastmile_qr_scan"}, "name": "3d597c912df575b758d9362ac1a04698", "is_reserved": 0}, {"is_disabled": 0, "fusion_lon": 0.0, "fusion_lat": 0.0, "lat": 38.931747666666666, "type": "electric_scooter", "lon": -77.0725645, "bike_id": "60ae68044cadd4ca3f23009a3696a238", "rental_uris": {"android": "https://dc.lft.to/lastmile_qr_scan", "ios": "https://dc.lft.to/lastmile_qr_scan"}, "name": "60ae68044cadd4ca3f23009a3696a238", "is_reserved": 0}, {"is_disabled": 0, "fusion_lon": 0.0, "fusion_lat": 0.0, "lat": 38.93481383333334, "type": "electric_scooter", "lon": -77.072704, "bike_id": "0dae877e85f1465eb994fc3862612064", "rental_uris": {"android": "https://dc.lft.to/lastmile_qr_scan", "ios": "https://dc.lft.to/lastmile_qr_scan"}, "name": "0dae877e85f1465eb994fc3862612064", "is_reserved": 0}, {"is_disabled": 0, "fusion_lon": 0.0, "fusion_lat": 0.0, "lat": 38.9193335, "type": "electric_scooter", "lon": -77.02595383333333, "bike_id": "afde27e34c09ef3cbc5b93c442d78d30", "rental_uris": {"android": "https://dc.lft.to/lastmile_qr_scan", "ios": "https://dc.lft.to/lastmile_qr_scan"}, "name": "afde27e34c09ef3cbc5b93c442d78d30", "is_reserved": 0}, {"is_disabled": 0, "fusion_lon": 0.0, "fusion_lat": 0.0, "lat": 38.936447333333334, "type": "electric_scooter", "lon": -77.02085483333333, "bike_id": "a818a8bdad977f1f31f373a1ef4b4b78", "rental_uris": {"android": "https://dc.lft.to/lastmile_qr_scan", "ios": "https://dc.lft.to/lastmile_qr_scan"}, "name": "a818a8bdad977f1f31f373a1ef4b4b78", "is_reserved": 0}, {"is_disabled": 0, "fusion_lon": 0.0, "fusion_lat": 0.0, "lat": 38.913224166666666, "type": "electric_scooter", "lon": -77.03190683333334, "bike_id": "8a3048cb5c3cb12bda9633a54c83123d", "rental_uris": {"android": "https://dc.lft.to/lastmile_qr_scan", "ios": "https://dc.lft.to/lastmile_qr_scan"}, "name": "8a3048cb5c3cb12bda9633a54c83123d", "is_reserved": 0}, {"is_disabled": 0, "fusion_lon": 0.0, "fusion_lat": 0.0, "lat": 38.898461833333336, "type": "electric_scooter", "lon": -77.03204066666666, "bike_id": "b8251c049a1b421396bc35bb117f994e", "rental_uris": {"android": "https://dc.lft.to/lastmile_qr_scan", "ios": "https://dc.lft.to/lastmile_qr_scan"}, "name": "b8251c049a1b421396bc35bb117f994e", "is_reserved": 0}, {"is_disabled": 0, "fusion_lon": 0.0, "fusion_lat": 0.0, "lat": 38.90945833333333, "type": "electric_scooter", "lon": -77.05539683333333, "bike_id": "801ae9ea8631a970d1189b1b4bdb30ba", "rental_uris": {"android": "https://dc.lft.to/lastmile_qr_scan", "ios": "https://dc.lft.to/lastmile_qr_scan"}, "name": "801ae9ea8631a970d1189b1b4bdb30ba", "is_reserved": 0}, {"is_disabled": 0, "fusion_lon": 0.0, "fusion_lat": 0.0, "lat": 38.88999916666667, "type": "electric_scooter", "lon": -77.04897933333334, "bike_id": "d5ab19858eb637d9e7033e6168666d7b", "rental_uris": {"android": "https://dc.lft.to/lastmile_qr_scan", "ios": "https://dc.lft.to/lastmile_qr_scan"}, "name": "d5ab19858eb637d9e7033e6168666d7b", "is_reserved": 0}, {"is_disabled": 0, "fusion_lon": 0.0, "fusion_lat": 0.0, "lat": 38.907672833333336, "type": "electric_scooter", "lon": -76.996526, "bike_id": "6b2cf91473d46028b3553fe4adb52ab9", "rental_uris": {"android": "https://dc.lft.to/lastmile_qr_scan", "ios": "https://dc.lft.to/lastmile_qr_scan"}, "name": "6b2cf91473d46028b3553fe4adb52ab9", "is_reserved": 0}, {"is_disabled": 0, "fusion_lon": 0.0, "fusion_lat": 0.0, "lat": 38.91077216666667, "type": "electric_scooter", "lon": -77.04388566666667, "bike_id": "dc59f5b2637faa2d30f44c16c0db66c2", "rental_uris": {"android": "https://dc.lft.to/lastmile_qr_scan", "ios": "https://dc.lft.to/lastmile_qr_scan"}, "name": "dc59f5b2637faa2d30f44c16c0db66c2", "is_reserved": 0}, {"is_disabled": 0, "fusion_lon": 0.0, "fusion_lat": 0.0, "lat": 38.900599166666666, "type": "electric_scooter", "lon": -76.934738, "bike_id": "eaa229ca5da1a73dd0a400b532b46808", "rental_uris": {"android": "https://dc.lft.to/lastmile_qr_scan", "ios": "https://dc.lft.to/lastmile_qr_scan"}, "name": "eaa229ca5da1a73dd0a400b532b46808", "is_reserved": 0}, {"is_disabled": 0, "fusion_lon": 0.0, "fusion_lat": 0.0, "lat": 38.892265333333334, "type": "electric_scooter", "lon": -77.02219333333333, "bike_id": "eb6fc6827b0ed82435a11628284dfa99", "rental_uris": {"android": "https://dc.lft.to/lastmile_qr_scan", "ios": "https://dc.lft.to/lastmile_qr_scan"}, "name": "eb6fc6827b0ed82435a11628284dfa99", "is_reserved": 0}, {"is_disabled": 0, "fusion_lon": 0.0, "fusion_lat": 0.0, "lat": 38.906899, "type": "electric_bike", "lon": -76.95257616666666, "bike_id": "5db98d6ba9ac50f665df6d0863560dea", "rental_uris": {"android": "https://dc.lft.to/lastmile_qr_scan", "ios": "https://dc.lft.to/lastmile_qr_scan"}, "name": "5db98d6ba9ac50f665df6d0863560dea", "is_reserved": 0}, {"is_disabled": 0, "fusion_lon": 0.0, "fusion_lat": 0.0, "lat": 38.91707816666667, "type": "electric_scooter", "lon": -77.02487866666667, "bike_id": "a4b047c7c9e8c8e822b5031572daab6a", "rental_uris": {"android": "https://dc.lft.to/lastmile_qr_scan", "ios": "https://dc.lft.to/lastmile_qr_scan"}, "name": "a4b047c7c9e8c8e822b5031572daab6a", "is_reserved": 0}, {"is_disabled": 0, "fusion_lon": 0.0, "fusion_lat": 0.0, "lat": 38.86335033333334, "type": "electric_bike", "lon": -76.98717583333334, "bike_id": "dda1f190f104bdaf63e2e24b931fc832", "rental_uris": {"android": "https://dc.lft.to/lastmile_qr_scan", "ios": "https://dc.lft.to/lastmile_qr_scan"}, "name": "dda1f190f104bdaf63e2e24b931fc832", "is_reserved": 0}, {"is_disabled": 0, "fusion_lon": 0.0, "fusion_lat": 0.0, "lat": 38.912118166666666, "type": "electric_scooter", "lon": -77.02098833333334, "bike_id": "de2614147a49a56a7c9620f245bfcf30", "rental_uris": {"android": "https://dc.lft.to/lastmile_qr_scan", "ios": "https://dc.lft.to/lastmile_qr_scan"}, "name": "de2614147a49a56a7c9620f245bfcf30", "is_reserved": 0}, {"is_disabled": 0, "fusion_lon": 0.0, "fusion_lat": 0.0, "lat": 38.91932533333333, "type": "electric_scooter", "lon": -77.0259545, "bike_id": "dce7022d6ca6490ab9ce16f893f51469", "rental_uris": {"android": "https://dc.lft.to/lastmile_qr_scan", "ios": "https://dc.lft.to/lastmile_qr_scan"}, "name": "dce7022d6ca6490ab9ce16f893f51469", "is_reserved": 0}, {"is_disabled": 0, "fusion_lon": 0.0, "fusion_lat": 0.0, "lat": 38.92965866666667, "type": "electric_scooter", "lon": -77.05496916666667, "bike_id": "21ee1cfb14568c2a2cdb932efe2484ea", "rental_uris": {"android": "https://dc.lft.to/lastmile_qr_scan", "ios": "https://dc.lft.to/lastmile_qr_scan"}, "name": "21ee1cfb14568c2a2cdb932efe2484ea", "is_reserved": 0}, {"is_disabled": 0, "fusion_lon": 0.0, "fusion_lat": 0.0, "lat": 38.92824933333333, "type": "electric_scooter", "lon": -77.0544135, "bike_id": "f305d9b62140cd4616772c37e4b0a1a7", "rental_uris": {"android": "https://dc.lft.to/lastmile_qr_scan", "ios": "https://dc.lft.to/lastmile_qr_scan"}, "name": "f305d9b62140cd4616772c37e4b0a1a7", "is_reserved": 0}, {"is_disabled": 0, "fusion_lon": 0.0, "fusion_lat": 0.0, "lat": 38.914024166666664, "type": "electric_scooter", "lon": -77.02171383333334, "bike_id": "3f62510666fb2de1cfb0164f5d586073", "rental_uris": {"android": "https://dc.lft.to/lastmile_qr_scan", "ios": "https://dc.lft.to/lastmile_qr_scan"}, "name": "3f62510666fb2de1cfb0164f5d586073", "is_reserved": 0}, {"is_disabled": 0, "fusion_lon": 0.0, "fusion_lat": 0.0, "lat": 38.89800683333333, "type": "electric_scooter", "lon": -77.01201383333333, "bike_id": "1ef9386ccff53237987f2667fc14f3c7", "rental_uris": {"android": "https://dc.lft.to/lastmile_qr_scan", "ios": "https://dc.lft.to/lastmile_qr_scan"}, "name": "1ef9386ccff53237987f2667fc14f3c7", "is_reserved": 0}, {"is_disabled": 0, "fusion_lon": 0.0, "fusion_lat": 0.0, "lat": 38.91251583333333, "type": "electric_scooter", "lon": -77.04160083333333, "bike_id": "801a7722513f0c90fc2833f5556c31d2", "rental_uris": {"android": "https://dc.lft.to/lastmile_qr_scan", "ios": "https://dc.lft.to/lastmile_qr_scan"}, "name": "801a7722513f0c90fc2833f5556c31d2", "is_reserved": 0}, {"is_disabled": 0, "fusion_lon": 0.0, "fusion_lat": 0.0, "lat": 38.89474833333333, "type": "electric_scooter", "lon": -76.94960833333333, "bike_id": "7c95f2e20c24171d2f7b2f56e6f21f6d", "rental_uris": {"android": "https://dc.lft.to/lastmile_qr_scan", "ios": "https://dc.lft.to/lastmile_qr_scan"}, "name": "7c95f2e20c24171d2f7b2f56e6f21f6d", "is_reserved": 0}, {"is_disabled": 0, "fusion_lon": 0.0, "fusion_lat": 0.0, "lat": 38.8851315, "type": "electric_scooter", "lon": -76.9985155, "bike_id": "d4268d13a7d1f03d094f4c43b9b2d21c", "rental_uris": {"android": "https://dc.lft.to/lastmile_qr_scan", "ios": "https://dc.lft.to/lastmile_qr_scan"}, "name": "d4268d13a7d1f03d094f4c43b9b2d21c", "is_reserved": 0}, {"is_disabled": 0, "fusion_lon": 0.0, "fusion_lat": 0.0, "lat": 38.92330183333333, "type": "electric_scooter", "lon": -77.043742, "bike_id": "0de407b33c5782fe26caaa4fb031b701", "rental_uris": {"android": "https://dc.lft.to/lastmile_qr_scan", "ios": "https://dc.lft.to/lastmile_qr_scan"}, "name": "0de407b33c5782fe26caaa4fb031b701", "is_reserved": 0}, {"is_disabled": 0, "fusion_lon": 0.0, "fusion_lat": 0.0, "lat": 38.920408333333334, "type": "electric_scooter", "lon": -77.04186016666667, "bike_id": "601108953878aefaace5cdc0737b996c", "rental_uris": {"android": "https://dc.lft.to/lastmile_qr_scan", "ios": "https://dc.lft.to/lastmile_qr_scan"}, "name": "601108953878aefaace5cdc0737b996c", "is_reserved": 0}, {"is_disabled": 0, "fusion_lon": 0.0, "fusion_lat": 0.0, "lat": 38.939688, "type": "electric_scooter", "lon": -77.032807, "bike_id": "a796f2092010fe9852aa86657c647637", "rental_uris": {"android": "https://dc.lft.to/lastmile_qr_scan", "ios": "https://dc.lft.to/lastmile_qr_scan"}, "name": "a796f2092010fe9852aa86657c647637", "is_reserved": 0}, {"is_disabled": 0, "fusion_lon": 0.0, "fusion_lat": 0.0, "lat": 38.892265, "type": "electric_scooter", "lon": -77.02220166666666, "bike_id": "9b2f761c6f69f78d1c6dc65db6b25b83", "rental_uris": {"android": "https://dc.lft.to/lastmile_qr_scan", "ios": "https://dc.lft.to/lastmile_qr_scan"}, "name": "9b2f761c6f69f78d1c6dc65db6b25b83", "is_reserved": 0}, {"is_disabled": 0, "fusion_lon": 0.0, "fusion_lat": 0.0, "lat": 38.926531833333335, "type": "electric_scooter", "lon": -77.03722933333333, "bike_id": "f22d4398cd14ec94e13f755ae2f3e170", "rental_uris": {"android": "https://dc.lft.to/lastmile_qr_scan", "ios": "https://dc.lft.to/lastmile_qr_scan"}, "name": "f22d4398cd14ec94e13f755ae2f3e170", "is_reserved": 0}, {"is_disabled": 0, "fusion_lon": 0.0, "fusion_lat": 0.0, "lat": 38.8766555, "type": "electric_scooter", "lon": -77.00937666666667, "bike_id": "1e52f7336596cc8770c3ca42078cc55e", "rental_uris": {"android": "https://dc.lft.to/lastmile_qr_scan", "ios": "https://dc.lft.to/lastmile_qr_scan"}, "name": "1e52f7336596cc8770c3ca42078cc55e", "is_reserved": 0}, {"is_disabled": 0, "fusion_lon": 0.0, "fusion_lat": 0.0, "lat": 38.89223366666667, "type": "electric_scooter", "lon": -77.04019066666666, "bike_id": "f6c98968e4269ca45b27b01827c7f53f", "rental_uris": {"android": "https://dc.lft.to/lastmile_qr_scan", "ios": "https://dc.lft.to/lastmile_qr_scan"}, "name": "f6c98968e4269ca45b27b01827c7f53f", "is_reserved": 0}, {"is_disabled": 0, "fusion_lon": 0.0, "fusion_lat": 0.0, "lat": 38.901604666666664, "type": "electric_scooter", "lon": -77.02616016666667, "bike_id": "fa9905cdbc2db3c7c61527c67867907f", "rental_uris": {"android": "https://dc.lft.to/lastmile_qr_scan", "ios": "https://dc.lft.to/lastmile_qr_scan"}, "name": "fa9905cdbc2db3c7c61527c67867907f", "is_reserved": 0}, {"is_disabled": 0, "fusion_lon": 0.0, "fusion_lat": 0.0, "lat": 38.9565035, "type": "electric_scooter", "lon": -77.03296033333334, "bike_id": "dfa95aed78125386bf31851120219f93", "rental_uris": {"android": "https://dc.lft.to/lastmile_qr_scan", "ios": "https://dc.lft.to/lastmile_qr_scan"}, "name": "dfa95aed78125386bf31851120219f93", "is_reserved": 0}, {"is_disabled": 0, "fusion_lon": 0.0, "fusion_lat": 0.0, "lat": 38.895339666666665, "type": "electric_scooter", "lon": -77.02822766666667, "bike_id": "a61afd8687e317c09aeacacb0f5301eb", "rental_uris": {"android": "https://dc.lft.to/lastmile_qr_scan", "ios": "https://dc.lft.to/lastmile_qr_scan"}, "name": "a61afd8687e317c09aeacacb0f5301eb", "is_reserved": 0}, {"is_disabled": 0, "fusion_lon": 0.0, "fusion_lat": 0.0, "lat": 38.89681783333333, "type": "electric_scooter", "lon": -77.051632, "bike_id": "88baa13e95b8b797f4e372d8767abe96", "rental_uris": {"android": "https://dc.lft.to/lastmile_qr_scan", "ios": "https://dc.lft.to/lastmile_qr_scan"}, "name": "88baa13e95b8b797f4e372d8767abe96", "is_reserved": 0}, {"is_disabled": 0, "fusion_lon": 0.0, "fusion_lat": 0.0, "lat": 38.8763025, "type": "electric_scooter", "lon": -76.965408, "bike_id": "07cd4ece8695959737403a36e03f6545", "rental_uris": {"android": "https://dc.lft.to/lastmile_qr_scan", "ios": "https://dc.lft.to/lastmile_qr_scan"}, "name": "07cd4ece8695959737403a36e03f6545", "is_reserved": 0}, {"is_disabled": 0, "fusion_lon": 0.0, "fusion_lat": 0.0, "lat": 38.909729, "type": "electric_scooter", "lon": -77.067649, "bike_id": "4fdc778d398d7fc81dba9c8f57852fb7", "rental_uris": {"android": "https://dc.lft.to/lastmile_qr_scan", "ios": "https://dc.lft.to/lastmile_qr_scan"}, "name": "4fdc778d398d7fc81dba9c8f57852fb7", "is_reserved": 0}, {"is_disabled": 0, "fusion_lon": 0.0, "fusion_lat": 0.0, "lat": 38.917208333333335, "type": "electric_scooter", "lon": -77.03664033333334, "bike_id": "8e87e91f29b94b6f568db1b4eeb42c84", "rental_uris": {"android": "https://dc.lft.to/lastmile_qr_scan", "ios": "https://dc.lft.to/lastmile_qr_scan"}, "name": "8e87e91f29b94b6f568db1b4eeb42c84", "is_reserved": 0}, {"is_disabled": 0, "fusion_lon": 0.0, "fusion_lat": 0.0, "lat": 38.962229, "type": "electric_scooter", "lon": -77.02799183333333, "bike_id": "609427e0cf205650b2e3ba8abdd35472", "rental_uris": {"android": "https://dc.lft.to/lastmile_qr_scan", "ios": "https://dc.lft.to/lastmile_qr_scan"}, "name": "609427e0cf205650b2e3ba8abdd35472", "is_reserved": 0}, {"is_disabled": 0, "fusion_lon": 0.0, "fusion_lat": 0.0, "lat": 38.9101565, "type": "electric_scooter", "lon": -77.00770633333333, "bike_id": "2c2cb78a4fcd7ef0891549ef1fc35463", "rental_uris": {"android": "https://dc.lft.to/lastmile_qr_scan", "ios": "https://dc.lft.to/lastmile_qr_scan"}, "name": "2c2cb78a4fcd7ef0891549ef1fc35463", "is_reserved": 0}, {"is_disabled": 0, "fusion_lon": 0.0, "fusion_lat": 0.0, "lat": 38.99091516666667, "type": "electric_bike", "lon": -76.87495083333333, "bike_id": "3bbf7295960c7ddf50a9105f824e1e33", "rental_uris": {"android": "https://dc.lft.to/lastmile_qr_scan", "ios": "https://dc.lft.to/lastmile_qr_scan"}, "name": "3bbf7295960c7ddf50a9105f824e1e33", "is_reserved": 0}, {"is_disabled": 0, "fusion_lon": 0.0, "fusion_lat": 0.0, "lat": 38.9009005, "type": "electric_scooter", "lon": -77.048817, "bike_id": "f61e7c906a4af05b0763a96eb3920ceb", "rental_uris": {"android": "https://dc.lft.to/lastmile_qr_scan", "ios": "https://dc.lft.to/lastmile_qr_scan"}, "name": "f61e7c906a4af05b0763a96eb3920ceb", "is_reserved": 0}, {"is_disabled": 0, "fusion_lon": 0.0, "fusion_lat": 0.0, "lat": 38.8996425, "type": "electric_scooter", "lon": -77.05088783333333, "bike_id": "343c1a8e5a0454a46ade438fdc19a274", "rental_uris": {"android": "https://dc.lft.to/lastmile_qr_scan", "ios": "https://dc.lft.to/lastmile_qr_scan"}, "name": "343c1a8e5a0454a46ade438fdc19a274", "is_reserved": 0}, {"is_disabled": 0, "fusion_lon": 0.0, "fusion_lat": 0.0, "lat": 38.93008016666667, "type": "electric_scooter", "lon": -77.03250433333334, "bike_id": "b3b68625a1eb2700639ed6732706a33e", "rental_uris": {"android": "https://dc.lft.to/lastmile_qr_scan", "ios": "https://dc.lft.to/lastmile_qr_scan"}, "name": "b3b68625a1eb2700639ed6732706a33e", "is_reserved": 0}, {"is_disabled": 0, "fusion_lon": 0.0, "fusion_lat": 0.0, "lat": 38.93914083333333, "type": "electric_scooter", "lon": -77.01902783333334, "bike_id": "6a41c0308490d1563d836e03687b8b1e", "rental_uris": {"android": "https://dc.lft.to/lastmile_qr_scan", "ios": "https://dc.lft.to/lastmile_qr_scan"}, "name": "6a41c0308490d1563d836e03687b8b1e", "is_reserved": 0}, {"is_disabled": 0, "fusion_lon": 0.0, "fusion_lat": 0.0, "lat": 38.90664266666667, "type": "electric_scooter", "lon": -77.02706083333334, "bike_id": "bef36a9f86859246be26e2efb1663bd6", "rental_uris": {"android": "https://dc.lft.to/lastmile_qr_scan", "ios": "https://dc.lft.to/lastmile_qr_scan"}, "name": "bef36a9f86859246be26e2efb1663bd6", "is_reserved": 0}, {"is_disabled": 0, "fusion_lon": 0.0, "fusion_lat": 0.0, "lat": 38.911302166666665, "type": "electric_scooter", "lon": -77.04421916666666, "bike_id": "1242a36d767cb66540f21a34e6b485b5", "rental_uris": {"android": "https://dc.lft.to/lastmile_qr_scan", "ios": "https://dc.lft.to/lastmile_qr_scan"}, "name": "1242a36d767cb66540f21a34e6b485b5", "is_reserved": 0}, {"is_disabled": 0, "fusion_lon": 0.0, "fusion_lat": 0.0, "lat": 38.893906, "type": "electric_scooter", "lon": -76.9500075, "bike_id": "daf4445bd985708f475303ecca7460dc", "rental_uris": {"android": "https://dc.lft.to/lastmile_qr_scan", "ios": "https://dc.lft.to/lastmile_qr_scan"}, "name": "daf4445bd985708f475303ecca7460dc", "is_reserved": 0}, {"is_disabled": 0, "fusion_lon": 0.0, "fusion_lat": 0.0, "lat": 38.90991283333334, "type": "electric_scooter", "lon": -77.04269866666667, "bike_id": "3749ce1353ddf8280c9278a2d38fafa9", "rental_uris": {"android": "https://dc.lft.to/lastmile_qr_scan", "ios": "https://dc.lft.to/lastmile_qr_scan"}, "name": "3749ce1353ddf8280c9278a2d38fafa9", "is_reserved": 0}, {"is_disabled": 0, "fusion_lon": 0.0, "fusion_lat": 0.0, "lat": 38.92746616666667, "type": "electric_bike", "lon": -77.0995425, "bike_id": "0c7638a5215875c8893a6c88a5ea3acc", "rental_uris": {"android": "https://dc.lft.to/lastmile_qr_scan", "ios": "https://dc.lft.to/lastmile_qr_scan"}, "name": "0c7638a5215875c8893a6c88a5ea3acc", "is_reserved": 0}, {"is_disabled": 0, "fusion_lon": 0.0, "fusion_lat": 0.0, "lat": 38.91365783333333, "type": "electric_scooter", "lon": -77.025885, "bike_id": "51a1351a3c6b9398e46595d06179b759", "rental_uris": {"android": "https://dc.lft.to/lastmile_qr_scan", "ios": "https://dc.lft.to/lastmile_qr_scan"}, "name": "51a1351a3c6b9398e46595d06179b759", "is_reserved": 0}, {"is_disabled": 0, "fusion_lon": 0.0, "fusion_lat": 0.0, "lat": 38.90401266666667, "type": "electric_scooter", "lon": -76.9752405, "bike_id": "5025ac7e4b00cdf99d6f5d5c0b3b4d79", "rental_uris": {"android": "https://dc.lft.to/lastmile_qr_scan", "ios": "https://dc.lft.to/lastmile_qr_scan"}, "name": "5025ac7e4b00cdf99d6f5d5c0b3b4d79", "is_reserved": 0}, {"is_disabled": 0, "fusion_lon": 0.0, "fusion_lat": 0.0, "lat": 38.9181395, "type": "electric_scooter", "lon": -77.03292183333333, "bike_id": "c34badfa265064663c4789895c308a60", "rental_uris": {"android": "https://dc.lft.to/lastmile_qr_scan", "ios": "https://dc.lft.to/lastmile_qr_scan"}, "name": "c34badfa265064663c4789895c308a60", "is_reserved": 0}, {"is_disabled": 0, "fusion_lon": 0.0, "fusion_lat": 0.0, "lat": 38.89406733333333, "type": "electric_scooter", "lon": -77.0225815, "bike_id": "7948b81c26371c3769c9d44370e7b81a", "rental_uris": {"android": "https://dc.lft.to/lastmile_qr_scan", "ios": "https://dc.lft.to/lastmile_qr_scan"}, "name": "7948b81c26371c3769c9d44370e7b81a", "is_reserved": 0}, {"is_disabled": 0, "fusion_lon": 0.0, "fusion_lat": 0.0, "lat": 38.917062666666666, "type": "electric_scooter", "lon": -77.02807783333333, "bike_id": "ebd364d76bd327845576f4cbad61c09e", "rental_uris": {"android": "https://dc.lft.to/lastmile_qr_scan", "ios": "https://dc.lft.to/lastmile_qr_scan"}, "name": "ebd364d76bd327845576f4cbad61c09e", "is_reserved": 0}, {"is_disabled": 0, "fusion_lon": 0.0, "fusion_lat": 0.0, "lat": 38.90360783333333, "type": "electric_scooter", "lon": -77.03957683333333, "bike_id": "8064e343377f33c3323e4218d448a71c", "rental_uris": {"android": "https://dc.lft.to/lastmile_qr_scan", "ios": "https://dc.lft.to/lastmile_qr_scan"}, "name": "8064e343377f33c3323e4218d448a71c", "is_reserved": 0}, {"is_disabled": 0, "fusion_lon": 0.0, "fusion_lat": 0.0, "lat": 38.906675166666666, "type": "electric_scooter", "lon": -77.02711633333334, "bike_id": "f2b1de7bb357500edf3c5973f681e4c0", "rental_uris": {"android": "https://dc.lft.to/lastmile_qr_scan", "ios": "https://dc.lft.to/lastmile_qr_scan"}, "name": "f2b1de7bb357500edf3c5973f681e4c0", "is_reserved": 0},