{"data": {"bikes": [{"name": "3b06fa1ad65f9cc700969f022abc09b4", "fusion_lat": 0.0, "fusion_lon": 0.0, "bike_id": "3b06fa1ad65f9cc700969f022abc09b4", "rental_uris": {"ios": "https://dc.lft.to/lastmile_qr_scan", "android": "https://dc.lft.to/lastmile_qr_scan"}, "type": "electric_scooter", "lat": 38.9082885, "is_disabled": 0, "lon": -76.99717633333333, "is_reserved": 0}, {"name": "2059dcf91dca50b8796d03469773d319", "fusion_lat": 0.0, "fusion_lon": 0.0, "bike_id": "2059dcf91dca50b8796d03469773d319", "rental_uris": {"ios": "https://dc.lft.to/lastmile_qr_scan", "android": "https://dc.lft.to/lastmile_qr_scan"}, "type": "electric_scooter", "lat": 38.927417, "is_disabled": 0, "lon": -77.01203683333334, "is_reserved": 0}, {"name": "0bc0b4ce5cdef37217e13f1b4571f9be", "fusion_lat": 0.0, "fusion_lon": 0.0, "bike_id": "0bc0b4ce5cdef37217e13f1b4571f9be", "rental_uris": {"ios": "https://dc.lft.to/lastmile_qr_scan", "android": "https://dc.lft.to/lastmile_qr_scan"}, "type": "electric_scooter", "lat": 38.893676, "is_disabled": 0, "lon": -76.9846295, "is_reserved": 0}, {"name": "d3adc835b821b2b4a49f795593d8f7eb", "fusion_lat": 0.0, "fusion_lon": 0.0, "bike_id": "d3adc835b821b2b4a49f795593d8f7eb", "rental_uris": {"ios": "https://dc.lft.to/lastmile_qr_scan", "android": "https://dc.lft.to/lastmile_qr_scan"}, "type": "electric_scooter", "lat": 38.89704616666667, "is_disabled": 0, "lon": -77.00846016666667, "is_reserved": 0}, {"name": "b43eb7cdaa5385413f8ec8258b4fcf89", "fusion_lat": 0.0, "fusion_lon": 0.0, "bike_id": "b43eb7cdaa5385413f8ec8258b4fcf89", "rental_uris": {"ios": "https://dc.lft.to/lastmile_qr_scan", "android": "https://dc.lft.to/lastmile_qr_scan"}, "type": "electric_scooter", "lat": 38.92754766666667, "is_disabled": 0, "lon": -77.03265633333334, "is_reserved": 0}, {"name": "81edbe479b5bc8e894e57be53b01c45d", "fusion_lat": 0.0, "fusion_lon": 0.0, "bike_id": "81edbe479b5bc8e894e57be53b01c45d", "rental_uris": {"ios": "https://dc.lft.to/lastmile_qr_scan", "android": "https://dc.lft.to/lastmile_qr_scan"}, "type": "electric_scooter", "lat": 38.901299333333334, "is_disabled": 0, "lon": -77.03232116666666, "is_reserved": 0}, {"name": "39f617522c9352c5b58dbefefce5e7d1", "fusion_lat": 0.0, "fusion_lon": 0.0, "bike_id": "39f617522c9352c5b58dbefefce5e7d1", "rental_uris": {"ios": "https://dc.lft.to/lastmile_qr_scan", "android": "https://dc.lft.to/lastmile_qr_scan"}, "type": "electric_scooter", "lat": 38.901538333333335, "is_disabled": 0, "lon": -76.935555, "is_reserved": 0}, {"name": "920b49ae04b46cfdc9e4f56e2974b70d", "fusion_lat": 0.0, "fusion_lon": 0.0, "bike_id": "920b49ae04b46cfdc9e4f56e2974b70d", "rental_uris": {"ios": "https://dc.lft.to/lastmile_qr_scan", "android": "https://dc.lft.to/lastmile_qr_scan"}, "type": "electric_bike", "lat": 38.9069025, "is_disabled": 0, "lon": -76.9519435, "is_reserved": 0}, {"name": "a614c45953094b4d91c2f1958c4a6350", "fusion_lat": 0.0, "fusion_lon": 0.0, "bike_id": "a614c45953094b4d91c2f1958c4a6350", "rental_uris": {"ios": "https://dc.lft.to/lastmile_qr_scan", "android": "https://dc.lft.to/lastmile_qr_scan"}, "type": "electric_scooter", "lat": 38.9258285, "is_disabled": 0, "lon": -77.03210533333333, "is_reserved": 0}, {"name": "a747d870bfb7c05d5d73f1a61652b596", "fusion_lat": 0.0, "fusion_lon": 0.0, "bike_id": "a747d870bfb7c05d5d73f1a61652b596", "rental_uris": {"ios": "https://dc.lft.to/lastmile_qr_scan", "android": "https://dc.lft.to/lastmile_qr_scan"}, "type": "electric_scooter", "lat": 38.91666266666667, "is_disabled": 0, "lon": -77.04195816666666, "is_reserved": 0}, {"name": "3f5583223e0f925354d48cc866235b07", "fusion_lat": 0.0, "fusion_lon": 0.0, "bike_id": "3f5583223e0f925354d48cc866235b07", "rental_uris": {"ios": "https://dc.lft.to/lastmile_qr_scan", "android": "https://dc.lft.to/lastmile_qr_scan"}, "type": "electric_scooter", "lat": 38.914115333333335, "is_disabled": 0, "lon": -77.04178783333333, "is_reserved": 0}, {"name": "aba3159c4b47528727b111477de67788", "fusion_lat": 0.0, "fusion_lon": 0.0, "bike_id": "aba3159c4b47528727b111477de67788", "rental_uris": {"ios": "https://dc.lft.to/lastmile_qr_scan", "android": "https://dc.lft.to/lastmile_qr_scan"}, "type": "electric_scooter", "lat": 38.90963216666667, "is_disabled": 0, "lon": -77.03252883333333, "is_reserved": 0}, {"name": "e6c7391e7a694844837a538a9f6efee8", "fusion_lat": 0.0, "fusion_lon": 0.0, "bike_id": "e6c7391e7a694844837a538a9f6efee8", "rental_uris": {"ios": "https://dc.lft.to/lastmile_qr_scan", "android": "https://dc.lft.to/lastmile_qr_scan"}, "type": "electric_scooter", "lat": 38.9051525, "is_disabled": 0, "lon": -77.0578525, "is_reserved": 0}, {"name": "fb5603f2da59fdc1ecb0640f2ec8512d", "fusion_lat": 0.0, "fusion_lon": 0.0, "bike_id": "fb5603f2da59fdc1ecb0640f2ec8512d", "rental_uris": {"ios": "https://dc.lft.to/lastmile_qr_scan", "android": "https://dc.lft.to/lastmile_qr_scan"}, "type": "electric_scooter", "lat": 38.9111895, "is_disabled": 0, "lon": -77.03469633333333, "is_reserved": 0}, {"name": "22342b64853e9c17c2b2b17e35adebd2", "fusion_lat": 0.0, "fusion_lon": 0.0, "bike_id": "22342b64853e9c17c2b2b17e35adebd2", "rental_uris": {"ios": "https://dc.lft.to/lastmile_qr_scan", "android": "https://dc.lft.to/lastmile_qr_scan"}, "type": "electric_scooter", "lat": 38.844376833333335, "is_disabled": 0, "lon": -76.99779133333334, "is_reserved": 0}, {"name": "a2ea289e5290f4a5c055d249d4b3d751", "fusion_lat": 0.0, "fusion_lon": 0.0, "bike_id": "a2ea289e5290f4a5c055d249d4b3d751", "rental_uris": {"ios": "https://dc.lft.to/lastmile_qr_scan", "android": "https://dc.lft.to/lastmile_qr_scan"}, "type": "electric_scooter", "lat": 38.92872083333334, "is_disabled": 0, "lon": -77.03280316666667, "is_reserved": 0}, {"name": "1303d0a47f0afa7f486c0539283f074b", "fusion_lat": 0.0, "fusion_lon": 0.0, "bike_id": "1303d0a47f0afa7f486c0539283f074b", "rental_uris": {"ios": "https://dc.lft.to/lastmile_qr_scan", "android": "https://dc.lft.to/lastmile_qr_scan"}, "type": "electric_scooter", "lat": 38.924851333333336, "is_disabled": 0, "lon": -77.02918766666667, "is_reserved": 0}, {"name": "c0dc3f64e1e590732f9f3ddfb3d3e970", "fusion_lat": 0.0, "fusion_lon": 0.0, "bike_id": "c0dc3f64e1e590732f9f3ddfb3d3e970", "rental_uris": {"ios": "https://dc.lft.to/lastmile_qr_scan", "android": "https://dc.lft.to/lastmile_qr_scan"}, "type": "electric_scooter", "lat": 38.921697333333334, "is_disabled": 0, "lon": -76.993939, "is_reserved": 0}, {"name": "921fb8015dc97d3c5955a9f9ac4fdd3e", "fusion_lat": 0.0, "fusion_lon": 0.0, "bike_id": "921fb8015dc97d3c5955a9f9ac4fdd3e", "rental_uris": {"ios": "https://dc.lft.to/lastmile_qr_scan", "android": "https://dc.lft.to/lastmile_qr_scan"}, "type": "electric_bike", "lat": 38.945614666666664, "is_disabled": 0, "lon": -77.05104533333333, "is_reserved": 0}, {"name": "ec9c094232ebb489eb17af4d8d856e61", "fusion_lat": 0.0, "fusion_lon": 0.0, "bike_id": "ec9c094232ebb489eb17af4d8d856e61", "rental_uris": {"ios": "https://dc.lft.to/lastmile_qr_scan", "android": "https://dc.lft.to/lastmile_qr_scan"}, "type": "electric_scooter", "lat": 38.914128833333336, "is_disabled": 0, "lon": -77.02826416666667, "is_reserved": 0}, {"name": "5411fe3fa2ca6374b91c14aef8dc03a0", "fusion_lat": 0.0, "fusion_lon": 0.0, "bike_id": "5411fe3fa2ca6374b91c14aef8dc03a0", "rental_uris": {"ios": "https://dc.lft.to/lastmile_qr_scan", "android": "https://dc.lft.to/lastmile_qr_scan"}, "type": "electric_bike", "lat": 38.944755, "is_disabled": 0, "lon": -77.0064605, "is_reserved": 0}, {"name": "97af1670b9f8069d6739e9fb623b4b26", "fusion_lat": 0.0, "fusion_lon": 0.0, "bike_id": "97af1670b9f8069d6739e9fb623b4b26", "rental_uris": {"ios": "https://dc.lft.to/lastmile_qr_scan", "android": "https://dc.lft.to/lastmile_qr_scan"}, "type": "electric_scooter", "lat": 38.935395666666665, "is_disabled": 0, "lon": -77.023575, "is_reserved": 0}, {"name": "3157f8bb2fe4aa69ba2d2770255b3eea", "fusion_lat": 0.0, "fusion_lon": 0.0, "bike_id": "3157f8bb2fe4aa69ba2d2770255b3eea", "rental_uris": {"ios": "https://dc.lft.to/lastmile_qr_scan", "android": "https://dc.lft.to/lastmile_qr_scan"}, "type": "electric_scooter", "lat": 38.930703666666666, "is_disabled": 0, "lon": -77.031929, "is_reserved": 0}, {"name": "a20e348116ac0307f67cf9cf698f6b09", "fusion_lat": 0.0, "fusion_lon": 0.0, "bike_id": "a20e348116ac0307f67cf9cf698f6b09", "rental_uris": {"ios": "https://dc.lft.to/lastmile_qr_scan", "android": "https://dc.lft.to/lastmile_qr_scan"}, "type": "electric_scooter", "lat": 38.9342715, "is_disabled": 0, "lon": -77.058372, "is_reserved": 0}, {"name": "0d209842fab93187e7f051ae9877e50f", "fusion_lat": 0.0, "fusion_lon": 0.0, "bike_id": "0d209842fab93187e7f051ae9877e50f", "rental_uris": {"ios": "https://dc.lft.to/lastmile_qr_scan", "android": "https://dc.lft.to/lastmile_qr_scan"}, "type": "electric_scooter", "lat": 38.903316, "is_disabled": 0, "lon": -76.99960383333334, "is_reserved": 0}, {"name": "4a122facee6b8eeb69bd2973e5524ab3", "fusion_lat": 0.0, "fusion_lon": 0.0, "bike_id": "4a122facee6b8eeb69bd2973e5524ab3", "rental_uris": {"ios": "https://dc.lft.to/lastmile_qr_scan", "android": "https://dc.lft.to/lastmile_qr_scan"}, "type": "electric_scooter", "lat": 38.899944166666664, "is_disabled": 0, "lon": -77.0556625, "is_reserved": 0}, {"name": "0f490b620f2aa6f6fc0b8265a0f9d0d1", "fusion_lat": 0.0, "fusion_lon": 0.0, "bike_id": "0f490b620f2aa6f6fc0b8265a0f9d0d1", "rental_uris": {"ios": "https://dc.lft.to/lastmile_qr_scan", "android": "https://dc.lft.to/lastmile_qr_scan"}, "type": "electric_bike", "lat": 38.917132333333335, "is_disabled": 0, "lon": -77.22124383333333, "is_reserved": 0}, {"name": "bc8776e1b5eb3eed6e06f6bf180d4402", "fusion_lat": 0.0, "fusion_lon": 0.0, "bike_id": "bc8776e1b5eb3eed6e06f6bf180d4402", "rental_uris": {"ios": "https://dc.lft.to/lastmile_qr_scan", "android": "https://dc.lft.to/lastmile_qr_scan"}, "type": "electric_scooter", "lat": 38.8765315, "is_disabled": 0, "lon": -77.0081535, "is_reserved": 0}, {"name": "f0f2eee576cf84f393b64e5431d7b5b1", "fusion_lat": 0.0, "fusion_lon": 0.0, "bike_id": "f0f2eee576cf84f393b64e5431d7b5b1", "rental_uris": {"ios": "https://dc.lft.to/lastmile_qr_scan", "android": "https://dc.lft.to/lastmile_qr_scan"}, "type": "electric_scooter", "lat": 38.95607233333333, "is_disabled": 0, "lon": -77.02790433333334, "is_reserved": 0}, {"name": "7313bd97953460f12b81abc574063254", "fusion_lat": 0.0, "fusion_lon": 0.0, "bike_id": "7313bd97953460f12b81abc574063254", "rental_uris": {"ios": "https://dc.lft.to/lastmile_qr_scan", "android": "https://dc.lft.to/lastmile_qr_scan"}, "type": "electric_bike", "lat": 39.0388415, "is_disabled": 0, "lon": -77.10911466666667, "is_reserved": 0}, {"name": "5fc674f413708ce8d6c31894497b8bda", "fusion_lat": 0.0, "fusion_lon": 0.0, "bike_id": "5fc674f413708ce8d6c31894497b8bda", "rental_uris": {"ios": "https://dc.lft.to/lastmile_qr_scan", "android": "https://dc.lft.to/lastmile_qr_scan"}, "type": "electric_scooter", "lat": 38.85897666666666, "is_disabled": 0, "lon": -76.99055633333333, "is_reserved": 0}, {"name": "c1b9ac32c9c6ac73c304ed66dcfd6ab3", "fusion_lat": 0.0, "fusion_lon": 0.0, "bike_id": "c1b9ac32c9c6ac73c304ed66dcfd6ab3", "rental_uris": {"ios": "https://dc.lft.to/lastmile_qr_scan", "android": "https://dc.lft.to/lastmile_qr_scan"}, "type": "electric_scooter", "lat": 38.939628166666665, "is_disabled": 0, "lon": -77.02777866666666, "is_reserved": 0}, {"name": "dac31478c3b6c9f403930e6b654b5a6d", "fusion_lat": 0.0, "fusion_lon": 0.0, "bike_id": "dac31478c3b6c9f403930e6b654b5a6d", "rental_uris": {"ios": "https://dc.lft.to/lastmile_qr_scan", "android": "https://dc.lft.to/lastmile_qr_scan"}, "type": "electric_bike", "lat": 38.935633, "is_disabled": 0, "lon": -76.95457133333333, "is_reserved": 0}, {"name": "e91ea68ab902f8b8690e5b731f5256fd", "fusion_lat": 0.0, "fusion_lon": 0.0, "bike_id": "e91ea68ab902f8b8690e5b731f5256fd", "rental_uris": {"ios": "https://dc.lft.to/lastmile_qr_scan", "android": "https://dc.lft.to/lastmile_qr_scan"}, "type": "electric_scooter", "lat": 38.862146833333334, "is_disabled": 0, "lon": -76.99470366666667, "is_reserved": 0}, {"name": "e8f1ea2000eb1b4f7d417a33198f0267", "fusion_lat": 0.0, "fusion_lon": 0.0, "bike_id": "e8f1ea2000eb1b4f7d417a33198f0267", "rental_uris": {"ios": "https://dc.lft.to/lastmile_qr_scan", "android": "https://dc.lft.to/lastmile_qr_scan"}, "type": "electric_scooter", "lat": 38.90026966666667, "is_disabled": 0, "lon": -77.01224233333333, "is_reserved": 0}, {"name": "5bc844acfb050574b8b738409d42e415", "fusion_lat": 0.0, "fusion_lon": 0.0, "bike_id": "5bc844acfb050574b8b738409d42e415", "rental_uris": {"ios": "https://dc.lft.to/lastmile_qr_scan", "android": "https://dc.lft.to/lastmile_qr_scan"}, "type": "electric_scooter", "lat": 38.903870833333336, "is_disabled": 0, "lon": -77.02804783333333, "is_reserved": 0}, {"name": "2e61acea77f50385e881c461564aee90", "fusion_lat": 0.0, "fusion_lon": 0.0, "bike_id": "2e61acea77f50385e881c461564aee90", "rental_uris": {"ios": "https://dc.lft.to/lastmile_qr_scan", "android": "https://dc.lft.to/lastmile_qr_scan"}, "type": "electric_scooter", "lat": 38.884988, "is_disabled": 0, "lon": -77.02085466666666, "is_reserved": 0}, {"name": "5742cdc5b955890c028d7fa9b5cfa4a8", "fusion_lat": 0.0, "fusion_lon": 0.0, "bike_id": "5742cdc5b955890c028d7fa9b5cfa4a8", "rental_uris": {"ios": "https://dc.lft.to/lastmile_qr_scan", "android": "https://dc.lft.to/lastmile_qr_scan"}, "type": "electric_scooter", "lat": 38.904522666666665, "is_disabled": 0, "lon": -77.02825133333333, "is_reserved": 0}, {"name": "541f4c7b72771444b57f20f6564fdf30", "fusion_lat": 0.0, "fusion_lon": 0.0, "bike_id": "541f4c7b72771444b57f20f6564fdf30", "rental_uris": {"ios": "https://dc.lft.to/lastmile_qr_scan", "android": "https://dc.lft.to/lastmile_qr_scan"}, "type": "electric_scooter", "lat": 38.929876, "is_disabled": 0, "lon": -77.03474066666666, "is_reserved": 0}, {"name": "ae233e76f822136250358ad45c505483", "fusion_lat": 0.0, "fusion_lon": 0.0, "bike_id": "ae233e76f822136250358ad45c505483", "rental_uris": {"ios": "https://dc.lft.to/lastmile_qr_scan", "android": "https://dc.lft.to/lastmile_qr_scan"}, "type": "electric_bike", "lat": 38.869078, "is_disabled": 0, "lon": -77.13178916666666, "is_reserved": 0}, {"name": "1c1eaf5c107e25f3c3a6da05c8d17170", "fusion_lat": 0.0, "fusion_lon": 0.0, "bike_id": "1c1eaf5c107e25f3c3a6da05c8d17170", "rental_uris": {"ios": "https://dc.lft.to/lastmile_qr_scan", "android": "https://dc.lft.to/lastmile_qr_scan"}, "type": "electric_scooter", "lat": 38.9026845, "is_disabled": 0, "lon": -77.03994833333333, "is_reserved": 0}, {"name": "8f49b25f35a3f04f7a51572effabe8c5", "fusion_lat": 0.0, "fusion_lon": 0.0, "bike_id": "8f49b25f35a3f04f7a51572effabe8c5", "rental_uris": {"ios": "https://dc.lft.to/lastmile_qr_scan", "android": "https://dc.lft.to/lastmile_qr_scan"}, "type": "electric_scooter", "lat": 38.91704583333333, "is_disabled": 0, "lon": -77.02984016666667, "is_reserved": 0}, {"name": "1d13f154f3c91288e4a2cb94d13c5883", "fusion_lat": 0.0, "fusion_lon": 0.0, "bike_id": "1d13f154f3c91288e4a2cb94d13c5883", "rental_uris": {"ios": "https://dc.lft.to/lastmile_qr_scan", "android": "https://dc.lft.to/lastmile_qr_scan"}, "type": "electric_scooter", "lat": 38.9090065, "is_disabled": 0, "lon": -77.03392816666667, "is_reserved": 0}, {"name": "14268c11b17a7a9067f1909e696bb587", "fusion_lat": 0.0, "fusion_lon": 0.0, "bike_id": "14268c11b17a7a9067f1909e696bb587", "rental_uris": {"ios": "https://dc.lft.to/lastmile_qr_scan", "android": "https://dc.lft.to/lastmile_qr_scan"}, "type": "electric_scooter", "lat": 38.887380666666665, "is_disabled": 0, "lon": -77.01532466666667, "is_reserved": 0}, {"name": "85601fa1443995d61fe7167261050b84", "fusion_lat": 0.0, "fusion_lon": 0.0, "bike_id": "85601fa1443995d61fe7167261050b84", "rental_uris": {"ios": "https://dc.lft.to/lastmile_qr_scan", "android": "https://dc.lft.to/lastmile_qr_scan"}, "type": "electric_scooter", "lat": 38.90130666666667, "is_disabled": 0, "lon": -77.041454, "is_reserved": 0}, {"name": "ba677278cf32a9902ca206bc68d93988", "fusion_lat": 0.0, "fusion_lon": 0.0, "bike_id": "ba677278cf32a9902ca206bc68d93988", "rental_uris": {"ios": "https://dc.lft.to/lastmile_qr_scan", "android": "https://dc.lft.to/lastmile_qr_scan"}, "type": "electric_scooter", "lat": 38.895354833333336, "is_disabled": 0, "lon": -77.016244, "is_reserved": 0}, {"name": "0e90d04461566848debcc4f20bf931a2", "fusion_lat": 0.0, "fusion_lon": 0.0, "bike_id": "0e90d04461566848debcc4f20bf931a2", "rental_uris": {"ios": "https://dc.lft.to/lastmile_qr_scan", "android": "https://dc.lft.to/lastmile_qr_scan"}, "type": "electric_scooter", "lat": 38.89834333333334, "is_disabled": 0, "lon": -76.94631883333334, "is_reserved": 0}, {"name": "db1ff14c6c6040607a69598ec6ad4f85", "fusion_lat": 0.0, "fusion_lon": 0.0, "bike_id": "db1ff14c6c6040607a69598ec6ad4f85", "rental_uris": {"ios": "https://dc.lft.to/lastmile_qr_scan", "android": "https://dc.lft.to/lastmile_qr_scan"}, "type": "electric_scooter", "lat": 38.89922633333333, "is_disabled": 0, "lon": -77.02946166666666, "is_reserved": 0}, {"name": "fb48db18707253cd2eec78a58b39c5e2", "fusion_lat": 0.0, "fusion_lon": 0.0, "bike_id": "fb48db18707253cd2eec78a58b39c5e2", "rental_uris": {"ios": "https://dc.lft.to/lastmile_qr_scan", "android": "https://dc.lft.to/lastmile_qr_scan"}, "type": "electric_scooter", "lat": 38.91111083333333, "is_disabled": 0, "lon": -77.0316945, "is_reserved": 0}, {"name": "49361d8c379453f5eb9d5a12ae861dac", "fusion_lat": 0.0, "fusion_lon": 0.0, "bike_id": "49361d8c379453f5eb9d5a12ae861dac", "rental_uris": {"ios": "https://dc.lft.to/lastmile_qr_scan", "android": "https://dc.lft.to/lastmile_qr_scan"}, "type": "electric_scooter", "lat": 38.92474333333333, "is_disabled": 0, "lon": -77.039429, "is_reserved": 0}, {"name": "7a6f524cec4a7e6d177882d9615a5f51", "fusion_lat": 0.0, "fusion_lon": 0.0, "bike_id": "7a6f524cec4a7e6d177882d9615a5f51", "rental_uris": {"ios": "https://dc.lft.to/lastmile_qr_scan", "android": "https://dc.lft.to/lastmile_qr_scan"}, "type": "electric_scooter", "lat": 38.938748333333336, "is_disabled": 0, "lon": -77.03223383333334, "is_reserved": 0}, {"name": "0d2b92748ff4e2e0d7986266aeba975f", "fusion_lat": 0.0, "fusion_lon": 0.0, "bike_id": "0d2b92748ff4e2e0d7986266aeba975f", "rental_uris": {"ios": "https://dc.lft.to/lastmile_qr_scan", "android": "https://dc.lft.to/lastmile_qr_scan"}, "type": "electric_scooter", "lat": 38.91320183333333, "is_disabled": 0, "lon": -77.06247333333333, "is_reserved": 0}, {"name": "a54a482e324aa49ff82f7bb66739c27a", "fusion_lat": 0.0, "fusion_lon": 0.0, "bike_id": "a54a482e324aa49ff82f7bb66739c27a", "rental_uris": {"ios": "https://dc.lft.to/lastmile_qr_scan", "android": "https://dc.lft.to/lastmile_qr_scan"}, "type": "electric_bike", "lat": 38.91582733333333, "is_disabled": 0, "lon": -76.97147166666667, "is_reserved": 0}, {"name": "4b31f4180270f88b136eb98849d51c1e", "fusion_lat": 0.0, "fusion_lon": 0.0, "bike_id": "4b31f4180270f88b136eb98849d51c1e", "rental_uris": {"ios": "https://dc.lft.to/lastmile_qr_scan", "android": "https://dc.lft.to/lastmile_qr_scan"}, "type": "electric_scooter", "lat": 38.90361566666667, "is_disabled": 0, "lon": -77.01102133333333, "is_reserved": 0}, {"name": "c08d84d1e05e2074486d131a580f1f8c", "fusion_lat": 0.0, "fusion_lon": 0.0, "bike_id": "c08d84d1e05e2074486d131a580f1f8c", "rental_uris": {"ios": "https://dc.lft.to/lastmile_qr_scan", "android": "https://dc.lft.to/lastmile_qr_scan"}, "type": "electric_scooter", "lat": 38.91254466666667, "is_disabled": 0, "lon": -77.0242855, "is_reserved": 0}, {"name": "eeac6b0666284fea6707462bb91016bf", "fusion_lat": 0.0, "fusion_lon": 0.0, "bike_id": "eeac6b0666284fea6707462bb91016bf", "rental_uris": {"ios": "https://dc.lft.to/lastmile_qr_scan", "android": "https://dc.lft.to/lastmile_qr_scan"}, "type": "electric_scooter", "lat": 38.910966, "is_disabled": 0, "lon": -77.03182266666667, "is_reserved": 0}, {"name": "fa8100d758b25b175d95e84768fa820f", "fusion_lat": 0.0, "fusion_lon": 0.0, "bike_id": "fa8100d758b25b175d95e84768fa820f", "rental_uris": {"ios": "https://dc.lft.to/lastmile_qr_scan", "android": "https://dc.lft.to/lastmile_qr_scan"}, "type": "electric_bike", "lat": 38.99669183333334, "is_disabled": 0, "lon": -76.9914035, "is_reserved": 0}, {"name": "bf3b57bbe56d548bc41e66b1ce19a230", "fusion_lat": 0.0, "fusion_lon": 0.0, "bike_id": "bf3b57bbe56d548bc41e66b1ce19a230", "rental_uris": {"ios": "https://dc.lft.to/lastmile_qr_scan", "android": "https://dc.lft.to/lastmile_qr_scan"}, "type": "electric_scooter", "lat": 38.902937, "is_disabled": 0, "lon": -77.03157066666667, "is_reserved": 0}, {"name": "9be7315d4927347737089a9b0260bfe9", "fusion_lat": 0.0, "fusion_lon": 0.0, "bike_id": "9be7315d4927347737089a9b0260bfe9", "rental_uris": {"ios": "https://dc.lft.to/lastmile_qr_scan", "android": "https://dc.lft.to/lastmile_qr_scan"}, "type": "electric_scooter", "lat": 38.887525333333336, "is_disabled": 0, "lon": -77.03150833333333, "is_reserved": 0}, {"name": "12a016c593ee98121a5b0f2f602daad3", "fusion_lat": 0.0, "fusion_lon": 0.0, "bike_id": "12a016c593ee98121a5b0f2f602daad3", "rental_uris": {"ios": "https://dc.lft.to/lastmile_qr_scan", "android": "https://dc.lft.to/lastmile_qr_scan"}, "type": "electric_scooter", "lat": 38.88590383333333, "is_disabled": 0, "lon": -77.03164566666666, "is_reserved": 0}, {"name": "9dcb966fc7341bf4aa2e846fc727e2a4", "fusion_lat": 0.0, "fusion_lon": 0.0, "bike_id": "9dcb966fc7341bf4aa2e846fc727e2a4", "rental_uris": {"ios": "https://dc.lft.to/lastmile_qr_scan", "android": "https://dc.lft.to/lastmile_qr_scan"}, "type": "electric_scooter", "lat": 38.9217455, "is_disabled": 0, "lon": -77.038251, "is_reserved": 0}, {"name": "9a1015abc223d6c55602718eed738798", "fusion_lat": 0.0, "fusion_lon": 0.0, "bike_id": "9a1015abc223d6c55602718eed738798", "rental_uris": {"ios": "https://dc.lft.to/lastmile_qr_scan", "android": "https://dc.lft.to/lastmile_qr_scan"}, "type": "electric_scooter", "lat": 38.898460166666666, "is_disabled": 0, "lon": -77.029579, "is_reserved": 0}, {"name": "f869414ad92026240107d67bbf86c6d8", "fusion_lat": 0.0, "fusion_lon": 0.0, "bike_id": "f869414ad92026240107d67bbf86c6d8", "rental_uris": {"ios": "https://dc.lft.to/lastmile_qr_scan", "android": "https://dc.lft.to/lastmile_qr_scan"}, "type": "electric_scooter", "lat": 38.90856683333333, "is_disabled": 0, "lon": -77.06080783333333, "is_reserved": 0}, {"name": "b8bbfb906d5894af1c33694020dda029", "fusion_lat": 0.0, "fusion_lon": 0.0, "bike_id": "b8bbfb906d5894af1c33694020dda029", "rental_uris": {"ios": "https://dc.lft.to/lastmile_qr_scan", "android": "https://dc.lft.to/lastmile_qr_scan"}, "type": "electric_scooter", "lat": 38.902350166666665, "is_disabled": 0, "lon": -77.019144, "is_reserved": 0}, {"name": "3eba91d285db3a564832a69c6638bb55", "fusion_lat": 0.0, "fusion_lon": 0.0, "bike_id": "3eba91d285db3a564832a69c6638bb55", "rental_uris": {"ios": "https://dc.lft.to/lastmile_qr_scan", "android": "https://dc.lft.to/lastmile_qr_scan"}, "type": "electric_scooter", "lat": 38.93632733333333, "is_disabled": 0, "lon": -77.02697133333334, "is_reserved": 0}, {"name": "911e373d33711f432bef60859738e141", "fusion_lat": 0.0, "fusion_lon": 0.0, "bike_id": "911e373d33711f432bef60859738e141", "rental_uris": {"ios": "https://dc.lft.to/lastmile_qr_scan", "android": "https://dc.lft.to/lastmile_qr_scan"}, "type": "electric_scooter", "lat": 38.90965583333333, "is_disabled": 0, "lon": -77.048657, "is_reserved": 0}, {"name": "be2f9b04f3781ca2e8faab203d69aa56", "fusion_lat": 0.0, "fusion_lon": 0.0, "bike_id": "be2f9b04f3781ca2e8faab203d69aa56", "rental_uris": {"ios": "https://dc.lft.to/lastmile_qr_scan", "android": "https://dc.lft.to/lastmile_qr_scan"}, "type": "electric_scooter", "lat": 38.918053666666665, "is_disabled": 0, "lon": -77.033164, "is_reserved": 0}, {"name": "0c65ccdf8eaea461544e2ba8e3dc3fd6", "fusion_lat": 0.0, "fusion_lon": 0.0, "bike_id": "0c65ccdf8eaea461544e2ba8e3dc3fd6", "rental_uris": {"ios": "https://dc.lft.to/lastmile_qr_scan", "android": "https://dc.lft.to/lastmile_qr_scan"}, "type": "electric_scooter", "lat": 38.92158033333333, "is_disabled": 0, "lon": -77.0386985, "is_reserved": 0}, {"name": "18cd65bc8868747b6ab087a98df1d500", "fusion_lat": 0.0, "fusion_lon": 0.0, "bike_id": "18cd65bc8868747b6ab087a98df1d500", "rental_uris": {"ios": "https://dc.lft.to/lastmile_qr_scan", "android": "https://dc.lft.to/lastmile_qr_scan"}, "type": "electric_scooter", "lat": 38.897311333333334, "is_disabled": 0, "lon": -77.021666, "is_reserved": 0}, {"name": "7306a6dbe5afb544bb3b456a0562d1a3", "fusion_lat": 0.0, "fusion_lon": 0.0, "bike_id": "7306a6dbe5afb544bb3b456a0562d1a3", "rental_uris": {"ios": "https://dc.lft.to/lastmile_qr_scan", "android": "https://dc.lft.to/lastmile_qr_scan"}, "type": "electric_scooter", "lat": 38.90471633333333, "is_disabled": 0, "lon": -77.06216866666666, "is_reserved": 0}, {"name": "9a909605a44de8305447af140a5a8d3c", "fusion_lat": 0.0, "fusion_lon": 0.0, "bike_id": "9a909605a44de8305447af140a5a8d3c", "rental_uris": {"ios": "https://dc.lft.to/lastmile_qr_scan", "android": "https://dc.lft.to/lastmile_qr_scan"}, "type": "electric_scooter", "lat": 38.864332833333336, "is_disabled": 0, "lon": -76.98991966666667, "is_reserved": 0}, {"name": "dbc632d7146f23334494b59f2bbb57b6", "fusion_lat": 0.0, "fusion_lon": 0.0, "bike_id": "dbc632d7146f23334494b59f2bbb57b6", "rental_uris": {"ios": "https://dc.lft.to/lastmile_qr_scan", "android": "https://dc.lft.to/lastmile_qr_scan"}, "type": "electric_scooter", "lat": 38.91875066666667, "is_disabled": 0, "lon": -77.04312133333333, "is_reserved": 0}, {"name": "ebfb45698a678692f6292e8aaa6c6400", "fusion_lat": 0.0, "fusion_lon": 0.0, "bike_id": "ebfb45698a678692f6292e8aaa6c6400", "rental_uris": {"ios": "https://dc.lft.to/lastmile_qr_scan", "android": "https://dc.lft.to/lastmile_qr_scan"}, "type": "electric_scooter", "lat": 38.925274, "is_disabled": 0, "lon": -77.04097266666666, "is_reserved": 0}, {"name": "83358268048a06b5b0a125e34f0cc092", "fusion_lat": 0.0, "fusion_lon": 0.0, "bike_id": "83358268048a06b5b0a125e34f0cc092", "rental_uris": {"ios": "https://dc.lft.to/lastmile_qr_scan", "android": "https://dc.lft.to/lastmile_qr_scan"}, "type": "electric_scooter", "lat": 38.90802816666667, "is_disabled": 0, "lon": -77.04345416666666, "is_reserved": 0}, {"name": "ceb2f6d113671b7893723ca4ce7f010a", "fusion_lat": 0.0, "fusion_lon": 0.0, "bike_id": "ceb2f6d113671b7893723ca4ce7f010a", "rental_uris": {"ios": "https://dc.lft.to/lastmile_qr_scan", "android": "https://dc.lft.to/lastmile_qr_scan"}, "type": "electric_scooter", "lat": 38.898422333333336, "is_disabled": 0, "lon": -76.9463205, "is_reserved": 0}, {"name": "2e3b42e2090eb69f2b3793ba7b5f2678", "fusion_lat": 0.0, "fusion_lon": 0.0, "bike_id": "2e3b42e2090eb69f2b3793ba7b5f2678", "rental_uris": {"ios": "https://dc.lft.to/lastmile_qr_scan", "android": "https://dc.lft.to/lastmile_qr_scan"}, "type": "electric_scooter", "lat": 38.90384133333333, "is_disabled": 0, "lon": -77.039962, "is_reserved": 0}, {"name": "ab0fe14013a38b19b0d89aa4fb71141f", "fusion_lat": 0.0, "fusion_lon": 0.0, "bike_id": "ab0fe14013a38b19b0d89aa4fb71141f", "rental_uris": {"ios": "https://dc.lft.to/lastmile_qr_scan", "android": "https://dc.lft.to/lastmile_qr_scan"}, "type": "electric_scooter", "lat": 38.89844983333333, "is_disabled": 0, "lon": -76.94634383333333, "is_reserved": 0}, {"name": "2ecffe167787e04c324c58d060c3da11", "fusion_lat": 0.0, "fusion_lon": 0.0, "bike_id": "2ecffe167787e04c324c58d060c3da11", "rental_uris": {"ios": "https://dc.lft.to/lastmile_qr_scan", "android": "https://dc.lft.to/lastmile_qr_scan"}, "type": "electric_bike", "lat": 38.89337166666667, "is_disabled": 0, "lon": -77.12403783333333, "is_reserved": 0}, {"name": "1762ebc831f5897e0b9d15a3dc39aad9", "fusion_lat": 0.0, "fusion_lon": 0.0, "bike_id": "1762ebc831f5897e0b9d15a3dc39aad9", "rental_uris": {"ios": "https://dc.lft.to/lastmile_qr_scan", "android": "https://dc.lft.to/lastmile_qr_scan"}, "type": "electric_scooter", "lat": 38.919964, "is_disabled": 0, "lon": -77.02409116666666, "is_reserved": 0}, {"name": "c7b6d0c7bfeac2ae153fe6699d8b7bfc", "fusion_lat": 0.0, "fusion_lon": 0.0, "bike_id": "c7b6d0c7bfeac2ae153fe6699d8b7bfc", "rental_uris": {"ios": "https://dc.lft.to/lastmile_qr_scan", "android": "https://dc.lft.to/lastmile_qr_scan"}, "type": "electric_scooter", "lat": 38.903927333333336, "is_disabled": 0, "lon": -77.028019, "is_reserved": 0}, {"name": "d5d6888fda27055a10ee2cdafd130162", "fusion_lat": 0.0, "fusion_lon": 0.0, "bike_id": "d5d6888fda27055a10ee2cdafd130162", "rental_uris": {"ios": "https://dc.lft.to/lastmile_qr_scan", "android": "https://dc.lft.to/lastmile_qr_scan"}, "type": "electric_scooter", "lat": 38.915486, "is_disabled": 0, "lon": -77.02228616666666, "is_reserved": 0}, {"name": "b63a8ae8e6e1f3c374427ca776a35fc7", "fusion_lat": 0.0, "fusion_lon": 0.0, "bike_id": "b63a8ae8e6e1f3c374427ca776a35fc7", "rental_uris": {"ios": "https://dc.lft.to/lastmile_qr_scan", "android": "https://dc.lft.to/lastmile_qr_scan"}, "type": "electric_scooter", "lat": 38.874784, "is_disabled": 0, "lon": -77.01234933333333, "is_reserved": 0}, {"name": "300ed763647f88387a513f37fc8c328b", "fusion_lat": 0.0, "fusion_lon": 0.0, "bike_id": "300ed763647f88387a513f37fc8c328b", "rental_uris": {"ios": "https://dc.lft.to/lastmile_qr_scan", "android": "https://dc.lft.to/lastmile_qr_scan"}, "type": "electric_scooter", "lat": 38.91968966666666, "is_disabled": 0, "lon": -77.0271375, "is_reserved": 0}, {"name": "64b1b2b46add5c623ad6408d5b4d09ea", "fusion_lat": 0.0, "fusion_lon": 0.0, "bike_id": "64b1b2b46add5c623ad6408d5b4d09ea", "rental_uris": {"ios": "https://dc.lft.to/lastmile_qr_scan", "android": "https://dc.lft.to/lastmile_qr_scan"}, "type": "electric_scooter", "lat": 38.862477166666665, "is_disabled": 0, "lon": -76.995403, "is_reserved": 0}, {"name": "e36e804a63f5f7d3e7bb816b1dfc05e7", "fusion_lat": 0.0, "fusion_lon": 0.0, "bike_id": "e36e804a63f5f7d3e7bb816b1dfc05e7", "rental_uris": {"ios": "https://dc.lft.to/lastmile_qr_scan", "android": "https://dc.lft.to/lastmile_qr_scan"}, "type": "electric_scooter", "lat": 38.908871, "is_disabled": 0, "lon": -77.04353333333333, "is_reserved": 0}, {"name": "9e153c2bded084fce2f24040f2c0cc7f", "fusion_lat": 0.0, "fusion_lon": 0.0, "bike_id": "9e153c2bded084fce2f24040f2c0cc7f", "rental_uris": {"ios": "https://dc.lft.to/lastmile_qr_scan", "android": "https://dc.lft.to/lastmile_qr_scan"}, "type": "electric_scooter", "lat": 38.893078333333335, "is_disabled": 0, "lon": -77.01209866666666, "is_reserved": 0}, {"name": "3e69665c5e6afdcacc185f7ff8cabc0a", "fusion_lat": 0.0, "fusion_lon": 0.0, "bike_id": "3e69665c5e6afdcacc185f7ff8cabc0a", "rental_uris": {"ios": "https://dc.lft.to/lastmile_qr_scan", "android": "https://dc.lft.to/lastmile_qr_scan"}, "type": "electric_scooter", "lat": 38.899704666666665, "is_disabled": 0, "lon": -77.04619516666666, "is_reserved": 0}, {"name": "105466c8af2f7030c6bc38c63e01d029", "fusion_lat": 0.0, "fusion_lon": 0.0, "bike_id": "105466c8af2f7030c6bc38c63e01d029", "rental_uris": {"ios": "https://dc.lft.to/lastmile_qr_scan", "android": "https://dc.lft.to/lastmile_qr_scan"}, "type": "electric_scooter", "lat": 38.90397816666667, "is_disabled": 0, "lon": -77.04330483333334, "is_reserved": 0}, {"name": "e8a91b2e8f7449040ae09305b65b6788", "fusion_lat": 0.0, "fusion_lon": 0.0, "bike_id": "e8a91b2e8f7449040ae09305b65b6788", "rental_uris": {"ios": "https://dc.lft.to/lastmile_qr_scan", "android": "https://dc.lft.to/lastmile_qr_scan"}, "type": "electric_scooter", "lat": 38.931500166666666, "is_disabled": 0, "lon": -77.03448016666667, "is_reserved": 0}, {"name": "022321f848216b5966735692ab5aa170", "fusion_lat": 0.0, "fusion_lon": 0.0, "bike_id": "022321f848216b5966735692ab5aa170", "rental_uris": {"ios": "https://dc.lft.to/lastmile_qr_scan", "android": "https://dc.lft.to/lastmile_qr_scan"}, "type": "electric_scooter", "lat": 38.881448166666665, "is_disabled": 0, "lon": -76.99163116666666, "is_reserved": 0}, {"name": "a81b500e3f1f26e8d9213bdd824552e5", "fusion_lat": 0.0, "fusion_lon": 0.0, "bike_id": "a81b500e3f1f26e8d9213bdd824552e5", "rental_uris": {"ios": "https://dc.lft.to/lastmile_qr_scan", "android": "https://dc.lft.to/lastmile_qr_scan"}, "type": "electric_scooter", "lat": 38.90109566666667, "is_disabled": 0, "lon": -77.03170916666667, "is_reserved": 0}, {"name": "297583ba9d6b2e4976605d6336a45e75", "fusion_lat": 0.0, "fusion_lon": 0.0, "bike_id": "297583ba9d6b2e4976605d6336a45e75", "rental_uris": {"ios": "https://dc.lft.to/lastmile_qr_scan", "android": "https://dc.lft.to/lastmile_qr_scan"}, "type": "electric_scooter", "lat": 38.887728333333335, "is_disabled": 0, "lon": -77.01546733333333, "is_reserved": 0}, {"name": "6e4e80dcb4363304a83af53244dde850", "fusion_lat": 0.0, "fusion_lon": 0.0, "bike_id": "6e4e80dcb4363304a83af53244dde850", "rental_uris": {"ios": "https://dc.lft.to/lastmile_qr_scan", "android": "https://dc.lft.to/lastmile_qr_scan"}, "type": "electric_scooter", "lat": 38.904516, "is_disabled": 0, "lon": -77.02970583333334, "is_reserved": 0}, {"name": "5474600527f18337c30a8d3c1c65a77a", "fusion_lat": 0.0, "fusion_lon": 0.0, "bike_id": "5474600527f18337c30a8d3c1c65a77a", "rental_uris": {"ios": "https://dc.lft.to/lastmile_qr_scan", "android": "https://dc.lft.to/lastmile_qr_scan"}, "type": "electric_scooter", "lat": 38.87967116666667, "is_disabled": 0, "lon": -76.98744383333333, "is_reserved": 0}, {"name": "d969a8fbdffafe4d8c98cd7fd88b616e", "fusion_lat": 0.0, "fusion_lon": 0.0, "bike_id": "d969a8fbdffafe4d8c98cd7fd88b616e", "rental_uris": {"ios": "https://dc.lft.to/lastmile_qr_scan", "android": "https://dc.lft.to/lastmile_qr_scan"}, "type": "electric_scooter", "lat": 38.893610333333335, "is_disabled": 0, "lon": -77.0033685, "is_reserved": 0}, {"name": "51e72c79ac0bb1f42632e238a3040832", "fusion_lat": 0.0, "fusion_lon": 0.0, "bike_id": "51e72c79ac0bb1f42632e238a3040832", "rental_uris": {"ios": "https://dc.lft.to/lastmile_qr_scan", "android": "https://dc.lft.to/lastmile_qr_scan"}, "type": "electric_scooter", "lat": 38.91584016666667, "is_disabled": 0, "lon": -77.00742266666667, "is_reserved": 0}, {"name": "5577f65e6034801c0379834452c6d73b", "fusion_lat": 0.0, "fusion_lon": 0.0, "bike_id": "5577f65e6034801c0379834452c6d73b", "rental_uris": {"ios": "https://dc.lft.to/lastmile_qr_scan", "android": "https://dc.lft.to/lastmile_qr_scan"}, "type": "electric_bike", "lat": 39.05813716666667, "is_disabled": 0, "lon": -77.12626816666666, "is_reserved": 0}, {"name": "efe7b5196686d91afe9f0066d1d93e7a", "fusion_lat": 0.0, "fusion_lon": 0.0, "bike_id": "efe7b5196686d91afe9f0066d1d93e7a", "rental_uris": {"ios": "https://dc.lft.to/lastmile_qr_scan", "android": "https://dc.lft.to/lastmile_qr_scan"}, "type": "electric_scooter", "lat": 38.9100235, "is_disabled": 0, "lon": -77.04002566666666, "is_reserved": 0}, {"name": "5f444815779fbc4c3f279124e634bae1", "fusion_lat": 0.0, "fusion_lon": 0.0, "bike_id": "5f444815779fbc4c3f279124e634bae1", "rental_uris": {"ios": "https://dc.lft.to/lastmile_qr_scan", "android": "https://dc.lft.to/lastmile_qr_scan"}, "type": "electric_scooter", "lat": 38.90512666666667, "is_disabled": 0, "lon": -77.06153066666667, "is_reserved": 0}, {"name": "73be49989908f4deedf810a29f99ec8e", "fusion_lat": 0.0, "fusion_lon": 0.0, "bike_id": "73be49989908f4deedf810a29f99ec8e", "rental_uris": {"ios": "https://dc.lft.to/lastmile_qr_scan", "android": "https://dc.lft.to/lastmile_qr_scan"}, "type": "electric_scooter", "lat": 38.89228166666667, "is_disabled": 0, "lon": -77.02981366666667, "is_reserved": 0}, {"name": "94ecc99bfc36f4bfbd4959e277b7e8e9", "fusion_lat": 0.0, "fusion_lon": 0.0, "bike_id": "94ecc99bfc36f4bfbd4959e277b7e8e9", "rental_uris": {"ios": "https://dc.lft.to/lastmile_qr_scan", "android": "https://dc.lft.to/lastmile_qr_scan"}, "type": "electric_scooter", "lat": 38.90421766666667, "is_disabled": 0, "lon": -77.024169, "is_reserved": 0}, {"name": "44b2d948241a0e6a7523cafb08decb29", "fusion_lat": 0.0, "fusion_lon": 0.0, "bike_id": "44b2d948241a0e6a7523cafb08decb29", "rental_uris": {"ios": "https://dc.lft.to/lastmile_qr_scan", "android": "https://dc.lft.to/lastmile_qr_scan"}, "type": "electric_scooter", "lat": 38.88747466666667, "is_disabled": 0, "lon": -77.02226616666667, "is_reserved": 0}, {"name": "1cf042775419e9cd3856dc88226f16bf", "fusion_lat": 0.0, "fusion_lon": 0.0, "bike_id": "1cf042775419e9cd3856dc88226f16bf", "rental_uris": {"ios": "https://dc.lft.to/lastmile_qr_scan", "android": "https://dc.lft.to/lastmile_qr_scan"}, "type": "electric_scooter", "lat": 38.887435833333335, "is_disabled": 0, "lon": -77.02122183333333, "is_reserved": 0}, {"name": "a389504061a93625a2a10ad4f34c11cc", "fusion_lat": 0.0, "fusion_lon": 0.0, "bike_id": "a389504061a93625a2a10ad4f34c11cc", "rental_uris": {"ios": "https://dc.lft.to/lastmile_qr_scan", "android": "https://dc.lft.to/lastmile_qr_scan"}, "type": "electric_scooter", "lat": 38.899509333333334, "is_disabled": 0, "lon": -77.02767016666667, "is_reserved": 0}, {"name": "aec5717465fdcaa6c767af2bde8ced4c", "fusion_lat": 0.0, "fusion_lon": 0.0, "bike_id": "aec5717465fdcaa6c767af2bde8ced4c", "rental_uris": {"ios": "https://dc.lft.to/lastmile_qr_scan", "android": "https://dc.lft.to/lastmile_qr_scan"}, "type": "electric_scooter", "lat": 38.92971633333333, "is_disabled": 0, "lon": -77.00537883333334, "is_reserved": 0}, {"name": "51fb9e3cbd80dde379e3a894cffa7793", "fusion_lat": 0.0, "fusion_lon": 0.0, "bike_id": "51fb9e3cbd80dde379e3a894cffa7793", "rental_uris": {"ios": "https://dc.lft.to/lastmile_qr_scan", "android": "https://dc.lft.to/lastmile_qr_scan"}, "type": "electric_scooter", "lat": 38.931920833333336, "is_disabled": 0, "lon": -77.02835216666666, "is_reserved": 0}, {"name": "59e3bf21f73180b06fa810a3790a1675", "fusion_lat": 0.0, "fusion_lon": 0.0, "bike_id": "59e3bf21f73180b06fa810a3790a1675", "rental_uris": {"ios": "https://dc.lft.to/lastmile_qr_scan", "android": "https://dc.lft.to/lastmile_qr_scan"}, "type": "electric_scooter", "lat": 38.9118855, "is_disabled": 0, "lon": -77.03834433333333, "is_reserved": 0}, {"name": "739a1638b7ea7c415478a48d8e12f918", "fusion_lat": 0.0, "fusion_lon": 0.0, "bike_id": "739a1638b7ea7c415478a48d8e12f918", "rental_uris": {"ios": "https://dc.lft.to/lastmile_qr_scan", "android": "https://dc.lft.to/lastmile_qr_scan"}, "type": "electric_scooter", "lat": 38.89835566666667, "is_disabled": 0, "lon": -77.0434575, "is_reserved": 0}, {"name": "3591664583a6ecb561ea2db1a610b078", "fusion_lat": 0.0, "fusion_lon": 0.0, "bike_id": "3591664583a6ecb561ea2db1a610b078", "rental_uris": {"ios": "https://dc.lft.to/lastmile_qr_scan", "android": "https://dc.lft.to/lastmile_qr_scan"}, "type": "electric_scooter", "lat": 38.91048933333333, "is_disabled": 0, "lon": -77.01510583333334, "is_reserved": 0}, {"name": "204f34f241bde8dedf16f539cdd03b53", "fusion_lat": 0.0, "fusion_lon": 0.0, "bike_id": "204f34f241bde8dedf16f539cdd03b53", "rental_uris": {"ios": "https://dc.lft.to/lastmile_qr_scan", "android": "https://dc.lft.to/lastmile_qr_scan"}, "type": "electric_scooter", "lat": 38.89752933333333, "is_disabled": 0, "lon": -77.05123666666667, "is_reserved": 0}, {"name": "1c35de318a305c785953cab6b2f93d33", "fusion_lat": 0.0, "fusion_lon": 0.0, "bike_id": "1c35de318a305c785953cab6b2f93d33", "rental_uris": {"ios": "https://dc.lft.to/lastmile_qr_scan", "android": "https://dc.lft.to/lastmile_qr_scan"}, "type": "electric_scooter", "lat": 38.88416316666667, "is_disabled": 0, "lon": -76.95412566666667, "is_reserved": 0}, {"name": "7b55b99d77abc0fee318f483989cc4a4", "fusion_lat": 0.0, "fusion_lon": 0.0, "bike_id": "7b55b99d77abc0fee318f483989cc4a4", "rental_uris": {"ios": "https://dc.lft.to/lastmile_qr_scan", "android": "https://dc.lft.to/lastmile_qr_scan"}, "type": "electric_scooter", "lat": 38.865057166666666, "is_disabled": 0, "lon": -76.99006183333333, "is_reserved": 0}, {"name": "2d17714b34f761d08e412466f2735941", "fusion_lat": 0.0, "fusion_lon": 0.0, "bike_id": "2d17714b34f761d08e412466f2735941", "rental_uris": {"ios": "https://dc.lft.to/lastmile_qr_scan", "android": "https://dc.lft.to/lastmile_qr_scan"}, "type": "electric_scooter", "lat": 38.914832833333335, "is_disabled": 0, "lon": -77.034719, "is_reserved": 0}, {"name": "b773ad85e7d7025421c4543c104e891b", "fusion_lat": 0.0, "fusion_lon": 0.0, "bike_id": "b773ad85e7d7025421c4543c104e891b", "rental_uris": {"ios": "https://dc.lft.to/lastmile_qr_scan", "android": "https://dc.lft.to/lastmile_qr_scan"}, "type": "electric_scooter", "lat": 38.866724833333336, "is_disabled": 0, "lon": -76.988836, "is_reserved": 0}, {"name": "faa9ad87ef1ee8ebd162238a9f6ef048", "fusion_lat": 0.0, "fusion_lon": 0.0, "bike_id": "faa9ad87ef1ee8ebd162238a9f6ef048", "rental_uris": {"ios": "https://dc.lft.to/lastmile_qr_scan", "android": "https://dc.lft.to/lastmile_qr_scan"}, "type": "electric_bike", "lat": 39.08845483333333, "is_disabled": 0, "lon": -77.1780125, "is_reserved": 0}, {"name": "0d96dc0231c755b6269315dfc766817e", "fusion_lat": 0.0, "fusion_lon": 0.0, "bike_id": "0d96dc0231c755b6269315dfc766817e", "rental_uris": {"ios": "https://dc.lft.to/lastmile_qr_scan", "android": "https://dc.lft.to/lastmile_qr_scan"}, "type": "electric_scooter", "lat": 38.913334666666664, "is_disabled": 0, "lon": -77.0326525, "is_reserved": 0}, {"name": "e75bde6d362a081c91b5820192f46377", "fusion_lat": 0.0, "fusion_lon": 0.0, "bike_id": "e75bde6d362a081c91b5820192f46377", "rental_uris": {"ios": "https://dc.lft.to/lastmile_qr_scan", "android": "https://dc.lft.to/lastmile_qr_scan"}, "type": "electric_scooter", "lat": 38.91807466666667, "is_disabled": 0, "lon": -77.03458083333334, "is_reserved": 0}, {"name": "5010348bab65ff94ac9e151063f7536d", "fusion_lat": 0.0, "fusion_lon": 0.0, "bike_id": "5010348bab65ff94ac9e151063f7536d", "rental_uris": {"ios": "https://dc.lft.to/lastmile_qr_scan", "android": "https://dc.lft.to/lastmile_qr_scan"}, "type": "electric_scooter", "lat": 38.883259833333334, "is_disabled": 0, "lon": -77.017733, "is_reserved": 0}, {"name": "c3d3e3d821dc43517ac566ea64fbff48", "fusion_lat": 0.0, "fusion_lon": 0.0, "bike_id": "c3d3e3d821dc43517ac566ea64fbff48", "rental_uris": {"ios": "https://dc.lft.to/lastmile_qr_scan", "android": "https://dc.lft.to/lastmile_qr_scan"}, "type": "electric_scooter", "lat": 38.90980066666667, "is_disabled": 0, "lon": -77.03262283333333, "is_reserved": 0}, {"name": "e77fae9dc4277aa43001a2d1a396eee4", "fusion_lat": 0.0, "fusion_lon": 0.0, "bike_id": "e77fae9dc4277aa43001a2d1a396eee4", "rental_uris": {"ios": "https://dc.lft.to/lastmile_qr_scan", "android": "https://dc.lft.to/lastmile_qr_scan"}, "type": "electric_scooter", "lat": 38.886115, "is_disabled": 0, "lon": -76.99655233333333, "is_reserved": 0}, {"name": "8b4df77b2f35779d1781aebe68674efc", "fusion_lat": 0.0, "fusion_lon": 0.0, "bike_id": "8b4df77b2f35779d1781aebe68674efc", "rental_uris": {"ios": "https://dc.lft.to/lastmile_qr_scan", "android": "https://dc.lft.to/lastmile_qr_scan"}, "type": "electric_scooter", "lat": 38.91849116666667, "is_disabled": 0, "lon": -76.96555416666666, "is_reserved": 0}, {"name": "1d136e0431ce8f9d31c66b3acf0a9e09", "fusion_lat": 0.0, "fusion_lon": 0.0, "bike_id": "1d136e0431ce8f9d31c66b3acf0a9e09", "rental_uris": {"ios": "https://dc.lft.to/lastmile_qr_scan", "android": "https://dc.lft.to/lastmile_qr_scan"}, "type": "electric_bike", "lat": 38.84607, "is_disabled": 0, "lon": -76.9688175, "is_reserved": 0}, {"name": "c0b0833102d9227b0940aba989f576fe", "fusion_lat": 0.0, "fusion_lon": 0.0, "bike_id": "c0b0833102d9227b0940aba989f576fe", "rental_uris": {"ios": "https://dc.lft.to/lastmile_qr_scan", "android": "https://dc.lft.to/lastmile_qr_scan"}, "type": "electric_scooter", "lat": 38.884983, "is_disabled": 0, "lon": -77.01609933333333, "is_reserved": 0}, {"name": "1f3b299d8bf64bcd8492677f1d017e7c", "fusion_lat": 0.0, "fusion_lon": 0.0, "bike_id": "1f3b299d8bf64bcd8492677f1d017e7c", "rental_uris": {"ios": "https://dc.lft.to/lastmile_qr_scan", "android": "https://dc.lft.to/lastmile_qr_scan"}, "type": "electric_scooter", "lat": 38.92060166666667, "is_disabled": 0, "lon": -76.978042, "is_reserved": 0}, {"name": "32ee29bb7c66d7f1a95a951541007ac1", "fusion_lat": 0.0, "fusion_lon": 0.0, "bike_id": "32ee29bb7c66d7f1a95a951541007ac1", "rental_uris": {"ios": "https://dc.lft.to/lastmile_qr_scan", "android": "https://dc.lft.to/lastmile_qr_scan"}, "type": "electric_scooter", "lat": 38.90471866666667, "is_disabled": 0, "lon": -77.02814616666667, "is_reserved": 0}, {"name": "fa7094c42a29e427bd9e8a87d0ff4921", "fusion_lat": 0.0, "fusion_lon": 0.0, "bike_id": "fa7094c42a29e427bd9e8a87d0ff4921", "rental_uris": {"ios": "https://dc.lft.to/lastmile_qr_scan", "android": "https://dc.lft.to/lastmile_qr_scan"}, "type": "electric_bike", "lat": 38.92727766666667, "is_disabled": 0, "lon": -77.0030015, "is_reserved": 0}, {"name": "9a89dd88ce65c88ba7c5837dfb4a6edf", "fusion_lat": 0.0, "fusion_lon": 0.0, "bike_id": "9a89dd88ce65c88ba7c5837dfb4a6edf", "rental_uris": {"ios": "https://dc.lft.to/lastmile_qr_scan", "android": "https://dc.lft.to/lastmile_qr_scan"}, "type": "electric_bike", "lat": 38.88400766666667, "is_disabled": 0, "lon": -77.0307995, "is_reserved": 0}, {"name": "04e2f13b49861cd6dc8cc2c15f8ff54e", "fusion_lat": 0.0, "fusion_lon": 0.0, "bike_id": "04e2f13b49861cd6dc8cc2c15f8ff54e", "rental_uris": {"ios": "https://dc.lft.to/lastmile_qr_scan", "android": "https://dc.lft.to/lastmile_qr_scan"}, "type": "electric_scooter", "lat": 38.92836716666667, "is_disabled": 0, "lon": -77.01387533333333, "is_reserved": 0}, {"name": "1d9791dea77cbaa04cfc70c311af2c24", "fusion_lat": 0.0, "fusion_lon": 0.0, "bike_id": "1d9791dea77cbaa04cfc70c311af2c24", "rental_uris": {"ios": "https://dc.lft.to/lastmile_qr_scan", "android": "https://dc.lft.to/lastmile_qr_scan"}, "type": "electric_scooter", "lat": 38.91920833333333, "is_disabled": 0, "lon": -77.03408183333333, "is_reserved": 0}, {"name": "a017e9fbefa14727e3e59830be88f037", "fusion_lat": 0.0, "fusion_lon": 0.0, "bike_id": "a017e9fbefa14727e3e59830be88f037", "rental_uris": {"ios": "https://dc.lft.to/lastmile_qr_scan", "android": "https://dc.lft.to/lastmile_qr_scan"}, "type": "electric_scooter", "lat": 38.914949166666666, "is_disabled": 0, "lon": -77.0077555, "is_reserved": 0}, {"name": "acbffabf39a37da3c098eace2a879f4a", "fusion_lat": 0.0, "fusion_lon": 0.0, "bike_id": "acbffabf39a37da3c098eace2a879f4a", "rental_uris": {"ios": "https://dc.lft.to/lastmile_qr_scan", "android": "https://dc.lft.to/lastmile_qr_scan"}, "type": "electric_bike", "lat": 38.83095733333333, "is_disabled": 0, "lon": -77.04295983333333, "is_reserved": 0}, {"name": "e181bb6f3100e68a2ba836427732fbbf", "fusion_lat": 0.0, "fusion_lon": 0.0, "bike_id": "e181bb6f3100e68a2ba836427732fbbf", "rental_uris": {"ios": "https://dc.lft.to/lastmile_qr_scan", "android": "https://dc.lft.to/lastmile_qr_scan"}, "type": "electric_scooter", "lat": 38.84620016666667, "is_disabled": 0, "lon": -76.99630433333333, "is_reserved": 0}, {"name": "edb332ce2b893fe635b45033f87b35a0", "fusion_lat": 0.0, "fusion_lon": 0.0, "bike_id": "edb332ce2b893fe635b45033f87b35a0", "rental_uris": {"ios": "https://dc.lft.to/lastmile_qr_scan", "android": "https://dc.lft.to/lastmile_qr_scan"}, "type": "electric_scooter", "lat": 38.89826516666667, "is_disabled": 0, "lon": -77.03121633333333, "is_reserved": 0}, {"name": "a257708548679f75fa5d9a287eb5eb80", "fusion_lat": 0.0, "fusion_lon": 0.0, "bike_id": "a257708548679f75fa5d9a287eb5eb80", "rental_uris": {"ios": "https://dc.lft.to/lastmile_qr_scan", "android": "https://dc.lft.to/lastmile_qr_scan"}, "type": "electric_scooter", "lat": 38.861091, "is_disabled": 0, "lon": -76.990159, "is_reserved": 0}, {"name": "2c7f86028dc58d314dc19208a30b8eae", "fusion_lat": 0.0, "fusion_lon": 0.0, "bike_id": "2c7f86028dc58d314dc19208a30b8eae", "rental_uris": {"ios": "https://dc.lft.to/lastmile_qr_scan", "android": "https://dc.lft.to/lastmile_qr_scan"}, "type": "electric_scooter", "lat": 38.94519016666667, "is_disabled": 0, "lon": -77.02983533333334, "is_reserved": 0}, {"name": "6bcc3f8f46c69e0b027cece5379d06aa", "fusion_lat": 0.0, "fusion_lon": 0.0, "bike_id": "6bcc3f8f46c69e0b027cece5379d06aa", "rental_uris": {"ios": "https://dc.lft.to/lastmile_qr_scan", "android": "https://dc.lft.to/lastmile_qr_scan"}, "type": "electric_scooter", "lat": 38.897250666666665, "is_disabled": 0, "lon": -77.031729, "is_reserved": 0}, {"name": "ddac40eca75a190f387f970b0ba757b1", "fusion_lat": 0.0, "fusion_lon": 0.0, "bike_id": "ddac40eca75a190f387f970b0ba757b1", "rental_uris": {"ios": "https://dc.lft.to/lastmile_qr_scan", "android": "https://dc.lft.to/lastmile_qr_scan"}, "type": "electric_scooter", "lat": 38.899597, "is_disabled": 0, "lon": -77.00345566666667, "is_reserved": 0}, {"name": "c933788eba8aceb90d9c928c4881a138", "fusion_lat": 0.0, "fusion_lon": 0.0, "bike_id": "c933788eba8aceb90d9c928c4881a138", "rental_uris": {"ios": "https://dc.lft.to/lastmile_qr_scan", "android": "https://dc.lft.to/lastmile_qr_scan"}, "type": "electric_scooter", "lat": 38.917931833333334, "is_disabled": 0, "lon": -77.043607, "is_reserved": 0}, {"name": "c201cce5caa379eb16588d2a21a9ce97", "fusion_lat": 0.0, "fusion_lon": 0.0, "bike_id": "c201cce5caa379eb16588d2a21a9ce97", "rental_uris": {"ios": "https://dc.lft.to/lastmile_qr_scan", "android": "https://dc.lft.to/lastmile_qr_scan"}, "type": "electric_scooter", "lat": 38.9013375, "is_disabled": 0, "lon": -77.0285255, "is_reserved": 0}, {"name": "fcefa473bf7ec24000a4ffb4a0878a42", "fusion_lat": 0.0, "fusion_lon": 0.0, "bike_id": "fcefa473bf7ec24000a4ffb4a0878a42", "rental_uris": {"ios": "https://dc.lft.to/lastmile_qr_scan", "android": "https://dc.lft.to/lastmile_qr_scan"}, "type": "electric_scooter", "lat": 38.88417283333333, "is_disabled": 0, "lon": -77.03301466666667, "is_reserved": 0}, {"name": "dea88026b657a22d2be7bf06168b6ebe", "fusion_lat": 0.0, "fusion_lon": 0.0, "bike_id": "dea88026b657a22d2be7bf06168b6ebe", "rental_uris": {"ios": "https://dc.lft.to/lastmile_qr_scan", "android": "https://dc.lft.to/lastmile_qr_scan"}, "type": "electric_scooter", "lat": 38.928330833333334, "is_disabled": 0, "lon": -77.03275416666666, "is_reserved": 0}, {"name": "e43c590401f309ef171e68adfd7fa802", "fusion_lat": 0.0, "fusion_lon": 0.0, "bike_id": "e43c590401f309ef171e68adfd7fa802", "rental_uris": {"ios": "https://dc.lft.to/lastmile_qr_scan", "android": "https://dc.lft.to/lastmile_qr_scan"}, "type": "electric_bike", "lat": 38.990755666666665, "is_disabled": 0, "lon": -77.0238255, "is_reserved": 0}, {"name": "a4bbdbec39cef0a4e60d57f4b1f904d4", "fusion_lat": 0.0, "fusion_lon": 0.0, "bike_id": "a4bbdbec39cef0a4e60d57f4b1f904d4", "rental_uris": {"ios": "https://dc.lft.to/lastmile_qr_scan", "android": "https://dc.lft.to/lastmile_qr_scan"}, "type": "electric_scooter", "lat": 38.88188383333333, "is_disabled": 0, "lon": -77.02811983333334, "is_reserved": 0}, {"name": "ab42e6b0124386b310926d10cc917ca4", "fusion_lat": 0.0, "fusion_lon": 0.0, "bike_id": "ab42e6b0124386b310926d10cc917ca4", "rental_uris": {"ios": "https://dc.lft.to/lastmile_qr_scan", "android": "https://dc.lft.to/lastmile_qr_scan"}, "type": "electric_bike", "lat": 38.90968066666667, "is_disabled": 0, "lon": -77.08823583333333, "is_reserved": 0}, {"name": "77c0d526c4344391f45870c2e3e725b7", "fusion_lat": 0.0, "fusion_lon": 0.0, "bike_id": "77c0d526c4344391f45870c2e3e725b7", "rental_uris": {"ios": "https://dc.lft.to/lastmile_qr_scan", "android": "https://dc.lft.to/lastmile_qr_scan"}, "type": "electric_scooter", "lat": 38.87646866666667, "is_disabled": 0, "lon": -77.00754216666667, "is_reserved": 0}, {"name": "304c07624ecf6dff11e9a618dbd91701", "fusion_lat": 0.0, "fusion_lon": 0.0, "bike_id": "304c07624ecf6dff11e9a618dbd91701", "rental_uris": {"ios": "https://dc.lft.to/lastmile_qr_scan", "android": "https://dc.lft.to/lastmile_qr_scan"}, "type": "electric_scooter", "lat": 38.86660066666666, "is_disabled": 0, "lon": -76.98886316666666, "is_reserved": 0}, {"name": "d065149d7248cf641d54fe2336518c11", "fusion_lat": 0.0, "fusion_lon": 0.0, "bike_id": "d065149d7248cf641d54fe2336518c11", "rental_uris": {"ios": "https://dc.lft.to/lastmile_qr_scan", "android": "https://dc.lft.to/lastmile_qr_scan"}, "type": "electric_scooter", "lat": 38.881303333333335, "is_disabled": 0, "lon": -77.020731, "is_reserved": 0}, {"name": "bb967b9c062a78a4528bbd3ce869dd0d", "fusion_lat": 0.0, "fusion_lon": 0.0, "bike_id": "bb967b9c062a78a4528bbd3ce869dd0d", "rental_uris": {"ios": "https://dc.lft.to/lastmile_qr_scan", "android": "https://dc.lft.to/lastmile_qr_scan"}, "type": "electric_scooter", "lat": 38.920354333333336, "is_disabled": 0, "lon": -77.04816883333334, "is_reserved": 0}, {"name": "74502925ece87acd166401e7c6f2109e", "fusion_lat": 0.0, "fusion_lon": 0.0, "bike_id": "74502925ece87acd166401e7c6f2109e", "rental_uris": {"ios": "https://dc.lft.to/lastmile_qr_scan", "android": "https://dc.lft.to/lastmile_qr_scan"}, "type": "electric_scooter", "lat": 38.887252833333335, "is_disabled": 0, "lon": -76.99649683333334, "is_reserved": 0}, {"name": "391cbadc4e76a54e2f3a88a142be080c", "fusion_lat": 0.0, "fusion_lon": 0.0, "bike_id": "391cbadc4e76a54e2f3a88a142be080c", "rental_uris": {"ios": "https://dc.lft.to/lastmile_qr_scan", "android": "https://dc.lft.to/lastmile_qr_scan"}, "type": "electric_scooter", "lat": 38.926170166666665, "is_disabled": 0, "lon": -77.03779683333333, "is_reserved": 0}, {"name": "e73e93cac349b6dfc05723f2ba5a24cc", "fusion_lat": 0.0, "fusion_lon": 0.0, "bike_id": "e73e93cac349b6dfc05723f2ba5a24cc", "rental_uris": {"ios": "https://dc.lft.to/lastmile_qr_scan", "android": "https://dc.lft.to/lastmile_qr_scan"}, "type": "electric_scooter", "lat": 38.919137666666664, "is_disabled": 0, "lon": -77.03410566666666, "is_reserved": 0}, {"name": "6e78b970e7527c8b4cb65e5036d38207", "fusion_lat": 0.0, "fusion_lon": 0.0, "bike_id": "6e78b970e7527c8b4cb65e5036d38207", "rental_uris": {"ios": "https://dc.lft.to/lastmile_qr_scan", "android": "https://dc.lft.to/lastmile_qr_scan"}, "type": "electric_bike", "lat": 38.93967966666666, "is_disabled": 0, "lon": -77.360889, "is_reserved": 0}, {"name": "63854a5366952d63794a16835e75bf60", "fusion_lat": 0.0, "fusion_lon": 0.0, "bike_id": "63854a5366952d63794a16835e75bf60", "rental_uris": {"ios": "https://dc.lft.to/lastmile_qr_scan", "android": "https://dc.lft.to/lastmile_qr_scan"}, "type": "electric_scooter", "lat": 38.909777, "is_disabled": 0, "lon": -77.03756533333333, "is_reserved": 0}, {"name": "193169f93cdbf6e103f86f6011506f0c", "fusion_lat": 0.0, "fusion_lon": 0.0, "bike_id": "193169f93cdbf6e103f86f6011506f0c", "rental_uris": {"ios": "https://dc.lft.to/lastmile_qr_scan", "android": "https://dc.lft.to/lastmile_qr_scan"}, "type": "electric_scooter", "lat": 38.879006, "is_disabled": 0, "lon": -77.0136595, "is_reserved": 0}, {"name": "e3ae62a595eba0c98b9828f0ba26d47f", "fusion_lat": 0.0, "fusion_lon": 0.0, "bike_id": "e3ae62a595eba0c98b9828f0ba26d47f", "rental_uris": {"ios": "https://dc.lft.to/lastmile_qr_scan", "android": "https://dc.lft.to/lastmile_qr_scan"}, "type": "electric_scooter", "lat": 38.90803833333333, "is_disabled": 0, "lon": -76.98528583333334, "is_reserved": 0}, {"name": "713165b9fe540340ed88ce2698a082e8", "fusion_lat": 0.0, "fusion_lon": 0.0, "bike_id": "713165b9fe540340ed88ce2698a082e8", "rental_uris": {"ios": "https://dc.lft.to/lastmile_qr_scan", "android": "https://dc.lft.to/lastmile_qr_scan"}, "type": "electric_scooter", "lat": 38.8973315, "is_disabled": 0, "lon": -77.029937, "is_reserved": 0}, {"name": "4f4dfd6dc9b97f7e48f9629beefd311f", "fusion_lat": 0.0, "fusion_lon": 0.0, "bike_id": "4f4dfd6dc9b97f7e48f9629beefd311f", "rental_uris": {"ios": "https://dc.lft.to/lastmile_qr_scan", "android": "https://dc.lft.to/lastmile_qr_scan"}, "type": "electric_bike", "lat": 38.93540316666667, "is_disabled": 0, "lon": -76.97854733333334, "is_reserved": 0}, {"name": "d253ef03d2b539eb6f97ffb55af39370", "fusion_lat": 0.0, "fusion_lon": 0.0, "bike_id": "d253ef03d2b539eb6f97ffb55af39370", "rental_uris": {"ios": "https://dc.lft.to/lastmile_qr_scan", "android": "https://dc.lft.to/lastmile_qr_scan"}, "type": "electric_scooter", "lat": 38.921924833333335, "is_disabled": 0, "lon": -77.07267816666666, "is_reserved": 0}, {"name": "fe60f4d552c625e28821770230e4c492", "fusion_lat": 0.0, "fusion_lon": 0.0, "bike_id": "fe60f4d552c625e28821770230e4c492", "rental_uris": {"ios": "https://dc.lft.to/lastmile_qr_scan", "android": "https://dc.lft.to/lastmile_qr_scan"}, "type": "electric_scooter", "lat": 38.93016683333333, "is_disabled": 0, "lon": -77.01367833333333, "is_reserved": 0}, {"name": "c6f782517a82d3dadcc0e0ef5a2f1ff1", "fusion_lat": 0.0, "fusion_lon": 0.0, "bike_id": "c6f782517a82d3dadcc0e0ef5a2f1ff1", "rental_uris": {"ios": "https://dc.lft.to/lastmile_qr_scan", "android": "https://dc.lft.to/lastmile_qr_scan"}, "type": "electric_scooter", "lat": 38.925684333333336, "is_disabled": 0, "lon": -77.08058066666666, "is_reserved": 0}, {"name": "713b5370a4831d5e94e4056815aaac3b", "fusion_lat": 0.0, "fusion_lon": 0.0, "bike_id": "713b5370a4831d5e94e4056815aaac3b", "rental_uris": {"ios": "https://dc.lft.to/lastmile_qr_scan", "android": "https://dc.lft.to/lastmile_qr_scan"}, "type": "electric_scooter", "lat": 38.9069205, "is_disabled": 0, "lon": -76.98707333333333, "is_reserved": 0}, {"name": "d0a9e9307df328dc59f5eddb1df7c629", "fusion_lat": 0.0, "fusion_lon": 0.0, "bike_id": "d0a9e9307df328dc59f5eddb1df7c629", "rental_uris": {"ios": "https://dc.lft.to/lastmile_qr_scan", "android": "https://dc.lft.to/lastmile_qr_scan"}, "type": "electric_bike", "lat": 38.87759483333333, "is_disabled": 0, "lon": -76.9799475, "is_reserved": 0}, {"name": "659b5a9fe85bc1861f50b738dfea0334", "fusion_lat": 0.0, "fusion_lon": 0.0, "bike_id": "659b5a9fe85bc1861f50b738dfea0334", "rental_uris": {"ios": "https://dc.lft.to/lastmile_qr_scan", "android": "https://dc.lft.to/lastmile_qr_scan"}, "type": "electric_bike", "lat": 38.8652975, "is_disabled": 0, "lon": -77.12821616666666, "is_reserved": 0}, {"name": "4ae8c5e2fb4f7cb7952e8e7f6a442894", "fusion_lat": 0.0, "fusion_lon": 0.0, "bike_id": "4ae8c5e2fb4f7cb7952e8e7f6a442894", "rental_uris": {"ios": "https://dc.lft.to/lastmile_qr_scan", "android": "https://dc.lft.to/lastmile_qr_scan"}, "type": "electric_scooter", "lat": 38.908477500000004, "is_disabled": 0, "lon": -77.02386816666667, "is_reserved": 0}, {"name": "7c56d8dcd4606b8b9a3fbda389544956", "fusion_lat": 0.0, "fusion_lon": 0.0, "bike_id": "7c56d8dcd4606b8b9a3fbda389544956", "rental_uris": {"ios": "https://dc.lft.to/lastmile_qr_scan", "android": "https://dc.lft.to/lastmile_qr_scan"}, "type": "electric_scooter", "lat": 38.922788833333335, "is_disabled": 0, "lon": -77.04464466666667, "is_reserved": 0}, {"name": "811f59805197e3790c5b4bc3b0094563", "fusion_lat": 0.0, "fusion_lon": 0.0, "bike_id": "811f59805197e3790c5b4bc3b0094563", "rental_uris": {"ios": "https://dc.lft.to/lastmile_qr_scan", "android": "https://dc.lft.to/lastmile_qr_scan"}, "type": "electric_scooter", "lat": 38.863643333333336, "is_disabled": 0, "lon": -76.990585, "is_reserved": 0}, {"name": "59b36b97ef4b3cc24fb567f486a67dd9", "fusion_lat": 0.0, "fusion_lon": 0.0, "bike_id": "59b36b97ef4b3cc24fb567f486a67dd9", "rental_uris": {"ios": "https://dc.lft.to/lastmile_qr_scan", "android": "https://dc.lft.to/lastmile_qr_scan"}, "type": "electric_scooter", "lat": 38.925811, "is_disabled": 0, "lon": -77.03060233333333, "is_reserved": 0}, {"name": "54dc5e7948937def1f3ca7b33a64230d", "fusion_lat": 0.0, "fusion_lon": 0.0, "bike_id": "54dc5e7948937def1f3ca7b33a64230d", "rental_uris": {"ios": "https://dc.lft.to/lastmile_qr_scan", "android": "https://dc.lft.to/lastmile_qr_scan"}, "type": "electric_bike", "lat": 38.8245195, "is_disabled": 0, "lon": -77.07044983333333, "is_reserved": 0}, {"name": "f86b0a8be8c14af3f4b403fab6747e93", "fusion_lat": 0.0, "fusion_lon": 0.0, "bike_id": "f86b0a8be8c14af3f4b403fab6747e93", "rental_uris": {"ios": "https://dc.lft.to/lastmile_qr_scan", "android": "https://dc.lft.to/lastmile_qr_scan"}, "type": "electric_scooter", "lat": 38.8833785, "is_disabled": 0, "lon": -77.01768666666666, "is_reserved": 0}, {"name": "add56200735710d6cd7c8f7cd275157a", "fusion_lat": 0.0, "fusion_lon": 0.0, "bike_id": "add56200735710d6cd7c8f7cd275157a", "rental_uris": {"ios": "https://dc.lft.to/lastmile_qr_scan", "android": "https://dc.lft.to/lastmile_qr_scan"}, "type": "electric_scooter", "lat": 38.92268516666667, "is_disabled": 0, "lon": -77.04216866666667, "is_reserved": 0}, {"name": "ea669eba6f86ab31dce7c1cd61f1bd09", "fusion_lat": 0.0, "fusion_lon": 0.0, "bike_id": "ea669eba6f86ab31dce7c1cd61f1bd09", "rental_uris": {"ios": "https://dc.lft.to/lastmile_qr_scan", "android": "https://dc.lft.to/lastmile_qr_scan"}, "type": "electric_scooter", "lat": 38.901964666666665, "is_disabled": 0, "lon": -77.05482683333334, "is_reserved": 0}, {"name": "c00f8fc74055023993a47a6543ee434b", "fusion_lat": 0.0, "fusion_lon": 0.0, "bike_id": "c00f8fc74055023993a47a6543ee434b", "rental_uris": {"ios": "https://dc.lft.to/lastmile_qr_scan", "android": "https://dc.lft.to/lastmile_qr_scan"}, "type": "electric_scooter", "lat": 38.915969833333335, "is_disabled": 0, "lon": -77.02350733333333, "is_reserved": 0}, {"name": "bb62f1ade837e20dfe49d0b400b1772e", "fusion_lat": 0.0, "fusion_lon": 0.0, "bike_id": "bb62f1ade837e20dfe49d0b400b1772e", "rental_uris": {"ios": "https://dc.lft.to/lastmile_qr_scan", "android": "https://dc.lft.to/lastmile_qr_scan"}, "type": "electric_scooter", "lat": 38.898284833333335, "is_disabled": 0, "lon": -77.03313166666666, "is_reserved": 0}, {"name": "c061912eaf083f66a1fc9c20fba7ab70", "fusion_lat": 0.0, "fusion_lon": 0.0, "bike_id": "c061912eaf083f66a1fc9c20fba7ab70", "rental_uris": {"ios": "https://dc.lft.to/lastmile_qr_scan", "android": "https://dc.lft.to/lastmile_qr_scan"}, "type": "electric_scooter", "lat": 38.885163666666664, "is_disabled": 0, "lon": -76.948271, "is_reserved": 0}, {"name": "10f9357b31fbf38d3323ec6cbce0d9b2", "fusion_lat": 0.0, "fusion_lon": 0.0, "bike_id": "10f9357b31fbf38d3323ec6cbce0d9b2", "rental_uris": {"ios": "https://dc.lft.to/lastmile_qr_scan", "android": "https://dc.lft.to/lastmile_qr_scan"}, "type": "electric_bike", "lat": 39.028643833333334, "is_disabled": 0, "lon": -77.10436266666666, "is_reserved": 0}, {"name": "982175d088f051bb3bc0423cab00356e", "fusion_lat": 0.0, "fusion_lon": 0.0, "bike_id": "982175d088f051bb3bc0423cab00356e", "rental_uris": {"ios": "https://dc.lft.to/lastmile_qr_scan", "android": "https://dc.lft.to/lastmile_qr_scan"}, "type": "electric_bike", "lat": 38.903304166666665, "is_disabled": 0, "lon": -76.9753045, "is_reserved": 0}, {"name": "055ba0a1e83f6bb4096570c8f7f34a47", "fusion_lat": 0.0, "fusion_lon": 0.0, "bike_id": "055ba0a1e83f6bb4096570c8f7f34a47", "rental_uris": {"ios": "https://dc.lft.to/lastmile_qr_scan", "android": "https://dc.lft.to/lastmile_qr_scan"}, "type": "electric_scooter", "lat": 38.91828, "is_disabled": 0, "lon": -77.045279, "is_reserved": 0}, {"name": "798d0d9b17878b31e2ca75ee582da48a", "fusion_lat": 0.0, "fusion_lon": 0.0, "bike_id": "798d0d9b17878b31e2ca75ee582da48a", "rental_uris": {"ios": "https://dc.lft.to/lastmile_qr_scan", "android": "https://dc.lft.to/lastmile_qr_scan"}, "type": "electric_scooter", "lat": 38.91577216666667, "is_disabled": 0, "lon": -77.02002233333333, "is_reserved": 0}, {"name": "c8e650ac794b3f79a25759aad25cfa6c", "fusion_lat": 0.0, "fusion_lon": 0.0, "bike_id": "c8e650ac794b3f79a25759aad25cfa6c", "rental_uris": {"ios": "https://dc.lft.to/lastmile_qr_scan", "android": "https://dc.lft.to/lastmile_qr_scan"}, "type": "electric_scooter", "lat": 38.9272475, "is_disabled": 0, "lon": -76.978799, "is_reserved": 0}, {"name": "e17bab09b68f6aad4b99652c1c09f61b", "fusion_lat": 0.0, "fusion_lon": 0.0, "bike_id": "e17bab09b68f6aad4b99652c1c09f61b", "rental_uris": {"ios": "https://dc.lft.to/lastmile_qr_scan", "android": "https://dc.lft.to/lastmile_qr_scan"}, "type": "electric_scooter", "lat": 38.88586383333333, "is_disabled": 0, "lon": -77.01225333333333, "is_reserved": 0}, {"name": "728ff8d755f46430afd3ab2ee73fe442", "fusion_lat": 0.0, "fusion_lon": 0.0, "bike_id": "728ff8d755f46430afd3ab2ee73fe442", "rental_uris": {"ios": "https://dc.lft.to/lastmile_qr_scan", "android": "https://dc.lft.to/lastmile_qr_scan"}, "type": "electric_scooter", "lat": 38.9103555, "is_disabled": 0, "lon": -77.036208, "is_reserved": 0}, {"name": "60a15613bb59de49b8733f3c3b3eef3f", "fusion_lat": 0.0, "fusion_lon": 0.0, "bike_id": "60a15613bb59de49b8733f3c3b3eef3f", "rental_uris": {"ios": "https://dc.lft.to/lastmile_qr_scan", "android": "https://dc.lft.to/lastmile_qr_scan"}, "type": "electric_scooter", "lat": 38.91615, "is_disabled": 0, "lon": -77.0230155, "is_reserved": 0}, {"name": "c3d895cc4822ecad35bbfb15e587f28c", "fusion_lat": 0.0, "fusion_lon": 0.0, "bike_id": "c3d895cc4822ecad35bbfb15e587f28c", "rental_uris": {"ios": "https://dc.lft.to/lastmile_qr_scan", "android": "https://dc.lft.to/lastmile_qr_scan"}, "type": "electric_scooter", "lat": 38.896041, "is_disabled": 0, "lon": -77.0543805, "is_reserved": 0}, {"name": "f9f32d1119966e81ac631abac4e213d7", "fusion_lat": 0.0, "fusion_lon": 0.0, "bike_id": "f9f32d1119966e81ac631abac4e213d7", "rental_uris": {"ios": "https://dc.lft.to/lastmile_qr_scan", "android": "https://dc.lft.to/lastmile_qr_scan"}, "type": "electric_scooter", "lat": 38.89531866666667, "is_disabled": 0, "lon": -77.028362, "is_reserved": 0}, {"name": "a11a9839f31ff1c9523d88affacdf957", "fusion_lat": 0.0, "fusion_lon": 0.0, "bike_id": "a11a9839f31ff1c9523d88affacdf957", "rental_uris": {"ios": "https://dc.lft.to/lastmile_qr_scan", "android": "https://dc.lft.to/lastmile_qr_scan"}, "type": "electric_scooter", "lat": 38.90707533333333, "is_disabled": 0, "lon": -77.03542283333333, "is_reserved": 0}, {"name": "76fe510847e5dd1934abb4080902c8c6", "fusion_lat": 0.0, "fusion_lon": 0.0, "bike_id": "76fe510847e5dd1934abb4080902c8c6", "rental_uris": {"ios": "https://dc.lft.to/lastmile_qr_scan", "android": "https://dc.lft.to/lastmile_qr_scan"}, "type": "electric_scooter", "lat": 38.89942833333333, "is_disabled": 0, "lon": -77.01272983333334, "is_reserved": 0}, {"name": "b0f018d6fb7f7a8351beb3f9d9a3645e", "fusion_lat": 0.0, "fusion_lon": 0.0, "bike_id": "b0f018d6fb7f7a8351beb3f9d9a3645e", "rental_uris": {"ios": "https://dc.lft.to/lastmile_qr_scan", "android": "https://dc.lft.to/lastmile_qr_scan"}, "type": "electric_scooter", "lat": 38.8532155, "is_disabled": 0, "lon": -76.96580116666667, "is_reserved": 0}, {"name": "bd8891349f9a584548da018cebd0ed35", "fusion_lat": 0.0, "fusion_lon": 0.0, "bike_id": "bd8891349f9a584548da018cebd0ed35", "rental_uris": {"ios": "https://dc.lft.to/lastmile_qr_scan", "android": "https://dc.lft.to/lastmile_qr_scan"}, "type": "electric_scooter", "lat": 38.939179833333334, "is_disabled": 0, "lon": -77.024897, "is_reserved": 0}, {"name": "22b0014e5d2967d0cd0473100dee9636", "fusion_lat": 0.0, "fusion_lon": 0.0, "bike_id": "22b0014e5d2967d0cd0473100dee9636", "rental_uris": {"ios": "https://dc.lft.to/lastmile_qr_scan", "android": "https://dc.lft.to/lastmile_qr_scan"}, "type": "electric_scooter", "lat": 38.8802125, "is_disabled": 0, "lon": -76.93114966666667, "is_reserved": 0}, {"name": "50c50ccc9faece3e020a59c0e933b05a", "fusion_lat": 0.0, "fusion_lon": 0.0, "bike_id": "50c50ccc9faece3e020a59c0e933b05a", "rental_uris": {"ios": "https://dc.lft.to/lastmile_qr_scan", "android": "https://dc.lft.to/lastmile_qr_scan"}, "type": "electric_scooter", "lat": 38.905542833333335, "is_disabled": 0, "lon": -77.0512755, "is_reserved": 0}, {"name": "f00ca9684b7730506e7f86f193bd7ad2", "fusion_lat": 0.0, "fusion_lon": 0.0, "bike_id": "f00ca9684b7730506e7f86f193bd7ad2", "rental_uris": {"ios": "https://dc.lft.to/lastmile_qr_scan", "android": "https://dc.lft.to/lastmile_qr_scan"}, "type": "electric_scooter", "lat": 38.903626, "is_disabled": 0, "lon": -77.03211833333333, "is_reserved": 0}, {"name": "617273380ac7037e1f4ccf51ca5bfa13", "fusion_lat": 0.0, "fusion_lon": 0.0, "bike_id": "617273380ac7037e1f4ccf51ca5bfa13", "rental_uris": {"ios": "https://dc.lft.to/lastmile_qr_scan", "android": "https://dc.lft.to/lastmile_qr_scan"}, "type": "electric_bike", "lat": 38.9883385, "is_disabled": 0, "lon": -76.98749133333334, "is_reserved": 0}, {"name": "9b761f3dbc9788a41f8b9221bd79e829", "fusion_lat": 0.0, "fusion_lon": 0.0, "bike_id": "9b761f3dbc9788a41f8b9221bd79e829", "rental_uris": {"ios": "https://dc.lft.to/lastmile_qr_scan", "android": "https://dc.lft.to/lastmile_qr_scan"}, "type": "electric_scooter", "lat": 38.915709166666666, "is_disabled": 0, "lon": -77.04987133333333, "is_reserved": 0}, {"name": "0126ead149b97baebbbdecdf98c5a57d", "fusion_lat": 0.0, "fusion_lon": 0.0, "bike_id": "0126ead149b97baebbbdecdf98c5a57d", "rental_uris": {"ios": "https://dc.lft.to/lastmile_qr_scan", "android": "https://dc.lft.to/lastmile_qr_scan"}, "type": "electric_scooter", "lat": 38.93171616666667, "is_disabled": 0, "lon": -77.03642733333334, "is_reserved": 0}, {"name": "ece07afb43343dcf9cbfe23052dd3f39", "fusion_lat": 0.0, "fusion_lon": 0.0, "bike_id": "ece07afb43343dcf9cbfe23052dd3f39", "rental_uris": {"ios": "https://dc.lft.to/lastmile_qr_scan", "android": "https://dc.lft.to/lastmile_qr_scan"}, "type": "electric_scooter", "lat": 38.88486416666667, "is_disabled": 0, "lon": -77.01607516666667, "is_reserved": 0}, {"name": "0e7f96258e7c280882dd87401998da1e", "fusion_lat": 0.0, "fusion_lon": 0.0, "bike_id": "0e7f96258e7c280882dd87401998da1e", "rental_uris": {"ios": "https://dc.lft.to/lastmile_qr_scan", "android": "https://dc.lft.to/lastmile_qr_scan"}, "type": "electric_scooter", "lat": 38.87624483333333, "is_disabled": 0, "lon": -77.007192, "is_reserved": 0}, {"name": "476940725427a2f158f941bc21dfbcb6", "fusion_lat": 0.0, "fusion_lon": 0.0, "bike_id": "476940725427a2f158f941bc21dfbcb6", "rental_uris": {"ios": "https://dc.lft.to/lastmile_qr_scan", "android": "https://dc.lft.to/lastmile_qr_scan"}, "type": "electric_scooter", "lat": 38.8880155, "is_disabled": 0, "lon": -76.93354916666667, "is_reserved": 0}, {"name": "0200e83fcda4407bbbdca129a8870050", "fusion_lat": 0.0, "fusion_lon": 0.0, "bike_id": "0200e83fcda4407bbbdca129a8870050", "rental_uris": {"ios": "https://dc.lft.to/lastmile_qr_scan", "android": "https://dc.lft.to/lastmile_qr_scan"}, "type": "electric_bike", "lat": 38.945801, "is_disabled": 0, "lon": -76.98776733333334, "is_reserved": 0}, {"name": "9a5eeb4fa98876a1c3b62ac7912054ea", "fusion_lat": 0.0, "fusion_lon": 0.0, "bike_id": "9a5eeb4fa98876a1c3b62ac7912054ea", "rental_uris": {"ios": "https://dc.lft.to/lastmile_qr_scan", "android": "https://dc.lft.to/lastmile_qr_scan"}, "type": "electric_scooter", "lat": 38.84620283333334, "is_disabled": 0, "lon": -76.99632733333334, "is_reserved": 0}, {"name": "97458ff6d2a199fec701ae345e390cc7", "fusion_lat": 0.0, "fusion_lon": 0.0, "bike_id": "97458ff6d2a199fec701ae345e390cc7", "rental_uris": {"ios": "https://dc.lft.to/lastmile_qr_scan", "android": "https://dc.lft.to/lastmile_qr_scan"}, "type": "electric_bike", "lat": 38.93666666666667, "is_disabled": 0, "lon": -76.95498766666667, "is_reserved": 0}, {"name": "65b3183dab7d9a88e49120b89b42d5e7", "fusion_lat": 0.0, "fusion_lon": 0.0, "bike_id": "65b3183dab7d9a88e49120b89b42d5e7", "rental_uris": {"ios": "https://dc.lft.to/lastmile_qr_scan", "android": "https://dc.lft.to/lastmile_qr_scan"}, "type": "electric_scooter", "lat": 38.92613333333333, "is_disabled": 0, "lon": -77.02169166666667, "is_reserved": 0}, {"name": "936f97a31126910df99674741b599988", "fusion_lat": 0.0, "fusion_lon": 0.0, "bike_id": "936f97a31126910df99674741b599988", "rental_uris": {"ios": "https://dc.lft.to/lastmile_qr_scan", "android": "https://dc.lft.to/lastmile_qr_scan"}, "type": "electric_scooter", "lat": 38.90559716666667, "is_disabled": 0, "lon": -77.0500685, "is_reserved": 0}, {"name": "d8bbabd67690f85f72066e4977a8fe24", "fusion_lat": 0.0, "fusion_lon": 0.0, "bike_id": "d8bbabd67690f85f72066e4977a8fe24", "rental_uris": {"ios": "https://dc.lft.to/lastmile_qr_scan", "android": "https://dc.lft.to/lastmile_qr_scan"}, "type": "electric_scooter", "lat": 38.921640333333336, "is_disabled": 0, "lon": -77.0469535, "is_reserved": 0}, {"name": "493e5661bea474cefb10ccd74c5fb917", "fusion_lat": 0.0, "fusion_lon": 0.0, "bike_id": "493e5661bea474cefb10ccd74c5fb917", "rental_uris": {"ios": "https://dc.lft.to/lastmile_qr_scan", "android": "https://dc.lft.to/lastmile_qr_scan"}, "type": "electric_scooter", "lat": 38.90481166666667, "is_disabled": 0, "lon": -77.035726, "is_reserved": 0}, {"name": "45c8dd629f06f7b7eefa082fa8064184", "fusion_lat": 0.0, "fusion_lon": 0.0, "bike_id": "45c8dd629f06f7b7eefa082fa8064184", "rental_uris": {"ios": "https://dc.lft.to/lastmile_qr_scan", "android": "https://dc.lft.to/lastmile_qr_scan"}, "type": "electric_scooter", "lat": 38.883749, "is_disabled": 0, "lon": -76.99521083333333, "is_reserved": 0}, {"name": "0aade6648b07b6725544fab97aa90eba", "fusion_lat": 0.0, "fusion_lon": 0.0, "bike_id": "0aade6648b07b6725544fab97aa90eba", "rental_uris": {"ios": "https://dc.lft.to/lastmile_qr_scan", "android": "https://dc.lft.to/lastmile_qr_scan"}, "type": "electric_scooter", "lat": 38.92875516666667, "is_disabled": 0, "lon": -77.03098683333333, "is_reserved": 0}, {"name": "fb6096f324eb81cc64490c6ddb060662", "fusion_lat": 0.0, "fusion_lon": 0.0, "bike_id": "fb6096f324eb81cc64490c6ddb060662", "rental_uris": {"ios": "https://dc.lft.to/lastmile_qr_scan", "android": "https://dc.lft.to/lastmile_qr_scan"}, "type": "electric_bike", "lat": 38.99678, "is_disabled": 0, "lon": -77.03828566666667, "is_reserved": 0}, {"name": "7dfaa8d38ad4e4c160ad48ccceac5892", "fusion_lat": 0.0, "fusion_lon": 0.0, "bike_id": "7dfaa8d38ad4e4c160ad48ccceac5892", "rental_uris": {"ios": "https://dc.lft.to/lastmile_qr_scan", "android": "https://dc.lft.to/lastmile_qr_scan"}, "type": "electric_scooter", "lat": 38.91544233333333, "is_disabled": 0, "lon": -77.0224125, "is_reserved": 0}, {"name": "293938bf0795b911c56bbc5861822955", "fusion_lat": 0.0, "fusion_lon": 0.0, "bike_id": "293938bf0795b911c56bbc5861822955", "rental_uris": {"ios": "https://dc.lft.to/lastmile_qr_scan", "android": "https://dc.lft.to/lastmile_qr_scan"}, "type": "electric_scooter", "lat": 38.909663, "is_disabled": 0, "lon": -77.0445555, "is_reserved": 0}, {"name": "e7307a55e27865e11f96c1852884c0d5", "fusion_lat": 0.0, "fusion_lon": 0.0, "bike_id": "e7307a55e27865e11f96c1852884c0d5", "rental_uris": {"ios": "https://dc.lft.to/lastmile_qr_scan", "android": "https://dc.lft.to/lastmile_qr_scan"}, "type": "electric_scooter", "lat": 38.902398833333336, "is_disabled": 0, "lon": -77.0020345, "is_reserved": 0}, {"name": "b7a52ed41a1d6504172cdcd1f3727922", "fusion_lat": 0.0, "fusion_lon": 0.0, "bike_id": "b7a52ed41a1d6504172cdcd1f3727922", "rental_uris": {"ios": "https://dc.lft.to/lastmile_qr_scan", "android": "https://dc.lft.to/lastmile_qr_scan"}, "type": "electric_scooter", "lat": 38.89754933333333, "is_disabled": 0, "lon": -77.021508, "is_reserved": 0}, {"name": "531269836a85a61548f03a8a561a9df5", "fusion_lat": 0.0, "fusion_lon": 0.0, "bike_id": "531269836a85a61548f03a8a561a9df5", "rental_uris": {"ios": "https://dc.lft.to/lastmile_qr_scan", "android": "https://dc.lft.to/lastmile_qr_scan"}, "type": "electric_scooter", "lat": 38.90609, "is_disabled": 0, "lon": -77.04375116666667, "is_reserved": 0}, {"name": "9f09ba74935ce7a3a284b8f0ccd382a0", "fusion_lat": 0.0, "fusion_lon": 0.0, "bike_id": "9f09ba74935ce7a3a284b8f0ccd382a0", "rental_uris": {"ios": "https://dc.lft.to/lastmile_qr_scan", "android": "https://dc.lft.to/lastmile_qr_scan"}, "type": "electric_scooter", "lat": 38.89742483333333, "is_disabled": 0, "lon": -77.04668733333334, "is_reserved": 0}, {"name": "6398c447a85091548b5ae590c17592f2", "fusion_lat": 0.0, "fusion_lon": 0.0, "bike_id": "6398c447a85091548b5ae590c17592f2", "rental_uris": {"ios": "https://dc.lft.to/lastmile_qr_scan", "android": "https://dc.lft.to/lastmile_qr_scan"}, "type": "electric_scooter", "lat": 38.877281333333336, "is_disabled": 0, "lon": -77.0054635, "is_reserved": 0}, {"name": "bfbf67fc9a6df77b9dc74d3bc7819740", "fusion_lat": 0.0, "fusion_lon": 0.0, "bike_id": "bfbf67fc9a6df77b9dc74d3bc7819740", "rental_uris": {"ios": "https://dc.lft.to/lastmile_qr_scan", "android": "https://dc.lft.to/lastmile_qr_scan"}, "type": "electric_scooter", "lat": 38.8789935, "is_disabled": 0, "lon": -76.9352555, "is_reserved": 0}, {"name": "12ea55e889deaaa029bdbd00b5c3e2f6", "fusion_lat": 0.0, "fusion_lon": 0.0, "bike_id": "12ea55e889deaaa029bdbd00b5c3e2f6", "rental_uris": {"ios": "https://dc.lft.to/lastmile_qr_scan", "android": "https://dc.lft.to/lastmile_qr_scan"}, "type": "electric_scooter", "lat": 38.917055, "is_disabled": 0, "lon": -77.03572083333333, "is_reserved": 0}, {"name": "daa44fef29dc8d32242191e694f710c6", "fusion_lat": 0.0, "fusion_lon": 0.0, "bike_id": "daa44fef29dc8d32242191e694f710c6", "rental_uris": {"ios": "https://dc.lft.to/lastmile_qr_scan", "android": "https://dc.lft.to/lastmile_qr_scan"}, "type": "electric_bike", "lat": 38.974106166666665, "is_disabled": 0, "lon": -77.02492383333333, "is_reserved": 0}, {"name": "02003fedb7f0ee8d5b7ec456b9c477c7", "fusion_lat": 0.0, "fusion_lon": 0.0, "bike_id": "02003fedb7f0ee8d5b7ec456b9c477c7", "rental_uris": {"ios": "https://dc.lft.to/lastmile_qr_scan", "android": "https://dc.lft.to/lastmile_qr_scan"}, "type": "electric_scooter", "lat": 38.9073925, "is_disabled": 0, "lon": -76.93549233333333, "is_reserved": 0}, {"name": "1a2939a5386ec1f6cd605b677a060f00", "fusion_lat": 0.0, "fusion_lon": 0.0, "bike_id": "1a2939a5386ec1f6cd605b677a060f00", "rental_uris": {"ios": "https://dc.lft.to/lastmile_qr_scan", "android": "https://dc.lft.to/lastmile_qr_scan"}, "type": "electric_bike", "lat": 38.860345833333334, "is_disabled": 0, "lon": -77.093755, "is_reserved": 0}, {"name": "c3c74f7667334cfa7dcc52c167d4db77", "fusion_lat": 0.0, "fusion_lon": 0.0, "bike_id": "c3c74f7667334cfa7dcc52c167d4db77", "rental_uris": {"ios": "https://dc.lft.to/lastmile_qr_scan", "android": "https://dc.lft.to/lastmile_qr_scan"}, "type": "electric_scooter", "lat": 38.910096833333334, "is_disabled": 0, "lon": -77.03182683333333, "is_reserved": 0}, {"name": "717b0d516a5c06dc8dcaa60b8a3e0e16", "fusion_lat": 0.0, "fusion_lon": 0.0, "bike_id": "717b0d516a5c06dc8dcaa60b8a3e0e16", "rental_uris": {"ios": "https://dc.lft.to/lastmile_qr_scan", "android": "https://dc.lft.to/lastmile_qr_scan"}, "type": "electric_scooter", "lat": 38.8668135, "is_disabled": 0, "lon": -77.01211316666667, "is_reserved": 0}, {"name": "0e39a64786bcd03feaca7c80dee20efe", "fusion_lat": 0.0, "fusion_lon": 0.0, "bike_id": "0e39a64786bcd03feaca7c80dee20efe", "rental_uris": {"ios": "https://dc.lft.to/lastmile_qr_scan", "android": "https://dc.lft.to/lastmile_qr_scan"}, "type": "electric_bike", "lat": 38.924445166666665, "is_disabled": 0, "lon": -76.9683455, "is_reserved": 0}, {"name": "6b50365e2c38038651a6db51e7a5e8ac", "fusion_lat": 0.0, "fusion_lon": 0.0, "bike_id": "6b50365e2c38038651a6db51e7a5e8ac", "rental_uris": {"ios": "https://dc.lft.to/lastmile_qr_scan", "android": "https://dc.lft.to/lastmile_qr_scan"}, "type": "electric_scooter", "lat": 38.95594633333333, "is_disabled": 0, "lon": -77.03649533333333, "is_reserved": 0}, {"name": "16298bf0338fd1c70e98edd48aa1bb39", "fusion_lat": 0.0, "fusion_lon": 0.0, "bike_id": "16298bf0338fd1c70e98edd48aa1bb39", "rental_uris": {"ios": "https://dc.lft.to/lastmile_qr_scan", "android": "https://dc.lft.to/lastmile_qr_scan"}, "type": "electric_scooter", "lat": 38.91806483333333, "is_disabled": 0, "lon": -77.0321015, "is_reserved": 0}, {"name": "debbaeb90917e59ea3e093e3fcbf49fd", "fusion_lat": 0.0, "fusion_lon": 0.0, "bike_id": "debbaeb90917e59ea3e093e3fcbf49fd", "rental_uris": {"ios": "https://dc.lft.to/lastmile_qr_scan", "android": "https://dc.lft.to/lastmile_qr_scan"}, "type": "electric_bike", "lat": 39.10564766666667, "is_disabled": 0, "lon": -77.15265483333333, "is_reserved": 0}, {"name": "8d7e5636d1a77728f8411a053d28f7cc", "fusion_lat": 0.0, "fusion_lon": 0.0, "bike_id": "8d7e5636d1a77728f8411a053d28f7cc", "rental_uris": {"ios": "https://dc.lft.to/lastmile_qr_scan", "android": "https://dc.lft.to/lastmile_qr_scan"}, "type": "electric_scooter", "lat": 38.90966733333333, "is_disabled": 0, "lon": -77.03746183333334, "is_reserved": 0}, {"name": "2f3cf2252665dc73ccd2c03380dd5e70", "fusion_lat": 0.0, "fusion_lon": 0.0, "bike_id": "2f3cf2252665dc73ccd2c03380dd5e70", "rental_uris": {"ios": "https://dc.lft.to/lastmile_qr_scan", "android": "https://dc.lft.to/lastmile_qr_scan"}, "type": "electric_scooter", "lat": 38.87638066666667, "is_disabled": 0, "lon": -77.0111695, "is_reserved": 0}, {"name": "0fc9a1289ea8b270980367d7c9cb28d4", "fusion_lat": 0.0, "fusion_lon": 0.0, "bike_id": "0fc9a1289ea8b270980367d7c9cb28d4", "rental_uris": {"ios": "https://dc.lft.to/lastmile_qr_scan", "android": "https://dc.lft.to/lastmile_qr_scan"}, "type": "electric_scooter", "lat": 38.884527166666665, "is_disabled": 0, "lon": -76.95093683333333, "is_reserved": 0}, {"name": "87d98f13c4647ce3b3184ae96ecf27ef", "fusion_lat": 0.0, "fusion_lon": 0.0, "bike_id": "87d98f13c4647ce3b3184ae96ecf27ef", "rental_uris": {"ios": "https://dc.lft.to/lastmile_qr_scan", "android": "https://dc.lft.to/lastmile_qr_scan"}, "type": "electric_scooter", "lat": 38.9341215, "is_disabled": 0, "lon": -77.04266433333333, "is_reserved": 0}, {"name": "13314221b5f13073d37456367d21e0fc", "fusion_lat": 0.0, "fusion_lon": 0.0, "bike_id": "13314221b5f13073d37456367d21e0fc", "rental_uris": {"ios": "https://dc.lft.to/lastmile_qr_scan", "android": "https://dc.lft.to/lastmile_qr_scan"}, "type": "electric_scooter", "lat": 38.8717575, "is_disabled": 0, "lon": -77.006256, "is_reserved": 0}, {"name": "e3e0f05417b60d456312d966e32cea92", "fusion_lat": 0.0, "fusion_lon": 0.0, "bike_id": "e3e0f05417b60d456312d966e32cea92", "rental_uris": {"ios": "https://dc.lft.to/lastmile_qr_scan", "android": "https://dc.lft.to/lastmile_qr_scan"}, "type": "electric_scooter", "lat": 38.91966733333334, "is_disabled": 0, "lon": -77.04177483333333, "is_reserved": 0}, {"name": "3c0943c2b88eb02aa42e0e3a019f6c3c", "fusion_lat": 0.0, "fusion_lon": 0.0, "bike_id": "3c0943c2b88eb02aa42e0e3a019f6c3c", "rental_uris": {"ios": "https://dc.lft.to/lastmile_qr_scan", "android": "https://dc.lft.to/lastmile_qr_scan"}, "type": "electric_bike", "lat": 38.90684433333333, "is_disabled": 0, "lon": -76.95196116666666, "is_reserved": 0}, {"name": "a5645b6c5711fc926c402387a3e12f85", "fusion_lat": 0.0, "fusion_lon": 0.0, "bike_id": "a5645b6c5711fc926c402387a3e12f85", "rental_uris": {"ios": "https://dc.lft.to/lastmile_qr_scan", "android": "https://dc.lft.to/lastmile_qr_scan"}, "type": "electric_scooter", "lat": 38.90202466666667, "is_disabled": 0, "lon": -77.020629, "is_reserved": 0}, {"name": "69fb6c69cedded4341b86539a7bc4539", "fusion_lat": 0.0, "fusion_lon": 0.0, "bike_id": "69fb6c69cedded4341b86539a7bc4539", "rental_uris": {"ios": "https://dc.lft.to/lastmile_qr_scan", "android": "https://dc.lft.to/lastmile_qr_scan"}, "type": "electric_scooter", "lat": 38.9312025, "is_disabled": 0, "lon": -77.02666133333334, "is_reserved": 0}, {"name": "1f48640c8367c0b2e7b054217bfe2db6", "fusion_lat": 0.0, "fusion_lon": 0.0, "bike_id": "1f48640c8367c0b2e7b054217bfe2db6", "rental_uris": {"ios": "https://dc.lft.to/lastmile_qr_scan", "android": "https://dc.lft.to/lastmile_qr_scan"}, "type": "electric_scooter", "lat": 38.92087933333333, "is_disabled": 0, "lon": -77.02591566666666, "is_reserved": 0}, {"name": "1c65d2b518e2537534d3bd15ed4a2ca0", "fusion_lat": 0.0, "fusion_lon": 0.0, "bike_id": "1c65d2b518e2537534d3bd15ed4a2ca0", "rental_uris": {"ios": "https://dc.lft.to/lastmile_qr_scan", "android": "https://dc.lft.to/lastmile_qr_scan"}, "type": "electric_scooter", "lat": 38.882921333333336, "is_disabled": 0, "lon": -76.9951035, "is_reserved": 0}, {"name": "f9f8be32f2af977efecde4ff66267f06", "fusion_lat": 0.0, "fusion_lon": 0.0, "bike_id": "f9f8be32f2af977efecde4ff66267f06", "rental_uris": {"ios": "https://dc.lft.to/lastmile_qr_scan", "android": "https://dc.lft.to/lastmile_qr_scan"}, "type": "electric_scooter", "lat": 38.907973, "is_disabled": 0, "lon": -77.04989016666667, "is_reserved": 0}, {"name": "d26ad6045e344eb416a5b732a30be0b2", "fusion_lat": 0.0, "fusion_lon": 0.0, "bike_id": "d26ad6045e344eb416a5b732a30be0b2", "rental_uris": {"ios": "https://dc.lft.to/lastmile_qr_scan", "android": "https://dc.lft.to/lastmile_qr_scan"}, "type": "electric_scooter", "lat": 38.906446833333334, "is_disabled": 0, "lon": -76.9838, "is_reserved": 0}, {"name": "66f59f8b61e2ae4fa7ce9e9f9df858f1", "fusion_lat": 0.0, "fusion_lon": 0.0, "bike_id": "66f59f8b61e2ae4fa7ce9e9f9df858f1", "rental_uris": {"ios": "https://dc.lft.to/lastmile_qr_scan", "android": "https://dc.lft.to/lastmile_qr_scan"}, "type": "electric_scooter", "lat": 38.91193666666667, "is_disabled": 0, "lon": -77.002572, "is_reserved": 0}, {"name": "7fd58432eb12716ccbc61c24c334caa9", "fusion_lat": 0.0, "fusion_lon": 0.0, "bike_id": "7fd58432eb12716ccbc61c24c334caa9", "rental_uris": {"ios": "https://dc.lft.to/lastmile_qr_scan", "android": "https://dc.lft.to/lastmile_qr_scan"}, "type": "electric_scooter", "lat": 38.88319083333333, "is_disabled": 0, "lon": -76.94942116666667, "is_reserved": 0}, {"name": "c500dd6d258ac40c6ac762a824b33632", "fusion_lat": 0.0, "fusion_lon": 0.0, "bike_id": "c500dd6d258ac40c6ac762a824b33632", "rental_uris": {"ios": "https://dc.lft.to/lastmile_qr_scan", "android": "https://dc.lft.to/lastmile_qr_scan"}, "type": "electric_scooter", "lat": 38.9003425, "is_disabled": 0, "lon": -76.99642783333333, "is_reserved": 0}, {"name": "86cdd0b599648a3e7b07cabde1e56657", "fusion_lat": 0.0, "fusion_lon": 0.0, "bike_id": "86cdd0b599648a3e7b07cabde1e56657", "rental_uris": {"ios": "https://dc.lft.to/lastmile_qr_scan", "android": "https://dc.lft.to/lastmile_qr_scan"}, "type": "electric_scooter", "lat": 38.92876433333333, "is_disabled": 0, "lon": -77.02733416666666, "is_reserved": 0}, {"name": "0920fb2fda003d6bc83f6a60845d0c2c", "fusion_lat": 0.0, "fusion_lon": 0.0, "bike_id": "0920fb2fda003d6bc83f6a60845d0c2c", "rental_uris": {"ios": "https://dc.lft.to/lastmile_qr_scan", "android": "https://dc.lft.to/lastmile_qr_scan"}, "type": "electric_bike", "lat": 38.8583655, "is_disabled": 0, "lon": -76.99286133333334, "is_reserved": 0}, {"name": "e355c7f29648440fd4946a3e08dec007", "fusion_lat": 0.0, "fusion_lon": 0.0, "bike_id": "e355c7f29648440fd4946a3e08dec007", "rental_uris": {"ios": "https://dc.lft.to/lastmile_qr_scan", "android": "https://dc.lft.to/lastmile_qr_scan"}, "type": "electric_scooter", "lat": 38.913680666666664, "is_disabled": 0, "lon": -77.0455425, "is_reserved": 0}, {"name": "18729ff37e1d418a8c7363b99451cf3b", "fusion_lat": 0.0, "fusion_lon": 0.0, "bike_id": "18729ff37e1d418a8c7363b99451cf3b", "rental_uris": {"ios": "https://dc.lft.to/lastmile_qr_scan", "android": "https://dc.lft.to/lastmile_qr_scan"}, "type": "electric_scooter", "lat": 38.918086833333334, "is_disabled": 0, "lon": -77.01017683333333, "is_reserved": 0}, {"name": "6efb566c0a949a1a3d86f5cb5c33b97b", "fusion_lat": 0.0, "fusion_lon": 0.0, "bike_id": "6efb566c0a949a1a3d86f5cb5c33b97b", "rental_uris": {"ios": "https://dc.lft.to/lastmile_qr_scan", "android": "https://dc.lft.to/lastmile_qr_scan"}, "type": "electric_scooter", "lat": 38.9179265, "is_disabled": 0, "lon": -77.09440166666667, "is_reserved": 0}, {"name": "a5ea4c6440c258a1ff146410747bbc43", "fusion_lat": 0.0, "fusion_lon": 0.0, "bike_id": "a5ea4c6440c258a1ff146410747bbc43", "rental_uris": {"ios": "https://dc.lft.to/lastmile_qr_scan", "android": "https://dc.lft.to/lastmile_qr_scan"}, "type": "electric_scooter", "lat": 38.902439333333334, "is_disabled": 0, "lon": -77.00196866666667, "is_reserved": 0}, {"name": "b19aefd8083d669f77358fcfe66ed0a4", "fusion_lat": 0.0, "fusion_lon": 0.0, "bike_id": "b19aefd8083d669f77358fcfe66ed0a4", "rental_uris": {"ios": "https://dc.lft.to/lastmile_qr_scan", "android": "https://dc.lft.to/lastmile_qr_scan"}, "type": "electric_scooter", "lat": 38.88427516666667, "is_disabled": 0, "lon": -77.02469416666666, "is_reserved": 0}, {"name": "6f03c362d9d326f1eb7c4e0951cc433b", "fusion_lat": 0.0, "fusion_lon": 0.0, "bike_id": "6f03c362d9d326f1eb7c4e0951cc433b", "rental_uris": {"ios": "https://dc.lft.to/lastmile_qr_scan", "android": "https://dc.lft.to/lastmile_qr_scan"}, "type": "electric_scooter", "lat": 38.895201, "is_disabled": 0, "lon": -77.01532266666666, "is_reserved": 0}, {"name": "79417003d2ecd9c56b854bfdbd780e7a", "fusion_lat": 0.0, "fusion_lon": 0.0, "bike_id": "79417003d2ecd9c56b854bfdbd780e7a", "rental_uris": {"ios": "https://dc.lft.to/lastmile_qr_scan", "android": "https://dc.lft.to/lastmile_qr_scan"}, "type": "electric_scooter", "lat": 38.917086, "is_disabled": 0, "lon": -77.03470633333333, "is_reserved": 0}, {"name": "444a424e1fa23ae07789cb9df1a9fea9", "fusion_lat": 0.0, "fusion_lon": 0.0, "bike_id": "444a424e1fa23ae07789cb9df1a9fea9", "rental_uris": {"ios": "https://dc.lft.to/lastmile_qr_scan", "android": "https://dc.lft.to/lastmile_qr_scan"}, "type": "electric_bike", "lat": 38.9664845, "is_disabled": 0, "lon": -76.930197, "is_reserved": 0}, {"name": "780130cbd9dd0c3a261afeeff15c0992", "fusion_lat": 0.0, "fusion_lon": 0.0, "bike_id": "780130cbd9dd0c3a261afeeff15c0992", "rental_uris": {"ios": "https://dc.lft.to/lastmile_qr_scan", "android": "https://dc.lft.to/lastmile_qr_scan"}, "type": "electric_scooter", "lat": 38.91250766666667, "is_disabled": 0, "lon": -77.0279905, "is_reserved": 0}, {"name": "091700b604eb9afc5e0217b89f6233c4", "fusion_lat": 0.0, "fusion_lon": 0.0, "bike_id": "091700b604eb9afc5e0217b89f6233c4", "rental_uris": {"ios": "https://dc.lft.to/lastmile_qr_scan", "android": "https://dc.lft.to/lastmile_qr_scan"}, "type": "electric_scooter", "lat": 38.886204666666664, "is_disabled": 0, "lon": -77.02157116666666, "is_reserved": 0}, {"name": "ff3e89befd40c54c04d039af1f5f116a", "fusion_lat": 0.0, "fusion_lon": 0.0, "bike_id": "ff3e89befd40c54c04d039af1f5f116a", "rental_uris": {"ios": "https://dc.lft.to/lastmile_qr_scan", "android": "https://dc.lft.to/lastmile_qr_scan"}, "type": "electric_scooter", "lat": 38.92057833333333, "is_disabled": 0, "lon": -77.02433916666666, "is_reserved": 0}, {"name": "d35a8bdfb7222c4efc756b106d4ee582", "fusion_lat": 0.0, "fusion_lon": 0.0, "bike_id": "d35a8bdfb7222c4efc756b106d4ee582", "rental_uris": {"ios": "https://dc.lft.to/lastmile_qr_scan", "android": "https://dc.lft.to/lastmile_qr_scan"}, "type": "electric_scooter", "lat": 38.8985155, "is_disabled": 0, "lon": -77.03355766666667, "is_reserved": 0}, {"name": "d98d8e6a978c873b35051eea3d6157b9", "fusion_lat": 0.0, "fusion_lon": 0.0, "bike_id": "d98d8e6a978c873b35051eea3d6157b9", "rental_uris": {"ios": "https://dc.lft.to/lastmile_qr_scan", "android": "https://dc.lft.to/lastmile_qr_scan"}, "type": "electric_bike", "lat": 38.89833933333333, "is_disabled": 0, "lon": -76.914226, "is_reserved": 0}, {"name": "1d5eca00c6289cc064af23e4a3ed283f", "fusion_lat": 0.0, "fusion_lon": 0.0, "bike_id": "1d5eca00c6289cc064af23e4a3ed283f", "rental_uris": {"ios": "https://dc.lft.to/lastmile_qr_scan", "android": "https://dc.lft.to/lastmile_qr_scan"}, "type": "electric_scooter", "lat": 38.93139933333333, "is_disabled": 0, "lon": -77.03325083333333, "is_reserved": 0}, {"name": "6730ebc2cde4f79c63a6b8815030af88", "fusion_lat": 0.0, "fusion_lon": 0.0, "bike_id": "6730ebc2cde4f79c63a6b8815030af88", "rental_uris": {"ios": "https://dc.lft.to/lastmile_qr_scan", "android": "https://dc.lft.to/lastmile_qr_scan"}, "type": "electric_scooter", "lat": 38.90524283333333, "is_disabled": 0, "lon": -77.0499945, "is_reserved": 0}, {"name": "a5be9f95c054978c8e4acbde1321a1d2", "fusion_lat": 0.0, "fusion_lon": 0.0, "bike_id": "a5be9f95c054978c8e4acbde1321a1d2", "rental_uris": {"ios": "https://dc.lft.to/lastmile_qr_scan", "android": "https://dc.lft.to/lastmile_qr_scan"}, "type": "electric_scooter", "lat": 38.92899666666667, "is_disabled": 0, "lon": -77.032784, "is_reserved": 0}, {"name": "fb9d70c8819e284f84cd92bb89689212", "fusion_lat": 0.0, "fusion_lon": 0.0, "bike_id": "fb9d70c8819e284f84cd92bb89689212", "rental_uris": {"ios": "https://dc.lft.to/lastmile_qr_scan", "android": "https://dc.lft.to/lastmile_qr_scan"}, "type": "electric_scooter", "lat": 38.909707, "is_disabled": 0, "lon": -77.03258483333333, "is_reserved": 0}, {"name": "843033dc8a11490497188129630bd85d", "fusion_lat": 0.0, "fusion_lon": 0.0, "bike_id": "843033dc8a11490497188129630bd85d", "rental_uris": {"ios": "https://dc.lft.to/lastmile_qr_scan", "android": "https://dc.lft.to/lastmile_qr_scan"}, "type": "electric_scooter", "lat": 38.932039333333336, "is_disabled": 0, "lon": -77.02351616666667, "is_reserved": 0}, {"name": "c294b1a456e6618f41678fb2bd539ec1", "fusion_lat": 0.0, "fusion_lon": 0.0, "bike_id": "c294b1a456e6618f41678fb2bd539ec1", "rental_uris": {"ios": "https://dc.lft.to/lastmile_qr_scan", "android": "https://dc.lft.to/lastmile_qr_scan"}, "type": "electric_scooter", "lat": 38.895008833333335, "is_disabled": 0, "lon": -77.01129166666666, "is_reserved": 0}, {"name": "65b80c9208463c77eed1bf3db14639f5", "fusion_lat": 0.0, "fusion_lon": 0.0, "bike_id": "65b80c9208463c77eed1bf3db14639f5", "rental_uris": {"ios": "https://dc.lft.to/lastmile_qr_scan", "android": "https://dc.lft.to/lastmile_qr_scan"}, "type": "electric_scooter", "lat": 38.921899833333335, "is_disabled": 0, "lon": -76.99760616666667, "is_reserved": 0}, {"name": "7a74d542552fc4210c2a443809befdc9", "fusion_lat": 0.0, "fusion_lon": 0.0, "bike_id": "7a74d542552fc4210c2a443809befdc9", "rental_uris": {"ios": "https://dc.lft.to/lastmile_qr_scan", "android": "https://dc.lft.to/lastmile_qr_scan"}, "type": "electric_scooter", "lat": 38.948387833333335, "is_disabled": 0, "lon": -77.02548683333333, "is_reserved": 0}, {"name": "882c1b99b276e3c1cf9c245b5eb90893", "fusion_lat": 0.0, "fusion_lon": 0.0, "bike_id": "882c1b99b276e3c1cf9c245b5eb90893", "rental_uris": {"ios": "https://dc.lft.to/lastmile_qr_scan", "android": "https://dc.lft.to/lastmile_qr_scan"}, "type": "electric_scooter", "lat": 38.898278, "is_disabled": 0, "lon": -77.029137, "is_reserved": 0}, {"name": "7e89337d66f62288df7867800366ceac", "fusion_lat": 0.0, "fusion_lon": 0.0, "bike_id": "7e89337d66f62288df7867800366ceac", "rental_uris": {"ios": "https://dc.lft.to/lastmile_qr_scan", "android": "https://dc.lft.to/lastmile_qr_scan"}, "type": "electric_scooter", "lat": 38.921259, "is_disabled": 0, "lon": -76.99389533333333, "is_reserved": 0}, {"name": "a1f3d9ab907bbd975584606b4cedf3b5", "fusion_lat": 0.0, "fusion_lon": 0.0, "bike_id": "a1f3d9ab907bbd975584606b4cedf3b5", "rental_uris": {"ios": "https://dc.lft.to/lastmile_qr_scan", "android": "https://dc.lft.to/lastmile_qr_scan"}, "type": "electric_scooter", "lat": 38.91099283333333, "is_disabled": 0, "lon": -77.0041215, "is_reserved": 0}, {"name": "43eeda0afc569f2a5777a9d12f4bd02b", "fusion_lat": 0.0, "fusion_lon": 0.0, "bike_id": "43eeda0afc569f2a5777a9d12f4bd02b", "rental_uris": {"ios": "https://dc.lft.to/lastmile_qr_scan", "android": "https://dc.lft.to/lastmile_qr_scan"}, "type": "electric_scooter", "lat": 38.901217, "is_disabled": 0, "lon": -77.0405615, "is_reserved": 0}, {"name": "eb6e93dcbbce3067b5554a0da6e8be1b", "fusion_lat": 0.0, "fusion_lon": 0.0, "bike_id": "eb6e93dcbbce3067b5554a0da6e8be1b", "rental_uris": {"ios": "https://dc.lft.to/lastmile_qr_scan", "android": "https://dc.lft.to/lastmile_qr_scan"}, "type": "electric_scooter", "lat": 38.89959133333333, "is_disabled": 0, "lon": -77.05089883333333, "is_reserved": 0}, {"name": "5394382f73c282f438944c29de692253", "fusion_lat": 0.0, "fusion_lon": 0.0, "bike_id": "5394382f73c282f438944c29de692253", "rental_uris": {"ios": "https://dc.lft.to/lastmile_qr_scan", "android": "https://dc.lft.to/lastmile_qr_scan"}, "type": "electric_bike", "lat": 38.85789666666667, "is_disabled": 0, "lon": -76.9875655, "is_reserved": 0}, {"name": "9cc137fe539343a1a20248b7d37dc403", "fusion_lat": 0.0, "fusion_lon": 0.0, "bike_id": "9cc137fe539343a1a20248b7d37dc403", "rental_uris": {"ios": "https://dc.lft.to/lastmile_qr_scan", "android": "https://dc.lft.to/lastmile_qr_scan"}, "type": "electric_scooter", "lat": 38.9419755, "is_disabled": 0, "lon": -77.033269, "is_reserved": 0}, {"name": "9920e4bd1b0343604336ebf985689f7a", "fusion_lat": 0.0, "fusion_lon": 0.0, "bike_id": "9920e4bd1b0343604336ebf985689f7a", "rental_uris": {"ios": "https://dc.lft.to/lastmile_qr_scan", "android": "https://dc.lft.to/lastmile_qr_scan"}, "type": "electric_scooter", "lat": 38.890832333333336, "is_disabled": 0, "lon": -76.91881116666667, "is_reserved": 0}, {"name": "e4e2d5f0a0e1a6b0e9464dc2283e8f09", "fusion_lat": 0.0, "fusion_lon": 0.0, "bike_id": "e4e2d5f0a0e1a6b0e9464dc2283e8f09", "rental_uris": {"ios": "https://dc.lft.to/lastmile_qr_scan", "android": "https://dc.lft.to/lastmile_qr_scan"}, "type": "electric_scooter", "lat": 38.956128, "is_disabled": 0, "lon": -77.03282833333333, "is_reserved": 0}, {"name": "492256a7d0c132099bfc67193ac6db5b", "fusion_lat": 0.0, "fusion_lon": 0.0, "bike_id": "492256a7d0c132099bfc67193ac6db5b", "rental_uris": {"ios": "https://dc.lft.to/lastmile_qr_scan", "android": "https://dc.lft.to/lastmile_qr_scan"}, "type": "electric_scooter", "lat": 38.90842133333334, "is_disabled": 0, "lon": -77.04882016666667, "is_reserved": 0}, {"name": "2bc03b7b41d86a28bfc1c8e6f1fa3db6", "fusion_lat": 0.0, "fusion_lon": 0.0, "bike_id": "2bc03b7b41d86a28bfc1c8e6f1fa3db6", "rental_uris": {"ios": "https://dc.lft.to/lastmile_qr_scan", "android": "https://dc.lft.to/lastmile_qr_scan"}, "type": "electric_scooter", "lat": 38.89822, "is_disabled": 0, "lon": -77.04893616666666, "is_reserved": 0}, {"name": "ef9e9629c69415c42f0ee41869f0aa98", "fusion_lat": 0.0, "fusion_lon": 0.0, "bike_id": "ef9e9629c69415c42f0ee41869f0aa98", "rental_uris": {"ios": "https://dc.lft.to/lastmile_qr_scan", "android": "https://dc.lft.to/lastmile_qr_scan"}, "type": "electric_scooter", "lat": 38.884373833333335, "is_disabled": 0, "lon": -77.02787083333334, "is_reserved": 0}, {"name": "e649b7a4157a4337aa2a27f2e7a8a668", "fusion_lat": 0.0, "fusion_lon": 0.0, "bike_id": "e649b7a4157a4337aa2a27f2e7a8a668", "rental_uris": {"ios": "https://dc.lft.to/lastmile_qr_scan", "android": "https://dc.lft.to/lastmile_qr_scan"}, "type": "electric_scooter", "lat": 38.91684, "is_disabled": 0, "lon": -77.04196916666666, "is_reserved": 0}, {"name": "df5239202733d5bb646a98e02153774b", "fusion_lat": 0.0, "fusion_lon": 0.0, "bike_id": "df5239202733d5bb646a98e02153774b", "rental_uris": {"ios": "https://dc.lft.to/lastmile_qr_scan", "android": "https://dc.lft.to/lastmile_qr_scan"}, "type": "electric_scooter", "lat": 38.8997115, "is_disabled": 0, "lon": -77.01706566666667, "is_reserved": 0}, {"name": "c910dd0c6c3003f823db3ccb025cf673", "fusion_lat": 0.0, "fusion_lon": 0.0, "bike_id": "c910dd0c6c3003f823db3ccb025cf673", "rental_uris": {"ios": "https://dc.lft.to/lastmile_qr_scan", "android": "https://dc.lft.to/lastmile_qr_scan"}, "type": "electric_scooter", "lat": 38.912017, "is_disabled": 0, "lon": -77.02956633333334, "is_reserved": 0}, {"name": "03f4a95d9a5c3ce364b40782e1a64841", "fusion_lat": 0.0, "fusion_lon": 0.0, "bike_id": "03f4a95d9a5c3ce364b40782e1a64841", "rental_uris": {"ios": "https://dc.lft.to/lastmile_qr_scan", "android": "https://dc.lft.to/lastmile_qr_scan"}, "type": "electric_scooter", "lat": 38.9126605, "is_disabled": 0, "lon": -77.0445205, "is_reserved": 0}, {"name": "66a16b821bad9ca725077326f696714a", "fusion_lat": 0.0, "fusion_lon": 0.0, "bike_id": "66a16b821bad9ca725077326f696714a", "rental_uris": {"ios": "https://dc.lft.to/lastmile_qr_scan", "android": "https://dc.lft.to/lastmile_qr_scan"}, "type": "electric_scooter", "lat": 38.900119833333335, "is_disabled": 0, "lon": -76.986012, "is_reserved": 0}, {"name": "1b4e777856c1563440ae62ac05b83ea6", "fusion_lat": 0.0, "fusion_lon": 0.0, "bike_id": "1b4e777856c1563440ae62ac05b83ea6", "rental_uris": {"ios": "https://dc.lft.to/lastmile_qr_scan", "android": "https://dc.lft.to/lastmile_qr_scan"}, "type": "electric_scooter", "lat": 38.90519833333333, "is_disabled": 0, "lon": -77.06535333333333, "is_reserved": 0},