{"data": {"bikes": [{"lat": 38.906327, "is_disabled": 0, "type": "electric_scooter", "lon": -77.03385233333333, "bike_id": "58be8865a08face21966859d7c5076ed", "fusion_lat": 0.0, "name": "58be8865a08face21966859d7c5076ed", "is_reserved": 0, "rental_uris": {"android": "https://dc.lft.to/lastmile_qr_scan", "ios": "https://dc.lft.to/lastmile_qr_scan"}, "fusion_lon": 0.0}, {"lat": 38.923273333333334, "is_disabled": 0, "type": "electric_scooter", "lon": -77.0430435, "bike_id": "ce3aa52d25625cdc43b992b039647c73", "fusion_lat": 0.0, "name": "ce3aa52d25625cdc43b992b039647c73", "is_reserved": 0, "rental_uris": {"android": "https://dc.lft.to/lastmile_qr_scan", "ios": "https://dc.lft.to/lastmile_qr_scan"}, "fusion_lon": 0.0}, {"lat": 38.913293, "is_disabled": 0, "type": "electric_scooter", "lon": -77.03186033333333, "bike_id": "9c93fbffc3d0f0dbb0a57186cad6e4df", "fusion_lat": 0.0, "name": "9c93fbffc3d0f0dbb0a57186cad6e4df", "is_reserved": 0, "rental_uris": {"android": "https://dc.lft.to/lastmile_qr_scan", "ios": "https://dc.lft.to/lastmile_qr_scan"}, "fusion_lon": 0.0}, {"lat": 38.89225166666667, "is_disabled": 0, "type": "electric_bike", "lon": -77.03441666666667, "bike_id": "cbbaba04604965e9e049ef7261b7cbd9", "fusion_lat": 0.0, "name": "cbbaba04604965e9e049ef7261b7cbd9", "is_reserved": 0, "rental_uris": {"android": "https://dc.lft.to/lastmile_qr_scan", "ios": "https://dc.lft.to/lastmile_qr_scan"}, "fusion_lon": 0.0}, {"lat": 38.910067833333336, "is_disabled": 0, "type": "electric_scooter", "lon": -77.04424183333333, "bike_id": "b7977ff399235eab8e2bb37fa0fbdc81", "fusion_lat": 0.0, "name": "b7977ff399235eab8e2bb37fa0fbdc81", "is_reserved": 0, "rental_uris": {"android": "https://dc.lft.to/lastmile_qr_scan", "ios": "https://dc.lft.to/lastmile_qr_scan"}, "fusion_lon": 0.0}, {"lat": 38.91713683333333, "is_disabled": 0, "type": "electric_scooter", "lon": -77.03339566666666, "bike_id": "76edef754fabe2c9dd93a242516e8ccf", "fusion_lat": 0.0, "name": "76edef754fabe2c9dd93a242516e8ccf", "is_reserved": 0, "rental_uris": {"android": "https://dc.lft.to/lastmile_qr_scan", "ios": "https://dc.lft.to/lastmile_qr_scan"}, "fusion_lon": 0.0}, {"lat": 38.895828333333334, "is_disabled": 0, "type": "electric_bike", "lon": -77.126864, "bike_id": "c73c9fad69b16ed8a907836eabfbe809", "fusion_lat": 0.0, "name": "c73c9fad69b16ed8a907836eabfbe809", "is_reserved": 0, "rental_uris": {"android": "https://dc.lft.to/lastmile_qr_scan", "ios": "https://dc.lft.to/lastmile_qr_scan"}, "fusion_lon": 0.0}, {"lat": 38.92267566666666, "is_disabled": 0, "type": "electric_bike", "lon": -77.03285633333333, "bike_id": "f24b936db2678fe3dcc0279029c4a0ae", "fusion_lat": 0.0, "name": "f24b936db2678fe3dcc0279029c4a0ae", "is_reserved": 0, "rental_uris": {"android": "https://dc.lft.to/lastmile_qr_scan", "ios": "https://dc.lft.to/lastmile_qr_scan"}, "fusion_lon": 0.0}, {"lat": 38.910119, "is_disabled": 0, "type": "electric_scooter", "lon": -77.044399, "bike_id": "fb63540a3356318232a207975b259a47", "fusion_lat": 0.0, "name": "fb63540a3356318232a207975b259a47", "is_reserved": 0, "rental_uris": {"android": "https://dc.lft.to/lastmile_qr_scan", "ios": "https://dc.lft.to/lastmile_qr_scan"}, "fusion_lon": 0.0}, {"lat": 38.90956383333334, "is_disabled": 0, "type": "electric_scooter", "lon": -77.02277483333333, "bike_id": "15a1309e18d9d4bf4f77ff8bd88f4b56", "fusion_lat": 0.0, "name": "15a1309e18d9d4bf4f77ff8bd88f4b56", "is_reserved": 0, "rental_uris": {"android": "https://dc.lft.to/lastmile_qr_scan", "ios": "https://dc.lft.to/lastmile_qr_scan"}, "fusion_lon": 0.0}, {"lat": 38.865202, "is_disabled": 0, "type": "electric_scooter", "lon": -76.99029783333333, "bike_id": "df46ea05198d06b41db0a7d6a6d058fa", "fusion_lat": 0.0, "name": "df46ea05198d06b41db0a7d6a6d058fa", "is_reserved": 0, "rental_uris": {"android": "https://dc.lft.to/lastmile_qr_scan", "ios": "https://dc.lft.to/lastmile_qr_scan"}, "fusion_lon": 0.0}, {"lat": 38.90153383333333, "is_disabled": 0, "type": "electric_scooter", "lon": -77.03926916666667, "bike_id": "839fdf8b30e44b43f8ecbeaf242d8d9e", "fusion_lat": 0.0, "name": "839fdf8b30e44b43f8ecbeaf242d8d9e", "is_reserved": 0, "rental_uris": {"android": "https://dc.lft.to/lastmile_qr_scan", "ios": "https://dc.lft.to/lastmile_qr_scan"}, "fusion_lon": 0.0}, {"lat": 38.914198999999996, "is_disabled": 0, "type": "electric_scooter", "lon": -77.03185316666666, "bike_id": "aa55e24000e40d99e3539897aeb00d04", "fusion_lat": 0.0, "name": "aa55e24000e40d99e3539897aeb00d04", "is_reserved": 0, "rental_uris": {"android": "https://dc.lft.to/lastmile_qr_scan", "ios": "https://dc.lft.to/lastmile_qr_scan"}, "fusion_lon": 0.0}, {"lat": 38.9335845, "is_disabled": 0, "type": "electric_bike", "lon": -77.099566, "bike_id": "c108ddceb5711253f27d026312771918", "fusion_lat": 0.0, "name": "c108ddceb5711253f27d026312771918", "is_reserved": 0, "rental_uris": {"android": "https://dc.lft.to/lastmile_qr_scan", "ios": "https://dc.lft.to/lastmile_qr_scan"}, "fusion_lon": 0.0}, {"lat": 38.93205366666667, "is_disabled": 0, "type": "electric_scooter", "lon": -76.97768733333334, "bike_id": "1114b002b1f8b2c45e4d422b4d93bf06", "fusion_lat": 0.0, "name": "1114b002b1f8b2c45e4d422b4d93bf06", "is_reserved": 0, "rental_uris": {"android": "https://dc.lft.to/lastmile_qr_scan", "ios": "https://dc.lft.to/lastmile_qr_scan"}, "fusion_lon": 0.0}, {"lat": 38.90285433333333, "is_disabled": 0, "type": "electric_scooter", "lon": -77.03623833333333, "bike_id": "4901047146e7c7cb9f53991af5e8377c", "fusion_lat": 0.0, "name": "4901047146e7c7cb9f53991af5e8377c", "is_reserved": 0, "rental_uris": {"android": "https://dc.lft.to/lastmile_qr_scan", "ios": "https://dc.lft.to/lastmile_qr_scan"}, "fusion_lon": 0.0}, {"lat": 38.943615333333334, "is_disabled": 0, "type": "electric_bike", "lon": -76.96774133333334, "bike_id": "2d51428c7860e338a71a5a687f6bdb25", "fusion_lat": 0.0, "name": "2d51428c7860e338a71a5a687f6bdb25", "is_reserved": 0, "rental_uris": {"android": "https://dc.lft.to/lastmile_qr_scan", "ios": "https://dc.lft.to/lastmile_qr_scan"}, "fusion_lon": 0.0}, {"lat": 38.907711666666664, "is_disabled": 0, "type": "electric_scooter", "lon": -77.03542466666667, "bike_id": "6294431e61d0b29c2a30772dc2708399", "fusion_lat": 0.0, "name": "6294431e61d0b29c2a30772dc2708399", "is_reserved": 0, "rental_uris": {"android": "https://dc.lft.to/lastmile_qr_scan", "ios": "https://dc.lft.to/lastmile_qr_scan"}, "fusion_lon": 0.0}, {"lat": 38.917059333333334, "is_disabled": 0, "type": "electric_scooter", "lon": -77.037241, "bike_id": "202c0a035eaa2e5eff3b5c209456d93a", "fusion_lat": 0.0, "name": "202c0a035eaa2e5eff3b5c209456d93a", "is_reserved": 0, "rental_uris": {"android": "https://dc.lft.to/lastmile_qr_scan", "ios": "https://dc.lft.to/lastmile_qr_scan"}, "fusion_lon": 0.0}, {"lat": 38.907731166666665, "is_disabled": 0, "type": "electric_scooter", "lon": -77.03855416666667, "bike_id": "45824cbe1c2fb075e969f3543bcd41ef", "fusion_lat": 0.0, "name": "45824cbe1c2fb075e969f3543bcd41ef", "is_reserved": 0, "rental_uris": {"android": "https://dc.lft.to/lastmile_qr_scan", "ios": "https://dc.lft.to/lastmile_qr_scan"}, "fusion_lon": 0.0}, {"lat": 38.885127, "is_disabled": 0, "type": "electric_scooter", "lon": -77.00677833333333, "bike_id": "c0f8c8453df368d0e6cbe44283e58d98", "fusion_lat": 0.0, "name": "c0f8c8453df368d0e6cbe44283e58d98", "is_reserved": 0, "rental_uris": {"android": "https://dc.lft.to/lastmile_qr_scan", "ios": "https://dc.lft.to/lastmile_qr_scan"}, "fusion_lon": 0.0}, {"lat": 39.030435, "is_disabled": 0, "type": "electric_bike", "lon": -77.094739, "bike_id": "b752e6c5654c939b53e5505c1cb7ddd7", "fusion_lat": 0.0, "name": "b752e6c5654c939b53e5505c1cb7ddd7", "is_reserved": 0, "rental_uris": {"android": "https://dc.lft.to/lastmile_qr_scan", "ios": "https://dc.lft.to/lastmile_qr_scan"}, "fusion_lon": 0.0}, {"lat": 38.91597183333333, "is_disabled": 0, "type": "electric_scooter", "lon": -77.03843116666667, "bike_id": "5b07d007e16822c2684fe4926bfef176", "fusion_lat": 0.0, "name": "5b07d007e16822c2684fe4926bfef176", "is_reserved": 0, "rental_uris": {"android": "https://dc.lft.to/lastmile_qr_scan", "ios": "https://dc.lft.to/lastmile_qr_scan"}, "fusion_lon": 0.0}, {"lat": 38.92745816666667, "is_disabled": 0, "type": "electric_scooter", "lon": -76.99721933333333, "bike_id": "85691a0f12df8346b3bf1ec37e38ea42", "fusion_lat": 0.0, "name": "85691a0f12df8346b3bf1ec37e38ea42", "is_reserved": 0, "rental_uris": {"android": "https://dc.lft.to/lastmile_qr_scan", "ios": "https://dc.lft.to/lastmile_qr_scan"}, "fusion_lon": 0.0}, {"lat": 38.91390666666667, "is_disabled": 0, "type": "electric_bike", "lon": -77.03844933333333, "bike_id": "d6759421fa2a5687196ae19e270b4dd8", "fusion_lat": 0.0, "name": "d6759421fa2a5687196ae19e270b4dd8", "is_reserved": 0, "rental_uris": {"android": "https://dc.lft.to/lastmile_qr_scan", "ios": "https://dc.lft.to/lastmile_qr_scan"}, "fusion_lon": 0.0}, {"lat": 38.8636605, "is_disabled": 0, "type": "electric_scooter", "lon": -76.99030166666667, "bike_id": "f1e54545505d806c82d59ac97ffe946a", "fusion_lat": 0.0, "name": "f1e54545505d806c82d59ac97ffe946a", "is_reserved": 0, "rental_uris": {"android": "https://dc.lft.to/lastmile_qr_scan", "ios": "https://dc.lft.to/lastmile_qr_scan"}, "fusion_lon": 0.0}, {"lat": 38.918150833333335, "is_disabled": 0, "type": "electric_scooter", "lon": -77.02477883333333, "bike_id": "68a5c792eae8b0c0ce72901ed482f43b", "fusion_lat": 0.0, "name": "68a5c792eae8b0c0ce72901ed482f43b", "is_reserved": 0, "rental_uris": {"android": "https://dc.lft.to/lastmile_qr_scan", "ios": "https://dc.lft.to/lastmile_qr_scan"}, "fusion_lon": 0.0}, {"lat": 38.9110875, "is_disabled": 0, "type": "electric_scooter", "lon": -77.0424375, "bike_id": "7d3a7e3dbaba16afbe5277c899f4e8fb", "fusion_lat": 0.0, "name": "7d3a7e3dbaba16afbe5277c899f4e8fb", "is_reserved": 0, "rental_uris": {"android": "https://dc.lft.to/lastmile_qr_scan", "ios": "https://dc.lft.to/lastmile_qr_scan"}, "fusion_lon": 0.0}, {"lat": 38.91691183333333, "is_disabled": 0, "type": "electric_scooter", "lon": -77.02596116666666, "bike_id": "a8e93a5bfc73a26ca73180f610a06300", "fusion_lat": 0.0, "name": "a8e93a5bfc73a26ca73180f610a06300", "is_reserved": 0, "rental_uris": {"android": "https://dc.lft.to/lastmile_qr_scan", "ios": "https://dc.lft.to/lastmile_qr_scan"}, "fusion_lon": 0.0}, {"lat": 38.92353083333333, "is_disabled": 0, "type": "electric_scooter", "lon": -77.0438905, "bike_id": "44c08632d91f2726c57866f4fe6b8a20", "fusion_lat": 0.0, "name": "44c08632d91f2726c57866f4fe6b8a20", "is_reserved": 0, "rental_uris": {"android": "https://dc.lft.to/lastmile_qr_scan", "ios": "https://dc.lft.to/lastmile_qr_scan"}, "fusion_lon": 0.0}, {"lat": 38.90961433333333, "is_disabled": 0, "type": "electric_scooter", "lon": -77.03568783333333, "bike_id": "8411fb002792b5ec2df937e6fbe4ee9a", "fusion_lat": 0.0, "name": "8411fb002792b5ec2df937e6fbe4ee9a", "is_reserved": 0, "rental_uris": {"android": "https://dc.lft.to/lastmile_qr_scan", "ios": "https://dc.lft.to/lastmile_qr_scan"}, "fusion_lon": 0.0}, {"lat": 38.906962166666666, "is_disabled": 0, "type": "electric_bike", "lon": -77.06368833333333, "bike_id": "5ae675dbd2054b731fc02ce5b06281a2", "fusion_lat": 0.0, "name": "5ae675dbd2054b731fc02ce5b06281a2", "is_reserved": 0, "rental_uris": {"android": "https://dc.lft.to/lastmile_qr_scan", "ios": "https://dc.lft.to/lastmile_qr_scan"}, "fusion_lon": 0.0}, {"lat": 38.91977383333333, "is_disabled": 0, "type": "electric_scooter", "lon": -77.02346566666667, "bike_id": "98fb55516d340d6324b41ba6e85cc9bd", "fusion_lat": 0.0, "name": "98fb55516d340d6324b41ba6e85cc9bd", "is_reserved": 0, "rental_uris": {"android": "https://dc.lft.to/lastmile_qr_scan", "ios": "https://dc.lft.to/lastmile_qr_scan"}, "fusion_lon": 0.0}, {"lat": 38.91991466666666, "is_disabled": 0, "type": "electric_scooter", "lon": -77.03245916666667, "bike_id": "383a218bdad01bb3994a7e20ebce45cc", "fusion_lat": 0.0, "name": "383a218bdad01bb3994a7e20ebce45cc", "is_reserved": 0, "rental_uris": {"android": "https://dc.lft.to/lastmile_qr_scan", "ios": "https://dc.lft.to/lastmile_qr_scan"}, "fusion_lon": 0.0}, {"lat": 38.86382033333334, "is_disabled": 0, "type": "electric_scooter", "lon": -76.99245733333333, "bike_id": "d0c5532e5c6b655389bf62f9245c36a8", "fusion_lat": 0.0, "name": "d0c5532e5c6b655389bf62f9245c36a8", "is_reserved": 0, "rental_uris": {"android": "https://dc.lft.to/lastmile_qr_scan", "ios": "https://dc.lft.to/lastmile_qr_scan"}, "fusion_lon": 0.0}, {"lat": 38.94303283333333, "is_disabled": 0, "type": "electric_scooter", "lon": -77.05925816666667, "bike_id": "45ce068460d92d2f708801cdd48a054d", "fusion_lat": 0.0, "name": "45ce068460d92d2f708801cdd48a054d", "is_reserved": 0, "rental_uris": {"android": "https://dc.lft.to/lastmile_qr_scan", "ios": "https://dc.lft.to/lastmile_qr_scan"}, "fusion_lon": 0.0}, {"lat": 38.978352666666666, "is_disabled": 0, "type": "electric_bike", "lon": -77.02639833333333, "bike_id": "23695cc3af667d1b8a271f3a0caea288", "fusion_lat": 0.0, "name": "23695cc3af667d1b8a271f3a0caea288", "is_reserved": 0, "rental_uris": {"android": "https://dc.lft.to/lastmile_qr_scan", "ios": "https://dc.lft.to/lastmile_qr_scan"}, "fusion_lon": 0.0}, {"lat": 38.85455133333333, "is_disabled": 0, "type": "electric_scooter", "lon": -76.9722825, "bike_id": "d39922b35a87d29bfa1bc9a794d52033", "fusion_lat": 0.0, "name": "d39922b35a87d29bfa1bc9a794d52033", "is_reserved": 0, "rental_uris": {"android": "https://dc.lft.to/lastmile_qr_scan", "ios": "https://dc.lft.to/lastmile_qr_scan"}, "fusion_lon": 0.0}, {"lat": 38.91543933333333, "is_disabled": 0, "type": "electric_scooter", "lon": -77.07413933333333, "bike_id": "eef77d7c6244e163c492c7900d455530", "fusion_lat": 0.0, "name": "eef77d7c6244e163c492c7900d455530", "is_reserved": 0, "rental_uris": {"android": "https://dc.lft.to/lastmile_qr_scan", "ios": "https://dc.lft.to/lastmile_qr_scan"}, "fusion_lon": 0.0}, {"lat": 38.9096595, "is_disabled": 0, "type": "electric_scooter", "lon": -76.99601683333333, "bike_id": "295e9f46528cfb2233729c346ab33522", "fusion_lat": 0.0, "name": "295e9f46528cfb2233729c346ab33522", "is_reserved": 0, "rental_uris": {"android": "https://dc.lft.to/lastmile_qr_scan", "ios": "https://dc.lft.to/lastmile_qr_scan"}, "fusion_lon": 0.0}, {"lat": 38.972227333333336, "is_disabled": 0, "type": "electric_bike", "lon": -77.03603183333334, "bike_id": "9190da6bf6adade84b3a14f60db1fd9b", "fusion_lat": 0.0, "name": "9190da6bf6adade84b3a14f60db1fd9b", "is_reserved": 0, "rental_uris": {"android": "https://dc.lft.to/lastmile_qr_scan", "ios": "https://dc.lft.to/lastmile_qr_scan"}, "fusion_lon": 0.0}, {"lat": 38.8742965, "is_disabled": 0, "type": "electric_scooter", "lon": -77.00058833333334, "bike_id": "bc15a57122a2adc48753624119ef2ae8", "fusion_lat": 0.0, "name": "bc15a57122a2adc48753624119ef2ae8", "is_reserved": 0, "rental_uris": {"android": "https://dc.lft.to/lastmile_qr_scan", "ios": "https://dc.lft.to/lastmile_qr_scan"}, "fusion_lon": 0.0}, {"lat": 38.89285233333333, "is_disabled": 0, "type": "electric_scooter", "lon": -76.95849833333334, "bike_id": "09741a4e092878e4cd3e191608fe522d", "fusion_lat": 0.0, "name": "09741a4e092878e4cd3e191608fe522d", "is_reserved": 0, "rental_uris": {"android": "https://dc.lft.to/lastmile_qr_scan", "ios": "https://dc.lft.to/lastmile_qr_scan"}, "fusion_lon": 0.0}, {"lat": 38.89993666666667, "is_disabled": 0, "type": "electric_scooter", "lon": -76.9995045, "bike_id": "a8fcf7dceb92424703dd511ff3b3b6fe", "fusion_lat": 0.0, "name": "a8fcf7dceb92424703dd511ff3b3b6fe", "is_reserved": 0, "rental_uris": {"android": "https://dc.lft.to/lastmile_qr_scan", "ios": "https://dc.lft.to/lastmile_qr_scan"}, "fusion_lon": 0.0}, {"lat": 38.929509333333336, "is_disabled": 0, "type": "electric_scooter", "lon": -76.99087383333334, "bike_id": "110d63a1c418d02caf262a0b2ae4c36a", "fusion_lat": 0.0, "name": "110d63a1c418d02caf262a0b2ae4c36a", "is_reserved": 0, "rental_uris": {"android": "https://dc.lft.to/lastmile_qr_scan", "ios": "https://dc.lft.to/lastmile_qr_scan"}, "fusion_lon": 0.0}, {"lat": 38.89730333333333, "is_disabled": 0, "type": "electric_scooter", "lon": -77.05468166666667, "bike_id": "5d116d48d7474bbec1f1325fc47e99f2", "fusion_lat": 0.0, "name": "5d116d48d7474bbec1f1325fc47e99f2", "is_reserved": 0, "rental_uris": {"android": "https://dc.lft.to/lastmile_qr_scan", "ios": "https://dc.lft.to/lastmile_qr_scan"}, "fusion_lon": 0.0}, {"lat": 38.86698333333333, "is_disabled": 0, "type": "electric_scooter", "lon": -76.9870845, "bike_id": "05b9f0d1a41eb498ddd54baf465c9626", "fusion_lat": 0.0, "name": "05b9f0d1a41eb498ddd54baf465c9626", "is_reserved": 0, "rental_uris": {"android": "https://dc.lft.to/lastmile_qr_scan", "ios": "https://dc.lft.to/lastmile_qr_scan"}, "fusion_lon": 0.0}, {"lat": 38.90942533333333, "is_disabled": 0, "type": "electric_scooter", "lon": -76.98957416666667, "bike_id": "76506934c1fdad3c0c72e4a299383fee", "fusion_lat": 0.0, "name": "76506934c1fdad3c0c72e4a299383fee", "is_reserved": 0, "rental_uris": {"android": "https://dc.lft.to/lastmile_qr_scan", "ios": "https://dc.lft.to/lastmile_qr_scan"}, "fusion_lon": 0.0}, {"lat": 38.903897, "is_disabled": 0, "type": "electric_scooter", "lon": -77.06764, "bike_id": "551f5317f503455f205342ce3a3d8c76", "fusion_lat": 0.0, "name": "551f5317f503455f205342ce3a3d8c76", "is_reserved": 0, "rental_uris": {"android": "https://dc.lft.to/lastmile_qr_scan", "ios": "https://dc.lft.to/lastmile_qr_scan"}, "fusion_lon": 0.0}, {"lat": 38.898286, "is_disabled": 0, "type": "electric_scooter", "lon": -77.02603533333334, "bike_id": "5b406d7e7b443f0c92191bb777ae0064", "fusion_lat": 0.0, "name": "5b406d7e7b443f0c92191bb777ae0064", "is_reserved": 0, "rental_uris": {"android": "https://dc.lft.to/lastmile_qr_scan", "ios": "https://dc.lft.to/lastmile_qr_scan"}, "fusion_lon": 0.0}, {"lat": 38.957814166666665, "is_disabled": 0, "type": "electric_bike", "lon": -77.0274535, "bike_id": "2427a24abacf931a3ee72667704835cc", "fusion_lat": 0.0, "name": "2427a24abacf931a3ee72667704835cc", "is_reserved": 0, "rental_uris": {"android": "https://dc.lft.to/lastmile_qr_scan", "ios": "https://dc.lft.to/lastmile_qr_scan"}, "fusion_lon": 0.0}, {"lat": 38.91121116666667, "is_disabled": 0, "type": "electric_scooter", "lon": -77.03815466666667, "bike_id": "c08fefb46dbf22bd752494dc6d62f5a9", "fusion_lat": 0.0, "name": "c08fefb46dbf22bd752494dc6d62f5a9", "is_reserved": 0, "rental_uris": {"android": "https://dc.lft.to/lastmile_qr_scan", "ios": "https://dc.lft.to/lastmile_qr_scan"}, "fusion_lon": 0.0}, {"lat": 38.9007145, "is_disabled": 0, "type": "electric_scooter", "lon": -77.02702216666667, "bike_id": "7472d169559a3bbdd83b7c1ee954cc83", "fusion_lat": 0.0, "name": "7472d169559a3bbdd83b7c1ee954cc83", "is_reserved": 0, "rental_uris": {"android": "https://dc.lft.to/lastmile_qr_scan", "ios": "https://dc.lft.to/lastmile_qr_scan"}, "fusion_lon": 0.0}, {"lat": 38.900258, "is_disabled": 0, "type": "electric_scooter", "lon": -76.998968, "bike_id": "7e93f38cb982daed0a48274851c9ded2", "fusion_lat": 0.0, "name": "7e93f38cb982daed0a48274851c9ded2", "is_reserved": 0, "rental_uris": {"android": "https://dc.lft.to/lastmile_qr_scan", "ios": "https://dc.lft.to/lastmile_qr_scan"}, "fusion_lon": 0.0}, {"lat": 38.9035915, "is_disabled": 0, "type": "electric_scooter", "lon": -77.011009, "bike_id": "d199e3921e04183444fd0da04662d507", "fusion_lat": 0.0, "name": "d199e3921e04183444fd0da04662d507", "is_reserved": 0, "rental_uris": {"android": "https://dc.lft.to/lastmile_qr_scan", "ios": "https://dc.lft.to/lastmile_qr_scan"}, "fusion_lon": 0.0}, {"lat": 38.840255166666665, "is_disabled": 0, "type": "electric_bike", "lon": -76.9757295, "bike_id": "6c62827e4ab697e675116a2e59ebe738", "fusion_lat": 0.0, "name": "6c62827e4ab697e675116a2e59ebe738", "is_reserved": 0, "rental_uris": {"android": "https://dc.lft.to/lastmile_qr_scan", "ios": "https://dc.lft.to/lastmile_qr_scan"}, "fusion_lon": 0.0}, {"lat": 38.930898666666664, "is_disabled": 0, "type": "electric_scooter", "lon": -77.07747766666667, "bike_id": "e45dbc61e48ee115de6e5a2f1a9e6ea9", "fusion_lat": 0.0, "name": "e45dbc61e48ee115de6e5a2f1a9e6ea9", "is_reserved": 0, "rental_uris": {"android": "https://dc.lft.to/lastmile_qr_scan", "ios": "https://dc.lft.to/lastmile_qr_scan"}, "fusion_lon": 0.0}, {"lat": 38.88468116666667, "is_disabled": 0, "type": "electric_scooter", "lon": -77.024129, "bike_id": "dfbfd4bd175416e17a7fbae36dd93d90", "fusion_lat": 0.0, "name": "dfbfd4bd175416e17a7fbae36dd93d90", "is_reserved": 0, "rental_uris": {"android": "https://dc.lft.to/lastmile_qr_scan", "ios": "https://dc.lft.to/lastmile_qr_scan"}, "fusion_lon": 0.0}, {"lat": 38.86508516666667, "is_disabled": 0, "type": "electric_scooter", "lon": -76.9900495, "bike_id": "f79488c6267570e14622738d0d2cd96f", "fusion_lat": 0.0, "name": "f79488c6267570e14622738d0d2cd96f", "is_reserved": 0, "rental_uris": {"android": "https://dc.lft.to/lastmile_qr_scan", "ios": "https://dc.lft.to/lastmile_qr_scan"}, "fusion_lon": 0.0}, {"lat": 38.881200666666665, "is_disabled": 0, "type": "electric_scooter", "lon": -77.01641783333334, "bike_id": "39c0b06ab6dd155b57b192eb522109a7", "fusion_lat": 0.0, "name": "39c0b06ab6dd155b57b192eb522109a7", "is_reserved": 0, "rental_uris": {"android": "https://dc.lft.to/lastmile_qr_scan", "ios": "https://dc.lft.to/lastmile_qr_scan"}, "fusion_lon": 0.0}, {"lat": 38.90558266666667, "is_disabled": 0, "type": "electric_scooter", "lon": -76.99873883333333, "bike_id": "3b5cf9104046cd045b7ab87d49c0247f", "fusion_lat": 0.0, "name": "3b5cf9104046cd045b7ab87d49c0247f", "is_reserved": 0, "rental_uris": {"android": "https://dc.lft.to/lastmile_qr_scan", "ios": "https://dc.lft.to/lastmile_qr_scan"}, "fusion_lon": 0.0}, {"lat": 38.9038195, "is_disabled": 0, "type": "electric_scooter", "lon": -77.02873933333333, "bike_id": "005122805e5e817ae48166b1381872da", "fusion_lat": 0.0, "name": "005122805e5e817ae48166b1381872da", "is_reserved": 0, "rental_uris": {"android": "https://dc.lft.to/lastmile_qr_scan", "ios": "https://dc.lft.to/lastmile_qr_scan"}, "fusion_lon": 0.0}, {"lat": 38.86714116666667, "is_disabled": 0, "type": "electric_scooter", "lon": -76.987218, "bike_id": "95d10c49b50e6c5c400fd1510d8144f2", "fusion_lat": 0.0, "name": "95d10c49b50e6c5c400fd1510d8144f2", "is_reserved": 0, "rental_uris": {"android": "https://dc.lft.to/lastmile_qr_scan", "ios": "https://dc.lft.to/lastmile_qr_scan"}, "fusion_lon": 0.0}, {"lat": 38.890723666666666, "is_disabled": 0, "type": "electric_scooter", "lon": -76.9883535, "bike_id": "d8420a3556b9647d8e57de4e5dd46c65", "fusion_lat": 0.0, "name": "d8420a3556b9647d8e57de4e5dd46c65", "is_reserved": 0, "rental_uris": {"android": "https://dc.lft.to/lastmile_qr_scan", "ios": "https://dc.lft.to/lastmile_qr_scan"}, "fusion_lon": 0.0}, {"lat": 38.93738333333334, "is_disabled": 0, "type": "electric_scooter", "lon": -77.03617683333333, "bike_id": "5fc1a5e6c317827ab3910b5c6f1a7f0a", "fusion_lat": 0.0, "name": "5fc1a5e6c317827ab3910b5c6f1a7f0a", "is_reserved": 0, "rental_uris": {"android": "https://dc.lft.to/lastmile_qr_scan", "ios": "https://dc.lft.to/lastmile_qr_scan"}, "fusion_lon": 0.0}, {"lat": 38.945499833333336, "is_disabled": 0, "type": "electric_bike", "lon": -76.8952825, "bike_id": "5ff32381c59a1f94644784f1cf40398e", "fusion_lat": 0.0, "name": "5ff32381c59a1f94644784f1cf40398e", "is_reserved": 0, "rental_uris": {"android": "https://dc.lft.to/lastmile_qr_scan", "ios": "https://dc.lft.to/lastmile_qr_scan"}, "fusion_lon": 0.0}, {"lat": 38.851889666666665, "is_disabled": 0, "type": "electric_scooter", "lon": -76.97618716666666, "bike_id": "4d46c399aa5b55748ab34333db4049c9", "fusion_lat": 0.0, "name": "4d46c399aa5b55748ab34333db4049c9", "is_reserved": 0, "rental_uris": {"android": "https://dc.lft.to/lastmile_qr_scan", "ios": "https://dc.lft.to/lastmile_qr_scan"}, "fusion_lon": 0.0}, {"lat": 38.844335, "is_disabled": 0, "type": "electric_scooter", "lon": -76.996558, "bike_id": "5dc1164710266ee9a7311a177e339a80", "fusion_lat": 0.0, "name": "5dc1164710266ee9a7311a177e339a80", "is_reserved": 0, "rental_uris": {"android": "https://dc.lft.to/lastmile_qr_scan", "ios": "https://dc.lft.to/lastmile_qr_scan"}, "fusion_lon": 0.0}, {"lat": 38.917171333333336, "is_disabled": 0, "type": "electric_scooter", "lon": -77.02291916666667, "bike_id": "a06fec0d09c22a6c9de6a2d8c8f4912c", "fusion_lat": 0.0, "name": "a06fec0d09c22a6c9de6a2d8c8f4912c", "is_reserved": 0, "rental_uris": {"android": "https://dc.lft.to/lastmile_qr_scan", "ios": "https://dc.lft.to/lastmile_qr_scan"}, "fusion_lon": 0.0}, {"lat": 38.905304666666666, "is_disabled": 0, "type": "electric_scooter", "lon": -77.05713866666666, "bike_id": "4e41959319f7a1160611b5d9a3a8db25", "fusion_lat": 0.0, "name": "4e41959319f7a1160611b5d9a3a8db25", "is_reserved": 0, "rental_uris": {"android": "https://dc.lft.to/lastmile_qr_scan", "ios": "https://dc.lft.to/lastmile_qr_scan"}, "fusion_lon": 0.0}, {"lat": 38.936574, "is_disabled": 0, "type": "electric_bike", "lon": -76.95218333333334, "bike_id": "ec39d73e5f70ad5448e8bff20d50c60c", "fusion_lat": 0.0, "name": "ec39d73e5f70ad5448e8bff20d50c60c", "is_reserved": 0, "rental_uris": {"android": "https://dc.lft.to/lastmile_qr_scan", "ios": "https://dc.lft.to/lastmile_qr_scan"}, "fusion_lon": 0.0}, {"lat": 39.03427383333333, "is_disabled": 0, "type": "electric_bike", "lon": -77.04293716666666, "bike_id": "295a7c7cd1592c6468e5b44e118bbc73", "fusion_lat": 0.0, "name": "295a7c7cd1592c6468e5b44e118bbc73", "is_reserved": 0, "rental_uris": {"android": "https://dc.lft.to/lastmile_qr_scan", "ios": "https://dc.lft.to/lastmile_qr_scan"}, "fusion_lon": 0.0}, {"lat": 38.90119833333333, "is_disabled": 0, "type": "electric_scooter", "lon": -77.0435495, "bike_id": "57c79f4ce942dc7783ae2cc4750297d5", "fusion_lat": 0.0, "name": "57c79f4ce942dc7783ae2cc4750297d5", "is_reserved": 0, "rental_uris": {"android": "https://dc.lft.to/lastmile_qr_scan", "ios": "https://dc.lft.to/lastmile_qr_scan"}, "fusion_lon": 0.0}, {"lat": 38.90071116666667, "is_disabled": 0, "type": "electric_scooter", "lon": -77.0489175, "bike_id": "0312a9d97c967759a5e23ad7bccbe0af", "fusion_lat": 0.0, "name": "0312a9d97c967759a5e23ad7bccbe0af", "is_reserved": 0, "rental_uris": {"android": "https://dc.lft.to/lastmile_qr_scan", "ios": "https://dc.lft.to/lastmile_qr_scan"}, "fusion_lon": 0.0}, {"lat": 38.92581933333334, "is_disabled": 0, "type": "electric_scooter", "lon": -77.04411616666667, "bike_id": "5b6939a2f1bbb67fa62f727052099208", "fusion_lat": 0.0, "name": "5b6939a2f1bbb67fa62f727052099208", "is_reserved": 0, "rental_uris": {"android": "https://dc.lft.to/lastmile_qr_scan", "ios": "https://dc.lft.to/lastmile_qr_scan"}, "fusion_lon": 0.0}, {"lat": 38.906014166666665, "is_disabled": 0, "type": "electric_scooter", "lon": -77.063431, "bike_id": "3a1fa126aca0b725c515ccdb9c919a6d", "fusion_lat": 0.0, "name": "3a1fa126aca0b725c515ccdb9c919a6d", "is_reserved": 0, "rental_uris": {"android": "https://dc.lft.to/lastmile_qr_scan", "ios": "https://dc.lft.to/lastmile_qr_scan"}, "fusion_lon": 0.0}, {"lat": 38.909739333333334, "is_disabled": 0, "type": "electric_scooter", "lon": -77.03188483333334, "bike_id": "3c5c8c5fc6b3b8ee4e8d653264854022", "fusion_lat": 0.0, "name": "3c5c8c5fc6b3b8ee4e8d653264854022", "is_reserved": 0, "rental_uris": {"android": "https://dc.lft.to/lastmile_qr_scan", "ios": "https://dc.lft.to/lastmile_qr_scan"}, "fusion_lon": 0.0}, {"lat": 38.992566, "is_disabled": 0, "type": "electric_scooter", "lon": -77.03654483333334, "bike_id": "63b03a59785aa0312619a46cb1101c18", "fusion_lat": 0.0, "name": "63b03a59785aa0312619a46cb1101c18", "is_reserved": 0, "rental_uris": {"android": "https://dc.lft.to/lastmile_qr_scan", "ios": "https://dc.lft.to/lastmile_qr_scan"}, "fusion_lon": 0.0}, {"lat": 38.857133, "is_disabled": 0, "type": "electric_scooter", "lon": -76.98668516666666, "bike_id": "7a090c91ad2f444c8a80c1685d468645", "fusion_lat": 0.0, "name": "7a090c91ad2f444c8a80c1685d468645", "is_reserved": 0, "rental_uris": {"android": "https://dc.lft.to/lastmile_qr_scan", "ios": "https://dc.lft.to/lastmile_qr_scan"}, "fusion_lon": 0.0}, {"lat": 38.893482, "is_disabled": 0, "type": "electric_scooter", "lon": -77.0414075, "bike_id": "22be45200a2e69eed16b6c2af3ded4a1", "fusion_lat": 0.0, "name": "22be45200a2e69eed16b6c2af3ded4a1", "is_reserved": 0, "rental_uris": {"android": "https://dc.lft.to/lastmile_qr_scan", "ios": "https://dc.lft.to/lastmile_qr_scan"}, "fusion_lon": 0.0}, {"lat": 38.90516816666667, "is_disabled": 0, "type": "electric_scooter", "lon": -77.0629905, "bike_id": "6d0bedec9d083d2703a38d39c3999839", "fusion_lat": 0.0, "name": "6d0bedec9d083d2703a38d39c3999839", "is_reserved": 0, "rental_uris": {"android": "https://dc.lft.to/lastmile_qr_scan", "ios": "https://dc.lft.to/lastmile_qr_scan"}, "fusion_lon": 0.0}, {"lat": 38.9005575, "is_disabled": 0, "type": "electric_scooter", "lon": -77.00202516666667, "bike_id": "6796cd7a0146baedb238409ed0c836e7", "fusion_lat": 0.0, "name": "6796cd7a0146baedb238409ed0c836e7", "is_reserved": 0, "rental_uris": {"android": "https://dc.lft.to/lastmile_qr_scan", "ios": "https://dc.lft.to/lastmile_qr_scan"}, "fusion_lon": 0.0}, {"lat": 38.917736833333336, "is_disabled": 0, "type": "electric_scooter", "lon": -77.03848483333333, "bike_id": "e5df82812ec3ee5741a060f77727c5b1", "fusion_lat": 0.0, "name": "e5df82812ec3ee5741a060f77727c5b1", "is_reserved": 0, "rental_uris": {"android": "https://dc.lft.to/lastmile_qr_scan", "ios": "https://dc.lft.to/lastmile_qr_scan"}, "fusion_lon": 0.0}, {"lat": 38.916765166666664, "is_disabled": 0, "type": "electric_scooter", "lon": -77.0270925, "bike_id": "045758d62664c966e81037c71dc74bf9", "fusion_lat": 0.0, "name": "045758d62664c966e81037c71dc74bf9", "is_reserved": 0, "rental_uris": {"android": "https://dc.lft.to/lastmile_qr_scan", "ios": "https://dc.lft.to/lastmile_qr_scan"}, "fusion_lon": 0.0}, {"lat": 38.90725966666667, "is_disabled": 0, "type": "electric_scooter", "lon": -77.02978866666666, "bike_id": "fb884c9619d15d22b834d8b054d33186", "fusion_lat": 0.0, "name": "fb884c9619d15d22b834d8b054d33186", "is_reserved": 0, "rental_uris": {"android": "https://dc.lft.to/lastmile_qr_scan", "ios": "https://dc.lft.to/lastmile_qr_scan"}, "fusion_lon": 0.0}, {"lat": 38.89820533333334, "is_disabled": 0, "type": "electric_scooter", "lon": -77.0323425, "bike_id": "ecb3e775bb0f229ce910ebde64fd983b", "fusion_lat": 0.0, "name": "ecb3e775bb0f229ce910ebde64fd983b", "is_reserved": 0, "rental_uris": {"android": "https://dc.lft.to/lastmile_qr_scan", "ios": "https://dc.lft.to/lastmile_qr_scan"}, "fusion_lon": 0.0}, {"lat": 38.900872166666666, "is_disabled": 0, "type": "electric_scooter", "lon": -77.012244, "bike_id": "9615b094873e61d328a220314fb6cdda", "fusion_lat": 0.0, "name": "9615b094873e61d328a220314fb6cdda", "is_reserved": 0, "rental_uris": {"android": "https://dc.lft.to/lastmile_qr_scan", "ios": "https://dc.lft.to/lastmile_qr_scan"}, "fusion_lon": 0.0}, {"lat": 38.90277233333333, "is_disabled": 0, "type": "electric_scooter", "lon": -77.03824266666666, "bike_id": "fd71b5d14f166fe405a439c06fdff177", "fusion_lat": 0.0, "name": "fd71b5d14f166fe405a439c06fdff177", "is_reserved": 0, "rental_uris": {"android": "https://dc.lft.to/lastmile_qr_scan", "ios": "https://dc.lft.to/lastmile_qr_scan"}, "fusion_lon": 0.0}, {"lat": 38.906521833333336, "is_disabled": 0, "type": "electric_scooter", "lon": -77.02973783333333, "bike_id": "160381b91e86ac053334934f8dd004e2", "fusion_lat": 0.0, "name": "160381b91e86ac053334934f8dd004e2", "is_reserved": 0, "rental_uris": {"android": "https://dc.lft.to/lastmile_qr_scan", "ios": "https://dc.lft.to/lastmile_qr_scan"}, "fusion_lon": 0.0}, {"lat": 39.051998833333336, "is_disabled": 0, "type": "electric_bike", "lon": -77.10915883333334, "bike_id": "837fdfd17b03da02a8799d0644438f9a", "fusion_lat": 0.0, "name": "837fdfd17b03da02a8799d0644438f9a", "is_reserved": 0, "rental_uris": {"android": "https://dc.lft.to/lastmile_qr_scan", "ios": "https://dc.lft.to/lastmile_qr_scan"}, "fusion_lon": 0.0}, {"lat": 38.89966666666667, "is_disabled": 0, "type": "electric_scooter", "lon": -76.9265215, "bike_id": "92f6ec65834479e10778aed306a3a09d", "fusion_lat": 0.0, "name": "92f6ec65834479e10778aed306a3a09d", "is_reserved": 0, "rental_uris": {"android": "https://dc.lft.to/lastmile_qr_scan", "ios": "https://dc.lft.to/lastmile_qr_scan"}, "fusion_lon": 0.0}, {"lat": 38.88734866666667, "is_disabled": 0, "type": "electric_scooter", "lon": -77.03218516666666, "bike_id": "6afcfdbfbf06fdf6e1f7c38d8762ac96", "fusion_lat": 0.0, "name": "6afcfdbfbf06fdf6e1f7c38d8762ac96", "is_reserved": 0, "rental_uris": {"android": "https://dc.lft.to/lastmile_qr_scan", "ios": "https://dc.lft.to/lastmile_qr_scan"}, "fusion_lon": 0.0}, {"lat": 38.87627783333333, "is_disabled": 0, "type": "electric_scooter", "lon": -76.96523233333333, "bike_id": "7d5d8f4cdec92f4980a2c324cf96d492", "fusion_lat": 0.0, "name": "7d5d8f4cdec92f4980a2c324cf96d492", "is_reserved": 0, "rental_uris": {"android": "https://dc.lft.to/lastmile_qr_scan", "ios": "https://dc.lft.to/lastmile_qr_scan"}, "fusion_lon": 0.0}, {"lat": 38.90263383333333, "is_disabled": 0, "type": "electric_scooter", "lon": -77.01758783333334, "bike_id": "fc98108425dee5c4231186291cfa0cd0", "fusion_lat": 0.0, "name": "fc98108425dee5c4231186291cfa0cd0", "is_reserved": 0, "rental_uris": {"android": "https://dc.lft.to/lastmile_qr_scan", "ios": "https://dc.lft.to/lastmile_qr_scan"}, "fusion_lon": 0.0}, {"lat": 38.932021, "is_disabled": 0, "type": "electric_scooter", "lon": -77.04419566666667, "bike_id": "5454a9f5d00d1cb27c6d5481898babcc", "fusion_lat": 0.0, "name": "5454a9f5d00d1cb27c6d5481898babcc", "is_reserved": 0, "rental_uris": {"android": "https://dc.lft.to/lastmile_qr_scan", "ios": "https://dc.lft.to/lastmile_qr_scan"}, "fusion_lon": 0.0}, {"lat": 38.8976005, "is_disabled": 0, "type": "electric_scooter", "lon": -77.05497166666666, "bike_id": "2c31a0426b80d8988680dd499df36412", "fusion_lat": 0.0, "name": "2c31a0426b80d8988680dd499df36412", "is_reserved": 0, "rental_uris": {"android": "https://dc.lft.to/lastmile_qr_scan", "ios": "https://dc.lft.to/lastmile_qr_scan"}, "fusion_lon": 0.0}, {"lat": 38.912643333333335, "is_disabled": 0, "type": "electric_scooter", "lon": -77.022527, "bike_id": "67c4b963abfc639a4bfc0d81766818c7", "fusion_lat": 0.0, "name": "67c4b963abfc639a4bfc0d81766818c7", "is_reserved": 0, "rental_uris": {"android": "https://dc.lft.to/lastmile_qr_scan", "ios": "https://dc.lft.to/lastmile_qr_scan"}, "fusion_lon": 0.0}, {"lat": 38.91610466666667, "is_disabled": 0, "type": "electric_scooter", "lon": -77.02133883333333, "bike_id": "b3d00dc16a9cff16b6ce6e0ae7a0eec4", "fusion_lat": 0.0, "name": "b3d00dc16a9cff16b6ce6e0ae7a0eec4", "is_reserved": 0, "rental_uris": {"android": "https://dc.lft.to/lastmile_qr_scan", "ios": "https://dc.lft.to/lastmile_qr_scan"}, "fusion_lon": 0.0}, {"lat": 38.931065333333336, "is_disabled": 0, "type": "electric_scooter", "lon": -77.03507183333333, "bike_id": "86e58fb069afbfa124d0efb0db0074a1", "fusion_lat": 0.0, "name": "86e58fb069afbfa124d0efb0db0074a1", "is_reserved": 0, "rental_uris": {"android": "https://dc.lft.to/lastmile_qr_scan", "ios": "https://dc.lft.to/lastmile_qr_scan"}, "fusion_lon": 0.0}, {"lat": 38.9147695, "is_disabled": 0, "type": "electric_scooter", "lon": -76.98355666666667, "bike_id": "404e7bb33940c36b29d48d2ca728a4e4", "fusion_lat": 0.0, "name": "404e7bb33940c36b29d48d2ca728a4e4", "is_reserved": 0, "rental_uris": {"android": "https://dc.lft.to/lastmile_qr_scan", "ios": "https://dc.lft.to/lastmile_qr_scan"}, "fusion_lon": 0.0}, {"lat": 38.9360515, "is_disabled": 0, "type": "electric_scooter", "lon": -77.05854916666667, "bike_id": "abdf422ef543289a5a89865bde02e74d", "fusion_lat": 0.0, "name": "abdf422ef543289a5a89865bde02e74d", "is_reserved": 0, "rental_uris": {"android": "https://dc.lft.to/lastmile_qr_scan", "ios": "https://dc.lft.to/lastmile_qr_scan"}, "fusion_lon": 0.0}, {"lat": 38.89206683333333, "is_disabled": 0, "type": "electric_scooter", "lon": -76.985639, "bike_id": "76ba1966b771c331063451a90c23c823", "fusion_lat": 0.0, "name": "76ba1966b771c331063451a90c23c823", "is_reserved": 0, "rental_uris": {"android": "https://dc.lft.to/lastmile_qr_scan", "ios": "https://dc.lft.to/lastmile_qr_scan"}, "fusion_lon": 0.0}, {"lat": 38.93854816666666, "is_disabled": 0, "type": "electric_scooter", "lon": -77.0309635, "bike_id": "f0a68be57ce34018be29b04715654fbf", "fusion_lat": 0.0, "name": "f0a68be57ce34018be29b04715654fbf", "is_reserved": 0, "rental_uris": {"android": "https://dc.lft.to/lastmile_qr_scan", "ios": "https://dc.lft.to/lastmile_qr_scan"}, "fusion_lon": 0.0}, {"lat": 38.913175333333335, "is_disabled": 0, "type": "electric_scooter", "lon": -76.98643633333333, "bike_id": "5eb0a23158ce35284da9a378c3e72cb4", "fusion_lat": 0.0, "name": "5eb0a23158ce35284da9a378c3e72cb4", "is_reserved": 0, "rental_uris": {"android": "https://dc.lft.to/lastmile_qr_scan", "ios": "https://dc.lft.to/lastmile_qr_scan"}, "fusion_lon": 0.0}, {"lat": 39.02431166666667, "is_disabled": 0, "type": "electric_bike", "lon": -77.13097183333333, "bike_id": "e556a8c62b78ac2bb154aefb0060f972", "fusion_lat": 0.0, "name": "e556a8c62b78ac2bb154aefb0060f972", "is_reserved": 0, "rental_uris": {"android": "https://dc.lft.to/lastmile_qr_scan", "ios": "https://dc.lft.to/lastmile_qr_scan"}, "fusion_lon": 0.0}, {"lat": 38.91733683333333, "is_disabled": 0, "type": "electric_scooter", "lon": -77.0319525, "bike_id": "ccb53d2581126783fb1d5820c60284d0", "fusion_lat": 0.0, "name": "ccb53d2581126783fb1d5820c60284d0", "is_reserved": 0, "rental_uris": {"android": "https://dc.lft.to/lastmile_qr_scan", "ios": "https://dc.lft.to/lastmile_qr_scan"}, "fusion_lon": 0.0}, {"lat": 38.929590833333336, "is_disabled": 0, "type": "electric_scooter", "lon": -77.02340266666667, "bike_id": "0249f123670f1955d13cca98729fd620", "fusion_lat": 0.0, "name": "0249f123670f1955d13cca98729fd620", "is_reserved": 0, "rental_uris": {"android": "https://dc.lft.to/lastmile_qr_scan", "ios": "https://dc.lft.to/lastmile_qr_scan"}, "fusion_lon": 0.0}, {"lat": 38.9073415, "is_disabled": 0, "type": "electric_scooter", "lon": -77.02979866666666, "bike_id": "61432516a009f1ba2274ad26cd6632d9", "fusion_lat": 0.0, "name": "61432516a009f1ba2274ad26cd6632d9", "is_reserved": 0, "rental_uris": {"android": "https://dc.lft.to/lastmile_qr_scan", "ios": "https://dc.lft.to/lastmile_qr_scan"}, "fusion_lon": 0.0}, {"lat": 38.9497315, "is_disabled": 0, "type": "electric_scooter", "lon": -77.06554866666667, "bike_id": "99e765eff22a3995ee4d98725bc18b81", "fusion_lat": 0.0, "name": "99e765eff22a3995ee4d98725bc18b81", "is_reserved": 0, "rental_uris": {"android": "https://dc.lft.to/lastmile_qr_scan", "ios": "https://dc.lft.to/lastmile_qr_scan"}, "fusion_lon": 0.0}, {"lat": 38.922579666666664, "is_disabled": 0, "type": "electric_scooter", "lon": -77.07471916666667, "bike_id": "a82329dad3f74ef24562cef852aca114", "fusion_lat": 0.0, "name": "a82329dad3f74ef24562cef852aca114", "is_reserved": 0, "rental_uris": {"android": "https://dc.lft.to/lastmile_qr_scan", "ios": "https://dc.lft.to/lastmile_qr_scan"}, "fusion_lon": 0.0}, {"lat": 39.030425666666666, "is_disabled": 0, "type": "electric_bike", "lon": -77.09470883333333, "bike_id": "dca610319f6298d8928631bae8a110c5", "fusion_lat": 0.0, "name": "dca610319f6298d8928631bae8a110c5", "is_reserved": 0, "rental_uris": {"android": "https://dc.lft.to/lastmile_qr_scan", "ios": "https://dc.lft.to/lastmile_qr_scan"}, "fusion_lon": 0.0}, {"lat": 38.901329, "is_disabled": 0, "type": "electric_scooter", "lon": -77.02884416666667, "bike_id": "ee0ede09c2ee272b2d54760a88c40af4", "fusion_lat": 0.0, "name": "ee0ede09c2ee272b2d54760a88c40af4", "is_reserved": 0, "rental_uris": {"android": "https://dc.lft.to/lastmile_qr_scan", "ios": "https://dc.lft.to/lastmile_qr_scan"}, "fusion_lon": 0.0}, {"lat": 38.998147333333335, "is_disabled": 0, "type": "electric_bike", "lon": -76.88363966666667, "bike_id": "383cad572184cf27387b054bf7c375c8", "fusion_lat": 0.0, "name": "383cad572184cf27387b054bf7c375c8", "is_reserved": 0, "rental_uris": {"android": "https://dc.lft.to/lastmile_qr_scan", "ios": "https://dc.lft.to/lastmile_qr_scan"}, "fusion_lon": 0.0}, {"lat": 38.917082666666666, "is_disabled": 0, "type": "electric_scooter", "lon": -77.027329, "bike_id": "a795a0905459523b4ca3c1d4271758bc", "fusion_lat": 0.0, "name": "a795a0905459523b4ca3c1d4271758bc", "is_reserved": 0, "rental_uris": {"android": "https://dc.lft.to/lastmile_qr_scan", "ios": "https://dc.lft.to/lastmile_qr_scan"}, "fusion_lon": 0.0}, {"lat": 38.913074333333334, "is_disabled": 0, "type": "electric_scooter", "lon": -77.03179333333334, "bike_id": "bac79dbc7701ee88ed46ff8a9f6bceeb", "fusion_lat": 0.0, "name": "bac79dbc7701ee88ed46ff8a9f6bceeb", "is_reserved": 0, "rental_uris": {"android": "https://dc.lft.to/lastmile_qr_scan", "ios": "https://dc.lft.to/lastmile_qr_scan"}, "fusion_lon": 0.0}, {"lat": 38.91638616666667, "is_disabled": 0, "type": "electric_scooter", "lon": -77.02243766666666, "bike_id": "9b540cb859cf84078c8bbf0dba935c40", "fusion_lat": 0.0, "name": "9b540cb859cf84078c8bbf0dba935c40", "is_reserved": 0, "rental_uris": {"android": "https://dc.lft.to/lastmile_qr_scan", "ios": "https://dc.lft.to/lastmile_qr_scan"}, "fusion_lon": 0.0}, {"lat": 38.89087466666667, "is_disabled": 0, "type": "electric_scooter", "lon": -76.95264216666666, "bike_id": "6933d328d5e716e35aa2c473e624bbc5", "fusion_lat": 0.0, "name": "6933d328d5e716e35aa2c473e624bbc5", "is_reserved": 0, "rental_uris": {"android": "https://dc.lft.to/lastmile_qr_scan", "ios": "https://dc.lft.to/lastmile_qr_scan"}, "fusion_lon": 0.0}, {"lat": 38.91115166666667, "is_disabled": 0, "type": "electric_scooter", "lon": -77.03711216666666, "bike_id": "b75363f876a091ca1824a30d2a18bda3", "fusion_lat": 0.0, "name": "b75363f876a091ca1824a30d2a18bda3", "is_reserved": 0, "rental_uris": {"android": "https://dc.lft.to/lastmile_qr_scan", "ios": "https://dc.lft.to/lastmile_qr_scan"}, "fusion_lon": 0.0}, {"lat": 38.952143166666666, "is_disabled": 0, "type": "electric_scooter", "lon": -77.08599616666666, "bike_id": "bf59a30d170aee1458d7652210f614d0", "fusion_lat": 0.0, "name": "bf59a30d170aee1458d7652210f614d0", "is_reserved": 0, "rental_uris": {"android": "https://dc.lft.to/lastmile_qr_scan", "ios": "https://dc.lft.to/lastmile_qr_scan"}, "fusion_lon": 0.0}, {"lat": 38.915391166666666, "is_disabled": 0, "type": "electric_scooter", "lon": -77.0320005, "bike_id": "bc7fc7d36bbf34669cde70f9b7bfa793", "fusion_lat": 0.0, "name": "bc7fc7d36bbf34669cde70f9b7bfa793", "is_reserved": 0, "rental_uris": {"android": "https://dc.lft.to/lastmile_qr_scan", "ios": "https://dc.lft.to/lastmile_qr_scan"}, "fusion_lon": 0.0}, {"lat": 38.9308325, "is_disabled": 0, "type": "electric_scooter", "lon": -77.0312435, "bike_id": "7ba4fc39f270c5d5f965ddb802bda547", "fusion_lat": 0.0, "name": "7ba4fc39f270c5d5f965ddb802bda547", "is_reserved": 0, "rental_uris": {"android": "https://dc.lft.to/lastmile_qr_scan", "ios": "https://dc.lft.to/lastmile_qr_scan"}, "fusion_lon": 0.0}, {"lat": 38.99994783333333, "is_disabled": 0, "type": "electric_bike", "lon": -76.92496633333333, "bike_id": "c81ffaa7ba271d939447da54d77f9ac7", "fusion_lat": 0.0, "name": "c81ffaa7ba271d939447da54d77f9ac7", "is_reserved": 0, "rental_uris": {"android": "https://dc.lft.to/lastmile_qr_scan", "ios": "https://dc.lft.to/lastmile_qr_scan"}, "fusion_lon": 0.0}, {"lat": 38.926129, "is_disabled": 0, "type": "electric_scooter", "lon": -77.02152866666667, "bike_id": "71ccae0477c5a26f10ec0f8a88b9ec9a", "fusion_lat": 0.0, "name": "71ccae0477c5a26f10ec0f8a88b9ec9a", "is_reserved": 0, "rental_uris": {"android": "https://dc.lft.to/lastmile_qr_scan", "ios": "https://dc.lft.to/lastmile_qr_scan"}, "fusion_lon": 0.0}, {"lat": 38.9144635, "is_disabled": 0, "type": "electric_scooter", "lon": -77.04158733333334, "bike_id": "8834eb05239701dda2b378bbc09b666c", "fusion_lat": 0.0, "name": "8834eb05239701dda2b378bbc09b666c", "is_reserved": 0, "rental_uris": {"android": "https://dc.lft.to/lastmile_qr_scan", "ios": "https://dc.lft.to/lastmile_qr_scan"}, "fusion_lon": 0.0}, {"lat": 38.90275716666667, "is_disabled": 0, "type": "electric_scooter", "lon": -77.03865566666667, "bike_id": "ebd7f83f0e2dc33704e7ae76514c28ff", "fusion_lat": 0.0, "name": "ebd7f83f0e2dc33704e7ae76514c28ff", "is_reserved": 0, "rental_uris": {"android": "https://dc.lft.to/lastmile_qr_scan", "ios": "https://dc.lft.to/lastmile_qr_scan"}, "fusion_lon": 0.0}, {"lat": 38.970868, "is_disabled": 0, "type": "electric_bike", "lon": -77.06960216666667, "bike_id": "147b8b314045dc8d05c11b155aab2f45", "fusion_lat": 0.0, "name": "147b8b314045dc8d05c11b155aab2f45", "is_reserved": 0, "rental_uris": {"android": "https://dc.lft.to/lastmile_qr_scan", "ios": "https://dc.lft.to/lastmile_qr_scan"}, "fusion_lon": 0.0}, {"lat": 38.879184, "is_disabled": 0, "type": "electric_scooter", "lon": -77.03091516666667, "bike_id": "9ad9db56f22e84bc9b13a50e8020ac1a", "fusion_lat": 0.0, "name": "9ad9db56f22e84bc9b13a50e8020ac1a", "is_reserved": 0, "rental_uris": {"android": "https://dc.lft.to/lastmile_qr_scan", "ios": "https://dc.lft.to/lastmile_qr_scan"}, "fusion_lon": 0.0}, {"lat": 38.852077666666666, "is_disabled": 0, "type": "electric_bike", "lon": -77.10123766666666, "bike_id": "ff02f68abc55f056fcf367b8ef9af8ac", "fusion_lat": 0.0, "name": "ff02f68abc55f056fcf367b8ef9af8ac", "is_reserved": 0, "rental_uris": {"android": "https://dc.lft.to/lastmile_qr_scan", "ios": "https://dc.lft.to/lastmile_qr_scan"}, "fusion_lon": 0.0}, {"lat": 38.80576283333333, "is_disabled": 0, "type": "electric_bike", "lon": -77.06856333333333, "bike_id": "b6c12c955effde5b4a7d9c83f7a7e057", "fusion_lat": 0.0, "name": "b6c12c955effde5b4a7d9c83f7a7e057", "is_reserved": 0, "rental_uris": {"android": "https://dc.lft.to/lastmile_qr_scan", "ios": "https://dc.lft.to/lastmile_qr_scan"}, "fusion_lon": 0.0}, {"lat": 38.98508566666667, "is_disabled": 0, "type": "electric_bike", "lon": -76.98203533333333, "bike_id": "a8dcba47889c1a016f61f1e1e2cdbc5a", "fusion_lat": 0.0, "name": "a8dcba47889c1a016f61f1e1e2cdbc5a", "is_reserved": 0, "rental_uris": {"android": "https://dc.lft.to/lastmile_qr_scan", "ios": "https://dc.lft.to/lastmile_qr_scan"}, "fusion_lon": 0.0}, {"lat": 38.91984016666667, "is_disabled": 0, "type": "electric_scooter", "lon": -77.02528866666667, "bike_id": "c8937db1765898c0069ffac040167d79", "fusion_lat": 0.0, "name": "c8937db1765898c0069ffac040167d79", "is_reserved": 0, "rental_uris": {"android": "https://dc.lft.to/lastmile_qr_scan", "ios": "https://dc.lft.to/lastmile_qr_scan"}, "fusion_lon": 0.0}, {"lat": 38.900074833333335, "is_disabled": 0, "type": "electric_scooter", "lon": -77.041485, "bike_id": "e1c2fbbe58638f4b85b53f9fa0967a6b", "fusion_lat": 0.0, "name": "e1c2fbbe58638f4b85b53f9fa0967a6b", "is_reserved": 0, "rental_uris": {"android": "https://dc.lft.to/lastmile_qr_scan", "ios": "https://dc.lft.to/lastmile_qr_scan"}, "fusion_lon": 0.0}, {"lat": 38.888288833333334, "is_disabled": 0, "type": "electric_scooter", "lon": -76.9940855, "bike_id": "84b9195f086910fe9871573cd4b8f7d0", "fusion_lat": 0.0, "name": "84b9195f086910fe9871573cd4b8f7d0", "is_reserved": 0, "rental_uris": {"android": "https://dc.lft.to/lastmile_qr_scan", "ios": "https://dc.lft.to/lastmile_qr_scan"}, "fusion_lon": 0.0}, {"lat": 38.917403666666665, "is_disabled": 0, "type": "electric_scooter", "lon": -77.03197183333333, "bike_id": "10d7c8097021c0179ed22e6221e34764", "fusion_lat": 0.0, "name": "10d7c8097021c0179ed22e6221e34764", "is_reserved": 0, "rental_uris": {"android": "https://dc.lft.to/lastmile_qr_scan", "ios": "https://dc.lft.to/lastmile_qr_scan"}, "fusion_lon": 0.0}, {"lat": 38.895438666666664, "is_disabled": 0, "type": "electric_scooter", "lon": -77.02281783333333, "bike_id": "aaf1913eb315d3451bd9316caedbba23", "fusion_lat": 0.0, "name": "aaf1913eb315d3451bd9316caedbba23", "is_reserved": 0, "rental_uris": {"android": "https://dc.lft.to/lastmile_qr_scan", "ios": "https://dc.lft.to/lastmile_qr_scan"}, "fusion_lon": 0.0}, {"lat": 38.9827115, "is_disabled": 0, "type": "electric_bike", "lon": -77.01770316666666, "bike_id": "7d989ca3e68213a63e67eba28b87ff54", "fusion_lat": 0.0, "name": "7d989ca3e68213a63e67eba28b87ff54", "is_reserved": 0, "rental_uris": {"android": "https://dc.lft.to/lastmile_qr_scan", "ios": "https://dc.lft.to/lastmile_qr_scan"}, "fusion_lon": 0.0}, {"lat": 38.922966, "is_disabled": 0, "type": "electric_scooter", "lon": -77.04720683333333, "bike_id": "7b0aeac028ee90956d84b1e86ca1ac84", "fusion_lat": 0.0, "name": "7b0aeac028ee90956d84b1e86ca1ac84", "is_reserved": 0, "rental_uris": {"android": "https://dc.lft.to/lastmile_qr_scan", "ios": "https://dc.lft.to/lastmile_qr_scan"}, "fusion_lon": 0.0}, {"lat": 38.9166145, "is_disabled": 0, "type": "electric_scooter", "lon": -77.028103, "bike_id": "cb3e8aab744a661dec7100e8656f0387", "fusion_lat": 0.0, "name": "cb3e8aab744a661dec7100e8656f0387", "is_reserved": 0, "rental_uris": {"android": "https://dc.lft.to/lastmile_qr_scan", "ios": "https://dc.lft.to/lastmile_qr_scan"}, "fusion_lon": 0.0}, {"lat": 38.930757666666665, "is_disabled": 0, "type": "electric_scooter", "lon": -77.03417483333334, "bike_id": "f528234056fceafccb5b8f11485b75e4", "fusion_lat": 0.0, "name": "f528234056fceafccb5b8f11485b75e4", "is_reserved": 0, "rental_uris": {"android": "https://dc.lft.to/lastmile_qr_scan", "ios": "https://dc.lft.to/lastmile_qr_scan"}, "fusion_lon": 0.0}, {"lat": 38.92014783333333, "is_disabled": 0, "type": "electric_scooter", "lon": -77.01956316666667, "bike_id": "cd34092f8e966dae272f88441d2ed3d9", "fusion_lat": 0.0, "name": "cd34092f8e966dae272f88441d2ed3d9", "is_reserved": 0, "rental_uris": {"android": "https://dc.lft.to/lastmile_qr_scan", "ios": "https://dc.lft.to/lastmile_qr_scan"}, "fusion_lon": 0.0}, {"lat": 38.91415883333333, "is_disabled": 0, "type": "electric_scooter", "lon": -77.045031, "bike_id": "1f1483024209c4650f8f6137d835f856", "fusion_lat": 0.0, "name": "1f1483024209c4650f8f6137d835f856", "is_reserved": 0, "rental_uris": {"android": "https://dc.lft.to/lastmile_qr_scan", "ios": "https://dc.lft.to/lastmile_qr_scan"}, "fusion_lon": 0.0}, {"lat": 38.90971716666667, "is_disabled": 0, "type": "electric_scooter", "lon": -77.03287566666667, "bike_id": "98711a7ec892d280fcbfbdd1bcc7a453", "fusion_lat": 0.0, "name": "98711a7ec892d280fcbfbdd1bcc7a453", "is_reserved": 0, "rental_uris": {"android": "https://dc.lft.to/lastmile_qr_scan", "ios": "https://dc.lft.to/lastmile_qr_scan"}, "fusion_lon": 0.0}, {"lat": 38.920773833333335, "is_disabled": 0, "type": "electric_scooter", "lon": -77.02549033333334, "bike_id": "223641ac57451a619f03e577060cc64a", "fusion_lat": 0.0, "name": "223641ac57451a619f03e577060cc64a", "is_reserved": 0, "rental_uris": {"android": "https://dc.lft.to/lastmile_qr_scan", "ios": "https://dc.lft.to/lastmile_qr_scan"}, "fusion_lon": 0.0}, {"lat": 38.93236133333333, "is_disabled": 0, "type": "electric_bike", "lon": -76.97420616666666, "bike_id": "8015e35e89a0ac4c5398a31f1beb8ee0", "fusion_lat": 0.0, "name": "8015e35e89a0ac4c5398a31f1beb8ee0", "is_reserved": 0, "rental_uris": {"android": "https://dc.lft.to/lastmile_qr_scan", "ios": "https://dc.lft.to/lastmile_qr_scan"}, "fusion_lon": 0.0}, {"lat": 38.94818516666667, "is_disabled": 0, "type": "electric_scooter", "lon": -76.999013, "bike_id": "6b10347ea5251249a0195ab67e1ba63b", "fusion_lat": 0.0, "name": "6b10347ea5251249a0195ab67e1ba63b", "is_reserved": 0, "rental_uris": {"android": "https://dc.lft.to/lastmile_qr_scan", "ios": "https://dc.lft.to/lastmile_qr_scan"}, "fusion_lon": 0.0}, {"lat": 38.902004833333336, "is_disabled": 0, "type": "electric_scooter", "lon": -76.9994185, "bike_id": "98d0b43553bb8238b0c99dfb7e2f8313", "fusion_lat": 0.0, "name": "98d0b43553bb8238b0c99dfb7e2f8313", "is_reserved": 0, "rental_uris": {"android": "https://dc.lft.to/lastmile_qr_scan", "ios": "https://dc.lft.to/lastmile_qr_scan"}, "fusion_lon": 0.0}, {"lat": 38.880428333333334, "is_disabled": 0, "type": "electric_scooter", "lon": -76.98629783333334, "bike_id": "159ea1d50f3e18b57a79b3aa78a5aaa2", "fusion_lat": 0.0, "name": "159ea1d50f3e18b57a79b3aa78a5aaa2", "is_reserved": 0, "rental_uris": {"android": "https://dc.lft.to/lastmile_qr_scan", "ios": "https://dc.lft.to/lastmile_qr_scan"}, "fusion_lon": 0.0}, {"lat": 38.908975166666664, "is_disabled": 0, "type": "electric_bike", "lon": -77.0188865, "bike_id": "4004872b16de7abd1642d5c3bd4e0e7d", "fusion_lat": 0.0, "name": "4004872b16de7abd1642d5c3bd4e0e7d", "is_reserved": 0, "rental_uris": {"android": "https://dc.lft.to/lastmile_qr_scan", "ios": "https://dc.lft.to/lastmile_qr_scan"}, "fusion_lon": 0.0}, {"lat": 38.962217833333334, "is_disabled": 0, "type": "electric_bike", "lon": -77.02625566666667, "bike_id": "80aecff6e42792001e9fcc6a5d22e57b", "fusion_lat": 0.0, "name": "80aecff6e42792001e9fcc6a5d22e57b", "is_reserved": 0, "rental_uris": {"android": "https://dc.lft.to/lastmile_qr_scan", "ios": "https://dc.lft.to/lastmile_qr_scan"}, "fusion_lon": 0.0}, {"lat": 38.916878833333335, "is_disabled": 0, "type": "electric_scooter", "lon": -77.0315405, "bike_id": "8099e883f9de850e3d1db497416c2560", "fusion_lat": 0.0, "name": "8099e883f9de850e3d1db497416c2560", "is_reserved": 0, "rental_uris": {"android": "https://dc.lft.to/lastmile_qr_scan", "ios": "https://dc.lft.to/lastmile_qr_scan"}, "fusion_lon": 0.0}, {"lat": 38.914205, "is_disabled": 0, "type": "electric_scooter", "lon": -77.02107916666667, "bike_id": "b850f4d837870e82125b19a49b3b82c3", "fusion_lat": 0.0, "name": "b850f4d837870e82125b19a49b3b82c3", "is_reserved": 0, "rental_uris": {"android": "https://dc.lft.to/lastmile_qr_scan", "ios": "https://dc.lft.to/lastmile_qr_scan"}, "fusion_lon": 0.0}, {"lat": 38.914179, "is_disabled": 0, "type": "electric_scooter", "lon": -77.02209683333334, "bike_id": "f627d0d60b2663450cf143710630f883", "fusion_lat": 0.0, "name": "f627d0d60b2663450cf143710630f883", "is_reserved": 0, "rental_uris": {"android": "https://dc.lft.to/lastmile_qr_scan", "ios": "https://dc.lft.to/lastmile_qr_scan"}, "fusion_lon": 0.0}, {"lat": 38.93438483333333, "is_disabled": 0, "type": "electric_scooter", "lon": -77.034586, "bike_id": "04ff56411d98a927a3e66b3e5b31fa47", "fusion_lat": 0.0, "name": "04ff56411d98a927a3e66b3e5b31fa47", "is_reserved": 0, "rental_uris": {"android": "https://dc.lft.to/lastmile_qr_scan", "ios": "https://dc.lft.to/lastmile_qr_scan"}, "fusion_lon": 0.0}, {"lat": 38.870633166666664, "is_disabled": 0, "type": "electric_scooter", "lon": -77.0083965, "bike_id": "a99efe0a55d3dfd770973326e1d68239", "fusion_lat": 0.0, "name": "a99efe0a55d3dfd770973326e1d68239", "is_reserved": 0, "rental_uris": {"android": "https://dc.lft.to/lastmile_qr_scan", "ios": "https://dc.lft.to/lastmile_qr_scan"}, "fusion_lon": 0.0}, {"lat": 38.86212316666666, "is_disabled": 0, "type": "electric_bike", "lon": -76.9977425, "bike_id": "e99dae22ee01fe6ab0cb88665bc28a76", "fusion_lat": 0.0, "name": "e99dae22ee01fe6ab0cb88665bc28a76", "is_reserved": 0, "rental_uris": {"android": "https://dc.lft.to/lastmile_qr_scan", "ios": "https://dc.lft.to/lastmile_qr_scan"}, "fusion_lon": 0.0}, {"lat": 38.86674766666667, "is_disabled": 0, "type": "electric_scooter", "lon": -76.98535416666667, "bike_id": "fd40ad7603c0f2f323692e44776298f5", "fusion_lat": 0.0, "name": "fd40ad7603c0f2f323692e44776298f5", "is_reserved": 0, "rental_uris": {"android": "https://dc.lft.to/lastmile_qr_scan", "ios": "https://dc.lft.to/lastmile_qr_scan"}, "fusion_lon": 0.0}, {"lat": 38.917004666666664, "is_disabled": 0, "type": "electric_scooter", "lon": -77.03583666666667, "bike_id": "99ecde35f3dcf18859b677d23a1cc854", "fusion_lat": 0.0, "name": "99ecde35f3dcf18859b677d23a1cc854", "is_reserved": 0, "rental_uris": {"android": "https://dc.lft.to/lastmile_qr_scan", "ios": "https://dc.lft.to/lastmile_qr_scan"}, "fusion_lon": 0.0}, {"lat": 38.88488016666667, "is_disabled": 0, "type": "electric_scooter", "lon": -77.0071485, "bike_id": "960f4805b484b524f75ca909f0a7179f", "fusion_lat": 0.0, "name": "960f4805b484b524f75ca909f0a7179f", "is_reserved": 0, "rental_uris": {"android": "https://dc.lft.to/lastmile_qr_scan", "ios": "https://dc.lft.to/lastmile_qr_scan"}, "fusion_lon": 0.0}, {"lat": 38.95329666666667, "is_disabled": 0, "type": "electric_scooter", "lon": -77.027552, "bike_id": "e407a8f840797b52e9234f0ca0581e4b", "fusion_lat": 0.0, "name": "e407a8f840797b52e9234f0ca0581e4b", "is_reserved": 0, "rental_uris": {"android": "https://dc.lft.to/lastmile_qr_scan", "ios": "https://dc.lft.to/lastmile_qr_scan"}, "fusion_lon": 0.0}, {"lat": 39.03692933333333, "is_disabled": 0, "type": "electric_bike", "lon": -77.05142866666667, "bike_id": "c10bdf36a72d4699b6e129460325d2f2", "fusion_lat": 0.0, "name": "c10bdf36a72d4699b6e129460325d2f2", "is_reserved": 0, "rental_uris": {"android": "https://dc.lft.to/lastmile_qr_scan", "ios": "https://dc.lft.to/lastmile_qr_scan"}, "fusion_lon": 0.0}, {"lat": 38.8075245, "is_disabled": 0, "type": "electric_bike", "lon": -77.09448583333334, "bike_id": "1ff1120eeaac78d554ffc2f0d599cbd9", "fusion_lat": 0.0, "name": "1ff1120eeaac78d554ffc2f0d599cbd9", "is_reserved": 0, "rental_uris": {"android": "https://dc.lft.to/lastmile_qr_scan", "ios": "https://dc.lft.to/lastmile_qr_scan"}, "fusion_lon": 0.0}, {"lat": 38.916751833333336, "is_disabled": 0, "type": "electric_scooter", "lon": -77.031849, "bike_id": "b0c085286d138975a8fd1d92f5fa5535", "fusion_lat": 0.0, "name": "b0c085286d138975a8fd1d92f5fa5535", "is_reserved": 0, "rental_uris": {"android": "https://dc.lft.to/lastmile_qr_scan", "ios": "https://dc.lft.to/lastmile_qr_scan"}, "fusion_lon": 0.0}, {"lat": 38.91127066666667, "is_disabled": 0, "type": "electric_scooter", "lon": -77.04341333333333, "bike_id": "ae7f2311d45773de165754bbffd930f5", "fusion_lat": 0.0, "name": "ae7f2311d45773de165754bbffd930f5", "is_reserved": 0, "rental_uris": {"android": "https://dc.lft.to/lastmile_qr_scan", "ios": "https://dc.lft.to/lastmile_qr_scan"}, "fusion_lon": 0.0}, {"lat": 38.88468683333333, "is_disabled": 0, "type": "electric_scooter", "lon": -76.992761, "bike_id": "474d1f84c3149351359ffcf1465fa4df", "fusion_lat": 0.0, "name": "474d1f84c3149351359ffcf1465fa4df", "is_reserved": 0, "rental_uris": {"android": "https://dc.lft.to/lastmile_qr_scan", "ios": "https://dc.lft.to/lastmile_qr_scan"}, "fusion_lon": 0.0}, {"lat": 38.881566, "is_disabled": 0, "type": "electric_scooter", "lon": -77.003596, "bike_id": "3a82e3fedb6da3090ab9c78438bfac13", "fusion_lat": 0.0, "name": "3a82e3fedb6da3090ab9c78438bfac13", "is_reserved": 0, "rental_uris": {"android": "https://dc.lft.to/lastmile_qr_scan", "ios": "https://dc.lft.to/lastmile_qr_scan"}, "fusion_lon": 0.0}, {"lat": 38.912688833333334, "is_disabled": 0, "type": "electric_scooter", "lon": -77.019757, "bike_id": "0f2ee2a2f79561978412ed414b0a055a", "fusion_lat": 0.0, "name": "0f2ee2a2f79561978412ed414b0a055a", "is_reserved": 0, "rental_uris": {"android": "https://dc.lft.to/lastmile_qr_scan", "ios": "https://dc.lft.to/lastmile_qr_scan"}, "fusion_lon": 0.0}, {"lat": 38.900887, "is_disabled": 0, "type": "electric_scooter", "lon": -77.05598166666667, "bike_id": "c4710fb76fe11bbb2fe6b4386f6c7ad5", "fusion_lat": 0.0, "name": "c4710fb76fe11bbb2fe6b4386f6c7ad5", "is_reserved": 0, "rental_uris": {"android": "https://dc.lft.to/lastmile_qr_scan", "ios": "https://dc.lft.to/lastmile_qr_scan"}, "fusion_lon": 0.0}, {"lat": 38.9105315, "is_disabled": 0, "type": "electric_scooter", "lon": -77.04261916666667, "bike_id": "5327c838fc38b7b3f22c004d69c6ce08", "fusion_lat": 0.0, "name": "5327c838fc38b7b3f22c004d69c6ce08", "is_reserved": 0, "rental_uris": {"android": "https://dc.lft.to/lastmile_qr_scan", "ios": "https://dc.lft.to/lastmile_qr_scan"}, "fusion_lon": 0.0}, {"lat": 38.8970005, "is_disabled": 0, "type": "electric_scooter", "lon": -77.02692483333334, "bike_id": "d3a6321c15f5a8ebf11981e766e4a808", "fusion_lat": 0.0, "name": "d3a6321c15f5a8ebf11981e766e4a808", "is_reserved": 0, "rental_uris": {"android": "https://dc.lft.to/lastmile_qr_scan", "ios": "https://dc.lft.to/lastmile_qr_scan"}, "fusion_lon": 0.0}, {"lat": 38.889688166666666, "is_disabled": 0, "type": "electric_scooter", "lon": -77.03964883333333, "bike_id": "198c7b2675c84e22623de5acc11bef72", "fusion_lat": 0.0, "name": "198c7b2675c84e22623de5acc11bef72", "is_reserved": 0, "rental_uris": {"android": "https://dc.lft.to/lastmile_qr_scan", "ios": "https://dc.lft.to/lastmile_qr_scan"}, "fusion_lon": 0.0}, {"lat": 38.90374966666667, "is_disabled": 0, "type": "electric_scooter", "lon": -77.05074733333333, "bike_id": "d2a620e4f12ae84f69455aaffaa4b882", "fusion_lat": 0.0, "name": "d2a620e4f12ae84f69455aaffaa4b882", "is_reserved": 0, "rental_uris": {"android": "https://dc.lft.to/lastmile_qr_scan", "ios": "https://dc.lft.to/lastmile_qr_scan"}, "fusion_lon": 0.0}, {"lat": 38.91745816666667, "is_disabled": 0, "type": "electric_scooter", "lon": -77.03591783333333, "bike_id": "f7a7a8d9586e3041eb00abd0c03f63e1", "fusion_lat": 0.0, "name": "f7a7a8d9586e3041eb00abd0c03f63e1", "is_reserved": 0, "rental_uris": {"android": "https://dc.lft.to/lastmile_qr_scan", "ios": "https://dc.lft.to/lastmile_qr_scan"}, "fusion_lon": 0.0}, {"lat": 38.900265, "is_disabled": 0, "type": "electric_scooter", "lon": -77.03308266666667, "bike_id": "ef26e534a1ab333bef909b0f5a0c9c66", "fusion_lat": 0.0, "name": "ef26e534a1ab333bef909b0f5a0c9c66", "is_reserved": 0, "rental_uris": {"android": "https://dc.lft.to/lastmile_qr_scan", "ios": "https://dc.lft.to/lastmile_qr_scan"}, "fusion_lon": 0.0}, {"lat": 38.865070333333335, "is_disabled": 0, "type": "electric_scooter", "lon": -76.99000083333334, "bike_id": "4b9be656432abd377c505e41210a8f10", "fusion_lat": 0.0, "name": "4b9be656432abd377c505e41210a8f10", "is_reserved": 0, "rental_uris": {"android": "https://dc.lft.to/lastmile_qr_scan", "ios": "https://dc.lft.to/lastmile_qr_scan"}, "fusion_lon": 0.0}, {"lat": 38.892281833333335, "is_disabled": 0, "type": "electric_scooter", "lon": -77.02811633333333, "bike_id": "82473be1319aeec4fef3ae22262e64b7", "fusion_lat": 0.0, "name": "82473be1319aeec4fef3ae22262e64b7", "is_reserved": 0, "rental_uris": {"android": "https://dc.lft.to/lastmile_qr_scan", "ios": "https://dc.lft.to/lastmile_qr_scan"}, "fusion_lon": 0.0}, {"lat": 38.93754783333333, "is_disabled": 0, "type": "electric_scooter", "lon": -77.032525, "bike_id": "9eeed7bffcef46845858d82aa73a5f00", "fusion_lat": 0.0, "name": "9eeed7bffcef46845858d82aa73a5f00", "is_reserved": 0, "rental_uris": {"android": "https://dc.lft.to/lastmile_qr_scan", "ios": "https://dc.lft.to/lastmile_qr_scan"}, "fusion_lon": 0.0}, {"lat": 38.892201666666665, "is_disabled": 0, "type": "electric_scooter", "lon": -76.932942, "bike_id": "3a5f35ff0b8075f92b7db2fb824ede76", "fusion_lat": 0.0, "name": "3a5f35ff0b8075f92b7db2fb824ede76", "is_reserved": 0, "rental_uris": {"android": "https://dc.lft.to/lastmile_qr_scan", "ios": "https://dc.lft.to/lastmile_qr_scan"}, "fusion_lon": 0.0}, {"lat": 38.95630216666667, "is_disabled": 0, "type": "electric_bike", "lon": -76.938854, "bike_id": "1dea801d348eacec29ef31a993ed3d3e", "fusion_lat": 0.0, "name": "1dea801d348eacec29ef31a993ed3d3e", "is_reserved": 0, "rental_uris": {"android": "https://dc.lft.to/lastmile_qr_scan", "ios": "https://dc.lft.to/lastmile_qr_scan"}, "fusion_lon": 0.0}, {"lat": 38.842767, "is_disabled": 0, "type": "electric_bike", "lon": -76.98841066666667, "bike_id": "82ed366e5dcb7e9b5dbb42b943e1340e", "fusion_lat": 0.0, "name": "82ed366e5dcb7e9b5dbb42b943e1340e", "is_reserved": 0, "rental_uris": {"android": "https://dc.lft.to/lastmile_qr_scan", "ios": "https://dc.lft.to/lastmile_qr_scan"}, "fusion_lon": 0.0}, {"lat": 38.91961333333333, "is_disabled": 0, "type": "electric_scooter", "lon": -77.01206516666667, "bike_id": "cfdbcd0b8dde1b33d9b1893b2a86e541", "fusion_lat": 0.0, "name": "cfdbcd0b8dde1b33d9b1893b2a86e541", "is_reserved": 0, "rental_uris": {"android": "https://dc.lft.to/lastmile_qr_scan", "ios": "https://dc.lft.to/lastmile_qr_scan"}, "fusion_lon": 0.0}, {"lat": 38.9266105, "is_disabled": 0, "type": "electric_scooter", "lon": -76.99543566666667, "bike_id": "27a3c139d59f49883a4a78736bab51eb", "fusion_lat": 0.0, "name": "27a3c139d59f49883a4a78736bab51eb", "is_reserved": 0, "rental_uris": {"android": "https://dc.lft.to/lastmile_qr_scan", "ios": "https://dc.lft.to/lastmile_qr_scan"}, "fusion_lon": 0.0}, {"lat": 38.92572, "is_disabled": 0, "type": "electric_scooter", "lon": -77.05744766666666, "bike_id": "77ad2f400238636dac6b10e87acc66a4", "fusion_lat": 0.0, "name": "77ad2f400238636dac6b10e87acc66a4", "is_reserved": 0, "rental_uris": {"android": "https://dc.lft.to/lastmile_qr_scan", "ios": "https://dc.lft.to/lastmile_qr_scan"}, "fusion_lon": 0.0}, {"lat": 38.89801533333333, "is_disabled": 0, "type": "electric_scooter", "lon": -77.00053683333333, "bike_id": "d58edb9fcf9391e00023fa8799e3e986", "fusion_lat": 0.0, "name": "d58edb9fcf9391e00023fa8799e3e986", "is_reserved": 0, "rental_uris": {"android": "https://dc.lft.to/lastmile_qr_scan", "ios": "https://dc.lft.to/lastmile_qr_scan"}, "fusion_lon": 0.0}, {"lat": 38.8977405, "is_disabled": 0, "type": "electric_bike", "lon": -76.9043895, "bike_id": "1982c8c5d89eb48a82c5f303aeee5f88", "fusion_lat": 0.0, "name": "1982c8c5d89eb48a82c5f303aeee5f88", "is_reserved": 0, "rental_uris": {"android": "https://dc.lft.to/lastmile_qr_scan", "ios": "https://dc.lft.to/lastmile_qr_scan"}, "fusion_lon": 0.0}, {"lat": 38.9149735, "is_disabled": 0, "type": "electric_scooter", "lon": -77.01219383333333, "bike_id": "6297fafea63db85ceba8a70a57e49d5f", "fusion_lat": 0.0, "name": "6297fafea63db85ceba8a70a57e49d5f", "is_reserved": 0, "rental_uris": {"android": "https://dc.lft.to/lastmile_qr_scan", "ios": "https://dc.lft.to/lastmile_qr_scan"}, "fusion_lon": 0.0}, {"lat": 38.900621666666666, "is_disabled": 0, "type": "electric_scooter", "lon": -77.04955466666667, "bike_id": "7501738c79f51f4c9bdb54c4f084f727", "fusion_lat": 0.0, "name": "7501738c79f51f4c9bdb54c4f084f727", "is_reserved": 0, "rental_uris": {"android": "https://dc.lft.to/lastmile_qr_scan", "ios": "https://dc.lft.to/lastmile_qr_scan"}, "fusion_lon": 0.0}, {"lat": 38.91694483333333, "is_disabled": 0, "type": "electric_scooter", "lon": -77.03744933333333, "bike_id": "1ca59cc71a6da33eb8b5beaa74222f83", "fusion_lat": 0.0, "name": "1ca59cc71a6da33eb8b5beaa74222f83", "is_reserved": 0, "rental_uris": {"android": "https://dc.lft.to/lastmile_qr_scan", "ios": "https://dc.lft.to/lastmile_qr_scan"}, "fusion_lon": 0.0}, {"lat": 38.92665083333333, "is_disabled": 0, "type": "electric_scooter", "lon": -77.01517066666666, "bike_id": "ff4a0c9741076615d4ca797407227339", "fusion_lat": 0.0, "name": "ff4a0c9741076615d4ca797407227339", "is_reserved": 0, "rental_uris": {"android": "https://dc.lft.to/lastmile_qr_scan", "ios": "https://dc.lft.to/lastmile_qr_scan"}, "fusion_lon": 0.0}, {"lat": 38.90261866666667, "is_disabled": 0, "type": "electric_scooter", "lon": -77.03637133333334, "bike_id": "524846a6f2b48db5775b6a91f2b5e74f", "fusion_lat": 0.0, "name": "524846a6f2b48db5775b6a91f2b5e74f", "is_reserved": 0, "rental_uris": {"android": "https://dc.lft.to/lastmile_qr_scan", "ios": "https://dc.lft.to/lastmile_qr_scan"}, "fusion_lon": 0.0}, {"lat": 38.91412033333334, "is_disabled": 0, "type": "electric_scooter", "lon": -77.02945116666666, "bike_id": "28bb23c5c708126f14691cc0fe5e96b3", "fusion_lat": 0.0, "name": "28bb23c5c708126f14691cc0fe5e96b3", "is_reserved": 0, "rental_uris": {"android": "https://dc.lft.to/lastmile_qr_scan", "ios": "https://dc.lft.to/lastmile_qr_scan"}, "fusion_lon": 0.0}, {"lat": 38.9232485, "is_disabled": 0, "type": "electric_scooter", "lon": -77.03634016666666, "bike_id": "bd6721e9b6952e71aafd580b9cb5de93", "fusion_lat": 0.0, "name": "bd6721e9b6952e71aafd580b9cb5de93", "is_reserved": 0, "rental_uris": {"android": "https://dc.lft.to/lastmile_qr_scan", "ios": "https://dc.lft.to/lastmile_qr_scan"}, "fusion_lon": 0.0}, {"lat": 38.92253816666667, "is_disabled": 0, "type": "electric_scooter", "lon": -77.02341166666666, "bike_id": "bd209f653faf88d33cd10a12064f8a5b", "fusion_lat": 0.0, "name": "bd209f653faf88d33cd10a12064f8a5b", "is_reserved": 0, "rental_uris": {"android": "https://dc.lft.to/lastmile_qr_scan", "ios": "https://dc.lft.to/lastmile_qr_scan"}, "fusion_lon": 0.0}, {"lat": 38.90287933333333, "is_disabled": 0, "type": "electric_scooter", "lon": -77.043813, "bike_id": "cb686376a32b3b91a9ae5dbe672eb9ca", "fusion_lat": 0.0, "name": "cb686376a32b3b91a9ae5dbe672eb9ca", "is_reserved": 0, "rental_uris": {"android": "https://dc.lft.to/lastmile_qr_scan", "ios": "https://dc.lft.to/lastmile_qr_scan"}, "fusion_lon": 0.0}, {"lat": 38.9117525, "is_disabled": 0, "type": "electric_scooter", "lon": -77.03184033333334, "bike_id": "1ead1740376dede7133987e7a5ccc8d2", "fusion_lat": 0.0, "name": "1ead1740376dede7133987e7a5ccc8d2", "is_reserved": 0, "rental_uris": {"android": "https://dc.lft.to/lastmile_qr_scan", "ios": "https://dc.lft.to/lastmile_qr_scan"}, "fusion_lon": 0.0}, {"lat": 38.933871333333336, "is_disabled": 0, "type": "electric_scooter", "lon": -77.03244716666667, "bike_id": "8804dbb0f3029356d8d96534b29e5a8e", "fusion_lat": 0.0, "name": "8804dbb0f3029356d8d96534b29e5a8e", "is_reserved": 0, "rental_uris": {"android": "https://dc.lft.to/lastmile_qr_scan", "ios": "https://dc.lft.to/lastmile_qr_scan"}, "fusion_lon": 0.0}, {"lat": 38.90417933333333, "is_disabled": 0, "type": "electric_scooter", "lon": -77.05315233333333, "bike_id": "7a28ab7c3df5e0efa1f402b467889281", "fusion_lat": 0.0, "name": "7a28ab7c3df5e0efa1f402b467889281", "is_reserved": 0, "rental_uris": {"android": "https://dc.lft.to/lastmile_qr_scan", "ios": "https://dc.lft.to/lastmile_qr_scan"}, "fusion_lon": 0.0}, {"lat": 38.92730783333333, "is_disabled": 0, "type": "electric_scooter", "lon": -77.022418, "bike_id": "760ea14baa035d28965f30ccddb7f4ec", "fusion_lat": 0.0, "name": "760ea14baa035d28965f30ccddb7f4ec", "is_reserved": 0, "rental_uris": {"android": "https://dc.lft.to/lastmile_qr_scan", "ios": "https://dc.lft.to/lastmile_qr_scan"}, "fusion_lon": 0.0}, {"lat": 38.91314333333333, "is_disabled": 0, "type": "electric_scooter", "lon": -77.0447515, "bike_id": "8c98c5f06be9a0e073be8dbc03b03777", "fusion_lat": 0.0, "name": "8c98c5f06be9a0e073be8dbc03b03777", "is_reserved": 0, "rental_uris": {"android": "https://dc.lft.to/lastmile_qr_scan", "ios": "https://dc.lft.to/lastmile_qr_scan"}, "fusion_lon": 0.0}, {"lat": 38.8859785, "is_disabled": 0, "type": "electric_scooter", "lon": -77.02190266666666, "bike_id": "d69cd5eb4b651d93d04a91d6ead1a3ce", "fusion_lat": 0.0, "name": "d69cd5eb4b651d93d04a91d6ead1a3ce", "is_reserved": 0, "rental_uris": {"android": "https://dc.lft.to/lastmile_qr_scan", "ios": "https://dc.lft.to/lastmile_qr_scan"}, "fusion_lon": 0.0}, {"lat": 38.91695816666667, "is_disabled": 0, "type": "electric_scooter", "lon": -77.037596, "bike_id": "2ea856f76a220a8710fa67e7910e4903", "fusion_lat": 0.0, "name": "2ea856f76a220a8710fa67e7910e4903", "is_reserved": 0, "rental_uris": {"android": "https://dc.lft.to/lastmile_qr_scan", "ios": "https://dc.lft.to/lastmile_qr_scan"}, "fusion_lon": 0.0}, {"lat": 38.9003705, "is_disabled": 0, "type": "electric_scooter", "lon": -77.00583333333333, "bike_id": "ad5f40fae7f39fd68b68017b3f77076d", "fusion_lat": 0.0, "name": "ad5f40fae7f39fd68b68017b3f77076d", "is_reserved": 0, "rental_uris": {"android": "https://dc.lft.to/lastmile_qr_scan", "ios": "https://dc.lft.to/lastmile_qr_scan"}, "fusion_lon": 0.0}, {"lat": 38.88449033333333, "is_disabled": 0, "type": "electric_bike", "lon": -77.09663233333333, "bike_id": "b0d3eee57350985850004a907b230c7f", "fusion_lat": 0.0, "name": "b0d3eee57350985850004a907b230c7f", "is_reserved": 0, "rental_uris": {"android": "https://dc.lft.to/lastmile_qr_scan", "ios": "https://dc.lft.to/lastmile_qr_scan"}, "fusion_lon": 0.0}, {"lat": 38.91109516666667, "is_disabled": 0, "type": "electric_scooter", "lon": -77.038278, "bike_id": "93c05a7314aa2fd7106c4f35168d235f", "fusion_lat": 0.0, "name": "93c05a7314aa2fd7106c4f35168d235f", "is_reserved": 0, "rental_uris": {"android": "https://dc.lft.to/lastmile_qr_scan", "ios": "https://dc.lft.to/lastmile_qr_scan"}, "fusion_lon": 0.0}, {"lat": 38.897397166666664, "is_disabled": 0, "type": "electric_scooter", "lon": -77.04785266666667, "bike_id": "e33fb85337186c07d053de1687a36625", "fusion_lat": 0.0, "name": "e33fb85337186c07d053de1687a36625", "is_reserved": 0, "rental_uris": {"android": "https://dc.lft.to/lastmile_qr_scan", "ios": "https://dc.lft.to/lastmile_qr_scan"}, "fusion_lon": 0.0}, {"lat": 38.907126166666664, "is_disabled": 0, "type": "electric_scooter", "lon": -77.0059795, "bike_id": "a33604e3691abaa78edfff10ddd764f7", "fusion_lat": 0.0, "name": "a33604e3691abaa78edfff10ddd764f7", "is_reserved": 0, "rental_uris": {"android": "https://dc.lft.to/lastmile_qr_scan", "ios": "https://dc.lft.to/lastmile_qr_scan"}, "fusion_lon": 0.0}, {"lat": 38.90591366666666, "is_disabled": 0, "type": "electric_scooter", "lon": -77.0400505, "bike_id": "7073e7d6aeaf99afb4368e50e4ae5c1a", "fusion_lat": 0.0, "name": "7073e7d6aeaf99afb4368e50e4ae5c1a", "is_reserved": 0, "rental_uris": {"android": "https://dc.lft.to/lastmile_qr_scan", "ios": "https://dc.lft.to/lastmile_qr_scan"}, "fusion_lon": 0.0}, {"lat": 38.90829016666667, "is_disabled": 0, "type": "electric_scooter", "lon": -76.99703216666667, "bike_id": "7c041a1ac97162d93f7109c957c0fd57", "fusion_lat": 0.0, "name": "7c041a1ac97162d93f7109c957c0fd57", "is_reserved": 0, "rental_uris": {"android": "https://dc.lft.to/lastmile_qr_scan", "ios": "https://dc.lft.to/lastmile_qr_scan"}, "fusion_lon": 0.0}, {"lat": 38.911177, "is_disabled": 0, "type": "electric_scooter", "lon": -77.00329866666667, "bike_id": "00f21e8a0a7372e7855db525b6537879", "fusion_lat": 0.0, "name": "00f21e8a0a7372e7855db525b6537879", "is_reserved": 0, "rental_uris": {"android": "https://dc.lft.to/lastmile_qr_scan", "ios": "https://dc.lft.to/lastmile_qr_scan"}, "fusion_lon": 0.0}, {"lat": 38.92470316666667, "is_disabled": 0, "type": "electric_bike", "lon": -77.20837283333333, "bike_id": "7e1c65f328f54a016213246caa2f4eb1", "fusion_lat": 0.0, "name": "7e1c65f328f54a016213246caa2f4eb1", "is_reserved": 0, "rental_uris": {"android": "https://dc.lft.to/lastmile_qr_scan", "ios": "https://dc.lft.to/lastmile_qr_scan"}, "fusion_lon": 0.0}, {"lat": 38.91699666666667, "is_disabled": 0, "type": "electric_scooter", "lon": -77.04271783333333, "bike_id": "822c15e6bd67c68a1c662521d8f3d2d4", "fusion_lat": 0.0, "name": "822c15e6bd67c68a1c662521d8f3d2d4", "is_reserved": 0, "rental_uris": {"android": "https://dc.lft.to/lastmile_qr_scan", "ios": "https://dc.lft.to/lastmile_qr_scan"}, "fusion_lon": 0.0}, {"lat": 38.84255516666666, "is_disabled": 0, "type": "electric_bike", "lon": -77.05830333333333, "bike_id": "93ed7d0ba7f46ae93a997e173b24b018", "fusion_lat": 0.0, "name": "93ed7d0ba7f46ae93a997e173b24b018", "is_reserved": 0, "rental_uris": {"android": "https://dc.lft.to/lastmile_qr_scan", "ios": "https://dc.lft.to/lastmile_qr_scan"}, "fusion_lon": 0.0}, {"lat": 38.9359905, "is_disabled": 0, "type": "electric_scooter", "lon": -77.035251, "bike_id": "8d963bae870522004b2dde3eac38a656", "fusion_lat": 0.0, "name": "8d963bae870522004b2dde3eac38a656", "is_reserved": 0, "rental_uris": {"android": "https://dc.lft.to/lastmile_qr_scan", "ios": "https://dc.lft.to/lastmile_qr_scan"}, "fusion_lon": 0.0}, {"lat": 38.91822716666667, "is_disabled": 0, "type": "electric_scooter", "lon": -77.03454283333333, "bike_id": "bb8bc0cd2b935f3206d56ed50dfe66d4", "fusion_lat": 0.0, "name": "bb8bc0cd2b935f3206d56ed50dfe66d4", "is_reserved": 0, "rental_uris": {"android": "https://dc.lft.to/lastmile_qr_scan", "ios": "https://dc.lft.to/lastmile_qr_scan"}, "fusion_lon": 0.0}, {"lat": 38.917868166666665, "is_disabled": 0, "type": "electric_scooter", "lon": -77.02608233333333, "bike_id": "96498c76aa16416c675b80f22716f3ee", "fusion_lat": 0.0, "name": "96498c76aa16416c675b80f22716f3ee", "is_reserved": 0, "rental_uris": {"android": "https://dc.lft.to/lastmile_qr_scan", "ios": "https://dc.lft.to/lastmile_qr_scan"}, "fusion_lon": 0.0}, {"lat": 38.89226516666667, "is_disabled": 0, "type": "electric_scooter", "lon": -77.02824366666667, "bike_id": "8663d18a1f1aa51b0465b28589943f4d", "fusion_lat": 0.0, "name": "8663d18a1f1aa51b0465b28589943f4d", "is_reserved": 0, "rental_uris": {"android": "https://dc.lft.to/lastmile_qr_scan", "ios": "https://dc.lft.to/lastmile_qr_scan"}, "fusion_lon": 0.0}, {"lat": 38.96069333333333, "is_disabled": 0, "type": "electric_scooter", "lon": -77.07300016666667, "bike_id": "a32d575555185959ea396d860d8cff96", "fusion_lat": 0.0, "name": "a32d575555185959ea396d860d8cff96", "is_reserved": 0, "rental_uris": {"android": "https://dc.lft.to/lastmile_qr_scan", "ios": "https://dc.lft.to/lastmile_qr_scan"}, "fusion_lon": 0.0}, {"lat": 38.90365033333333, "is_disabled": 0, "type": "electric_scooter", "lon": -76.97651233333333, "bike_id": "fec4f451e0a3e628abb39fbb4f15f407", "fusion_lat": 0.0, "name": "fec4f451e0a3e628abb39fbb4f15f407", "is_reserved": 0, "rental_uris": {"android": "https://dc.lft.to/lastmile_qr_scan", "ios": "https://dc.lft.to/lastmile_qr_scan"}, "fusion_lon": 0.0}, {"lat": 38.92120833333333, "is_disabled": 0, "type": "electric_scooter", "lon": -77.04348766666666, "bike_id": "591afc908d5affe4a06558af48e92906", "fusion_lat": 0.0, "name": "591afc908d5affe4a06558af48e92906", "is_reserved": 0, "rental_uris": {"android": "https://dc.lft.to/lastmile_qr_scan", "ios": "https://dc.lft.to/lastmile_qr_scan"}, "fusion_lon": 0.0}, {"lat": 38.926033333333336, "is_disabled": 0, "type": "electric_scooter", "lon": -77.0248935, "bike_id": "993d89bfc1f173b3e80d4b8b515d5eab", "fusion_lat": 0.0, "name": "993d89bfc1f173b3e80d4b8b515d5eab", "is_reserved": 0, "rental_uris": {"android": "https://dc.lft.to/lastmile_qr_scan", "ios": "https://dc.lft.to/lastmile_qr_scan"}, "fusion_lon": 0.0}, {"lat": 38.9148415, "is_disabled": 0, "type": "electric_scooter", "lon": -77.03211083333333, "bike_id": "29d586096c1e117ea0836ff3d53015f3", "fusion_lat": 0.0, "name": "29d586096c1e117ea0836ff3d53015f3", "is_reserved": 0, "rental_uris": {"android": "https://dc.lft.to/lastmile_qr_scan", "ios": "https://dc.lft.to/lastmile_qr_scan"}, "fusion_lon": 0.0}, {"lat": 38.900666666666666, "is_disabled": 0, "type": "electric_scooter", "lon": -77.0453575, "bike_id": "d24eff773924255499d7591b39298819", "fusion_lat": 0.0, "name": "d24eff773924255499d7591b39298819", "is_reserved": 0, "rental_uris": {"android": "https://dc.lft.to/lastmile_qr_scan", "ios": "https://dc.lft.to/lastmile_qr_scan"}, "fusion_lon": 0.0}, {"lat": 38.88658383333333, "is_disabled": 0, "type": "electric_bike", "lon": -77.0338915, "bike_id": "e0d566215316867f2c39c2c2c4a2e499", "fusion_lat": 0.0, "name": "e0d566215316867f2c39c2c2c4a2e499", "is_reserved": 0, "rental_uris": {"android": "https://dc.lft.to/lastmile_qr_scan", "ios": "https://dc.lft.to/lastmile_qr_scan"}, "fusion_lon": 0.0}, {"lat": 38.917094166666665, "is_disabled": 0, "type": "electric_scooter", "lon": -77.04677583333333, "bike_id": "df6f41ca5c9773aeb291a44284558ded", "fusion_lat": 0.0, "name": "df6f41ca5c9773aeb291a44284558ded", "is_reserved": 0, "rental_uris": {"android": "https://dc.lft.to/lastmile_qr_scan", "ios": "https://dc.lft.to/lastmile_qr_scan"}, "fusion_lon": 0.0}, {"lat": 38.92114, "is_disabled": 0, "type": "electric_scooter", "lon": -77.0318135, "bike_id": "55099b7e52fe4e3703034a8fd6778a13", "fusion_lat": 0.0, "name": "55099b7e52fe4e3703034a8fd6778a13", "is_reserved": 0, "rental_uris": {"android": "https://dc.lft.to/lastmile_qr_scan", "ios": "https://dc.lft.to/lastmile_qr_scan"}, "fusion_lon": 0.0}, {"lat": 38.926601166666664, "is_disabled": 0, "type": "electric_scooter", "lon": -77.05589816666667, "bike_id": "2005641498d5122eddbaceeb07bab930", "fusion_lat": 0.0, "name": "2005641498d5122eddbaceeb07bab930", "is_reserved": 0, "rental_uris": {"android": "https://dc.lft.to/lastmile_qr_scan", "ios": "https://dc.lft.to/lastmile_qr_scan"}, "fusion_lon": 0.0}, {"lat": 38.89549866666667, "is_disabled": 0, "type": "electric_scooter", "lon": -76.93360783333333, "bike_id": "0036af1b747b9fdd2667559cc575e187", "fusion_lat": 0.0, "name": "0036af1b747b9fdd2667559cc575e187", "is_reserved": 0, "rental_uris": {"android": "https://dc.lft.to/lastmile_qr_scan", "ios": "https://dc.lft.to/lastmile_qr_scan"}, "fusion_lon": 0.0}, {"lat": 38.93665083333333, "is_disabled": 0, "type": "electric_scooter", "lon": -77.05931783333334, "bike_id": "43a0f488cba72f58bfd8cba6260a8dee", "fusion_lat": 0.0, "name": "43a0f488cba72f58bfd8cba6260a8dee", "is_reserved": 0, "rental_uris": {"android": "https://dc.lft.to/lastmile_qr_scan", "ios": "https://dc.lft.to/lastmile_qr_scan"}, "fusion_lon": 0.0}, {"lat": 38.90631483333333, "is_disabled": 0, "type": "electric_scooter", "lon": -77.02491233333333, "bike_id": "ebc7558a9cff412b808f9aab88bb06cb", "fusion_lat": 0.0, "name": "ebc7558a9cff412b808f9aab88bb06cb", "is_reserved": 0, "rental_uris": {"android": "https://dc.lft.to/lastmile_qr_scan", "ios": "https://dc.lft.to/lastmile_qr_scan"}, "fusion_lon": 0.0}, {"lat": 38.900668333333336, "is_disabled": 0, "type": "electric_scooter", "lon": -77.05095116666666, "bike_id": "d7595698b79127e37b2b02d352390935", "fusion_lat": 0.0, "name": "d7595698b79127e37b2b02d352390935", "is_reserved": 0, "rental_uris": {"android": "https://dc.lft.to/lastmile_qr_scan", "ios": "https://dc.lft.to/lastmile_qr_scan"}, "fusion_lon": 0.0}, {"lat": 38.83693516666666, "is_disabled": 0, "type": "electric_scooter", "lon": -77.10301433333333, "bike_id": "f8ddab9ff9f55c76c9f2ed6f9b512aac", "fusion_lat": 0.0, "name": "f8ddab9ff9f55c76c9f2ed6f9b512aac", "is_reserved": 0, "rental_uris": {"android": "https://dc.lft.to/lastmile_qr_scan", "ios": "https://dc.lft.to/lastmile_qr_scan"}, "fusion_lon": 0.0}, {"lat": 38.91617033333333, "is_disabled": 0, "type": "electric_scooter", "lon": -77.03294566666666, "bike_id": "cdd04929f2444360828a1081fbb6bcc7", "fusion_lat": 0.0, "name": "cdd04929f2444360828a1081fbb6bcc7", "is_reserved": 0, "rental_uris": {"android": "https://dc.lft.to/lastmile_qr_scan", "ios": "https://dc.lft.to/lastmile_qr_scan"}, "fusion_lon": 0.0}, {"lat": 38.88112566666667, "is_disabled": 0, "type": "electric_scooter", "lon": -76.98337116666667, "bike_id": "c009a875074911023efdedc69ec3c04e", "fusion_lat": 0.0, "name": "c009a875074911023efdedc69ec3c04e", "is_reserved": 0, "rental_uris": {"android": "https://dc.lft.to/lastmile_qr_scan", "ios": "https://dc.lft.to/lastmile_qr_scan"}, "fusion_lon": 0.0}, {"lat": 38.871411333333334, "is_disabled": 0, "type": "electric_bike", "lon": -76.937003, "bike_id": "1f1848432c01f74e11482e64fc97fa6b", "fusion_lat": 0.0, "name": "1f1848432c01f74e11482e64fc97fa6b", "is_reserved": 0, "rental_uris": {"android": "https://dc.lft.to/lastmile_qr_scan", "ios": "https://dc.lft.to/lastmile_qr_scan"}, "fusion_lon": 0.0}, {"lat": 38.92706916666667, "is_disabled": 0, "type": "electric_scooter", "lon": -77.02091633333333, "bike_id": "0de733bb65bf1f96a235357044f7b040", "fusion_lat": 0.0, "name": "0de733bb65bf1f96a235357044f7b040", "is_reserved": 0, "rental_uris": {"android": "https://dc.lft.to/lastmile_qr_scan", "ios": "https://dc.lft.to/lastmile_qr_scan"}, "fusion_lon": 0.0}, {"lat": 38.8683465, "is_disabled": 0, "type": "electric_scooter", "lon": -76.977412, "bike_id": "2a81ed2800a0d273995ea62eb9a7049a", "fusion_lat": 0.0, "name": "2a81ed2800a0d273995ea62eb9a7049a", "is_reserved": 0, "rental_uris": {"android": "https://dc.lft.to/lastmile_qr_scan", "ios": "https://dc.lft.to/lastmile_qr_scan"}, "fusion_lon": 0.0}, {"lat": 38.83674716666667, "is_disabled": 0, "type": "electric_scooter", "lon": -77.005695, "bike_id": "abe91b742a5844660f25cff411f6a6e9", "fusion_lat": 0.0, "name": "abe91b742a5844660f25cff411f6a6e9", "is_reserved": 0, "rental_uris": {"android": "https://dc.lft.to/lastmile_qr_scan", "ios": "https://dc.lft.to/lastmile_qr_scan"}, "fusion_lon": 0.0}, {"lat": 38.9086585, "is_disabled": 0, "type": "electric_scooter", "lon": -77.04589066666666, "bike_id": "057ce4f88032f920df65305a26d4d38b", "fusion_lat": 0.0, "name": "057ce4f88032f920df65305a26d4d38b", "is_reserved": 0, "rental_uris": {"android": "https://dc.lft.to/lastmile_qr_scan", "ios": "https://dc.lft.to/lastmile_qr_scan"}, "fusion_lon": 0.0}, {"lat": 38.907489166666664, "is_disabled": 0, "type": "electric_scooter", "lon": -77.03462666666667, "bike_id": "e437ddb6a3404d5d0d026a1591570426", "fusion_lat": 0.0, "name": "e437ddb6a3404d5d0d026a1591570426", "is_reserved": 0, "rental_uris": {"android": "https://dc.lft.to/lastmile_qr_scan", "ios": "https://dc.lft.to/lastmile_qr_scan"}, "fusion_lon": 0.0}, {"lat": 38.90850983333333, "is_disabled": 0, "type": "electric_scooter", "lon": -77.04766783333334, "bike_id": "f53ff24d8ac2e779a98db85d745edcc3", "fusion_lat": 0.0, "name": "f53ff24d8ac2e779a98db85d745edcc3", "is_reserved": 0, "rental_uris": {"android": "https://dc.lft.to/lastmile_qr_scan", "ios": "https://dc.lft.to/lastmile_qr_scan"}, "fusion_lon": 0.0}, {"lat": 38.91814933333333, "is_disabled": 0, "type": "electric_scooter", "lon": -77.02474316666667, "bike_id": "95ef04b28dc78345b1b6557a3779d9db", "fusion_lat": 0.0, "name": "95ef04b28dc78345b1b6557a3779d9db", "is_reserved": 0, "rental_uris": {"android": "https://dc.lft.to/lastmile_qr_scan", "ios": "https://dc.lft.to/lastmile_qr_scan"}, "fusion_lon": 0.0}, {"lat": 38.870118166666664, "is_disabled": 0, "type": "electric_bike", "lon": -76.96016933333334, "bike_id": "eaebe5b723991b134d846dbf2f386ab3", "fusion_lat": 0.0, "name": "eaebe5b723991b134d846dbf2f386ab3", "is_reserved": 0, "rental_uris": {"android": "https://dc.lft.to/lastmile_qr_scan", "ios": "https://dc.lft.to/lastmile_qr_scan"}, "fusion_lon": 0.0}, {"lat": 38.89989966666667, "is_disabled": 0, "type": "electric_scooter", "lon": -76.99482333333333, "bike_id": "65afa0b8ba03a448621ba27f8082e1b3", "fusion_lat": 0.0, "name": "65afa0b8ba03a448621ba27f8082e1b3", "is_reserved": 0, "rental_uris": {"android": "https://dc.lft.to/lastmile_qr_scan", "ios": "https://dc.lft.to/lastmile_qr_scan"}, "fusion_lon": 0.0}, {"lat": 38.9004515, "is_disabled": 0, "type": "electric_scooter", "lon": -77.00199866666667, "bike_id": "fd093cb39cb363812d8991304eee0cd3", "fusion_lat": 0.0, "name": "fd093cb39cb363812d8991304eee0cd3", "is_reserved": 0, "rental_uris": {"android": "https://dc.lft.to/lastmile_qr_scan", "ios": "https://dc.lft.to/lastmile_qr_scan"}, "fusion_lon": 0.0}, {"lat": 38.90526533333333, "is_disabled": 0, "type": "electric_scooter", "lon": -77.062368, "bike_id": "6e76bc324cac5e0dcd24961431dc5a55", "fusion_lat": 0.0, "name": "6e76bc324cac5e0dcd24961431dc5a55", "is_reserved": 0, "rental_uris": {"android": "https://dc.lft.to/lastmile_qr_scan", "ios": "https://dc.lft.to/lastmile_qr_scan"}, "fusion_lon": 0.0}, {"lat": 38.90605516666667, "is_disabled": 0, "type": "electric_scooter", "lon": -76.98976933333333, "bike_id": "9e945d38f93cf7ac70f35320108e57bd", "fusion_lat": 0.0, "name": "9e945d38f93cf7ac70f35320108e57bd", "is_reserved": 0, "rental_uris": {"android": "https://dc.lft.to/lastmile_qr_scan", "ios": "https://dc.lft.to/lastmile_qr_scan"}, "fusion_lon": 0.0}, {"lat": 38.859280166666665, "is_disabled": 0, "type": "electric_scooter", "lon": -76.99715316666666, "bike_id": "2534450cb0e8a5ad7ccd4ec769de04ca", "fusion_lat": 0.0, "name": "2534450cb0e8a5ad7ccd4ec769de04ca", "is_reserved": 0, "rental_uris": {"android": "https://dc.lft.to/lastmile_qr_scan", "ios": "https://dc.lft.to/lastmile_qr_scan"}, "fusion_lon": 0.0}, {"lat": 38.86520216666667, "is_disabled": 0, "type": "electric_scooter", "lon": -76.9903165, "bike_id": "8c762191c1d2bf047a6fbbeb4e2fea3d", "fusion_lat": 0.0, "name": "8c762191c1d2bf047a6fbbeb4e2fea3d", "is_reserved": 0, "rental_uris": {"android": "https://dc.lft.to/lastmile_qr_scan", "ios": "https://dc.lft.to/lastmile_qr_scan"}, "fusion_lon": 0.0}, {"lat": 38.901057333333334, "is_disabled": 0, "type": "electric_scooter", "lon": -77.0316575, "bike_id": "8d0f6e76aa38a0b403716593d13ff145", "fusion_lat": 0.0, "name": "8d0f6e76aa38a0b403716593d13ff145", "is_reserved": 0, "rental_uris": {"android": "https://dc.lft.to/lastmile_qr_scan", "ios": "https://dc.lft.to/lastmile_qr_scan"}, "fusion_lon": 0.0}, {"lat": 38.934419, "is_disabled": 0, "type": "electric_scooter", "lon": -77.03088783333334, "bike_id": "c86cd4c3a9a2f3cea0e08748039f37e3", "fusion_lat": 0.0, "name": "c86cd4c3a9a2f3cea0e08748039f37e3", "is_reserved": 0, "rental_uris": {"android": "https://dc.lft.to/lastmile_qr_scan", "ios": "https://dc.lft.to/lastmile_qr_scan"}, "fusion_lon": 0.0}, {"lat": 38.929639333333334, "is_disabled": 0, "type": "electric_scooter", "lon": -77.03183933333334, "bike_id": "b6bfa6aab260721946bb7198a730654b", "fusion_lat": 0.0, "name": "b6bfa6aab260721946bb7198a730654b", "is_reserved": 0, "rental_uris": {"android": "https://dc.lft.to/lastmile_qr_scan", "ios": "https://dc.lft.to/lastmile_qr_scan"}, "fusion_lon": 0.0}, {"lat": 38.909654, "is_disabled": 0, "type": "electric_scooter", "lon": -77.048244, "bike_id": "b622a9076171a8e2c5f82eedc8dc6918", "fusion_lat": 0.0, "name": "b622a9076171a8e2c5f82eedc8dc6918", "is_reserved": 0, "rental_uris": {"android": "https://dc.lft.to/lastmile_qr_scan", "ios": "https://dc.lft.to/lastmile_qr_scan"}, "fusion_lon": 0.0}, {"lat": 38.903539, "is_disabled": 0, "type": "electric_scooter", "lon": -77.04218616666667, "bike_id": "47bf6668e55a73a82e1c7d433ecc18b8", "fusion_lat": 0.0, "name": "47bf6668e55a73a82e1c7d433ecc18b8", "is_reserved": 0, "rental_uris": {"android": "https://dc.lft.to/lastmile_qr_scan", "ios": "https://dc.lft.to/lastmile_qr_scan"}, "fusion_lon": 0.0}, {"lat": 38.87627, "is_disabled": 0, "type": "electric_scooter", "lon": -76.96523183333333, "bike_id": "211b4ed645fa68d96d9d6873bb32de56", "fusion_lat": 0.0, "name": "211b4ed645fa68d96d9d6873bb32de56", "is_reserved": 0, "rental_uris": {"android": "https://dc.lft.to/lastmile_qr_scan", "ios": "https://dc.lft.to/lastmile_qr_scan"}, "fusion_lon": 0.0}, {"lat": 38.869967833333334, "is_disabled": 0, "type": "electric_bike", "lon": -77.06564083333333, "bike_id": "bf830a01fbad9a5bf327e5bde5630819", "fusion_lat": 0.0, "name": "bf830a01fbad9a5bf327e5bde5630819", "is_reserved": 0, "rental_uris": {"android": "https://dc.lft.to/lastmile_qr_scan", "ios": "https://dc.lft.to/lastmile_qr_scan"}, "fusion_lon": 0.0}, {"lat": 38.924129, "is_disabled": 0, "type": "electric_scooter", "lon": -77.02737683333334, "bike_id": "6a4825b0215622281480412573493854", "fusion_lat": 0.0, "name": "6a4825b0215622281480412573493854", "is_reserved": 0, "rental_uris": {"android": "https://dc.lft.to/lastmile_qr_scan", "ios": "https://dc.lft.to/lastmile_qr_scan"}, "fusion_lon": 0.0}, {"lat": 38.894034, "is_disabled": 0, "type": "electric_scooter", "lon": -76.98666433333334, "bike_id": "fdf538af07b288c8d4a007c3697d9753", "fusion_lat": 0.0, "name": "fdf538af07b288c8d4a007c3697d9753", "is_reserved": 0, "rental_uris": {"android": "https://dc.lft.to/lastmile_qr_scan", "ios": "https://dc.lft.to/lastmile_qr_scan"}, "fusion_lon": 0.0}, {"lat": 38.93293533333333, "is_disabled": 0, "type": "electric_scooter", "lon": -77.02195366666666, "bike_id": "d877b09cdffced8d4c7594236d1b0124", "fusion_lat": 0.0, "name": "d877b09cdffced8d4c7594236d1b0124", "is_reserved": 0, "rental_uris": {"android": "https://dc.lft.to/lastmile_qr_scan", "ios": "https://dc.lft.to/lastmile_qr_scan"}, "fusion_lon": 0.0}, {"lat": 38.90352216666667, "is_disabled": 0, "type": "electric_scooter", "lon": -77.04470016666667, "bike_id": "75e27fa118d1177bf197c26bb4d9f7a0", "fusion_lat": 0.0, "name": "75e27fa118d1177bf197c26bb4d9f7a0", "is_reserved": 0, "rental_uris": {"android": "https://dc.lft.to/lastmile_qr_scan", "ios": "https://dc.lft.to/lastmile_qr_scan"}, "fusion_lon": 0.0}, {"lat": 38.92298233333333, "is_disabled": 0, "type": "electric_scooter", "lon": -77.02328333333334, "bike_id": "a7f2c98d2f64d914151bad57c1a33996", "fusion_lat": 0.0, "name": "a7f2c98d2f64d914151bad57c1a33996", "is_reserved": 0, "rental_uris": {"android": "https://dc.lft.to/lastmile_qr_scan", "ios": "https://dc.lft.to/lastmile_qr_scan"}, "fusion_lon": 0.0}, {"lat": 38.90253533333333, "is_disabled": 0, "type": "electric_scooter", "lon": -77.03221466666666, "bike_id": "3c6c26bfb4f6c05cc608b9352b373abf", "fusion_lat": 0.0, "name": "3c6c26bfb4f6c05cc608b9352b373abf", "is_reserved": 0, "rental_uris": {"android": "https://dc.lft.to/lastmile_qr_scan", "ios": "https://dc.lft.to/lastmile_qr_scan"}, "fusion_lon": 0.0}, {"lat": 38.898926833333334, "is_disabled": 0, "type": "electric_scooter", "lon": -77.07229533333333, "bike_id": "2e9693b9207e2d868354249be214bbeb", "fusion_lat": 0.0, "name": "2e9693b9207e2d868354249be214bbeb", "is_reserved": 0, "rental_uris": {"android": "https://dc.lft.to/lastmile_qr_scan", "ios": "https://dc.lft.to/lastmile_qr_scan"}, "fusion_lon": 0.0}, {"lat": 38.93981266666667, "is_disabled": 0, "type": "electric_scooter", "lon": -77.02627216666667, "bike_id": "d73053347f9cede86559ba152421ea31", "fusion_lat": 0.0, "name": "d73053347f9cede86559ba152421ea31", "is_reserved": 0, "rental_uris": {"android": "https://dc.lft.to/lastmile_qr_scan", "ios": "https://dc.lft.to/lastmile_qr_scan"}, "fusion_lon": 0.0}, {"lat": 38.912440333333336, "is_disabled": 0, "type": "electric_scooter", "lon": -77.046591, "bike_id": "1bc360717677deccceebf65deb657b2b", "fusion_lat": 0.0, "name": "1bc360717677deccceebf65deb657b2b", "is_reserved": 0, "rental_uris": {"android": "https://dc.lft.to/lastmile_qr_scan", "ios": "https://dc.lft.to/lastmile_qr_scan"}, "fusion_lon": 0.0}, {"lat": 38.90105633333334, "is_disabled": 0, "type": "electric_scooter", "lon": -77.05893933333333, "bike_id": "bbe3d6b47b671ba4cc4ee2dacbde4bda", "fusion_lat": 0.0, "name": "bbe3d6b47b671ba4cc4ee2dacbde4bda", "is_reserved": 0, "rental_uris": {"android": "https://dc.lft.to/lastmile_qr_scan", "ios": "https://dc.lft.to/lastmile_qr_scan"}, "fusion_lon": 0.0}, {"lat": 38.944444833333336, "is_disabled": 0, "type": "electric_scooter", "lon": -77.06244933333333, "bike_id": "39f8b0c57718595753e62c6d73376a28", "fusion_lat": 0.0, "name": "39f8b0c57718595753e62c6d73376a28", "is_reserved": 0, "rental_uris": {"android": "https://dc.lft.to/lastmile_qr_scan", "ios": "https://dc.lft.to/lastmile_qr_scan"}, "fusion_lon": 0.0}, {"lat": 38.89647433333333, "is_disabled": 0, "type": "electric_scooter", "lon": -77.02420116666667, "bike_id": "866b2c23f9717306594ee100970f2111", "fusion_lat": 0.0, "name": "866b2c23f9717306594ee100970f2111", "is_reserved": 0, "rental_uris": {"android": "https://dc.lft.to/lastmile_qr_scan", "ios": "https://dc.lft.to/lastmile_qr_scan"}, "fusion_lon": 0.0}, {"lat": 38.92624683333333, "is_disabled": 0, "type": "electric_scooter", "lon": -77.04191583333333, "bike_id": "0be2e473bfc128133b0921d4353514e1", "fusion_lat": 0.0, "name": "0be2e473bfc128133b0921d4353514e1", "is_reserved": 0, "rental_uris": {"android": "https://dc.lft.to/lastmile_qr_scan", "ios": "https://dc.lft.to/lastmile_qr_scan"}, "fusion_lon": 0.0}, {"lat": 38.92028333333333, "is_disabled": 0, "type": "electric_scooter", "lon": -77.01320383333334, "bike_id": "ec6124890c9511ffc8e85ef441a912d2", "fusion_lat": 0.0, "name": "ec6124890c9511ffc8e85ef441a912d2", "is_reserved": 0, "rental_uris": {"android": "https://dc.lft.to/lastmile_qr_scan", "ios": "https://dc.lft.to/lastmile_qr_scan"}, "fusion_lon": 0.0}, {"lat": 38.8962345, "is_disabled": 0, "type": "electric_scooter", "lon": -77.044752, "bike_id": "c1af606f8e36a96820f8bf00ad1f657b", "fusion_lat": 0.0, "name": "c1af606f8e36a96820f8bf00ad1f657b", "is_reserved": 0, "rental_uris": {"android": "https://dc.lft.to/lastmile_qr_scan", "ios": "https://dc.lft.to/lastmile_qr_scan"}, "fusion_lon": 0.0}, {"lat": 38.9360145, "is_disabled": 0, "type": "electric_scooter", "lon": -77.0317405, "bike_id": "f5e5b7986e63ff3ced94b9315442bff2", "fusion_lat": 0.0, "name": "f5e5b7986e63ff3ced94b9315442bff2", "is_reserved": 0, "rental_uris": {"android": "https://dc.lft.to/lastmile_qr_scan", "ios": "https://dc.lft.to/lastmile_qr_scan"}, "fusion_lon": 0.0}, {"lat": 38.894944, "is_disabled": 0, "type": "electric_scooter", "lon": -77.002017, "bike_id": "1af09953c3bc788c9814d59761ef97c9", "fusion_lat": 0.0, "name": "1af09953c3bc788c9814d59761ef97c9", "is_reserved": 0, "rental_uris": {"android": "https://dc.lft.to/lastmile_qr_scan", "ios": "https://dc.lft.to/lastmile_qr_scan"}, "fusion_lon": 0.0}, {"lat": 38.921103, "is_disabled": 0, "type": "electric_scooter", "lon": -76.9941665, "bike_id": "3ccb11190f14631e703abc97a31095d4", "fusion_lat": 0.0, "name": "3ccb11190f14631e703abc97a31095d4", "is_reserved": 0, "rental_uris": {"android": "https://dc.lft.to/lastmile_qr_scan", "ios": "https://dc.lft.to/lastmile_qr_scan"}, "fusion_lon": 0.0}, {"lat": 38.950752, "is_disabled": 0, "type": "electric_scooter", "lon": -77.0271535, "bike_id": "a8fb9c0f1951723027ad8caf6cd5f11a", "fusion_lat": 0.0, "name": "a8fb9c0f1951723027ad8caf6cd5f11a", "is_reserved": 0, "rental_uris": {"android": "https://dc.lft.to/lastmile_qr_scan", "ios": "https://dc.lft.to/lastmile_qr_scan"}, "fusion_lon": 0.0}, {"lat": 38.92667316666667, "is_disabled": 0, "type": "electric_scooter", "lon": -77.01464083333333, "bike_id": "aa3671db26a94129128a76ceadda35da", "fusion_lat": 0.0, "name": "aa3671db26a94129128a76ceadda35da", "is_reserved": 0, "rental_uris": {"android": "https://dc.lft.to/lastmile_qr_scan", "ios": "https://dc.lft.to/lastmile_qr_scan"}, "fusion_lon": 0.0}, {"lat": 38.918321666666664, "is_disabled": 0, "type": "electric_scooter", "lon": -77.03511933333333, "bike_id": "88f7eba5c8132f575bbd982b05670910", "fusion_lat": 0.0, "name": "88f7eba5c8132f575bbd982b05670910", "is_reserved": 0, "rental_uris": {"android": "https://dc.lft.to/lastmile_qr_scan", "ios": "https://dc.lft.to/lastmile_qr_scan"}, "fusion_lon": 0.0}, {"lat": 38.92578016666667, "is_disabled": 0, "type": "electric_scooter", "lon": -77.0576385, "bike_id": "198c6b6735da88492c5deb74ecc4df7b", "fusion_lat": 0.0, "name": "198c6b6735da88492c5deb74ecc4df7b", "is_reserved": 0, "rental_uris": {"android": "https://dc.lft.to/lastmile_qr_scan", "ios": "https://dc.lft.to/lastmile_qr_scan"}, "fusion_lon": 0.0}, {"lat": 38.88650533333333, "is_disabled": 0, "type": "electric_scooter", "lon": -77.02151633333334, "bike_id": "e3e7acd381e1c0bf8e6987471036383d", "fusion_lat": 0.0, "name": "e3e7acd381e1c0bf8e6987471036383d", "is_reserved": 0, "rental_uris": {"android": "https://dc.lft.to/lastmile_qr_scan", "ios": "https://dc.lft.to/lastmile_qr_scan"}, "fusion_lon": 0.0}, {"lat": 38.895200333333335, "is_disabled": 0, "type": "electric_scooter", "lon": -77.00741366666666, "bike_id": "e0ead1f4da39f31430b456c7ae00225d", "fusion_lat": 0.0, "name": "e0ead1f4da39f31430b456c7ae00225d", "is_reserved": 0, "rental_uris": {"android": "https://dc.lft.to/lastmile_qr_scan", "ios": "https://dc.lft.to/lastmile_qr_scan"}, "fusion_lon": 0.0}, {"lat": 38.915611, "is_disabled": 0, "type": "electric_scooter", "lon": -77.03662883333334, "bike_id": "b67f405e5dbe2c87ab33184df277d50a", "fusion_lat": 0.0, "name": "b67f405e5dbe2c87ab33184df277d50a", "is_reserved": 0, "rental_uris": {"android": "https://dc.lft.to/lastmile_qr_scan", "ios": "https://dc.lft.to/lastmile_qr_scan"}, "fusion_lon": 0.0}, {"lat": 38.91301466666667, "is_disabled": 0, "type": "electric_scooter", "lon": -77.01949566666667, "bike_id": "f478347af955dbc520f3948ebbfd9f5b", "fusion_lat": 0.0, "name": "f478347af955dbc520f3948ebbfd9f5b", "is_reserved": 0, "rental_uris": {"android": "https://dc.lft.to/lastmile_qr_scan", "ios": "https://dc.lft.to/lastmile_qr_scan"}, "fusion_lon": 0.0}, {"lat": 38.909948666666665, "is_disabled": 0, "type": "electric_scooter", "lon": -77.03179683333333, "bike_id": "764e9d93b6afe3510237966ecb3ab689", "fusion_lat": 0.0, "name": "764e9d93b6afe3510237966ecb3ab689", "is_reserved": 0, "rental_uris": {"android": "https://dc.lft.to/lastmile_qr_scan", "ios": "https://dc.lft.to/lastmile_qr_scan"}, "fusion_lon": 0.0}, {"lat": 38.91250483333334, "is_disabled": 0, "type": "electric_scooter", "lon": -77.01989466666667, "bike_id": "3b3c854f04a8529eadff978447621e7d", "fusion_lat": 0.0, "name": "3b3c854f04a8529eadff978447621e7d", "is_reserved": 0, "rental_uris": {"android": "https://dc.lft.to/lastmile_qr_scan", "ios": "https://dc.lft.to/lastmile_qr_scan"},