{"data": {"bikes": [{"is_reserved": 0, "type": "electric_scooter", "fusion_lat": 0.0, "is_disabled": 0, "rental_uris": {"ios": "https://dc.lft.to/lastmile_qr_scan", "android": "https://dc.lft.to/lastmile_qr_scan"}, "bike_id": "383ee049ede4d4118b91c3f4ef7d360e", "lat": 38.923922833333336, "name": "383ee049ede4d4118b91c3f4ef7d360e", "lon": -77.02610666666666, "fusion_lon": 0.0}, {"is_reserved": 0, "type": "electric_scooter", "fusion_lat": 0.0, "is_disabled": 0, "rental_uris": {"ios": "https://dc.lft.to/lastmile_qr_scan", "android": "https://dc.lft.to/lastmile_qr_scan"}, "bike_id": "5a26ba70ff16b0d04965df648f9f5e47", "lat": 38.9353175, "name": "5a26ba70ff16b0d04965df648f9f5e47", "lon": -77.02351466666667, "fusion_lon": 0.0}, {"is_reserved": 0, "type": "electric_scooter", "fusion_lat": 0.0, "is_disabled": 0, "rental_uris": {"ios": "https://dc.lft.to/lastmile_qr_scan", "android": "https://dc.lft.to/lastmile_qr_scan"}, "bike_id": "c41a1f08197d5f66d273f792d050964f", "lat": 38.92974133333333, "name": "c41a1f08197d5f66d273f792d050964f", "lon": -77.0318235, "fusion_lon": 0.0}, {"is_reserved": 0, "type": "electric_bike", "fusion_lat": 0.0, "is_disabled": 0, "rental_uris": {"ios": "https://dc.lft.to/lastmile_qr_scan", "android": "https://dc.lft.to/lastmile_qr_scan"}, "bike_id": "b09d774e63fcbd2c44812ff31c65a1dc", "lat": 38.92437016666667, "name": "b09d774e63fcbd2c44812ff31c65a1dc", "lon": -77.02499883333333, "fusion_lon": 0.0}, {"is_reserved": 0, "type": "electric_scooter", "fusion_lat": 0.0, "is_disabled": 0, "rental_uris": {"ios": "https://dc.lft.to/lastmile_qr_scan", "android": "https://dc.lft.to/lastmile_qr_scan"}, "bike_id": "206f9cd94ccc278ce120f57cd87aa087", "lat": 38.8804365, "name": "206f9cd94ccc278ce120f57cd87aa087", "lon": -76.9272565, "fusion_lon": 0.0}, {"is_reserved": 0, "type": "electric_scooter", "fusion_lat": 0.0, "is_disabled": 0, "rental_uris": {"ios": "https://dc.lft.to/lastmile_qr_scan", "android": "https://dc.lft.to/lastmile_qr_scan"}, "bike_id": "d08d4ec560508efb41b1621469c886b5", "lat": 38.90268616666667, "name": "d08d4ec560508efb41b1621469c886b5", "lon": -77.027856, "fusion_lon": 0.0}, {"is_reserved": 0, "type": "electric_scooter", "fusion_lat": 0.0, "is_disabled": 0, "rental_uris": {"ios": "https://dc.lft.to/lastmile_qr_scan", "android": "https://dc.lft.to/lastmile_qr_scan"}, "bike_id": "f183eea2601abc07bf020bbb1750ab04", "lat": 38.94173166666667, "name": "f183eea2601abc07bf020bbb1750ab04", "lon": -77.02538383333334, "fusion_lon": 0.0}, {"is_reserved": 0, "type": "electric_scooter", "fusion_lat": 0.0, "is_disabled": 0, "rental_uris": {"ios": "https://dc.lft.to/lastmile_qr_scan", "android": "https://dc.lft.to/lastmile_qr_scan"}, "bike_id": "08c0044e61c4cb599de25d593a7e2164", "lat": 38.90689233333333, "name": "08c0044e61c4cb599de25d593a7e2164", "lon": -77.02719016666667, "fusion_lon": 0.0}, {"is_reserved": 0, "type": "electric_scooter", "fusion_lat": 0.0, "is_disabled": 0, "rental_uris": {"ios": "https://dc.lft.to/lastmile_qr_scan", "android": "https://dc.lft.to/lastmile_qr_scan"}, "bike_id": "a7cc171320384a8e8a5e2a44a57c8686", "lat": 38.909649333333334, "name": "a7cc171320384a8e8a5e2a44a57c8686", "lon": -77.04848633333333, "fusion_lon": 0.0}, {"is_reserved": 0, "type": "electric_scooter", "fusion_lat": 0.0, "is_disabled": 0, "rental_uris": {"ios": "https://dc.lft.to/lastmile_qr_scan", "android": "https://dc.lft.to/lastmile_qr_scan"}, "bike_id": "28064cc37f665b8f8d880158143950bd", "lat": 38.916412666666666, "name": "28064cc37f665b8f8d880158143950bd", "lon": -77.045248, "fusion_lon": 0.0}, {"is_reserved": 0, "type": "electric_scooter", "fusion_lat": 0.0, "is_disabled": 0, "rental_uris": {"ios": "https://dc.lft.to/lastmile_qr_scan", "android": "https://dc.lft.to/lastmile_qr_scan"}, "bike_id": "db92200a4c54e2bd7c63a8db09528276", "lat": 38.91478333333333, "name": "db92200a4c54e2bd7c63a8db09528276", "lon": -77.01454733333334, "fusion_lon": 0.0}, {"is_reserved": 0, "type": "electric_scooter", "fusion_lat": 0.0, "is_disabled": 0, "rental_uris": {"ios": "https://dc.lft.to/lastmile_qr_scan", "android": "https://dc.lft.to/lastmile_qr_scan"}, "bike_id": "da77df4a15e737febf70632a007513e3", "lat": 38.89907916666667, "name": "da77df4a15e737febf70632a007513e3", "lon": -76.93389883333333, "fusion_lon": 0.0}, {"is_reserved": 0, "type": "electric_bike", "fusion_lat": 0.0, "is_disabled": 0, "rental_uris": {"ios": "https://dc.lft.to/lastmile_qr_scan", "android": "https://dc.lft.to/lastmile_qr_scan"}, "bike_id": "2a9f9ac99be0e08452a96a27490f430b", "lat": 38.829315666666666, "name": "2a9f9ac99be0e08452a96a27490f430b", "lon": -77.06881566666667, "fusion_lon": 0.0}, {"is_reserved": 0, "type": "electric_scooter", "fusion_lat": 0.0, "is_disabled": 0, "rental_uris": {"ios": "https://dc.lft.to/lastmile_qr_scan", "android": "https://dc.lft.to/lastmile_qr_scan"}, "bike_id": "a2da702d32bf1886ac39fb04eb8d185c", "lat": 38.9028155, "name": "a2da702d32bf1886ac39fb04eb8d185c", "lon": -77.04081066666667, "fusion_lon": 0.0}, {"is_reserved": 0, "type": "electric_scooter", "fusion_lat": 0.0, "is_disabled": 0, "rental_uris": {"ios": "https://dc.lft.to/lastmile_qr_scan", "android": "https://dc.lft.to/lastmile_qr_scan"}, "bike_id": "6f0138331e7f6bcefa4912ac39d54900", "lat": 38.92844066666667, "name": "6f0138331e7f6bcefa4912ac39d54900", "lon": -77.03288983333333, "fusion_lon": 0.0}, {"is_reserved": 0, "type": "electric_scooter", "fusion_lat": 0.0, "is_disabled": 0, "rental_uris": {"ios": "https://dc.lft.to/lastmile_qr_scan", "android": "https://dc.lft.to/lastmile_qr_scan"}, "bike_id": "11a36210fec5c46492d9bcd3d1056325", "lat": 38.96497516666667, "name": "11a36210fec5c46492d9bcd3d1056325", "lon": -77.06283783333333, "fusion_lon": 0.0}, {"is_reserved": 0, "type": "electric_bike", "fusion_lat": 0.0, "is_disabled": 0, "rental_uris": {"ios": "https://dc.lft.to/lastmile_qr_scan", "android": "https://dc.lft.to/lastmile_qr_scan"}, "bike_id": "8a512bc4815685c752cff2f806c693a3", "lat": 38.9384255, "name": "8a512bc4815685c752cff2f806c693a3", "lon": -76.94336116666666, "fusion_lon": 0.0}, {"is_reserved": 0, "type": "electric_scooter", "fusion_lat": 0.0, "is_disabled": 0, "rental_uris": {"ios": "https://dc.lft.to/lastmile_qr_scan", "android": "https://dc.lft.to/lastmile_qr_scan"}, "bike_id": "51994ffdc79fa156780e2562a22f94a5", "lat": 38.88413383333334, "name": "51994ffdc79fa156780e2562a22f94a5", "lon": -77.029824, "fusion_lon": 0.0}, {"is_reserved": 0, "type": "electric_scooter", "fusion_lat": 0.0, "is_disabled": 0, "rental_uris": {"ios": "https://dc.lft.to/lastmile_qr_scan", "android": "https://dc.lft.to/lastmile_qr_scan"}, "bike_id": "4230959f07ca8bb0e2b7ed5a9c85a3c0", "lat": 38.917586666666665, "name": "4230959f07ca8bb0e2b7ed5a9c85a3c0", "lon": -77.047562, "fusion_lon": 0.0}, {"is_reserved": 0, "type": "electric_scooter", "fusion_lat": 0.0, "is_disabled": 0, "rental_uris": {"ios": "https://dc.lft.to/lastmile_qr_scan", "android": "https://dc.lft.to/lastmile_qr_scan"}, "bike_id": "6e231b28da68b05c37be00cfe261a6c7", "lat": 38.90755333333333, "name": "6e231b28da68b05c37be00cfe261a6c7", "lon": -77.01903116666666, "fusion_lon": 0.0}, {"is_reserved": 0, "type": "electric_scooter", "fusion_lat": 0.0, "is_disabled": 0, "rental_uris": {"ios": "https://dc.lft.to/lastmile_qr_scan", "android": "https://dc.lft.to/lastmile_qr_scan"}, "bike_id": "f5ed468ae7a23f31546016311aab72c1", "lat": 38.917126833333334, "name": "f5ed468ae7a23f31546016311aab72c1", "lon": -77.03459683333334, "fusion_lon": 0.0}, {"is_reserved": 0, "type": "electric_scooter", "fusion_lat": 0.0, "is_disabled": 0, "rental_uris": {"ios": "https://dc.lft.to/lastmile_qr_scan", "android": "https://dc.lft.to/lastmile_qr_scan"}, "bike_id": "a2b8211acb27030282930bc0e155088c", "lat": 38.92357833333333, "name": "a2b8211acb27030282930bc0e155088c", "lon": -77.03309283333333, "fusion_lon": 0.0}, {"is_reserved": 0, "type": "electric_scooter", "fusion_lat": 0.0, "is_disabled": 0, "rental_uris": {"ios": "https://dc.lft.to/lastmile_qr_scan", "android": "https://dc.lft.to/lastmile_qr_scan"}, "bike_id": "89fa796ea752d964643d0146bca4018e", "lat": 38.902707166666666, "name": "89fa796ea752d964643d0146bca4018e", "lon": -77.0200795, "fusion_lon": 0.0}, {"is_reserved": 0, "type": "electric_scooter", "fusion_lat": 0.0, "is_disabled": 0, "rental_uris": {"ios": "https://dc.lft.to/lastmile_qr_scan", "android": "https://dc.lft.to/lastmile_qr_scan"}, "bike_id": "96c6c5c4c979ae36e1e06c1f55c3c280", "lat": 38.905668666666664, "name": "96c6c5c4c979ae36e1e06c1f55c3c280", "lon": -77.02981783333334, "fusion_lon": 0.0}, {"is_reserved": 0, "type": "electric_scooter", "fusion_lat": 0.0, "is_disabled": 0, "rental_uris": {"ios": "https://dc.lft.to/lastmile_qr_scan", "android": "https://dc.lft.to/lastmile_qr_scan"}, "bike_id": "18754900f8853ab41e3c92f1fe70281d", "lat": 38.90264166666667, "name": "18754900f8853ab41e3c92f1fe70281d", "lon": -77.04181016666666, "fusion_lon": 0.0}, {"is_reserved": 0, "type": "electric_scooter", "fusion_lat": 0.0, "is_disabled": 0, "rental_uris": {"ios": "https://dc.lft.to/lastmile_qr_scan", "android": "https://dc.lft.to/lastmile_qr_scan"}, "bike_id": "861ba41b83ef1bc3b253e973e197da90", "lat": 38.953779, "name": "861ba41b83ef1bc3b253e973e197da90", "lon": -77.00189, "fusion_lon": 0.0}, {"is_reserved": 0, "type": "electric_scooter", "fusion_lat": 0.0, "is_disabled": 0, "rental_uris": {"ios": "https://dc.lft.to/lastmile_qr_scan", "android": "https://dc.lft.to/lastmile_qr_scan"}, "bike_id": "dc5cb1235acd16b1f2bcf29942ce4e9b", "lat": 38.91357166666667, "name": "dc5cb1235acd16b1f2bcf29942ce4e9b", "lon": -77.04492966666666, "fusion_lon": 0.0}, {"is_reserved": 0, "type": "electric_scooter", "fusion_lat": 0.0, "is_disabled": 0, "rental_uris": {"ios": "https://dc.lft.to/lastmile_qr_scan", "android": "https://dc.lft.to/lastmile_qr_scan"}, "bike_id": "430eb14a8140138059579ff131afb431", "lat": 38.928759, "name": "430eb14a8140138059579ff131afb431", "lon": -77.03996733333334, "fusion_lon": 0.0}, {"is_reserved": 0, "type": "electric_scooter", "fusion_lat": 0.0, "is_disabled": 0, "rental_uris": {"ios": "https://dc.lft.to/lastmile_qr_scan", "android": "https://dc.lft.to/lastmile_qr_scan"}, "bike_id": "ea0377f02aef8abbfff9920969ed795d", "lat": 38.91268266666667, "name": "ea0377f02aef8abbfff9920969ed795d", "lon": -77.01437116666666, "fusion_lon": 0.0}, {"is_reserved": 0, "type": "electric_scooter", "fusion_lat": 0.0, "is_disabled": 0, "rental_uris": {"ios": "https://dc.lft.to/lastmile_qr_scan", "android": "https://dc.lft.to/lastmile_qr_scan"}, "bike_id": "44d6162c6e20b2747a13e5155776756d", "lat": 38.89331816666667, "name": "44d6162c6e20b2747a13e5155776756d", "lon": -77.02016133333333, "fusion_lon": 0.0}, {"is_reserved": 0, "type": "electric_scooter", "fusion_lat": 0.0, "is_disabled": 0, "rental_uris": {"ios": "https://dc.lft.to/lastmile_qr_scan", "android": "https://dc.lft.to/lastmile_qr_scan"}, "bike_id": "041403f50595626dd870995524cf7d21", "lat": 38.904791333333336, "name": "041403f50595626dd870995524cf7d21", "lon": -77.02725766666667, "fusion_lon": 0.0}, {"is_reserved": 0, "type": "electric_scooter", "fusion_lat": 0.0, "is_disabled": 0, "rental_uris": {"ios": "https://dc.lft.to/lastmile_qr_scan", "android": "https://dc.lft.to/lastmile_qr_scan"}, "bike_id": "8b4e4b34c06a02045935ab85c10025ed", "lat": 38.94445283333334, "name": "8b4e4b34c06a02045935ab85c10025ed", "lon": -77.032857, "fusion_lon": 0.0}, {"is_reserved": 0, "type": "electric_scooter", "fusion_lat": 0.0, "is_disabled": 0, "rental_uris": {"ios": "https://dc.lft.to/lastmile_qr_scan", "android": "https://dc.lft.to/lastmile_qr_scan"}, "bike_id": "c1ba5985ecad3fc565aa8cc810dc517e", "lat": 38.892256, "name": "c1ba5985ecad3fc565aa8cc810dc517e", "lon": -77.044885, "fusion_lon": 0.0}, {"is_reserved": 0, "type": "electric_bike", "fusion_lat": 0.0, "is_disabled": 0, "rental_uris": {"ios": "https://dc.lft.to/lastmile_qr_scan", "android": "https://dc.lft.to/lastmile_qr_scan"}, "bike_id": "c498f82844ad2b58a2c79391eab79dc9", "lat": 38.86821616666667, "name": "c498f82844ad2b58a2c79391eab79dc9", "lon": -76.980205, "fusion_lon": 0.0}, {"is_reserved": 0, "type": "electric_scooter", "fusion_lat": 0.0, "is_disabled": 0, "rental_uris": {"ios": "https://dc.lft.to/lastmile_qr_scan", "android": "https://dc.lft.to/lastmile_qr_scan"}, "bike_id": "8336a13210999dee806d95ebbd785cdd", "lat": 38.91240616666666, "name": "8336a13210999dee806d95ebbd785cdd", "lon": -77.038606, "fusion_lon": 0.0}, {"is_reserved": 0, "type": "electric_scooter", "fusion_lat": 0.0, "is_disabled": 0, "rental_uris": {"ios": "https://dc.lft.to/lastmile_qr_scan", "android": "https://dc.lft.to/lastmile_qr_scan"}, "bike_id": "18930b915b7ef4ca28e28595cfa3e497", "lat": 38.919548166666665, "name": "18930b915b7ef4ca28e28595cfa3e497", "lon": -77.02307333333333, "fusion_lon": 0.0}, {"is_reserved": 0, "type": "electric_scooter", "fusion_lat": 0.0, "is_disabled": 0, "rental_uris": {"ios": "https://dc.lft.to/lastmile_qr_scan", "android": "https://dc.lft.to/lastmile_qr_scan"}, "bike_id": "f93540c71324f153d7b49b0cd4ae6b0d", "lat": 38.951523, "name": "f93540c71324f153d7b49b0cd4ae6b0d", "lon": -77.01868483333334, "fusion_lon": 0.0}, {"is_reserved": 0, "type": "electric_scooter", "fusion_lat": 0.0, "is_disabled": 0, "rental_uris": {"ios": "https://dc.lft.to/lastmile_qr_scan", "android": "https://dc.lft.to/lastmile_qr_scan"}, "bike_id": "099ea3bede9df917556a9b7bb5e65ffb", "lat": 38.9036405, "name": "099ea3bede9df917556a9b7bb5e65ffb", "lon": -77.00988733333334, "fusion_lon": 0.0}, {"is_reserved": 0, "type": "electric_scooter", "fusion_lat": 0.0, "is_disabled": 0, "rental_uris": {"ios": "https://dc.lft.to/lastmile_qr_scan", "android": "https://dc.lft.to/lastmile_qr_scan"}, "bike_id": "952837eb00f23cb212037fbba9b50279", "lat": 38.916948166666664, "name": "952837eb00f23cb212037fbba9b50279", "lon": -77.03765066666666, "fusion_lon": 0.0}, {"is_reserved": 0, "type": "electric_scooter", "fusion_lat": 0.0, "is_disabled": 0, "rental_uris": {"ios": "https://dc.lft.to/lastmile_qr_scan", "android": "https://dc.lft.to/lastmile_qr_scan"}, "bike_id": "f25255316949e6aa2066285dfc870775", "lat": 38.9116315, "name": "f25255316949e6aa2066285dfc870775", "lon": -77.04481683333333, "fusion_lon": 0.0}, {"is_reserved": 0, "type": "electric_scooter", "fusion_lat": 0.0, "is_disabled": 0, "rental_uris": {"ios": "https://dc.lft.to/lastmile_qr_scan", "android": "https://dc.lft.to/lastmile_qr_scan"}, "bike_id": "bcc2ff97048c0a47ab9ce73256e51d2d", "lat": 38.90275533333333, "name": "bcc2ff97048c0a47ab9ce73256e51d2d", "lon": -77.01765366666666, "fusion_lon": 0.0}, {"is_reserved": 0, "type": "electric_bike", "fusion_lat": 0.0, "is_disabled": 0, "rental_uris": {"ios": "https://dc.lft.to/lastmile_qr_scan", "android": "https://dc.lft.to/lastmile_qr_scan"}, "bike_id": "a71485f58386b0ece5a7a5d20f8257de", "lat": 38.876678, "name": "a71485f58386b0ece5a7a5d20f8257de", "lon": -77.02093833333333, "fusion_lon": 0.0}, {"is_reserved": 0, "type": "electric_scooter", "fusion_lat": 0.0, "is_disabled": 0, "rental_uris": {"ios": "https://dc.lft.to/lastmile_qr_scan", "android": "https://dc.lft.to/lastmile_qr_scan"}, "bike_id": "1fa848218dba2a391d4163089921c538", "lat": 38.9243525, "name": "1fa848218dba2a391d4163089921c538", "lon": -77.04246333333333, "fusion_lon": 0.0}, {"is_reserved": 0, "type": "electric_scooter", "fusion_lat": 0.0, "is_disabled": 0, "rental_uris": {"ios": "https://dc.lft.to/lastmile_qr_scan", "android": "https://dc.lft.to/lastmile_qr_scan"}, "bike_id": "a465c77bd76bd5d2618d23352941a287", "lat": 38.870722666666666, "name": "a465c77bd76bd5d2618d23352941a287", "lon": -76.98131083333334, "fusion_lon": 0.0}, {"is_reserved": 0, "type": "electric_scooter", "fusion_lat": 0.0, "is_disabled": 0, "rental_uris": {"ios": "https://dc.lft.to/lastmile_qr_scan", "android": "https://dc.lft.to/lastmile_qr_scan"}, "bike_id": "d0c0948f0636db08bfcc2319ad9f81c0", "lat": 38.9303255, "name": "d0c0948f0636db08bfcc2319ad9f81c0", "lon": -77.06075733333333, "fusion_lon": 0.0}, {"is_reserved": 0, "type": "electric_scooter", "fusion_lat": 0.0, "is_disabled": 0, "rental_uris": {"ios": "https://dc.lft.to/lastmile_qr_scan", "android": "https://dc.lft.to/lastmile_qr_scan"}, "bike_id": "42461d039ca7fcb015799f3aabcd2d22", "lat": 38.914099666666665, "name": "42461d039ca7fcb015799f3aabcd2d22", "lon": -77.045098, "fusion_lon": 0.0}, {"is_reserved": 0, "type": "electric_scooter", "fusion_lat": 0.0, "is_disabled": 0, "rental_uris": {"ios": "https://dc.lft.to/lastmile_qr_scan", "android": "https://dc.lft.to/lastmile_qr_scan"}, "bike_id": "efc99c938611246eaa555dddaa038988", "lat": 38.908525, "name": "efc99c938611246eaa555dddaa038988", "lon": -77.02464416666666, "fusion_lon": 0.0}, {"is_reserved": 0, "type": "electric_scooter", "fusion_lat": 0.0, "is_disabled": 0, "rental_uris": {"ios": "https://dc.lft.to/lastmile_qr_scan", "android": "https://dc.lft.to/lastmile_qr_scan"}, "bike_id": "c19a516f62a3262ab35122291e172a17", "lat": 38.89482533333333, "name": "c19a516f62a3262ab35122291e172a17", "lon": -76.94870383333334, "fusion_lon": 0.0}, {"is_reserved": 0, "type": "electric_scooter", "fusion_lat": 0.0, "is_disabled": 0, "rental_uris": {"ios": "https://dc.lft.to/lastmile_qr_scan", "android": "https://dc.lft.to/lastmile_qr_scan"}, "bike_id": "8b6bd9c2badc4004362565850379bf4a", "lat": 38.893269333333336, "name": "8b6bd9c2badc4004362565850379bf4a", "lon": -76.93929583333333, "fusion_lon": 0.0}, {"is_reserved": 0, "type": "electric_scooter", "fusion_lat": 0.0, "is_disabled": 0, "rental_uris": {"ios": "https://dc.lft.to/lastmile_qr_scan", "android": "https://dc.lft.to/lastmile_qr_scan"}, "bike_id": "cd5a15718a77f77e3c3496627c0a6942", "lat": 38.917637166666665, "name": "cd5a15718a77f77e3c3496627c0a6942", "lon": -77.00457933333334, "fusion_lon": 0.0}, {"is_reserved": 0, "type": "electric_bike", "fusion_lat": 0.0, "is_disabled": 0, "rental_uris": {"ios": "https://dc.lft.to/lastmile_qr_scan", "android": "https://dc.lft.to/lastmile_qr_scan"}, "bike_id": "bffbb839dbbdcfc82647b58fb3d39855", "lat": 38.87580483333333, "name": "bffbb839dbbdcfc82647b58fb3d39855", "lon": -77.23411233333333, "fusion_lon": 0.0}, {"is_reserved": 0, "type": "electric_scooter", "fusion_lat": 0.0, "is_disabled": 0, "rental_uris": {"ios": "https://dc.lft.to/lastmile_qr_scan", "android": "https://dc.lft.to/lastmile_qr_scan"}, "bike_id": "192b9028f2921365073b7207a6cb40c2", "lat": 38.935302166666666, "name": "192b9028f2921365073b7207a6cb40c2", "lon": -77.034803, "fusion_lon": 0.0}, {"is_reserved": 0, "type": "electric_scooter", "fusion_lat": 0.0, "is_disabled": 0, "rental_uris": {"ios": "https://dc.lft.to/lastmile_qr_scan", "android": "https://dc.lft.to/lastmile_qr_scan"}, "bike_id": "d4353231571a8959773ee7dc0405a4f7", "lat": 38.8983305, "name": "d4353231571a8959773ee7dc0405a4f7", "lon": -76.9463185, "fusion_lon": 0.0}, {"is_reserved": 0, "type": "electric_bike", "fusion_lat": 0.0, "is_disabled": 0, "rental_uris": {"ios": "https://dc.lft.to/lastmile_qr_scan", "android": "https://dc.lft.to/lastmile_qr_scan"}, "bike_id": "d3c79c7a8248661c1e21ed0801c11791", "lat": 38.83068183333334, "name": "d3c79c7a8248661c1e21ed0801c11791", "lon": -77.04078766666666, "fusion_lon": 0.0}, {"is_reserved": 0, "type": "electric_scooter", "fusion_lat": 0.0, "is_disabled": 0, "rental_uris": {"ios": "https://dc.lft.to/lastmile_qr_scan", "android": "https://dc.lft.to/lastmile_qr_scan"}, "bike_id": "2216de8621a422c08619a2dc3ade51d4", "lat": 38.906530000000004, "name": "2216de8621a422c08619a2dc3ade51d4", "lon": -77.01847, "fusion_lon": 0.0}, {"is_reserved": 0, "type": "electric_scooter", "fusion_lat": 0.0, "is_disabled": 0, "rental_uris": {"ios": "https://dc.lft.to/lastmile_qr_scan", "android": "https://dc.lft.to/lastmile_qr_scan"}, "bike_id": "fd2bdc501eba96ae4c0412a1a9c11fd4", "lat": 38.89224733333333, "name": "fd2bdc501eba96ae4c0412a1a9c11fd4", "lon": -77.04483933333333, "fusion_lon": 0.0}, {"is_reserved": 0, "type": "electric_scooter", "fusion_lat": 0.0, "is_disabled": 0, "rental_uris": {"ios": "https://dc.lft.to/lastmile_qr_scan", "android": "https://dc.lft.to/lastmile_qr_scan"}, "bike_id": "c05e353633c8bdbb42a88c443de2ec61", "lat": 38.898609, "name": "c05e353633c8bdbb42a88c443de2ec61", "lon": -76.9464195, "fusion_lon": 0.0}, {"is_reserved": 0, "type": "electric_scooter", "fusion_lat": 0.0, "is_disabled": 0, "rental_uris": {"ios": "https://dc.lft.to/lastmile_qr_scan", "android": "https://dc.lft.to/lastmile_qr_scan"}, "bike_id": "7e4818657301d8bfbf45d0a71b8e0222", "lat": 38.935658833333335, "name": "7e4818657301d8bfbf45d0a71b8e0222", "lon": -77.0285835, "fusion_lon": 0.0}, {"is_reserved": 0, "type": "electric_scooter", "fusion_lat": 0.0, "is_disabled": 0, "rental_uris": {"ios": "https://dc.lft.to/lastmile_qr_scan", "android": "https://dc.lft.to/lastmile_qr_scan"}, "bike_id": "8287b9498e903ee32926a96f2b35bed1", "lat": 38.870694666666665, "name": "8287b9498e903ee32926a96f2b35bed1", "lon": -76.97949316666667, "fusion_lon": 0.0}, {"is_reserved": 0, "type": "electric_scooter", "fusion_lat": 0.0, "is_disabled": 0, "rental_uris": {"ios": "https://dc.lft.to/lastmile_qr_scan", "android": "https://dc.lft.to/lastmile_qr_scan"}, "bike_id": "742aafd825eb1715052c591dfea441f0", "lat": 38.903623, "name": "742aafd825eb1715052c591dfea441f0", "lon": -77.02598333333333, "fusion_lon": 0.0}, {"is_reserved": 0, "type": "electric_scooter", "fusion_lat": 0.0, "is_disabled": 0, "rental_uris": {"ios": "https://dc.lft.to/lastmile_qr_scan", "android": "https://dc.lft.to/lastmile_qr_scan"}, "bike_id": "4653c6e09b5c98cc7d4a5cdfe25efc44", "lat": 38.8967965, "name": "4653c6e09b5c98cc7d4a5cdfe25efc44", "lon": -77.05032966666667, "fusion_lon": 0.0}, {"is_reserved": 0, "type": "electric_bike", "fusion_lat": 0.0, "is_disabled": 0, "rental_uris": {"ios": "https://dc.lft.to/lastmile_qr_scan", "android": "https://dc.lft.to/lastmile_qr_scan"}, "bike_id": "314f30883766e22fabf4827a053a45ac", "lat": 39.003858666666666, "name": "314f30883766e22fabf4827a053a45ac", "lon": -77.01287616666667, "fusion_lon": 0.0}, {"is_reserved": 0, "type": "electric_scooter", "fusion_lat": 0.0, "is_disabled": 0, "rental_uris": {"ios": "https://dc.lft.to/lastmile_qr_scan", "android": "https://dc.lft.to/lastmile_qr_scan"}, "bike_id": "ed9a826cd1d84b1b043fb340622dd2c9", "lat": 38.89740666666667, "name": "ed9a826cd1d84b1b043fb340622dd2c9", "lon": -77.048182, "fusion_lon": 0.0}, {"is_reserved": 0, "type": "electric_scooter", "fusion_lat": 0.0, "is_disabled": 0, "rental_uris": {"ios": "https://dc.lft.to/lastmile_qr_scan", "android": "https://dc.lft.to/lastmile_qr_scan"}, "bike_id": "6613424c16a2e87e830d70bc9574e75d", "lat": 38.907488666666666, "name": "6613424c16a2e87e830d70bc9574e75d", "lon": -77.04493133333334, "fusion_lon": 0.0}, {"is_reserved": 0, "type": "electric_scooter", "fusion_lat": 0.0, "is_disabled": 0, "rental_uris": {"ios": "https://dc.lft.to/lastmile_qr_scan", "android": "https://dc.lft.to/lastmile_qr_scan"}, "bike_id": "20e4be2d0b6693f0c3e6af85ce8d4103", "lat": 38.92412183333333, "name": "20e4be2d0b6693f0c3e6af85ce8d4103", "lon": -77.03535216666667, "fusion_lon": 0.0}, {"is_reserved": 0, "type": "electric_scooter", "fusion_lat": 0.0, "is_disabled": 0, "rental_uris": {"ios": "https://dc.lft.to/lastmile_qr_scan", "android": "https://dc.lft.to/lastmile_qr_scan"}, "bike_id": "2ec9b3605ee8407a249edde4e7faf8c2", "lat": 38.921200166666665, "name": "2ec9b3605ee8407a249edde4e7faf8c2", "lon": -77.01213166666666, "fusion_lon": 0.0}, {"is_reserved": 0, "type": "electric_bike", "fusion_lat": 0.0, "is_disabled": 0, "rental_uris": {"ios": "https://dc.lft.to/lastmile_qr_scan", "android": "https://dc.lft.to/lastmile_qr_scan"}, "bike_id": "325dcfb6cbeae2ca485a2d664a4905e3", "lat": 38.916757833333335, "name": "325dcfb6cbeae2ca485a2d664a4905e3", "lon": -77.000491, "fusion_lon": 0.0}, {"is_reserved": 0, "type": "electric_scooter", "fusion_lat": 0.0, "is_disabled": 0, "rental_uris": {"ios": "https://dc.lft.to/lastmile_qr_scan", "android": "https://dc.lft.to/lastmile_qr_scan"}, "bike_id": "a226a8bc8b69edd9b5a8a29d7d6651eb", "lat": 38.9325585, "name": "a226a8bc8b69edd9b5a8a29d7d6651eb", "lon": -77.03287783333333, "fusion_lon": 0.0}, {"is_reserved": 0, "type": "electric_scooter", "fusion_lat": 0.0, "is_disabled": 0, "rental_uris": {"ios": "https://dc.lft.to/lastmile_qr_scan", "android": "https://dc.lft.to/lastmile_qr_scan"}, "bike_id": "8705926f075a349807ae77875cc7537b", "lat": 38.92996683333333, "name": "8705926f075a349807ae77875cc7537b", "lon": -77.02173033333334, "fusion_lon": 0.0}, {"is_reserved": 0, "type": "electric_scooter", "fusion_lat": 0.0, "is_disabled": 0, "rental_uris": {"ios": "https://dc.lft.to/lastmile_qr_scan", "android": "https://dc.lft.to/lastmile_qr_scan"}, "bike_id": "4e07025a4bfd2f80a8e68e27e93bfb7b", "lat": 38.923862666666665, "name": "4e07025a4bfd2f80a8e68e27e93bfb7b", "lon": -77.04092666666666, "fusion_lon": 0.0}, {"is_reserved": 0, "type": "electric_scooter", "fusion_lat": 0.0, "is_disabled": 0, "rental_uris": {"ios": "https://dc.lft.to/lastmile_qr_scan", "android": "https://dc.lft.to/lastmile_qr_scan"}, "bike_id": "b0f3cfcca3a380142184d7a820860e16", "lat": 38.92238666666667, "name": "b0f3cfcca3a380142184d7a820860e16", "lon": -77.03516366666666, "fusion_lon": 0.0}, {"is_reserved": 0, "type": "electric_scooter", "fusion_lat": 0.0, "is_disabled": 0, "rental_uris": {"ios": "https://dc.lft.to/lastmile_qr_scan", "android": "https://dc.lft.to/lastmile_qr_scan"}, "bike_id": "c7de7337f2d0d25b2b2109a05b38c283", "lat": 38.917229166666665, "name": "c7de7337f2d0d25b2b2109a05b38c283", "lon": -77.02611516666667, "fusion_lon": 0.0}, {"is_reserved": 0, "type": "electric_scooter", "fusion_lat": 0.0, "is_disabled": 0, "rental_uris": {"ios": "https://dc.lft.to/lastmile_qr_scan", "android": "https://dc.lft.to/lastmile_qr_scan"}, "bike_id": "3522578e23d50d70b783aae7ad663949", "lat": 38.90378833333333, "name": "3522578e23d50d70b783aae7ad663949", "lon": -77.04038916666667, "fusion_lon": 0.0}, {"is_reserved": 0, "type": "electric_scooter", "fusion_lat": 0.0, "is_disabled": 0, "rental_uris": {"ios": "https://dc.lft.to/lastmile_qr_scan", "android": "https://dc.lft.to/lastmile_qr_scan"}, "bike_id": "c8d68a878e25b90d6bf7bf574114b362", "lat": 38.91552016666667, "name": "c8d68a878e25b90d6bf7bf574114b362", "lon": -76.98503583333333, "fusion_lon": 0.0}, {"is_reserved": 0, "type": "electric_scooter", "fusion_lat": 0.0, "is_disabled": 0, "rental_uris": {"ios": "https://dc.lft.to/lastmile_qr_scan", "android": "https://dc.lft.to/lastmile_qr_scan"}, "bike_id": "606deb1ea3aa919d223797e96a9c09dc", "lat": 38.9081705, "name": "606deb1ea3aa919d223797e96a9c09dc", "lon": -77.08430966666667, "fusion_lon": 0.0}, {"is_reserved": 0, "type": "electric_scooter", "fusion_lat": 0.0, "is_disabled": 0, "rental_uris": {"ios": "https://dc.lft.to/lastmile_qr_scan", "android": "https://dc.lft.to/lastmile_qr_scan"}, "bike_id": "d45c3fd47196907811489d6634c54d5e", "lat": 38.9351455, "name": "d45c3fd47196907811489d6634c54d5e", "lon": -77.03676616666667, "fusion_lon": 0.0}, {"is_reserved": 0, "type": "electric_scooter", "fusion_lat": 0.0, "is_disabled": 0, "rental_uris": {"ios": "https://dc.lft.to/lastmile_qr_scan", "android": "https://dc.lft.to/lastmile_qr_scan"}, "bike_id": "54005488f98cd19ea64a073fa251f588", "lat": 38.9086245, "name": "54005488f98cd19ea64a073fa251f588", "lon": -77.026686, "fusion_lon": 0.0}, {"is_reserved": 0, "type": "electric_scooter", "fusion_lat": 0.0, "is_disabled": 0, "rental_uris": {"ios": "https://dc.lft.to/lastmile_qr_scan", "android": "https://dc.lft.to/lastmile_qr_scan"}, "bike_id": "2f679a769352cd2d6cd07a14f475256d", "lat": 38.919517666666664, "name": "2f679a769352cd2d6cd07a14f475256d", "lon": -77.07983, "fusion_lon": 0.0}, {"is_reserved": 0, "type": "electric_scooter", "fusion_lat": 0.0, "is_disabled": 0, "rental_uris": {"ios": "https://dc.lft.to/lastmile_qr_scan", "android": "https://dc.lft.to/lastmile_qr_scan"}, "bike_id": "7e7227cc90311d21e85b9a7acb2e1379", "lat": 38.93231016666667, "name": "7e7227cc90311d21e85b9a7acb2e1379", "lon": -77.0297195, "fusion_lon": 0.0}, {"is_reserved": 0, "type": "electric_scooter", "fusion_lat": 0.0, "is_disabled": 0, "rental_uris": {"ios": "https://dc.lft.to/lastmile_qr_scan", "android": "https://dc.lft.to/lastmile_qr_scan"}, "bike_id": "9525134153677b05637b642b00102b24", "lat": 38.924688833333335, "name": "9525134153677b05637b642b00102b24", "lon": -77.02219966666667, "fusion_lon": 0.0}, {"is_reserved": 0, "type": "electric_scooter", "fusion_lat": 0.0, "is_disabled": 0, "rental_uris": {"ios": "https://dc.lft.to/lastmile_qr_scan", "android": "https://dc.lft.to/lastmile_qr_scan"}, "bike_id": "ed6f9478e567fb8400b05b464d5ac75d", "lat": 38.88709433333333, "name": "ed6f9478e567fb8400b05b464d5ac75d", "lon": -76.9833925, "fusion_lon": 0.0}, {"is_reserved": 0, "type": "electric_scooter", "fusion_lat": 0.0, "is_disabled": 0, "rental_uris": {"ios": "https://dc.lft.to/lastmile_qr_scan", "android": "https://dc.lft.to/lastmile_qr_scan"}, "bike_id": "1e3b4dc03a91aacc327bfe36ac1cc27b", "lat": 38.9289595, "name": "1e3b4dc03a91aacc327bfe36ac1cc27b", "lon": -77.0274965, "fusion_lon": 0.0}, {"is_reserved": 0, "type": "electric_scooter", "fusion_lat": 0.0, "is_disabled": 0, "rental_uris": {"ios": "https://dc.lft.to/lastmile_qr_scan", "android": "https://dc.lft.to/lastmile_qr_scan"}, "bike_id": "bb9af3f87c5d41dfbb8f1fcecd8b81b7", "lat": 38.9011845, "name": "bb9af3f87c5d41dfbb8f1fcecd8b81b7", "lon": -76.99505183333333, "fusion_lon": 0.0}, {"is_reserved": 0, "type": "electric_scooter", "fusion_lat": 0.0, "is_disabled": 0, "rental_uris": {"ios": "https://dc.lft.to/lastmile_qr_scan", "android": "https://dc.lft.to/lastmile_qr_scan"}, "bike_id": "d6392a19ad0e0b8889cf6d70d205afdc", "lat": 38.925876833333334, "name": "d6392a19ad0e0b8889cf6d70d205afdc", "lon": -77.02499483333334, "fusion_lon": 0.0}, {"is_reserved": 0, "type": "electric_scooter", "fusion_lat": 0.0, "is_disabled": 0, "rental_uris": {"ios": "https://dc.lft.to/lastmile_qr_scan", "android": "https://dc.lft.to/lastmile_qr_scan"}, "bike_id": "2ac4ce4b7e34a250803f501775ee7c10", "lat": 38.88577166666666, "name": "2ac4ce4b7e34a250803f501775ee7c10", "lon": -77.01211633333334, "fusion_lon": 0.0}, {"is_reserved": 0, "type": "electric_bike", "fusion_lat": 0.0, "is_disabled": 0, "rental_uris": {"ios": "https://dc.lft.to/lastmile_qr_scan", "android": "https://dc.lft.to/lastmile_qr_scan"}, "bike_id": "740ed4d1f04a597048b19502ef97d308", "lat": 38.84619416666666, "name": "740ed4d1f04a597048b19502ef97d308", "lon": -76.97840616666667, "fusion_lon": 0.0}, {"is_reserved": 0, "type": "electric_scooter", "fusion_lat": 0.0, "is_disabled": 0, "rental_uris": {"ios": "https://dc.lft.to/lastmile_qr_scan", "android": "https://dc.lft.to/lastmile_qr_scan"}, "bike_id": "953b7da94415649f815ddbab4e719358", "lat": 38.915851333333336, "name": "953b7da94415649f815ddbab4e719358", "lon": -76.98413616666667, "fusion_lon": 0.0}, {"is_reserved": 0, "type": "electric_scooter", "fusion_lat": 0.0, "is_disabled": 0, "rental_uris": {"ios": "https://dc.lft.to/lastmile_qr_scan", "android": "https://dc.lft.to/lastmile_qr_scan"}, "bike_id": "93b45211de4ca50a526fcfc9b0442a0f", "lat": 38.912574666666664, "name": "93b45211de4ca50a526fcfc9b0442a0f", "lon": -76.9836365, "fusion_lon": 0.0}, {"is_reserved": 0, "type": "electric_scooter", "fusion_lat": 0.0, "is_disabled": 0, "rental_uris": {"ios": "https://dc.lft.to/lastmile_qr_scan", "android": "https://dc.lft.to/lastmile_qr_scan"}, "bike_id": "5cfe6794116f379a0d35dab846f66606", "lat": 38.9150435, "name": "5cfe6794116f379a0d35dab846f66606", "lon": -77.0184465, "fusion_lon": 0.0}, {"is_reserved": 0, "type": "electric_scooter", "fusion_lat": 0.0, "is_disabled": 0, "rental_uris": {"ios": "https://dc.lft.to/lastmile_qr_scan", "android": "https://dc.lft.to/lastmile_qr_scan"}, "bike_id": "895a37743d58d6321e8a088fbd5c3c5e", "lat": 38.928650833333336, "name": "895a37743d58d6321e8a088fbd5c3c5e", "lon": -77.0342915, "fusion_lon": 0.0}, {"is_reserved": 0, "type": "electric_scooter", "fusion_lat": 0.0, "is_disabled": 0, "rental_uris": {"ios": "https://dc.lft.to/lastmile_qr_scan", "android": "https://dc.lft.to/lastmile_qr_scan"}, "bike_id": "e3172bb1537e0088043c1b45c1e4f2d1", "lat": 38.912734, "name": "e3172bb1537e0088043c1b45c1e4f2d1", "lon": -77.03032983333334, "fusion_lon": 0.0}, {"is_reserved": 0, "type": "electric_bike", "fusion_lat": 0.0, "is_disabled": 0, "rental_uris": {"ios": "https://dc.lft.to/lastmile_qr_scan", "android": "https://dc.lft.to/lastmile_qr_scan"}, "bike_id": "6f6bb16a576d52fa6c09342e96c9c2c3", "lat": 38.846808, "name": "6f6bb16a576d52fa6c09342e96c9c2c3", "lon": -77.13940566666666, "fusion_lon": 0.0}, {"is_reserved": 0, "type": "electric_scooter", "fusion_lat": 0.0, "is_disabled": 0, "rental_uris": {"ios": "https://dc.lft.to/lastmile_qr_scan", "android": "https://dc.lft.to/lastmile_qr_scan"}, "bike_id": "d9d94fdd02bfad435d407e7f37597f38", "lat": 38.920903, "name": "d9d94fdd02bfad435d407e7f37597f38", "lon": -77.0411725, "fusion_lon": 0.0}, {"is_reserved": 0, "type": "electric_scooter", "fusion_lat": 0.0, "is_disabled": 0, "rental_uris": {"ios": "https://dc.lft.to/lastmile_qr_scan", "android": "https://dc.lft.to/lastmile_qr_scan"}, "bike_id": "cf127c5e8b1a0ffd4fba9ff5a61e08b4", "lat": 38.917462666666665, "name": "cf127c5e8b1a0ffd4fba9ff5a61e08b4", "lon": -77.01085533333334, "fusion_lon": 0.0}, {"is_reserved": 0, "type": "electric_scooter", "fusion_lat": 0.0, "is_disabled": 0, "rental_uris": {"ios": "https://dc.lft.to/lastmile_qr_scan", "android": "https://dc.lft.to/lastmile_qr_scan"}, "bike_id": "b513bb497fddc8b6d6d20fbd3630d5a3", "lat": 38.9126915, "name": "b513bb497fddc8b6d6d20fbd3630d5a3", "lon": -77.0477025, "fusion_lon": 0.0}, {"is_reserved": 0, "type": "electric_scooter", "fusion_lat": 0.0, "is_disabled": 0, "rental_uris": {"ios": "https://dc.lft.to/lastmile_qr_scan", "android": "https://dc.lft.to/lastmile_qr_scan"}, "bike_id": "70eb2cdf4d7a4f365f7c570f7eb244c0", "lat": 38.899375166666665, "name": "70eb2cdf4d7a4f365f7c570f7eb244c0", "lon": -76.9375995, "fusion_lon": 0.0}, {"is_reserved": 0, "type": "electric_scooter", "fusion_lat": 0.0, "is_disabled": 0, "rental_uris": {"ios": "https://dc.lft.to/lastmile_qr_scan", "android": "https://dc.lft.to/lastmile_qr_scan"}, "bike_id": "caa2f8a62040ef8addef761486d2a0c4", "lat": 38.8876935, "name": "caa2f8a62040ef8addef761486d2a0c4", "lon": -76.97734566666666, "fusion_lon": 0.0}, {"is_reserved": 0, "type": "electric_scooter", "fusion_lat": 0.0, "is_disabled": 0, "rental_uris": {"ios": "https://dc.lft.to/lastmile_qr_scan", "android": "https://dc.lft.to/lastmile_qr_scan"}, "bike_id": "8c6432dffba837b5f235b8c7e0f2d64f", "lat": 38.87638066666667, "name": "8c6432dffba837b5f235b8c7e0f2d64f", "lon": -77.00217966666666, "fusion_lon": 0.0}, {"is_reserved": 0, "type": "electric_scooter", "fusion_lat": 0.0, "is_disabled": 0, "rental_uris": {"ios": "https://dc.lft.to/lastmile_qr_scan", "android": "https://dc.lft.to/lastmile_qr_scan"}, "bike_id": "5ff742c3fee2eaca7cacb87900faf66b", "lat": 38.90919233333334, "name": "5ff742c3fee2eaca7cacb87900faf66b", "lon": -77.0494505, "fusion_lon": 0.0}, {"is_reserved": 0, "type": "electric_scooter", "fusion_lat": 0.0, "is_disabled": 0, "rental_uris": {"ios": "https://dc.lft.to/lastmile_qr_scan", "android": "https://dc.lft.to/lastmile_qr_scan"}, "bike_id": "69e6d235ce1ce00dd99d51c368d179e0", "lat": 38.9470545, "name": "69e6d235ce1ce00dd99d51c368d179e0", "lon": -77.01939366666667, "fusion_lon": 0.0}, {"is_reserved": 0, "type": "electric_scooter", "fusion_lat": 0.0, "is_disabled": 0, "rental_uris": {"ios": "https://dc.lft.to/lastmile_qr_scan", "android": "https://dc.lft.to/lastmile_qr_scan"}, "bike_id": "5ca1056a7278ae3e2b12b2feef382785", "lat": 38.91883816666667, "name": "5ca1056a7278ae3e2b12b2feef382785", "lon": -77.07316966666667, "fusion_lon": 0.0}, {"is_reserved": 0, "type": "electric_scooter", "fusion_lat": 0.0, "is_disabled": 0, "rental_uris": {"ios": "https://dc.lft.to/lastmile_qr_scan", "android": "https://dc.lft.to/lastmile_qr_scan"}, "bike_id": "7e4a665e9eff9a6955f8deb1fa560654", "lat": 38.88770866666667, "name": "7e4a665e9eff9a6955f8deb1fa560654", "lon": -76.97735783333333, "fusion_lon": 0.0}, {"is_reserved": 0, "type": "electric_scooter", "fusion_lat": 0.0, "is_disabled": 0, "rental_uris": {"ios": "https://dc.lft.to/lastmile_qr_scan", "android": "https://dc.lft.to/lastmile_qr_scan"}, "bike_id": "3a91085df66a63e691b182a4ca19153f", "lat": 38.91417966666667, "name": "3a91085df66a63e691b182a4ca19153f", "lon": -77.06920666666667, "fusion_lon": 0.0}, {"is_reserved": 0, "type": "electric_scooter", "fusion_lat": 0.0, "is_disabled": 0, "rental_uris": {"ios": "https://dc.lft.to/lastmile_qr_scan", "android": "https://dc.lft.to/lastmile_qr_scan"}, "bike_id": "00d6de82d922494fad1fc48d803386fd", "lat": 38.924442, "name": "00d6de82d922494fad1fc48d803386fd", "lon": -77.01940383333333, "fusion_lon": 0.0}, {"is_reserved": 0, "type": "electric_scooter", "fusion_lat": 0.0, "is_disabled": 0, "rental_uris": {"ios": "https://dc.lft.to/lastmile_qr_scan", "android": "https://dc.lft.to/lastmile_qr_scan"}, "bike_id": "d80c5ae697eae16f86edbdba5edbb7bc", "lat": 38.873524, "name": "d80c5ae697eae16f86edbdba5edbb7bc", "lon": -77.00198016666667, "fusion_lon": 0.0}, {"is_reserved": 0, "type": "electric_scooter", "fusion_lat": 0.0, "is_disabled": 0, "rental_uris": {"ios": "https://dc.lft.to/lastmile_qr_scan", "android": "https://dc.lft.to/lastmile_qr_scan"}, "bike_id": "c078c5b10f6264c85b56d261609d66dd", "lat": 38.9464395, "name": "c078c5b10f6264c85b56d261609d66dd", "lon": -77.01744233333334, "fusion_lon": 0.0}, {"is_reserved": 0, "type": "electric_scooter", "fusion_lat": 0.0, "is_disabled": 0, "rental_uris": {"ios": "https://dc.lft.to/lastmile_qr_scan", "android": "https://dc.lft.to/lastmile_qr_scan"}, "bike_id": "0601ae49195ae31bed0c3bc7725b844e", "lat": 38.90735133333333, "name": "0601ae49195ae31bed0c3bc7725b844e", "lon": -77.03862466666666, "fusion_lon": 0.0}, {"is_reserved": 0, "type": "electric_scooter", "fusion_lat": 0.0, "is_disabled": 0, "rental_uris": {"ios": "https://dc.lft.to/lastmile_qr_scan", "android": "https://dc.lft.to/lastmile_qr_scan"}, "bike_id": "e3a9488347f0c38e89d1f7e05e5a3c40", "lat": 38.905364166666665, "name": "e3a9488347f0c38e89d1f7e05e5a3c40", "lon": -77.05803966666667, "fusion_lon": 0.0}, {"is_reserved": 0, "type": "electric_scooter", "fusion_lat": 0.0, "is_disabled": 0, "rental_uris": {"ios": "https://dc.lft.to/lastmile_qr_scan", "android": "https://dc.lft.to/lastmile_qr_scan"}, "bike_id": "fd89286d4910113f51cf9df746d32614", "lat": 38.94203666666667, "name": "fd89286d4910113f51cf9df746d32614", "lon": -77.01332683333334, "fusion_lon": 0.0}, {"is_reserved": 0, "type": "electric_scooter", "fusion_lat": 0.0, "is_disabled": 0, "rental_uris": {"ios": "https://dc.lft.to/lastmile_qr_scan", "android": "https://dc.lft.to/lastmile_qr_scan"}, "bike_id": "a93716dd90e840e8342f1112048d41dc", "lat": 38.92715916666667, "name": "a93716dd90e840e8342f1112048d41dc", "lon": -77.0209205, "fusion_lon": 0.0}, {"is_reserved": 0, "type": "electric_scooter", "fusion_lat": 0.0, "is_disabled": 0, "rental_uris": {"ios": "https://dc.lft.to/lastmile_qr_scan", "android": "https://dc.lft.to/lastmile_qr_scan"}, "bike_id": "5f94963a29224c1d1d87b69770a96b6c", "lat": 38.94274633333333, "name": "5f94963a29224c1d1d87b69770a96b6c", "lon": -77.02941333333334, "fusion_lon": 0.0}, {"is_reserved": 0, "type": "electric_scooter", "fusion_lat": 0.0, "is_disabled": 0, "rental_uris": {"ios": "https://dc.lft.to/lastmile_qr_scan", "android": "https://dc.lft.to/lastmile_qr_scan"}, "bike_id": "01b3c13cecb9d5e271303f307242d0a7", "lat": 38.90407183333333, "name": "01b3c13cecb9d5e271303f307242d0a7", "lon": -76.97332266666666, "fusion_lon": 0.0}, {"is_reserved": 0, "type": "electric_scooter", "fusion_lat": 0.0, "is_disabled": 0, "rental_uris": {"ios": "https://dc.lft.to/lastmile_qr_scan", "android": "https://dc.lft.to/lastmile_qr_scan"}, "bike_id": "36f78c36f676e7c58caa763e84c357df", "lat": 38.906054166666664, "name": "36f78c36f676e7c58caa763e84c357df", "lon": -77.06663333333333, "fusion_lon": 0.0}, {"is_reserved": 0, "type": "electric_scooter", "fusion_lat": 0.0, "is_disabled": 0, "rental_uris": {"ios": "https://dc.lft.to/lastmile_qr_scan", "android": "https://dc.lft.to/lastmile_qr_scan"}, "bike_id": "7e378c1a3566b1e88a3909aa45590437", "lat": 38.9264865, "name": "7e378c1a3566b1e88a3909aa45590437", "lon": -77.038514, "fusion_lon": 0.0}, {"is_reserved": 0, "type": "electric_bike", "fusion_lat": 0.0, "is_disabled": 0, "rental_uris": {"ios": "https://dc.lft.to/lastmile_qr_scan", "android": "https://dc.lft.to/lastmile_qr_scan"}, "bike_id": "4ecf6109aad9a6166388f15037a53461", "lat": 38.91905966666667, "name": "4ecf6109aad9a6166388f15037a53461", "lon": -77.00072483333334, "fusion_lon": 0.0}, {"is_reserved": 0, "type": "electric_scooter", "fusion_lat": 0.0, "is_disabled": 0, "rental_uris": {"ios": "https://dc.lft.to/lastmile_qr_scan", "android": "https://dc.lft.to/lastmile_qr_scan"}, "bike_id": "80909e6d29fc861ec13062c24b94a500", "lat": 38.898455166666665, "name": "80909e6d29fc861ec13062c24b94a500", "lon": -77.03946766666667, "fusion_lon": 0.0}, {"is_reserved": 0, "type": "electric_scooter", "fusion_lat": 0.0, "is_disabled": 0, "rental_uris": {"ios": "https://dc.lft.to/lastmile_qr_scan", "android": "https://dc.lft.to/lastmile_qr_scan"}, "bike_id": "587bf401e30cba40a09997c8d2603e57", "lat": 38.89539766666667, "name": "587bf401e30cba40a09997c8d2603e57", "lon": -76.98840416666667, "fusion_lon": 0.0}, {"is_reserved": 0, "type": "electric_scooter", "fusion_lat": 0.0, "is_disabled": 0, "rental_uris": {"ios": "https://dc.lft.to/lastmile_qr_scan", "android": "https://dc.lft.to/lastmile_qr_scan"}, "bike_id": "41f36cd9b42aff32f69c8f6399d66c47", "lat": 38.8971165, "name": "41f36cd9b42aff32f69c8f6399d66c47", "lon": -77.02526866666666, "fusion_lon": 0.0}, {"is_reserved": 0, "type": "electric_scooter", "fusion_lat": 0.0, "is_disabled": 0, "rental_uris": {"ios": "https://dc.lft.to/lastmile_qr_scan", "android": "https://dc.lft.to/lastmile_qr_scan"}, "bike_id": "5a534d18c43ee90e821325a2b3a782c5", "lat": 38.94273533333333, "name": "5a534d18c43ee90e821325a2b3a782c5", "lon": -76.98472433333333, "fusion_lon": 0.0}, {"is_reserved": 0, "type": "electric_scooter", "fusion_lat": 0.0, "is_disabled": 0, "rental_uris": {"ios": "https://dc.lft.to/lastmile_qr_scan", "android": "https://dc.lft.to/lastmile_qr_scan"}, "bike_id": "66c727d3ca0bcc523afd0c5477f3efe0", "lat": 38.883613, "name": "66c727d3ca0bcc523afd0c5477f3efe0", "lon": -76.95769683333333, "fusion_lon": 0.0}, {"is_reserved": 0, "type": "electric_bike", "fusion_lat": 0.0, "is_disabled": 0, "rental_uris": {"ios": "https://dc.lft.to/lastmile_qr_scan", "android": "https://dc.lft.to/lastmile_qr_scan"}, "bike_id": "f8beb0c4ab28f5bf246cb569ada9b961", "lat": 38.906972333333336, "name": "f8beb0c4ab28f5bf246cb569ada9b961", "lon": -76.95254183333333, "fusion_lon": 0.0}, {"is_reserved": 0, "type": "electric_scooter", "fusion_lat": 0.0, "is_disabled": 0, "rental_uris": {"ios": "https://dc.lft.to/lastmile_qr_scan", "android": "https://dc.lft.to/lastmile_qr_scan"}, "bike_id": "ada56644286f7d50de6784eccea3de59", "lat": 38.8969025, "name": "ada56644286f7d50de6784eccea3de59", "lon": -77.05115233333333, "fusion_lon": 0.0}, {"is_reserved": 0, "type": "electric_scooter", "fusion_lat": 0.0, "is_disabled": 0, "rental_uris": {"ios": "https://dc.lft.to/lastmile_qr_scan", "android": "https://dc.lft.to/lastmile_qr_scan"}, "bike_id": "caa82072ce09a0b43310f4d28f8624be", "lat": 38.91191416666667, "name": "caa82072ce09a0b43310f4d28f8624be", "lon": -77.06089833333333, "fusion_lon": 0.0}, {"is_reserved": 0, "type": "electric_scooter", "fusion_lat": 0.0, "is_disabled": 0, "rental_uris": {"ios": "https://dc.lft.to/lastmile_qr_scan", "android": "https://dc.lft.to/lastmile_qr_scan"}, "bike_id": "563f0665178c5f78c4617325e1016e3c", "lat": 38.947158, "name": "563f0665178c5f78c4617325e1016e3c", "lon": -77.06803233333333, "fusion_lon": 0.0}, {"is_reserved": 0, "type": "electric_scooter", "fusion_lat": 0.0, "is_disabled": 0, "rental_uris": {"ios": "https://dc.lft.to/lastmile_qr_scan", "android": "https://dc.lft.to/lastmile_qr_scan"}, "bike_id": "9aad78d5a5d0c19750b7b93807c20631", "lat": 38.933639, "name": "9aad78d5a5d0c19750b7b93807c20631", "lon": -77.07254833333333, "fusion_lon": 0.0}, {"is_reserved": 0, "type": "electric_scooter", "fusion_lat": 0.0, "is_disabled": 0, "rental_uris": {"ios": "https://dc.lft.to/lastmile_qr_scan", "android": "https://dc.lft.to/lastmile_qr_scan"}, "bike_id": "34a8039f93cb182eb0ee1f8c12101787", "lat": 38.944637, "name": "34a8039f93cb182eb0ee1f8c12101787", "lon": -77.00658866666667, "fusion_lon": 0.0}, {"is_reserved": 0, "type": "electric_scooter", "fusion_lat": 0.0, "is_disabled": 0, "rental_uris": {"ios": "https://dc.lft.to/lastmile_qr_scan", "android": "https://dc.lft.to/lastmile_qr_scan"}, "bike_id": "6ef9fe0e8fb518fd1be8c74cad0ff7d1", "lat": 38.920520333333336, "name": "6ef9fe0e8fb518fd1be8c74cad0ff7d1", "lon": -77.03390466666667, "fusion_lon": 0.0}, {"is_reserved": 0, "type": "electric_scooter", "fusion_lat": 0.0, "is_disabled": 0, "rental_uris": {"ios": "https://dc.lft.to/lastmile_qr_scan", "android": "https://dc.lft.to/lastmile_qr_scan"}, "bike_id": "903a7a8e635c383a2c693980c7750608", "lat": 38.912166666666664, "name": "903a7a8e635c383a2c693980c7750608", "lon": -77.00665133333334, "fusion_lon": 0.0}, {"is_reserved": 0, "type": "electric_scooter", "fusion_lat": 0.0, "is_disabled": 0, "rental_uris": {"ios": "https://dc.lft.to/lastmile_qr_scan", "android": "https://dc.lft.to/lastmile_qr_scan"}, "bike_id": "45feb60f22291d9f5030093950bea123", "lat": 38.902703833333334, "name": "45feb60f22291d9f5030093950bea123", "lon": -76.98985766666667, "fusion_lon": 0.0}, {"is_reserved": 0, "type": "electric_scooter", "fusion_lat": 0.0, "is_disabled": 0, "rental_uris": {"ios": "https://dc.lft.to/lastmile_qr_scan", "android": "https://dc.lft.to/lastmile_qr_scan"}, "bike_id": "5e628e740526b8c5437e3c24f769c699", "lat": 38.90785016666667, "name": "5e628e740526b8c5437e3c24f769c699", "lon": -77.07260066666667, "fusion_lon": 0.0}, {"is_reserved": 0, "type": "electric_scooter", "fusion_lat": 0.0, "is_disabled": 0, "rental_uris": {"ios": "https://dc.lft.to/lastmile_qr_scan", "android": "https://dc.lft.to/lastmile_qr_scan"}, "bike_id": "4a671f1e47173c8a1397891934241559", "lat": 38.91544866666667, "name": "4a671f1e47173c8a1397891934241559", "lon": -77.029757, "fusion_lon": 0.0}, {"is_reserved": 0, "type": "electric_scooter", "fusion_lat": 0.0, "is_disabled": 0, "rental_uris": {"ios": "https://dc.lft.to/lastmile_qr_scan", "android": "https://dc.lft.to/lastmile_qr_scan"}, "bike_id": "754162790d540e5c83723b602158520b", "lat": 38.90504883333333, "name": "754162790d540e5c83723b602158520b", "lon": -77.0433845, "fusion_lon": 0.0}, {"is_reserved": 0, "type": "electric_scooter", "fusion_lat": 0.0, "is_disabled": 0, "rental_uris": {"ios": "https://dc.lft.to/lastmile_qr_scan", "android": "https://dc.lft.to/lastmile_qr_scan"}, "bike_id": "05ce347db68e1fb050e0773b84f2fc68", "lat": 38.873721333333336, "name": "05ce347db68e1fb050e0773b84f2fc68", "lon": -77.00125616666666, "fusion_lon": 0.0}, {"is_reserved": 0, "type": "electric_scooter", "fusion_lat": 0.0, "is_disabled": 0, "rental_uris": {"ios": "https://dc.lft.to/lastmile_qr_scan", "android": "https://dc.lft.to/lastmile_qr_scan"}, "bike_id": "ea5804defc38caae7a6b8fa06c85e0ac", "lat": 38.93273, "name": "ea5804defc38caae7a6b8fa06c85e0ac", "lon": -77.02095783333333, "fusion_lon": 0.0}, {"is_reserved": 0, "type": "electric_scooter", "fusion_lat": 0.0, "is_disabled": 0, "rental_uris": {"ios": "https://dc.lft.to/lastmile_qr_scan", "android": "https://dc.lft.to/lastmile_qr_scan"}, "bike_id": "8b673e9b9cbdb45335948991fde82ff9", "lat": 38.92385566666667, "name": "8b673e9b9cbdb45335948991fde82ff9", "lon": -77.02956816666666, "fusion_lon": 0.0}, {"is_reserved": 0, "type": "electric_scooter", "fusion_lat": 0.0, "is_disabled": 0, "rental_uris": {"ios": "https://dc.lft.to/lastmile_qr_scan", "android": "https://dc.lft.to/lastmile_qr_scan"}, "bike_id": "f7e72a31cb9f140a9307675ab693addd", "lat": 38.90857783333333, "name": "f7e72a31cb9f140a9307675ab693addd", "lon": -77.02365933333333, "fusion_lon": 0.0}, {"is_reserved": 0, "type": "electric_bike", "fusion_lat": 0.0, "is_disabled": 0, "rental_uris": {"ios": "https://dc.lft.to/lastmile_qr_scan", "android": "https://dc.lft.to/lastmile_qr_scan"}, "bike_id": "2ada3920eb045d5fc797914a892fef9b", "lat": 39.02648133333334, "name": "2ada3920eb045d5fc797914a892fef9b", "lon": -77.03685666666667, "fusion_lon": 0.0}, {"is_reserved": 0, "type": "electric_scooter", "fusion_lat": 0.0, "is_disabled": 0, "rental_uris": {"ios": "https://dc.lft.to/lastmile_qr_scan", "android": "https://dc.lft.to/lastmile_qr_scan"}, "bike_id": "9c76988714844818f3b887f0c2006117", "lat": 38.92199866666667, "name": "9c76988714844818f3b887f0c2006117", "lon": -77.02047283333333, "fusion_lon": 0.0}, {"is_reserved": 0, "type": "electric_scooter", "fusion_lat": 0.0, "is_disabled": 0, "rental_uris": {"ios": "https://dc.lft.to/lastmile_qr_scan", "android": "https://dc.lft.to/lastmile_qr_scan"}, "bike_id": "def035c7c439a3eff15b605afe21f44a", "lat": 38.9140665, "name": "def035c7c439a3eff15b605afe21f44a", "lon": -77.02059266666667, "fusion_lon": 0.0}, {"is_reserved": 0, "type": "electric_scooter", "fusion_lat": 0.0, "is_disabled": 0, "rental_uris": {"ios": "https://dc.lft.to/lastmile_qr_scan", "android": "https://dc.lft.to/lastmile_qr_scan"}, "bike_id": "6cb82c8299465f55f531f8a27c1fd3bc", "lat": 38.880396166666664, "name": "6cb82c8299465f55f531f8a27c1fd3bc", "lon": -77.01735483333333, "fusion_lon": 0.0}, {"is_reserved": 0, "type": "electric_scooter", "fusion_lat": 0.0, "is_disabled": 0, "rental_uris": {"ios": "https://dc.lft.to/lastmile_qr_scan", "android": "https://dc.lft.to/lastmile_qr_scan"}, "bike_id": "11d1a10090565813fde7e56bf44515b7", "lat": 38.90088183333334, "name": "11d1a10090565813fde7e56bf44515b7", "lon": -76.98333966666667, "fusion_lon": 0.0}, {"is_reserved": 0, "type": "electric_scooter", "fusion_lat": 0.0, "is_disabled": 0, "rental_uris": {"ios": "https://dc.lft.to/lastmile_qr_scan", "android": "https://dc.lft.to/lastmile_qr_scan"}, "bike_id": "2490ac564a56c361b9cb5e9a18dea4f8", "lat": 38.92770616666667, "name": "2490ac564a56c361b9cb5e9a18dea4f8", "lon": -77.0527085, "fusion_lon": 0.0}, {"is_reserved": 0, "type": "electric_scooter", "fusion_lat": 0.0, "is_disabled": 0, "rental_uris": {"ios": "https://dc.lft.to/lastmile_qr_scan", "android": "https://dc.lft.to/lastmile_qr_scan"}, "bike_id": "9254237237bf9aff468c1515197fbca4", "lat": 38.89744433333333, "name": "9254237237bf9aff468c1515197fbca4", "lon": -76.94697816666667, "fusion_lon": 0.0}, {"is_reserved": 0, "type": "electric_scooter", "fusion_lat": 0.0, "is_disabled": 0, "rental_uris": {"ios": "https://dc.lft.to/lastmile_qr_scan", "android": "https://dc.lft.to/lastmile_qr_scan"}, "bike_id": "1a88cec0a51a0d356b8d9c67b8e370a8", "lat": 38.886224166666665, "name": "1a88cec0a51a0d356b8d9c67b8e370a8", "lon": -76.926358, "fusion_lon": 0.0}, {"is_reserved": 0, "type": "electric_scooter", "fusion_lat": 0.0, "is_disabled": 0, "rental_uris": {"ios": "https://dc.lft.to/lastmile_qr_scan", "android": "https://dc.lft.to/lastmile_qr_scan"}, "bike_id": "e91419fe80f7b6ea7a29504353ef0ece", "lat": 38.9280835, "name": "e91419fe80f7b6ea7a29504353ef0ece", "lon": -77.04330783333333, "fusion_lon": 0.0}, {"is_reserved": 0, "type": "electric_scooter", "fusion_lat": 0.0, "is_disabled": 0, "rental_uris": {"ios": "https://dc.lft.to/lastmile_qr_scan", "android": "https://dc.lft.to/lastmile_qr_scan"}, "bike_id": "72dd1fa696cc972b3e7af1e22d1d4491", "lat": 38.879209, "name": "72dd1fa696cc972b3e7af1e22d1d4491", "lon": -77.021567, "fusion_lon": 0.0}, {"is_reserved": 0, "type": "electric_scooter", "fusion_lat": 0.0, "is_disabled": 0, "rental_uris": {"ios": "https://dc.lft.to/lastmile_qr_scan", "android": "https://dc.lft.to/lastmile_qr_scan"}, "bike_id": "06c7a621cdf8bd0cd6189715ad129f0b", "lat": 38.91101866666666, "name": "06c7a621cdf8bd0cd6189715ad129f0b", "lon": -77.011596, "fusion_lon": 0.0}, {"is_reserved": 0, "type": "electric_scooter", "fusion_lat": 0.0, "is_disabled": 0, "rental_uris": {"ios": "https://dc.lft.to/lastmile_qr_scan", "android": "https://dc.lft.to/lastmile_qr_scan"}, "bike_id": "9f460ecac0e3bab0b41e553441000dc3", "lat": 38.955883666666665, "name": "9f460ecac0e3bab0b41e553441000dc3", "lon": -77.01793, "fusion_lon": 0.0}, {"is_reserved": 0, "type": "electric_scooter", "fusion_lat": 0.0, "is_disabled": 0, "rental_uris": {"ios": "https://dc.lft.to/lastmile_qr_scan", "android": "https://dc.lft.to/lastmile_qr_scan"}, "bike_id": "125e47896e810caf912fe2cdf9de9acc", "lat": 38.87379983333334, "name": "125e47896e810caf912fe2cdf9de9acc", "lon": -77.001234, "fusion_lon": 0.0}, {"is_reserved": 0, "type": "electric_scooter", "fusion_lat": 0.0, "is_disabled": 0, "rental_uris": {"ios": "https://dc.lft.to/lastmile_qr_scan", "android": "https://dc.lft.to/lastmile_qr_scan"}, "bike_id": "3b3c4b8229af1928803fb8b5f3198572", "lat": 38.9333215, "name": "3b3c4b8229af1928803fb8b5f3198572", "lon": -77.02908083333334, "fusion_lon": 0.0}, {"is_reserved": 0, "type": "electric_scooter", "fusion_lat": 0.0, "is_disabled": 0, "rental_uris": {"ios": "https://dc.lft.to/lastmile_qr_scan", "android": "https://dc.lft.to/lastmile_qr_scan"}, "bike_id": "443c25e14d09018c47306794d7b20e47", "lat": 38.921044333333334, "name": "443c25e14d09018c47306794d7b20e47", "lon": -77.036562, "fusion_lon": 0.0}, {"is_reserved": 0, "type": "electric_scooter", "fusion_lat": 0.0, "is_disabled": 0, "rental_uris": {"ios": "https://dc.lft.to/lastmile_qr_scan", "android": "https://dc.lft.to/lastmile_qr_scan"}, "bike_id": "58aaa91112b62d5a6ce6bb1fffc81530", "lat": 38.922113, "name": "58aaa91112b62d5a6ce6bb1fffc81530", "lon": -77.02029983333334, "fusion_lon": 0.0}, {"is_reserved": 0, "type": "electric_bike", "fusion_lat": 0.0, "is_disabled": 0, "rental_uris": {"ios": "https://dc.lft.to/lastmile_qr_scan", "android": "https://dc.lft.to/lastmile_qr_scan"}, "bike_id": "b1dbf1a4eaeccc0dcf0d5cf998b24367", "lat": 38.931191, "name": "b1dbf1a4eaeccc0dcf0d5cf998b24367", "lon": -77.02711933333333, "fusion_lon": 0.0}, {"is_reserved": 0, "type": "electric_scooter", "fusion_lat": 0.0, "is_disabled": 0, "rental_uris": {"ios": "https://dc.lft.to/lastmile_qr_scan", "android": "https://dc.lft.to/lastmile_qr_scan"}, "bike_id": "f7b801c42ff325ad5074c02f22c24fca", "lat": 38.917461, "name": "f7b801c42ff325ad5074c02f22c24fca", "lon": -77.01085633333334, "fusion_lon": 0.0}, {"is_reserved": 0, "type": "electric_scooter", "fusion_lat": 0.0, "is_disabled": 0, "rental_uris": {"ios": "https://dc.lft.to/lastmile_qr_scan", "android": "https://dc.lft.to/lastmile_qr_scan"}, "bike_id": "48f3426b011249493710dc2791e3be8a", "lat": 38.90136566666666, "name": "48f3426b011249493710dc2791e3be8a", "lon": -76.9740785, "fusion_lon": 0.0}, {"is_reserved": 0, "type": "electric_bike", "fusion_lat": 0.0, "is_disabled": 0, "rental_uris": {"ios": "https://dc.lft.to/lastmile_qr_scan", "android": "https://dc.lft.to/lastmile_qr_scan"}, "bike_id": "92ba5391a7831f52370068ed5bf0eed8", "lat": 38.9145505, "name": "92ba5391a7831f52370068ed5bf0eed8", "lon": -76.97278583333333, "fusion_lon": 0.0}, {"is_reserved": 0, "type": "electric_bike", "fusion_lat": 0.0, "is_disabled": 0, "rental_uris": {"ios": "https://dc.lft.to/lastmile_qr_scan", "android": "https://dc.lft.to/lastmile_qr_scan"}, "bike_id": "909032ca220f0f9c6e2b63b464690f20", "lat": 38.9672955, "name": "909032ca220f0f9c6e2b63b464690f20", "lon": -77.08915816666666, "fusion_lon": 0.0}, {"is_reserved": 0, "type": "electric_scooter", "fusion_lat": 0.0, "is_disabled": 0, "rental_uris": {"ios": "https://dc.lft.to/lastmile_qr_scan", "android": "https://dc.lft.to/lastmile_qr_scan"}, "bike_id": "fb23d6021a69f92e3ef04b41a95f822b", "lat": 38.92955766666667, "name": "fb23d6021a69f92e3ef04b41a95f822b", "lon": -77.04406883333333, "fusion_lon": 0.0}, {"is_reserved": 0, "type": "electric_bike", "fusion_lat": 0.0, "is_disabled": 0, "rental_uris": {"ios": "https://dc.lft.to/lastmile_qr_scan", "android": "https://dc.lft.to/lastmile_qr_scan"}, "bike_id": "bcbed4bfa8b3287ece12afa08ba0bd8a", "lat": 38.835908, "name": "bcbed4bfa8b3287ece12afa08ba0bd8a", "lon": -76.99021516666667, "fusion_lon": 0.0}, {"is_reserved": 0, "type": "electric_scooter", "fusion_lat": 0.0, "is_disabled": 0, "rental_uris": {"ios": "https://dc.lft.to/lastmile_qr_scan", "android": "https://dc.lft.to/lastmile_qr_scan"}, "bike_id": "f40e48f6b2fdd9768dc8d88289230a64", "lat": 38.88771066666666, "name": "f40e48f6b2fdd9768dc8d88289230a64", "lon": -77.00046933333333, "fusion_lon": 0.0}, {"is_reserved": 0, "type": "electric_bike", "fusion_lat": 0.0, "is_disabled": 0, "rental_uris": {"ios": "https://dc.lft.to/lastmile_qr_scan", "android": "https://dc.lft.to/lastmile_qr_scan"}, "bike_id": "ce2729dc9cc0e2bdf0237b2c5bda7b7c", "lat": 38.8509, "name": "ce2729dc9cc0e2bdf0237b2c5bda7b7c", "lon": -76.9815695, "fusion_lon": 0.0}, {"is_reserved": 0, "type": "electric_scooter", "fusion_lat": 0.0, "is_disabled": 0, "rental_uris": {"ios": "https://dc.lft.to/lastmile_qr_scan", "android": "https://dc.lft.to/lastmile_qr_scan"}, "bike_id": "4ef44a171d322d271ae4fd0a025dac90", "lat": 38.922361, "name": "4ef44a171d322d271ae4fd0a025dac90", "lon": -77.028324, "fusion_lon": 0.0}, {"is_reserved": 0, "type": "electric_scooter", "fusion_lat": 0.0, "is_disabled": 0, "rental_uris": {"ios": "https://dc.lft.to/lastmile_qr_scan", "android": "https://dc.lft.to/lastmile_qr_scan"}, "bike_id": "f1909596acfbc7dd87676d11e4f0e541", "lat": 38.9100155, "name": "f1909596acfbc7dd87676d11e4f0e541", "lon": -77.02686766666666, "fusion_lon": 0.0}, {"is_reserved": 0, "type": "electric_scooter", "fusion_lat": 0.0, "is_disabled": 0, "rental_uris": {"ios": "https://dc.lft.to/lastmile_qr_scan", "android": "https://dc.lft.to/lastmile_qr_scan"}, "bike_id": "d3a329b1cf41c7a722070304868b1b26", "lat": 38.92423733333333, "name": "d3a329b1cf41c7a722070304868b1b26", "lon": -77.01954533333334, "fusion_lon": 0.0}, {"is_reserved": 0, "type": "electric_scooter", "fusion_lat": 0.0, "is_disabled": 0, "rental_uris": {"ios": "https://dc.lft.to/lastmile_qr_scan", "android": "https://dc.lft.to/lastmile_qr_scan"}, "bike_id": "b00cb03bd0c6fe3bcc2287e8922099aa", "lat": 38.916869, "name": "b00cb03bd0c6fe3bcc2287e8922099aa", "lon": -77.01574066666667, "fusion_lon": 0.0}, {"is_reserved": 0, "type": "electric_scooter", "fusion_lat": 0.0, "is_disabled": 0, "rental_uris": {"ios": "https://dc.lft.to/lastmile_qr_scan", "android": "https://dc.lft.to/lastmile_qr_scan"}, "bike_id": "04652bf4f19f7dcc7d5f0c7181638007", "lat": 38.9095835, "name": "04652bf4f19f7dcc7d5f0c7181638007", "lon": -77.02380266666667, "fusion_lon": 0.0}, {"is_reserved": 0, "type": "electric_scooter", "fusion_lat": 0.0, "is_disabled": 0, "rental_uris": {"ios": "https://dc.lft.to/lastmile_qr_scan", "android": "https://dc.lft.to/lastmile_qr_scan"}, "bike_id": "b7b2d9630586cc232e3936b850f3f18e", "lat": 38.91727933333333, "name": "b7b2d9630586cc232e3936b850f3f18e", "lon": -77.02977833333334, "fusion_lon": 0.0}, {"is_reserved": 0, "type": "electric_scooter", "fusion_lat": 0.0, "is_disabled": 0, "rental_uris": {"ios": "https://dc.lft.to/lastmile_qr_scan", "android": "https://dc.lft.to/lastmile_qr_scan"}, "bike_id": "09218eacbfaf80272b8cc8adfa82e6b9", "lat": 38.881475, "name": "09218eacbfaf80272b8cc8adfa82e6b9", "lon": -77.01309466666666, "fusion_lon": 0.0}, {"is_reserved": 0, "type": "electric_scooter", "fusion_lat": 0.0, "is_disabled": 0, "rental_uris": {"ios": "https://dc.lft.to/lastmile_qr_scan", "android": "https://dc.lft.to/lastmile_qr_scan"}, "bike_id": "3c6f1d7248cf04d9ce0f3cebc1b2e280", "lat": 38.924624, "name": "3c6f1d7248cf04d9ce0f3cebc1b2e280", "lon": -77.02238166666666, "fusion_lon": 0.0}, {"is_reserved": 0, "type": "electric_bike", "fusion_lat": 0.0, "is_disabled": 0, "rental_uris": {"ios": "https://dc.lft.to/lastmile_qr_scan", "android": "https://dc.lft.to/lastmile_qr_scan"}, "bike_id": "8b17e98daf08690c66372f887e8c65e0", "lat": 38.942608166666666, "name": "8b17e98daf08690c66372f887e8c65e0", "lon": -76.99068733333333, "fusion_lon": 0.0}, {"is_reserved": 0, "type": "electric_scooter", "fusion_lat": 0.0, "is_disabled": 0, "rental_uris": {"ios": "https://dc.lft.to/lastmile_qr_scan", "android": "https://dc.lft.to/lastmile_qr_scan"}, "bike_id": "26e98597ac552a9a971de73c6986b1c9", "lat": 38.90096116666667, "name": "26e98597ac552a9a971de73c6986b1c9", "lon": -77.04496283333333, "fusion_lon": 0.0}, {"is_reserved": 0, "type": "electric_scooter", "fusion_lat": 0.0, "is_disabled": 0, "rental_uris": {"ios": "https://dc.lft.to/lastmile_qr_scan", "android": "https://dc.lft.to/lastmile_qr_scan"}, "bike_id": "e003311c0d28cda58eb2e453c539c124", "lat": 38.91162633333333, "name": "e003311c0d28cda58eb2e453c539c124", "lon": -77.0448215, "fusion_lon": 0.0}, {"is_reserved": 0, "type": "electric_scooter", "fusion_lat": 0.0, "is_disabled": 0, "rental_uris": {"ios": "https://dc.lft.to/lastmile_qr_scan", "android": "https://dc.lft.to/lastmile_qr_scan"}, "bike_id": "b2e1492531b80e24e7e79f1dfec2cf04", "lat": 38.90002233333333, "name": "b2e1492531b80e24e7e79f1dfec2cf04", "lon": -77.00389316666667, "fusion_lon": 0.0}, {"is_reserved": 0, "type": "electric_scooter", "fusion_lat": 0.0, "is_disabled": 0, "rental_uris": {"ios": "https://dc.lft.to/lastmile_qr_scan", "android": "https://dc.lft.to/lastmile_qr_scan"}, "bike_id": "72b0a25dc019b34c756db9ffe8af54e7", "lat": 38.930601333333335, "name": "72b0a25dc019b34c756db9ffe8af54e7", "lon": -77.03672, "fusion_lon": 0.0}, {"is_reserved": 0, "type": "electric_bike", "fusion_lat": 0.0, "is_disabled": 0, "rental_uris": {"ios": "https://dc.lft.to/lastmile_qr_scan", "android": "https://dc.lft.to/lastmile_qr_scan"}, "bike_id": "f38dd4837fa17244dc24d4c7181e506e", "lat": 38.86565, "name": "f38dd4837fa17244dc24d4c7181e506e", "lon": -76.97476466666667, "fusion_lon": 0.0}, {"is_reserved": 0, "type": "electric_scooter", "fusion_lat": 0.0, "is_disabled": 0, "rental_uris": {"ios": "https://dc.lft.to/lastmile_qr_scan", "android": "https://dc.lft.to/lastmile_qr_scan"}, "bike_id": "ea26cd113776eebfd672b03c909cc3d2", "lat": 38.885811, "name": "ea26cd113776eebfd672b03c909cc3d2", "lon": -77.0122585, "fusion_lon": 0.0}, {"is_reserved": 0, "type": "electric_bike", "fusion_lat": 0.0, "is_disabled": 0, "rental_uris": {"ios": "https://dc.lft.to/lastmile_qr_scan", "android": "https://dc.lft.to/lastmile_qr_scan"}, "bike_id": "fa1a16e0769413a610ea93bd06aaa982", "lat": 38.824301166666665, "name": "fa1a16e0769413a610ea93bd06aaa982", "lon": -77.12042816666667, "fusion_lon": 0.0}, {"is_reserved": 0, "type": "electric_scooter", "fusion_lat": 0.0, "is_disabled": 0, "rental_uris": {"ios": "https://dc.lft.to/lastmile_qr_scan", "android": "https://dc.lft.to/lastmile_qr_scan"}, "bike_id": "3231333248bd73aace54927a4e7adb7c", "lat": 38.900613166666666, "name": "3231333248bd73aace54927a4e7adb7c", "lon": -77.0134225, "fusion_lon": 0.0}, {"is_reserved": 0, "type": "electric_scooter", "fusion_lat": 0.0, "is_disabled": 0, "rental_uris": {"ios": "https://dc.lft.to/lastmile_qr_scan", "android": "https://dc.lft.to/lastmile_qr_scan"}, "bike_id": "63df6b86bc9d141b74147c2ae25b4326", "lat": 38.91039766666667, "name": "63df6b86bc9d141b74147c2ae25b4326", "lon": -77.01023183333334, "fusion_lon": 0.0}, {"is_reserved": 0, "type": "electric_scooter", "fusion_lat": 0.0, "is_disabled": 0, "rental_uris": {"ios": "https://dc.lft.to/lastmile_qr_scan", "android": "https://dc.lft.to/lastmile_qr_scan"}, "bike_id": "e2bb18a2327530191b4dbe415d8eb4bf", "lat": 38.92464866666667, "name": "e2bb18a2327530191b4dbe415d8eb4bf", "lon": -77.02276416666666, "fusion_lon": 0.0}, {"is_reserved": 0, "type": "electric_scooter", "fusion_lat": 0.0, "is_disabled": 0, "rental_uris": {"ios": "https://dc.lft.to/lastmile_qr_scan", "android": "https://dc.lft.to/lastmile_qr_scan"}, "bike_id": "9ee378a7696084b8c89ddaf252be224c", "lat": 38.8925955, "name": "9ee378a7696084b8c89ddaf252be224c", "lon": -77.02584733333333, "fusion_lon": 0.0}, {"is_reserved": 0, "type": "electric_scooter", "fusion_lat": 0.0, "is_disabled": 0, "rental_uris": {"ios": "https://dc.lft.to/lastmile_qr_scan", "android": "https://dc.lft.to/lastmile_qr_scan"}, "bike_id": "0086308760cf152f9261ed3a45ca1575", "lat": 38.91356866666667, "name": "0086308760cf152f9261ed3a45ca1575", "lon": -76.97139316666667, "fusion_lon": 0.0}, {"is_reserved": 0, "type": "electric_scooter", "fusion_lat": 0.0, "is_disabled": 0, "rental_uris": {"ios": "https://dc.lft.to/lastmile_qr_scan", "android": "https://dc.lft.to/lastmile_qr_scan"}, "bike_id": "c2cbfe751bc1666dd05fb2603fb1b63c", "lat": 38.909723166666666, "name": "c2cbfe751bc1666dd05fb2603fb1b63c", "lon": -77.04872466666667, "fusion_lon": 0.0}, {"is_reserved": 0, "type": "electric_scooter", "fusion_lat": 0.0, "is_disabled": 0, "rental_uris": {"ios": "https://dc.lft.to/lastmile_qr_scan", "android": "https://dc.lft.to/lastmile_qr_scan"}, "bike_id": "e8f1c10d20779d09168191b1b951e555", "lat": 38.89990733333333, "name": "e8f1c10d20779d09168191b1b951e555", "lon": -77.00663966666667, "fusion_lon": 0.0}, {"is_reserved": 0, "type": "electric_scooter", "fusion_lat": 0.0, "is_disabled": 0, "rental_uris": {"ios": "https://dc.lft.to/lastmile_qr_scan", "android": "https://dc.lft.to/lastmile_qr_scan"}, "bike_id": "f175bf1a814a8348366f721420c13899", "lat": 38.934078666666665, "name": "f175bf1a814a8348366f721420c13899", "lon": -77.04547116666667, "fusion_lon": 0.0}, {"is_reserved": 0, "type": "electric_scooter", "fusion_lat": 0.0, "is_disabled": 0, "rental_uris": {"ios": "https://dc.lft.to/lastmile_qr_scan", "android": "https://dc.lft.to/lastmile_qr_scan"}, "bike_id": "f36e008f7f90709b7e8369f2d3f45fe2", "lat": 38.90248783333333, "name": "f36e008f7f90709b7e8369f2d3f45fe2", "lon": -77.03961783333334, "fusion_lon": 0.0}, {"is_reserved": 0, "type": "electric_scooter", "fusion_lat": 0.0, "is_disabled": 0, "rental_uris": {"ios": "https://dc.lft.to/lastmile_qr_scan", "android": "https://dc.lft.to/lastmile_qr_scan"}, "bike_id": "ce3dd70cb5355a6cab86671e384bf253", "lat": 38.923865666666664, "name": "ce3dd70cb5355a6cab86671e384bf253", "lon": -77.03666416666667, "fusion_lon": 0.0}, {"is_reserved": 0, "type": "electric_bike", "fusion_lat": 0.0, "is_disabled": 0, "rental_uris": {"ios": "https://dc.lft.to/lastmile_qr_scan", "android": "https://dc.lft.to/lastmile_qr_scan"}, "bike_id": "095b48c27047120b6036dd63a2fca712", "lat": 38.91033383333333, "name": "095b48c27047120b6036dd63a2fca712", "lon": -76.9233785, "fusion_lon": 0.0}, {"is_reserved": 0, "type": "electric_scooter", "fusion_lat": 0.0, "is_disabled": 0, "rental_uris": {"ios": "https://dc.lft.to/lastmile_qr_scan", "android": "https://dc.lft.to/lastmile_qr_scan"}, "bike_id": "8bf68daafb76f2cbc4a796078ccbedaf", "lat": 38.884587, "name": "8bf68daafb76f2cbc4a796078ccbedaf", "lon": -77.0291445, "fusion_lon": 0.0}, {"is_reserved": 0, "type": "electric_scooter", "fusion_lat": 0.0, "is_disabled": 0, "rental_uris": {"ios": "https://dc.lft.to/lastmile_qr_scan", "android": "https://dc.lft.to/lastmile_qr_scan"}, "bike_id": "e348517dbdd919f5d5a72c0fb1d261f2", "lat": 38.930018, "name": "e348517dbdd919f5d5a72c0fb1d261f2", "lon": -77.0378475, "fusion_lon": 0.0}, {"is_reserved": 0, "type": "electric_scooter", "fusion_lat": 0.0, "is_disabled": 0, "rental_uris": {"ios": "https://dc.lft.to/lastmile_qr_scan", "android": "https://dc.lft.to/lastmile_qr_scan"}, "bike_id": "4aa719d8dd619196a21b333f75c1846b", "lat": 38.92160783333333, "name": "4aa719d8dd619196a21b333f75c1846b", "lon": -77.04351933333334, "fusion_lon": 0.0}, {"is_reserved": 0, "type": "electric_scooter", "fusion_lat": 0.0, "is_disabled": 0, "rental_uris": {"ios": "https://dc.lft.to/lastmile_qr_scan", "android": "https://dc.lft.to/lastmile_qr_scan"}, "bike_id": "0c5c219912feb4e54d5bb7e7a495a307", "lat": 38.9189255, "name": "0c5c219912feb4e54d5bb7e7a495a307", "lon": -77.03734716666666, "fusion_lon": 0.0}, {"is_reserved": 0, "type": "electric_scooter", "fusion_lat": 0.0, "is_disabled": 0, "rental_uris": {"ios": "https://dc.lft.to/lastmile_qr_scan", "android": "https://dc.lft.to/lastmile_qr_scan"}, "bike_id": "ef3b5e1abd66d78827ba3e4212c523b3", "lat": 38.9411535, "name": "ef3b5e1abd66d78827ba3e4212c523b3", "lon": -77.0255305, "fusion_lon": 0.0}, {"is_reserved": 0, "type": "electric_scooter", "fusion_lat": 0.0, "is_disabled": 0, "rental_uris": {"ios": "https://dc.lft.to/lastmile_qr_scan", "android": "https://dc.lft.to/lastmile_qr_scan"}, "bike_id": "d6ce1a6ae7883f018141d29aa54b253a", "lat": 38.92415833333333, "name": "d6ce1a6ae7883f018141d29aa54b253a", "lon": -77.0201095, "fusion_lon": 0.0}, {"is_reserved": 0, "type": "electric_scooter", "fusion_lat": 0.0, "is_disabled": 0, "rental_uris": {"ios": "https://dc.lft.to/lastmile_qr_scan", "android": "https://dc.lft.to/lastmile_qr_scan"}, "bike_id": "7a7a97b1ac1dc214c0f8baccf9ff27a4", "lat": 38.90719266666667, "name": "7a7a97b1ac1dc214c0f8baccf9ff27a4", "lon": -77.02508, "fusion_lon": 0.0}, {"is_reserved": 0, "type": "electric_scooter", "fusion_lat": 0.0, "is_disabled": 0, "rental_uris": {"ios": "https://dc.lft.to/lastmile_qr_scan", "android": "https://dc.lft.to/lastmile_qr_scan"}, "bike_id": "8546a5b7296bda57ac7ce8e881ed55cb", "lat": 38.93019066666667, "name": "8546a5b7296bda57ac7ce8e881ed55cb", "lon": -77.03784233333333, "fusion_lon": 0.0}, {"is_reserved": 0, "type": "electric_scooter", "fusion_lat": 0.0, "is_disabled": 0, "rental_uris": {"ios": "https://dc.lft.to/lastmile_qr_scan", "android": "https://dc.lft.to/lastmile_qr_scan"}, "bike_id": "f44595215289acd70baaef7c993f1700", "lat": 38.91714566666667, "name": "f44595215289acd70baaef7c993f1700", "lon": -77.045872, "fusion_lon": 0.0}, {"is_reserved": 0, "type": "electric_scooter", "fusion_lat": 0.0, "is_disabled": 0, "rental_uris": {"ios": "https://dc.lft.to/lastmile_qr_scan", "android": "https://dc.lft.to/lastmile_qr_scan"}, "bike_id": "9c36c3ad83d320fd7aad51d6e8566b2c", "lat": 38.90687766666667, "name": "9c36c3ad83d320fd7aad51d6e8566b2c", "lon": -77.02717666666666, "fusion_lon": 0.0}, {"is_reserved": 0, "type": "electric_scooter", "fusion_lat": 0.0, "is_disabled": 0, "rental_uris": {"ios": "https://dc.lft.to/lastmile_qr_scan", "android": "https://dc.lft.to/lastmile_qr_scan"}, "bike_id": "d22c536ca0ce7d37a0313aa0f202532d", "lat": 38.90089533333333, "name": "d22c536ca0ce7d37a0313aa0f202532d", "lon": -77.05026883333333, "fusion_lon": 0.0}, {"is_reserved": 0, "type": "electric_scooter", "fusion_lat": 0.0, "is_disabled": 0, "rental_uris": {"ios": "https://dc.lft.to/lastmile_qr_scan", "android": "https://dc.lft.to/lastmile_qr_scan"}, "bike_id": "90a383dc8cea6279c7a0e235781415e2", "lat": 38.917126333333336, "name": "90a383dc8cea6279c7a0e235781415e2", "lon": -77.03857433333333, "fusion_lon": 0.0}, {"is_reserved": 0, "type": "electric_bike", "fusion_lat": 0.0, "is_disabled": 0, "rental_uris": {"ios": "https://dc.lft.to/lastmile_qr_scan", "android": "https://dc.lft.to/lastmile_qr_scan"}, "bike_id": "68b27b6650cd9ab3efd6c3aaf3cedb05", "lat": 38.876666166666666, "name": "68b27b6650cd9ab3efd6c3aaf3cedb05", "lon": -77.01447216666666, "fusion_lon": 0.0}, {"is_reserved": 0, "type": "electric_scooter", "fusion_lat": 0.0, "is_disabled": 0, "rental_uris": {"ios": "https://dc.lft.to/lastmile_qr_scan", "android": "https://dc.lft.to/lastmile_qr_scan"}, "bike_id": "6f5cedd3ea7567618418d7db2c39b819", "lat": 38.90411866666667, "name": "6f5cedd3ea7567618418d7db2c39b819", "lon": -76.97331883333334, "fusion_lon": 0.0}, {"is_reserved": 0, "type": "electric_scooter", "fusion_lat": 0.0, "is_disabled": 0, "rental_uris": {"ios": "https://dc.lft.to/lastmile_qr_scan", "android": "https://dc.lft.to/lastmile_qr_scan"}, "bike_id": "2328f3bdfac3109ab52622350962524d", "lat": 38.9676835, "name": "2328f3bdfac3109ab52622350962524d", "lon": -77.034214, "fusion_lon": 0.0}, {"is_reserved": 0, "type": "electric_scooter", "fusion_lat": 0.0, "is_disabled": 0, "rental_uris": {"ios": "https://dc.lft.to/lastmile_qr_scan", "android": "https://dc.lft.to/lastmile_qr_scan"}, "bike_id": "672f040a19ff4e13df9a19906d67b922", "lat": 38.92754033333333, "name": "672f040a19ff4e13df9a19906d67b922", "lon": -77.0236875, "fusion_lon": 0.0}, {"is_reserved": 0, "type": "electric_scooter", "fusion_lat": 0.0, "is_disabled": 0, "rental_uris": {"ios": "https://dc.lft.to/lastmile_qr_scan", "android": "https://dc.lft.to/lastmile_qr_scan"}, "bike_id": "934c98f83a421a7957bf4b88ed982b20", "lat": 38.90947933333333, "name": "934c98f83a421a7957bf4b88ed982b20", "lon": -77.01529083333334, "fusion_lon": 0.0}, {"is_reserved": 0, "type": "electric_bike", "fusion_lat": 0.0, "is_disabled": 0, "rental_uris": {"ios": "https://dc.lft.to/lastmile_qr_scan", "android": "https://dc.lft.to/lastmile_qr_scan"}, "bike_id": "e1cc7028d0fb4f80799ac59c315880d9", "lat": 38.81543033333333, "name": "e1cc7028d0fb4f80799ac59c315880d9", "lon": -77.04646183333334, "fusion_lon": 0.0}, {"is_reserved": 0, "type": "electric_scooter", "fusion_lat": 0.0, "is_disabled": 0, "rental_uris": {"ios": "https://dc.lft.to/lastmile_qr_scan", "android": "https://dc.lft.to/lastmile_qr_scan"}, "bike_id": "f4ec625562eee2a98824da002ea4103a", "lat": 38.91821483333333, "name": "f4ec625562eee2a98824da002ea4103a", "lon": -77.02420316666667, "fusion_lon": 0.0}, {"is_reserved": 0, "type": "electric_scooter", "fusion_lat": 0.0, "is_disabled": 0, "rental_uris": {"ios": "https://dc.lft.to/lastmile_qr_scan", "android": "https://dc.lft.to/lastmile_qr_scan"}, "bike_id": "50885f34216b846735c8cfa2a92a5aab", "lat": 38.92747083333333, "name": "50885f34216b846735c8cfa2a92a5aab", "lon": -77.02621366666666, "fusion_lon": 0.0}, {"is_reserved": 0, "type": "electric_scooter", "fusion_lat": 0.0, "is_disabled": 0, "rental_uris": {"ios": "https://dc.lft.to/lastmile_qr_scan", "android": "https://dc.lft.to/lastmile_qr_scan"}, "bike_id": "ad84c6374d84a7f1efd68bf4a13cd356", "lat": 38.923189666666666, "name": "ad84c6374d84a7f1efd68bf4a13cd356", "lon": -77.01953316666666, "fusion_lon": 0.0}, {"is_reserved": 0, "type": "electric_scooter", "fusion_lat": 0.0, "is_disabled": 0, "rental_uris": {"ios": "https://dc.lft.to/lastmile_qr_scan", "android": "https://dc.lft.to/lastmile_qr_scan"}, "bike_id": "497b5291ffa8223a20eb275d18e05e8f", "lat": 38.9026825, "name": "497b5291ffa8223a20eb275d18e05e8f", "lon": -77.02777183333333, "fusion_lon": 0.0}, {"is_reserved": 0, "type": "electric_scooter", "fusion_lat": 0.0, "is_disabled": 0, "rental_uris": {"ios": "https://dc.lft.to/lastmile_qr_scan", "android": "https://dc.lft.to/lastmile_qr_scan"}, "bike_id": "6599fdf7719ffd52f1d127e31c0ce7c2", "lat": 38.92319466666667, "name": "6599fdf7719ffd52f1d127e31c0ce7c2", "lon": -77.04511083333334, "fusion_lon": 0.0}, {"is_reserved": 0, "type": "electric_scooter", "fusion_lat": 0.0, "is_disabled": 0, "rental_uris": {"ios": "https://dc.lft.to/lastmile_qr_scan", "android": "https://dc.lft.to/lastmile_qr_scan"}, "bike_id": "f2cd328a8ca83d72396b3fdc7e1a2ee5", "lat": 38.918564333333336, "name": "f2cd328a8ca83d72396b3fdc7e1a2ee5", "lon": -77.02605816666667, "fusion_lon": 0.0}, {"is_reserved": 0, "type": "electric_scooter", "fusion_lat": 0.0, "is_disabled": 0, "rental_uris": {"ios": "https://dc.lft.to/lastmile_qr_scan", "android": "https://dc.lft.to/lastmile_qr_scan"}, "bike_id": "789cd61a2ba86436e5032c6937ed3789", "lat": 38.921156, "name": "789cd61a2ba86436e5032c6937ed3789", "lon": -77.0304585, "fusion_lon": 0.0}, {"is_reserved": 0, "type": "electric_scooter", "fusion_lat": 0.0, "is_disabled": 0, "rental_uris": {"ios": "https://dc.lft.to/lastmile_qr_scan", "android": "https://dc.lft.to/lastmile_qr_scan"}, "bike_id": "4df59510c47c0335912b39f571261f91", "lat": 38.91508, "name": "4df59510c47c0335912b39f571261f91", "lon": -77.032142, "fusion_lon": 0.0}, {"is_reserved": 0, "type": "electric_bike", "fusion_lat": 0.0, "is_disabled": 0, "rental_uris": {"ios": "https://dc.lft.to/lastmile_qr_scan", "android": "https://dc.lft.to/lastmile_qr_scan"}, "bike_id": "4ffcb892b4db0e3e353616db282bb195", "lat": 38.92570666666667, "name": "4ffcb892b4db0e3e353616db282bb195", "lon": -77.04033633333333, "fusion_lon": 0.0}, {"is_reserved": 0, "type": "electric_scooter", "fusion_lat": 0.0, "is_disabled": 0, "rental_uris": {"ios": "https://dc.lft.to/lastmile_qr_scan", "android": "https://dc.lft.to/lastmile_qr_scan"}, "bike_id": "f8912a2fa81d2753a069e1ba22824da3", "lat": 38.9096185, "name": "f8912a2fa81d2753a069e1ba22824da3", "lon": -77.02197866666667, "fusion_lon": 0.0}, {"is_reserved": 0, "type": "electric_scooter", "fusion_lat": 0.0, "is_disabled": 0, "rental_uris": {"ios": "https://dc.lft.to/lastmile_qr_scan", "android": "https://dc.lft.to/lastmile_qr_scan"}, "bike_id": "de41c5f29591978950b1a35ca556d1f2", "lat": 38.9017665, "name": "de41c5f29591978950b1a35ca556d1f2", "lon": -76.92946083333334, "fusion_lon": 0.0}, {"is_reserved": 0, "type": "electric_scooter", "fusion_lat": 0.0, "is_disabled": 0, "rental_uris": {"ios": "https://dc.lft.to/lastmile_qr_scan", "android": "https://dc.lft.to/lastmile_qr_scan"}, "bike_id": "2ec9c55e4038f80b55f68a34b257984e", "lat": 38.92208016666667, "name": "2ec9c55e4038f80b55f68a34b257984e", "lon": -77.01841866666666, "fusion_lon": 0.0}, {"is_reserved": 0, "type": "electric_scooter", "fusion_lat": 0.0, "is_disabled": 0, "rental_uris": {"ios": "https://dc.lft.to/lastmile_qr_scan", "android": "https://dc.lft.to/lastmile_qr_scan"}, "bike_id": "c0de9d0e8d6112864fbbd024f64e8907", "lat": 38.902600166666666, "name": "c0de9d0e8d6112864fbbd024f64e8907", "lon": -77.03915166666667, "fusion_lon": 0.0}, {"is_reserved": 0, "type": "electric_scooter", "fusion_lat": 0.0, "is_disabled": 0, "rental_uris": {"ios": "https://dc.lft.to/lastmile_qr_scan", "android": "https://dc.lft.to/lastmile_qr_scan"}, "bike_id": "243da532413dbaa7d6ec00d6b0373ead", "lat": 38.901131166666666, "name": "243da532413dbaa7d6ec00d6b0373ead", "lon": -77.0344375, "fusion_lon": 0.0}, {"is_reserved": 0, "type": "electric_scooter", "fusion_lat": 0.0, "is_disabled": 0, "rental_uris": {"ios": "https://dc.lft.to/lastmile_qr_scan", "android": "https://dc.lft.to/lastmile_qr_scan"}, "bike_id": "f739d2a40eab45502d4f2887ebbe6cf0", "lat": 38.93326183333333, "name": "f739d2a40eab45502d4f2887ebbe6cf0", "lon": -77.02398, "fusion_lon": 0.0}, {"is_reserved": 0, "type": "electric_scooter", "fusion_lat": 0.0, "is_disabled": 0, "rental_uris": {"ios": "https://dc.lft.to/lastmile_qr_scan", "android": "https://dc.lft.to/lastmile_qr_scan"}, "bike_id": "07fe7a7aa43335a33e0156fddfc316a8", "lat": 38.9448945, "name": "07fe7a7aa43335a33e0156fddfc316a8", "lon": -77.00739633333333, "fusion_lon": 0.0}, {"is_reserved": 0, "type": "electric_scooter", "fusion_lat": 0.0, "is_disabled": 0, "rental_uris": {"ios": "https://dc.lft.to/lastmile_qr_scan", "android": "https://dc.lft.to/lastmile_qr_scan"}, "bike_id": "b1f00ebc853334a88c66fd936d1d865b", "lat": 38.92974816666667, "name": "b1f00ebc853334a88c66fd936d1d865b", "lon": -77.0279105, "fusion_lon": 0.0}, {"is_reserved": 0, "type": "electric_scooter", "fusion_lat": 0.0, "is_disabled": 0, "rental_uris": {"ios": "https://dc.lft.to/lastmile_qr_scan", "android": "https://dc.lft.to/lastmile_qr_scan"}, "bike_id": "d08c35ca472e794a4da8763fd7b855ae", "lat": 38.928997833333334, "name": "d08c35ca472e794a4da8763fd7b855ae", "lon": -77.03224666666667, "fusion_lon": 0.0}, {"is_reserved": 0, "type": "electric_scooter", "fusion_lat": 0.0, "is_disabled": 0, "rental_uris": {"ios": "https://dc.lft.to/lastmile_qr_scan", "android": "https://dc.lft.to/lastmile_qr_scan"}, "bike_id": "3f1506cbe7449c816731b72730e64cfb", "lat": 38.92387133333333, "name": "3f1506cbe7449c816731b72730e64cfb", "lon": -77.03080816666667, "fusion_lon": 0.0}, {"is_reserved": 0, "type": "electric_scooter", "fusion_lat": 0.0, "is_disabled": 0, "rental_uris": {"ios": "https://dc.lft.to/lastmile_qr_scan", "android": "https://dc.lft.to/lastmile_qr_scan"}, "bike_id": "d11966dd85ec89858730e1cb2cd53857", "lat": 38.899521666666665, "name": "d11966dd85ec89858730e1cb2cd53857", "lon": -77.01449283333334, "fusion_lon": 0.0}, {"is_reserved": 0, "type": "electric_scooter", "fusion_lat": 0.0, "is_disabled": 0, "rental_uris": {"ios": "https://dc.lft.to/lastmile_qr_scan", "android": "https://dc.lft.to/lastmile_qr_scan"}, "bike_id": "ac91cec209fa5e43c191df88c1f755e4", "lat": 38.91981216666667, "name": "ac91cec209fa5e43c191df88c1f755e4", "lon": -77.0236595, "fusion_lon": 0.0}, {"is_reserved": 0, "type": "electric_scooter", "fusion_lat": 0.0, "is_disabled": 0, "rental_uris": {"ios": "https://dc.lft.to/lastmile_qr_scan", "android": "https://dc.lft.to/lastmile_qr_scan"}, "bike_id": "8dd87f6ebf334b47a1372e68678e4107", "lat": 38.9241145, "name": "8dd87f6ebf334b47a1372e68678e4107", "lon": -77.02129733333334, "fusion_lon": 0.0}, {"is_reserved": 0, "type": "electric_scooter", "fusion_lat": 0.0, "is_disabled": 0, "rental_uris": {"ios": "https://dc.lft.to/lastmile_qr_scan", "android": "https://dc.lft.to/lastmile_qr_scan"}, "bike_id": "78c9df57e23c03ac7c904c082ca41fa4", "lat": 38.91623283333333, "name": "78c9df57e23c03ac7c904c082ca41fa4", "lon": -77.029698, "fusion_lon": 0.0}, {"is_reserved": 0, "type": "electric_scooter", "fusion_lat": 0.0, "is_disabled": 0, "rental_uris": {"ios": "https://dc.lft.to/lastmile_qr_scan", "android": "https://dc.lft.to/lastmile_qr_scan"}, "bike_id": "3299b4071a9dee9a65dcedce8a1c3c9e", "lat": 38.926616833333334, "name": "3299b4071a9dee9a65dcedce8a1c3c9e", "lon": -77.0243655, "fusion_lon": 0.0}, {"is_reserved": 0, "type": "electric_scooter", "fusion_lat": 0.0, "is_disabled": 0, "rental_uris": {"ios": "https://dc.lft.to/lastmile_qr_scan", "android": "https://dc.lft.to/lastmile_qr_scan"}, "bike_id": "d7d3bdc9be4fda6ee24f7e81acc767cf", "lat": 38.924437833333336, "name": "d7d3bdc9be4fda6ee24f7e81acc767cf", "lon": -77.021315, "fusion_lon": 0.0}, {"is_reserved": 0, "type": "electric_scooter", "fusion_lat": 0.0, "is_disabled": 0, "rental_uris": {"ios": "https://dc.lft.to/lastmile_qr_scan", "android": "https://dc.lft.to/lastmile_qr_scan"}, "bike_id": "bd8fb0d512aebaa071d5ca49ab15ed9c", "lat": 38.91341166666667, "name": "bd8fb0d512aebaa071d5ca49ab15ed9c", "lon": -77.03043533333333, "fusion_lon": 0.0}, {"is_reserved": 0, "type": "electric_scooter", "fusion_lat": 0.0, "is_disabled": 0, "rental_uris": {"ios": "https://dc.lft.to/lastmile_qr_scan", "android": "https://dc.lft.to/lastmile_qr_scan"}, "bike_id": "bd5017a96e8d02865d3174aa4f71c1c2", "lat": 38.90682833333334, "name": "bd5017a96e8d02865d3174aa4f71c1c2", "lon": -77.02719583333334, "fusion_lon": 0.0}, {"is_reserved": 0, "type": "electric_bike", "fusion_lat": 0.0, "is_disabled": 0, "rental_uris": {"ios": "https://dc.lft.to/lastmile_qr_scan", "android": "https://dc.lft.to/lastmile_qr_scan"}, "bike_id": "603c4066b6f6eb7f45e0efa7d9363b63", "lat": 38.857842, "name": "603c4066b6f6eb7f45e0efa7d9363b63", "lon": -77.09965616666666, "fusion_lon": 0.0}, {"is_reserved": 0, "type": "electric_scooter", "fusion_lat": 0.0, "is_disabled": 0, "rental_uris": {"ios": "https://dc.lft.to/lastmile_qr_scan", "android": "https://dc.lft.to/lastmile_qr_scan"}, "bike_id": "174a47e05d97b8396cf0d164a70d0270", "lat": 38.898535833333334, "name": "174a47e05d97b8396cf0d164a70d0270", "lon": -76.99033533333333, "fusion_lon": 0.0}, {"is_reserved": 0, "type": "electric_scooter", "fusion_lat": 0.0, "is_disabled": 0, "rental_uris": {"ios": "https://dc.lft.to/lastmile_qr_scan", "android": "https://dc.lft.to/lastmile_qr_scan"}, "bike_id": "9af2fb705aa18b1e2a5d4e9f6bfde9ef", "lat": 38.92803716666667, "name": "9af2fb705aa18b1e2a5d4e9f6bfde9ef", "lon": -77.02390266666667, "fusion_lon": 0.0}, {"is_reserved": 0, "type": "electric_bike", "fusion_lat": 0.0, "is_disabled": 0, "rental_uris": {"ios": "https://dc.lft.to/lastmile_qr_scan", "android": "https://dc.lft.to/lastmile_qr_scan"}, "bike_id": "e9a03536bd1d790a84d32f297e0720ef", "lat": 39.08438566666667, "name": "e9a03536bd1d790a84d32f297e0720ef", "lon": -76.95140466666666, "fusion_lon": 0.0}, {"is_reserved": 0, "type": "electric_scooter", "fusion_lat": 0.0, "is_disabled": 0, "rental_uris": {"ios": "https://dc.lft.to/lastmile_qr_scan", "android": "https://dc.lft.to/lastmile_qr_scan"}, "bike_id": "f0e24f0b68bfe62cd679bea3f816ad4a", "lat": 38.90123416666667, "name": "f0e24f0b68bfe62cd679bea3f816ad4a", "lon": -77.05146083333334, "fusion_lon": 0.0}, {"is_reserved": 0, "type": "electric_scooter", "fusion_lat": 0.0, "is_disabled": 0, "rental_uris": {"ios": "https://dc.lft.to/lastmile_qr_scan", "android": "https://dc.lft.to/lastmile_qr_scan"}, "bike_id": "bf0b6f779fe56a8bc093c04fc24bfef8", "lat": 38.92682216666667, "name": "bf0b6f779fe56a8bc093c04fc24bfef8", "lon": -77.00877266666667, "fusion_lon": 0.0}, {"is_reserved": 0, "type": "electric_scooter", "fusion_lat": 0.0, "is_disabled": 0, "rental_uris": {"ios": "https://dc.lft.to/lastmile_qr_scan", "android": "https://dc.lft.to/lastmile_qr_scan"}, "bike_id": "00d820f3371af663498542632dfb6d9d", "lat": 38.92418633333333, "name": "00d820f3371af663498542632dfb6d9d", "lon": -77.0195065, "fusion_lon": 0.0}, {"is_reserved": 0, "type": "electric_bike", "fusion_lat": 0.0, "is_disabled": 0, "rental_uris": {"ios": "https://dc.lft.to/lastmile_qr_scan", "android": "https://dc.lft.to/lastmile_qr_scan"}, "bike_id": "958e5fe0c1eed29bfce257ea9849df47", "lat": 38.883753166666665, "name": "958e5fe0c1eed29bfce257ea9849df47", "lon": -76.923754, "fusion_lon": 0.0}, {"is_reserved": 0, "type": "electric_scooter", "fusion_lat": 0.0, "is_disabled": 0, "rental_uris": {"ios": "https://dc.lft.to/lastmile_qr_scan", "android": "https://dc.lft.to/lastmile_qr_scan"}, "bike_id": "8772e25cc98dbdf823433e366246cee8", "lat": 38.93163583333333, "name": "8772e25cc98dbdf823433e366246cee8", "lon": -77.0560635, "fusion_lon": 0.0}, {"is_reserved": 0, "type": "electric_scooter", "fusion_lat": 0.0, "is_disabled": 0, "rental_uris": {"ios": "https://dc.lft.to/lastmile_qr_scan", "android": "https://dc.lft.to/lastmile_qr_scan"}, "bike_id": "94b2ba56d4b3b8d969fbf094de7154d7", "lat": 38.907344, "name": "94b2ba56d4b3b8d969fbf094de7154d7", "lon": -77.045123, "fusion_lon": 0.0}, {"is_reserved": 0, "type": "electric_scooter", "fusion_lat": 0.0, "is_disabled": 0, "rental_uris": {"ios": "https://dc.lft.to/lastmile_qr_scan", "android": "https://dc.lft.to/lastmile_qr_scan"}, "bike_id": "bf5fb7b369546d3628be872be13d9ff1", "lat": 38.883970833333336, "name": "bf5fb7b369546d3628be872be13d9ff1", "lon": -76.930421, "fusion_lon": 0.0}, {"is_reserved": 0, "type": "electric_scooter", "fusion_lat": 0.0, "is_disabled": 0, "rental_uris": {"ios": "https://dc.lft.to/lastmile_qr_scan", "android": "https://dc.lft.to/lastmile_qr_scan"}, "bike_id": "02f71cdf5f38d23e5de78704532bbf04", "lat": 38.923675833333334, "name": "02f71cdf5f38d23e5de78704532bbf04", "lon": -77.02981416666667, "fusion_lon": 0.0}, {"is_reserved": 0, "type": "electric_scooter", "fusion_lat": 0.0, "is_disabled": 0, "rental_uris": {"ios": "https://dc.lft.to/lastmile_qr_scan", "android": "https://dc.lft.to/lastmile_qr_scan"}, "bike_id": "ef12ca3ed3f5e1ffa21c713f32d2ecf4", "lat": 38.90395566666667, "name": "ef12ca3ed3f5e1ffa21c713f32d2ecf4", "lon": -77.05077766666666, "fusion_lon": 0.0}, {"is_reserved": 0, "type": "electric_scooter", "fusion_lat": 0.0, "is_disabled": 0, "rental_uris": {"ios": "https://dc.lft.to/lastmile_qr_scan", "android": "https://dc.lft.to/lastmile_qr_scan"}, "bike_id": "04eab890da471ccf9515cf0a1c5b7340", "lat": 38.90361583333333, "name": "04eab890da471ccf9515cf0a1c5b7340", "lon": -77.00569833333333, "fusion_lon": 0.0}, {"is_reserved": 0, "type": "electric_scooter", "fusion_lat": 0.0, "is_disabled": 0, "rental_uris": {"ios": "https://dc.lft.to/lastmile_qr_scan", "android": "https://dc.lft.to/lastmile_qr_scan"}, "bike_id": "b8441bc48d18546f64c1d3ea46947718", "lat": 38.924659, "name": "b8441bc48d18546f64c1d3ea46947718", "lon": -77.05233333333334, "fusion_lon": 0.0}, {"is_reserved": 0, "type": "electric_scooter", "fusion_lat": 0.0, "is_disabled": 0, "rental_uris": {"ios": "https://dc.lft.to/lastmile_qr_scan", "android": "https://dc.lft.to/lastmile_qr_scan"}, "bike_id": "ef7fb64479ab95cb327f26d40108aa2f", "lat": 38.902842666666665, "name": "ef7fb64479ab95cb327f26d40108aa2f", "lon": -77.048839, "fusion_lon": 0.0}, {"is_reserved": 0, "type": "electric_scooter", "fusion_lat": 0.0, "is_disabled": 0, "rental_uris": {"ios": "https://dc.lft.to/lastmile_qr_scan", "android": "https://dc.lft.to/lastmile_qr_scan"}, "bike_id": "c1db4d65035acb40276a893d475c967c", "lat": 38.927564833333335, "name": "c1db4d65035acb40276a893d475c967c", "lon": -77.032738, "fusion_lon": 0.0}, {"is_reserved": 0, "type": "electric_scooter", "fusion_lat": 0.0, "is_disabled": 0, "rental_uris": {"ios": "https://dc.lft.to/lastmile_qr_scan", "android": "https://dc.lft.to/lastmile_qr_scan"}, "bike_id": "8ddbdf6ef09a3f7f81623c1b32bd77bd", "lat": 38.903031666666664, "name": "8ddbdf6ef09a3f7f81623c1b32bd77bd", "lon": -77.02818266666667, "fusion_lon": 0.0}, {"is_reserved": 0, "type": "electric_scooter", "fusion_lat": 0.0, "is_disabled": 0, "rental_uris": {"ios": "https://dc.lft.to/lastmile_qr_scan", "android": "https://dc.lft.to/lastmile_qr_scan"}, "bike_id": "e52bfec425de7d321dd97dca126bf377", "lat": 38.90722383333333, "name": "e52bfec425de7d321dd97dca126bf377", "lon": -77.003604, "fusion_lon": 0.0}, {"is_reserved": 0, "type": "electric_scooter", "fusion_lat": 0.0, "is_disabled": 0, "rental_uris": {"ios": "https://dc.lft.to/lastmile_qr_scan", "android": "https://dc.lft.to/lastmile_qr_scan"}, "bike_id": "d9d9428238ee64adacf7d1c5c078160f", "lat": 38.9173985, "name": "d9d9428238ee64adacf7d1c5c078160f", "lon": -77.02121533333333, "fusion_lon": 0.0}, {"is_reserved": 0, "type": "electric_bike", "fusion_lat": 0.0, "is_disabled": 0, "rental_uris": {"ios": "https://dc.lft.to/lastmile_qr_scan", "android": "https://dc.lft.to/lastmile_qr_scan"}, "bike_id": "daacf791bcabf233a0bdbb2f10b098ed", "lat": 38.93389066666667, "name": "daacf791bcabf233a0bdbb2f10b098ed", "lon": -77.023903, "fusion_lon": 0.0}, {"is_reserved": 0, "type": "electric_bike", "fusion_lat": 0.0, "is_disabled": 0, "rental_uris": {"ios": "https://dc.lft.to/lastmile_qr_scan", "android": "https://dc.lft.to/lastmile_qr_scan"}, "bike_id": "7aab669b1657ed697e8c8e828796ba9d", "lat": 38.950165166666665, "name": "7aab669b1657ed697e8c8e828796ba9d", "lon": -77.01425633333334, "fusion_lon": 0.0}, {"is_reserved": 0, "type": "electric_scooter", "fusion_lat": 0.0, "is_disabled": 0, "rental_uris": {"ios": "https://dc.lft.to/lastmile_qr_scan", "android": "https://dc.lft.to/lastmile_qr_scan"}, "bike_id": "9781356e2951d8790faf1f2316b02135", "lat": 38.919761666666666, "name": "9781356e2951d8790faf1f2316b02135", "lon": -77.04175416666666, "fusion_lon": 0.0}, {"is_reserved": 0, "type": "electric_scooter", "fusion_lat": 0.0, "is_disabled": 0, "rental_uris": {"ios": "https://dc.lft.to/lastmile_qr_scan", "android": "https://dc.lft.to/lastmile_qr_scan"}, "bike_id": "a4ae6d6b3eb588ec978f3ffd1565eac2", "lat": 38.967978, "name": "a4ae6d6b3eb588ec978f3ffd1565eac2", "lon": -77.02562983333333, "fusion_lon": 0.0}, {"is_reserved": 0, "type": "electric_scooter", "fusion_lat": 0.0, "is_disabled": 0, "rental_uris": {"ios": "https://dc.lft.to/lastmile_qr_scan", "android": "https://dc.lft.to/lastmile_qr_scan"}, "bike_id": "05de23e59e6f5f681ff7afad1dc09071", "lat": 38.904843166666666, "name": "05de23e59e6f5f681ff7afad1dc09071", "lon": -76.94958633333333, "fusion_lon": 0.0}, {"is_reserved": 0, "type": "electric_scooter", "fusion_lat": 0.0, "is_disabled": 0, "rental_uris": {"ios": "https://dc.lft.to/lastmile_qr_scan", "android": "https://dc.lft.to/lastmile_qr_scan"}, "bike_id": "690346739ba4ac4926905f1c3f543909", "lat": 38.922333, "name": "690346739ba4ac4926905f1c3f543909", "lon": -76.98845933333334, "fusion_lon": 0.0}, {"is_reserved": 0, "type": "electric_scooter", "fusion_lat": 0.0, "is_disabled": 0, "rental_uris": {"ios": "https://dc.lft.to/lastmile_qr_scan", "android": "https://dc.lft.to/lastmile_qr_scan"}, "bike_id": "fcc5ec22eac07074f3c94f4706472df2", "lat": 38.90557666666667, "name": "fcc5ec22eac07074f3c94f4706472df2", "lon": -77.00726133333333, "fusion_lon": 0.0}, {"is_reserved": 0, "type": "electric_scooter", "fusion_lat": 0.0, "is_disabled": 0, "rental_uris": {"ios": "https://dc.lft.to/lastmile_qr_scan", "android": "https://dc.lft.to/lastmile_qr_scan"}, "bike_id": "90df2dd217475c5c7aabed6133a1bf27", "lat": 38.92378766666667, "name": "90df2dd217475c5c7aabed6133a1bf27", "lon": -77.02741216666666, "fusion_lon": 0.0}, {"is_reserved": 0, "type": "electric_scooter", "fusion_lat": 0.0, "is_disabled": 0, "rental_uris": {"ios": "https://dc.lft.to/lastmile_qr_scan", "android": "https://dc.lft.to/lastmile_qr_scan"}, "bike_id": "e76979b8014aedf691dad8cb29644a83", "lat": 38.920741166666666, "name": "e76979b8014aedf691dad8cb29644a83", "lon": -77.02306516666667, "fusion_lon": 0.0}, {"is_reserved": 0, "type": "electric_scooter", "fusion_lat": 0.0, "is_disabled": 0, "rental_uris": {"ios": "https://dc.lft.to/lastmile_qr_scan", "android": "https://dc.lft.to/lastmile_qr_scan"}, "bike_id": "6290d0281551d1e62fb968018a3b5fb7", "lat": 38.905788333333334, "name": "6290d0281551d1e62fb968018a3b5fb7", "lon": -77.07276766666666, "fusion_lon": 0.0}, {"is_reserved": 0, "type": "electric_scooter", "fusion_lat": 0.0, "is_disabled": 0, "rental_uris": {"ios": "https://dc.lft.to/lastmile_qr_scan", "android": "https://dc.lft.to/lastmile_qr_scan"}, "bike_id": "b0388e6a11b789078acf6df2e7177e0b", "lat": 38.89415116666667, "name": "b0388e6a11b789078acf6df2e7177e0b", "lon": -77.0108595, "fusion_lon": 0.0}, {"is_reserved": 0, "type": "electric_scooter", "fusion_lat": 0.0, "is_disabled": 0, "rental_uris": {"ios": "https://dc.lft.to/lastmile_qr_scan", "android": "https://dc.lft.to/lastmile_qr_scan"}, "bike_id": "0a65605c2163fa1060f929aabdb3c9c8", "lat": 38.920319666666664, "name": "0a65605c2163fa1060f929aabdb3c9c8", "lon": -77.04185166666667, "fusion_lon": 0.0}, {"is_reserved": 0, "type": "electric_scooter", "fusion_lat": 0.0, "is_disabled": 0, "rental_uris": {"ios": "https://dc.lft.to/lastmile_qr_scan", "android": "https://dc.lft.to/lastmile_qr_scan"}, "bike_id": "316edf280f786bbcba274328e2873cff", "lat": 38.920072833333336, "name": "316edf280f786bbcba274328e2873cff", "lon": -77.07103416666666, "fusion_lon": 0.0}, {"is_reserved": 0, "type": "electric_scooter", "fusion_lat": 0.0, "is_disabled": 0, "rental_uris": {"ios": "https://dc.lft.to/lastmile_qr_scan", "android": "https://dc.lft.to/lastmile_qr_scan"}, "bike_id": "b07ad46ea978922dc7430eb7469a0c96", "lat": 38.91262566666666, "name": "b07ad46ea978922dc7430eb7469a0c96", "lon": -77.0387705, "fusion_lon": 0.0}, {"is_reserved": 0, "type": "electric_scooter", "fusion_lat": 0.0, "is_disabled": 0, "rental_uris": {"ios": "https://dc.lft.to/lastmile_qr_scan", "android": "https://dc.lft.to/lastmile_qr_scan"}, "bike_id": "ca87dd409dca251dc2f51cd7b13d90ff", "lat": 38.92826483333333, "name": "ca87dd409dca251dc2f51cd7b13d90ff", "lon": -77.0215765, "fusion_lon": 0.0}, {"is_reserved": 0, "type": "electric_scooter", "fusion_lat": 0.0, "is_disabled": 0, "rental_uris": {"ios": "https://dc.lft.to/lastmile_qr_scan", "android": "https://dc.lft.to/lastmile_qr_scan"}, "bike_id": "c1900d6a1929ccebaa7ee735cddaf41a", "lat": 38.919798666666665, "name": "c1900d6a1929ccebaa7ee735cddaf41a", "lon": -77.0238125, "fusion_lon": 0.0}, {"is_reserved": 0, "type": "electric_scooter", "fusion_lat": 0.0, "is_disabled": 0, "rental_uris": {"ios": "https://dc.lft.to/lastmile_qr_scan", "android": "https://dc.lft.to/lastmile_qr_scan"}, "bike_id": "c668d61777bc6955c1795d105ae0d996", "lat": 38.9307295, "name": "c668d61777bc6955c1795d105ae0d996", "lon": -77.03232716666666, "fusion_lon": 0.0}, {"is_reserved": 0, "type": "electric_scooter", "fusion_lat": 0.0, "is_disabled": 0, "rental_uris": {"ios": "https://dc.lft.to/lastmile_qr_scan", "android": "https://dc.lft.to/lastmile_qr_scan"}, "bike_id": "742ce4948001897222279727e0ec9e54", "lat": 38.939874333333336, "name": "742ce4948001897222279727e0ec9e54", "lon": -77.028916, "fusion_lon": 0.0}, {"is_reserved": 0, "type": "electric_scooter", "fusion_lat": 0.0, "is_disabled": 0, "rental_uris": {"ios": "https://dc.lft.to/lastmile_qr_scan", "android": "https://dc.lft.to/lastmile_qr_scan"}, "bike_id": "f112bf3a68529a8fe91edca48ed87073", "lat": 38.894725333333334, "name": "f112bf3a68529a8fe91edca48ed87073", "lon": -77.027346, "fusion_lon": 0.0}, {"is_reserved": 0, "type": "electric_bike", "fusion_lat": 0.0, "is_disabled": 0, "rental_uris": {"ios": "https://dc.lft.to/lastmile_qr_scan", "android": "https://dc.lft.to/lastmile_qr_scan"}, "bike_id": "8b336c0141c2e91fc43ae391e60f65ba", "lat": 38.882783333333336, "name": "8b336c0141c2e91fc43ae391e60f65ba", "lon": -76.932421, "fusion_lon": 0.0}, {"is_reserved": 0, "type": "electric_scooter", "fusion_lat": 0.0, "is_disabled": 0, "rental_uris": {"ios": "https://dc.lft.to/lastmile_qr_scan", "android": "https://dc.lft.to/lastmile_qr_scan"}, "bike_id": "8bc3aa53d0c4b19e55f299e35b443910", "lat": 38.892234, "name": "8bc3aa53d0c4b19e55f299e35b443910", "lon": -77.0448645, "fusion_lon": 0.0}, {"is_reserved": 0, "type": "electric_scooter", "fusion_lat": 0.0, "is_disabled": 0, "rental_uris": {"ios": "https://dc.lft.to/lastmile_qr_scan", "android": "https://dc.lft.to/lastmile_qr_scan"}, "bike_id": "8a550475275d77feab571e841ce7df85", "lat": 38.887292, "name": "8a550475275d77feab571e841ce7df85", "lon": -76.98376483333334, "fusion_lon": 0.0}, {"is_reserved": 0, "type": "electric_scooter", "fusion_lat": 0.0, "is_disabled": 0, "rental_uris": {"ios": "https://dc.lft.to/lastmile_qr_scan", "android": "https://dc.lft.to/lastmile_qr_scan"}, "bike_id": "d1bfc1396fe58c73384c18f56a01fe6c", "lat": 38.899541, "name": "d1bfc1396fe58c73384c18f56a01fe6c", "lon": -77.04752033333334, "fusion_lon": 0.0}, {"is_reserved": 0, "type": "electric_scooter", "fusion_lat": 0.0, "is_disabled": 0, "rental_uris": {"ios": "https://dc.lft.to/lastmile_qr_scan", "android": "https://dc.lft.to/lastmile_qr_scan"}, "bike_id": "079bc8684d820c941ba36a48f281f26f", "lat": 38.95632283333333, "name": "079bc8684d820c941ba36a48f281f26f", "lon": -77.02240116666667, "fusion_lon": 0.0}, {"is_reserved": 0, "type": "electric_scooter", "fusion_lat": 0.0, "is_disabled": 0, "rental_uris": {"ios": "https://dc.lft.to/lastmile_qr_scan", "android": "https://dc.lft.to/lastmile_qr_scan"}, "bike_id": "204fe711efe1efb0d257b7acb4863dd6", "lat": 38.91801683333333, "name": "204fe711efe1efb0d257b7acb4863dd6", "lon": -77.03339166666666, "fusion_lon": 0.0}, {"is_reserved": 0, "type": "electric_scooter", "fusion_lat": 0.0, "is_disabled": 0, "rental_uris": {"ios": "https://dc.lft.to/lastmile_qr_scan", "android": "https://dc.lft.to/lastmile_qr_scan"}, "bike_id": "8c330dc467579b09f8cfffb10ed27c5c", "lat": 38.90792166666667, "name": "8c330dc467579b09f8cfffb10ed27c5c", "lon": -77.00960666666667, "fusion_lon": 0.0}, {"is_reserved": 0, "type": "electric_scooter", "fusion_lat": 0.0, "is_disabled": 0, "rental_uris": {"ios": "https://dc.lft.to/lastmile_qr_scan", "android": "https://dc.lft.to/lastmile_qr_scan"}, "bike_id": "e8d212f08aabe91c095698e79d943faf", "lat": 38.90934683333333, "name": "e8d212f08aabe91c095698e79d943faf", "lon": -76.99909566666666, "fusion_lon": 0.0}, {"is_reserved": 0, "type": "electric_scooter", "fusion_lat": 0.0, "is_disabled": 0, "rental_uris": {"ios": "https://dc.lft.to/lastmile_qr_scan", "android": "https://dc.lft.to/lastmile_qr_scan"}, "bike_id": "10cd3a4e44a0289c53ed8f29453d7f9a", "lat": 38.8793845, "name": "10cd3a4e44a0289c53ed8f29453d7f9a", "lon": -77.00583566666667, "fusion_lon": 0.0}, {"is_reserved": 0, "type": "electric_scooter", "fusion_lat": 0.0, "is_disabled": 0, "rental_uris": {"ios": "https://dc.lft.to/lastmile_qr_scan", "android": "https://dc.lft.to/lastmile_qr_scan"}, "bike_id": "bd0e6529260af557c6e7ea0237e8c62b", "lat": 38.9342245, "name": "bd0e6529260af557c6e7ea0237e8c62b", "lon": -77.03286666666666, "fusion_lon": 0.0},