{"data": {"bikes": [{"fusion_lat": 0.0, "lat": 38.897092666666666, "rental_uris": {"ios": "https://dc.lft.to/lastmile_qr_scan", "android": "https://dc.lft.to/lastmile_qr_scan"}, "name": "a6bbed9cbd7bc9755b7a4c635ab995c3", "type": "electric_scooter", "fusion_lon": 0.0, "is_disabled": 0, "is_reserved": 0, "bike_id": "a6bbed9cbd7bc9755b7a4c635ab995c3", "lon": -77.0228835}, {"fusion_lat": 0.0, "lat": 38.92334733333333, "rental_uris": {"ios": "https://dc.lft.to/lastmile_qr_scan", "android": "https://dc.lft.to/lastmile_qr_scan"}, "name": "e62705558f518db0c7e888d1d47b7182", "type": "electric_scooter", "fusion_lon": 0.0, "is_disabled": 0, "is_reserved": 0, "bike_id": "e62705558f518db0c7e888d1d47b7182", "lon": -77.04183483333334}, {"fusion_lat": 0.0, "lat": 38.94820216666667, "rental_uris": {"ios": "https://dc.lft.to/lastmile_qr_scan", "android": "https://dc.lft.to/lastmile_qr_scan"}, "name": "fd076f7114ce665536b8f88c0d5851b9", "type": "electric_bike", "fusion_lon": 0.0, "is_disabled": 0, "is_reserved": 0, "bike_id": "fd076f7114ce665536b8f88c0d5851b9", "lon": -77.029807}, {"fusion_lat": 0.0, "lat": 38.893474499999996, "rental_uris": {"ios": "https://dc.lft.to/lastmile_qr_scan", "android": "https://dc.lft.to/lastmile_qr_scan"}, "name": "0e7eec1f61886af81beb401f028e07b7", "type": "electric_scooter", "fusion_lon": 0.0, "is_disabled": 0, "is_reserved": 0, "bike_id": "0e7eec1f61886af81beb401f028e07b7", "lon": -77.0119425}, {"fusion_lat": 0.0, "lat": 38.90052583333333, "rental_uris": {"ios": "https://dc.lft.to/lastmile_qr_scan", "android": "https://dc.lft.to/lastmile_qr_scan"}, "name": "9d1b442b91c85796cffa7df6f91e0609", "type": "electric_scooter", "fusion_lon": 0.0, "is_disabled": 0, "is_reserved": 0, "bike_id": "9d1b442b91c85796cffa7df6f91e0609", "lon": -76.98265333333333}, {"fusion_lat": 0.0, "lat": 38.855790999999996, "rental_uris": {"ios": "https://dc.lft.to/lastmile_qr_scan", "android": "https://dc.lft.to/lastmile_qr_scan"}, "name": "03c0bd48bc7c725dc5dafd502e339620", "type": "electric_scooter", "fusion_lon": 0.0, "is_disabled": 0, "is_reserved": 0, "bike_id": "03c0bd48bc7c725dc5dafd502e339620", "lon": -76.966777}, {"fusion_lat": 0.0, "lat": 38.923657, "rental_uris": {"ios": "https://dc.lft.to/lastmile_qr_scan", "android": "https://dc.lft.to/lastmile_qr_scan"}, "name": "324dd643ae26005077dea64953dcd86f", "type": "electric_scooter", "fusion_lon": 0.0, "is_disabled": 0, "is_reserved": 0, "bike_id": "324dd643ae26005077dea64953dcd86f", "lon": -77.05029433333333}, {"fusion_lat": 0.0, "lat": 38.924006166666665, "rental_uris": {"ios": "https://dc.lft.to/lastmile_qr_scan", "android": "https://dc.lft.to/lastmile_qr_scan"}, "name": "c74673045fe8c0c2c146b87ac92480db", "type": "electric_scooter", "fusion_lon": 0.0, "is_disabled": 0, "is_reserved": 0, "bike_id": "c74673045fe8c0c2c146b87ac92480db", "lon": -77.02040766666667}, {"fusion_lat": 0.0, "lat": 38.9245755, "rental_uris": {"ios": "https://dc.lft.to/lastmile_qr_scan", "android": "https://dc.lft.to/lastmile_qr_scan"}, "name": "208f01b3706c05d773132582fe784816", "type": "electric_scooter", "fusion_lon": 0.0, "is_disabled": 0, "is_reserved": 0, "bike_id": "208f01b3706c05d773132582fe784816", "lon": -77.02151133333334}, {"fusion_lat": 0.0, "lat": 38.91555816666666, "rental_uris": {"ios": "https://dc.lft.to/lastmile_qr_scan", "android": "https://dc.lft.to/lastmile_qr_scan"}, "name": "d254c139fc4b5591fbee1adc12f26206", "type": "electric_scooter", "fusion_lon": 0.0, "is_disabled": 0, "is_reserved": 0, "bike_id": "d254c139fc4b5591fbee1adc12f26206", "lon": -77.03173183333334}, {"fusion_lat": 0.0, "lat": 38.90563216666666, "rental_uris": {"ios": "https://dc.lft.to/lastmile_qr_scan", "android": "https://dc.lft.to/lastmile_qr_scan"}, "name": "1096ce5ee4b5243bd9fdd09b098dc772", "type": "electric_scooter", "fusion_lon": 0.0, "is_disabled": 0, "is_reserved": 0, "bike_id": "1096ce5ee4b5243bd9fdd09b098dc772", "lon": -77.00396883333333}, {"fusion_lat": 0.0, "lat": 38.902475833333334, "rental_uris": {"ios": "https://dc.lft.to/lastmile_qr_scan", "android": "https://dc.lft.to/lastmile_qr_scan"}, "name": "14115eb585b42e7bdcf5ba47c2c29f5a", "type": "electric_scooter", "fusion_lon": 0.0, "is_disabled": 0, "is_reserved": 0, "bike_id": "14115eb585b42e7bdcf5ba47c2c29f5a", "lon": -77.039734}, {"fusion_lat": 0.0, "lat": 38.914529, "rental_uris": {"ios": "https://dc.lft.to/lastmile_qr_scan", "android": "https://dc.lft.to/lastmile_qr_scan"}, "name": "ccedfbdf49bfcc06bb8bd944791c3f9e", "type": "electric_scooter", "fusion_lon": 0.0, "is_disabled": 0, "is_reserved": 0, "bike_id": "ccedfbdf49bfcc06bb8bd944791c3f9e", "lon": -77.046228}, {"fusion_lat": 0.0, "lat": 38.90667466666667, "rental_uris": {"ios": "https://dc.lft.to/lastmile_qr_scan", "android": "https://dc.lft.to/lastmile_qr_scan"}, "name": "70f02af7e74eba1baae38a5fd1e69833", "type": "electric_scooter", "fusion_lon": 0.0, "is_disabled": 0, "is_reserved": 0, "bike_id": "70f02af7e74eba1baae38a5fd1e69833", "lon": -77.071896}, {"fusion_lat": 0.0, "lat": 38.884234166666666, "rental_uris": {"ios": "https://dc.lft.to/lastmile_qr_scan", "android": "https://dc.lft.to/lastmile_qr_scan"}, "name": "86de4aee040a41cc2f9882af987807a8", "type": "electric_bike", "fusion_lon": 0.0, "is_disabled": 0, "is_reserved": 0, "bike_id": "86de4aee040a41cc2f9882af987807a8", "lon": -76.954054}, {"fusion_lat": 0.0, "lat": 38.865382333333336, "rental_uris": {"ios": "https://dc.lft.to/lastmile_qr_scan", "android": "https://dc.lft.to/lastmile_qr_scan"}, "name": "0444f26a8648fc58fc68346e64e86e63", "type": "electric_scooter", "fusion_lon": 0.0, "is_disabled": 0, "is_reserved": 0, "bike_id": "0444f26a8648fc58fc68346e64e86e63", "lon": -76.98970433333334}, {"fusion_lat": 0.0, "lat": 38.8778285, "rental_uris": {"ios": "https://dc.lft.to/lastmile_qr_scan", "android": "https://dc.lft.to/lastmile_qr_scan"}, "name": "8e8edc3d224effbff657c36b216772a0", "type": "electric_scooter", "fusion_lon": 0.0, "is_disabled": 0, "is_reserved": 0, "bike_id": "8e8edc3d224effbff657c36b216772a0", "lon": -76.99509916666666}, {"fusion_lat": 0.0, "lat": 38.916789333333334, "rental_uris": {"ios": "https://dc.lft.to/lastmile_qr_scan", "android": "https://dc.lft.to/lastmile_qr_scan"}, "name": "d384fee240c6d70109dc74745c87b8ad", "type": "electric_scooter", "fusion_lon": 0.0, "is_disabled": 0, "is_reserved": 0, "bike_id": "d384fee240c6d70109dc74745c87b8ad", "lon": -77.01580766666666}, {"fusion_lat": 0.0, "lat": 38.90575333333334, "rental_uris": {"ios": "https://dc.lft.to/lastmile_qr_scan", "android": "https://dc.lft.to/lastmile_qr_scan"}, "name": "deabfab135526e3b02d5599085ebc782", "type": "electric_scooter", "fusion_lon": 0.0, "is_disabled": 0, "is_reserved": 0, "bike_id": "deabfab135526e3b02d5599085ebc782", "lon": -77.00594666666667}, {"fusion_lat": 0.0, "lat": 38.898248333333335, "rental_uris": {"ios": "https://dc.lft.to/lastmile_qr_scan", "android": "https://dc.lft.to/lastmile_qr_scan"}, "name": "abe769c5120fc83f1f5c391b93e6272a", "type": "electric_scooter", "fusion_lon": 0.0, "is_disabled": 0, "is_reserved": 0, "bike_id": "abe769c5120fc83f1f5c391b93e6272a", "lon": -77.0481765}, {"fusion_lat": 0.0, "lat": 38.88748183333333, "rental_uris": {"ios": "https://dc.lft.to/lastmile_qr_scan", "android": "https://dc.lft.to/lastmile_qr_scan"}, "name": "dc9f1866188c053334a679ad5b3e7959", "type": "electric_scooter", "fusion_lon": 0.0, "is_disabled": 0, "is_reserved": 0, "bike_id": "dc9f1866188c053334a679ad5b3e7959", "lon": -77.02118216666666}, {"fusion_lat": 0.0, "lat": 38.9392925, "rental_uris": {"ios": "https://dc.lft.to/lastmile_qr_scan", "android": "https://dc.lft.to/lastmile_qr_scan"}, "name": "6944831d1f509ec09c16ea9ba3b2cf4b", "type": "electric_scooter", "fusion_lon": 0.0, "is_disabled": 0, "is_reserved": 0, "bike_id": "6944831d1f509ec09c16ea9ba3b2cf4b", "lon": -77.027897}, {"fusion_lat": 0.0, "lat": 38.906393, "rental_uris": {"ios": "https://dc.lft.to/lastmile_qr_scan", "android": "https://dc.lft.to/lastmile_qr_scan"}, "name": "3b17b24bfd066c303082df01e4f013b9", "type": "electric_scooter", "fusion_lon": 0.0, "is_disabled": 0, "is_reserved": 0, "bike_id": "3b17b24bfd066c303082df01e4f013b9", "lon": -77.010017}, {"fusion_lat": 0.0, "lat": 38.934316333333335, "rental_uris": {"ios": "https://dc.lft.to/lastmile_qr_scan", "android": "https://dc.lft.to/lastmile_qr_scan"}, "name": "27b65afd6644e4ae369da598697e94b2", "type": "electric_scooter", "fusion_lon": 0.0, "is_disabled": 0, "is_reserved": 0, "bike_id": "27b65afd6644e4ae369da598697e94b2", "lon": -77.05587366666667}, {"fusion_lat": 0.0, "lat": 38.9027665, "rental_uris": {"ios": "https://dc.lft.to/lastmile_qr_scan", "android": "https://dc.lft.to/lastmile_qr_scan"}, "name": "70ebf5690de29f424e7e32b4cbe7f637", "type": "electric_scooter", "fusion_lon": 0.0, "is_disabled": 0, "is_reserved": 0, "bike_id": "70ebf5690de29f424e7e32b4cbe7f637", "lon": -77.02992633333334}, {"fusion_lat": 0.0, "lat": 38.90872, "rental_uris": {"ios": "https://dc.lft.to/lastmile_qr_scan", "android": "https://dc.lft.to/lastmile_qr_scan"}, "name": "aac1a5535b950237a236aa5820911211", "type": "electric_scooter", "fusion_lon": 0.0, "is_disabled": 0, "is_reserved": 0, "bike_id": "aac1a5535b950237a236aa5820911211", "lon": -77.07167033333333}, {"fusion_lat": 0.0, "lat": 38.90093, "rental_uris": {"ios": "https://dc.lft.to/lastmile_qr_scan", "android": "https://dc.lft.to/lastmile_qr_scan"}, "name": "421c7d874b42c25a2fb5ef67c91dadf6", "type": "electric_scooter", "fusion_lon": 0.0, "is_disabled": 0, "is_reserved": 0, "bike_id": "421c7d874b42c25a2fb5ef67c91dadf6", "lon": -77.026887}, {"fusion_lat": 0.0, "lat": 38.9172125, "rental_uris": {"ios": "https://dc.lft.to/lastmile_qr_scan", "android": "https://dc.lft.to/lastmile_qr_scan"}, "name": "ab8c88ca3b0bec6ac25f5dc0f3d1cc56", "type": "electric_scooter", "fusion_lon": 0.0, "is_disabled": 0, "is_reserved": 0, "bike_id": "ab8c88ca3b0bec6ac25f5dc0f3d1cc56", "lon": -77.02292483333333}, {"fusion_lat": 0.0, "lat": 38.91974866666666, "rental_uris": {"ios": "https://dc.lft.to/lastmile_qr_scan", "android": "https://dc.lft.to/lastmile_qr_scan"}, "name": "2b75bb27a57d8dea3cdbd40c1a6e6a58", "type": "electric_scooter", "fusion_lon": 0.0, "is_disabled": 0, "is_reserved": 0, "bike_id": "2b75bb27a57d8dea3cdbd40c1a6e6a58", "lon": -77.02186916666666}, {"fusion_lat": 0.0, "lat": 38.87698566666667, "rental_uris": {"ios": "https://dc.lft.to/lastmile_qr_scan", "android": "https://dc.lft.to/lastmile_qr_scan"}, "name": "a45e968d692002205d85a93d571f6a2a", "type": "electric_scooter", "fusion_lon": 0.0, "is_disabled": 0, "is_reserved": 0, "bike_id": "a45e968d692002205d85a93d571f6a2a", "lon": -77.00453016666667}, {"fusion_lat": 0.0, "lat": 38.8953845, "rental_uris": {"ios": "https://dc.lft.to/lastmile_qr_scan", "android": "https://dc.lft.to/lastmile_qr_scan"}, "name": "82911a6d81689066adea353f9fb67350", "type": "electric_scooter", "fusion_lon": 0.0, "is_disabled": 0, "is_reserved": 0, "bike_id": "82911a6d81689066adea353f9fb67350", "lon": -77.04830616666666}, {"fusion_lat": 0.0, "lat": 38.887462166666666, "rental_uris": {"ios": "https://dc.lft.to/lastmile_qr_scan", "android": "https://dc.lft.to/lastmile_qr_scan"}, "name": "b4c7e2f7fb91aeaa9fa897ed1806eef4", "type": "electric_scooter", "fusion_lon": 0.0, "is_disabled": 0, "is_reserved": 0, "bike_id": "b4c7e2f7fb91aeaa9fa897ed1806eef4", "lon": -77.02843566666667}, {"fusion_lat": 0.0, "lat": 38.86450133333334, "rental_uris": {"ios": "https://dc.lft.to/lastmile_qr_scan", "android": "https://dc.lft.to/lastmile_qr_scan"}, "name": "a0a82ff3955a39944859b13ee30a81db", "type": "electric_bike", "fusion_lon": 0.0, "is_disabled": 0, "is_reserved": 0, "bike_id": "a0a82ff3955a39944859b13ee30a81db", "lon": -77.10685716666667}, {"fusion_lat": 0.0, "lat": 38.87701066666666, "rental_uris": {"ios": "https://dc.lft.to/lastmile_qr_scan", "android": "https://dc.lft.to/lastmile_qr_scan"}, "name": "a6f4fab42b915691a49f19f770f444e7", "type": "electric_scooter", "fusion_lon": 0.0, "is_disabled": 0, "is_reserved": 0, "bike_id": "a6f4fab42b915691a49f19f770f444e7", "lon": -77.00443233333333}, {"fusion_lat": 0.0, "lat": 38.93477333333333, "rental_uris": {"ios": "https://dc.lft.to/lastmile_qr_scan", "android": "https://dc.lft.to/lastmile_qr_scan"}, "name": "971e2c92491b8ac9c4fb72213b167f47", "type": "electric_scooter", "fusion_lon": 0.0, "is_disabled": 0, "is_reserved": 0, "bike_id": "971e2c92491b8ac9c4fb72213b167f47", "lon": -77.08663933333334}, {"fusion_lat": 0.0, "lat": 38.961126666666665, "rental_uris": {"ios": "https://dc.lft.to/lastmile_qr_scan", "android": "https://dc.lft.to/lastmile_qr_scan"}, "name": "b938a7b4a3ee23e3238e8f4780edc136", "type": "electric_scooter", "fusion_lon": 0.0, "is_disabled": 0, "is_reserved": 0, "bike_id": "b938a7b4a3ee23e3238e8f4780edc136", "lon": -77.009486}, {"fusion_lat": 0.0, "lat": 38.816131166666665, "rental_uris": {"ios": "https://dc.lft.to/lastmile_qr_scan", "android": "https://dc.lft.to/lastmile_qr_scan"}, "name": "e268bc1ae11729229243e609f5d6f1b0", "type": "electric_bike", "fusion_lon": 0.0, "is_disabled": 0, "is_reserved": 0, "bike_id": "e268bc1ae11729229243e609f5d6f1b0", "lon": -76.99654983333333}, {"fusion_lat": 0.0, "lat": 38.8850785, "rental_uris": {"ios": "https://dc.lft.to/lastmile_qr_scan", "android": "https://dc.lft.to/lastmile_qr_scan"}, "name": "b4d3f180978072ec6e800f8014561763", "type": "electric_scooter", "fusion_lon": 0.0, "is_disabled": 0, "is_reserved": 0, "bike_id": "b4d3f180978072ec6e800f8014561763", "lon": -76.99755083333334}, {"fusion_lat": 0.0, "lat": 39.01418233333333, "rental_uris": {"ios": "https://dc.lft.to/lastmile_qr_scan", "android": "https://dc.lft.to/lastmile_qr_scan"}, "name": "cdd92952428c89bfc0839a2da8ca1c87", "type": "electric_bike", "fusion_lon": 0.0, "is_disabled": 0, "is_reserved": 0, "bike_id": "cdd92952428c89bfc0839a2da8ca1c87", "lon": -77.04497266666667}, {"fusion_lat": 0.0, "lat": 38.85791366666667, "rental_uris": {"ios": "https://dc.lft.to/lastmile_qr_scan", "android": "https://dc.lft.to/lastmile_qr_scan"}, "name": "d8681fbeceb238e6889a5083e2a03710", "type": "electric_bike", "fusion_lon": 0.0, "is_disabled": 0, "is_reserved": 0, "bike_id": "d8681fbeceb238e6889a5083e2a03710", "lon": -77.09963283333333}, {"fusion_lat": 0.0, "lat": 38.930494333333336, "rental_uris": {"ios": "https://dc.lft.to/lastmile_qr_scan", "android": "https://dc.lft.to/lastmile_qr_scan"}, "name": "446489107cb4ad16ef652331a3bfa5d1", "type": "electric_bike", "fusion_lon": 0.0, "is_disabled": 0, "is_reserved": 0, "bike_id": "446489107cb4ad16ef652331a3bfa5d1", "lon": -76.958354}, {"fusion_lat": 0.0, "lat": 38.918175166666664, "rental_uris": {"ios": "https://dc.lft.to/lastmile_qr_scan", "android": "https://dc.lft.to/lastmile_qr_scan"}, "name": "60211350c71fed3d21c002faa750f004", "type": "electric_scooter", "fusion_lon": 0.0, "is_disabled": 0, "is_reserved": 0, "bike_id": "60211350c71fed3d21c002faa750f004", "lon": -77.03174533333333}, {"fusion_lat": 0.0, "lat": 38.895259333333335, "rental_uris": {"ios": "https://dc.lft.to/lastmile_qr_scan", "android": "https://dc.lft.to/lastmile_qr_scan"}, "name": "70c6553dd772458f30ec3d27f0ad5b82", "type": "electric_scooter", "fusion_lon": 0.0, "is_disabled": 0, "is_reserved": 0, "bike_id": "70c6553dd772458f30ec3d27f0ad5b82", "lon": -77.0021065}, {"fusion_lat": 0.0, "lat": 38.91774783333334, "rental_uris": {"ios": "https://dc.lft.to/lastmile_qr_scan", "android": "https://dc.lft.to/lastmile_qr_scan"}, "name": "1eeeb0de1a62f9f10fe754592173b5e4", "type": "electric_scooter", "fusion_lon": 0.0, "is_disabled": 0, "is_reserved": 0, "bike_id": "1eeeb0de1a62f9f10fe754592173b5e4", "lon": -77.01919233333334}, {"fusion_lat": 0.0, "lat": 38.909115166666666, "rental_uris": {"ios": "https://dc.lft.to/lastmile_qr_scan", "android": "https://dc.lft.to/lastmile_qr_scan"}, "name": "07611079bf091d2e1791bf988a2d57a5", "type": "electric_scooter", "fusion_lon": 0.0, "is_disabled": 0, "is_reserved": 0, "bike_id": "07611079bf091d2e1791bf988a2d57a5", "lon": -76.98632633333334}, {"fusion_lat": 0.0, "lat": 38.88039033333333, "rental_uris": {"ios": "https://dc.lft.to/lastmile_qr_scan", "android": "https://dc.lft.to/lastmile_qr_scan"}, "name": "8c1924cabb88b03444b82b035ea2f535", "type": "electric_scooter", "fusion_lon": 0.0, "is_disabled": 0, "is_reserved": 0, "bike_id": "8c1924cabb88b03444b82b035ea2f535", "lon": -77.00479333333334}, {"fusion_lat": 0.0, "lat": 38.9053265, "rental_uris": {"ios": "https://dc.lft.to/lastmile_qr_scan", "android": "https://dc.lft.to/lastmile_qr_scan"}, "name": "ef64d644d181c145f102e2a6b2bfe57c", "type": "electric_scooter", "fusion_lon": 0.0, "is_disabled": 0, "is_reserved": 0, "bike_id": "ef64d644d181c145f102e2a6b2bfe57c", "lon": -76.99634283333333}, {"fusion_lat": 0.0, "lat": 38.924719333333336, "rental_uris": {"ios": "https://dc.lft.to/lastmile_qr_scan", "android": "https://dc.lft.to/lastmile_qr_scan"}, "name": "be922150ff195444bf811ff78d3bd56b", "type": "electric_scooter", "fusion_lon": 0.0, "is_disabled": 0, "is_reserved": 0, "bike_id": "be922150ff195444bf811ff78d3bd56b", "lon": -77.02271633333334}, {"fusion_lat": 0.0, "lat": 38.9015615, "rental_uris": {"ios": "https://dc.lft.to/lastmile_qr_scan", "android": "https://dc.lft.to/lastmile_qr_scan"}, "name": "4802415a5d3c2737fb4db0f20bd2c428", "type": "electric_scooter", "fusion_lon": 0.0, "is_disabled": 0, "is_reserved": 0, "bike_id": "4802415a5d3c2737fb4db0f20bd2c428", "lon": -77.0356595}, {"fusion_lat": 0.0, "lat": 38.90869516666667, "rental_uris": {"ios": "https://dc.lft.to/lastmile_qr_scan", "android": "https://dc.lft.to/lastmile_qr_scan"}, "name": "5b46173e4302fab053338c59121290fc", "type": "electric_scooter", "fusion_lon": 0.0, "is_disabled": 0, "is_reserved": 0, "bike_id": "5b46173e4302fab053338c59121290fc", "lon": -76.933391}, {"fusion_lat": 0.0, "lat": 38.921520666666666, "rental_uris": {"ios": "https://dc.lft.to/lastmile_qr_scan", "android": "https://dc.lft.to/lastmile_qr_scan"}, "name": "cbd82073132a8b02165245f92952f97b", "type": "electric_scooter", "fusion_lon": 0.0, "is_disabled": 0, "is_reserved": 0, "bike_id": "cbd82073132a8b02165245f92952f97b", "lon": -77.0349775}, {"fusion_lat": 0.0, "lat": 38.910059, "rental_uris": {"ios": "https://dc.lft.to/lastmile_qr_scan", "android": "https://dc.lft.to/lastmile_qr_scan"}, "name": "703df3ae4e3bca4ecae22404226070b6", "type": "electric_scooter", "fusion_lon": 0.0, "is_disabled": 0, "is_reserved": 0, "bike_id": "703df3ae4e3bca4ecae22404226070b6", "lon": -77.03186583333333}, {"fusion_lat": 0.0, "lat": 38.88515866666667, "rental_uris": {"ios": "https://dc.lft.to/lastmile_qr_scan", "android": "https://dc.lft.to/lastmile_qr_scan"}, "name": "3822919105a876bb49729d6d0e6b621d", "type": "electric_scooter", "fusion_lon": 0.0, "is_disabled": 0, "is_reserved": 0, "bike_id": "3822919105a876bb49729d6d0e6b621d", "lon": -77.01514883333333}, {"fusion_lat": 0.0, "lat": 38.92577983333334, "rental_uris": {"ios": "https://dc.lft.to/lastmile_qr_scan", "android": "https://dc.lft.to/lastmile_qr_scan"}, "name": "24e3df25256e499d476f51b3c77ce20b", "type": "electric_scooter", "fusion_lon": 0.0, "is_disabled": 0, "is_reserved": 0, "bike_id": "24e3df25256e499d476f51b3c77ce20b", "lon": -77.036447}, {"fusion_lat": 0.0, "lat": 38.92773866666667, "rental_uris": {"ios": "https://dc.lft.to/lastmile_qr_scan", "android": "https://dc.lft.to/lastmile_qr_scan"}, "name": "6edc8708befaf7d223dd7871901c830e", "type": "electric_scooter", "fusion_lon": 0.0, "is_disabled": 0, "is_reserved": 0, "bike_id": "6edc8708befaf7d223dd7871901c830e", "lon": -77.02743483333333}, {"fusion_lat": 0.0, "lat": 38.897234166666664, "rental_uris": {"ios": "https://dc.lft.to/lastmile_qr_scan", "android": "https://dc.lft.to/lastmile_qr_scan"}, "name": "49347a26343cba8981b937bca4c56832", "type": "electric_scooter", "fusion_lon": 0.0, "is_disabled": 0, "is_reserved": 0, "bike_id": "49347a26343cba8981b937bca4c56832", "lon": -77.00932233333333}, {"fusion_lat": 0.0, "lat": 38.884012, "rental_uris": {"ios": "https://dc.lft.to/lastmile_qr_scan", "android": "https://dc.lft.to/lastmile_qr_scan"}, "name": "289470c065566a980d86a9d41e600bb6", "type": "electric_bike", "fusion_lon": 0.0, "is_disabled": 0, "is_reserved": 0, "bike_id": "289470c065566a980d86a9d41e600bb6", "lon": -76.96054866666667}, {"fusion_lat": 0.0, "lat": 38.89730466666666, "rental_uris": {"ios": "https://dc.lft.to/lastmile_qr_scan", "android": "https://dc.lft.to/lastmile_qr_scan"}, "name": "a7033fcdb91c17c048dbb127390e1a0f", "type": "electric_scooter", "fusion_lon": 0.0, "is_disabled": 0, "is_reserved": 0, "bike_id": "a7033fcdb91c17c048dbb127390e1a0f", "lon": -76.94702483333333}, {"fusion_lat": 0.0, "lat": 38.896049, "rental_uris": {"ios": "https://dc.lft.to/lastmile_qr_scan", "android": "https://dc.lft.to/lastmile_qr_scan"}, "name": "2575f4d76698a86328007c6f61061698", "type": "electric_scooter", "fusion_lon": 0.0, "is_disabled": 0, "is_reserved": 0, "bike_id": "2575f4d76698a86328007c6f61061698", "lon": -77.00931066666666}, {"fusion_lat": 0.0, "lat": 38.86029416666667, "rental_uris": {"ios": "https://dc.lft.to/lastmile_qr_scan", "android": "https://dc.lft.to/lastmile_qr_scan"}, "name": "f0203a11544d04c6441d642a02b42c90", "type": "electric_scooter", "fusion_lon": 0.0, "is_disabled": 0, "is_reserved": 0, "bike_id": "f0203a11544d04c6441d642a02b42c90", "lon": -76.98372866666666}, {"fusion_lat": 0.0, "lat": 38.904091333333334, "rental_uris": {"ios": "https://dc.lft.to/lastmile_qr_scan", "android": "https://dc.lft.to/lastmile_qr_scan"}, "name": "5b5fb7342bf9d5ac86d7472d4a2428c4", "type": "electric_scooter", "fusion_lon": 0.0, "is_disabled": 0, "is_reserved": 0, "bike_id": "5b5fb7342bf9d5ac86d7472d4a2428c4", "lon": -77.04348083333333}, {"fusion_lat": 0.0, "lat": 38.896393, "rental_uris": {"ios": "https://dc.lft.to/lastmile_qr_scan", "android": "https://dc.lft.to/lastmile_qr_scan"}, "name": "6418ffe49aa256e5dda92c96b477b127", "type": "electric_scooter", "fusion_lon": 0.0, "is_disabled": 0, "is_reserved": 0, "bike_id": "6418ffe49aa256e5dda92c96b477b127", "lon": -77.02948133333334}, {"fusion_lat": 0.0, "lat": 38.90727183333333, "rental_uris": {"ios": "https://dc.lft.to/lastmile_qr_scan", "android": "https://dc.lft.to/lastmile_qr_scan"}, "name": "fa2e13ca82c0da9db6cccd273d382deb", "type": "electric_scooter", "fusion_lon": 0.0, "is_disabled": 0, "is_reserved": 0, "bike_id": "fa2e13ca82c0da9db6cccd273d382deb", "lon": -77.04500016666667}, {"fusion_lat": 0.0, "lat": 38.928657333333334, "rental_uris": {"ios": "https://dc.lft.to/lastmile_qr_scan", "android": "https://dc.lft.to/lastmile_qr_scan"}, "name": "febf2830b5b195e8b7edd77f391b2891", "type": "electric_scooter", "fusion_lon": 0.0, "is_disabled": 0, "is_reserved": 0, "bike_id": "febf2830b5b195e8b7edd77f391b2891", "lon": -77.03500333333334}, {"fusion_lat": 0.0, "lat": 38.904581, "rental_uris": {"ios": "https://dc.lft.to/lastmile_qr_scan", "android": "https://dc.lft.to/lastmile_qr_scan"}, "name": "03f1fe6766f55e9a8ffb64597f1ec1df", "type": "electric_scooter", "fusion_lon": 0.0, "is_disabled": 0, "is_reserved": 0, "bike_id": "03f1fe6766f55e9a8ffb64597f1ec1df", "lon": -76.99488983333333}, {"fusion_lat": 0.0, "lat": 38.902761166666664, "rental_uris": {"ios": "https://dc.lft.to/lastmile_qr_scan", "android": "https://dc.lft.to/lastmile_qr_scan"}, "name": "5ad84a3d2a5fb1480b8d9088f1124643", "type": "electric_scooter", "fusion_lon": 0.0, "is_disabled": 0, "is_reserved": 0, "bike_id": "5ad84a3d2a5fb1480b8d9088f1124643", "lon": -77.038301}, {"fusion_lat": 0.0, "lat": 38.86389, "rental_uris": {"ios": "https://dc.lft.to/lastmile_qr_scan", "android": "https://dc.lft.to/lastmile_qr_scan"}, "name": "c41078479c828ddb6348db86c2183463", "type": "electric_scooter", "fusion_lon": 0.0, "is_disabled": 0, "is_reserved": 0, "bike_id": "c41078479c828ddb6348db86c2183463", "lon": -76.9903925}, {"fusion_lat": 0.0, "lat": 38.9119725, "rental_uris": {"ios": "https://dc.lft.to/lastmile_qr_scan", "android": "https://dc.lft.to/lastmile_qr_scan"}, "name": "cf0923085df2ccc5ea7d22acb14f48a3", "type": "electric_scooter", "fusion_lon": 0.0, "is_disabled": 0, "is_reserved": 0, "bike_id": "cf0923085df2ccc5ea7d22acb14f48a3", "lon": -77.032363}, {"fusion_lat": 0.0, "lat": 38.902702833333336, "rental_uris": {"ios": "https://dc.lft.to/lastmile_qr_scan", "android": "https://dc.lft.to/lastmile_qr_scan"}, "name": "a3d13f7d479d56fec19d34f01c28e1e4", "type": "electric_scooter", "fusion_lon": 0.0, "is_disabled": 0, "is_reserved": 0, "bike_id": "a3d13f7d479d56fec19d34f01c28e1e4", "lon": -77.02471166666666}, {"fusion_lat": 0.0, "lat": 38.918888, "rental_uris": {"ios": "https://dc.lft.to/lastmile_qr_scan", "android": "https://dc.lft.to/lastmile_qr_scan"}, "name": "131c89804a31a0c3d9afa186476f30c7", "type": "electric_scooter", "fusion_lon": 0.0, "is_disabled": 0, "is_reserved": 0, "bike_id": "131c89804a31a0c3d9afa186476f30c7", "lon": -77.00343833333334}, {"fusion_lat": 0.0, "lat": 38.92457516666666, "rental_uris": {"ios": "https://dc.lft.to/lastmile_qr_scan", "android": "https://dc.lft.to/lastmile_qr_scan"}, "name": "1507dc288de54b9b8882b03c861bab87", "type": "electric_scooter", "fusion_lon": 0.0, "is_disabled": 0, "is_reserved": 0, "bike_id": "1507dc288de54b9b8882b03c861bab87", "lon": -77.02242383333333}, {"fusion_lat": 0.0, "lat": 38.95636433333333, "rental_uris": {"ios": "https://dc.lft.to/lastmile_qr_scan", "android": "https://dc.lft.to/lastmile_qr_scan"}, "name": "c42be5cdd0805b37bf96b54f175fe47f", "type": "electric_bike", "fusion_lon": 0.0, "is_disabled": 0, "is_reserved": 0, "bike_id": "c42be5cdd0805b37bf96b54f175fe47f", "lon": -76.93875233333333}, {"fusion_lat": 0.0, "lat": 38.897654333333335, "rental_uris": {"ios": "https://dc.lft.to/lastmile_qr_scan", "android": "https://dc.lft.to/lastmile_qr_scan"}, "name": "8f79313dfd4f1bd2e63cf898896ea421", "type": "electric_scooter", "fusion_lon": 0.0, "is_disabled": 0, "is_reserved": 0, "bike_id": "8f79313dfd4f1bd2e63cf898896ea421", "lon": -77.03185}, {"fusion_lat": 0.0, "lat": 38.923654666666664, "rental_uris": {"ios": "https://dc.lft.to/lastmile_qr_scan", "android": "https://dc.lft.to/lastmile_qr_scan"}, "name": "0d0bcd73372ff0131c8ab8449a107102", "type": "electric_scooter", "fusion_lon": 0.0, "is_disabled": 0, "is_reserved": 0, "bike_id": "0d0bcd73372ff0131c8ab8449a107102", "lon": -77.021216}, {"fusion_lat": 0.0, "lat": 38.9083, "rental_uris": {"ios": "https://dc.lft.to/lastmile_qr_scan", "android": "https://dc.lft.to/lastmile_qr_scan"}, "name": "f84f698c0c8a564f1033a9e4c56db23c", "type": "electric_scooter", "fusion_lon": 0.0, "is_disabled": 0, "is_reserved": 0, "bike_id": "f84f698c0c8a564f1033a9e4c56db23c", "lon": -77.03388566666666}, {"fusion_lat": 0.0, "lat": 38.8974715, "rental_uris": {"ios": "https://dc.lft.to/lastmile_qr_scan", "android": "https://dc.lft.to/lastmile_qr_scan"}, "name": "1d7145fac88e2e9b61c97dbf95ce1e4b", "type": "electric_scooter", "fusion_lon": 0.0, "is_disabled": 0, "is_reserved": 0, "bike_id": "1d7145fac88e2e9b61c97dbf95ce1e4b", "lon": -77.00980566666667}, {"fusion_lat": 0.0, "lat": 38.911401833333336, "rental_uris": {"ios": "https://dc.lft.to/lastmile_qr_scan", "android": "https://dc.lft.to/lastmile_qr_scan"}, "name": "144f08c5c1697370fe2da8b79e1c6e67", "type": "electric_scooter", "fusion_lon": 0.0, "is_disabled": 0, "is_reserved": 0, "bike_id": "144f08c5c1697370fe2da8b79e1c6e67", "lon": -77.02188866666667}, {"fusion_lat": 0.0, "lat": 38.923449833333336, "rental_uris": {"ios": "https://dc.lft.to/lastmile_qr_scan", "android": "https://dc.lft.to/lastmile_qr_scan"}, "name": "bf3f694a07d236a9306a8e9d7fe3222c", "type": "electric_scooter", "fusion_lon": 0.0, "is_disabled": 0, "is_reserved": 0, "bike_id": "bf3f694a07d236a9306a8e9d7fe3222c", "lon": -77.05120866666667}, {"fusion_lat": 0.0, "lat": 38.93283983333333, "rental_uris": {"ios": "https://dc.lft.to/lastmile_qr_scan", "android": "https://dc.lft.to/lastmile_qr_scan"}, "name": "85b60033a218a1f2e381837f22c7cb15", "type": "electric_scooter", "fusion_lon": 0.0, "is_disabled": 0, "is_reserved": 0, "bike_id": "85b60033a218a1f2e381837f22c7cb15", "lon": -77.025452}, {"fusion_lat": 0.0, "lat": 38.92067466666666, "rental_uris": {"ios": "https://dc.lft.to/lastmile_qr_scan", "android": "https://dc.lft.to/lastmile_qr_scan"}, "name": "6a4149b47d37c1b15e7449fe274d1827", "type": "electric_scooter", "fusion_lon": 0.0, "is_disabled": 0, "is_reserved": 0, "bike_id": "6a4149b47d37c1b15e7449fe274d1827", "lon": -77.023001}, {"fusion_lat": 0.0, "lat": 38.919744333333334, "rental_uris": {"ios": "https://dc.lft.to/lastmile_qr_scan", "android": "https://dc.lft.to/lastmile_qr_scan"}, "name": "9307170b0865c1857e4ce52f6933c84c", "type": "electric_scooter", "fusion_lon": 0.0, "is_disabled": 0, "is_reserved": 0, "bike_id": "9307170b0865c1857e4ce52f6933c84c", "lon": -77.0239005}, {"fusion_lat": 0.0, "lat": 38.94897116666667, "rental_uris": {"ios": "https://dc.lft.to/lastmile_qr_scan", "android": "https://dc.lft.to/lastmile_qr_scan"}, "name": "f5e75580007b34e1896abefc4db41ce5", "type": "electric_bike", "fusion_lon": 0.0, "is_disabled": 0, "is_reserved": 0, "bike_id": "f5e75580007b34e1896abefc4db41ce5", "lon": -76.9637105}, {"fusion_lat": 0.0, "lat": 38.916328666666665, "rental_uris": {"ios": "https://dc.lft.to/lastmile_qr_scan", "android": "https://dc.lft.to/lastmile_qr_scan"}, "name": "ad758794377cb674ba37084abcfe86fd", "type": "electric_scooter", "fusion_lon": 0.0, "is_disabled": 0, "is_reserved": 0, "bike_id": "ad758794377cb674ba37084abcfe86fd", "lon": -77.03195316666667}, {"fusion_lat": 0.0, "lat": 38.91555366666667, "rental_uris": {"ios": "https://dc.lft.to/lastmile_qr_scan", "android": "https://dc.lft.to/lastmile_qr_scan"}, "name": "c379a968e27270f5ef3402e1eecf66fa", "type": "electric_scooter", "fusion_lon": 0.0, "is_disabled": 0, "is_reserved": 0, "bike_id": "c379a968e27270f5ef3402e1eecf66fa", "lon": -77.04181516666667}, {"fusion_lat": 0.0, "lat": 38.8796085, "rental_uris": {"ios": "https://dc.lft.to/lastmile_qr_scan", "android": "https://dc.lft.to/lastmile_qr_scan"}, "name": "62fc8a5e5a3559b5235e874e26a27507", "type": "electric_scooter", "fusion_lon": 0.0, "is_disabled": 0, "is_reserved": 0, "bike_id": "62fc8a5e5a3559b5235e874e26a27507", "lon": -77.0237235}, {"fusion_lat": 0.0, "lat": 38.9130565, "rental_uris": {"ios": "https://dc.lft.to/lastmile_qr_scan", "android": "https://dc.lft.to/lastmile_qr_scan"}, "name": "939fbc13d81d12c5d555083e6fa25c22", "type": "electric_scooter", "fusion_lon": 0.0, "is_disabled": 0, "is_reserved": 0, "bike_id": "939fbc13d81d12c5d555083e6fa25c22", "lon": -77.02692416666666}, {"fusion_lat": 0.0, "lat": 38.911764, "rental_uris": {"ios": "https://dc.lft.to/lastmile_qr_scan", "android": "https://dc.lft.to/lastmile_qr_scan"}, "name": "276d1c31eea2dfc4797145da12edaa30", "type": "electric_scooter", "fusion_lon": 0.0, "is_disabled": 0, "is_reserved": 0, "bike_id": "276d1c31eea2dfc4797145da12edaa30", "lon": -77.03861933333333}, {"fusion_lat": 0.0, "lat": 38.91791283333333, "rental_uris": {"ios": "https://dc.lft.to/lastmile_qr_scan", "android": "https://dc.lft.to/lastmile_qr_scan"}, "name": "7cf24d326ba156c2189560e09f007a86", "type": "electric_scooter", "fusion_lon": 0.0, "is_disabled": 0, "is_reserved": 0, "bike_id": "7cf24d326ba156c2189560e09f007a86", "lon": -77.03199816666667}, {"fusion_lat": 0.0, "lat": 38.90680616666667, "rental_uris": {"ios": "https://dc.lft.to/lastmile_qr_scan", "android": "https://dc.lft.to/lastmile_qr_scan"}, "name": "7fc54acd06bbc0ebd46f11c534a80603", "type": "electric_scooter", "fusion_lon": 0.0, "is_disabled": 0, "is_reserved": 0, "bike_id": "7fc54acd06bbc0ebd46f11c534a80603", "lon": -77.03631966666667}, {"fusion_lat": 0.0, "lat": 38.9206895, "rental_uris": {"ios": "https://dc.lft.to/lastmile_qr_scan", "android": "https://dc.lft.to/lastmile_qr_scan"}, "name": "a98c169ee0cc40660c40107012c2a550", "type": "electric_scooter", "fusion_lon": 0.0, "is_disabled": 0, "is_reserved": 0, "bike_id": "a98c169ee0cc40660c40107012c2a550", "lon": -77.01831966666667}, {"fusion_lat": 0.0, "lat": 38.92845616666666, "rental_uris": {"ios": "https://dc.lft.to/lastmile_qr_scan", "android": "https://dc.lft.to/lastmile_qr_scan"}, "name": "7843c029369d0d4edb2297fc0f05ff07", "type": "electric_scooter", "fusion_lon": 0.0, "is_disabled": 0, "is_reserved": 0, "bike_id": "7843c029369d0d4edb2297fc0f05ff07", "lon": -76.99598183333333}, {"fusion_lat": 0.0, "lat": 38.92451466666667, "rental_uris": {"ios": "https://dc.lft.to/lastmile_qr_scan", "android": "https://dc.lft.to/lastmile_qr_scan"}, "name": "7d1d886eb96cf984d3f91dedae2e6999", "type": "electric_scooter", "fusion_lon": 0.0, "is_disabled": 0, "is_reserved": 0, "bike_id": "7d1d886eb96cf984d3f91dedae2e6999", "lon": -77.02016333333333}, {"fusion_lat": 0.0, "lat": 38.911031333333334, "rental_uris": {"ios": "https://dc.lft.to/lastmile_qr_scan", "android": "https://dc.lft.to/lastmile_qr_scan"}, "name": "dccb77f43e9e80bcc9fbe7a3110022fb", "type": "electric_scooter", "fusion_lon": 0.0, "is_disabled": 0, "is_reserved": 0, "bike_id": "dccb77f43e9e80bcc9fbe7a3110022fb", "lon": -77.0271975}, {"fusion_lat": 0.0, "lat": 38.896292, "rental_uris": {"ios": "https://dc.lft.to/lastmile_qr_scan", "android": "https://dc.lft.to/lastmile_qr_scan"}, "name": "605496997d8431b5cb4b6bd331f6bca6", "type": "electric_scooter", "fusion_lon": 0.0, "is_disabled": 0, "is_reserved": 0, "bike_id": "605496997d8431b5cb4b6bd331f6bca6", "lon": -77.04010783333334}, {"fusion_lat": 0.0, "lat": 38.8644585, "rental_uris": {"ios": "https://dc.lft.to/lastmile_qr_scan", "android": "https://dc.lft.to/lastmile_qr_scan"}, "name": "ab40858afd5b9754ea6930f8a96f8968", "type": "electric_scooter", "fusion_lon": 0.0, "is_disabled": 0, "is_reserved": 0, "bike_id": "ab40858afd5b9754ea6930f8a96f8968", "lon": -76.97996333333333}, {"fusion_lat": 0.0, "lat": 38.875814166666665, "rental_uris": {"ios": "https://dc.lft.to/lastmile_qr_scan", "android": "https://dc.lft.to/lastmile_qr_scan"}, "name": "000e793d3b17c1b92968dcdb7222624f", "type": "electric_scooter", "fusion_lon": 0.0, "is_disabled": 0, "is_reserved": 0, "bike_id": "000e793d3b17c1b92968dcdb7222624f", "lon": -77.00418683333334}, {"fusion_lat": 0.0, "lat": 38.892891, "rental_uris": {"ios": "https://dc.lft.to/lastmile_qr_scan", "android": "https://dc.lft.to/lastmile_qr_scan"}, "name": "94657ca3241228966163ba0215a1d5ba", "type": "electric_scooter", "fusion_lon": 0.0, "is_disabled": 0, "is_reserved": 0, "bike_id": "94657ca3241228966163ba0215a1d5ba", "lon": -76.949804}, {"fusion_lat": 0.0, "lat": 38.847251, "rental_uris": {"ios": "https://dc.lft.to/lastmile_qr_scan", "android": "https://dc.lft.to/lastmile_qr_scan"}, "name": "6908fc0950626ccdaae9e4aefed3180b", "type": "electric_scooter", "fusion_lon": 0.0, "is_disabled": 0, "is_reserved": 0, "bike_id": "6908fc0950626ccdaae9e4aefed3180b", "lon": -76.98250516666667}, {"fusion_lat": 0.0, "lat": 38.902812, "rental_uris": {"ios": "https://dc.lft.to/lastmile_qr_scan", "android": "https://dc.lft.to/lastmile_qr_scan"}, "name": "71d13574ce464427e7e15dd35b4b038c", "type": "electric_scooter", "fusion_lon": 0.0, "is_disabled": 0, "is_reserved": 0, "bike_id": "71d13574ce464427e7e15dd35b4b038c", "lon": -77.03839833333333}, {"fusion_lat": 0.0, "lat": 38.908421833333335, "rental_uris": {"ios": "https://dc.lft.to/lastmile_qr_scan", "android": "https://dc.lft.to/lastmile_qr_scan"}, "name": "215559d381fe14ed63381c5f19cb8df2", "type": "electric_bike", "fusion_lon": 0.0, "is_disabled": 0, "is_reserved": 0, "bike_id": "215559d381fe14ed63381c5f19cb8df2", "lon": -77.04347416666667}, {"fusion_lat": 0.0, "lat": 38.922482, "rental_uris": {"ios": "https://dc.lft.to/lastmile_qr_scan", "android": "https://dc.lft.to/lastmile_qr_scan"}, "name": "d1a2b7e9a4c3b873f5bc7cfb1bb10514", "type": "electric_scooter", "fusion_lon": 0.0, "is_disabled": 0, "is_reserved": 0, "bike_id": "d1a2b7e9a4c3b873f5bc7cfb1bb10514", "lon": -76.98407966666667}, {"fusion_lat": 0.0, "lat": 38.879143166666665, "rental_uris": {"ios": "https://dc.lft.to/lastmile_qr_scan", "android": "https://dc.lft.to/lastmile_qr_scan"}, "name": "ae38272abb945c95b8c574daaa81ff41", "type": "electric_scooter", "fusion_lon": 0.0, "is_disabled": 0, "is_reserved": 0, "bike_id": "ae38272abb945c95b8c574daaa81ff41", "lon": -77.0236405}, {"fusion_lat": 0.0, "lat": 38.90470716666667, "rental_uris": {"ios": "https://dc.lft.to/lastmile_qr_scan", "android": "https://dc.lft.to/lastmile_qr_scan"}, "name": "af7d5fb09d56d3accf98c2132b6d3fcf", "type": "electric_scooter", "fusion_lon": 0.0, "is_disabled": 0, "is_reserved": 0, "bike_id": "af7d5fb09d56d3accf98c2132b6d3fcf", "lon": -77.04350833333334}, {"fusion_lat": 0.0, "lat": 38.917293, "rental_uris": {"ios": "https://dc.lft.to/lastmile_qr_scan", "android": "https://dc.lft.to/lastmile_qr_scan"}, "name": "8d1c645a15d812f8f86926796c99b761", "type": "electric_scooter", "fusion_lon": 0.0, "is_disabled": 0, "is_reserved": 0, "bike_id": "8d1c645a15d812f8f86926796c99b761", "lon": -77.03212316666666}, {"fusion_lat": 0.0, "lat": 38.85736283333333, "rental_uris": {"ios": "https://dc.lft.to/lastmile_qr_scan", "android": "https://dc.lft.to/lastmile_qr_scan"}, "name": "b4a54860ec95767c161f32433ec5c543", "type": "electric_scooter", "fusion_lon": 0.0, "is_disabled": 0, "is_reserved": 0, "bike_id": "b4a54860ec95767c161f32433ec5c543", "lon": -76.9736075}, {"fusion_lat": 0.0, "lat": 38.90409066666667, "rental_uris": {"ios": "https://dc.lft.to/lastmile_qr_scan", "android": "https://dc.lft.to/lastmile_qr_scan"}, "name": "71e33b10d685e2594605ad4d9d6ea96b", "type": "electric_scooter", "fusion_lon": 0.0, "is_disabled": 0, "is_reserved": 0, "bike_id": "71e33b10d685e2594605ad4d9d6ea96b", "lon": -76.97333933333333}, {"fusion_lat": 0.0, "lat": 38.928439833333336, "rental_uris": {"ios": "https://dc.lft.to/lastmile_qr_scan", "android": "https://dc.lft.to/lastmile_qr_scan"}, "name": "e9efc00c3fa1ae179eb68e5456d2ac94", "type": "electric_scooter", "fusion_lon": 0.0, "is_disabled": 0, "is_reserved": 0, "bike_id": "e9efc00c3fa1ae179eb68e5456d2ac94", "lon": -77.0542585}, {"fusion_lat": 0.0, "lat": 38.8450715, "rental_uris": {"ios": "https://dc.lft.to/lastmile_qr_scan", "android": "https://dc.lft.to/lastmile_qr_scan"}, "name": "a19f54616620ba7740d15f44378cb1de", "type": "electric_bike", "fusion_lon": 0.0, "is_disabled": 0, "is_reserved": 0, "bike_id": "a19f54616620ba7740d15f44378cb1de", "lon": -76.9935375}, {"fusion_lat": 0.0, "lat": 38.9026895, "rental_uris": {"ios": "https://dc.lft.to/lastmile_qr_scan", "android": "https://dc.lft.to/lastmile_qr_scan"}, "name": "3e798440dd60786c8438a10bdb71404f", "type": "electric_scooter", "fusion_lon": 0.0, "is_disabled": 0, "is_reserved": 0, "bike_id": "3e798440dd60786c8438a10bdb71404f", "lon": -77.020107}, {"fusion_lat": 0.0, "lat": 38.90105116666667, "rental_uris": {"ios": "https://dc.lft.to/lastmile_qr_scan", "android": "https://dc.lft.to/lastmile_qr_scan"}, "name": "d76f6681d6c74955bc7e2e136f8b00b5", "type": "electric_scooter", "fusion_lon": 0.0, "is_disabled": 0, "is_reserved": 0, "bike_id": "d76f6681d6c74955bc7e2e136f8b00b5", "lon": -76.99495333333333}, {"fusion_lat": 0.0, "lat": 38.91657283333333, "rental_uris": {"ios": "https://dc.lft.to/lastmile_qr_scan", "android": "https://dc.lft.to/lastmile_qr_scan"}, "name": "390521fd77cceecd34df52a6eb6c666e", "type": "electric_scooter", "fusion_lon": 0.0, "is_disabled": 0, "is_reserved": 0, "bike_id": "390521fd77cceecd34df52a6eb6c666e", "lon": -77.0483735}, {"fusion_lat": 0.0, "lat": 38.91260716666667, "rental_uris": {"ios": "https://dc.lft.to/lastmile_qr_scan", "android": "https://dc.lft.to/lastmile_qr_scan"}, "name": "c46634ae4f6537550bea38a8c60ecb0d", "type": "electric_scooter", "fusion_lon": 0.0, "is_disabled": 0, "is_reserved": 0, "bike_id": "c46634ae4f6537550bea38a8c60ecb0d", "lon": -77.033584}, {"fusion_lat": 0.0, "lat": 38.90224766666667, "rental_uris": {"ios": "https://dc.lft.to/lastmile_qr_scan", "android": "https://dc.lft.to/lastmile_qr_scan"}, "name": "2ff685bb6a5b9981cffec689df4325e0", "type": "electric_scooter", "fusion_lon": 0.0, "is_disabled": 0, "is_reserved": 0, "bike_id": "2ff685bb6a5b9981cffec689df4325e0", "lon": -77.04797266666667}, {"fusion_lat": 0.0, "lat": 38.895693333333334, "rental_uris": {"ios": "https://dc.lft.to/lastmile_qr_scan", "android": "https://dc.lft.to/lastmile_qr_scan"}, "name": "926e6bd5b287d7da0286364736620156", "type": "electric_bike", "fusion_lon": 0.0, "is_disabled": 0, "is_reserved": 0, "bike_id": "926e6bd5b287d7da0286364736620156", "lon": -77.1273765}, {"fusion_lat": 0.0, "lat": 38.90600366666666, "rental_uris": {"ios": "https://dc.lft.to/lastmile_qr_scan", "android": "https://dc.lft.to/lastmile_qr_scan"}, "name": "9e5cc65833a511f78a6355d29542f45c", "type": "electric_bike", "fusion_lon": 0.0, "is_disabled": 0, "is_reserved": 0, "bike_id": "9e5cc65833a511f78a6355d29542f45c", "lon": -77.027072}, {"fusion_lat": 0.0, "lat": 38.922210166666666, "rental_uris": {"ios": "https://dc.lft.to/lastmile_qr_scan", "android": "https://dc.lft.to/lastmile_qr_scan"}, "name": "944b9f89175b80dc2206f3013218dfba", "type": "electric_bike", "fusion_lon": 0.0, "is_disabled": 0, "is_reserved": 0, "bike_id": "944b9f89175b80dc2206f3013218dfba", "lon": -77.201391}, {"fusion_lat": 0.0, "lat": 38.88455966666667, "rental_uris": {"ios": "https://dc.lft.to/lastmile_qr_scan", "android": "https://dc.lft.to/lastmile_qr_scan"}, "name": "383e43e608b7170f6eb43e7e7fa7d7c6", "type": "electric_scooter", "fusion_lon": 0.0, "is_disabled": 0, "is_reserved": 0, "bike_id": "383e43e608b7170f6eb43e7e7fa7d7c6", "lon": -77.025127}, {"fusion_lat": 0.0, "lat": 38.909174166666666, "rental_uris": {"ios": "https://dc.lft.to/lastmile_qr_scan", "android": "https://dc.lft.to/lastmile_qr_scan"}, "name": "2b381ac097762cc375213ff3ac3f4b46", "type": "electric_scooter", "fusion_lon": 0.0, "is_disabled": 0, "is_reserved": 0, "bike_id": "2b381ac097762cc375213ff3ac3f4b46", "lon": -76.99918016666666}, {"fusion_lat": 0.0, "lat": 38.900264166666666, "rental_uris": {"ios": "https://dc.lft.to/lastmile_qr_scan", "android": "https://dc.lft.to/lastmile_qr_scan"}, "name": "0b6b9e8b3f42b1ae254c2a0303651d86", "type": "electric_scooter", "fusion_lon": 0.0, "is_disabled": 0, "is_reserved": 0, "bike_id": "0b6b9e8b3f42b1ae254c2a0303651d86", "lon": -76.98701533333333}, {"fusion_lat": 0.0, "lat": 38.9486475, "rental_uris": {"ios": "https://dc.lft.to/lastmile_qr_scan", "android": "https://dc.lft.to/lastmile_qr_scan"}, "name": "27495409bca2cfff8a1846571171dcc6", "type": "electric_scooter", "fusion_lon": 0.0, "is_disabled": 0, "is_reserved": 0, "bike_id": "27495409bca2cfff8a1846571171dcc6", "lon": -77.07881466666667}, {"fusion_lat": 0.0, "lat": 38.898249166666666, "rental_uris": {"ios": "https://dc.lft.to/lastmile_qr_scan", "android": "https://dc.lft.to/lastmile_qr_scan"}, "name": "d915282d20cde0c08460163e2ee0f84d", "type": "electric_scooter", "fusion_lon": 0.0, "is_disabled": 0, "is_reserved": 0, "bike_id": "d915282d20cde0c08460163e2ee0f84d", "lon": -76.93133616666667}, {"fusion_lat": 0.0, "lat": 38.9616195, "rental_uris": {"ios": "https://dc.lft.to/lastmile_qr_scan", "android": "https://dc.lft.to/lastmile_qr_scan"}, "name": "3f3ab56ef28b6d0aa19be4e7855263aa", "type": "electric_bike", "fusion_lon": 0.0, "is_disabled": 0, "is_reserved": 0, "bike_id": "3f3ab56ef28b6d0aa19be4e7855263aa", "lon": -77.03125716666666}, {"fusion_lat": 0.0, "lat": 38.928225833333336, "rental_uris": {"ios": "https://dc.lft.to/lastmile_qr_scan", "android": "https://dc.lft.to/lastmile_qr_scan"}, "name": "dcd893940ccbbd36c59749f411f4c1ca", "type": "electric_scooter", "fusion_lon": 0.0, "is_disabled": 0, "is_reserved": 0, "bike_id": "dcd893940ccbbd36c59749f411f4c1ca", "lon": -77.014008}, {"fusion_lat": 0.0, "lat": 38.91548783333333, "rental_uris": {"ios": "https://dc.lft.to/lastmile_qr_scan", "android": "https://dc.lft.to/lastmile_qr_scan"}, "name": "9479e6bfa58217ef70df737428688f3d", "type": "electric_scooter", "fusion_lon": 0.0, "is_disabled": 0, "is_reserved": 0, "bike_id": "9479e6bfa58217ef70df737428688f3d", "lon": -77.04184466666666}, {"fusion_lat": 0.0, "lat": 38.90068316666667, "rental_uris": {"ios": "https://dc.lft.to/lastmile_qr_scan", "android": "https://dc.lft.to/lastmile_qr_scan"}, "name": "6e4e05d1e17733fe83cc145ab1c4da25", "type": "electric_scooter", "fusion_lon": 0.0, "is_disabled": 0, "is_reserved": 0, "bike_id": "6e4e05d1e17733fe83cc145ab1c4da25", "lon": -77.02970033333334}, {"fusion_lat": 0.0, "lat": 38.920972666666664, "rental_uris": {"ios": "https://dc.lft.to/lastmile_qr_scan", "android": "https://dc.lft.to/lastmile_qr_scan"}, "name": "1323278bfc6b4c9b039e3dd85ae93984", "type": "electric_scooter", "fusion_lon": 0.0, "is_disabled": 0, "is_reserved": 0, "bike_id": "1323278bfc6b4c9b039e3dd85ae93984", "lon": -77.02248833333333}, {"fusion_lat": 0.0, "lat": 38.945268166666665, "rental_uris": {"ios": "https://dc.lft.to/lastmile_qr_scan", "android": "https://dc.lft.to/lastmile_qr_scan"}, "name": "443d39470a20e7a9c3fa2797b375ae0a", "type": "electric_scooter", "fusion_lon": 0.0, "is_disabled": 0, "is_reserved": 0, "bike_id": "443d39470a20e7a9c3fa2797b375ae0a", "lon": -77.06402333333334}, {"fusion_lat": 0.0, "lat": 38.91977883333333, "rental_uris": {"ios": "https://dc.lft.to/lastmile_qr_scan", "android": "https://dc.lft.to/lastmile_qr_scan"}, "name": "a23418f15538be59b622e213d6721643", "type": "electric_scooter", "fusion_lon": 0.0, "is_disabled": 0, "is_reserved": 0, "bike_id": "a23418f15538be59b622e213d6721643", "lon": -77.0250225}, {"fusion_lat": 0.0, "lat": 38.887364833333336, "rental_uris": {"ios": "https://dc.lft.to/lastmile_qr_scan", "android": "https://dc.lft.to/lastmile_qr_scan"}, "name": "90aaad11011410055901cf616bf3f40b", "type": "electric_scooter", "fusion_lon": 0.0, "is_disabled": 0, "is_reserved": 0, "bike_id": "90aaad11011410055901cf616bf3f40b", "lon": -77.02581183333334}, {"fusion_lat": 0.0, "lat": 38.9015335, "rental_uris": {"ios": "https://dc.lft.to/lastmile_qr_scan", "android": "https://dc.lft.to/lastmile_qr_scan"}, "name": "581e694c57c964307573fef6bb440898", "type": "electric_scooter", "fusion_lon": 0.0, "is_disabled": 0, "is_reserved": 0, "bike_id": "581e694c57c964307573fef6bb440898", "lon": -77.03560533333334}, {"fusion_lat": 0.0, "lat": 38.86683566666667, "rental_uris": {"ios": "https://dc.lft.to/lastmile_qr_scan", "android": "https://dc.lft.to/lastmile_qr_scan"}, "name": "560035c2914ae06b10297a1d08f32aa3", "type": "electric_scooter", "fusion_lon": 0.0, "is_disabled": 0, "is_reserved": 0, "bike_id": "560035c2914ae06b10297a1d08f32aa3", "lon": -76.98572333333334}, {"fusion_lat": 0.0, "lat": 38.908458833333334, "rental_uris": {"ios": "https://dc.lft.to/lastmile_qr_scan", "android": "https://dc.lft.to/lastmile_qr_scan"}, "name": "df9d5ce20e9998069b8fb1eecf7cd8f1", "type": "electric_scooter", "fusion_lon": 0.0, "is_disabled": 0, "is_reserved": 0, "bike_id": "df9d5ce20e9998069b8fb1eecf7cd8f1", "lon": -77.043541}, {"fusion_lat": 0.0, "lat": 38.899243, "rental_uris": {"ios": "https://dc.lft.to/lastmile_qr_scan", "android": "https://dc.lft.to/lastmile_qr_scan"}, "name": "d765dce82e6f3f6e4f187a3321986a9d", "type": "electric_scooter", "fusion_lon": 0.0, "is_disabled": 0, "is_reserved": 0, "bike_id": "d765dce82e6f3f6e4f187a3321986a9d", "lon": -77.0317255}, {"fusion_lat": 0.0, "lat": 38.894788166666665, "rental_uris": {"ios": "https://dc.lft.to/lastmile_qr_scan", "android": "https://dc.lft.to/lastmile_qr_scan"}, "name": "a916b72fa11fdf4720f77a42dd088e23", "type": "electric_scooter", "fusion_lon": 0.0, "is_disabled": 0, "is_reserved": 0, "bike_id": "a916b72fa11fdf4720f77a42dd088e23", "lon": -77.01107866666666}, {"fusion_lat": 0.0, "lat": 38.93699933333333, "rental_uris": {"ios": "https://dc.lft.to/lastmile_qr_scan", "android": "https://dc.lft.to/lastmile_qr_scan"}, "name": "30987a02ed5740dd6f95ad4c773457dc", "type": "electric_scooter", "fusion_lon": 0.0, "is_disabled": 0, "is_reserved": 0, "bike_id": "30987a02ed5740dd6f95ad4c773457dc", "lon": -77.03284833333333}, {"fusion_lat": 0.0, "lat": 38.921611166666665, "rental_uris": {"ios": "https://dc.lft.to/lastmile_qr_scan", "android": "https://dc.lft.to/lastmile_qr_scan"}, "name": "c2a63a6330cafd9335a03370229ca03b", "type": "electric_scooter", "fusion_lon": 0.0, "is_disabled": 0, "is_reserved": 0, "bike_id": "c2a63a6330cafd9335a03370229ca03b", "lon": -77.046883}, {"fusion_lat": 0.0, "lat": 38.8975255, "rental_uris": {"ios": "https://dc.lft.to/lastmile_qr_scan", "android": "https://dc.lft.to/lastmile_qr_scan"}, "name": "4c413608b5499219200f22690b3cabd7", "type": "electric_scooter", "fusion_lon": 0.0, "is_disabled": 0, "is_reserved": 0, "bike_id": "4c413608b5499219200f22690b3cabd7", "lon": -77.05152433333333}, {"fusion_lat": 0.0, "lat": 38.89646166666667, "rental_uris": {"ios": "https://dc.lft.to/lastmile_qr_scan", "android": "https://dc.lft.to/lastmile_qr_scan"}, "name": "00551ac9994714c7f1eaf1aff57c039c", "type": "electric_scooter", "fusion_lon": 0.0, "is_disabled": 0, "is_reserved": 0, "bike_id": "00551ac9994714c7f1eaf1aff57c039c", "lon": -77.00934466666666}, {"fusion_lat": 0.0, "lat": 38.897488333333335, "rental_uris": {"ios": "https://dc.lft.to/lastmile_qr_scan", "android": "https://dc.lft.to/lastmile_qr_scan"}, "name": "3c3183ff97a30e2eb9ca2f3cda39736a", "type": "electric_scooter", "fusion_lon": 0.0, "is_disabled": 0, "is_reserved": 0, "bike_id": "3c3183ff97a30e2eb9ca2f3cda39736a", "lon": -76.97981883333334}, {"fusion_lat": 0.0, "lat": 38.89819266666667, "rental_uris": {"ios": "https://dc.lft.to/lastmile_qr_scan", "android": "https://dc.lft.to/lastmile_qr_scan"}, "name": "19b47afd1a5c620e00406955264a5bf0", "type": "electric_scooter", "fusion_lon": 0.0, "is_disabled": 0, "is_reserved": 0, "bike_id": "19b47afd1a5c620e00406955264a5bf0", "lon": -77.02427716666666}, {"fusion_lat": 0.0, "lat": 38.9138985, "rental_uris": {"ios": "https://dc.lft.to/lastmile_qr_scan", "android": "https://dc.lft.to/lastmile_qr_scan"}, "name": "d854709b1cd87fd8ee62d258440921e2", "type": "electric_scooter", "fusion_lon": 0.0, "is_disabled": 0, "is_reserved": 0, "bike_id": "d854709b1cd87fd8ee62d258440921e2", "lon": -77.036628}, {"fusion_lat": 0.0, "lat": 38.892234, "rental_uris": {"ios": "https://dc.lft.to/lastmile_qr_scan", "android": "https://dc.lft.to/lastmile_qr_scan"}, "name": "aa4628a809be1520b06d7113261d82d2", "type": "electric_scooter", "fusion_lon": 0.0, "is_disabled": 0, "is_reserved": 0, "bike_id": "aa4628a809be1520b06d7113261d82d2", "lon": -77.045155}, {"fusion_lat": 0.0, "lat": 38.93698916666666, "rental_uris": {"ios": "https://dc.lft.to/lastmile_qr_scan", "android": "https://dc.lft.to/lastmile_qr_scan"}, "name": "d6e5c4862a0d3958142c772bb93167dc", "type": "electric_scooter", "fusion_lon": 0.0, "is_disabled": 0, "is_reserved": 0, "bike_id": "d6e5c4862a0d3958142c772bb93167dc", "lon": -77.032873}, {"fusion_lat": 0.0, "lat": 38.928295, "rental_uris": {"ios": "https://dc.lft.to/lastmile_qr_scan", "android": "https://dc.lft.to/lastmile_qr_scan"}, "name": "342a8dd7a63399fb18946fd8b7f0192a", "type": "electric_scooter", "fusion_lon": 0.0, "is_disabled": 0, "is_reserved": 0, "bike_id": "342a8dd7a63399fb18946fd8b7f0192a", "lon": -77.02187633333334}, {"fusion_lat": 0.0, "lat": 38.887466333333336, "rental_uris": {"ios": "https://dc.lft.to/lastmile_qr_scan", "android": "https://dc.lft.to/lastmile_qr_scan"}, "name": "428e9ecddf109183ed52361d36e5f5df", "type": "electric_scooter", "fusion_lon": 0.0, "is_disabled": 0, "is_reserved": 0, "bike_id": "428e9ecddf109183ed52361d36e5f5df", "lon": -77.00210166666666}, {"fusion_lat": 0.0, "lat": 38.9249295, "rental_uris": {"ios": "https://dc.lft.to/lastmile_qr_scan", "android": "https://dc.lft.to/lastmile_qr_scan"}, "name": "0253fd732b2758a3d0bf121c4c6a5805", "type": "electric_scooter", "fusion_lon": 0.0, "is_disabled": 0, "is_reserved": 0, "bike_id": "0253fd732b2758a3d0bf121c4c6a5805", "lon": -77.03541466666667}, {"fusion_lat": 0.0, "lat": 38.90821366666667, "rental_uris": {"ios": "https://dc.lft.to/lastmile_qr_scan", "android": "https://dc.lft.to/lastmile_qr_scan"}, "name": "1820f72ad6f470cf52f1330174b77216", "type": "electric_scooter", "fusion_lon": 0.0, "is_disabled": 0, "is_reserved": 0, "bike_id": "1820f72ad6f470cf52f1330174b77216", "lon": -77.05498233333333}, {"fusion_lat": 0.0, "lat": 38.9139025, "rental_uris": {"ios": "https://dc.lft.to/lastmile_qr_scan", "android": "https://dc.lft.to/lastmile_qr_scan"}, "name": "98d896ebabcec28179d80461c1309f4e", "type": "electric_scooter", "fusion_lon": 0.0, "is_disabled": 0, "is_reserved": 0, "bike_id": "98d896ebabcec28179d80461c1309f4e", "lon": -77.03209766666667}, {"fusion_lat": 0.0, "lat": 38.93317066666667, "rental_uris": {"ios": "https://dc.lft.to/lastmile_qr_scan", "android": "https://dc.lft.to/lastmile_qr_scan"}, "name": "ee28eb085f2718ab4526268a71438f5c", "type": "electric_scooter", "fusion_lon": 0.0, "is_disabled": 0, "is_reserved": 0, "bike_id": "ee28eb085f2718ab4526268a71438f5c", "lon": -77.02369033333333}, {"fusion_lat": 0.0, "lat": 38.938785, "rental_uris": {"ios": "https://dc.lft.to/lastmile_qr_scan", "android": "https://dc.lft.to/lastmile_qr_scan"}, "name": "4ffc17afd4fc79bfd804486ed25addb0", "type": "electric_scooter", "fusion_lon": 0.0, "is_disabled": 0, "is_reserved": 0, "bike_id": "4ffc17afd4fc79bfd804486ed25addb0", "lon": -77.02466683333333}, {"fusion_lat": 0.0, "lat": 38.894355, "rental_uris": {"ios": "https://dc.lft.to/lastmile_qr_scan", "android": "https://dc.lft.to/lastmile_qr_scan"}, "name": "00ac07ced191f4d5f007e336ce436f2f", "type": "electric_scooter", "fusion_lon": 0.0, "is_disabled": 0, "is_reserved": 0, "bike_id": "00ac07ced191f4d5f007e336ce436f2f", "lon": -77.00125733333333}, {"fusion_lat": 0.0, "lat": 38.9142235, "rental_uris": {"ios": "https://dc.lft.to/lastmile_qr_scan", "android": "https://dc.lft.to/lastmile_qr_scan"}, "name": "aa9aa1d4e85543273201c8a297b8de63", "type": "electric_scooter", "fusion_lon": 0.0, "is_disabled": 0, "is_reserved": 0, "bike_id": "aa9aa1d4e85543273201c8a297b8de63", "lon": -77.03444916666666}, {"fusion_lat": 0.0, "lat": 38.916457333333334, "rental_uris": {"ios": "https://dc.lft.to/lastmile_qr_scan", "android": "https://dc.lft.to/lastmile_qr_scan"}, "name": "b27d78ebc22ec3b5a772912ec6d8b2bd", "type": "electric_scooter", "fusion_lon": 0.0, "is_disabled": 0, "is_reserved": 0, "bike_id": "b27d78ebc22ec3b5a772912ec6d8b2bd", "lon": -77.02810566666666}, {"fusion_lat": 0.0, "lat": 38.89775083333333, "rental_uris": {"ios": "https://dc.lft.to/lastmile_qr_scan", "android": "https://dc.lft.to/lastmile_qr_scan"}, "name": "19fd9f5d09c52769aa74d6aac9629408", "type": "electric_bike", "fusion_lon": 0.0, "is_disabled": 0, "is_reserved": 0, "bike_id": "19fd9f5d09c52769aa74d6aac9629408", "lon": -77.0317375}, {"fusion_lat": 0.0, "lat": 38.93992933333333, "rental_uris": {"ios": "https://dc.lft.to/lastmile_qr_scan", "android": "https://dc.lft.to/lastmile_qr_scan"}, "name": "d03f0c9b2435d06efc5f51ec688c9b67", "type": "electric_scooter", "fusion_lon": 0.0, "is_disabled": 0, "is_reserved": 0, "bike_id": "d03f0c9b2435d06efc5f51ec688c9b67", "lon": -77.01889733333333}, {"fusion_lat": 0.0, "lat": 38.91718016666667, "rental_uris": {"ios": "https://dc.lft.to/lastmile_qr_scan", "android": "https://dc.lft.to/lastmile_qr_scan"}, "name": "96011334d7778a2ca53aeea5fbd4dc9b", "type": "electric_scooter", "fusion_lon": 0.0, "is_disabled": 0, "is_reserved": 0, "bike_id": "96011334d7778a2ca53aeea5fbd4dc9b", "lon": -77.01211033333334}, {"fusion_lat": 0.0, "lat": 38.89517566666667, "rental_uris": {"ios": "https://dc.lft.to/lastmile_qr_scan", "android": "https://dc.lft.to/lastmile_qr_scan"}, "name": "becfa82f97a3faa515622f4d1b5d5b11", "type": "electric_scooter", "fusion_lon": 0.0, "is_disabled": 0, "is_reserved": 0, "bike_id": "becfa82f97a3faa515622f4d1b5d5b11", "lon": -77.02685266666667}, {"fusion_lat": 0.0, "lat": 38.89484016666667, "rental_uris": {"ios": "https://dc.lft.to/lastmile_qr_scan", "android": "https://dc.lft.to/lastmile_qr_scan"}, "name": "ca63b66cf44f04a27286bb402a79155c", "type": "electric_scooter", "fusion_lon": 0.0, "is_disabled": 0, "is_reserved": 0, "bike_id": "ca63b66cf44f04a27286bb402a79155c", "lon": -77.01522966666667}, {"fusion_lat": 0.0, "lat": 38.90775716666667, "rental_uris": {"ios": "https://dc.lft.to/lastmile_qr_scan", "android": "https://dc.lft.to/lastmile_qr_scan"}, "name": "ecfe0b8a6269aa52261f359754cbc33a", "type": "electric_scooter", "fusion_lon": 0.0, "is_disabled": 0, "is_reserved": 0, "bike_id": "ecfe0b8a6269aa52261f359754cbc33a", "lon": -77.03200783333334}, {"fusion_lat": 0.0, "lat": 38.879532166666664, "rental_uris": {"ios": "https://dc.lft.to/lastmile_qr_scan", "android": "https://dc.lft.to/lastmile_qr_scan"}, "name": "7d14eae1ef95e1190ec24863ca23920b", "type": "electric_scooter", "fusion_lon": 0.0, "is_disabled": 0, "is_reserved": 0, "bike_id": "7d14eae1ef95e1190ec24863ca23920b", "lon": -76.98376516666667}, {"fusion_lat": 0.0, "lat": 38.92333283333333, "rental_uris": {"ios": "https://dc.lft.to/lastmile_qr_scan", "android": "https://dc.lft.to/lastmile_qr_scan"}, "name": "d7d8109b77713e9c13677b29afec3356", "type": "electric_scooter", "fusion_lon": 0.0, "is_disabled": 0, "is_reserved": 0, "bike_id": "d7d8109b77713e9c13677b29afec3356", "lon": -77.04186266666666}, {"fusion_lat": 0.0, "lat": 38.9249285, "rental_uris": {"ios": "https://dc.lft.to/lastmile_qr_scan", "android": "https://dc.lft.to/lastmile_qr_scan"}, "name": "c902b3cecefc16d5b90875e17d116651", "type": "electric_scooter", "fusion_lon": 0.0, "is_disabled": 0, "is_reserved": 0, "bike_id": "c902b3cecefc16d5b90875e17d116651", "lon": -77.0253435}, {"fusion_lat": 0.0, "lat": 38.901915833333334, "rental_uris": {"ios": "https://dc.lft.to/lastmile_qr_scan", "android": "https://dc.lft.to/lastmile_qr_scan"}, "name": "64f2d2a8b59b353558ef11b8a3d9053e", "type": "electric_scooter", "fusion_lon": 0.0, "is_disabled": 0, "is_reserved": 0, "bike_id": "64f2d2a8b59b353558ef11b8a3d9053e", "lon": -76.92895816666666}, {"fusion_lat": 0.0, "lat": 38.9023835, "rental_uris": {"ios": "https://dc.lft.to/lastmile_qr_scan", "android": "https://dc.lft.to/lastmile_qr_scan"}, "name": "3408f5666602f0b6e338e0d8b1a6f06a", "type": "electric_scooter", "fusion_lon": 0.0, "is_disabled": 0, "is_reserved": 0, "bike_id": "3408f5666602f0b6e338e0d8b1a6f06a", "lon": -77.0019955}, {"fusion_lat": 0.0, "lat": 38.887466833333335, "rental_uris": {"ios": "https://dc.lft.to/lastmile_qr_scan", "android": "https://dc.lft.to/lastmile_qr_scan"}, "name": "718a4561c72739b91f5d8d21bc0824ae", "type": "electric_scooter", "fusion_lon": 0.0, "is_disabled": 0, "is_reserved": 0, "bike_id": "718a4561c72739b91f5d8d21bc0824ae", "lon": -77.01798533333333}, {"fusion_lat": 0.0, "lat": 38.8827095, "rental_uris": {"ios": "https://dc.lft.to/lastmile_qr_scan", "android": "https://dc.lft.to/lastmile_qr_scan"}, "name": "f73a0bc5560d574db943835c54c7d18e", "type": "electric_scooter", "fusion_lon": 0.0, "is_disabled": 0, "is_reserved": 0, "bike_id": "f73a0bc5560d574db943835c54c7d18e", "lon": -76.99482366666666}, {"fusion_lat": 0.0, "lat": 38.91776483333334, "rental_uris": {"ios": "https://dc.lft.to/lastmile_qr_scan", "android": "https://dc.lft.to/lastmile_qr_scan"}, "name": "0c78ebac2f76742e62a38a21d0d13511", "type": "electric_scooter", "fusion_lon": 0.0, "is_disabled": 0, "is_reserved": 0, "bike_id": "0c78ebac2f76742e62a38a21d0d13511", "lon": -77.04102816666666}, {"fusion_lat": 0.0, "lat": 38.89223116666667, "rental_uris": {"ios": "https://dc.lft.to/lastmile_qr_scan", "android": "https://dc.lft.to/lastmile_qr_scan"}, "name": "c1b14e30e1f893a82ae0d39737db30f6", "type": "electric_scooter", "fusion_lon": 0.0, "is_disabled": 0, "is_reserved": 0, "bike_id": "c1b14e30e1f893a82ae0d39737db30f6", "lon": -77.048071}, {"fusion_lat": 0.0, "lat": 38.91118183333333, "rental_uris": {"ios": "https://dc.lft.to/lastmile_qr_scan", "android": "https://dc.lft.to/lastmile_qr_scan"}, "name": "11bcc828de2b5947e78667ef9f398295", "type": "electric_scooter", "fusion_lon": 0.0, "is_disabled": 0, "is_reserved": 0, "bike_id": "11bcc828de2b5947e78667ef9f398295", "lon": -77.03149366666666}, {"fusion_lat": 0.0, "lat": 38.86600216666667, "rental_uris": {"ios": "https://dc.lft.to/lastmile_qr_scan", "android": "https://dc.lft.to/lastmile_qr_scan"}, "name": "0c7d04a20c4d4df1be519f97cce6cdcd", "type": "electric_scooter", "fusion_lon": 0.0, "is_disabled": 0, "is_reserved": 0, "bike_id": "0c7d04a20c4d4df1be519f97cce6cdcd", "lon": -76.982071}, {"fusion_lat": 0.0, "lat": 38.904159, "rental_uris": {"ios": "https://dc.lft.to/lastmile_qr_scan", "android": "https://dc.lft.to/lastmile_qr_scan"}, "name": "6578cb34f6d51f6e9d12d63c746680a1", "type": "electric_scooter", "fusion_lon": 0.0, "is_disabled": 0, "is_reserved": 0, "bike_id": "6578cb34f6d51f6e9d12d63c746680a1", "lon": -77.04351216666667}, {"fusion_lat": 0.0, "lat": 38.931711666666665, "rental_uris": {"ios": "https://dc.lft.to/lastmile_qr_scan", "android": "https://dc.lft.to/lastmile_qr_scan"}, "name": "23c045caab7b9b8b172c289b5fd99152", "type": "electric_scooter", "fusion_lon": 0.0, "is_disabled": 0, "is_reserved": 0, "bike_id": "23c045caab7b9b8b172c289b5fd99152", "lon": -77.070708}, {"fusion_lat": 0.0, "lat": 38.91875016666667, "rental_uris": {"ios": "https://dc.lft.to/lastmile_qr_scan", "android": "https://dc.lft.to/lastmile_qr_scan"}, "name": "73540fd55a361560c7281433c6cf7dc4", "type": "electric_scooter", "fusion_lon": 0.0, "is_disabled": 0, "is_reserved": 0, "bike_id": "73540fd55a361560c7281433c6cf7dc4", "lon": -76.96555183333334}, {"fusion_lat": 0.0, "lat": 38.87707183333333, "rental_uris": {"ios": "https://dc.lft.to/lastmile_qr_scan", "android": "https://dc.lft.to/lastmile_qr_scan"}, "name": "f33e31320ab0d9b22c79141747af8825", "type": "electric_scooter", "fusion_lon": 0.0, "is_disabled": 0, "is_reserved": 0, "bike_id": "f33e31320ab0d9b22c79141747af8825", "lon": -77.004466}, {"fusion_lat": 0.0, "lat": 38.901122666666666, "rental_uris": {"ios": "https://dc.lft.to/lastmile_qr_scan", "android": "https://dc.lft.to/lastmile_qr_scan"}, "name": "52f09078d2a1c36bcd36cf16a2d28884", "type": "electric_scooter", "fusion_lon": 0.0, "is_disabled": 0, "is_reserved": 0, "bike_id": "52f09078d2a1c36bcd36cf16a2d28884", "lon": -77.03244466666666}, {"fusion_lat": 0.0, "lat": 38.90282216666667, "rental_uris": {"ios": "https://dc.lft.to/lastmile_qr_scan", "android": "https://dc.lft.to/lastmile_qr_scan"}, "name": "ad58e6c7b1187bc4b40d4c7c3cac115f", "type": "electric_scooter", "fusion_lon": 0.0, "is_disabled": 0, "is_reserved": 0, "bike_id": "ad58e6c7b1187bc4b40d4c7c3cac115f", "lon": -77.02281283333333}, {"fusion_lat": 0.0, "lat": 38.91709016666667, "rental_uris": {"ios": "https://dc.lft.to/lastmile_qr_scan", "android": "https://dc.lft.to/lastmile_qr_scan"}, "name": "f16a8d70bf29f1545cd298422b2e30f5", "type": "electric_scooter", "fusion_lon": 0.0, "is_disabled": 0, "is_reserved": 0, "bike_id": "f16a8d70bf29f1545cd298422b2e30f5", "lon": -77.04703483333333}, {"fusion_lat": 0.0, "lat": 38.9204925, "rental_uris": {"ios": "https://dc.lft.to/lastmile_qr_scan", "android": "https://dc.lft.to/lastmile_qr_scan"}, "name": "6471f9b651b2c5800614601f4d0e609d", "type": "electric_scooter", "fusion_lon": 0.0, "is_disabled": 0, "is_reserved": 0, "bike_id": "6471f9b651b2c5800614601f4d0e609d", "lon": -77.0382185}, {"fusion_lat": 0.0, "lat": 38.89828116666666, "rental_uris": {"ios": "https://dc.lft.to/lastmile_qr_scan", "android": "https://dc.lft.to/lastmile_qr_scan"}, "name": "c6dcdb9a9d5a473913b6470021fad74f", "type": "electric_scooter", "fusion_lon": 0.0, "is_disabled": 0, "is_reserved": 0, "bike_id": "c6dcdb9a9d5a473913b6470021fad74f", "lon": -77.03330816666667}, {"fusion_lat": 0.0, "lat": 38.90505616666667, "rental_uris": {"ios": "https://dc.lft.to/lastmile_qr_scan", "android": "https://dc.lft.to/lastmile_qr_scan"}, "name": "fd61a92ef29d9cda47093a4be86f9be7", "type": "electric_scooter", "fusion_lon": 0.0, "is_disabled": 0, "is_reserved": 0, "bike_id": "fd61a92ef29d9cda47093a4be86f9be7", "lon": -77.06120266666667}, {"fusion_lat": 0.0, "lat": 38.9245065, "rental_uris": {"ios": "https://dc.lft.to/lastmile_qr_scan", "android": "https://dc.lft.to/lastmile_qr_scan"}, "name": "2d10d59355562b63a0a5ebee22c9603f", "type": "electric_scooter", "fusion_lon": 0.0, "is_disabled": 0, "is_reserved": 0, "bike_id": "2d10d59355562b63a0a5ebee22c9603f", "lon": -77.02143716666667}, {"fusion_lat": 0.0, "lat": 38.931140166666665, "rental_uris": {"ios": "https://dc.lft.to/lastmile_qr_scan", "android": "https://dc.lft.to/lastmile_qr_scan"}, "name": "fb921d59065eec37ace40c2dc35cc0c9", "type": "electric_scooter", "fusion_lon": 0.0, "is_disabled": 0, "is_reserved": 0, "bike_id": "fb921d59065eec37ace40c2dc35cc0c9", "lon": -77.03816116666667}, {"fusion_lat": 0.0, "lat": 38.938619333333335, "rental_uris": {"ios": "https://dc.lft.to/lastmile_qr_scan", "android": "https://dc.lft.to/lastmile_qr_scan"}, "name": "6f69d16209d29685656259bc5514488b", "type": "electric_scooter", "fusion_lon": 0.0, "is_disabled": 0, "is_reserved": 0, "bike_id": "6f69d16209d29685656259bc5514488b", "lon": -77.0262585}, {"fusion_lat": 0.0, "lat": 38.909718, "rental_uris": {"ios": "https://dc.lft.to/lastmile_qr_scan", "android": "https://dc.lft.to/lastmile_qr_scan"}, "name": "fc7ac3a97bb59d22a11bb899bac9cfa9", "type": "electric_scooter", "fusion_lon": 0.0, "is_disabled": 0, "is_reserved": 0, "bike_id": "fc7ac3a97bb59d22a11bb899bac9cfa9", "lon": -77.04520566666666}, {"fusion_lat": 0.0, "lat": 38.92748116666667, "rental_uris": {"ios": "https://dc.lft.to/lastmile_qr_scan", "android": "https://dc.lft.to/lastmile_qr_scan"}, "name": "292062d92a95fba5538f880e0a019572", "type": "electric_scooter", "fusion_lon": 0.0, "is_disabled": 0, "is_reserved": 0, "bike_id": "292062d92a95fba5538f880e0a019572", "lon": -77.02490483333334}, {"fusion_lat": 0.0, "lat": 38.8913195, "rental_uris": {"ios": "https://dc.lft.to/lastmile_qr_scan", "android": "https://dc.lft.to/lastmile_qr_scan"}, "name": "a0e273733df011b09ae00e4886c75351", "type": "electric_scooter", "fusion_lon": 0.0, "is_disabled": 0, "is_reserved": 0, "bike_id": "a0e273733df011b09ae00e4886c75351", "lon": -76.99093433333333}, {"fusion_lat": 0.0, "lat": 38.9846465, "rental_uris": {"ios": "https://dc.lft.to/lastmile_qr_scan", "android": "https://dc.lft.to/lastmile_qr_scan"}, "name": "b292183f1bd372ab83f31db5ae151230", "type": "electric_bike", "fusion_lon": 0.0, "is_disabled": 0, "is_reserved": 0, "bike_id": "b292183f1bd372ab83f31db5ae151230", "lon": -76.97056366666666}, {"fusion_lat": 0.0, "lat": 38.882600333333336, "rental_uris": {"ios": "https://dc.lft.to/lastmile_qr_scan", "android": "https://dc.lft.to/lastmile_qr_scan"}, "name": "46ca5be328980e94f6c8df82add2d9b2", "type": "electric_bike", "fusion_lon": 0.0, "is_disabled": 0, "is_reserved": 0, "bike_id": "46ca5be328980e94f6c8df82add2d9b2", "lon": -76.9103815}, {"fusion_lat": 0.0, "lat": 38.93990183333333, "rental_uris": {"ios": "https://dc.lft.to/lastmile_qr_scan", "android": "https://dc.lft.to/lastmile_qr_scan"}, "name": "c5aaf2bfb4111c4b7c8af8adbe779543", "type": "electric_scooter", "fusion_lon": 0.0, "is_disabled": 0, "is_reserved": 0, "bike_id": "c5aaf2bfb4111c4b7c8af8adbe779543", "lon": -77.0326635}, {"fusion_lat": 0.0, "lat": 38.903056666666664, "rental_uris": {"ios": "https://dc.lft.to/lastmile_qr_scan", "android": "https://dc.lft.to/lastmile_qr_scan"}, "name": "9f99932675a110d2b2577a1ee46cdd16", "type": "electric_scooter", "fusion_lon": 0.0, "is_disabled": 0, "is_reserved": 0, "bike_id": "9f99932675a110d2b2577a1ee46cdd16", "lon": -77.0236935}, {"fusion_lat": 0.0, "lat": 38.8531795, "rental_uris": {"ios": "https://dc.lft.to/lastmile_qr_scan", "android": "https://dc.lft.to/lastmile_qr_scan"}, "name": "149247e2534412e7709b9252fb02981e", "type": "electric_bike", "fusion_lon": 0.0, "is_disabled": 0, "is_reserved": 0, "bike_id": "149247e2534412e7709b9252fb02981e", "lon": -76.980042}, {"fusion_lat": 0.0, "lat": 38.922539666666665, "rental_uris": {"ios": "https://dc.lft.to/lastmile_qr_scan", "android": "https://dc.lft.to/lastmile_qr_scan"}, "name": "20cf0a6fdb333c16b54c19c428dd190e", "type": "electric_scooter", "fusion_lon": 0.0, "is_disabled": 0, "is_reserved": 0, "bike_id": "20cf0a6fdb333c16b54c19c428dd190e", "lon": -77.02106733333333}, {"fusion_lat": 0.0, "lat": 38.916098, "rental_uris": {"ios": "https://dc.lft.to/lastmile_qr_scan", "android": "https://dc.lft.to/lastmile_qr_scan"}, "name": "0f878b24b9114d8870a5a69765d47599", "type": "electric_scooter", "fusion_lon": 0.0, "is_disabled": 0, "is_reserved": 0, "bike_id": "0f878b24b9114d8870a5a69765d47599", "lon": -77.0229125}, {"fusion_lat": 0.0, "lat": 38.849149, "rental_uris": {"ios": "https://dc.lft.to/lastmile_qr_scan", "android": "https://dc.lft.to/lastmile_qr_scan"}, "name": "0bb3f33af4e64b997a2dae8c7fb78b5a", "type": "electric_bike", "fusion_lon": 0.0, "is_disabled": 0, "is_reserved": 0, "bike_id": "0bb3f33af4e64b997a2dae8c7fb78b5a", "lon": -77.07932966666667}, {"fusion_lat": 0.0, "lat": 38.923163, "rental_uris": {"ios": "https://dc.lft.to/lastmile_qr_scan", "android": "https://dc.lft.to/lastmile_qr_scan"}, "name": "f441f01aeab4bce2fb2fe388a1600968", "type": "electric_scooter", "fusion_lon": 0.0, "is_disabled": 0, "is_reserved": 0, "bike_id": "f441f01aeab4bce2fb2fe388a1600968", "lon": -77.03409033333334}, {"fusion_lat": 0.0, "lat": 38.90422516666667, "rental_uris": {"ios": "https://dc.lft.to/lastmile_qr_scan", "android": "https://dc.lft.to/lastmile_qr_scan"}, "name": "4a27012a1ea4b5df565690d35b59328e", "type": "electric_scooter", "fusion_lon": 0.0, "is_disabled": 0, "is_reserved": 0, "bike_id": "4a27012a1ea4b5df565690d35b59328e", "lon": -77.04143933333333}, {"fusion_lat": 0.0, "lat": 38.928996166666664, "rental_uris": {"ios": "https://dc.lft.to/lastmile_qr_scan", "android": "https://dc.lft.to/lastmile_qr_scan"}, "name": "46742e543ea8a4eaaf74f3d5b5d8ba4e", "type": "electric_scooter", "fusion_lon": 0.0, "is_disabled": 0, "is_reserved": 0, "bike_id": "46742e543ea8a4eaaf74f3d5b5d8ba4e", "lon": -77.03262766666667}, {"fusion_lat": 0.0, "lat": 38.93524766666667, "rental_uris": {"ios": "https://dc.lft.to/lastmile_qr_scan", "android": "https://dc.lft.to/lastmile_qr_scan"}, "name": "c90700a27e21af6ecf7a7bf7ce470be3", "type": "electric_scooter", "fusion_lon": 0.0, "is_disabled": 0, "is_reserved": 0, "bike_id": "c90700a27e21af6ecf7a7bf7ce470be3", "lon": -77.07657716666667}, {"fusion_lat": 0.0, "lat": 38.8986295, "rental_uris": {"ios": "https://dc.lft.to/lastmile_qr_scan", "android": "https://dc.lft.to/lastmile_qr_scan"}, "name": "f23440698c3d157333ce80d90d8a78fd", "type": "electric_scooter", "fusion_lon": 0.0, "is_disabled": 0, "is_reserved": 0, "bike_id": "f23440698c3d157333ce80d90d8a78fd", "lon": -76.946382}, {"fusion_lat": 0.0, "lat": 38.911288666666664, "rental_uris": {"ios": "https://dc.lft.to/lastmile_qr_scan", "android": "https://dc.lft.to/lastmile_qr_scan"}, "name": "d9d2a3d1b6e5e9fc903f69da5eb1a049", "type": "electric_scooter", "fusion_lon": 0.0, "is_disabled": 0, "is_reserved": 0, "bike_id": "d9d2a3d1b6e5e9fc903f69da5eb1a049", "lon": -77.03835766666667}, {"fusion_lat": 0.0, "lat": 38.924787333333335, "rental_uris": {"ios": "https://dc.lft.to/lastmile_qr_scan", "android": "https://dc.lft.to/lastmile_qr_scan"}, "name": "bb5b502719dfe3aaeec58640262475a9", "type": "electric_scooter", "fusion_lon": 0.0, "is_disabled": 0, "is_reserved": 0, "bike_id": "bb5b502719dfe3aaeec58640262475a9", "lon": -77.02217516666667}, {"fusion_lat": 0.0, "lat": 38.91397, "rental_uris": {"ios": "https://dc.lft.to/lastmile_qr_scan", "android": "https://dc.lft.to/lastmile_qr_scan"}, "name": "25c5281abe0206e627fdff62786afa35", "type": "electric_scooter", "fusion_lon": 0.0, "is_disabled": 0, "is_reserved": 0, "bike_id": "25c5281abe0206e627fdff62786afa35", "lon": -77.0332925}, {"fusion_lat": 0.0, "lat": 38.895050166666664, "rental_uris": {"ios": "https://dc.lft.to/lastmile_qr_scan", "android": "https://dc.lft.to/lastmile_qr_scan"}, "name": "aad0a2c33f462f396e612dd1f67f6fe4", "type": "electric_scooter", "fusion_lon": 0.0, "is_disabled": 0, "is_reserved": 0, "bike_id": "aad0a2c33f462f396e612dd1f67f6fe4", "lon": -76.93476783333334}, {"fusion_lat": 0.0, "lat": 38.9281255, "rental_uris": {"ios": "https://dc.lft.to/lastmile_qr_scan", "android": "https://dc.lft.to/lastmile_qr_scan"}, "name": "683736c6618a36b293a576bbe710c4da", "type": "electric_scooter", "fusion_lon": 0.0, "is_disabled": 0, "is_reserved": 0, "bike_id": "683736c6618a36b293a576bbe710c4da", "lon": -77.0327775}, {"fusion_lat": 0.0, "lat": 38.887339833333336, "rental_uris": {"ios": "https://dc.lft.to/lastmile_qr_scan", "android": "https://dc.lft.to/lastmile_qr_scan"}, "name": "ab9eeb10cb05a1dcdb3f31e5479787b2", "type": "electric_scooter", "fusion_lon": 0.0, "is_disabled": 0, "is_reserved": 0, "bike_id": "ab9eeb10cb05a1dcdb3f31e5479787b2", "lon": -77.02580233333333}, {"fusion_lat": 0.0, "lat": 38.91766883333333, "rental_uris": {"ios": "https://dc.lft.to/lastmile_qr_scan", "android": "https://dc.lft.to/lastmile_qr_scan"}, "name": "4b2c2058beffae3db5e82bea0fc172f3", "type": "electric_scooter", "fusion_lon": 0.0, "is_disabled": 0, "is_reserved": 0, "bike_id": "4b2c2058beffae3db5e82bea0fc172f3", "lon": -77.047725}, {"fusion_lat": 0.0, "lat": 38.900436, "rental_uris": {"ios": "https://dc.lft.to/lastmile_qr_scan", "android": "https://dc.lft.to/lastmile_qr_scan"}, "name": "aa9db623ac4fe7ce9f4012830447d102", "type": "electric_scooter", "fusion_lon": 0.0, "is_disabled": 0, "is_reserved": 0, "bike_id": "aa9db623ac4fe7ce9f4012830447d102", "lon": -77.00203}, {"fusion_lat": 0.0, "lat": 38.79468983333334, "rental_uris": {"ios": "https://dc.lft.to/lastmile_qr_scan", "android": "https://dc.lft.to/lastmile_qr_scan"}, "name": "ed949158f3fd7c2e361e8655a4877ed8", "type": "electric_bike", "fusion_lon": 0.0, "is_disabled": 0, "is_reserved": 0, "bike_id": "ed949158f3fd7c2e361e8655a4877ed8", "lon": -76.99248833333333}, {"fusion_lat": 0.0, "lat": 38.866884166666665, "rental_uris": {"ios": "https://dc.lft.to/lastmile_qr_scan", "android": "https://dc.lft.to/lastmile_qr_scan"}, "name": "d3c715df342e27404d9ad7a37cb254c2", "type": "electric_scooter", "fusion_lon": 0.0, "is_disabled": 0, "is_reserved": 0, "bike_id": "d3c715df342e27404d9ad7a37cb254c2", "lon": -76.98543533333333}, {"fusion_lat": 0.0, "lat": 38.97219, "rental_uris": {"ios": "https://dc.lft.to/lastmile_qr_scan", "android": "https://dc.lft.to/lastmile_qr_scan"}, "name": "b63563eff08dcb882e3db27147d40e93", "type": "electric_bike", "fusion_lon": 0.0, "is_disabled": 0, "is_reserved": 0, "bike_id": "b63563eff08dcb882e3db27147d40e93", "lon": -77.01428866666667}, {"fusion_lat": 0.0, "lat": 38.90033433333333, "rental_uris": {"ios": "https://dc.lft.to/lastmile_qr_scan", "android": "https://dc.lft.to/lastmile_qr_scan"}, "name": "01954b7a48bc05289c79009d3a30a509", "type": "electric_scooter", "fusion_lon": 0.0, "is_disabled": 0, "is_reserved": 0, "bike_id": "01954b7a48bc05289c79009d3a30a509", "lon": -77.05824633333333}, {"fusion_lat": 0.0, "lat": 38.945174, "rental_uris": {"ios": "https://dc.lft.to/lastmile_qr_scan", "android": "https://dc.lft.to/lastmile_qr_scan"}, "name": "6a74c00370d5d1b646bb8d69e1a10ffc", "type": "electric_scooter", "fusion_lon": 0.0, "is_disabled": 0, "is_reserved": 0, "bike_id": "6a74c00370d5d1b646bb8d69e1a10ffc", "lon": -77.03356216666667}, {"fusion_lat": 0.0, "lat": 38.89280816666667, "rental_uris": {"ios": "https://dc.lft.to/lastmile_qr_scan", "android": "https://dc.lft.to/lastmile_qr_scan"}, "name": "756dcb683a64a6e698a40231e49572a9", "type": "electric_scooter", "fusion_lon": 0.0, "is_disabled": 0, "is_reserved": 0, "bike_id": "756dcb683a64a6e698a40231e49572a9", "lon": -77.05036966666667}, {"fusion_lat": 0.0, "lat": 38.943831333333335, "rental_uris": {"ios": "https://dc.lft.to/lastmile_qr_scan", "android": "https://dc.lft.to/lastmile_qr_scan"}, "name": "cf280b87baf4e74c24af4cf8037f75e9", "type": "electric_scooter", "fusion_lon": 0.0, "is_disabled": 0, "is_reserved": 0, "bike_id": "cf280b87baf4e74c24af4cf8037f75e9", "lon": -77.07701533333334}, {"fusion_lat": 0.0, "lat": 38.921502333333336, "rental_uris": {"ios": "https://dc.lft.to/lastmile_qr_scan", "android": "https://dc.lft.to/lastmile_qr_scan"}, "name": "5d1be52c61085be64294ac50ba1923d8", "type": "electric_bike", "fusion_lon": 0.0, "is_disabled": 0, "is_reserved": 0, "bike_id": "5d1be52c61085be64294ac50ba1923d8", "lon": -77.042309}, {"fusion_lat": 0.0, "lat": 38.89220666666667, "rental_uris": {"ios": "https://dc.lft.to/lastmile_qr_scan", "android": "https://dc.lft.to/lastmile_qr_scan"}, "name": "408d1c67b06071b81e0ddbca8e995134", "type": "electric_scooter", "fusion_lon": 0.0, "is_disabled": 0, "is_reserved": 0, "bike_id": "408d1c67b06071b81e0ddbca8e995134", "lon": -77.04371883333333}, {"fusion_lat": 0.0, "lat": 38.899365, "rental_uris": {"ios": "https://dc.lft.to/lastmile_qr_scan", "android": "https://dc.lft.to/lastmile_qr_scan"}, "name": "5372b7bf35fae152c881e708e99a63ab", "type": "electric_scooter", "fusion_lon": 0.0, "is_disabled": 0, "is_reserved": 0, "bike_id": "5372b7bf35fae152c881e708e99a63ab", "lon": -77.04054833333333}, {"fusion_lat": 0.0, "lat": 38.907999833333335, "rental_uris": {"ios": "https://dc.lft.to/lastmile_qr_scan", "android": "https://dc.lft.to/lastmile_qr_scan"}, "name": "3acfbcf8d5d2fb2e503f22aa4636f164", "type": "electric_scooter", "fusion_lon": 0.0, "is_disabled": 0, "is_reserved": 0, "bike_id": "3acfbcf8d5d2fb2e503f22aa4636f164", "lon": -77.0643925}, {"fusion_lat": 0.0, "lat": 38.89866716666667, "rental_uris": {"ios": "https://dc.lft.to/lastmile_qr_scan", "android": "https://dc.lft.to/lastmile_qr_scan"}, "name": "414cb5e402e348292d48b877c120fea5", "type": "electric_scooter", "fusion_lon": 0.0, "is_disabled": 0, "is_reserved": 0, "bike_id": "414cb5e402e348292d48b877c120fea5", "lon": -76.946358}, {"fusion_lat": 0.0, "lat": 38.90282, "rental_uris": {"ios": "https://dc.lft.to/lastmile_qr_scan", "android": "https://dc.lft.to/lastmile_qr_scan"}, "name": "5342d049b767a2c9ae56449686d7313e", "type": "electric_scooter", "fusion_lon": 0.0, "is_disabled": 0, "is_reserved": 0, "bike_id": "5342d049b767a2c9ae56449686d7313e", "lon": -77.03842683333333}, {"fusion_lat": 0.0, "lat": 38.927975, "rental_uris": {"ios": "https://dc.lft.to/lastmile_qr_scan", "android": "https://dc.lft.to/lastmile_qr_scan"}, "name": "3272de42ff87b284fe7f9b2c532f1d31", "type": "electric_scooter", "fusion_lon": 0.0, "is_disabled": 0, "is_reserved": 0, "bike_id": "3272de42ff87b284fe7f9b2c532f1d31", "lon": -77.026002}, {"fusion_lat": 0.0, "lat": 38.92520283333333, "rental_uris": {"ios": "https://dc.lft.to/lastmile_qr_scan", "android": "https://dc.lft.to/lastmile_qr_scan"}, "name": "53f9703a51098eeb1731ffb75c3fa1a1", "type": "electric_scooter", "fusion_lon": 0.0, "is_disabled": 0, "is_reserved": 0, "bike_id": "53f9703a51098eeb1731ffb75c3fa1a1", "lon": -77.05125133333334}, {"fusion_lat": 0.0, "lat": 38.901339166666666, "rental_uris": {"ios": "https://dc.lft.to/lastmile_qr_scan", "android": "https://dc.lft.to/lastmile_qr_scan"}, "name": "cb0a29ab8987521c8aed08366862ac2c", "type": "electric_scooter", "fusion_lon": 0.0, "is_disabled": 0, "is_reserved": 0, "bike_id": "cb0a29ab8987521c8aed08366862ac2c", "lon": -77.0316715}, {"fusion_lat": 0.0, "lat": 38.84610583333333, "rental_uris": {"ios": "https://dc.lft.to/lastmile_qr_scan", "android": "https://dc.lft.to/lastmile_qr_scan"}, "name": "8e7b5ac0f47fb0f075a1eb12b3551564", "type": "electric_bike", "fusion_lon": 0.0, "is_disabled": 0, "is_reserved": 0, "bike_id": "8e7b5ac0f47fb0f075a1eb12b3551564", "lon": -76.969127}, {"fusion_lat": 0.0, "lat": 38.874262333333334, "rental_uris": {"ios": "https://dc.lft.to/lastmile_qr_scan", "android": "https://dc.lft.to/lastmile_qr_scan"}, "name": "23f5fef5b01a01f6f0b86c34b2fcf945", "type": "electric_bike", "fusion_lon": 0.0, "is_disabled": 0, "is_reserved": 0, "bike_id": "23f5fef5b01a01f6f0b86c34b2fcf945", "lon": -77.085644}, {"fusion_lat": 0.0, "lat": 38.91723966666667, "rental_uris": {"ios": "https://dc.lft.to/lastmile_qr_scan", "android": "https://dc.lft.to/lastmile_qr_scan"}, "name": "e1dbf98791a4593ea2cb6cabc9d6df17", "type": "electric_scooter", "fusion_lon": 0.0, "is_disabled": 0, "is_reserved": 0, "bike_id": "e1dbf98791a4593ea2cb6cabc9d6df17", "lon": -77.02380866666667}, {"fusion_lat": 0.0, "lat": 38.920194, "rental_uris": {"ios": "https://dc.lft.to/lastmile_qr_scan", "android": "https://dc.lft.to/lastmile_qr_scan"}, "name": "968a0b844f92e6a8f7a6aaaeaca6d1b9", "type": "electric_bike", "fusion_lon": 0.0, "is_disabled": 0, "is_reserved": 0, "bike_id": "968a0b844f92e6a8f7a6aaaeaca6d1b9", "lon": -77.010454}, {"fusion_lat": 0.0, "lat": 38.9326405, "rental_uris": {"ios": "https://dc.lft.to/lastmile_qr_scan", "android": "https://dc.lft.to/lastmile_qr_scan"}, "name": "4b6717dc7cfde23e93ece7c6a37d2f4e", "type": "electric_scooter", "fusion_lon": 0.0, "is_disabled": 0, "is_reserved": 0, "bike_id": "4b6717dc7cfde23e93ece7c6a37d2f4e", "lon": -77.02096133333333}, {"fusion_lat": 0.0, "lat": 38.920655, "rental_uris": {"ios": "https://dc.lft.to/lastmile_qr_scan", "android": "https://dc.lft.to/lastmile_qr_scan"}, "name": "cfed61c922eed380c2b96b3457c2405c", "type": "electric_scooter", "fusion_lon": 0.0, "is_disabled": 0, "is_reserved": 0, "bike_id": "cfed61c922eed380c2b96b3457c2405c", "lon": -77.0236865}, {"fusion_lat": 0.0, "lat": 38.917234666666666, "rental_uris": {"ios": "https://dc.lft.to/lastmile_qr_scan", "android": "https://dc.lft.to/lastmile_qr_scan"}, "name": "9aa0f70410d4b64ffffbbe31b27866b0", "type": "electric_scooter", "fusion_lon": 0.0, "is_disabled": 0, "is_reserved": 0, "bike_id": "9aa0f70410d4b64ffffbbe31b27866b0", "lon": -77.02302583333334}, {"fusion_lat": 0.0, "lat": 38.91711766666667, "rental_uris": {"ios": "https://dc.lft.to/lastmile_qr_scan", "android": "https://dc.lft.to/lastmile_qr_scan"}, "name": "89e6d33c2aa384baf48451d320b43705", "type": "electric_scooter", "fusion_lon": 0.0, "is_disabled": 0, "is_reserved": 0, "bike_id": "89e6d33c2aa384baf48451d320b43705", "lon": -77.02303483333333}, {"fusion_lat": 0.0, "lat": 38.92140833333333, "rental_uris": {"ios": "https://dc.lft.to/lastmile_qr_scan", "android": "https://dc.lft.to/lastmile_qr_scan"}, "name": "37bc65004f7ed12a45886778a4be87d0", "type": "electric_bike", "fusion_lon": 0.0, "is_disabled": 0, "is_reserved": 0, "bike_id": "37bc65004f7ed12a45886778a4be87d0", "lon": -77.028397}, {"fusion_lat": 0.0, "lat": 38.925039, "rental_uris": {"ios": "https://dc.lft.to/lastmile_qr_scan", "android": "https://dc.lft.to/lastmile_qr_scan"}, "name": "a1a1bca7c0b145f09c4ab65d7f5321d6", "type": "electric_scooter", "fusion_lon": 0.0, "is_disabled": 0, "is_reserved": 0, "bike_id": "a1a1bca7c0b145f09c4ab65d7f5321d6", "lon": -77.0575545}, {"fusion_lat": 0.0, "lat": 38.9199455, "rental_uris": {"ios": "https://dc.lft.to/lastmile_qr_scan", "android": "https://dc.lft.to/lastmile_qr_scan"}, "name": "5482611cd7bac821993357230829d0b0", "type": "electric_scooter", "fusion_lon": 0.0, "is_disabled": 0, "is_reserved": 0, "bike_id": "5482611cd7bac821993357230829d0b0", "lon": -77.023861}, {"fusion_lat": 0.0, "lat": 38.86949, "rental_uris": {"ios": "https://dc.lft.to/lastmile_qr_scan", "android": "https://dc.lft.to/lastmile_qr_scan"}, "name": "eaa2d7e8e02e70199378ae84d9d26be9", "type": "electric_bike", "fusion_lon": 0.0, "is_disabled": 0, "is_reserved": 0, "bike_id": "eaa2d7e8e02e70199378ae84d9d26be9", "lon": -77.13155416666666}, {"fusion_lat": 0.0, "lat": 38.92863533333333, "rental_uris": {"ios": "https://dc.lft.to/lastmile_qr_scan", "android": "https://dc.lft.to/lastmile_qr_scan"}, "name": "fff51e602a206cce80c325857270f455", "type": "electric_scooter", "fusion_lon": 0.0, "is_disabled": 0, "is_reserved": 0, "bike_id": "fff51e602a206cce80c325857270f455", "lon": -77.03708816666666}, {"fusion_lat": 0.0, "lat": 38.874935, "rental_uris": {"ios": "https://dc.lft.to/lastmile_qr_scan", "android": "https://dc.lft.to/lastmile_qr_scan"}, "name": "b47cd783d94b3e9b1394bc2861012f89", "type": "electric_bike", "fusion_lon": 0.0, "is_disabled": 0, "is_reserved": 0, "bike_id": "b47cd783d94b3e9b1394bc2861012f89", "lon": -77.21126733333334}, {"fusion_lat": 0.0, "lat": 38.90851716666667, "rental_uris": {"ios": "https://dc.lft.to/lastmile_qr_scan", "android": "https://dc.lft.to/lastmile_qr_scan"}, "name": "e01fe9265da0c0d85f3e09d1dc168eac", "type": "electric_scooter", "fusion_lon": 0.0, "is_disabled": 0, "is_reserved": 0, "bike_id": "e01fe9265da0c0d85f3e09d1dc168eac", "lon": -76.9980185}, {"fusion_lat": 0.0, "lat": 38.891054, "rental_uris": {"ios": "https://dc.lft.to/lastmile_qr_scan", "android": "https://dc.lft.to/lastmile_qr_scan"}, "name": "6e05ab3180278674b810979b6f8f5b5f", "type": "electric_bike", "fusion_lon": 0.0, "is_disabled": 0, "is_reserved": 0, "bike_id": "6e05ab3180278674b810979b6f8f5b5f", "lon": -76.934819}, {"fusion_lat": 0.0, "lat": 38.914362833333335, "rental_uris": {"ios": "https://dc.lft.to/lastmile_qr_scan", "android": "https://dc.lft.to/lastmile_qr_scan"}, "name": "8392d5f08ba70d50176321d1aa6cbed6", "type": "electric_scooter", "fusion_lon": 0.0, "is_disabled": 0, "is_reserved": 0, "bike_id": "8392d5f08ba70d50176321d1aa6cbed6", "lon": -77.02292716666666}, {"fusion_lat": 0.0, "lat": 38.906196666666666, "rental_uris": {"ios": "https://dc.lft.to/lastmile_qr_scan", "android": "https://dc.lft.to/lastmile_qr_scan"}, "name": "20fd783c50123fafab032c5725a96b53", "type": "electric_scooter", "fusion_lon": 0.0, "is_disabled": 0, "is_reserved": 0, "bike_id": "20fd783c50123fafab032c5725a96b53", "lon": -77.05008466666666}, {"fusion_lat": 0.0, "lat": 38.903659166666664, "rental_uris": {"ios": "https://dc.lft.to/lastmile_qr_scan", "android": "https://dc.lft.to/lastmile_qr_scan"}, "name": "b06f39a3b9328094a8afa4528583f9de", "type": "electric_scooter", "fusion_lon": 0.0, "is_disabled": 0, "is_reserved": 0, "bike_id": "b06f39a3b9328094a8afa4528583f9de", "lon": -77.01635833333333}, {"fusion_lat": 0.0, "lat": 38.920414666666666, "rental_uris": {"ios": "https://dc.lft.to/lastmile_qr_scan", "android": "https://dc.lft.to/lastmile_qr_scan"}, "name": "48635aa8a80e3d06382709938c90b207", "type": "electric_scooter", "fusion_lon": 0.0, "is_disabled": 0, "is_reserved": 0, "bike_id": "48635aa8a80e3d06382709938c90b207", "lon": -77.01678483333333}, {"fusion_lat": 0.0, "lat": 38.92657283333333, "rental_uris": {"ios": "https://dc.lft.to/lastmile_qr_scan", "android": "https://dc.lft.to/lastmile_qr_scan"}, "name": "1936f104e68a9fb229f9fb9e4d8b7e7c", "type": "electric_scooter", "fusion_lon": 0.0, "is_disabled": 0, "is_reserved": 0, "bike_id": "1936f104e68a9fb229f9fb9e4d8b7e7c", "lon": -77.02384266666667}, {"fusion_lat": 0.0, "lat": 38.9048985, "rental_uris": {"ios": "https://dc.lft.to/lastmile_qr_scan", "android": "https://dc.lft.to/lastmile_qr_scan"}, "name": "46ba05ed6fb80f366ec7daf9d0b5c508", "type": "electric_scooter", "fusion_lon": 0.0, "is_disabled": 0, "is_reserved": 0, "bike_id": "46ba05ed6fb80f366ec7daf9d0b5c508", "lon": -77.0538205}, {"fusion_lat": 0.0, "lat": 38.9353955, "rental_uris": {"ios": "https://dc.lft.to/lastmile_qr_scan", "android": "https://dc.lft.to/lastmile_qr_scan"}, "name": "c4d318195ecba9769eee93d4416ee02a", "type": "electric_scooter", "fusion_lon": 0.0, "is_disabled": 0, "is_reserved": 0, "bike_id": "c4d318195ecba9769eee93d4416ee02a", "lon": -77.03084116666666}, {"fusion_lat": 0.0, "lat": 38.885040833333335, "rental_uris": {"ios": "https://dc.lft.to/lastmile_qr_scan", "android": "https://dc.lft.to/lastmile_qr_scan"}, "name": "6cb0fc31c73f9047265eba17178dbef2", "type": "electric_scooter", "fusion_lon": 0.0, "is_disabled": 0, "is_reserved": 0, "bike_id": "6cb0fc31c73f9047265eba17178dbef2", "lon": -77.0070185}, {"fusion_lat": 0.0, "lat": 38.808316, "rental_uris": {"ios": "https://dc.lft.to/lastmile_qr_scan", "android": "https://dc.lft.to/lastmile_qr_scan"}, "name": "b53084691ca360ebf992aa9e84ce5433", "type": "electric_bike", "fusion_lon": 0.0, "is_disabled": 0, "is_reserved": 0, "bike_id": "b53084691ca360ebf992aa9e84ce5433", "lon": -77.0910865}, {"fusion_lat": 0.0, "lat": 38.85248766666667, "rental_uris": {"ios": "https://dc.lft.to/lastmile_qr_scan", "android": "https://dc.lft.to/lastmile_qr_scan"}, "name": "adf7decc844645ee0c0d075c87cee85c", "type": "electric_bike", "fusion_lon": 0.0, "is_disabled": 0, "is_reserved": 0, "bike_id": "adf7decc844645ee0c0d075c87cee85c", "lon": -77.10788016666666}, {"fusion_lat": 0.0, "lat": 38.9074145, "rental_uris": {"ios": "https://dc.lft.to/lastmile_qr_scan", "android": "https://dc.lft.to/lastmile_qr_scan"}, "name": "dccf0889847c2927d875f70c4b3c466c", "type": "electric_scooter", "fusion_lon": 0.0, "is_disabled": 0, "is_reserved": 0, "bike_id": "dccf0889847c2927d875f70c4b3c466c", "lon": -77.00932366666666}, {"fusion_lat": 0.0, "lat": 38.88709716666666, "rental_uris": {"ios": "https://dc.lft.to/lastmile_qr_scan", "android": "https://dc.lft.to/lastmile_qr_scan"}, "name": "6720912035de1028f593ce24a1b6cc72", "type": "electric_scooter", "fusion_lon": 0.0, "is_disabled": 0, "is_reserved": 0, "bike_id": "6720912035de1028f593ce24a1b6cc72", "lon": -77.0024515}, {"fusion_lat": 0.0, "lat": 38.902876, "rental_uris": {"ios": "https://dc.lft.to/lastmile_qr_scan", "android": "https://dc.lft.to/lastmile_qr_scan"}, "name": "f9fe716c57bfa951d02d6e91bec12ed5", "type": "electric_scooter", "fusion_lon": 0.0, "is_disabled": 0, "is_reserved": 0, "bike_id": "f9fe716c57bfa951d02d6e91bec12ed5", "lon": -77.04475933333333}, {"fusion_lat": 0.0, "lat": 38.821695166666665, "rental_uris": {"ios": "https://dc.lft.to/lastmile_qr_scan", "android": "https://dc.lft.to/lastmile_qr_scan"}, "name": "ce544659c23a388aaf892e6a3149e6d0", "type": "electric_bike", "fusion_lon": 0.0, "is_disabled": 0, "is_reserved": 0, "bike_id": "ce544659c23a388aaf892e6a3149e6d0", "lon": -76.99518}, {"fusion_lat": 0.0, "lat": 38.9072345, "rental_uris": {"ios": "https://dc.lft.to/lastmile_qr_scan", "android": "https://dc.lft.to/lastmile_qr_scan"}, "name": "251540a6feb8aec30ba36778a382ed70", "type": "electric_scooter", "fusion_lon": 0.0, "is_disabled": 0, "is_reserved": 0, "bike_id": "251540a6feb8aec30ba36778a382ed70", "lon": -77.0249795}, {"fusion_lat": 0.0, "lat": 38.927637, "rental_uris": {"ios": "https://dc.lft.to/lastmile_qr_scan", "android": "https://dc.lft.to/lastmile_qr_scan"}, "name": "47b95e2e647032c87b3e00e8d1c16961", "type": "electric_scooter", "fusion_lon": 0.0, "is_disabled": 0, "is_reserved": 0, "bike_id": "47b95e2e647032c87b3e00e8d1c16961", "lon": -77.0232115}, {"fusion_lat": 0.0, "lat": 38.887434166666665, "rental_uris": {"ios": "https://dc.lft.to/lastmile_qr_scan", "android": "https://dc.lft.to/lastmile_qr_scan"}, "name": "4fe3832cf3b261353ff6ce2d579e82cc", "type": "electric_scooter", "fusion_lon": 0.0, "is_disabled": 0, "is_reserved": 0, "bike_id": "4fe3832cf3b261353ff6ce2d579e82cc", "lon": -77.031614}, {"fusion_lat": 0.0, "lat": 38.88319466666667, "rental_uris": {"ios": "https://dc.lft.to/lastmile_qr_scan", "android": "https://dc.lft.to/lastmile_qr_scan"}, "name": "3d130e885511ed439456ea49af241dd1", "type": "electric_scooter", "fusion_lon": 0.0, "is_disabled": 0, "is_reserved": 0, "bike_id": "3d130e885511ed439456ea49af241dd1", "lon": -77.01766766666667}, {"fusion_lat": 0.0, "lat": 38.92417566666666, "rental_uris": {"ios": "https://dc.lft.to/lastmile_qr_scan", "android": "https://dc.lft.to/lastmile_qr_scan"}, "name": "e47c09d53f66d02a0c9b423103a32eb9", "type": "electric_scooter", "fusion_lon": 0.0, "is_disabled": 0, "is_reserved": 0, "bike_id": "e47c09d53f66d02a0c9b423103a32eb9", "lon": -77.02015633333333}, {"fusion_lat": 0.0, "lat": 38.92970866666667, "rental_uris": {"ios": "https://dc.lft.to/lastmile_qr_scan", "android": "https://dc.lft.to/lastmile_qr_scan"}, "name": "47276c379788e7f2340ab2d0a350f2e9", "type": "electric_scooter", "fusion_lon": 0.0, "is_disabled": 0, "is_reserved": 0, "bike_id": "47276c379788e7f2340ab2d0a350f2e9", "lon": -77.02795633333334}, {"fusion_lat": 0.0, "lat": 38.9183075, "rental_uris": {"ios": "https://dc.lft.to/lastmile_qr_scan", "android": "https://dc.lft.to/lastmile_qr_scan"}, "name": "73a3306c74fa38d6811758311e1f67e6", "type": "electric_scooter", "fusion_lon": 0.0, "is_disabled": 0, "is_reserved": 0, "bike_id": "73a3306c74fa38d6811758311e1f67e6", "lon": -77.0482165}, {"fusion_lat": 0.0, "lat": 38.94166666666667, "rental_uris": {"ios": "https://dc.lft.to/lastmile_qr_scan", "android": "https://dc.lft.to/lastmile_qr_scan"}, "name": "ab5893c2bd3f3818f55c4ea5a6cb2942", "type": "electric_scooter", "fusion_lon": 0.0, "is_disabled": 0, "is_reserved": 0, "bike_id": "ab5893c2bd3f3818f55c4ea5a6cb2942", "lon": -77.02558483333334}, {"fusion_lat": 0.0, "lat": 38.898332333333336, "rental_uris": {"ios": "https://dc.lft.to/lastmile_qr_scan", "android": "https://dc.lft.to/lastmile_qr_scan"}, "name": "4a054d486b70591aceb7470b9055af99", "type": "electric_scooter", "fusion_lon": 0.0, "is_disabled": 0, "is_reserved": 0, "bike_id": "4a054d486b70591aceb7470b9055af99", "lon": -76.94630583333333}, {"fusion_lat": 0.0, "lat": 38.8662155, "rental_uris": {"ios": "https://dc.lft.to/lastmile_qr_scan", "android": "https://dc.lft.to/lastmile_qr_scan"}, "name": "436af2b627c4326cb048213b829ba18d", "type": "electric_scooter", "fusion_lon": 0.0, "is_disabled": 0, "is_reserved": 0, "bike_id": "436af2b627c4326cb048213b829ba18d", "lon": -76.98222783333334}, {"fusion_lat": 0.0, "lat": 38.91613683333333, "rental_uris": {"ios": "https://dc.lft.to/lastmile_qr_scan", "android": "https://dc.lft.to/lastmile_qr_scan"}, "name": "cb3e82c2d385c362627166f1c9afbc15", "type": "electric_scooter", "fusion_lon": 0.0, "is_disabled": 0, "is_reserved": 0, "bike_id": "cb3e82c2d385c362627166f1c9afbc15", "lon": -77.04879966666667}, {"fusion_lat": 0.0, "lat": 38.916923833333335, "rental_uris": {"ios": "https://dc.lft.to/lastmile_qr_scan", "android": "https://dc.lft.to/lastmile_qr_scan"}, "name": "e6e7577c25b5722e712a61b8c8d5e48b", "type": "electric_scooter", "fusion_lon": 0.0, "is_disabled": 0, "is_reserved": 0, "bike_id": "e6e7577c25b5722e712a61b8c8d5e48b", "lon": -77.03772833333333}, {"fusion_lat": 0.0, "lat": 38.911577666666666, "rental_uris": {"ios": "https://dc.lft.to/lastmile_qr_scan", "android": "https://dc.lft.to/lastmile_qr_scan"}, "name": "cb97c46deed0e56222261bbae5465ecf", "type": "electric_scooter", "fusion_lon": 0.0, "is_disabled": 0, "is_reserved": 0, "bike_id": "cb97c46deed0e56222261bbae5465ecf", "lon": -77.02379633333334}, {"fusion_lat": 0.0, "lat": 38.879754, "rental_uris": {"ios": "https://dc.lft.to/lastmile_qr_scan", "android": "https://dc.lft.to/lastmile_qr_scan"}, "name": "63f2de6deb1f95148db42d6eb59db3f0", "type": "electric_scooter", "fusion_lon": 0.0, "is_disabled": 0, "is_reserved": 0, "bike_id": "63f2de6deb1f95148db42d6eb59db3f0", "lon": -77.02423416666667}, {"fusion_lat": 0.0, "lat": 38.90262233333333, "rental_uris": {"ios": "https://dc.lft.to/lastmile_qr_scan", "android": "https://dc.lft.to/lastmile_qr_scan"}, "name": "452b752d3b32f6c95adcdfd47b10af2e", "type": "electric_scooter", "fusion_lon": 0.0, "is_disabled": 0, "is_reserved": 0, "bike_id": "452b752d3b32f6c95adcdfd47b10af2e", "lon": -77.0100125}, {"fusion_lat": 0.0, "lat": 38.8971595, "rental_uris": {"ios": "https://dc.lft.to/lastmile_qr_scan", "android": "https://dc.lft.to/lastmile_qr_scan"}, "name": "42531314db887630dc6985d9b61ae208", "type": "electric_scooter", "fusion_lon": 0.0, "is_disabled": 0, "is_reserved": 0, "bike_id": "42531314db887630dc6985d9b61ae208", "lon": -77.00837783333333}, {"fusion_lat": 0.0, "lat": 38.88518933333334, "rental_uris": {"ios": "https://dc.lft.to/lastmile_qr_scan", "android": "https://dc.lft.to/lastmile_qr_scan"}, "name": "1d73ab5408b55054328c6d56f391993d", "type": "electric_scooter", "fusion_lon": 0.0, "is_disabled": 0, "is_reserved": 0, "bike_id": "1d73ab5408b55054328c6d56f391993d", "lon": -77.00583216666666}, {"fusion_lat": 0.0, "lat": 38.9013925, "rental_uris": {"ios": "https://dc.lft.to/lastmile_qr_scan", "android": "https://dc.lft.to/lastmile_qr_scan"}, "name": "5bef64449f709041dd63cb3c12cfcc18", "type": "electric_scooter", "fusion_lon": 0.0, "is_disabled": 0, "is_reserved": 0, "bike_id": "5bef64449f709041dd63cb3c12cfcc18", "lon": -77.01792816666666}, {"fusion_lat": 0.0, "lat": 38.9418905, "rental_uris": {"ios": "https://dc.lft.to/lastmile_qr_scan", "android": "https://dc.lft.to/lastmile_qr_scan"}, "name": "51b4fdb05f1f7b7e99364fdf6ae48888", "type": "electric_scooter", "fusion_lon": 0.0, "is_disabled": 0, "is_reserved": 0, "bike_id": "51b4fdb05f1f7b7e99364fdf6ae48888", "lon": -77.03840133333334}, {"fusion_lat": 0.0, "lat": 38.92229, "rental_uris": {"ios": "https://dc.lft.to/lastmile_qr_scan", "android": "https://dc.lft.to/lastmile_qr_scan"}, "name": "34684214812f746824e24201d2dec23b", "type": "electric_scooter", "fusion_lon": 0.0, "is_disabled": 0, "is_reserved": 0, "bike_id": "34684214812f746824e24201d2dec23b", "lon": -77.0463895}, {"fusion_lat": 0.0, "lat": 38.905734333333335, "rental_uris": {"ios": "https://dc.lft.to/lastmile_qr_scan", "android": "https://dc.lft.to/lastmile_qr_scan"}, "name": "a93b0598f846f7cb85c0bc287bfed63b", "type": "electric_scooter", "fusion_lon": 0.0, "is_disabled": 0, "is_reserved": 0, "bike_id": "a93b0598f846f7cb85c0bc287bfed63b", "lon": -77.00391866666666}, {"fusion_lat": 0.0, "lat": 38.90778983333333, "rental_uris": {"ios": "https://dc.lft.to/lastmile_qr_scan", "android": "https://dc.lft.to/lastmile_qr_scan"}, "name": "4e73cc7c0b6b0fbbcdb54f3fa9cd0523", "type": "electric_scooter", "fusion_lon": 0.0, "is_disabled": 0, "is_reserved": 0, "bike_id": "4e73cc7c0b6b0fbbcdb54f3fa9cd0523", "lon": -77.03209833333334}, {"fusion_lat": 0.0, "lat": 38.90556866666667, "rental_uris": {"ios": "https://dc.lft.to/lastmile_qr_scan", "android": "https://dc.lft.to/lastmile_qr_scan"}, "name": "f597a9653cc2d1e864c756463ef9732a", "type": "electric_scooter", "fusion_lon": 0.0, "is_disabled": 0, "is_reserved": 0, "bike_id": "f597a9653cc2d1e864c756463ef9732a", "lon": -77.03481433333333}, {"fusion_lat": 0.0, "lat": 38.904601666666665, "rental_uris": {"ios": "https://dc.lft.to/lastmile_qr_scan", "android": "https://dc.lft.to/lastmile_qr_scan"}, "name": "11e0a0c70784635fb484c2e689f0b188", "type": "electric_scooter", "fusion_lon": 0.0, "is_disabled": 0, "is_reserved": 0, "bike_id": "11e0a0c70784635fb484c2e689f0b188", "lon": -77.03459233333334}, {"fusion_lat": 0.0, "lat": 38.900392333333336, "rental_uris": {"ios": "https://dc.lft.to/lastmile_qr_scan", "android": "https://dc.lft.to/lastmile_qr_scan"}, "name": "e38af9ed4659ac6fdc26ea2ce719e9e0", "type": "electric_scooter", "fusion_lon": 0.0, "is_disabled": 0, "is_reserved": 0, "bike_id": "e38af9ed4659ac6fdc26ea2ce719e9e0", "lon": -76.9994875}, {"fusion_lat": 0.0, "lat": 38.884045, "rental_uris": {"ios": "https://dc.lft.to/lastmile_qr_scan", "android": "https://dc.lft.to/lastmile_qr_scan"}, "name": "47aa70e602ada672a0ea5d43be16ef61", "type": "electric_bike", "fusion_lon": 0.0, "is_disabled": 0, "is_reserved": 0, "bike_id": "47aa70e602ada672a0ea5d43be16ef61", "lon": -76.96059483333333}, {"fusion_lat": 0.0, "lat": 38.92815566666667, "rental_uris": {"ios": "https://dc.lft.to/lastmile_qr_scan", "android": "https://dc.lft.to/lastmile_qr_scan"}, "name": "f5d3df400061ca735e4085d0164288b5", "type": "electric_scooter", "fusion_lon": 0.0, "is_disabled": 0, "is_reserved": 0, "bike_id": "f5d3df400061ca735e4085d0164288b5", "lon": -77.0328075}, {"fusion_lat": 0.0, "lat": 38.91337133333333, "rental_uris": {"ios": "https://dc.lft.to/lastmile_qr_scan", "android": "https://dc.lft.to/lastmile_qr_scan"}, "name": "8c1e080f8e58402485d616d97ed23747", "type": "electric_scooter", "fusion_lon": 0.0, "is_disabled": 0, "is_reserved": 0, "bike_id": "8c1e080f8e58402485d616d97ed23747", "lon": -77.03715616666666}, {"fusion_lat": 0.0, "lat": 38.92359883333334, "rental_uris": {"ios": "https://dc.lft.to/lastmile_qr_scan", "android": "https://dc.lft.to/lastmile_qr_scan"}, "name": "80616fe9177fa9790194aae55c0221df", "type": "electric_scooter", "fusion_lon": 0.0, "is_disabled": 0, "is_reserved": 0, "bike_id": "80616fe9177fa9790194aae55c0221df", "lon": -77.051184}, {"fusion_lat": 0.0, "lat": 38.923984833333336, "rental_uris": {"ios": "https://dc.lft.to/lastmile_qr_scan", "android": "https://dc.lft.to/lastmile_qr_scan"},