{"data": {"bikes": [{"lon": -76.990227, "name": "f712c098b584cdfb87ed67a2f7f96151", "is_disabled": 0, "type": "electric_scooter", "is_reserved": 0, "fusion_lon": 0.0, "lat": 38.865138333333334, "rental_uris": {"ios": "https://dc.lft.to/lastmile_qr_scan", "android": "https://dc.lft.to/lastmile_qr_scan"}, "bike_id": "f712c098b584cdfb87ed67a2f7f96151", "fusion_lat": 0.0}, {"lon": -76.989376, "name": "2d861cdf9709f6a1226d95851ad119ad", "is_disabled": 0, "type": "electric_scooter", "is_reserved": 0, "fusion_lon": 0.0, "lat": 38.882907333333335, "rental_uris": {"ios": "https://dc.lft.to/lastmile_qr_scan", "android": "https://dc.lft.to/lastmile_qr_scan"}, "bike_id": "2d861cdf9709f6a1226d95851ad119ad", "fusion_lat": 0.0}, {"lon": -76.9952825, "name": "d81c5ec6c50a2873b0d9c8a778e25256", "is_disabled": 0, "type": "electric_scooter", "is_reserved": 0, "fusion_lon": 0.0, "lat": 38.887649833333334, "rental_uris": {"ios": "https://dc.lft.to/lastmile_qr_scan", "android": "https://dc.lft.to/lastmile_qr_scan"}, "bike_id": "d81c5ec6c50a2873b0d9c8a778e25256", "fusion_lat": 0.0}, {"lon": -77.01717633333334, "name": "3733cf784040765614b0aa065f2c9512", "is_disabled": 0, "type": "electric_scooter", "is_reserved": 0, "fusion_lon": 0.0, "lat": 38.907364333333334, "rental_uris": {"ios": "https://dc.lft.to/lastmile_qr_scan", "android": "https://dc.lft.to/lastmile_qr_scan"}, "bike_id": "3733cf784040765614b0aa065f2c9512", "fusion_lat": 0.0}, {"lon": -77.0426165, "name": "cf25580c8ac4c08387a82e605b632483", "is_disabled": 0, "type": "electric_scooter", "is_reserved": 0, "fusion_lon": 0.0, "lat": 38.9206095, "rental_uris": {"ios": "https://dc.lft.to/lastmile_qr_scan", "android": "https://dc.lft.to/lastmile_qr_scan"}, "bike_id": "cf25580c8ac4c08387a82e605b632483", "fusion_lat": 0.0}, {"lon": -77.03150916666667, "name": "a8e53ede8c70978be9eb31a572b517d3", "is_disabled": 0, "type": "electric_scooter", "is_reserved": 0, "fusion_lon": 0.0, "lat": 38.92796766666667, "rental_uris": {"ios": "https://dc.lft.to/lastmile_qr_scan", "android": "https://dc.lft.to/lastmile_qr_scan"}, "bike_id": "a8e53ede8c70978be9eb31a572b517d3", "fusion_lat": 0.0}, {"lon": -77.0533785, "name": "998ed3fdcfb1eff23e1c0cc2f4ac226c", "is_disabled": 0, "type": "electric_scooter", "is_reserved": 0, "fusion_lon": 0.0, "lat": 38.90157083333333, "rental_uris": {"ios": "https://dc.lft.to/lastmile_qr_scan", "android": "https://dc.lft.to/lastmile_qr_scan"}, "bike_id": "998ed3fdcfb1eff23e1c0cc2f4ac226c", "fusion_lat": 0.0}, {"lon": -77.019872, "name": "1a4a613ad4e865293635e7498f3304ae", "is_disabled": 0, "type": "electric_scooter", "is_reserved": 0, "fusion_lon": 0.0, "lat": 38.9319155, "rental_uris": {"ios": "https://dc.lft.to/lastmile_qr_scan", "android": "https://dc.lft.to/lastmile_qr_scan"}, "bike_id": "1a4a613ad4e865293635e7498f3304ae", "fusion_lat": 0.0}, {"lon": -77.01969966666667, "name": "05fe8da4afc16d61988421fa7c7c4489", "is_disabled": 0, "type": "electric_scooter", "is_reserved": 0, "fusion_lon": 0.0, "lat": 38.87633566666667, "rental_uris": {"ios": "https://dc.lft.to/lastmile_qr_scan", "android": "https://dc.lft.to/lastmile_qr_scan"}, "bike_id": "05fe8da4afc16d61988421fa7c7c4489", "fusion_lat": 0.0}, {"lon": -76.99556983333333, "name": "fbb40c69c698b504fcd9c104a3a6ca17", "is_disabled": 0, "type": "electric_scooter", "is_reserved": 0, "fusion_lon": 0.0, "lat": 38.926836333333334, "rental_uris": {"ios": "https://dc.lft.to/lastmile_qr_scan", "android": "https://dc.lft.to/lastmile_qr_scan"}, "bike_id": "fbb40c69c698b504fcd9c104a3a6ca17", "fusion_lat": 0.0}, {"lon": -76.93217666666666, "name": "0f0ca85ce7a3256ed63587926c44addd", "is_disabled": 0, "type": "electric_scooter", "is_reserved": 0, "fusion_lon": 0.0, "lat": 38.880571, "rental_uris": {"ios": "https://dc.lft.to/lastmile_qr_scan", "android": "https://dc.lft.to/lastmile_qr_scan"}, "bike_id": "0f0ca85ce7a3256ed63587926c44addd", "fusion_lat": 0.0}, {"lon": -77.02600116666666, "name": "301fc027f7a1019e73a68683036d5a4e", "is_disabled": 0, "type": "electric_scooter", "is_reserved": 0, "fusion_lon": 0.0, "lat": 38.91880733333333, "rental_uris": {"ios": "https://dc.lft.to/lastmile_qr_scan", "android": "https://dc.lft.to/lastmile_qr_scan"}, "bike_id": "301fc027f7a1019e73a68683036d5a4e", "fusion_lat": 0.0}, {"lon": -77.02131166666666, "name": "7144bbf4a73a714a6b33c7d24b4baa03", "is_disabled": 0, "type": "electric_scooter", "is_reserved": 0, "fusion_lon": 0.0, "lat": 38.92420516666667, "rental_uris": {"ios": "https://dc.lft.to/lastmile_qr_scan", "android": "https://dc.lft.to/lastmile_qr_scan"}, "bike_id": "7144bbf4a73a714a6b33c7d24b4baa03", "fusion_lat": 0.0}, {"lon": -77.01974483333333, "name": "d705983f7a5c7373b26fa99bb661b122", "is_disabled": 0, "type": "electric_scooter", "is_reserved": 0, "fusion_lon": 0.0, "lat": 38.967521, "rental_uris": {"ios": "https://dc.lft.to/lastmile_qr_scan", "android": "https://dc.lft.to/lastmile_qr_scan"}, "bike_id": "d705983f7a5c7373b26fa99bb661b122", "fusion_lat": 0.0}, {"lon": -77.03780333333333, "name": "a94ec51be06ad2646fa9dac444d11af2", "is_disabled": 0, "type": "electric_scooter", "is_reserved": 0, "fusion_lon": 0.0, "lat": 38.92789066666667, "rental_uris": {"ios": "https://dc.lft.to/lastmile_qr_scan", "android": "https://dc.lft.to/lastmile_qr_scan"}, "bike_id": "a94ec51be06ad2646fa9dac444d11af2", "fusion_lat": 0.0}, {"lon": -77.03917883333334, "name": "b2bc703accfce5cd4e2e898e7c683917", "is_disabled": 0, "type": "electric_scooter", "is_reserved": 0, "fusion_lon": 0.0, "lat": 38.92483033333333, "rental_uris": {"ios": "https://dc.lft.to/lastmile_qr_scan", "android": "https://dc.lft.to/lastmile_qr_scan"}, "bike_id": "b2bc703accfce5cd4e2e898e7c683917", "fusion_lat": 0.0}, {"lon": -77.0497175, "name": "22b9bebc55c9ec72de0b4ad1aff66c02", "is_disabled": 0, "type": "electric_scooter", "is_reserved": 0, "fusion_lon": 0.0, "lat": 38.89782266666667, "rental_uris": {"ios": "https://dc.lft.to/lastmile_qr_scan", "android": "https://dc.lft.to/lastmile_qr_scan"}, "bike_id": "22b9bebc55c9ec72de0b4ad1aff66c02", "fusion_lat": 0.0}, {"lon": -76.98240166666666, "name": "e8cabc6fa20f5323afce1da90a7d90f4", "is_disabled": 0, "type": "electric_scooter", "is_reserved": 0, "fusion_lon": 0.0, "lat": 38.90892433333333, "rental_uris": {"ios": "https://dc.lft.to/lastmile_qr_scan", "android": "https://dc.lft.to/lastmile_qr_scan"}, "bike_id": "e8cabc6fa20f5323afce1da90a7d90f4", "fusion_lat": 0.0}, {"lon": -77.02098283333333, "name": "51e8da6aeb0e0ff575cbd5c3456ea357", "is_disabled": 0, "type": "electric_scooter", "is_reserved": 0, "fusion_lon": 0.0, "lat": 38.931191166666665, "rental_uris": {"ios": "https://dc.lft.to/lastmile_qr_scan", "android": "https://dc.lft.to/lastmile_qr_scan"}, "bike_id": "51e8da6aeb0e0ff575cbd5c3456ea357", "fusion_lat": 0.0}, {"lon": -77.01032316666667, "name": "a8fedfcdb59b6491787eb1886629c26a", "is_disabled": 0, "type": "electric_bike", "is_reserved": 0, "fusion_lon": 0.0, "lat": 38.958844666666664, "rental_uris": {"ios": "https://dc.lft.to/lastmile_qr_scan", "android": "https://dc.lft.to/lastmile_qr_scan"}, "bike_id": "a8fedfcdb59b6491787eb1886629c26a", "fusion_lat": 0.0}, {"lon": -77.06001966666666, "name": "3e7b7f0cac73c9091a81b37080f8f5c0", "is_disabled": 0, "type": "electric_scooter", "is_reserved": 0, "fusion_lon": 0.0, "lat": 38.92713233333333, "rental_uris": {"ios": "https://dc.lft.to/lastmile_qr_scan", "android": "https://dc.lft.to/lastmile_qr_scan"}, "bike_id": "3e7b7f0cac73c9091a81b37080f8f5c0", "fusion_lat": 0.0}, {"lon": -77.04191783333333, "name": "cdbdb11dc6ea264f1580b845341863fb", "is_disabled": 0, "type": "electric_scooter", "is_reserved": 0, "fusion_lon": 0.0, "lat": 38.920628666666666, "rental_uris": {"ios": "https://dc.lft.to/lastmile_qr_scan", "android": "https://dc.lft.to/lastmile_qr_scan"}, "bike_id": "cdbdb11dc6ea264f1580b845341863fb", "fusion_lat": 0.0}, {"lon": -77.02822433333333, "name": "bdc97af4f8ea1b08f73faab980ceea91", "is_disabled": 0, "type": "electric_scooter", "is_reserved": 0, "fusion_lon": 0.0, "lat": 38.907082333333335, "rental_uris": {"ios": "https://dc.lft.to/lastmile_qr_scan", "android": "https://dc.lft.to/lastmile_qr_scan"}, "bike_id": "bdc97af4f8ea1b08f73faab980ceea91", "fusion_lat": 0.0}, {"lon": -77.035295, "name": "8c71e0a48ba689608af6cfc0e1df3c57", "is_disabled": 0, "type": "electric_scooter", "is_reserved": 0, "fusion_lon": 0.0, "lat": 38.90866033333333, "rental_uris": {"ios": "https://dc.lft.to/lastmile_qr_scan", "android": "https://dc.lft.to/lastmile_qr_scan"}, "bike_id": "8c71e0a48ba689608af6cfc0e1df3c57", "fusion_lat": 0.0}, {"lon": -77.11477866666667, "name": "ec7d1456054ea74fa8b29a4e4ebbf48e", "is_disabled": 0, "type": "electric_bike", "is_reserved": 0, "fusion_lon": 0.0, "lat": 38.858367666666666, "rental_uris": {"ios": "https://dc.lft.to/lastmile_qr_scan", "android": "https://dc.lft.to/lastmile_qr_scan"}, "bike_id": "ec7d1456054ea74fa8b29a4e4ebbf48e", "fusion_lat": 0.0}, {"lon": -77.02817716666667, "name": "33cac3a14e7d115a9ad67b65e25c35ae", "is_disabled": 0, "type": "electric_scooter", "is_reserved": 0, "fusion_lon": 0.0, "lat": 38.907069166666666, "rental_uris": {"ios": "https://dc.lft.to/lastmile_qr_scan", "android": "https://dc.lft.to/lastmile_qr_scan"}, "bike_id": "33cac3a14e7d115a9ad67b65e25c35ae", "fusion_lat": 0.0}, {"lon": -77.02051533333334, "name": "d26508f7d60c1ce5a173b047003d001b", "is_disabled": 0, "type": "electric_scooter", "is_reserved": 0, "fusion_lon": 0.0, "lat": 38.92771366666667, "rental_uris": {"ios": "https://dc.lft.to/lastmile_qr_scan", "android": "https://dc.lft.to/lastmile_qr_scan"}, "bike_id": "d26508f7d60c1ce5a173b047003d001b", "fusion_lat": 0.0}, {"lon": -77.01614, "name": "39cbb7b3591d23c24a35550fb8011cd1", "is_disabled": 0, "type": "electric_bike", "is_reserved": 0, "fusion_lon": 0.0, "lat": 38.94948516666667, "rental_uris": {"ios": "https://dc.lft.to/lastmile_qr_scan", "android": "https://dc.lft.to/lastmile_qr_scan"}, "bike_id": "39cbb7b3591d23c24a35550fb8011cd1", "fusion_lat": 0.0}, {"lon": -77.01914683333334, "name": "3fad09dea1711e3a5048b2684bd39f95", "is_disabled": 0, "type": "electric_scooter", "is_reserved": 0, "fusion_lon": 0.0, "lat": 38.92370416666667, "rental_uris": {"ios": "https://dc.lft.to/lastmile_qr_scan", "android": "https://dc.lft.to/lastmile_qr_scan"}, "bike_id": "3fad09dea1711e3a5048b2684bd39f95", "fusion_lat": 0.0}, {"lon": -77.0627225, "name": "893ee8e5e6021462912493fd204d178f", "is_disabled": 0, "type": "electric_scooter", "is_reserved": 0, "fusion_lon": 0.0, "lat": 38.90591366666666, "rental_uris": {"ios": "https://dc.lft.to/lastmile_qr_scan", "android": "https://dc.lft.to/lastmile_qr_scan"}, "bike_id": "893ee8e5e6021462912493fd204d178f", "fusion_lat": 0.0}, {"lon": -77.03917866666667, "name": "9aab8992d338203e613aa5f9b452816f", "is_disabled": 0, "type": "electric_scooter", "is_reserved": 0, "fusion_lon": 0.0, "lat": 38.92480533333333, "rental_uris": {"ios": "https://dc.lft.to/lastmile_qr_scan", "android": "https://dc.lft.to/lastmile_qr_scan"}, "bike_id": "9aab8992d338203e613aa5f9b452816f", "fusion_lat": 0.0}, {"lon": -77.04765283333333, "name": "cbb87b53847f636781e85f5145e08efe", "is_disabled": 0, "type": "electric_scooter", "is_reserved": 0, "fusion_lon": 0.0, "lat": 38.91127216666667, "rental_uris": {"ios": "https://dc.lft.to/lastmile_qr_scan", "android": "https://dc.lft.to/lastmile_qr_scan"}, "bike_id": "cbb87b53847f636781e85f5145e08efe", "fusion_lat": 0.0}, {"lon": -77.03458916666666, "name": "1c74be45bf9f205562b7b89c2b23a741", "is_disabled": 0, "type": "electric_scooter", "is_reserved": 0, "fusion_lon": 0.0, "lat": 38.90638666666667, "rental_uris": {"ios": "https://dc.lft.to/lastmile_qr_scan", "android": "https://dc.lft.to/lastmile_qr_scan"}, "bike_id": "1c74be45bf9f205562b7b89c2b23a741", "fusion_lat": 0.0}, {"lon": -76.9979155, "name": "c05fc75b762f30d420e1069111da0b36", "is_disabled": 0, "type": "electric_bike", "is_reserved": 0, "fusion_lon": 0.0, "lat": 38.99817983333333, "rental_uris": {"ios": "https://dc.lft.to/lastmile_qr_scan", "android": "https://dc.lft.to/lastmile_qr_scan"}, "bike_id": "c05fc75b762f30d420e1069111da0b36", "fusion_lat": 0.0}, {"lon": -77.0211135, "name": "0ebcfa7a94490b88b90a4bdca693e8a7", "is_disabled": 0, "type": "electric_scooter", "is_reserved": 0, "fusion_lon": 0.0, "lat": 38.92784866666667, "rental_uris": {"ios": "https://dc.lft.to/lastmile_qr_scan", "android": "https://dc.lft.to/lastmile_qr_scan"}, "bike_id": "0ebcfa7a94490b88b90a4bdca693e8a7", "fusion_lat": 0.0}, {"lon": -77.02421416666667, "name": "fe7acd2d89a1d8fe33dbd96c252390c4", "is_disabled": 0, "type": "electric_scooter", "is_reserved": 0, "fusion_lon": 0.0, "lat": 38.926535, "rental_uris": {"ios": "https://dc.lft.to/lastmile_qr_scan", "android": "https://dc.lft.to/lastmile_qr_scan"}, "bike_id": "fe7acd2d89a1d8fe33dbd96c252390c4", "fusion_lat": 0.0}, {"lon": -77.032015, "name": "8f6a7cddbb55635890b86e452acd42d6", "is_disabled": 0, "type": "electric_scooter", "is_reserved": 0, "fusion_lon": 0.0, "lat": 38.91615933333333, "rental_uris": {"ios": "https://dc.lft.to/lastmile_qr_scan", "android": "https://dc.lft.to/lastmile_qr_scan"}, "bike_id": "8f6a7cddbb55635890b86e452acd42d6", "fusion_lat": 0.0}, {"lon": -77.025456, "name": "e11a62a658694637b800f831861d59e1", "is_disabled": 0, "type": "electric_scooter", "is_reserved": 0, "fusion_lon": 0.0, "lat": 38.922466, "rental_uris": {"ios": "https://dc.lft.to/lastmile_qr_scan", "android": "https://dc.lft.to/lastmile_qr_scan"}, "bike_id": "e11a62a658694637b800f831861d59e1", "fusion_lat": 0.0}, {"lon": -76.9838135, "name": "abe82b77a1430feded0a69cc21d93d89", "is_disabled": 0, "type": "electric_scooter", "is_reserved": 0, "fusion_lon": 0.0, "lat": 38.90647083333333, "rental_uris": {"ios": "https://dc.lft.to/lastmile_qr_scan", "android": "https://dc.lft.to/lastmile_qr_scan"}, "bike_id": "abe82b77a1430feded0a69cc21d93d89", "fusion_lat": 0.0}, {"lon": -77.03340733333333, "name": "9160f39163795aa89a0d5f07f905ff9a", "is_disabled": 0, "type": "electric_scooter", "is_reserved": 0, "fusion_lon": 0.0, "lat": 38.918175, "rental_uris": {"ios": "https://dc.lft.to/lastmile_qr_scan", "android": "https://dc.lft.to/lastmile_qr_scan"}, "bike_id": "9160f39163795aa89a0d5f07f905ff9a", "fusion_lat": 0.0}, {"lon": -77.02828516666666, "name": "f6754d905284c83a5056bd7887e96300", "is_disabled": 0, "type": "electric_scooter", "is_reserved": 0, "fusion_lon": 0.0, "lat": 38.9070675, "rental_uris": {"ios": "https://dc.lft.to/lastmile_qr_scan", "android": "https://dc.lft.to/lastmile_qr_scan"}, "bike_id": "f6754d905284c83a5056bd7887e96300", "fusion_lat": 0.0}, {"lon": -76.98601133333334, "name": "afbe435521550c62b17e772a62e09a5f", "is_disabled": 0, "type": "electric_scooter", "is_reserved": 0, "fusion_lon": 0.0, "lat": 38.9066405, "rental_uris": {"ios": "https://dc.lft.to/lastmile_qr_scan", "android": "https://dc.lft.to/lastmile_qr_scan"}, "bike_id": "afbe435521550c62b17e772a62e09a5f", "fusion_lat": 0.0}, {"lon": -77.03293716666667, "name": "d1c0cf199645441c940655c7439ecf1e", "is_disabled": 0, "type": "electric_scooter", "is_reserved": 0, "fusion_lon": 0.0, "lat": 38.899202833333334, "rental_uris": {"ios": "https://dc.lft.to/lastmile_qr_scan", "android": "https://dc.lft.to/lastmile_qr_scan"}, "bike_id": "d1c0cf199645441c940655c7439ecf1e", "fusion_lat": 0.0}, {"lon": -76.99068366666667, "name": "4b85a7cab9eef14e69b601d680aa9417", "is_disabled": 0, "type": "electric_scooter", "is_reserved": 0, "fusion_lon": 0.0, "lat": 38.85629933333333, "rental_uris": {"ios": "https://dc.lft.to/lastmile_qr_scan", "android": "https://dc.lft.to/lastmile_qr_scan"}, "bike_id": "4b85a7cab9eef14e69b601d680aa9417", "fusion_lat": 0.0}, {"lon": -76.961029, "name": "e32ecfc8c0ecb14c6caebf3c39973204", "is_disabled": 0, "type": "electric_scooter", "is_reserved": 0, "fusion_lon": 0.0, "lat": 38.89207916666667, "rental_uris": {"ios": "https://dc.lft.to/lastmile_qr_scan", "android": "https://dc.lft.to/lastmile_qr_scan"}, "bike_id": "e32ecfc8c0ecb14c6caebf3c39973204", "fusion_lat": 0.0}, {"lon": -77.022055, "name": "e2243a91437c93ae62ff7172173a3c88", "is_disabled": 0, "type": "electric_scooter", "is_reserved": 0, "fusion_lon": 0.0, "lat": 38.9247255, "rental_uris": {"ios": "https://dc.lft.to/lastmile_qr_scan", "android": "https://dc.lft.to/lastmile_qr_scan"}, "bike_id": "e2243a91437c93ae62ff7172173a3c88", "fusion_lat": 0.0}, {"lon": -77.0608475, "name": "b0af5cfe2f68901116f7f71849530bb8", "is_disabled": 0, "type": "electric_scooter", "is_reserved": 0, "fusion_lon": 0.0, "lat": 38.911901666666665, "rental_uris": {"ios": "https://dc.lft.to/lastmile_qr_scan", "android": "https://dc.lft.to/lastmile_qr_scan"}, "bike_id": "b0af5cfe2f68901116f7f71849530bb8", "fusion_lat": 0.0}, {"lon": -77.01885833333333, "name": "40b825f2ffa92078e97097f30a41966d", "is_disabled": 0, "type": "electric_scooter", "is_reserved": 0, "fusion_lon": 0.0, "lat": 38.909084666666665, "rental_uris": {"ios": "https://dc.lft.to/lastmile_qr_scan", "android": "https://dc.lft.to/lastmile_qr_scan"}, "bike_id": "40b825f2ffa92078e97097f30a41966d", "fusion_lat": 0.0}, {"lon": -77.02065816666666, "name": "db061ea1c318a2bdb882cf7ad0c408d8", "is_disabled": 0, "type": "electric_scooter", "is_reserved": 0, "fusion_lon": 0.0, "lat": 38.9225495, "rental_uris": {"ios": "https://dc.lft.to/lastmile_qr_scan", "android": "https://dc.lft.to/lastmile_qr_scan"}, "bike_id": "db061ea1c318a2bdb882cf7ad0c408d8", "fusion_lat": 0.0}, {"lon": -77.02368233333333, "name": "34a4ec28726e15943ef7c2aa4593999f", "is_disabled": 0, "type": "electric_scooter", "is_reserved": 0, "fusion_lon": 0.0, "lat": 38.92058133333333, "rental_uris": {"ios": "https://dc.lft.to/lastmile_qr_scan", "android": "https://dc.lft.to/lastmile_qr_scan"}, "bike_id": "34a4ec28726e15943ef7c2aa4593999f", "fusion_lat": 0.0}, {"lon": -77.0183835, "name": "ab540fe86bf07a165d31fa9ad6c215a1", "is_disabled": 0, "type": "electric_scooter", "is_reserved": 0, "fusion_lon": 0.0, "lat": 38.897408166666665, "rental_uris": {"ios": "https://dc.lft.to/lastmile_qr_scan", "android": "https://dc.lft.to/lastmile_qr_scan"}, "bike_id": "ab540fe86bf07a165d31fa9ad6c215a1", "fusion_lat": 0.0}, {"lon": -77.078742, "name": "79ce143284254210e71759468b023855", "is_disabled": 0, "type": "electric_scooter", "is_reserved": 0, "fusion_lon": 0.0, "lat": 38.919599, "rental_uris": {"ios": "https://dc.lft.to/lastmile_qr_scan", "android": "https://dc.lft.to/lastmile_qr_scan"}, "bike_id": "79ce143284254210e71759468b023855", "fusion_lat": 0.0}, {"lon": -77.0263655, "name": "3721cb4afd1d2e187853a3cf01f9b0c6", "is_disabled": 0, "type": "electric_scooter", "is_reserved": 0, "fusion_lon": 0.0, "lat": 38.91105816666666, "rental_uris": {"ios": "https://dc.lft.to/lastmile_qr_scan", "android": "https://dc.lft.to/lastmile_qr_scan"}, "bike_id": "3721cb4afd1d2e187853a3cf01f9b0c6", "fusion_lat": 0.0}, {"lon": -77.04996233333334, "name": "f6f4e211f43028de2a24efee6e134244", "is_disabled": 0, "type": "electric_scooter", "is_reserved": 0, "fusion_lon": 0.0, "lat": 38.8923015, "rental_uris": {"ios": "https://dc.lft.to/lastmile_qr_scan", "android": "https://dc.lft.to/lastmile_qr_scan"}, "bike_id": "f6f4e211f43028de2a24efee6e134244", "fusion_lat": 0.0}, {"lon": -77.061415, "name": "b615270a98b3a61cd9eb5e91c50bf1ae", "is_disabled": 0, "type": "electric_scooter", "is_reserved": 0, "fusion_lon": 0.0, "lat": 38.94119116666667, "rental_uris": {"ios": "https://dc.lft.to/lastmile_qr_scan", "android": "https://dc.lft.to/lastmile_qr_scan"}, "bike_id": "b615270a98b3a61cd9eb5e91c50bf1ae", "fusion_lat": 0.0}, {"lon": -77.04691683333333, "name": "bdab5e467ec65df2c72e46e18639066e", "is_disabled": 0, "type": "electric_scooter", "is_reserved": 0, "fusion_lon": 0.0, "lat": 38.921630666666665, "rental_uris": {"ios": "https://dc.lft.to/lastmile_qr_scan", "android": "https://dc.lft.to/lastmile_qr_scan"}, "bike_id": "bdab5e467ec65df2c72e46e18639066e", "fusion_lat": 0.0}, {"lon": -77.01878733333334, "name": "f077be4bca3ce7994d011f7c49ad88b9", "is_disabled": 0, "type": "electric_scooter", "is_reserved": 0, "fusion_lon": 0.0, "lat": 38.9193715, "rental_uris": {"ios": "https://dc.lft.to/lastmile_qr_scan", "android": "https://dc.lft.to/lastmile_qr_scan"}, "bike_id": "f077be4bca3ce7994d011f7c49ad88b9", "fusion_lat": 0.0}, {"lon": -77.01728383333334, "name": "3a1ce5f491d3b21fd8aff0c871b58d36", "is_disabled": 0, "type": "electric_scooter", "is_reserved": 0, "fusion_lon": 0.0, "lat": 38.913768833333336, "rental_uris": {"ios": "https://dc.lft.to/lastmile_qr_scan", "android": "https://dc.lft.to/lastmile_qr_scan"}, "bike_id": "3a1ce5f491d3b21fd8aff0c871b58d36", "fusion_lat": 0.0}, {"lon": -77.02951233333333, "name": "6df0fab5920030825847a6a933d4c9d7", "is_disabled": 0, "type": "electric_scooter", "is_reserved": 0, "fusion_lon": 0.0, "lat": 38.92764866666667, "rental_uris": {"ios": "https://dc.lft.to/lastmile_qr_scan", "android": "https://dc.lft.to/lastmile_qr_scan"}, "bike_id": "6df0fab5920030825847a6a933d4c9d7", "fusion_lat": 0.0}, {"lon": -77.0018445, "name": "9239b6523c10c53bd2365ce05b25c680", "is_disabled": 0, "type": "electric_scooter", "is_reserved": 0, "fusion_lon": 0.0, "lat": 38.888775833333334, "rental_uris": {"ios": "https://dc.lft.to/lastmile_qr_scan", "android": "https://dc.lft.to/lastmile_qr_scan"}, "bike_id": "9239b6523c10c53bd2365ce05b25c680", "fusion_lat": 0.0}, {"lon": -76.99836, "name": "bc3f7e3f400c84f611a557c0b2f387c1", "is_disabled": 0, "type": "electric_scooter", "is_reserved": 0, "fusion_lon": 0.0, "lat": 38.900032333333336, "rental_uris": {"ios": "https://dc.lft.to/lastmile_qr_scan", "android": "https://dc.lft.to/lastmile_qr_scan"}, "bike_id": "bc3f7e3f400c84f611a557c0b2f387c1", "fusion_lat": 0.0}, {"lon": -77.02282783333334, "name": "2933741c4498db8754b4437ea6323b28", "is_disabled": 0, "type": "electric_scooter", "is_reserved": 0, "fusion_lon": 0.0, "lat": 38.91664166666666, "rental_uris": {"ios": "https://dc.lft.to/lastmile_qr_scan", "android": "https://dc.lft.to/lastmile_qr_scan"}, "bike_id": "2933741c4498db8754b4437ea6323b28", "fusion_lat": 0.0}, {"lon": -77.00571283333333, "name": "9cf1f3365f324589314435ee3e1a5c7d", "is_disabled": 0, "type": "electric_scooter", "is_reserved": 0, "fusion_lon": 0.0, "lat": 38.87213, "rental_uris": {"ios": "https://dc.lft.to/lastmile_qr_scan", "android": "https://dc.lft.to/lastmile_qr_scan"}, "bike_id": "9cf1f3365f324589314435ee3e1a5c7d", "fusion_lat": 0.0}, {"lon": -77.04191533333334, "name": "b67e719a21871349166fc43a269bf9c0", "is_disabled": 0, "type": "electric_scooter", "is_reserved": 0, "fusion_lon": 0.0, "lat": 38.9206675, "rental_uris": {"ios": "https://dc.lft.to/lastmile_qr_scan", "android": "https://dc.lft.to/lastmile_qr_scan"}, "bike_id": "b67e719a21871349166fc43a269bf9c0", "fusion_lat": 0.0}, {"lon": -77.03104783333333, "name": "11c9c2f5389555749a7da67bb6209afd", "is_disabled": 0, "type": "electric_scooter", "is_reserved": 0, "fusion_lon": 0.0, "lat": 38.92673116666667, "rental_uris": {"ios": "https://dc.lft.to/lastmile_qr_scan", "android": "https://dc.lft.to/lastmile_qr_scan"}, "bike_id": "11c9c2f5389555749a7da67bb6209afd", "fusion_lat": 0.0}, {"lon": -76.90751566666667, "name": "1e3fec32b1bee5b9742129b809ca378c", "is_disabled": 0, "type": "electric_bike", "is_reserved": 0, "fusion_lon": 0.0, "lat": 38.89618683333333, "rental_uris": {"ios": "https://dc.lft.to/lastmile_qr_scan", "android": "https://dc.lft.to/lastmile_qr_scan"}, "bike_id": "1e3fec32b1bee5b9742129b809ca378c", "fusion_lat": 0.0}, {"lon": -77.04635933333333, "name": "f07a14ce5b5f35a4b0b9851413ef9830", "is_disabled": 0, "type": "electric_scooter", "is_reserved": 0, "fusion_lon": 0.0, "lat": 38.92241933333333, "rental_uris": {"ios": "https://dc.lft.to/lastmile_qr_scan", "android": "https://dc.lft.to/lastmile_qr_scan"}, "bike_id": "f07a14ce5b5f35a4b0b9851413ef9830", "fusion_lat": 0.0}, {"lon": -77.01798283333333, "name": "1be8205e6824ec340a7d61ffb7a976a6", "is_disabled": 0, "type": "electric_scooter", "is_reserved": 0, "fusion_lon": 0.0, "lat": 38.91983533333333, "rental_uris": {"ios": "https://dc.lft.to/lastmile_qr_scan", "android": "https://dc.lft.to/lastmile_qr_scan"}, "bike_id": "1be8205e6824ec340a7d61ffb7a976a6", "fusion_lat": 0.0}, {"lon": -77.039701, "name": "f5906088700c368b56547efd293e6288", "is_disabled": 0, "type": "electric_scooter", "is_reserved": 0, "fusion_lon": 0.0, "lat": 38.920311166666664, "rental_uris": {"ios": "https://dc.lft.to/lastmile_qr_scan", "android": "https://dc.lft.to/lastmile_qr_scan"}, "bike_id": "f5906088700c368b56547efd293e6288", "fusion_lat": 0.0}, {"lon": -77.00537666666666, "name": "bdf53f0aa6c615e8dd5411b70b029d38", "is_disabled": 0, "type": "electric_scooter", "is_reserved": 0, "fusion_lon": 0.0, "lat": 38.87546566666666, "rental_uris": {"ios": "https://dc.lft.to/lastmile_qr_scan", "android": "https://dc.lft.to/lastmile_qr_scan"}, "bike_id": "bdf53f0aa6c615e8dd5411b70b029d38", "fusion_lat": 0.0}, {"lon": -77.038153, "name": "0e89c02628896508f56f712ea46e48ee", "is_disabled": 0, "type": "electric_scooter", "is_reserved": 0, "fusion_lon": 0.0, "lat": 38.91423016666667, "rental_uris": {"ios": "https://dc.lft.to/lastmile_qr_scan", "android": "https://dc.lft.to/lastmile_qr_scan"}, "bike_id": "0e89c02628896508f56f712ea46e48ee", "fusion_lat": 0.0}, {"lon": -77.01931466666667, "name": "4b4ce1997a3c63b49177dccc38d17cc5", "is_disabled": 0, "type": "electric_scooter", "is_reserved": 0, "fusion_lon": 0.0, "lat": 38.9225705, "rental_uris": {"ios": "https://dc.lft.to/lastmile_qr_scan", "android": "https://dc.lft.to/lastmile_qr_scan"}, "bike_id": "4b4ce1997a3c63b49177dccc38d17cc5", "fusion_lat": 0.0}, {"lon": -77.03539583333334, "name": "6b4bad1873fa6e9beea0ea82ee2aead3", "is_disabled": 0, "type": "electric_scooter", "is_reserved": 0, "fusion_lon": 0.0, "lat": 38.90715616666667, "rental_uris": {"ios": "https://dc.lft.to/lastmile_qr_scan", "android": "https://dc.lft.to/lastmile_qr_scan"}, "bike_id": "6b4bad1873fa6e9beea0ea82ee2aead3", "fusion_lat": 0.0}, {"lon": -77.0240295, "name": "7cfe55d1ac05209c36cabf5434e4b356", "is_disabled": 0, "type": "electric_scooter", "is_reserved": 0, "fusion_lon": 0.0, "lat": 38.9196815, "rental_uris": {"ios": "https://dc.lft.to/lastmile_qr_scan", "android": "https://dc.lft.to/lastmile_qr_scan"}, "bike_id": "7cfe55d1ac05209c36cabf5434e4b356", "fusion_lat": 0.0}, {"lon": -76.97140033333334, "name": "6231f4fa4f97041ea3886ab3d8df6077", "is_disabled": 0, "type": "electric_scooter", "is_reserved": 0, "fusion_lon": 0.0, "lat": 38.91353633333333, "rental_uris": {"ios": "https://dc.lft.to/lastmile_qr_scan", "android": "https://dc.lft.to/lastmile_qr_scan"}, "bike_id": "6231f4fa4f97041ea3886ab3d8df6077", "fusion_lat": 0.0}, {"lon": -77.026729, "name": "e6b7e3e0659347760b606032bcc38cf8", "is_disabled": 0, "type": "electric_scooter", "is_reserved": 0, "fusion_lon": 0.0, "lat": 38.89761433333334, "rental_uris": {"ios": "https://dc.lft.to/lastmile_qr_scan", "android": "https://dc.lft.to/lastmile_qr_scan"}, "bike_id": "e6b7e3e0659347760b606032bcc38cf8", "fusion_lat": 0.0}, {"lon": -77.03386616666667, "name": "f763a3481f2365124e5d6c44e1d5e5bd", "is_disabled": 0, "type": "electric_scooter", "is_reserved": 0, "fusion_lon": 0.0, "lat": 38.921581, "rental_uris": {"ios": "https://dc.lft.to/lastmile_qr_scan", "android": "https://dc.lft.to/lastmile_qr_scan"}, "bike_id": "f763a3481f2365124e5d6c44e1d5e5bd", "fusion_lat": 0.0}, {"lon": -77.0416965, "name": "39d0ad32ac254c134cffe301f180eb1b", "is_disabled": 0, "type": "electric_scooter", "is_reserved": 0, "fusion_lon": 0.0, "lat": 38.918197166666666, "rental_uris": {"ios": "https://dc.lft.to/lastmile_qr_scan", "android": "https://dc.lft.to/lastmile_qr_scan"}, "bike_id": "39d0ad32ac254c134cffe301f180eb1b", "fusion_lat": 0.0}, {"lon": -76.9370905, "name": "0213384aab2d0f2e43c790e78772c7ff", "is_disabled": 0, "type": "electric_scooter", "is_reserved": 0, "fusion_lon": 0.0, "lat": 38.888574166666665, "rental_uris": {"ios": "https://dc.lft.to/lastmile_qr_scan", "android": "https://dc.lft.to/lastmile_qr_scan"}, "bike_id": "0213384aab2d0f2e43c790e78772c7ff", "fusion_lat": 0.0}, {"lon": -77.03434916666667, "name": "eeb522ba37f130ab9804e21cb2a2a787", "is_disabled": 0, "type": "electric_scooter", "is_reserved": 0, "fusion_lon": 0.0, "lat": 38.90852016666667, "rental_uris": {"ios": "https://dc.lft.to/lastmile_qr_scan", "android": "https://dc.lft.to/lastmile_qr_scan"}, "bike_id": "eeb522ba37f130ab9804e21cb2a2a787", "fusion_lat": 0.0}, {"lon": -76.99624816666666, "name": "5314c280e5cc628d771b0f44edb91e32", "is_disabled": 0, "type": "electric_scooter", "is_reserved": 0, "fusion_lon": 0.0, "lat": 38.921890833333336, "rental_uris": {"ios": "https://dc.lft.to/lastmile_qr_scan", "android": "https://dc.lft.to/lastmile_qr_scan"}, "bike_id": "5314c280e5cc628d771b0f44edb91e32", "fusion_lat": 0.0}, {"lon": -77.00382583333334, "name": "f189d3f5da79e7cfa9f6dcccbf1bb345", "is_disabled": 0, "type": "electric_scooter", "is_reserved": 0, "fusion_lon": 0.0, "lat": 38.8763715, "rental_uris": {"ios": "https://dc.lft.to/lastmile_qr_scan", "android": "https://dc.lft.to/lastmile_qr_scan"}, "bike_id": "f189d3f5da79e7cfa9f6dcccbf1bb345", "fusion_lat": 0.0}, {"lon": -77.06903783333334, "name": "dffd01b3a746567cb05be8d2595f107e", "is_disabled": 0, "type": "electric_scooter", "is_reserved": 0, "fusion_lon": 0.0, "lat": 38.91750716666667, "rental_uris": {"ios": "https://dc.lft.to/lastmile_qr_scan", "android": "https://dc.lft.to/lastmile_qr_scan"}, "bike_id": "dffd01b3a746567cb05be8d2595f107e", "fusion_lat": 0.0}, {"lon": -77.047151, "name": "71a5fb345cb14bb6c583638492e14c35", "is_disabled": 0, "type": "electric_scooter", "is_reserved": 0, "fusion_lon": 0.0, "lat": 38.899577666666666, "rental_uris": {"ios": "https://dc.lft.to/lastmile_qr_scan", "android": "https://dc.lft.to/lastmile_qr_scan"}, "bike_id": "71a5fb345cb14bb6c583638492e14c35", "fusion_lat": 0.0}, {"lon": -77.019482, "name": "a6dadcd9de74219a5c7c9b619487865a", "is_disabled": 0, "type": "electric_scooter", "is_reserved": 0, "fusion_lon": 0.0, "lat": 38.923740333333335, "rental_uris": {"ios": "https://dc.lft.to/lastmile_qr_scan", "android": "https://dc.lft.to/lastmile_qr_scan"}, "bike_id": "a6dadcd9de74219a5c7c9b619487865a", "fusion_lat": 0.0}, {"lon": -77.02170566666666, "name": "d8d13ac3e6837b601bf9f165b52f8aa7", "is_disabled": 0, "type": "electric_scooter", "is_reserved": 0, "fusion_lon": 0.0, "lat": 38.926396833333335, "rental_uris": {"ios": "https://dc.lft.to/lastmile_qr_scan", "android": "https://dc.lft.to/lastmile_qr_scan"}, "bike_id": "d8d13ac3e6837b601bf9f165b52f8aa7", "fusion_lat": 0.0}, {"lon": -77.02181533333334, "name": "5513757dbf2bae616f8b68682461392d", "is_disabled": 0, "type": "electric_scooter", "is_reserved": 0, "fusion_lon": 0.0, "lat": 38.910491666666665, "rental_uris": {"ios": "https://dc.lft.to/lastmile_qr_scan", "android": "https://dc.lft.to/lastmile_qr_scan"}, "bike_id": "5513757dbf2bae616f8b68682461392d", "fusion_lat": 0.0}, {"lon": -76.90291383333333, "name": "17b9ebcc96dcc02c38e16b669e2ae7d9", "is_disabled": 0, "type": "electric_bike", "is_reserved": 0, "fusion_lon": 0.0, "lat": 39.00296866666667, "rental_uris": {"ios": "https://dc.lft.to/lastmile_qr_scan", "android": "https://dc.lft.to/lastmile_qr_scan"}, "bike_id": "17b9ebcc96dcc02c38e16b669e2ae7d9", "fusion_lat": 0.0}, {"lon": -77.04652183333333, "name": "54673d63040eaaf72e2fadfe440cb9e7", "is_disabled": 0, "type": "electric_scooter", "is_reserved": 0, "fusion_lon": 0.0, "lat": 38.892529833333334, "rental_uris": {"ios": "https://dc.lft.to/lastmile_qr_scan", "android": "https://dc.lft.to/lastmile_qr_scan"}, "bike_id": "54673d63040eaaf72e2fadfe440cb9e7", "fusion_lat": 0.0}, {"lon": -76.99563833333333, "name": "0020ec990e53a11cf45c10fe97588e1a", "is_disabled": 0, "type": "electric_bike", "is_reserved": 0, "fusion_lon": 0.0, "lat": 38.939826833333335, "rental_uris": {"ios": "https://dc.lft.to/lastmile_qr_scan", "android": "https://dc.lft.to/lastmile_qr_scan"}, "bike_id": "0020ec990e53a11cf45c10fe97588e1a", "fusion_lat": 0.0}, {"lon": -77.018731, "name": "528b63b6b3f0cb931586c5da8b6a6a77", "is_disabled": 0, "type": "electric_scooter", "is_reserved": 0, "fusion_lon": 0.0, "lat": 38.8812265, "rental_uris": {"ios": "https://dc.lft.to/lastmile_qr_scan", "android": "https://dc.lft.to/lastmile_qr_scan"}, "bike_id": "528b63b6b3f0cb931586c5da8b6a6a77", "fusion_lat": 0.0}, {"lon": -77.01836683333333, "name": "5a93680113a4ac4280353192b8cc73a7", "is_disabled": 0, "type": "electric_scooter", "is_reserved": 0, "fusion_lon": 0.0, "lat": 38.907297166666666, "rental_uris": {"ios": "https://dc.lft.to/lastmile_qr_scan", "android": "https://dc.lft.to/lastmile_qr_scan"}, "bike_id": "5a93680113a4ac4280353192b8cc73a7", "fusion_lat": 0.0}, {"lon": -77.13328716666666, "name": "bff02c4eeaac17f3cc3e702042884fe7", "is_disabled": 0, "type": "electric_bike", "is_reserved": 0, "fusion_lon": 0.0, "lat": 39.06037633333333, "rental_uris": {"ios": "https://dc.lft.to/lastmile_qr_scan", "android": "https://dc.lft.to/lastmile_qr_scan"}, "bike_id": "bff02c4eeaac17f3cc3e702042884fe7", "fusion_lat": 0.0}, {"lon": -77.01573716666667, "name": "72cccede2bdc630c1bf1c672c8a16da7", "is_disabled": 0, "type": "electric_scooter", "is_reserved": 0, "fusion_lon": 0.0, "lat": 38.92686466666667, "rental_uris": {"ios": "https://dc.lft.to/lastmile_qr_scan", "android": "https://dc.lft.to/lastmile_qr_scan"}, "bike_id": "72cccede2bdc630c1bf1c672c8a16da7", "fusion_lat": 0.0}, {"lon": -77.04475633333334, "name": "41cb222b2e212656be6c9277cd90da93", "is_disabled": 0, "type": "electric_scooter", "is_reserved": 0, "fusion_lon": 0.0, "lat": 38.893626, "rental_uris": {"ios": "https://dc.lft.to/lastmile_qr_scan", "android": "https://dc.lft.to/lastmile_qr_scan"}, "bike_id": "41cb222b2e212656be6c9277cd90da93", "fusion_lat": 0.0}, {"lon": -77.05041366666667, "name": "b8d4e1e83c62f82ca97e914eff621b72", "is_disabled": 0, "type": "electric_scooter", "is_reserved": 0, "fusion_lon": 0.0, "lat": 38.89287933333333, "rental_uris": {"ios": "https://dc.lft.to/lastmile_qr_scan", "android": "https://dc.lft.to/lastmile_qr_scan"}, "bike_id": "b8d4e1e83c62f82ca97e914eff621b72", "fusion_lat": 0.0}, {"lon": -77.00990083333333, "name": "03f77b22003bfdecd7b77ff8eb01bb0a", "is_disabled": 0, "type": "electric_scooter", "is_reserved": 0, "fusion_lon": 0.0, "lat": 38.90378316666666, "rental_uris": {"ios": "https://dc.lft.to/lastmile_qr_scan", "android": "https://dc.lft.to/lastmile_qr_scan"}, "bike_id": "03f77b22003bfdecd7b77ff8eb01bb0a", "fusion_lat": 0.0}, {"lon": -77.004003, "name": "224ead9347fcbe5f047ff210dcff07a4", "is_disabled": 0, "type": "electric_bike", "is_reserved": 0, "fusion_lon": 0.0, "lat": 38.98557066666667, "rental_uris": {"ios": "https://dc.lft.to/lastmile_qr_scan", "android": "https://dc.lft.to/lastmile_qr_scan"}, "bike_id": "224ead9347fcbe5f047ff210dcff07a4", "fusion_lat": 0.0}, {"lon": -77.01668966666666, "name": "d69fb5a04746c78966d217e678660167", "is_disabled": 0, "type": "electric_scooter", "is_reserved": 0, "fusion_lon": 0.0, "lat": 38.920556833333336, "rental_uris": {"ios": "https://dc.lft.to/lastmile_qr_scan", "android": "https://dc.lft.to/lastmile_qr_scan"}, "bike_id": "d69fb5a04746c78966d217e678660167", "fusion_lat": 0.0}, {"lon": -77.22990966666667, "name": "522c50162174cb50e32e9e5e30572d4b", "is_disabled": 0, "type": "electric_bike", "is_reserved": 0, "fusion_lon": 0.0, "lat": 38.871508166666665, "rental_uris": {"ios": "https://dc.lft.to/lastmile_qr_scan", "android": "https://dc.lft.to/lastmile_qr_scan"}, "bike_id": "522c50162174cb50e32e9e5e30572d4b", "fusion_lat": 0.0}, {"lon": -76.97267416666666, "name": "eb6c270021f6b318c7b18642c4520aeb", "is_disabled": 0, "type": "electric_bike", "is_reserved": 0, "fusion_lon": 0.0, "lat": 38.8559985, "rental_uris": {"ios": "https://dc.lft.to/lastmile_qr_scan", "android": "https://dc.lft.to/lastmile_qr_scan"}, "bike_id": "eb6c270021f6b318c7b18642c4520aeb", "fusion_lat": 0.0}, {"lon": -77.01949333333333, "name": "1333118bc7a0d607b6a655effb26ea9d", "is_disabled": 0, "type": "electric_scooter", "is_reserved": 0, "fusion_lon": 0.0, "lat": 38.92255433333333, "rental_uris": {"ios": "https://dc.lft.to/lastmile_qr_scan", "android": "https://dc.lft.to/lastmile_qr_scan"}, "bike_id": "1333118bc7a0d607b6a655effb26ea9d", "fusion_lat": 0.0}, {"lon": -77.036576, "name": "5c64696c6ec3e2a2468523f515e4553f", "is_disabled": 0, "type": "electric_scooter", "is_reserved": 0, "fusion_lon": 0.0, "lat": 38.923340333333336, "rental_uris": {"ios": "https://dc.lft.to/lastmile_qr_scan", "android": "https://dc.lft.to/lastmile_qr_scan"}, "bike_id": "5c64696c6ec3e2a2468523f515e4553f", "fusion_lat": 0.0}, {"lon": -77.02516133333333, "name": "ff00bf281dd096d7d82442fc2770be40", "is_disabled": 0, "type": "electric_scooter", "is_reserved": 0, "fusion_lon": 0.0, "lat": 38.904368833333336, "rental_uris": {"ios": "https://dc.lft.to/lastmile_qr_scan", "android": "https://dc.lft.to/lastmile_qr_scan"}, "bike_id": "ff00bf281dd096d7d82442fc2770be40", "fusion_lat": 0.0}, {"lon": -77.043587, "name": "6a9c773317a6c4a67cec758c7a73fca4", "is_disabled": 0, "type": "electric_scooter", "is_reserved": 0, "fusion_lon": 0.0, "lat": 38.920694, "rental_uris": {"ios": "https://dc.lft.to/lastmile_qr_scan", "android": "https://dc.lft.to/lastmile_qr_scan"}, "bike_id": "6a9c773317a6c4a67cec758c7a73fca4", "fusion_lat": 0.0}, {"lon": -77.02025216666667, "name": "4448a30acfb73a5b4f8b1b642a5b32ed", "is_disabled": 0, "type": "electric_scooter", "is_reserved": 0, "fusion_lon": 0.0, "lat": 38.89878016666667, "rental_uris": {"ios": "https://dc.lft.to/lastmile_qr_scan", "android": "https://dc.lft.to/lastmile_qr_scan"}, "bike_id": "4448a30acfb73a5b4f8b1b642a5b32ed", "fusion_lat": 0.0}, {"lon": -77.02083683333333, "name": "6bcdc3c637b09879f640b097be6af61c", "is_disabled": 0, "type": "electric_scooter", "is_reserved": 0, "fusion_lon": 0.0, "lat": 38.92289233333333, "rental_uris": {"ios": "https://dc.lft.to/lastmile_qr_scan", "android": "https://dc.lft.to/lastmile_qr_scan"}, "bike_id": "6bcdc3c637b09879f640b097be6af61c", "fusion_lat": 0.0}, {"lon": -76.9835265, "name": "6f00b8d45444ee3b86b895d0e03b7c2d", "is_disabled": 0, "type": "electric_bike", "is_reserved": 0, "fusion_lon": 0.0, "lat": 38.862656666666666, "rental_uris": {"ios": "https://dc.lft.to/lastmile_qr_scan", "android": "https://dc.lft.to/lastmile_qr_scan"}, "bike_id": "6f00b8d45444ee3b86b895d0e03b7c2d", "fusion_lat": 0.0}, {"lon": -76.9795865, "name": "f497dedd18112e2013a10c969c0a5a3c", "is_disabled": 0, "type": "electric_bike", "is_reserved": 0, "fusion_lon": 0.0, "lat": 38.92038383333333, "rental_uris": {"ios": "https://dc.lft.to/lastmile_qr_scan", "android": "https://dc.lft.to/lastmile_qr_scan"}, "bike_id": "f497dedd18112e2013a10c969c0a5a3c", "fusion_lat": 0.0}, {"lon": -77.04999966666666, "name": "7e63c6152386eb5f6b17c4285acd74b4", "is_disabled": 0, "type": "electric_scooter", "is_reserved": 0, "fusion_lon": 0.0, "lat": 38.89231983333333, "rental_uris": {"ios": "https://dc.lft.to/lastmile_qr_scan", "android": "https://dc.lft.to/lastmile_qr_scan"}, "bike_id": "7e63c6152386eb5f6b17c4285acd74b4", "fusion_lat": 0.0}, {"lon": -77.02217216666666, "name": "280433d9d023629944584a1c3190ab6e", "is_disabled": 0, "type": "electric_scooter", "is_reserved": 0, "fusion_lon": 0.0, "lat": 38.924798, "rental_uris": {"ios": "https://dc.lft.to/lastmile_qr_scan", "android": "https://dc.lft.to/lastmile_qr_scan"}, "bike_id": "280433d9d023629944584a1c3190ab6e", "fusion_lat": 0.0}, {"lon": -77.021927, "name": "63a0dc6ceb704dcc2be308682798c5f5", "is_disabled": 0, "type": "electric_scooter", "is_reserved": 0, "fusion_lon": 0.0, "lat": 38.920973000000004, "rental_uris": {"ios": "https://dc.lft.to/lastmile_qr_scan", "android": "https://dc.lft.to/lastmile_qr_scan"}, "bike_id": "63a0dc6ceb704dcc2be308682798c5f5", "fusion_lat": 0.0}, {"lon": -77.034365, "name": "fe60fa561aa218188d57faccced1c95e", "is_disabled": 0, "type": "electric_scooter", "is_reserved": 0, "fusion_lon": 0.0, "lat": 38.9036005, "rental_uris": {"ios": "https://dc.lft.to/lastmile_qr_scan", "android": "https://dc.lft.to/lastmile_qr_scan"}, "bike_id": "fe60fa561aa218188d57faccced1c95e", "fusion_lat": 0.0}, {"lon": -77.03393683333333, "name": "ce9a8bfd81a21dc19e4147bada832c8c", "is_disabled": 0, "type": "electric_scooter", "is_reserved": 0, "fusion_lon": 0.0, "lat": 38.900135666666664, "rental_uris": {"ios": "https://dc.lft.to/lastmile_qr_scan", "android": "https://dc.lft.to/lastmile_qr_scan"}, "bike_id": "ce9a8bfd81a21dc19e4147bada832c8c", "fusion_lat": 0.0}, {"lon": -76.98455366666667, "name": "343524b9d8596a1f2ce0985c66bcd33f", "is_disabled": 0, "type": "electric_scooter", "is_reserved": 0, "fusion_lon": 0.0, "lat": 38.89233266666667, "rental_uris": {"ios": "https://dc.lft.to/lastmile_qr_scan", "android": "https://dc.lft.to/lastmile_qr_scan"}, "bike_id": "343524b9d8596a1f2ce0985c66bcd33f", "fusion_lat": 0.0}, {"lon": -76.99821316666667, "name": "26bd33727b04521cbe6f91312fe2021c", "is_disabled": 0, "type": "electric_scooter", "is_reserved": 0, "fusion_lon": 0.0, "lat": 38.90607283333333, "rental_uris": {"ios": "https://dc.lft.to/lastmile_qr_scan", "android": "https://dc.lft.to/lastmile_qr_scan"}, "bike_id": "26bd33727b04521cbe6f91312fe2021c", "fusion_lat": 0.0}, {"lon": -77.00337733333333, "name": "fc786237b8b6af58c489b282c1f75095", "is_disabled": 0, "type": "electric_bike", "is_reserved": 0, "fusion_lon": 0.0, "lat": 38.92025233333333, "rental_uris": {"ios": "https://dc.lft.to/lastmile_qr_scan", "android": "https://dc.lft.to/lastmile_qr_scan"}, "bike_id": "fc786237b8b6af58c489b282c1f75095", "fusion_lat": 0.0}, {"lon": -77.0499955, "name": "206dba29ca1e807fad74a09b1d0f3dda", "is_disabled": 0, "type": "electric_scooter", "is_reserved": 0, "fusion_lon": 0.0, "lat": 38.892275, "rental_uris": {"ios": "https://dc.lft.to/lastmile_qr_scan", "android": "https://dc.lft.to/lastmile_qr_scan"}, "bike_id": "206dba29ca1e807fad74a09b1d0f3dda", "fusion_lat": 0.0}, {"lon": -76.99078233333333, "name": "c0be33f1a28523c5cc6e261e33f5e73f", "is_disabled": 0, "type": "electric_bike", "is_reserved": 0, "fusion_lon": 0.0, "lat": 38.8982695, "rental_uris": {"ios": "https://dc.lft.to/lastmile_qr_scan", "android": "https://dc.lft.to/lastmile_qr_scan"}, "bike_id": "c0be33f1a28523c5cc6e261e33f5e73f", "fusion_lat": 0.0}, {"lon": -77.05761516666666, "name": "2394eda5d19aab34f9ed01e447208baf", "is_disabled": 0, "type": "electric_scooter", "is_reserved": 0, "fusion_lon": 0.0, "lat": 38.9248785, "rental_uris": {"ios": "https://dc.lft.to/lastmile_qr_scan", "android": "https://dc.lft.to/lastmile_qr_scan"}, "bike_id": "2394eda5d19aab34f9ed01e447208baf", "fusion_lat": 0.0}, {"lon": -77.04472033333333, "name": "e6d35ab6eedd1c440f0197cc719f4358", "is_disabled": 0, "type": "electric_scooter", "is_reserved": 0, "fusion_lon": 0.0, "lat": 38.91536083333333, "rental_uris": {"ios": "https://dc.lft.to/lastmile_qr_scan", "android": "https://dc.lft.to/lastmile_qr_scan"}, "bike_id": "e6d35ab6eedd1c440f0197cc719f4358", "fusion_lat": 0.0}, {"lon": -77.016396, "name": "65b5f900170d8287b94f8452718e9251", "is_disabled": 0, "type": "electric_scooter", "is_reserved": 0, "fusion_lon": 0.0, "lat": 38.903925, "rental_uris": {"ios": "https://dc.lft.to/lastmile_qr_scan", "android": "https://dc.lft.to/lastmile_qr_scan"}, "bike_id": "65b5f900170d8287b94f8452718e9251", "fusion_lat": 0.0}, {"lon": -77.0570745, "name": "9b427b9cc58a559a5506d6fcee2ae075", "is_disabled": 0, "type": "electric_scooter", "is_reserved": 0, "fusion_lon": 0.0, "lat": 38.926121, "rental_uris": {"ios": "https://dc.lft.to/lastmile_qr_scan", "android": "https://dc.lft.to/lastmile_qr_scan"}, "bike_id": "9b427b9cc58a559a5506d6fcee2ae075", "fusion_lat": 0.0}, {"lon": -77.031568, "name": "bbe2f16558596e202f5364fea1eef0b3", "is_disabled": 0, "type": "electric_scooter", "is_reserved": 0, "fusion_lon": 0.0, "lat": 38.9593265, "rental_uris": {"ios": "https://dc.lft.to/lastmile_qr_scan", "android": "https://dc.lft.to/lastmile_qr_scan"}, "bike_id": "bbe2f16558596e202f5364fea1eef0b3", "fusion_lat": 0.0}, {"lon": -77.024007, "name": "34dabfc9fe252d99e8f8d00c553265d3", "is_disabled": 0, "type": "electric_scooter", "is_reserved": 0, "fusion_lon": 0.0, "lat": 38.9162325, "rental_uris": {"ios": "https://dc.lft.to/lastmile_qr_scan", "android": "https://dc.lft.to/lastmile_qr_scan"}, "bike_id": "34dabfc9fe252d99e8f8d00c553265d3", "fusion_lat": 0.0}, {"lon": -77.04164633333333, "name": "52336eb537562a13006791fec64c72c4", "is_disabled": 0, "type": "electric_scooter", "is_reserved": 0, "fusion_lon": 0.0, "lat": 38.90732783333333, "rental_uris": {"ios": "https://dc.lft.to/lastmile_qr_scan", "android": "https://dc.lft.to/lastmile_qr_scan"}, "bike_id": "52336eb537562a13006791fec64c72c4", "fusion_lat": 0.0}, {"lon": -77.0358365, "name": "090051408936456f253dc535d2182a01", "is_disabled": 0, "type": "electric_scooter", "is_reserved": 0, "fusion_lon": 0.0, "lat": 38.926951833333334, "rental_uris": {"ios": "https://dc.lft.to/lastmile_qr_scan", "android": "https://dc.lft.to/lastmile_qr_scan"}, "bike_id": "090051408936456f253dc535d2182a01", "fusion_lat": 0.0}, {"lon": -77.00208083333334, "name": "abd295451e80183c1b5703cefbe06670", "is_disabled": 0, "type": "electric_scooter", "is_reserved": 0, "fusion_lon": 0.0, "lat": 38.9147305, "rental_uris": {"ios": "https://dc.lft.to/lastmile_qr_scan", "android": "https://dc.lft.to/lastmile_qr_scan"}, "bike_id": "abd295451e80183c1b5703cefbe06670", "fusion_lat": 0.0}, {"lon": -77.01949533333334, "name": "f3c0e7423dfab75b13161dbdd062b574", "is_disabled": 0, "type": "electric_scooter", "is_reserved": 0, "fusion_lon": 0.0, "lat": 38.9242185, "rental_uris": {"ios": "https://dc.lft.to/lastmile_qr_scan", "android": "https://dc.lft.to/lastmile_qr_scan"}, "bike_id": "f3c0e7423dfab75b13161dbdd062b574", "fusion_lat": 0.0}, {"lon": -77.02151583333334, "name": "1cea0054c75e4f5147d379f1bb7d6ad1", "is_disabled": 0, "type": "electric_scooter", "is_reserved": 0, "fusion_lon": 0.0, "lat": 38.926063166666665, "rental_uris": {"ios": "https://dc.lft.to/lastmile_qr_scan", "android": "https://dc.lft.to/lastmile_qr_scan"}, "bike_id": "1cea0054c75e4f5147d379f1bb7d6ad1", "fusion_lat": 0.0}, {"lon": -77.01227466666667, "name": "00808b084c8660f22f67ef77f5048423", "is_disabled": 0, "type": "electric_scooter", "is_reserved": 0, "fusion_lon": 0.0, "lat": 38.91449816666667, "rental_uris": {"ios": "https://dc.lft.to/lastmile_qr_scan", "android": "https://dc.lft.to/lastmile_qr_scan"}, "bike_id": "00808b084c8660f22f67ef77f5048423", "fusion_lat": 0.0}, {"lon": -77.03264516666667, "name": "ff801b3e51f243b4dd91df1b436c6f4a", "is_disabled": 0, "type": "electric_scooter", "is_reserved": 0, "fusion_lon": 0.0, "lat": 38.9379145, "rental_uris": {"ios": "https://dc.lft.to/lastmile_qr_scan", "android": "https://dc.lft.to/lastmile_qr_scan"}, "bike_id": "ff801b3e51f243b4dd91df1b436c6f4a", "fusion_lat": 0.0}, {"lon": -77.03213916666667, "name": "037f4d65b7eaf58acab6271c1b16e080", "is_disabled": 0, "type": "electric_scooter", "is_reserved": 0, "fusion_lon": 0.0, "lat": 38.919113, "rental_uris": {"ios": "https://dc.lft.to/lastmile_qr_scan", "android": "https://dc.lft.to/lastmile_qr_scan"}, "bike_id": "037f4d65b7eaf58acab6271c1b16e080", "fusion_lat": 0.0}, {"lon": -77.018151, "name": "585778cda652b8f267872c854701b5a5", "is_disabled": 0, "type": "electric_scooter", "is_reserved": 0, "fusion_lon": 0.0, "lat": 38.92062216666667, "rental_uris": {"ios": "https://dc.lft.to/lastmile_qr_scan", "android": "https://dc.lft.to/lastmile_qr_scan"}, "bike_id": "585778cda652b8f267872c854701b5a5", "fusion_lat": 0.0}, {"lon": -77.02532316666667, "name": "4c7795193d3d2ee94412d76c50f224fa", "is_disabled": 0, "type": "electric_scooter", "is_reserved": 0, "fusion_lon": 0.0, "lat": 38.920873666666665, "rental_uris": {"ios": "https://dc.lft.to/lastmile_qr_scan", "android": "https://dc.lft.to/lastmile_qr_scan"}, "bike_id": "4c7795193d3d2ee94412d76c50f224fa", "fusion_lat": 0.0}, {"lon": -77.05458683333333, "name": "c70662cb9c55db64906cb29b0f4aa6c9", "is_disabled": 0, "type": "electric_scooter", "is_reserved": 0, "fusion_lon": 0.0, "lat": 38.929026, "rental_uris": {"ios": "https://dc.lft.to/lastmile_qr_scan", "android": "https://dc.lft.to/lastmile_qr_scan"}, "bike_id": "c70662cb9c55db64906cb29b0f4aa6c9", "fusion_lat": 0.0}, {"lon": -77.00726233333333, "name": "94872ba995261386953589e4c1e160ce", "is_disabled": 0, "type": "electric_scooter", "is_reserved": 0, "fusion_lon": 0.0, "lat": 38.87881, "rental_uris": {"ios": "https://dc.lft.to/lastmile_qr_scan", "android": "https://dc.lft.to/lastmile_qr_scan"}, "bike_id": "94872ba995261386953589e4c1e160ce", "fusion_lat": 0.0}, {"lon": -77.00409283333333, "name": "ac627515ae23e35e67f7133387d7a4c4", "is_disabled": 0, "type": "electric_bike", "is_reserved": 0, "fusion_lon": 0.0, "lat": 38.9853255, "rental_uris": {"ios": "https://dc.lft.to/lastmile_qr_scan", "android": "https://dc.lft.to/lastmile_qr_scan"}, "bike_id": "ac627515ae23e35e67f7133387d7a4c4", "fusion_lat": 0.0}, {"lon": -77.02428083333334, "name": "350e1645bf7353bea2da6700fd2fc4f5", "is_disabled": 0, "type": "electric_scooter", "is_reserved": 0, "fusion_lon": 0.0, "lat": 38.920995, "rental_uris": {"ios": "https://dc.lft.to/lastmile_qr_scan", "android": "https://dc.lft.to/lastmile_qr_scan"}, "bike_id": "350e1645bf7353bea2da6700fd2fc4f5", "fusion_lat": 0.0}, {"lon": -76.93207566666666, "name": "bc798e4ccec6dfa8c8aef960116b27e5", "is_disabled": 0, "type": "electric_scooter", "is_reserved": 0, "fusion_lon": 0.0, "lat": 38.896656166666666, "rental_uris": {"ios": "https://dc.lft.to/lastmile_qr_scan", "android": "https://dc.lft.to/lastmile_qr_scan"}, "bike_id": "bc798e4ccec6dfa8c8aef960116b27e5", "fusion_lat": 0.0}, {"lon": -77.031992, "name": "36b074051088a8eca167863b09a70c4e", "is_disabled": 0, "type": "electric_scooter", "is_reserved": 0, "fusion_lon": 0.0, "lat": 38.909828, "rental_uris": {"ios": "https://dc.lft.to/lastmile_qr_scan", "android": "https://dc.lft.to/lastmile_qr_scan"}, "bike_id": "36b074051088a8eca167863b09a70c4e", "fusion_lat": 0.0}, {"lon": -77.04884283333334, "name": "1cd5626a10d4f26a19b8d1a6a2886cbc", "is_disabled": 0, "type": "electric_scooter", "is_reserved": 0, "fusion_lon": 0.0, "lat": 38.91602616666667, "rental_uris": {"ios": "https://dc.lft.to/lastmile_qr_scan", "android": "https://dc.lft.to/lastmile_qr_scan"}, "bike_id": "1cd5626a10d4f26a19b8d1a6a2886cbc", "fusion_lat": 0.0}, {"lon": -76.9346365, "name": "b46fc28cbeeb221d117c1beae6ab2f38", "is_disabled": 0, "type": "electric_scooter", "is_reserved": 0, "fusion_lon": 0.0, "lat": 38.901831666666666, "rental_uris": {"ios": "https://dc.lft.to/lastmile_qr_scan", "android": "https://dc.lft.to/lastmile_qr_scan"}, "bike_id": "b46fc28cbeeb221d117c1beae6ab2f38", "fusion_lat": 0.0}, {"lon": -77.019444, "name": "d2491f31fb8ee3b3ae2f2802862ce641", "is_disabled": 0, "type": "electric_scooter", "is_reserved": 0, "fusion_lon": 0.0, "lat": 38.924193833333334, "rental_uris": {"ios": "https://dc.lft.to/lastmile_qr_scan", "android": "https://dc.lft.to/lastmile_qr_scan"}, "bike_id": "d2491f31fb8ee3b3ae2f2802862ce641", "fusion_lat": 0.0}, {"lon": -77.04150533333333, "name": "8e78e0e73757eb4e444f70c342ae8c20", "is_disabled": 0, "type": "electric_scooter", "is_reserved": 0, "fusion_lon": 0.0, "lat": 38.916540166666664, "rental_uris": {"ios": "https://dc.lft.to/lastmile_qr_scan", "android": "https://dc.lft.to/lastmile_qr_scan"}, "bike_id": "8e78e0e73757eb4e444f70c342ae8c20", "fusion_lat": 0.0}, {"lon": -76.97974383333333, "name": "a84eafd21b876013e7a65054204c0b28", "is_disabled": 0, "type": "electric_scooter", "is_reserved": 0, "fusion_lon": 0.0, "lat": 38.8865335, "rental_uris": {"ios": "https://dc.lft.to/lastmile_qr_scan", "android": "https://dc.lft.to/lastmile_qr_scan"}, "bike_id": "a84eafd21b876013e7a65054204c0b28", "fusion_lat": 0.0}, {"lon": -77.04318, "name": "16c3ad7147ac00a9fefd8777158b60ee", "is_disabled": 0, "type": "electric_scooter", "is_reserved": 0, "fusion_lon": 0.0, "lat": 38.9237155, "rental_uris": {"ios": "https://dc.lft.to/lastmile_qr_scan", "android": "https://dc.lft.to/lastmile_qr_scan"}, "bike_id": "16c3ad7147ac00a9fefd8777158b60ee", "fusion_lat": 0.0}, {"lon": -76.97823983333333, "name": "97634ae1b083a581600fee34a5689e42", "is_disabled": 0, "type": "electric_scooter", "is_reserved": 0, "fusion_lon": 0.0, "lat": 38.89396416666666, "rental_uris": {"ios": "https://dc.lft.to/lastmile_qr_scan", "android": "https://dc.lft.to/lastmile_qr_scan"}, "bike_id": "97634ae1b083a581600fee34a5689e42", "fusion_lat": 0.0}, {"lon": -77.0127165, "name": "3c643a2b8e073d90d29381016b69692f", "is_disabled": 0, "type": "electric_scooter", "is_reserved": 0, "fusion_lon": 0.0, "lat": 38.89822, "rental_uris": {"ios": "https://dc.lft.to/lastmile_qr_scan", "android": "https://dc.lft.to/lastmile_qr_scan"}, "bike_id": "3c643a2b8e073d90d29381016b69692f", "fusion_lat": 0.0}, {"lon": -77.04050116666667, "name": "d3ce9bc47aab1019a744ceb1e23a6715", "is_disabled": 0, "type": "electric_scooter", "is_reserved": 0, "fusion_lon": 0.0, "lat": 38.90879, "rental_uris": {"ios": "https://dc.lft.to/lastmile_qr_scan", "android": "https://dc.lft.to/lastmile_qr_scan"}, "bike_id": "d3ce9bc47aab1019a744ceb1e23a6715", "fusion_lat": 0.0}, {"lon": -77.07661233333333, "name": "4daa24273c07aa3a6d157b9914e1df2e", "is_disabled": 0, "type": "electric_bike", "is_reserved": 0, "fusion_lon": 0.0, "lat": 38.80978366666667, "rental_uris": {"ios": "https://dc.lft.to/lastmile_qr_scan", "android": "https://dc.lft.to/lastmile_qr_scan"}, "bike_id": "4daa24273c07aa3a6d157b9914e1df2e", "fusion_lat": 0.0}, {"lon": -77.05888866666666, "name": "f41da052297cec1ca523214e57b51b2f", "is_disabled": 0, "type": "electric_bike", "is_reserved": 0, "fusion_lon": 0.0, "lat": 38.94305516666667, "rental_uris": {"ios": "https://dc.lft.to/lastmile_qr_scan", "android": "https://dc.lft.to/lastmile_qr_scan"}, "bike_id": "f41da052297cec1ca523214e57b51b2f", "fusion_lat": 0.0}, {"lon": -77.02795133333333, "name": "6dac94b2b5ef7d0e7f5259f4b5316f35", "is_disabled": 0, "type": "electric_scooter", "is_reserved": 0, "fusion_lon": 0.0, "lat": 38.92681433333333, "rental_uris": {"ios": "https://dc.lft.to/lastmile_qr_scan", "android": "https://dc.lft.to/lastmile_qr_scan"}, "bike_id": "6dac94b2b5ef7d0e7f5259f4b5316f35", "fusion_lat": 0.0}, {"lon": -77.039356, "name": "e466801e81c1cd86feb8ec2e44e513bf", "is_disabled": 0, "type": "electric_scooter", "is_reserved": 0, "fusion_lon": 0.0, "lat": 38.89861633333334, "rental_uris": {"ios": "https://dc.lft.to/lastmile_qr_scan", "android": "https://dc.lft.to/lastmile_qr_scan"}, "bike_id": "e466801e81c1cd86feb8ec2e44e513bf", "fusion_lat": 0.0}, {"lon": -77.04788266666667, "name": "33c9072d33de83f794d68fd854cee9eb", "is_disabled": 0, "type": "electric_scooter", "is_reserved": 0, "fusion_lon": 0.0, "lat": 38.899184166666664, "rental_uris": {"ios": "https://dc.lft.to/lastmile_qr_scan", "android": "https://dc.lft.to/lastmile_qr_scan"}, "bike_id": "33c9072d33de83f794d68fd854cee9eb", "fusion_lat": 0.0}, {"lon": -77.0290055, "name": "ed1a5f965df027b27087308516f1b5fc", "is_disabled": 0, "type": "electric_scooter", "is_reserved": 0, "fusion_lon": 0.0, "lat": 38.923191833333334, "rental_uris": {"ios": "https://dc.lft.to/lastmile_qr_scan", "android": "https://dc.lft.to/lastmile_qr_scan"}, "bike_id": "ed1a5f965df027b27087308516f1b5fc", "fusion_lat": 0.0}, {"lon": -77.02138966666666, "name": "119d4b46354180d8339ac438bc72a06c", "is_disabled": 0, "type": "electric_scooter", "is_reserved": 0, "fusion_lon": 0.0, "lat": 38.924103833333334, "rental_uris": {"ios": "https://dc.lft.to/lastmile_qr_scan", "android": "https://dc.lft.to/lastmile_qr_scan"}, "bike_id": "119d4b46354180d8339ac438bc72a06c", "fusion_lat": 0.0}, {"lon": -77.017816, "name": "f568420c8d3da2cacf8b0d94bbd49b4b", "is_disabled": 0, "type": "electric_scooter", "is_reserved": 0, "fusion_lon": 0.0, "lat": 38.92052533333333, "rental_uris": {"ios": "https://dc.lft.to/lastmile_qr_scan", "android": "https://dc.lft.to/lastmile_qr_scan"}, "bike_id": "f568420c8d3da2cacf8b0d94bbd49b4b", "fusion_lat": 0.0}, {"lon": -77.01991816666667, "name": "d74c675f0f2abdd25588289ef8cbce29", "is_disabled": 0, "type": "electric_scooter", "is_reserved": 0, "fusion_lon": 0.0, "lat": 38.88560666666667, "rental_uris": {"ios": "https://dc.lft.to/lastmile_qr_scan", "android": "https://dc.lft.to/lastmile_qr_scan"}, "bike_id": "d74c675f0f2abdd25588289ef8cbce29", "fusion_lat": 0.0}, {"lon": -76.91803983333334, "name": "4041b74e28f12957f8d4a69e31250342", "is_disabled": 0, "type": "electric_bike", "is_reserved": 0, "fusion_lon": 0.0, "lat": 39.0001375, "rental_uris": {"ios": "https://dc.lft.to/lastmile_qr_scan", "android": "https://dc.lft.to/lastmile_qr_scan"}, "bike_id": "4041b74e28f12957f8d4a69e31250342", "fusion_lat": 0.0}, {"lon": -77.033842, "name": "cfbe28b68d4b3ea970ee586093b4a505", "is_disabled": 0, "type": "electric_scooter", "is_reserved": 0, "fusion_lon": 0.0, "lat": 38.92471183333333, "rental_uris": {"ios": "https://dc.lft.to/lastmile_qr_scan", "android": "https://dc.lft.to/lastmile_qr_scan"}, "bike_id": "cfbe28b68d4b3ea970ee586093b4a505", "fusion_lat": 0.0}, {"lon": -77.06598616666666, "name": "8db3b1b71c1c3e0c28d8c5af759ea952", "is_disabled": 0, "type": "electric_scooter", "is_reserved": 0, "fusion_lon": 0.0, "lat": 38.91226316666667, "rental_uris": {"ios": "https://dc.lft.to/lastmile_qr_scan", "android": "https://dc.lft.to/lastmile_qr_scan"}, "bike_id": "8db3b1b71c1c3e0c28d8c5af759ea952", "fusion_lat": 0.0}, {"lon": -77.0670345, "name": "734d0490f813a4c1b1d97f9ef291d8fb", "is_disabled": 0, "type": "electric_scooter", "is_reserved": 0, "fusion_lon": 0.0, "lat": 38.91420166666666, "rental_uris": {"ios": "https://dc.lft.to/lastmile_qr_scan", "android": "https://dc.lft.to/lastmile_qr_scan"}, "bike_id": "734d0490f813a4c1b1d97f9ef291d8fb", "fusion_lat": 0.0}, {"lon": -77.075485, "name": "8d18fe0d43895eb993719593b5a8e424", "is_disabled": 0, "type": "electric_scooter", "is_reserved": 0, "fusion_lon": 0.0, "lat": 38.915441333333334, "rental_uris": {"ios": "https://dc.lft.to/lastmile_qr_scan", "android": "https://dc.lft.to/lastmile_qr_scan"}, "bike_id": "8d18fe0d43895eb993719593b5a8e424", "fusion_lat": 0.0}, {"lon": -77.01738733333333, "name": "d4c264b1a83d27f53cb7f9d05f52c963", "is_disabled": 0, "type": "electric_scooter", "is_reserved": 0, "fusion_lon": 0.0, "lat": 38.8803525, "rental_uris": {"ios": "https://dc.lft.to/lastmile_qr_scan", "android": "https://dc.lft.to/lastmile_qr_scan"}, "bike_id": "d4c264b1a83d27f53cb7f9d05f52c963", "fusion_lat": 0.0}, {"lon": -77.03385533333334, "name": "a49ba0585fc51db6a9175bcfac1cfaaa", "is_disabled": 0, "type": "electric_scooter", "is_reserved": 0, "fusion_lon": 0.0, "lat": 38.90959433333333, "rental_uris": {"ios": "https://dc.lft.to/lastmile_qr_scan", "android": "https://dc.lft.to/lastmile_qr_scan"}, "bike_id": "a49ba0585fc51db6a9175bcfac1cfaaa", "fusion_lat": 0.0}, {"lon": -77.07241633333334, "name": "c53241dd0c36a2ca074afc1a293c2224", "is_disabled": 0, "type": "electric_scooter", "is_reserved": 0, "fusion_lon": 0.0, "lat": 38.94109433333333, "rental_uris": {"ios": "https://dc.lft.to/lastmile_qr_scan", "android": "https://dc.lft.to/lastmile_qr_scan"}, "bike_id": "c53241dd0c36a2ca074afc1a293c2224", "fusion_lat": 0.0}, {"lon": -77.02314433333333, "name": "76c13d85cd7c94e86f3d82766a2f28bf", "is_disabled": 0, "type": "electric_scooter", "is_reserved": 0, "fusion_lon": 0.0, "lat": 38.9207575, "rental_uris": {"ios": "https://dc.lft.to/lastmile_qr_scan", "android": "https://dc.lft.to/lastmile_qr_scan"}, "bike_id": "76c13d85cd7c94e86f3d82766a2f28bf", "fusion_lat": 0.0}, {"lon": -77.0198965, "name": "9d6e9976fdf81430633dffb7495ae883", "is_disabled": 0, "type": "electric_scooter", "is_reserved": 0, "fusion_lon": 0.0, "lat": 38.937852, "rental_uris": {"ios": "https://dc.lft.to/lastmile_qr_scan", "android": "https://dc.lft.to/lastmile_qr_scan"}, "bike_id": "9d6e9976fdf81430633dffb7495ae883", "fusion_lat": 0.0}, {"lon": -77.02377033333333, "name": "0d32d4c9751ec321aef688af80860d1b", "is_disabled": 0, "type": "electric_scooter", "is_reserved": 0, "fusion_lon": 0.0, "lat": 38.898678, "rental_uris": {"ios": "https://dc.lft.to/lastmile_qr_scan", "android": "https://dc.lft.to/lastmile_qr_scan"}, "bike_id": "0d32d4c9751ec321aef688af80860d1b", "fusion_lat": 0.0}, {"lon": -77.02422616666666, "name": "6c1f67eaf1cd12476a3806616aa70dd3", "is_disabled": 0, "type": "electric_scooter", "is_reserved": 0, "fusion_lon": 0.0, "lat": 38.920757, "rental_uris": {"ios": "https://dc.lft.to/lastmile_qr_scan", "android": "https://dc.lft.to/lastmile_qr_scan"}, "bike_id": "6c1f67eaf1cd12476a3806616aa70dd3", "fusion_lat": 0.0}, {"lon": -76.99694716666667, "name": "00f637a52d320222d3b795aa838cbc16", "is_disabled": 0, "type": "electric_scooter", "is_reserved": 0, "fusion_lon": 0.0, "lat": 38.907961666666665, "rental_uris": {"ios": "https://dc.lft.to/lastmile_qr_scan", "android": "https://dc.lft.to/lastmile_qr_scan"}, "bike_id": "00f637a52d320222d3b795aa838cbc16", "fusion_lat": 0.0}, {"lon": -77.0004795, "name": "db4c9cc2b3bc361857bbb64cdda85697", "is_disabled": 0, "type": "electric_scooter", "is_reserved": 0, "fusion_lon": 0.0, "lat": 38.90819316666666, "rental_uris": {"ios": "https://dc.lft.to/lastmile_qr_scan", "android": "https://dc.lft.to/lastmile_qr_scan"}, "bike_id": "db4c9cc2b3bc361857bbb64cdda85697", "fusion_lat": 0.0}, {"lon": -77.02532816666667, "name": "26e1b32a02487aef62b5ca4406d7d760", "is_disabled": 0, "type": "electric_scooter", "is_reserved": 0, "fusion_lon": 0.0, "lat": 38.94839833333333, "rental_uris": {"ios": "https://dc.lft.to/lastmile_qr_scan", "android": "https://dc.lft.to/lastmile_qr_scan"}, "bike_id": "26e1b32a02487aef62b5ca4406d7d760", "fusion_lat": 0.0}, {"lon": -76.9733015, "name": "c9803508a342c0b2b3c44bbd1d05c136", "is_disabled": 0, "type": "electric_scooter", "is_reserved": 0, "fusion_lon": 0.0, "lat": 38.904103666666664, "rental_uris": {"ios": "https://dc.lft.to/lastmile_qr_scan", "android": "https://dc.lft.to/lastmile_qr_scan"}, "bike_id": "c9803508a342c0b2b3c44bbd1d05c136", "fusion_lat": 0.0}, {"lon": -76.98374866666667, "name": "507185ef59f2d1fab9992eabe1aa62ea", "is_disabled": 0, "type": "electric_scooter", "is_reserved": 0, "fusion_lon": 0.0, "lat": 38.86030683333333, "rental_uris": {"ios": "https://dc.lft.to/lastmile_qr_scan", "android": "https://dc.lft.to/lastmile_qr_scan"}, "bike_id": "507185ef59f2d1fab9992eabe1aa62ea", "fusion_lat": 0.0}, {"lon": -77.00535366666666, "name": "d2ca508b7c91a0cc211d4a012b7e7a11", "is_disabled": 0, "type": "electric_scooter", "is_reserved": 0, "fusion_lon": 0.0, "lat": 38.875476, "rental_uris": {"ios": "https://dc.lft.to/lastmile_qr_scan", "android": "https://dc.lft.to/lastmile_qr_scan"}, "bike_id": "d2ca508b7c91a0cc211d4a012b7e7a11", "fusion_lat": 0.0}, {"lon": -76.98236033333333, "name": "5503cf6002a3302c56636ab365b31c0f", "is_disabled": 0, "type": "electric_scooter", "is_reserved": 0, "fusion_lon": 0.0, "lat": 38.90476833333334, "rental_uris": {"ios": "https://dc.lft.to/lastmile_qr_scan", "android": "https://dc.lft.to/lastmile_qr_scan"}, "bike_id": "5503cf6002a3302c56636ab365b31c0f", "fusion_lat": 0.0}, {"lon": -77.00147533333333, "name": "540279996a360da28eae1e9165f2967b", "is_disabled": 0, "type": "electric_scooter", "is_reserved": 0, "fusion_lon": 0.0, "lat": 38.89471566666667, "rental_uris": {"ios": "https://dc.lft.to/lastmile_qr_scan", "android": "https://dc.lft.to/lastmile_qr_scan"}, "bike_id": "540279996a360da28eae1e9165f2967b", "fusion_lat": 0.0}, {"lon": -76.992232, "name": "2c1d14b84342f8724f0b60f6c22726d2", "is_disabled": 0, "type": "electric_scooter", "is_reserved": 0, "fusion_lon": 0.0, "lat": 38.89741183333334, "rental_uris": {"ios": "https://dc.lft.to/lastmile_qr_scan", "android": "https://dc.lft.to/lastmile_qr_scan"}, "bike_id": "2c1d14b84342f8724f0b60f6c22726d2", "fusion_lat": 0.0}, {"lon": -77.02263116666667, "name": "317f356f1eb68520e92cda6858b52efa", "is_disabled": 0, "type": "electric_scooter", "is_reserved": 0, "fusion_lon": 0.0, "lat": 38.9274385, "rental_uris": {"ios": "https://dc.lft.to/lastmile_qr_scan", "android": "https://dc.lft.to/lastmile_qr_scan"}, "bike_id": "317f356f1eb68520e92cda6858b52efa", "fusion_lat": 0.0}, {"lon": -77.03734883333334, "name": "8719d901298167c74def010cb482c3d5", "is_disabled": 0, "type": "electric_scooter", "is_reserved": 0, "fusion_lon": 0.0, "lat": 38.92855566666667, "rental_uris": {"ios": "https://dc.lft.to/lastmile_qr_scan", "android": "https://dc.lft.to/lastmile_qr_scan"}, "bike_id": "8719d901298167c74def010cb482c3d5", "fusion_lat": 0.0}, {"lon": -77.041558, "name": "4b00e66d37f204f6197a235fc728a2ed", "is_disabled": 0, "type": "electric_scooter", "is_reserved": 0, "fusion_lon": 0.0, "lat": 38.91593916666667, "rental_uris": {"ios": "https://dc.lft.to/lastmile_qr_scan", "android": "https://dc.lft.to/lastmile_qr_scan"}, "bike_id": "4b00e66d37f204f6197a235fc728a2ed", "fusion_lat": 0.0}, {"lon": -77.05484283333334, "name": "6b1921ea01bc58e4ed8afad4c34b1352", "is_disabled": 0, "type": "electric_scooter", "is_reserved": 0, "fusion_lon": 0.0, "lat": 38.90957383333333, "rental_uris": {"ios": "https://dc.lft.to/lastmile_qr_scan", "android": "https://dc.lft.to/lastmile_qr_scan"}, "bike_id": "6b1921ea01bc58e4ed8afad4c34b1352", "fusion_lat": 0.0}, {"lon": -77.04378666666666, "name": "90ca361b7f644d43c9766ce29453f890", "is_disabled": 0, "type": "electric_scooter", "is_reserved": 0, "fusion_lon": 0.0, "lat": 38.920702666666664, "rental_uris": {"ios": "https://dc.lft.to/lastmile_qr_scan", "android": "https://dc.lft.to/lastmile_qr_scan"}, "bike_id": "90ca361b7f644d43c9766ce29453f890", "fusion_lat": 0.0}, {"lon": -77.026079, "name": "856336805f97c0387b3caa70b3a7599c", "is_disabled": 0, "type": "electric_scooter", "is_reserved": 0, "fusion_lon": 0.0, "lat": 38.8836185, "rental_uris": {"ios": "https://dc.lft.to/lastmile_qr_scan", "android": "https://dc.lft.to/lastmile_qr_scan"}, "bike_id": "856336805f97c0387b3caa70b3a7599c", "fusion_lat": 0.0}, {"lon": -77.027862, "name": "f344878ecf52b929bb1379e56b6fbbeb", "is_disabled": 0, "type": "electric_scooter", "is_reserved": 0, "fusion_lon": 0.0, "lat": 38.92776833333333, "rental_uris": {"ios": "https://dc.lft.to/lastmile_qr_scan", "android": "https://dc.lft.to/lastmile_qr_scan"}, "bike_id": "f344878ecf52b929bb1379e56b6fbbeb", "fusion_lat": 0.0}, {"lon": -77.02196666666667, "name": "1fff487718d2eaf15d71987d941d904a", "is_disabled": 0, "type": "electric_scooter", "is_reserved": 0, "fusion_lon": 0.0, "lat": 38.90582916666666, "rental_uris": {"ios": "https://dc.lft.to/lastmile_qr_scan", "android": "https://dc.lft.to/lastmile_qr_scan"}, "bike_id": "1fff487718d2eaf15d71987d941d904a", "fusion_lat": 0.0}, {"lon": -77.05874783333333, "name": "2b0d851c0ac7d6f4b5d618ed16aac96b", "is_disabled": 0, "type": "electric_bike", "is_reserved": 0, "fusion_lon": 0.0, "lat": 38.827079499999996, "rental_uris": {"ios": "https://dc.lft.to/lastmile_qr_scan", "android": "https://dc.lft.to/lastmile_qr_scan"}, "bike_id": "2b0d851c0ac7d6f4b5d618ed16aac96b", "fusion_lat": 0.0}, {"lon": -77.02146666666667, "name": "5f2088ba486f3fd670e629f4ff51cc1c", "is_disabled": 0, "type": "electric_scooter", "is_reserved": 0, "fusion_lon": 0.0, "lat": 38.92368866666666, "rental_uris": {"ios": "https://dc.lft.to/lastmile_qr_scan", "android": "https://dc.lft.to/lastmile_qr_scan"}, "bike_id": "5f2088ba486f3fd670e629f4ff51cc1c", "fusion_lat": 0.0}, {"lon": -77.02823583333333, "name": "25253e540bfcf2e0d173c92e9e0b2f14", "is_disabled": 0, "type": "electric_scooter", "is_reserved": 0, "fusion_lon": 0.0, "lat": 38.90707483333333, "rental_uris": {"ios": "https://dc.lft.to/lastmile_qr_scan", "android": "https://dc.lft.to/lastmile_qr_scan"}, "bike_id": "25253e540bfcf2e0d173c92e9e0b2f14", "fusion_lat": 0.0}, {"lon": -77.04321383333334, "name": "179ff169765d6fa419c5e5f16d34bca3", "is_disabled": 0, "type": "electric_bike", "is_reserved": 0, "fusion_lon": 0.0, "lat": 39.0342395, "rental_uris": {"ios": "https://dc.lft.to/lastmile_qr_scan", "android": "https://dc.lft.to/lastmile_qr_scan"}, "bike_id": "179ff169765d6fa419c5e5f16d34bca3", "fusion_lat": 0.0}, {"lon": -77.01769183333333, "name": "9f0d731909c13e2d1a69e26f43223eaa", "is_disabled": 0, "type": "electric_scooter", "is_reserved": 0, "fusion_lon": 0.0, "lat": 38.88322133333333, "rental_uris": {"ios": "https://dc.lft.to/lastmile_qr_scan", "android": "https://dc.lft.to/lastmile_qr_scan"}, "bike_id": "9f0d731909c13e2d1a69e26f43223eaa", "fusion_lat": 0.0}, {"lon": -76.94665816666667, "name": "d1661455fa130741d5b93a5fa4ee553e", "is_disabled": 0, "type": "electric_scooter", "is_reserved": 0, "fusion_lon": 0.0, "lat": 38.8987055, "rental_uris": {"ios": "https://dc.lft.to/lastmile_qr_scan", "android": "https://dc.lft.to/lastmile_qr_scan"}, "bike_id": "d1661455fa130741d5b93a5fa4ee553e", "fusion_lat": 0.0}, {"lon": -77.0013455, "name": "4ed72309b7deb1ac73c9890b6be83cfb", "is_disabled": 0, "type": "electric_scooter", "is_reserved": 0, "fusion_lon": 0.0, "lat": 38.873763833333335, "rental_uris": {"ios": "https://dc.lft.to/lastmile_qr_scan", "android": "https://dc.lft.to/lastmile_qr_scan"}, "bike_id": "4ed72309b7deb1ac73c9890b6be83cfb", "fusion_lat": 0.0}, {"lon": -77.03946716666667, "name": "3da2d600b53038a7053e80390d79ec05", "is_disabled": 0, "type": "electric_scooter", "is_reserved": 0, "fusion_lon": 0.0, "lat": 38.898578, "rental_uris": {"ios": "https://dc.lft.to/lastmile_qr_scan", "android": "https://dc.lft.to/lastmile_qr_scan"}, "bike_id": "3da2d600b53038a7053e80390d79ec05", "fusion_lat": 0.0}, {"lon": -77.016122, "name": "9c7c25d33f3e4c65e13e22ff09ffdee8", "is_disabled": 0, "type": "electric_scooter", "is_reserved": 0, "fusion_lon": 0.0, "lat": 38.9058895, "rental_uris": {"ios": "https://dc.lft.to/lastmile_qr_scan", "android": "https://dc.lft.to/lastmile_qr_scan"}, "bike_id": "9c7c25d33f3e4c65e13e22ff09ffdee8", "fusion_lat": 0.0}, {"lon": -77.02617916666667, "name": "aa5ed06beecf27e7c55d01975c807380", "is_disabled": 0, "type": "electric_scooter", "is_reserved": 0, "fusion_lon": 0.0, "lat": 38.92029733333333, "rental_uris": {"ios": "https://dc.lft.to/lastmile_qr_scan", "android": "https://dc.lft.to/lastmile_qr_scan"}, "bike_id": "aa5ed06beecf27e7c55d01975c807380", "fusion_lat": 0.0}, {"lon": -77.06354433333334, "name": "86e852e0fe738e97a412bd7d7e695208", "is_disabled": 0, "type": "electric_scooter", "is_reserved": 0, "fusion_lon": 0.0, "lat": 38.906898166666664, "rental_uris": {"ios": "https://dc.lft.to/lastmile_qr_scan", "android": "https://dc.lft.to/lastmile_qr_scan"}, "bike_id": "86e852e0fe738e97a412bd7d7e695208", "fusion_lat": 0.0}, {"lon": -77.02194133333333, "name": "04fcf31511f427222980f883c48c72bd", "is_disabled": 0, "type": "electric_scooter", "is_reserved": 0, "fusion_lon": 0.0, "lat": 38.87787683333333, "rental_uris": {"ios": "https://dc.lft.to/lastmile_qr_scan", "android": "https://dc.lft.to/lastmile_qr_scan"}, "bike_id": "04fcf31511f427222980f883c48c72bd", "fusion_lat": 0.0}, {"lon": -77.04578183333334, "name": "ea40195fb66c88818a8e4845e0e2b567", "is_disabled": 0, "type": "electric_scooter", "is_reserved": 0, "fusion_lon": 0.0, "lat": 38.9213175, "rental_uris": {"ios": "https://dc.lft.to/lastmile_qr_scan", "android": "https://dc.lft.to/lastmile_qr_scan"}, "bike_id": "ea40195fb66c88818a8e4845e0e2b567", "fusion_lat": 0.0}, {"lon": -77.02708683333333, "name": "61fe4d4f70449f5cc120f1960aeb08a5", "is_disabled": 0, "type": "electric_scooter", "is_reserved": 0, "fusion_lon": 0.0, "lat": 38.925061666666664, "rental_uris": {"ios": "https://dc.lft.to/lastmile_qr_scan", "android": "https://dc.lft.to/lastmile_qr_scan"}, "bike_id": "61fe4d4f70449f5cc120f1960aeb08a5", "fusion_lat": 0.0}, {"lon": -77.02971216666667, "name": "c51b2ca6298f1c31d4e3d45316b3e03a", "is_disabled": 0, "type": "electric_scooter", "is_reserved": 0, "fusion_lon": 0.0, "lat": 38.9110195, "rental_uris": {"ios": "https://dc.lft.to/lastmile_qr_scan", "android": "https://dc.lft.to/lastmile_qr_scan"}, "bike_id": "c51b2ca6298f1c31d4e3d45316b3e03a", "fusion_lat": 0.0}, {"lon": -77.017085, "name": "ded752f0f4cc9603490557f243bef171", "is_disabled": 0, "type": "electric_scooter", "is_reserved": 0, "fusion_lon": 0.0, "lat": 38.887502833333336, "rental_uris": {"ios": "https://dc.lft.to/lastmile_qr_scan", "android": "https://dc.lft.to/lastmile_qr_scan"}, "bike_id": "ded752f0f4cc9603490557f243bef171", "fusion_lat": 0.0}, {"lon": -77.02216, "name": "3385892ba6ecea3b4ede9d4d16acf5e2", "is_disabled": 0, "type": "electric_scooter", "is_reserved": 0, "fusion_lon": 0.0, "lat": 38.92471533333333, "rental_uris": {"ios": "https://dc.lft.to/lastmile_qr_scan", "android": "https://dc.lft.to/lastmile_qr_scan"}, "bike_id": "3385892ba6ecea3b4ede9d4d16acf5e2", "fusion_lat": 0.0}, {"lon": -77.10338016666667, "name": "d54447fcf579f8280908474019cab261", "is_disabled": 0, "type": "electric_bike", "is_reserved": 0, "fusion_lon": 0.0, "lat": 38.83693, "rental_uris": {"ios": "https://dc.lft.to/lastmile_qr_scan", "android": "https://dc.lft.to/lastmile_qr_scan"}, "bike_id": "d54447fcf579f8280908474019cab261", "fusion_lat": 0.0}, {"lon": -76.98491316666667, "name": "738b36ca8dadc24747d27708b3c2fe84", "is_disabled": 0, "type": "electric_scooter", "is_reserved": 0, "fusion_lon": 0.0, "lat": 38.90367766666667, "rental_uris": {"ios": "https://dc.lft.to/lastmile_qr_scan", "android": "https://dc.lft.to/lastmile_qr_scan"}, "bike_id": "738b36ca8dadc24747d27708b3c2fe84", "fusion_lat": 0.0}, {"lon": -77.0199515, "name": "b255b5869c838d1f765a6dea8ae86073", "is_disabled": 0, "type": "electric_scooter", "is_reserved": 0, "fusion_lon": 0.0, "lat": 38.91189283333333, "rental_uris": {"ios": "https://dc.lft.to/lastmile_qr_scan", "android": "https://dc.lft.to/lastmile_qr_scan"}, "bike_id": "b255b5869c838d1f765a6dea8ae86073", "fusion_lat": 0.0}, {"lon": -77.00323633333333, "name": "3cdba756b062908772b8b01fdb717f85", "is_disabled": 0, "type": "electric_scooter", "is_reserved": 0, "fusion_lon": 0.0, "lat": 38.8612535, "rental_uris": {"ios": "https://dc.lft.to/lastmile_qr_scan", "android": "https://dc.lft.to/lastmile_qr_scan"}, "bike_id": "3cdba756b062908772b8b01fdb717f85", "fusion_lat": 0.0}, {"lon": -76.99763116666666, "name": "5656889f19a2a6fcc9de0aea9997a31c", "is_disabled": 0, "type": "electric_scooter", "is_reserved": 0, "fusion_lon": 0.0, "lat": 38.9005125, "rental_uris": {"ios": "https://dc.lft.to/lastmile_qr_scan", "android": "https://dc.lft.to/lastmile_qr_scan"}, "bike_id": "5656889f19a2a6fcc9de0aea9997a31c", "fusion_lat": 0.0}, {"lon": -76.98543666666667, "name": "3aaebdd5ef0711820c71f16ec3526057", "is_disabled": 0, "type": "electric_scooter", "is_reserved": 0, "fusion_lon": 0.0, "lat": 38.886093, "rental_uris": {"ios": "https://dc.lft.to/lastmile_qr_scan", "android": "https://dc.lft.to/lastmile_qr_scan"}, "bike_id": "3aaebdd5ef0711820c71f16ec3526057", "fusion_lat": 0.0}, {"lon": -77.03188216666666, "name": "1464c070cf4af767b8e849cd529c3e9f", "is_disabled": 0, "type": "electric_scooter", "is_reserved": 0, "fusion_lon": 0.0, "lat": 38.916042833333336, "rental_uris": {"ios": "https://dc.lft.to/lastmile_qr_scan", "android": "https://dc.lft.to/lastmile_qr_scan"}, "bike_id": "1464c070cf4af767b8e849cd529c3e9f", "fusion_lat": 0.0}, {"lon": -77.07241683333334, "name": "6b47a4e2cdf88b1c60adfab1bbc018b5", "is_disabled": 0, "type": "electric_scooter", "is_reserved": 0, "fusion_lon": 0.0, "lat": 38.921585666666665, "rental_uris": {"ios": "https://dc.lft.to/lastmile_qr_scan", "android": "https://dc.lft.to/lastmile_qr_scan"}, "bike_id": "6b47a4e2cdf88b1c60adfab1bbc018b5", "fusion_lat": 0.0}, {"lon": -77.0424125, "name": "47b0eb4580bac8c82d43902e7244dee0", "is_disabled": 0, "type": "electric_scooter", "is_reserved": 0, "fusion_lon": 0.0, "lat": 38.92164433333333, "rental_uris": {"ios": "https://dc.lft.to/lastmile_qr_scan", "android": "https://dc.lft.to/lastmile_qr_scan"}, "bike_id": "47b0eb4580bac8c82d43902e7244dee0", "fusion_lat": 0.0}, {"lon": -77.00929233333333, "name": "99166371900cd48ef3c371d5aa186f55", "is_disabled": 0, "type": "electric_scooter", "is_reserved": 0, "fusion_lon": 0.0, "lat": 38.89605066666667, "rental_uris": {"ios": "https://dc.lft.to/lastmile_qr_scan", "android": "https://dc.lft.to/lastmile_qr_scan"}, "bike_id": "99166371900cd48ef3c371d5aa186f55", "fusion_lat": 0.0}, {"lon": -77.03083316666667, "name": "fbf7be864859e78bb8a759d801b07dcb", "is_disabled": 0, "type": "electric_scooter", "is_reserved": 0, "fusion_lon": 0.0, "lat": 38.9225115, "rental_uris": {"ios": "https://dc.lft.to/lastmile_qr_scan", "android": "https://dc.lft.to/lastmile_qr_scan"}, "bike_id": "fbf7be864859e78bb8a759d801b07dcb", "fusion_lat": 0.0}, {"lon": -77.03205016666666, "name": "f04e4b845afc182b90537f64af48f21f", "is_disabled": 0, "type": "electric_scooter", "is_reserved": 0, "fusion_lon": 0.0, "lat": 38.896359333333336, "rental_uris": {"ios": "https://dc.lft.to/lastmile_qr_scan", "android": "https://dc.lft.to/lastmile_qr_scan"}, "bike_id": "f04e4b845afc182b90537f64af48f21f", "fusion_lat": 0.0}, {"lon": -77.0389135, "name": "699a28ab172aa9bc3ff9f00f2fc0900f", "is_disabled": 0, "type": "electric_scooter", "is_reserved": 0, "fusion_lon": 0.0, "lat": 38.92153366666667, "rental_uris": {"ios": "https://dc.lft.to/lastmile_qr_scan", "android": "https://dc.lft.to/lastmile_qr_scan"}, "bike_id": "699a28ab172aa9bc3ff9f00f2fc0900f", "fusion_lat": 0.0}, {"lon": -76.94569516666667, "name": "b06adbdd5282db4de26d484fd2f4eeef", "is_disabled": 0, "type": "electric_bike", "is_reserved": 0, "fusion_lon": 0.0, "lat": 38.866245166666666, "rental_uris": {"ios": "https://dc.lft.to/lastmile_qr_scan", "android": "https://dc.lft.to/lastmile_qr_scan"}, "bike_id": "b06adbdd5282db4de26d484fd2f4eeef", "fusion_lat": 0.0}, {"lon": -77.020907, "name": "76d67824fe6d4886816da1df10176c9f", "is_disabled": 0, "type": "electric_scooter", "is_reserved": 0, "fusion_lon": 0.0, "lat": 38.930131, "rental_uris": {"ios": "https://dc.lft.to/lastmile_qr_scan", "android": "https://dc.lft.to/lastmile_qr_scan"}, "bike_id": "76d67824fe6d4886816da1df10176c9f", "fusion_lat": 0.0}, {"lon": -77.0298615, "name": "5c20d95ae3cb218f2ef186417470224d", "is_disabled": 0, "type": "electric_scooter", "is_reserved": 0, "fusion_lon": 0.0, "lat": 38.924059, "rental_uris": {"ios": "https://dc.lft.to/lastmile_qr_scan", "android": "https://dc.lft.to/lastmile_qr_scan"}, "bike_id": "5c20d95ae3cb218f2ef186417470224d", "fusion_lat": 0.0}, {"lon": -77.0962615, "name": "2bae1cf1536d1b8d1b61d468f5a8ca9b", "is_disabled": 0, "type": "electric_bike", "is_reserved": 0, "fusion_lon": 0.0, "lat": 38.952512, "rental_uris": {"ios": "https://dc.lft.to/lastmile_qr_scan", "android": "https://dc.lft.to/lastmile_qr_scan"}, "bike_id": "2bae1cf1536d1b8d1b61d468f5a8ca9b", "fusion_lat": 0.0}, {"lon": -77.00220666666667, "name": "548b86d7d4661b26669b1d02d0ce77d9", "is_disabled": 0, "type": "electric_bike", "is_reserved": 0, "fusion_lon": 0.0, "lat": 38.93605066666667, "rental_uris": {"ios": "https://dc.lft.to/lastmile_qr_scan", "android": "https://dc.lft.to/lastmile_qr_scan"}, "bike_id": "548b86d7d4661b26669b1d02d0ce77d9", "fusion_lat": 0.0}, {"lon": -77.0356535, "name": "e68fe8bac7c213cffec2a18512a544b7", "is_disabled": 0, "type": "electric_bike", "is_reserved": 0, "fusion_lon": 0.0, "lat": 38.9646875, "rental_uris": {"ios": "https://dc.lft.to/lastmile_qr_scan", "android": "https://dc.lft.to/lastmile_qr_scan"}, "bike_id": "e68fe8bac7c213cffec2a18512a544b7", "fusion_lat": 0.0}, {"lon": -77.01444966666666, "name": "447d053c93c42c2914c641efce8c2467", "is_disabled": 0, "type": "electric_bike", "is_reserved": 0, "fusion_lon": 0.0, "lat": 38.87666566666667, "rental_uris": {"ios": "https://dc.lft.to/lastmile_qr_scan", "android": "https://dc.lft.to/lastmile_qr_scan"}, "bike_id": "447d053c93c42c2914c641efce8c2467", "fusion_lat": 0.0}, {"lon": -77.0076125, "name": "922b90c645cb0b495bcc3140261b0212", "is_disabled": 0, "type": "electric_bike", "is_reserved": 0, "fusion_lon": 0.0, "lat": 38.997832, "rental_uris": {"ios": "https://dc.lft.to/lastmile_qr_scan", "android": "https://dc.lft.to/lastmile_qr_scan"}, "bike_id": "922b90c645cb0b495bcc3140261b0212", "fusion_lat": 0.0}, {"lon": -77.02688466666666, "name": "8336f15290b59bebc91cc70198312aa6", "is_disabled": 0, "type": "electric_scooter", "is_reserved": 0, "fusion_lon": 0.0, "lat": 38.92581, "rental_uris": {"ios": "https://dc.lft.to/lastmile_qr_scan", "android": "https://dc.lft.to/lastmile_qr_scan"}, "bike_id": "8336f15290b59bebc91cc70198312aa6", "fusion_lat": 0.0}, {"lon": -77.047185, "name": "7342b0c1915be3c31f028fdd7a34a1a8", "is_disabled": 0, "type": "electric_scooter", "is_reserved": 0, "fusion_lon": 0.0, "lat": 38.89969133333334, "rental_uris": {"ios": "https://dc.lft.to/lastmile_qr_scan", "android": "https://dc.lft.to/lastmile_qr_scan"}, "bike_id": "7342b0c1915be3c31f028fdd7a34a1a8", "fusion_lat": 0.0}, {"lon": -77.02370766666667, "name": "715dc2f726193cd24090d1ec3f03296a", "is_disabled": 0, "type": "electric_scooter", "is_reserved": 0, "fusion_lon": 0.0, "lat": 38.94741033333333, "rental_uris": {"ios": "https://dc.lft.to/lastmile_qr_scan", "android": "https://dc.lft.to/lastmile_qr_scan"}, "bike_id": "715dc2f726193cd24090d1ec3f03296a", "fusion_lat": 0.0}, {"lon": -77.02794666666667, "name": "0b4411bd7d5387e6bd4b87b99c387b09", "is_disabled": 0, "type": "electric_scooter", "is_reserved": 0, "fusion_lon": 0.0, "lat": 38.930853, "rental_uris": {"ios": "https://dc.lft.to/lastmile_qr_scan", "android": "https://dc.lft.to/lastmile_qr_scan"}, "bike_id": "0b4411bd7d5387e6bd4b87b99c387b09", "fusion_lat": 0.0}, {"lon": -77.04020716666666, "name": "0efa9a735a9ac2254c24861c59b05b7f", "is_disabled": 0, "type": "electric_scooter", "is_reserved": 0, "fusion_lon": 0.0, "lat": 38.92168783333334, "rental_uris": {"ios": "https://dc.lft.to/lastmile_qr_scan", "android": "https://dc.lft.to/lastmile_qr_scan"}, "bike_id": "0efa9a735a9ac2254c24861c59b05b7f", "fusion_lat": 0.0}, {"lon": -77.00892433333334, "name": "6e5cfbb3123d392a90a87b234fc22e5b", "is_disabled": 0, "type": "electric_scooter", "is_reserved": 0, "fusion_lon": 0.0, "lat": 38.9095115, "rental_uris": {"ios": "https://dc.lft.to/lastmile_qr_scan", "android": "https://dc.lft.to/lastmile_qr_scan"}, "bike_id": "6e5cfbb3123d392a90a87b234fc22e5b", "fusion_lat": 0.0}, {"lon": -77.02752516666666, "name": "4e36579c56a7c2527cf594fd99db8115", "is_disabled": 0, "type": "electric_scooter", "is_reserved": 0, "fusion_lon": 0.0, "lat": 38.966494833333336, "rental_uris": {"ios": "https://dc.lft.to/lastmile_qr_scan", "android": "https://dc.lft.to/lastmile_qr_scan"}, "bike_id": "4e36579c56a7c2527cf594fd99db8115", "fusion_lat": 0.0}, {"lon": -77.04153333333333, "name": "6c0e11ae111fa446decec2c8dc788c09", "is_disabled": 0, "type": "electric_scooter", "is_reserved": 0, "fusion_lon": 0.0, "lat": 38.90053366666667, "rental_uris": {"ios": "https://dc.lft.to/lastmile_qr_scan", "android": "https://dc.lft.to/lastmile_qr_scan"}, "bike_id": "6c0e11ae111fa446decec2c8dc788c09", "fusion_lat": 0.0}, {"lon": -77.032853, "name": "9ede0bd98b8e743cc5a770a432760efd", "is_disabled": 0, "type": "electric_scooter", "is_reserved": 0, "fusion_lon": 0.0, "lat": 38.92067733333333, "rental_uris": {"ios": "https://dc.lft.to/lastmile_qr_scan", "android": "https://dc.lft.to/lastmile_qr_scan"}, "bike_id": "9ede0bd98b8e743cc5a770a432760efd", "fusion_lat": 0.0}, {"lon": -77.0358835, "name": "e6c3fdef0636643eb0f0aa078beb5b6f", "is_disabled": 0, "type": "electric_bike", "is_reserved": 0, "fusion_lon": 0.0, "lat": 38.992272666666665, "rental_uris": {"ios": "https://dc.lft.to/lastmile_qr_scan", "android": "https://dc.lft.to/lastmile_qr_scan"}, "bike_id": "e6c3fdef0636643eb0f0aa078beb5b6f", "fusion_lat": 0.0}, {"lon": -77.02363583333333, "name": "8ec0b0bc4a35591391ccd7e2182a3294", "is_disabled": 0, "type": "electric_scooter", "is_reserved": 0, "fusion_lon": 0.0, "lat": 38.908646166666664, "rental_uris": {"ios": "https://dc.lft.to/lastmile_qr_scan", "android": "https://dc.lft.to/lastmile_qr_scan"}, "bike_id": "8ec0b0bc4a35591391ccd7e2182a3294", "fusion_lat": 0.0}, {"lon": -76.99022666666667, "name": "bcd1a58aceac7e3c78c687fe7074af44", "is_disabled": 0, "type": "electric_scooter", "is_reserved": 0, "fusion_lon": 0.0, "lat": 38.86516616666667, "rental_uris": {"ios": "https://dc.lft.to/lastmile_qr_scan", "android": "https://dc.lft.to/lastmile_qr_scan"}, "bike_id": "bcd1a58aceac7e3c78c687fe7074af44", "fusion_lat": 0.0}, {"lon": -77.01380633333333, "name": "7a9c4f07855ed930191943a154331bae", "is_disabled": 0, "type": "electric_scooter", "is_reserved": 0, "fusion_lon": 0.0, "lat": 38.910412666666666, "rental_uris": {"ios": "https://dc.lft.to/lastmile_qr_scan", "android": "https://dc.lft.to/lastmile_qr_scan"}, "bike_id": "7a9c4f07855ed930191943a154331bae", "fusion_lat": 0.0}, {"lon": -77.00373783333333, "name": "e25f615569452225c5570907a2106283", "is_disabled": 0, "type": "electric_bike", "is_reserved": 0, "fusion_lon": 0.0, "lat": 38.8360625, "rental_uris": {"ios": "https://dc.lft.to/lastmile_qr_scan", "android": "https://dc.lft.to/lastmile_qr_scan"}, "bike_id": "e25f615569452225c5570907a2106283", "fusion_lat": 0.0}, {"lon": -76.990007, "name": "ddc0d3ddb2c035b01fad8661115226fd", "is_disabled": 0, "type": "electric_scooter", "is_reserved": 0, "fusion_lon": 0.0, "lat": 38.90392216666667, "rental_uris": {"ios": "https://dc.lft.to/lastmile_qr_scan", "android": "https://dc.lft.to/lastmile_qr_scan"}, "bike_id": "ddc0d3ddb2c035b01fad8661115226fd", "fusion_lat": 0.0}, {"lon": -77.04504466666667, "name": "0c98dbf57e86a21befcc70794cf7a579", "is_disabled": 0, "type": "electric_scooter", "is_reserved": 0, "fusion_lon": 0.0, "lat": 38.912737166666666, "rental_uris": {"ios": "https://dc.lft.to/lastmile_qr_scan", "android": "https://dc.lft.to/lastmile_qr_scan"}, "bike_id": "0c98dbf57e86a21befcc70794cf7a579", "fusion_lat": 0.0}, {"lon": -76.92583883333333, "name": "f6ef9f4639159c0f9a4898affa4e0cd3", "is_disabled": 0, "type": "electric_scooter", "is_reserved": 0, "fusion_lon": 0.0, "lat": 38.89725966666666, "rental_uris": {"ios": "https://dc.lft.to/lastmile_qr_scan", "android": "https://dc.lft.to/lastmile_qr_scan"}, "bike_id": "f6ef9f4639159c0f9a4898affa4e0cd3", "fusion_lat": 0.0}, {"lon": -76.93737233333333, "name": "4518c7c4c57f6d83addf18c8daa5aa38", "is_disabled": 0, "type": "electric_scooter", "is_reserved": 0, "fusion_lon": 0.0, "lat": 38.890183, "rental_uris": {"ios": "https://dc.lft.to/lastmile_qr_scan", "android": "https://dc.lft.to/lastmile_qr_scan"}, "bike_id": "4518c7c4c57f6d83addf18c8daa5aa38", "fusion_lat": 0.0}, {"lon": -77.02711683333334, "name": "d6de5048daef603257702bec38c8c070", "is_disabled": 0, "type": "electric_scooter", "is_reserved": 0, "fusion_lon": 0.0, "lat": 38.927770333333335, "rental_uris": {"ios": "https://dc.lft.to/lastmile_qr_scan", "android": "https://dc.lft.to/lastmile_qr_scan"}, "bike_id": "d6de5048daef603257702bec38c8c070", "fusion_lat": 0.0}, {"lon": -77.04135583333333, "name": "ad3e5187692d4f7fa51fec157a427fd0", "is_disabled": 0, "type": "electric_scooter", "is_reserved": 0, "fusion_lon": 0.0, "lat": 38.900298, "rental_uris": {"ios": "https://dc.lft.to/lastmile_qr_scan", "android": "https://dc.lft.to/lastmile_qr_scan"}, "bike_id": "ad3e5187692d4f7fa51fec157a427fd0", "fusion_lat": 0.0}, {"lon": -77.0267955, "name": "051a9940d8fada5ef70154d7b683a6e4", "is_disabled": 0, "type": "electric_scooter", "is_reserved": 0, "fusion_lon": 0.0, "lat": 38.89758116666667, "rental_uris": {"ios": "https://dc.lft.to/lastmile_qr_scan", "android": "https://dc.lft.to/lastmile_qr_scan"}, "bike_id": "051a9940d8fada5ef70154d7b683a6e4", "fusion_lat": 0.0}, {"lon": -77.0110105, "name": "b45125f7e2e016385de504fa4d19ff61", "is_disabled": 0, "type": "electric_scooter", "is_reserved": 0, "fusion_lon": 0.0, "lat": 38.9036735, "rental_uris": {"ios": "https://dc.lft.to/lastmile_qr_scan", "android": "https://dc.lft.to/lastmile_qr_scan"}, "bike_id": "b45125f7e2e016385de504fa4d19ff61", "fusion_lat": 0.0}, {"lon": -77.027258, "name": "815037c1d57eebf298bef3d66238229f", "is_disabled": 0, "type": "electric_bike", "is_reserved": 0, "fusion_lon": 0.0, "lat": 38.97156016666667, "rental_uris": {"ios": "https://dc.lft.to/lastmile_qr_scan", "android": "https://dc.lft.to/lastmile_qr_scan"}, "bike_id": "815037c1d57eebf298bef3d66238229f", "fusion_lat": 0.0}, {"lon": -77.028459, "name": "620fdbfd946b8704755c392ed7964602", "is_disabled": 0, "type": "electric_scooter", "is_reserved": 0, "fusion_lon": 0.0, "lat": 38.927621333333335, "rental_uris": {"ios": "https://dc.lft.to/lastmile_qr_scan", "android": "https://dc.lft.to/lastmile_qr_scan"}, "bike_id": "620fdbfd946b8704755c392ed7964602", "fusion_lat": 0.0}, {"lon": -77.03209616666666, "name": "daf73f4cb318c8b3079de63129be3f19", "is_disabled": 0, "type": "electric_scooter", "is_reserved": 0, "fusion_lon": 0.0, "lat": 38.91734833333334, "rental_uris": {"ios": "https://dc.lft.to/lastmile_qr_scan", "android": "https://dc.lft.to/lastmile_qr_scan"}, "bike_id": "daf73f4cb318c8b3079de63129be3f19", "fusion_lat": 0.0}, {"lon": -77.0399775, "name": "e0193ccdc528e097c86191965c2971db", "is_disabled": 0, "type": "electric_scooter", "is_reserved": 0, "fusion_lon": 0.0, "lat": 38.914176166666664, "rental_uris": {"ios": "https://dc.lft.to/lastmile_qr_scan", "android": "https://dc.lft.to/lastmile_qr_scan"}, "bike_id": "e0193ccdc528e097c86191965c2971db", "fusion_lat": 0.0}, {"lon": -77.02665283333333, "name": "082175f89a55e617d95eef34f49672f9", "is_disabled": 0, "type": "electric_scooter", "is_reserved": 0, "fusion_lon": 0.0, "lat": 38.930993, "rental_uris": {"ios": "https://dc.lft.to/lastmile_qr_scan", "android": "https://dc.lft.to/lastmile_qr_scan"}, "bike_id": "082175f89a55e617d95eef34f49672f9", "fusion_lat": 0.0}, {"lon": -77.03343083333333, "name": "3bd29210a21fb82afe8d3b92c576a3e6", "is_disabled": 0, "type": "electric_scooter", "is_reserved": 0, "fusion_lon": 0.0, "lat": 38.919213666666664, "rental_uris": {"ios": "https://dc.lft.to/lastmile_qr_scan", "android": "https://dc.lft.to/lastmile_qr_scan"}, "bike_id": "3bd29210a21fb82afe8d3b92c576a3e6", "fusion_lat": 0.0}, {"lon": -76.995187, "name": "93fbaf8cfbeba7c1a60b0b86f2548a1e", "is_disabled": 0, "type": "electric_scooter", "is_reserved": 0, "fusion_lon": 0.0, "lat": 38.9026505, "rental_uris": {"ios": "https://dc.lft.to/lastmile_qr_scan", "android": "https://dc.lft.to/lastmile_qr_scan"}, "bike_id": "93fbaf8cfbeba7c1a60b0b86f2548a1e", "fusion_lat": 0.0}, {"lon": -77.04038383333334, "name": "d5ea53c33a3f02946e0dd3903944738a", "is_disabled": 0, "type": "electric_scooter", "is_reserved": 0, "fusion_lon": 0.0, "lat": 38.904043333333334, "rental_uris": {"ios": "https://dc.lft.to/lastmile_qr_scan", "android": "https://dc.lft.to/lastmile_qr_scan"}, "bike_id": "d5ea53c33a3f02946e0dd3903944738a", "fusion_lat": 0.0}, {"lon": -77.09050066666667, "name": "cebc63ec5b8a5750096fe575b4fec36f", "is_disabled": 0, "type": "electric_scooter", "is_reserved": 0, "fusion_lon": 0.0, "lat": 38.91761283333334, "rental_uris": {"ios": "https://dc.lft.to/lastmile_qr_scan", "android": "https://dc.lft.to/lastmile_qr_scan"}, "bike_id": "cebc63ec5b8a5750096fe575b4fec36f", "fusion_lat": 0.0}, {"lon": -77.02207616666666, "name": "4ea616c3062268652f75080d2f527c80", "is_disabled": 0, "type": "electric_scooter", "is_reserved": 0, "fusion_lon": 0.0, "lat": 38.905687666666665, "rental_uris": {"ios": "https://dc.lft.to/lastmile_qr_scan", "android": "https://dc.lft.to/lastmile_qr_scan"}, "bike_id": "4ea616c3062268652f75080d2f527c80", "fusion_lat": 0.0}, {"lon": -76.97748, "name": "0bbf93a893b4d84a26f72d118b3fb58d", "is_disabled": 0, "type": "electric_bike", "is_reserved": 0, "fusion_lon": 0.0, "lat": 38.86494866666666, "rental_uris": {"ios": "https://dc.lft.to/lastmile_qr_scan", "android": "https://dc.lft.to/lastmile_qr_scan"}, "bike_id": "0bbf93a893b4d84a26f72d118b3fb58d", "fusion_lat": 0.0}, {"lon": -76.99151, "name": "ca100675ffb65643fabae3b93aa98237", "is_disabled": 0, "type": "electric_scooter", "is_reserved": 0, "fusion_lon": 0.0, "lat": 38.891633, "rental_uris": {"ios": "https://dc.lft.to/lastmile_qr_scan", "android": "https://dc.lft.to/lastmile_qr_scan"}, "bike_id": "ca100675ffb65643fabae3b93aa98237", "fusion_lat": 0.0}, {"lon": -77.04620866666667, "name": "7ca586560e8c421bc7337acaff8e9550", "is_disabled": 0, "type": "electric_scooter", "is_reserved": 0, "fusion_lon": 0.0, "lat": 38.91617633333333, "rental_uris": {"ios": "https://dc.lft.to/lastmile_qr_scan", "android": "https://dc.lft.to/lastmile_qr_scan"}, "bike_id": "7ca586560e8c421bc7337acaff8e9550", "fusion_lat": 0.0}, {"lon": -77.01836733333333, "name": "2795ae1ec27ca7e508b78e178f72deab", "is_disabled": 0, "type": "electric_scooter", "is_reserved": 0, "fusion_lon": 0.0, "lat": 38.908639, "rental_uris": {"ios": "https://dc.lft.to/lastmile_qr_scan", "android": "https://dc.lft.to/lastmile_qr_scan"}, "bike_id": "2795ae1ec27ca7e508b78e178f72deab", "fusion_lat": 0.0}, {"lon": -77.00140966666666, "name": "5e53e7c728a8742ba6c24f2a5fdbb6f7", "is_disabled": 0, "type": "electric_scooter", "is_reserved": 0, "fusion_lon": 0.0, "lat": 38.8843415, "rental_uris": {"ios": "https://dc.lft.to/lastmile_qr_scan", "android": "https://dc.lft.to/lastmile_qr_scan"}, "bike_id": "5e53e7c728a8742ba6c24f2a5fdbb6f7", "fusion_lat": 0.0}, {"lon": -76.98098516666667, "name": "7ab2225fe0973e5f0acb8e76a5f4528a", "is_disabled": 0, "type": "electric_bike", "is_reserved": 0, "fusion_lon": 0.0, "lat": 38.953571, "rental_uris": {"ios": "https://dc.lft.to/lastmile_qr_scan", "android": "https://dc.lft.to/lastmile_qr_scan"}, "bike_id": "7ab2225fe0973e5f0acb8e76a5f4528a", "fusion_lat": 0.0}, {"lon": -77.05729516666666, "name": "3d36ce79b28300ebc238645d249dfc30", "is_disabled": 0, "type": "electric_scooter", "is_reserved": 0, "fusion_lon": 0.0, "lat": 38.93349083333333, "rental_uris": {"ios": "https://dc.lft.to/lastmile_qr_scan", "android": "https://dc.lft.to/lastmile_qr_scan"}, "bike_id": "3d36ce79b28300ebc238645d249dfc30", "fusion_lat": 0.0}, {"lon": -77.01853416666667, "name": "4d51c8a02f5a3f42f019f96d76da8db6", "is_disabled": 0, "type": "electric_scooter", "is_reserved": 0, "fusion_lon": 0.0, "lat": 38.874618166666664, "rental_uris": {"ios": "https://dc.lft.to/lastmile_qr_scan", "android": "https://dc.lft.to/lastmile_qr_scan"}, "bike_id": "4d51c8a02f5a3f42f019f96d76da8db6", "fusion_lat": 0.0}, {"lon": -77.04009783333333, "name": "0507bacf805fa1b9a2f2588cf0bf219a", "is_disabled": 0, "type": "electric_scooter", "is_reserved": 0, "fusion_lon": 0.0, "lat": 38.90998483333333, "rental_uris": {"ios": "https://dc.lft.to/lastmile_qr_scan", "android": "https://dc.lft.to/lastmile_qr_scan"}, "bike_id": "0507bacf805fa1b9a2f2588cf0bf219a", "fusion_lat": 0.0}, {"lon": -77.03911466666666, "name": "7dcd9ca51648098a44b6ec9e1037be2b", "is_disabled": 0, "type": "electric_scooter", "is_reserved": 0, "fusion_lon": 0.0, "lat": 38.898483166666665, "rental_uris": {"ios": "https://dc.lft.to/lastmile_qr_scan", "android": "https://dc.lft.to/lastmile_qr_scan"}, "bike_id": "7dcd9ca51648098a44b6ec9e1037be2b", "fusion_lat": 0.0}, {"lon": -77.03185766666667, "name": "1e90478292cccbef857233caec3de5d6", "is_disabled": 0, "type": "electric_scooter", "is_reserved": 0, "fusion_lon": 0.0, "lat": 38.8924075, "rental_uris": {"ios": "https://dc.lft.to/lastmile_qr_scan", "android": "https://dc.lft.to/lastmile_qr_scan"}, "bike_id": "1e90478292cccbef857233caec3de5d6", "fusion_lat": 0.0}, {"lon": -77.036594, "name": "e663b809b379e19a62229e8b77ebfd04", "is_disabled": 0, "type": "electric_scooter", "is_reserved": 0, "fusion_lon": 0.0, "lat": 38.9321565, "rental_uris": {"ios": "https://dc.lft.to/lastmile_qr_scan", "android": "https://dc.lft.to/lastmile_qr_scan"}, "bike_id": "e663b809b379e19a62229e8b77ebfd04", "fusion_lat": 0.0}, {"lon": -77.0239135, "name": "d57cc07bd4eb1232625269ba85a6a9a9", "is_disabled": 0, "type": "electric_scooter", "is_reserved": 0, "fusion_lon": 0.0, "lat": 38.9270445, "rental_uris": {"ios": "https://dc.lft.to/lastmile_qr_scan", "android": "https://dc.lft.to/lastmile_qr_scan"}, "bike_id": "d57cc07bd4eb1232625269ba85a6a9a9", "fusion_lat": 0.0}, {"lon": -77.027796, "name": "594392a24d61a285aae6f236138db632", "is_disabled": 0, "type": "electric_scooter", "is_reserved": 0, "fusion_lon": 0.0, "lat": 38.89875083333333, "rental_uris": {"ios": "https://dc.lft.to/lastmile_qr_scan", "android": "https://dc.lft.to/lastmile_qr_scan"}, "bike_id": "594392a24d61a285aae6f236138db632", "fusion_lat": 0.0}, {"lon": -77.01086966666666, "name": "537c50ff8e3966bf2d659a915e57e19d", "is_disabled": 0, "type": "electric_scooter", "is_reserved": 0, "fusion_lon": 0.0, "lat": 38.90329633333333, "rental_uris": {"ios": "https://dc.lft.to/lastmile_qr_scan", "android": "https://dc.lft.to/lastmile_qr_scan"}, "bike_id": "537c50ff8e3966bf2d659a915e57e19d", "fusion_lat": 0.0}, {"lon": -76.98169033333333, "name": "62f6f311b0734d2412e576325d4efe89", "is_disabled": 0, "type": "electric_bike", "is_reserved": 0, "fusion_lon": 0.0, "lat": 38.92596016666667, "rental_uris": {"ios": "https://dc.lft.to/lastmile_qr_scan", "android": "https://dc.lft.to/lastmile_qr_scan"}, "bike_id": "62f6f311b0734d2412e576325d4efe89", "fusion_lat": 0.0}, {"lon": -77.005029, "name": "8511eece288285fb9a84332b9145fd78", "is_disabled": 0, "type": "electric_scooter", "is_reserved": 0, "fusion_lon": 0.0, "lat": 38.9058045, "rental_uris": {"ios": "https://dc.lft.to/lastmile_qr_scan", "android": "https://dc.lft.to/lastmile_qr_scan"}, "bike_id": "8511eece288285fb9a84332b9145fd78", "fusion_lat": 0.0}, {"lon": -77.031998, "name": "c017835e8e51563778a1c9d1466f1c26", "is_disabled": 0, "type": "electric_scooter", "is_reserved": 0, "fusion_lon": 0.0, "lat": 38.91632166666667, "rental_uris": {"ios": "https://dc.lft.to/lastmile_qr_scan", "android": "https://dc.lft.to/lastmile_qr_scan"}, "bike_id": "c017835e8e51563778a1c9d1466f1c26", "fusion_lat": 0.0}, {"lon": -77.08172733333333, "name": "83be25035212d8dedfa0dc16c853010c", "is_disabled": 0, "type": "electric_bike", "is_reserved": 0, "fusion_lon": 0.0, "lat": 38.90779466666667, "rental_uris": {"ios": "https://dc.lft.to/lastmile_qr_scan", "android": "https://dc.lft.to/lastmile_qr_scan"}, "bike_id": "83be25035212d8dedfa0dc16c853010c", "fusion_lat": 0.0}, {"lon": -77.009863, "name": "d04639c8c783b224711574206de31666", "is_disabled": 0, "type": "electric_scooter", "is_reserved": 0, "fusion_lon": 0.0, "lat": 38.914069833333336, "rental_uris": {"ios": "https://dc.lft.to/lastmile_qr_scan", "android": "https://dc.lft.to/lastmile_qr_scan"}, "bike_id": "d04639c8c783b224711574206de31666", "fusion_lat": 0.0}, {"lon": -76.9956325, "name": "b85223f2c5dd3b20a7fd51f2d2a4a546", "is_disabled": 0, "type": "electric_scooter", "is_reserved": 0, "fusion_lon": 0.0, "lat": 38.950687, "rental_uris": {"ios": "https://dc.lft.to/lastmile_qr_scan", "android": "https://dc.lft.to/lastmile_qr_scan"}, "bike_id": "b85223f2c5dd3b20a7fd51f2d2a4a546", "fusion_lat": 0.0}, {"lon": -77.0232105, "name": "48747997a4f46d94be0ff4b8c0502fc9", "is_disabled": 0, "type": "electric_scooter", "is_reserved": 0, "fusion_lon": 0.0, "lat": 38.9399105, "rental_uris": {"ios": "https://dc.lft.to/lastmile_qr_scan", "android": "https://dc.lft.to/lastmile_qr_scan"}, "bike_id": "48747997a4f46d94be0ff4b8c0502fc9", "fusion_lat": 0.0}, {"lon": -77.03173333333334, "name": "c3c7acf9e2d177b913794bbb8012ac2b", "is_disabled": 0, "type": "electric_scooter", "is_reserved": 0, "fusion_lon": 0.0, "lat": 38.883897166666664, "rental_uris": {"ios": "https://dc.lft.to/lastmile_qr_scan", "android": "https://dc.lft.to/lastmile_qr_scan"}, "bike_id": "c3c7acf9e2d177b913794bbb8012ac2b", "fusion_lat": 0.0}, {"lon": -77.03813566666666, "name": "1c569a8d02b90a2b4a82c429a6f76e0e", "is_disabled": 0, "type": "electric_scooter", "is_reserved": 0, "fusion_lon": 0.0, "lat": 38.925602166666664, "rental_uris": {"ios": "https://dc.lft.to/lastmile_qr_scan", "android": "https://dc.lft.to/lastmile_qr_scan"}, "bike_id": "1c569a8d02b90a2b4a82c429a6f76e0e", "fusion_lat": 0.0},