{"data": {"bikes": [{"is_reserved": 0, "fusion_lon": 0.0, "fusion_lat": 0.0, "name": "b775c3514858717e52ca1955e3ded82d", "type": "electric_scooter", "is_disabled": 0, "lat": 38.919317666666664, "rental_uris": {"android": "https://dc.lft.to/lastmile_qr_scan", "ios": "https://dc.lft.to/lastmile_qr_scan"}, "bike_id": "b775c3514858717e52ca1955e3ded82d", "lon": -77.04498433333333}, {"is_reserved": 0, "fusion_lon": 0.0, "fusion_lat": 0.0, "name": "6f43aea863eea1ebb8e0b18f0ebeadfa", "type": "electric_scooter", "is_disabled": 0, "lat": 38.924603833333336, "rental_uris": {"android": "https://dc.lft.to/lastmile_qr_scan", "ios": "https://dc.lft.to/lastmile_qr_scan"}, "bike_id": "6f43aea863eea1ebb8e0b18f0ebeadfa", "lon": -77.032858}, {"is_reserved": 0, "fusion_lon": 0.0, "fusion_lat": 0.0, "name": "bc13fa85e3d500e92dd1daf6982daf65", "type": "electric_scooter", "is_disabled": 0, "lat": 38.90974966666667, "rental_uris": {"android": "https://dc.lft.to/lastmile_qr_scan", "ios": "https://dc.lft.to/lastmile_qr_scan"}, "bike_id": "bc13fa85e3d500e92dd1daf6982daf65", "lon": -77.034105}, {"is_reserved": 0, "fusion_lon": 0.0, "fusion_lat": 0.0, "name": "c0987fbec215c1551a59aa81b7621e1d", "type": "electric_scooter", "is_disabled": 0, "lat": 38.921555833333336, "rental_uris": {"android": "https://dc.lft.to/lastmile_qr_scan", "ios": "https://dc.lft.to/lastmile_qr_scan"}, "bike_id": "c0987fbec215c1551a59aa81b7621e1d", "lon": -77.02103916666667}, {"is_reserved": 0, "fusion_lon": 0.0, "fusion_lat": 0.0, "name": "9b5f004d484f5aa289af92d132097b6a", "type": "electric_scooter", "is_disabled": 0, "lat": 38.914666833333335, "rental_uris": {"android": "https://dc.lft.to/lastmile_qr_scan", "ios": "https://dc.lft.to/lastmile_qr_scan"}, "bike_id": "9b5f004d484f5aa289af92d132097b6a", "lon": -77.021054}, {"is_reserved": 0, "fusion_lon": 0.0, "fusion_lat": 0.0, "name": "5ab10f15f5647ad7433e4b81f69b7ffc", "type": "electric_scooter", "is_disabled": 0, "lat": 38.891532, "rental_uris": {"android": "https://dc.lft.to/lastmile_qr_scan", "ios": "https://dc.lft.to/lastmile_qr_scan"}, "bike_id": "5ab10f15f5647ad7433e4b81f69b7ffc", "lon": -76.98379616666666}, {"is_reserved": 0, "fusion_lon": 0.0, "fusion_lat": 0.0, "name": "4d58a666e8dd0f892490aea6a3b0a143", "type": "electric_scooter", "is_disabled": 0, "lat": 38.920146, "rental_uris": {"android": "https://dc.lft.to/lastmile_qr_scan", "ios": "https://dc.lft.to/lastmile_qr_scan"}, "bike_id": "4d58a666e8dd0f892490aea6a3b0a143", "lon": -77.0347265}, {"is_reserved": 0, "fusion_lon": 0.0, "fusion_lat": 0.0, "name": "1e187e7b16940a676ebdeab8dae4f5f3", "type": "electric_scooter", "is_disabled": 0, "lat": 38.87169033333333, "rental_uris": {"android": "https://dc.lft.to/lastmile_qr_scan", "ios": "https://dc.lft.to/lastmile_qr_scan"}, "bike_id": "1e187e7b16940a676ebdeab8dae4f5f3", "lon": -76.97749616666667}, {"is_reserved": 0, "fusion_lon": 0.0, "fusion_lat": 0.0, "name": "b8ae40dfaae9f26bdbd990fdc9ccbe12", "type": "electric_scooter", "is_disabled": 0, "lat": 38.9180375, "rental_uris": {"android": "https://dc.lft.to/lastmile_qr_scan", "ios": "https://dc.lft.to/lastmile_qr_scan"}, "bike_id": "b8ae40dfaae9f26bdbd990fdc9ccbe12", "lon": -77.02496183333334}, {"is_reserved": 0, "fusion_lon": 0.0, "fusion_lat": 0.0, "name": "e779b635cd716cef19eb83001b9cdcb9", "type": "electric_scooter", "is_disabled": 0, "lat": 38.91721916666667, "rental_uris": {"android": "https://dc.lft.to/lastmile_qr_scan", "ios": "https://dc.lft.to/lastmile_qr_scan"}, "bike_id": "e779b635cd716cef19eb83001b9cdcb9", "lon": -77.0366245}, {"is_reserved": 0, "fusion_lon": 0.0, "fusion_lat": 0.0, "name": "706bb0c9af8c4b3f604da436652940cf", "type": "electric_scooter", "is_disabled": 0, "lat": 38.900876833333335, "rental_uris": {"android": "https://dc.lft.to/lastmile_qr_scan", "ios": "https://dc.lft.to/lastmile_qr_scan"}, "bike_id": "706bb0c9af8c4b3f604da436652940cf", "lon": -77.04870766666667}, {"is_reserved": 0, "fusion_lon": 0.0, "fusion_lat": 0.0, "name": "ddb3684206b9af6c5ad25710e1781eb3", "type": "electric_scooter", "is_disabled": 0, "lat": 38.90502216666667, "rental_uris": {"android": "https://dc.lft.to/lastmile_qr_scan", "ios": "https://dc.lft.to/lastmile_qr_scan"}, "bike_id": "ddb3684206b9af6c5ad25710e1781eb3", "lon": -77.043565}, {"is_reserved": 0, "fusion_lon": 0.0, "fusion_lat": 0.0, "name": "9f61379b5a29fb4ce8adbdff08df46d7", "type": "electric_scooter", "is_disabled": 0, "lat": 38.921814166666664, "rental_uris": {"android": "https://dc.lft.to/lastmile_qr_scan", "ios": "https://dc.lft.to/lastmile_qr_scan"}, "bike_id": "9f61379b5a29fb4ce8adbdff08df46d7", "lon": -77.02657416666666}, {"is_reserved": 0, "fusion_lon": 0.0, "fusion_lat": 0.0, "name": "561c9031129487529eb978e07e8967fc", "type": "electric_scooter", "is_disabled": 0, "lat": 38.876637, "rental_uris": {"android": "https://dc.lft.to/lastmile_qr_scan", "ios": "https://dc.lft.to/lastmile_qr_scan"}, "bike_id": "561c9031129487529eb978e07e8967fc", "lon": -77.0194515}, {"is_reserved": 0, "fusion_lon": 0.0, "fusion_lat": 0.0, "name": "f768a097135b6d1846e9bd1d1b8be84d", "type": "electric_scooter", "is_disabled": 0, "lat": 38.905079666666666, "rental_uris": {"android": "https://dc.lft.to/lastmile_qr_scan", "ios": "https://dc.lft.to/lastmile_qr_scan"}, "bike_id": "f768a097135b6d1846e9bd1d1b8be84d", "lon": -77.0464815}, {"is_reserved": 0, "fusion_lon": 0.0, "fusion_lat": 0.0, "name": "ee0c25435ce537514f5e2d5d3a6023eb", "type": "electric_scooter", "is_disabled": 0, "lat": 38.902819, "rental_uris": {"android": "https://dc.lft.to/lastmile_qr_scan", "ios": "https://dc.lft.to/lastmile_qr_scan"}, "bike_id": "ee0c25435ce537514f5e2d5d3a6023eb", "lon": -77.017847}, {"is_reserved": 0, "fusion_lon": 0.0, "fusion_lat": 0.0, "name": "d09249b0b70927b6ad189fe33527d046", "type": "electric_bike", "is_disabled": 0, "lat": 38.969634166666665, "rental_uris": {"android": "https://dc.lft.to/lastmile_qr_scan", "ios": "https://dc.lft.to/lastmile_qr_scan"}, "bike_id": "d09249b0b70927b6ad189fe33527d046", "lon": -76.9575005}, {"is_reserved": 0, "fusion_lon": 0.0, "fusion_lat": 0.0, "name": "d9c6beba82b43d0278c8382cafde1f5e", "type": "electric_bike", "is_disabled": 0, "lat": 38.9381055, "rental_uris": {"android": "https://dc.lft.to/lastmile_qr_scan", "ios": "https://dc.lft.to/lastmile_qr_scan"}, "bike_id": "d9c6beba82b43d0278c8382cafde1f5e", "lon": -77.0685465}, {"is_reserved": 0, "fusion_lon": 0.0, "fusion_lat": 0.0, "name": "32bb5ce1cd63a39564d437aa2b4afa9e", "type": "electric_scooter", "is_disabled": 0, "lat": 38.92848733333334, "rental_uris": {"android": "https://dc.lft.to/lastmile_qr_scan", "ios": "https://dc.lft.to/lastmile_qr_scan"}, "bike_id": "32bb5ce1cd63a39564d437aa2b4afa9e", "lon": -76.995978}, {"is_reserved": 0, "fusion_lon": 0.0, "fusion_lat": 0.0, "name": "d5ceae6fa8076253bf44869c2f7bfbb7", "type": "electric_scooter", "is_disabled": 0, "lat": 38.899997, "rental_uris": {"android": "https://dc.lft.to/lastmile_qr_scan", "ios": "https://dc.lft.to/lastmile_qr_scan"}, "bike_id": "d5ceae6fa8076253bf44869c2f7bfbb7", "lon": -77.006492}, {"is_reserved": 0, "fusion_lon": 0.0, "fusion_lat": 0.0, "name": "811b559231e4072af7e67e5ee6f4ef1d", "type": "electric_scooter", "is_disabled": 0, "lat": 38.90282283333333, "rental_uris": {"android": "https://dc.lft.to/lastmile_qr_scan", "ios": "https://dc.lft.to/lastmile_qr_scan"}, "bike_id": "811b559231e4072af7e67e5ee6f4ef1d", "lon": -77.03914266666666}, {"is_reserved": 0, "fusion_lon": 0.0, "fusion_lat": 0.0, "name": "6a2286acc279a8923643719b3be6dd2c", "type": "electric_scooter", "is_disabled": 0, "lat": 38.935224, "rental_uris": {"android": "https://dc.lft.to/lastmile_qr_scan", "ios": "https://dc.lft.to/lastmile_qr_scan"}, "bike_id": "6a2286acc279a8923643719b3be6dd2c", "lon": -77.03288116666667}, {"is_reserved": 0, "fusion_lon": 0.0, "fusion_lat": 0.0, "name": "45b8e835dc2725743dc1dc4f098f41e9", "type": "electric_scooter", "is_disabled": 0, "lat": 38.89866166666667, "rental_uris": {"android": "https://dc.lft.to/lastmile_qr_scan", "ios": "https://dc.lft.to/lastmile_qr_scan"}, "bike_id": "45b8e835dc2725743dc1dc4f098f41e9", "lon": -77.01383816666667}, {"is_reserved": 0, "fusion_lon": 0.0, "fusion_lat": 0.0, "name": "b8565bfdcbbf8d7f24c4ee60acf4b919", "type": "electric_scooter", "is_disabled": 0, "lat": 38.9194555, "rental_uris": {"android": "https://dc.lft.to/lastmile_qr_scan", "ios": "https://dc.lft.to/lastmile_qr_scan"}, "bike_id": "b8565bfdcbbf8d7f24c4ee60acf4b919", "lon": -77.013799}, {"is_reserved": 0, "fusion_lon": 0.0, "fusion_lat": 0.0, "name": "817521d67005e74e5ac221520b1465d6", "type": "electric_scooter", "is_disabled": 0, "lat": 38.923984833333336, "rental_uris": {"android": "https://dc.lft.to/lastmile_qr_scan", "ios": "https://dc.lft.to/lastmile_qr_scan"}, "bike_id": "817521d67005e74e5ac221520b1465d6", "lon": -77.0271145}, {"is_reserved": 0, "fusion_lon": 0.0, "fusion_lat": 0.0, "name": "5914be382e539439f73aeaef6d29e107", "type": "electric_scooter", "is_disabled": 0, "lat": 38.9181905, "rental_uris": {"android": "https://dc.lft.to/lastmile_qr_scan", "ios": "https://dc.lft.to/lastmile_qr_scan"}, "bike_id": "5914be382e539439f73aeaef6d29e107", "lon": -77.032548}, {"is_reserved": 0, "fusion_lon": 0.0, "fusion_lat": 0.0, "name": "58be650f5925d5681eaaf8c2cca1cb96", "type": "electric_scooter", "is_disabled": 0, "lat": 38.870786, "rental_uris": {"android": "https://dc.lft.to/lastmile_qr_scan", "ios": "https://dc.lft.to/lastmile_qr_scan"}, "bike_id": "58be650f5925d5681eaaf8c2cca1cb96", "lon": -76.98913716666667}, {"is_reserved": 0, "fusion_lon": 0.0, "fusion_lat": 0.0, "name": "87a6cf8159fb5f9768b7d3b38d7157a4", "type": "electric_scooter", "is_disabled": 0, "lat": 38.89227283333334, "rental_uris": {"android": "https://dc.lft.to/lastmile_qr_scan", "ios": "https://dc.lft.to/lastmile_qr_scan"}, "bike_id": "87a6cf8159fb5f9768b7d3b38d7157a4", "lon": -77.02333616666667}, {"is_reserved": 0, "fusion_lon": 0.0, "fusion_lat": 0.0, "name": "5cb60d0eb3b2a7e62d6f70b1026f7100", "type": "electric_scooter", "is_disabled": 0, "lat": 38.916934166666664, "rental_uris": {"android": "https://dc.lft.to/lastmile_qr_scan", "ios": "https://dc.lft.to/lastmile_qr_scan"}, "bike_id": "5cb60d0eb3b2a7e62d6f70b1026f7100", "lon": -77.02285416666666}, {"is_reserved": 0, "fusion_lon": 0.0, "fusion_lat": 0.0, "name": "a693838773fb4a660d2a412c6b257cec", "type": "electric_scooter", "is_disabled": 0, "lat": 38.915546, "rental_uris": {"android": "https://dc.lft.to/lastmile_qr_scan", "ios": "https://dc.lft.to/lastmile_qr_scan"}, "bike_id": "a693838773fb4a660d2a412c6b257cec", "lon": -77.03809183333334}, {"is_reserved": 0, "fusion_lon": 0.0, "fusion_lat": 0.0, "name": "86290cb70b268e5f73e3375cd4b62133", "type": "electric_scooter", "is_disabled": 0, "lat": 38.911957666666666, "rental_uris": {"android": "https://dc.lft.to/lastmile_qr_scan", "ios": "https://dc.lft.to/lastmile_qr_scan"}, "bike_id": "86290cb70b268e5f73e3375cd4b62133", "lon": -77.03458633333334}, {"is_reserved": 0, "fusion_lon": 0.0, "fusion_lat": 0.0, "name": "80194142d1bc14e3acfdd5709220789c", "type": "electric_scooter", "is_disabled": 0, "lat": 38.92442033333333, "rental_uris": {"android": "https://dc.lft.to/lastmile_qr_scan", "ios": "https://dc.lft.to/lastmile_qr_scan"}, "bike_id": "80194142d1bc14e3acfdd5709220789c", "lon": -77.03404966666666}, {"is_reserved": 0, "fusion_lon": 0.0, "fusion_lat": 0.0, "name": "d8f65cd5353738cfbf6d6e9743f159c5", "type": "electric_scooter", "is_disabled": 0, "lat": 38.910185166666665, "rental_uris": {"android": "https://dc.lft.to/lastmile_qr_scan", "ios": "https://dc.lft.to/lastmile_qr_scan"}, "bike_id": "d8f65cd5353738cfbf6d6e9743f159c5", "lon": -77.06488533333334}, {"is_reserved": 0, "fusion_lon": 0.0, "fusion_lat": 0.0, "name": "9f1646479e68a910907e5b6eb2f9ec77", "type": "electric_scooter", "is_disabled": 0, "lat": 38.924211666666665, "rental_uris": {"android": "https://dc.lft.to/lastmile_qr_scan", "ios": "https://dc.lft.to/lastmile_qr_scan"}, "bike_id": "9f1646479e68a910907e5b6eb2f9ec77", "lon": -77.03546733333333}, {"is_reserved": 0, "fusion_lon": 0.0, "fusion_lat": 0.0, "name": "e0477cb8f6b374726d14d1b7f5057712", "type": "electric_scooter", "is_disabled": 0, "lat": 38.918359833333334, "rental_uris": {"android": "https://dc.lft.to/lastmile_qr_scan", "ios": "https://dc.lft.to/lastmile_qr_scan"}, "bike_id": "e0477cb8f6b374726d14d1b7f5057712", "lon": -77.0246565}, {"is_reserved": 0, "fusion_lon": 0.0, "fusion_lat": 0.0, "name": "e4c38ee56c3059d773c749f22ced7607", "type": "electric_scooter", "is_disabled": 0, "lat": 38.914205333333335, "rental_uris": {"android": "https://dc.lft.to/lastmile_qr_scan", "ios": "https://dc.lft.to/lastmile_qr_scan"}, "bike_id": "e4c38ee56c3059d773c749f22ced7607", "lon": -77.02151216666667}, {"is_reserved": 0, "fusion_lon": 0.0, "fusion_lat": 0.0, "name": "14132995cbdf1775aada1ec0ee78c191", "type": "electric_scooter", "is_disabled": 0, "lat": 38.89549516666666, "rental_uris": {"android": "https://dc.lft.to/lastmile_qr_scan", "ios": "https://dc.lft.to/lastmile_qr_scan"}, "bike_id": "14132995cbdf1775aada1ec0ee78c191", "lon": -77.02783166666667}, {"is_reserved": 0, "fusion_lon": 0.0, "fusion_lat": 0.0, "name": "83d15d7c26980289449ef0d4741b6228", "type": "electric_scooter", "is_disabled": 0, "lat": 38.90785666666667, "rental_uris": {"android": "https://dc.lft.to/lastmile_qr_scan", "ios": "https://dc.lft.to/lastmile_qr_scan"}, "bike_id": "83d15d7c26980289449ef0d4741b6228", "lon": -77.03440666666667}, {"is_reserved": 0, "fusion_lon": 0.0, "fusion_lat": 0.0, "name": "03748af83128454f5e23eed8a030430d", "type": "electric_scooter", "is_disabled": 0, "lat": 38.90008316666667, "rental_uris": {"android": "https://dc.lft.to/lastmile_qr_scan", "ios": "https://dc.lft.to/lastmile_qr_scan"}, "bike_id": "03748af83128454f5e23eed8a030430d", "lon": -76.99835066666667}, {"is_reserved": 0, "fusion_lon": 0.0, "fusion_lat": 0.0, "name": "85369c130ba26cb911cd683e72ee0d3d", "type": "electric_scooter", "is_disabled": 0, "lat": 38.92579283333333, "rental_uris": {"android": "https://dc.lft.to/lastmile_qr_scan", "ios": "https://dc.lft.to/lastmile_qr_scan"}, "bike_id": "85369c130ba26cb911cd683e72ee0d3d", "lon": -77.05255766666667}, {"is_reserved": 0, "fusion_lon": 0.0, "fusion_lat": 0.0, "name": "45f985589c39bedf6c08be6d667255ac", "type": "electric_scooter", "is_disabled": 0, "lat": 38.908010166666664, "rental_uris": {"android": "https://dc.lft.to/lastmile_qr_scan", "ios": "https://dc.lft.to/lastmile_qr_scan"}, "bike_id": "45f985589c39bedf6c08be6d667255ac", "lon": -77.04332616666667}, {"is_reserved": 0, "fusion_lon": 0.0, "fusion_lat": 0.0, "name": "17237a6a38dbf847abcadec43bc806a8", "type": "electric_scooter", "is_disabled": 0, "lat": 38.90030333333333, "rental_uris": {"android": "https://dc.lft.to/lastmile_qr_scan", "ios": "https://dc.lft.to/lastmile_qr_scan"}, "bike_id": "17237a6a38dbf847abcadec43bc806a8", "lon": -76.98857066666666}, {"is_reserved": 0, "fusion_lon": 0.0, "fusion_lat": 0.0, "name": "a44302de300affb07f15c00e5473bc7a", "type": "electric_scooter", "is_disabled": 0, "lat": 38.904488666666666, "rental_uris": {"android": "https://dc.lft.to/lastmile_qr_scan", "ios": "https://dc.lft.to/lastmile_qr_scan"}, "bike_id": "a44302de300affb07f15c00e5473bc7a", "lon": -76.996211}, {"is_reserved": 0, "fusion_lon": 0.0, "fusion_lat": 0.0, "name": "0677a14b4f6e0e109f3819761150363c", "type": "electric_scooter", "is_disabled": 0, "lat": 38.93017183333333, "rental_uris": {"android": "https://dc.lft.to/lastmile_qr_scan", "ios": "https://dc.lft.to/lastmile_qr_scan"}, "bike_id": "0677a14b4f6e0e109f3819761150363c", "lon": -77.06087583333333}, {"is_reserved": 0, "fusion_lon": 0.0, "fusion_lat": 0.0, "name": "3ead354e25c8d85158a13ab9d331ebf3", "type": "electric_scooter", "is_disabled": 0, "lat": 38.971204166666666, "rental_uris": {"android": "https://dc.lft.to/lastmile_qr_scan", "ios": "https://dc.lft.to/lastmile_qr_scan"}, "bike_id": "3ead354e25c8d85158a13ab9d331ebf3", "lon": -77.01682516666666}, {"is_reserved": 0, "fusion_lon": 0.0, "fusion_lat": 0.0, "name": "9a8ebc200dbccfa98737b80a6051b4a6", "type": "electric_bike", "is_disabled": 0, "lat": 38.857703, "rental_uris": {"android": "https://dc.lft.to/lastmile_qr_scan", "ios": "https://dc.lft.to/lastmile_qr_scan"}, "bike_id": "9a8ebc200dbccfa98737b80a6051b4a6", "lon": -76.98764983333334}, {"is_reserved": 0, "fusion_lon": 0.0, "fusion_lat": 0.0, "name": "d43fb0b11041d84a2a8a1c3633cba961", "type": "electric_bike", "is_disabled": 0, "lat": 38.83810866666666, "rental_uris": {"android": "https://dc.lft.to/lastmile_qr_scan", "ios": "https://dc.lft.to/lastmile_qr_scan"}, "bike_id": "d43fb0b11041d84a2a8a1c3633cba961", "lon": -77.09523416666667}, {"is_reserved": 0, "fusion_lon": 0.0, "fusion_lat": 0.0, "name": "8c5eb6d36bdb2117249fba67527196c6", "type": "electric_scooter", "is_disabled": 0, "lat": 38.941779, "rental_uris": {"android": "https://dc.lft.to/lastmile_qr_scan", "ios": "https://dc.lft.to/lastmile_qr_scan"}, "bike_id": "8c5eb6d36bdb2117249fba67527196c6", "lon": -77.02557366666667}, {"is_reserved": 0, "fusion_lon": 0.0, "fusion_lat": 0.0, "name": "360dc004d32601004998909fdb228fe0", "type": "electric_scooter", "is_disabled": 0, "lat": 38.866701166666665, "rental_uris": {"android": "https://dc.lft.to/lastmile_qr_scan", "ios": "https://dc.lft.to/lastmile_qr_scan"}, "bike_id": "360dc004d32601004998909fdb228fe0", "lon": -76.98524783333333}, {"is_reserved": 0, "fusion_lon": 0.0, "fusion_lat": 0.0, "name": "aeb74cb6a85f21289c811d4bac9e4ea5", "type": "electric_scooter", "is_disabled": 0, "lat": 38.898919166666666, "rental_uris": {"android": "https://dc.lft.to/lastmile_qr_scan", "ios": "https://dc.lft.to/lastmile_qr_scan"}, "bike_id": "aeb74cb6a85f21289c811d4bac9e4ea5", "lon": -76.97720516666666}, {"is_reserved": 0, "fusion_lon": 0.0, "fusion_lat": 0.0, "name": "dbb8a8b5a8fa93365fadf394942a9631", "type": "electric_scooter", "is_disabled": 0, "lat": 38.9499165, "rental_uris": {"android": "https://dc.lft.to/lastmile_qr_scan", "ios": "https://dc.lft.to/lastmile_qr_scan"}, "bike_id": "dbb8a8b5a8fa93365fadf394942a9631", "lon": -77.027002}, {"is_reserved": 0, "fusion_lon": 0.0, "fusion_lat": 0.0, "name": "73774073df5a4ea1fb27c346a7ca31f0", "type": "electric_scooter", "is_disabled": 0, "lat": 38.904490333333335, "rental_uris": {"android": "https://dc.lft.to/lastmile_qr_scan", "ios": "https://dc.lft.to/lastmile_qr_scan"}, "bike_id": "73774073df5a4ea1fb27c346a7ca31f0", "lon": -77.01723166666666}, {"is_reserved": 0, "fusion_lon": 0.0, "fusion_lat": 0.0, "name": "233d5d81fa4aef0db82000bb3bf4644d", "type": "electric_scooter", "is_disabled": 0, "lat": 38.91818683333333, "rental_uris": {"android": "https://dc.lft.to/lastmile_qr_scan", "ios": "https://dc.lft.to/lastmile_qr_scan"}, "bike_id": "233d5d81fa4aef0db82000bb3bf4644d", "lon": -77.0345395}, {"is_reserved": 0, "fusion_lon": 0.0, "fusion_lat": 0.0, "name": "43917c9698a9b9451cf877636475e01a", "type": "electric_scooter", "is_disabled": 0, "lat": 38.931014, "rental_uris": {"android": "https://dc.lft.to/lastmile_qr_scan", "ios": "https://dc.lft.to/lastmile_qr_scan"}, "bike_id": "43917c9698a9b9451cf877636475e01a", "lon": -77.026651}, {"is_reserved": 0, "fusion_lon": 0.0, "fusion_lat": 0.0, "name": "4a8d71d81effc0815814289bb49d9932", "type": "electric_scooter", "is_disabled": 0, "lat": 38.903829333333334, "rental_uris": {"android": "https://dc.lft.to/lastmile_qr_scan", "ios": "https://dc.lft.to/lastmile_qr_scan"}, "bike_id": "4a8d71d81effc0815814289bb49d9932", "lon": -77.03017766666666}, {"is_reserved": 0, "fusion_lon": 0.0, "fusion_lat": 0.0, "name": "0cac7f49d44dab3035c6ccfe83b2efd8", "type": "electric_scooter", "is_disabled": 0, "lat": 38.897534666666665, "rental_uris": {"android": "https://dc.lft.to/lastmile_qr_scan", "ios": "https://dc.lft.to/lastmile_qr_scan"}, "bike_id": "0cac7f49d44dab3035c6ccfe83b2efd8", "lon": -77.03341283333333}, {"is_reserved": 0, "fusion_lon": 0.0, "fusion_lat": 0.0, "name": "865fa3be0ebb90b22444f39944c85ee9", "type": "electric_scooter", "is_disabled": 0, "lat": 38.905029666666664, "rental_uris": {"android": "https://dc.lft.to/lastmile_qr_scan", "ios": "https://dc.lft.to/lastmile_qr_scan"}, "bike_id": "865fa3be0ebb90b22444f39944c85ee9", "lon": -76.97430583333333}, {"is_reserved": 0, "fusion_lon": 0.0, "fusion_lat": 0.0, "name": "951a1b24d9c4e08b947f8d426a760a7f", "type": "electric_bike", "is_disabled": 0, "lat": 38.896183666666666, "rental_uris": {"android": "https://dc.lft.to/lastmile_qr_scan", "ios": "https://dc.lft.to/lastmile_qr_scan"}, "bike_id": "951a1b24d9c4e08b947f8d426a760a7f", "lon": -76.9074295}, {"is_reserved": 0, "fusion_lon": 0.0, "fusion_lat": 0.0, "name": "375ea1777d6529a6c7eea013559580c7", "type": "electric_scooter", "is_disabled": 0, "lat": 38.897293, "rental_uris": {"android": "https://dc.lft.to/lastmile_qr_scan", "ios": "https://dc.lft.to/lastmile_qr_scan"}, "bike_id": "375ea1777d6529a6c7eea013559580c7", "lon": -77.05571483333334}, {"is_reserved": 0, "fusion_lon": 0.0, "fusion_lat": 0.0, "name": "ea209e7c16775ca6c6c4f97af6d24380", "type": "electric_scooter", "is_disabled": 0, "lat": 38.93317616666667, "rental_uris": {"android": "https://dc.lft.to/lastmile_qr_scan", "ios": "https://dc.lft.to/lastmile_qr_scan"}, "bike_id": "ea209e7c16775ca6c6c4f97af6d24380", "lon": -77.034276}, {"is_reserved": 0, "fusion_lon": 0.0, "fusion_lat": 0.0, "name": "35f0df69360b1b192ba8dd31fb1cf97e", "type": "electric_scooter", "is_disabled": 0, "lat": 38.885403833333335, "rental_uris": {"android": "https://dc.lft.to/lastmile_qr_scan", "ios": "https://dc.lft.to/lastmile_qr_scan"}, "bike_id": "35f0df69360b1b192ba8dd31fb1cf97e", "lon": -76.982655}, {"is_reserved": 0, "fusion_lon": 0.0, "fusion_lat": 0.0, "name": "a470933eeff234da75eb8da4a887283d", "type": "electric_scooter", "is_disabled": 0, "lat": 38.8793855, "rental_uris": {"android": "https://dc.lft.to/lastmile_qr_scan", "ios": "https://dc.lft.to/lastmile_qr_scan"}, "bike_id": "a470933eeff234da75eb8da4a887283d", "lon": -77.00703616666667}, {"is_reserved": 0, "fusion_lon": 0.0, "fusion_lat": 0.0, "name": "fae525b46f2da385f1896407892d5118", "type": "electric_scooter", "is_disabled": 0, "lat": 38.926751833333334, "rental_uris": {"android": "https://dc.lft.to/lastmile_qr_scan", "ios": "https://dc.lft.to/lastmile_qr_scan"}, "bike_id": "fae525b46f2da385f1896407892d5118", "lon": -77.04348933333333}, {"is_reserved": 0, "fusion_lon": 0.0, "fusion_lat": 0.0, "name": "e38f91bce147bd00453e404cea7f6459", "type": "electric_bike", "is_disabled": 0, "lat": 38.896607333333336, "rental_uris": {"android": "https://dc.lft.to/lastmile_qr_scan", "ios": "https://dc.lft.to/lastmile_qr_scan"}, "bike_id": "e38f91bce147bd00453e404cea7f6459", "lon": -76.93008383333333}, {"is_reserved": 0, "fusion_lon": 0.0, "fusion_lat": 0.0, "name": "169c81b699b3d34d12d42d40791fd1c5", "type": "electric_bike", "is_disabled": 0, "lat": 38.90329233333333, "rental_uris": {"android": "https://dc.lft.to/lastmile_qr_scan", "ios": "https://dc.lft.to/lastmile_qr_scan"}, "bike_id": "169c81b699b3d34d12d42d40791fd1c5", "lon": -76.97533333333334}, {"is_reserved": 0, "fusion_lon": 0.0, "fusion_lat": 0.0, "name": "70b132adc9c57707b7510e7cb3eed5c7", "type": "electric_bike", "is_disabled": 0, "lat": 38.96741216666667, "rental_uris": {"android": "https://dc.lft.to/lastmile_qr_scan", "ios": "https://dc.lft.to/lastmile_qr_scan"}, "bike_id": "70b132adc9c57707b7510e7cb3eed5c7", "lon": -76.96039416666666}, {"is_reserved": 0, "fusion_lon": 0.0, "fusion_lat": 0.0, "name": "7e12f9a45ede80956afb1699e4b290bd", "type": "electric_scooter", "is_disabled": 0, "lat": 38.91766416666667, "rental_uris": {"android": "https://dc.lft.to/lastmile_qr_scan", "ios": "https://dc.lft.to/lastmile_qr_scan"}, "bike_id": "7e12f9a45ede80956afb1699e4b290bd", "lon": -77.03637066666667}, {"is_reserved": 0, "fusion_lon": 0.0, "fusion_lat": 0.0, "name": "9a3de39333182012ed9974c1895fa6ab", "type": "electric_scooter", "is_disabled": 0, "lat": 38.92008116666667, "rental_uris": {"android": "https://dc.lft.to/lastmile_qr_scan", "ios": "https://dc.lft.to/lastmile_qr_scan"}, "bike_id": "9a3de39333182012ed9974c1895fa6ab", "lon": -77.04170083333334}, {"is_reserved": 0, "fusion_lon": 0.0, "fusion_lat": 0.0, "name": "ddbce4f0f2ea8a61834a1fc531512ad6", "type": "electric_scooter", "is_disabled": 0, "lat": 38.92234783333333, "rental_uris": {"android": "https://dc.lft.to/lastmile_qr_scan", "ios": "https://dc.lft.to/lastmile_qr_scan"}, "bike_id": "ddbce4f0f2ea8a61834a1fc531512ad6", "lon": -77.01831316666667}, {"is_reserved": 0, "fusion_lon": 0.0, "fusion_lat": 0.0, "name": "83d4610403047dc88f8ca9b724264270", "type": "electric_scooter", "is_disabled": 0, "lat": 38.88607783333333, "rental_uris": {"android": "https://dc.lft.to/lastmile_qr_scan", "ios": "https://dc.lft.to/lastmile_qr_scan"}, "bike_id": "83d4610403047dc88f8ca9b724264270", "lon": -76.995111}, {"is_reserved": 0, "fusion_lon": 0.0, "fusion_lat": 0.0, "name": "ef50de16a7b86b7183d1154b6dff1d61", "type": "electric_scooter", "is_disabled": 0, "lat": 38.93296816666667, "rental_uris": {"android": "https://dc.lft.to/lastmile_qr_scan", "ios": "https://dc.lft.to/lastmile_qr_scan"}, "bike_id": "ef50de16a7b86b7183d1154b6dff1d61", "lon": -77.02188816666667}, {"is_reserved": 0, "fusion_lon": 0.0, "fusion_lat": 0.0, "name": "bf4dbfaaa0c34bc07b8a0cb7c17fbd84", "type": "electric_scooter", "is_disabled": 0, "lat": 38.89732983333333, "rental_uris": {"android": "https://dc.lft.to/lastmile_qr_scan", "ios": "https://dc.lft.to/lastmile_qr_scan"}, "bike_id": "bf4dbfaaa0c34bc07b8a0cb7c17fbd84", "lon": -77.05521866666666}, {"is_reserved": 0, "fusion_lon": 0.0, "fusion_lat": 0.0, "name": "f41608dcb543dc76f0a51bb9d5184c7a", "type": "electric_scooter", "is_disabled": 0, "lat": 38.951531833333334, "rental_uris": {"android": "https://dc.lft.to/lastmile_qr_scan", "ios": "https://dc.lft.to/lastmile_qr_scan"}, "bike_id": "f41608dcb543dc76f0a51bb9d5184c7a", "lon": -77.01861016666666}, {"is_reserved": 0, "fusion_lon": 0.0, "fusion_lat": 0.0, "name": "92736ca57c99c246dcac3fd7327660f5", "type": "electric_scooter", "is_disabled": 0, "lat": 38.935332833333334, "rental_uris": {"android": "https://dc.lft.to/lastmile_qr_scan", "ios": "https://dc.lft.to/lastmile_qr_scan"}, "bike_id": "92736ca57c99c246dcac3fd7327660f5", "lon": -77.023487}, {"is_reserved": 0, "fusion_lon": 0.0, "fusion_lat": 0.0, "name": "b33aed072997a9ed19309531bcb75003", "type": "electric_scooter", "is_disabled": 0, "lat": 38.942614666666664, "rental_uris": {"android": "https://dc.lft.to/lastmile_qr_scan", "ios": "https://dc.lft.to/lastmile_qr_scan"}, "bike_id": "b33aed072997a9ed19309531bcb75003", "lon": -77.02841166666667}, {"is_reserved": 0, "fusion_lon": 0.0, "fusion_lat": 0.0, "name": "2c3d11c613807ede9db90d1e540b5f53", "type": "electric_scooter", "is_disabled": 0, "lat": 38.922204666666666, "rental_uris": {"android": "https://dc.lft.to/lastmile_qr_scan", "ios": "https://dc.lft.to/lastmile_qr_scan"}, "bike_id": "2c3d11c613807ede9db90d1e540b5f53", "lon": -77.03735516666667}, {"is_reserved": 0, "fusion_lon": 0.0, "fusion_lat": 0.0, "name": "e70026b9017f391762425b03bbeb8db7", "type": "electric_scooter", "is_disabled": 0, "lat": 38.8861485, "rental_uris": {"android": "https://dc.lft.to/lastmile_qr_scan", "ios": "https://dc.lft.to/lastmile_qr_scan"}, "bike_id": "e70026b9017f391762425b03bbeb8db7", "lon": -76.9965515}, {"is_reserved": 0, "fusion_lon": 0.0, "fusion_lat": 0.0, "name": "161cedaf03643fd594f57c20fda49ed5", "type": "electric_scooter", "is_disabled": 0, "lat": 38.913435666666665, "rental_uris": {"android": "https://dc.lft.to/lastmile_qr_scan", "ios": "https://dc.lft.to/lastmile_qr_scan"}, "bike_id": "161cedaf03643fd594f57c20fda49ed5", "lon": -77.01028583333333}, {"is_reserved": 0, "fusion_lon": 0.0, "fusion_lat": 0.0, "name": "8060fd821aae41731131b6d9214fead4", "type": "electric_scooter", "is_disabled": 0, "lat": 38.905814666666664, "rental_uris": {"android": "https://dc.lft.to/lastmile_qr_scan", "ios": "https://dc.lft.to/lastmile_qr_scan"}, "bike_id": "8060fd821aae41731131b6d9214fead4", "lon": -77.02393583333334}, {"is_reserved": 0, "fusion_lon": 0.0, "fusion_lat": 0.0, "name": "b26fa83b7a7a00af537f524344340593", "type": "electric_scooter", "is_disabled": 0, "lat": 38.90684866666667, "rental_uris": {"android": "https://dc.lft.to/lastmile_qr_scan", "ios": "https://dc.lft.to/lastmile_qr_scan"}, "bike_id": "b26fa83b7a7a00af537f524344340593", "lon": -76.98667683333333}, {"is_reserved": 0, "fusion_lon": 0.0, "fusion_lat": 0.0, "name": "88a6f68d35d0ae36325f9aadb01e2f6f", "type": "electric_scooter", "is_disabled": 0, "lat": 38.91683866666666, "rental_uris": {"android": "https://dc.lft.to/lastmile_qr_scan", "ios": "https://dc.lft.to/lastmile_qr_scan"}, "bike_id": "88a6f68d35d0ae36325f9aadb01e2f6f", "lon": -77.02938833333333}, {"is_reserved": 0, "fusion_lon": 0.0, "fusion_lat": 0.0, "name": "da7eeb2b20cc4951a7483783f55364ce", "type": "electric_scooter", "is_disabled": 0, "lat": 38.9216025, "rental_uris": {"android": "https://dc.lft.to/lastmile_qr_scan", "ios": "https://dc.lft.to/lastmile_qr_scan"}, "bike_id": "da7eeb2b20cc4951a7483783f55364ce", "lon": -77.02043166666667}, {"is_reserved": 0, "fusion_lon": 0.0, "fusion_lat": 0.0, "name": "70dbc8cf42a9af2d6c4decf651b05bf1", "type": "electric_scooter", "is_disabled": 0, "lat": 38.90583216666667, "rental_uris": {"android": "https://dc.lft.to/lastmile_qr_scan", "ios": "https://dc.lft.to/lastmile_qr_scan"}, "bike_id": "70dbc8cf42a9af2d6c4decf651b05bf1", "lon": -77.02407333333333}, {"is_reserved": 0, "fusion_lon": 0.0, "fusion_lat": 0.0, "name": "fedce8ef87b850ff7d354214898548ed", "type": "electric_scooter", "is_disabled": 0, "lat": 38.918687166666665, "rental_uris": {"android": "https://dc.lft.to/lastmile_qr_scan", "ios": "https://dc.lft.to/lastmile_qr_scan"}, "bike_id": "fedce8ef87b850ff7d354214898548ed", "lon": -77.02550166666667}, {"is_reserved": 0, "fusion_lon": 0.0, "fusion_lat": 0.0, "name": "ece5bae13f8d7f18eceb9453abd0ba96", "type": "electric_scooter", "is_disabled": 0, "lat": 38.93492783333333, "rental_uris": {"android": "https://dc.lft.to/lastmile_qr_scan", "ios": "https://dc.lft.to/lastmile_qr_scan"}, "bike_id": "ece5bae13f8d7f18eceb9453abd0ba96", "lon": -77.03657183333333}, {"is_reserved": 0, "fusion_lon": 0.0, "fusion_lat": 0.0, "name": "1c885a9bd45a100aeccf40ff870a02bf", "type": "electric_scooter", "is_disabled": 0, "lat": 38.923166, "rental_uris": {"android": "https://dc.lft.to/lastmile_qr_scan", "ios": "https://dc.lft.to/lastmile_qr_scan"}, "bike_id": "1c885a9bd45a100aeccf40ff870a02bf", "lon": -77.04346516666666}, {"is_reserved": 0, "fusion_lon": 0.0, "fusion_lat": 0.0, "name": "c2d804df70a087fb6e1cbd5a7e0667aa", "type": "electric_scooter", "is_disabled": 0, "lat": 38.917750833333336, "rental_uris": {"android": "https://dc.lft.to/lastmile_qr_scan", "ios": "https://dc.lft.to/lastmile_qr_scan"}, "bike_id": "c2d804df70a087fb6e1cbd5a7e0667aa", "lon": -77.02313716666667}, {"is_reserved": 0, "fusion_lon": 0.0, "fusion_lat": 0.0, "name": "18f7b497981ddcd8b8f1a9a8d762e1d1", "type": "electric_bike", "is_disabled": 0, "lat": 38.94555833333333, "rental_uris": {"android": "https://dc.lft.to/lastmile_qr_scan", "ios": "https://dc.lft.to/lastmile_qr_scan"}, "bike_id": "18f7b497981ddcd8b8f1a9a8d762e1d1", "lon": -76.89538316666666}, {"is_reserved": 0, "fusion_lon": 0.0, "fusion_lat": 0.0, "name": "621065391ca149c3dc7bc84876235f3c", "type": "electric_bike", "is_disabled": 0, "lat": 38.90563066666667, "rental_uris": {"android": "https://dc.lft.to/lastmile_qr_scan", "ios": "https://dc.lft.to/lastmile_qr_scan"}, "bike_id": "621065391ca149c3dc7bc84876235f3c", "lon": -77.0628825}, {"is_reserved": 0, "fusion_lon": 0.0, "fusion_lat": 0.0, "name": "4017b32ca23646b61fc56566c2d2a6b0", "type": "electric_scooter", "is_disabled": 0, "lat": 38.88282933333333, "rental_uris": {"android": "https://dc.lft.to/lastmile_qr_scan", "ios": "https://dc.lft.to/lastmile_qr_scan"}, "bike_id": "4017b32ca23646b61fc56566c2d2a6b0", "lon": -76.98783316666666}, {"is_reserved": 0, "fusion_lon": 0.0, "fusion_lat": 0.0, "name": "5bf69aad78597929816b153956c46f97", "type": "electric_bike", "is_disabled": 0, "lat": 38.969153166666665, "rental_uris": {"android": "https://dc.lft.to/lastmile_qr_scan", "ios": "https://dc.lft.to/lastmile_qr_scan"}, "bike_id": "5bf69aad78597929816b153956c46f97", "lon": -76.99491866666666}, {"is_reserved": 0, "fusion_lon": 0.0, "fusion_lat": 0.0, "name": "1325e2391b6da6e23c8496dce9b640bc", "type": "electric_scooter", "is_disabled": 0, "lat": 38.917383, "rental_uris": {"android": "https://dc.lft.to/lastmile_qr_scan", "ios": "https://dc.lft.to/lastmile_qr_scan"}, "bike_id": "1325e2391b6da6e23c8496dce9b640bc", "lon": -77.02696583333334}, {"is_reserved": 0, "fusion_lon": 0.0, "fusion_lat": 0.0, "name": "57fe7a2ebbc557106f0ac798816f98bc", "type": "electric_scooter", "is_disabled": 0, "lat": 38.93593116666667, "rental_uris": {"android": "https://dc.lft.to/lastmile_qr_scan", "ios": "https://dc.lft.to/lastmile_qr_scan"}, "bike_id": "57fe7a2ebbc557106f0ac798816f98bc", "lon": -77.0379005}, {"is_reserved": 0, "fusion_lon": 0.0, "fusion_lat": 0.0, "name": "93c89b59ebf1129a493d93c45e0e080e", "type": "electric_scooter", "is_disabled": 0, "lat": 38.930441333333334, "rental_uris": {"android": "https://dc.lft.to/lastmile_qr_scan", "ios": "https://dc.lft.to/lastmile_qr_scan"}, "bike_id": "93c89b59ebf1129a493d93c45e0e080e", "lon": -77.01224783333333}, {"is_reserved": 0, "fusion_lon": 0.0, "fusion_lat": 0.0, "name": "09e6be9944e055a2e04b356d33c87bf0", "type": "electric_scooter", "is_disabled": 0, "lat": 38.923309333333336, "rental_uris": {"android": "https://dc.lft.to/lastmile_qr_scan", "ios": "https://dc.lft.to/lastmile_qr_scan"}, "bike_id": "09e6be9944e055a2e04b356d33c87bf0", "lon": -77.00047733333334}, {"is_reserved": 0, "fusion_lon": 0.0, "fusion_lat": 0.0, "name": "21d7895d11271312f4194273d5dd2d04", "type": "electric_bike", "is_disabled": 0, "lat": 38.96328116666667, "rental_uris": {"android": "https://dc.lft.to/lastmile_qr_scan", "ios": "https://dc.lft.to/lastmile_qr_scan"}, "bike_id": "21d7895d11271312f4194273d5dd2d04", "lon": -76.97362316666667}, {"is_reserved": 0, "fusion_lon": 0.0, "fusion_lat": 0.0, "name": "1af434dede961a608e3570f5b84de8a2", "type": "electric_scooter", "is_disabled": 0, "lat": 38.9126515, "rental_uris": {"android": "https://dc.lft.to/lastmile_qr_scan", "ios": "https://dc.lft.to/lastmile_qr_scan"}, "bike_id": "1af434dede961a608e3570f5b84de8a2", "lon": -77.03118666666667}, {"is_reserved": 0, "fusion_lon": 0.0, "fusion_lat": 0.0, "name": "004796b8ae91b61fdc2dda472b028dd1", "type": "electric_scooter", "is_disabled": 0, "lat": 38.92879383333333, "rental_uris": {"android": "https://dc.lft.to/lastmile_qr_scan", "ios": "https://dc.lft.to/lastmile_qr_scan"}, "bike_id": "004796b8ae91b61fdc2dda472b028dd1", "lon": -77.036512}, {"is_reserved": 0, "fusion_lon": 0.0, "fusion_lat": 0.0, "name": "547427918d374c13dda03b1b207ae09f", "type": "electric_scooter", "is_disabled": 0, "lat": 38.9249005, "rental_uris": {"android": "https://dc.lft.to/lastmile_qr_scan", "ios": "https://dc.lft.to/lastmile_qr_scan"}, "bike_id": "547427918d374c13dda03b1b207ae09f", "lon": -77.026932}, {"is_reserved": 0, "fusion_lon": 0.0, "fusion_lat": 0.0, "name": "2de198f320d793bbea81987eb19a49d1", "type": "electric_scooter", "is_disabled": 0, "lat": 38.908671166666664, "rental_uris": {"android": "https://dc.lft.to/lastmile_qr_scan", "ios": "https://dc.lft.to/lastmile_qr_scan"}, "bike_id": "2de198f320d793bbea81987eb19a49d1", "lon": -77.08597883333333}, {"is_reserved": 0, "fusion_lon": 0.0, "fusion_lat": 0.0, "name": "d98fa12aa72c7199ef65e019ad1c7124", "type": "electric_bike", "is_disabled": 0, "lat": 38.86259366666667, "rental_uris": {"android": "https://dc.lft.to/lastmile_qr_scan", "ios": "https://dc.lft.to/lastmile_qr_scan"}, "bike_id": "d98fa12aa72c7199ef65e019ad1c7124", "lon": -76.98352316666667}, {"is_reserved": 0, "fusion_lon": 0.0, "fusion_lat": 0.0, "name": "de4d0668ebcf14f6910550471f779ac2", "type": "electric_scooter", "is_disabled": 0, "lat": 38.918187333333336, "rental_uris": {"android": "https://dc.lft.to/lastmile_qr_scan", "ios": "https://dc.lft.to/lastmile_qr_scan"}, "bike_id": "de4d0668ebcf14f6910550471f779ac2", "lon": -77.08943766666667}, {"is_reserved": 0, "fusion_lon": 0.0, "fusion_lat": 0.0, "name": "5ac177d2e50384663133a09fb74d8025", "type": "electric_scooter", "is_disabled": 0, "lat": 38.916661166666664, "rental_uris": {"android": "https://dc.lft.to/lastmile_qr_scan", "ios": "https://dc.lft.to/lastmile_qr_scan"}, "bike_id": "5ac177d2e50384663133a09fb74d8025", "lon": -77.02963766666667}, {"is_reserved": 0, "fusion_lon": 0.0, "fusion_lat": 0.0, "name": "19b91daf0411f0ea9022d060ace40371", "type": "electric_scooter", "is_disabled": 0, "lat": 38.92751666666667, "rental_uris": {"android": "https://dc.lft.to/lastmile_qr_scan", "ios": "https://dc.lft.to/lastmile_qr_scan"}, "bike_id": "19b91daf0411f0ea9022d060ace40371", "lon": -77.02418016666667}, {"is_reserved": 0, "fusion_lon": 0.0, "fusion_lat": 0.0, "name": "c7d36e5640c99e25f71b509daa1ec041", "type": "electric_scooter", "is_disabled": 0, "lat": 38.89549433333333, "rental_uris": {"android": "https://dc.lft.to/lastmile_qr_scan", "ios": "https://dc.lft.to/lastmile_qr_scan"}, "bike_id": "c7d36e5640c99e25f71b509daa1ec041", "lon": -76.94876383333333}, {"is_reserved": 0, "fusion_lon": 0.0, "fusion_lat": 0.0, "name": "c10a04b10e41cb519641580f57a786e3", "type": "electric_scooter", "is_disabled": 0, "lat": 38.8722685, "rental_uris": {"android": "https://dc.lft.to/lastmile_qr_scan", "ios": "https://dc.lft.to/lastmile_qr_scan"}, "bike_id": "c10a04b10e41cb519641580f57a786e3", "lon": -76.9772645}, {"is_reserved": 0, "fusion_lon": 0.0, "fusion_lat": 0.0, "name": "049bcef612d33cfbb79a20af870bab34", "type": "electric_scooter", "is_disabled": 0, "lat": 38.89866933333333, "rental_uris": {"android": "https://dc.lft.to/lastmile_qr_scan", "ios": "https://dc.lft.to/lastmile_qr_scan"}, "bike_id": "049bcef612d33cfbb79a20af870bab34", "lon": -76.94662533333333}, {"is_reserved": 0, "fusion_lon": 0.0, "fusion_lat": 0.0, "name": "04ae3e1c1b00483c1a7e8f43c4c06d42", "type": "electric_scooter", "is_disabled": 0, "lat": 38.8851085, "rental_uris": {"android": "https://dc.lft.to/lastmile_qr_scan", "ios": "https://dc.lft.to/lastmile_qr_scan"}, "bike_id": "04ae3e1c1b00483c1a7e8f43c4c06d42", "lon": -76.99840283333333}, {"is_reserved": 0, "fusion_lon": 0.0, "fusion_lat": 0.0, "name": "f4c4dfbb989f739c257d6baad9d91583", "type": "electric_scooter", "is_disabled": 0, "lat": 38.923786666666665, "rental_uris": {"android": "https://dc.lft.to/lastmile_qr_scan", "ios": "https://dc.lft.to/lastmile_qr_scan"}, "bike_id": "f4c4dfbb989f739c257d6baad9d91583", "lon": -77.0193105}, {"is_reserved": 0, "fusion_lon": 0.0, "fusion_lat": 0.0, "name": "3c905f5246247fb10f6623a31daadd8b", "type": "electric_scooter", "is_disabled": 0, "lat": 38.89240483333333, "rental_uris": {"android": "https://dc.lft.to/lastmile_qr_scan", "ios": "https://dc.lft.to/lastmile_qr_scan"}, "bike_id": "3c905f5246247fb10f6623a31daadd8b", "lon": -77.04161916666666}, {"is_reserved": 0, "fusion_lon": 0.0, "fusion_lat": 0.0, "name": "bc8f26ff392be18d03432a074b62ec63", "type": "electric_scooter", "is_disabled": 0, "lat": 38.90644183333333, "rental_uris": {"android": "https://dc.lft.to/lastmile_qr_scan", "ios": "https://dc.lft.to/lastmile_qr_scan"}, "bike_id": "bc8f26ff392be18d03432a074b62ec63", "lon": -77.04877916666666}, {"is_reserved": 0, "fusion_lon": 0.0, "fusion_lat": 0.0, "name": "3b335ec0029ebb67d3f3447614bb7c7d", "type": "electric_scooter", "is_disabled": 0, "lat": 38.90784333333333, "rental_uris": {"android": "https://dc.lft.to/lastmile_qr_scan", "ios": "https://dc.lft.to/lastmile_qr_scan"}, "bike_id": "3b335ec0029ebb67d3f3447614bb7c7d", "lon": -77.03445316666667}, {"is_reserved": 0, "fusion_lon": 0.0, "fusion_lat": 0.0, "name": "26d316e8ee150ffeb3d8322205677e5c", "type": "electric_scooter", "is_disabled": 0, "lat": 38.895026666666666, "rental_uris": {"android": "https://dc.lft.to/lastmile_qr_scan", "ios": "https://dc.lft.to/lastmile_qr_scan"}, "bike_id": "26d316e8ee150ffeb3d8322205677e5c", "lon": -77.00948433333333}, {"is_reserved": 0, "fusion_lon": 0.0, "fusion_lat": 0.0, "name": "1bacc9a314a92560a49b51202e188b70", "type": "electric_scooter", "is_disabled": 0, "lat": 38.9252155, "rental_uris": {"android": "https://dc.lft.to/lastmile_qr_scan", "ios": "https://dc.lft.to/lastmile_qr_scan"}, "bike_id": "1bacc9a314a92560a49b51202e188b70", "lon": -77.0504335}, {"is_reserved": 0, "fusion_lon": 0.0, "fusion_lat": 0.0, "name": "05e3eccc99ed60e772bdb4c4eb37a67d", "type": "electric_scooter", "is_disabled": 0, "lat": 38.919228333333336, "rental_uris": {"android": "https://dc.lft.to/lastmile_qr_scan", "ios": "https://dc.lft.to/lastmile_qr_scan"}, "bike_id": "05e3eccc99ed60e772bdb4c4eb37a67d", "lon": -77.03177566666666}, {"is_reserved": 0, "fusion_lon": 0.0, "fusion_lat": 0.0, "name": "bdd6384d2beab27efe67137dcb856194", "type": "electric_scooter", "is_disabled": 0, "lat": 38.932723333333335, "rental_uris": {"android": "https://dc.lft.to/lastmile_qr_scan", "ios": "https://dc.lft.to/lastmile_qr_scan"}, "bike_id": "bdd6384d2beab27efe67137dcb856194", "lon": -77.02832616666667}, {"is_reserved": 0, "fusion_lon": 0.0, "fusion_lat": 0.0, "name": "4548a9746ecd7c4660a28641a7295fe0", "type": "electric_scooter", "is_disabled": 0, "lat": 38.896046, "rental_uris": {"android": "https://dc.lft.to/lastmile_qr_scan", "ios": "https://dc.lft.to/lastmile_qr_scan"}, "bike_id": "4548a9746ecd7c4660a28641a7295fe0", "lon": -77.031723}, {"is_reserved": 0, "fusion_lon": 0.0, "fusion_lat": 0.0, "name": "897735942c03cb36adf775ad7d051f13", "type": "electric_scooter", "is_disabled": 0, "lat": 38.921142333333336, "rental_uris": {"android": "https://dc.lft.to/lastmile_qr_scan", "ios": "https://dc.lft.to/lastmile_qr_scan"}, "bike_id": "897735942c03cb36adf775ad7d051f13", "lon": -77.02509116666667}, {"is_reserved": 0, "fusion_lon": 0.0, "fusion_lat": 0.0, "name": "26156b5abf830c699fa4ae4dedac52e6", "type": "electric_scooter", "is_disabled": 0, "lat": 38.9066375, "rental_uris": {"android": "https://dc.lft.to/lastmile_qr_scan", "ios": "https://dc.lft.to/lastmile_qr_scan"}, "bike_id": "26156b5abf830c699fa4ae4dedac52e6", "lon": -77.03854816666667}, {"is_reserved": 0, "fusion_lon": 0.0, "fusion_lat": 0.0, "name": "34a3f3c35c2335cd6e37bd76ab387b7a", "type": "electric_scooter", "is_disabled": 0, "lat": 38.871974333333334, "rental_uris": {"android": "https://dc.lft.to/lastmile_qr_scan", "ios": "https://dc.lft.to/lastmile_qr_scan"}, "bike_id": "34a3f3c35c2335cd6e37bd76ab387b7a", "lon": -77.007442}, {"is_reserved": 0, "fusion_lon": 0.0, "fusion_lat": 0.0, "name": "e773275e6e7fd28f032700920b6f4704", "type": "electric_bike", "is_disabled": 0, "lat": 38.956557833333335, "rental_uris": {"android": "https://dc.lft.to/lastmile_qr_scan", "ios": "https://dc.lft.to/lastmile_qr_scan"}, "bike_id": "e773275e6e7fd28f032700920b6f4704", "lon": -77.0128005}, {"is_reserved": 0, "fusion_lon": 0.0, "fusion_lat": 0.0, "name": "e06573f892150bb23faf174b5ed83234", "type": "electric_scooter", "is_disabled": 0, "lat": 38.90459666666667, "rental_uris": {"android": "https://dc.lft.to/lastmile_qr_scan", "ios": "https://dc.lft.to/lastmile_qr_scan"}, "bike_id": "e06573f892150bb23faf174b5ed83234", "lon": -77.03786166666667}, {"is_reserved": 0, "fusion_lon": 0.0, "fusion_lat": 0.0, "name": "f99ffd782625f9f77be8c5caff73ae4e", "type": "electric_scooter", "is_disabled": 0, "lat": 38.919457333333334, "rental_uris": {"android": "https://dc.lft.to/lastmile_qr_scan", "ios": "https://dc.lft.to/lastmile_qr_scan"}, "bike_id": "f99ffd782625f9f77be8c5caff73ae4e", "lon": -77.02508516666667}, {"is_reserved": 0, "fusion_lon": 0.0, "fusion_lat": 0.0, "name": "66e90769399078105735a72d5bf11d09", "type": "electric_scooter", "is_disabled": 0, "lat": 38.8666165, "rental_uris": {"android": "https://dc.lft.to/lastmile_qr_scan", "ios": "https://dc.lft.to/lastmile_qr_scan"}, "bike_id": "66e90769399078105735a72d5bf11d09", "lon": -76.98877033333333}, {"is_reserved": 0, "fusion_lon": 0.0, "fusion_lat": 0.0, "name": "97c8783a511bee7351d80a0260ff2d12", "type": "electric_bike", "is_disabled": 0, "lat": 38.9882125, "rental_uris": {"android": "https://dc.lft.to/lastmile_qr_scan", "ios": "https://dc.lft.to/lastmile_qr_scan"}, "bike_id": "97c8783a511bee7351d80a0260ff2d12", "lon": -77.026489}, {"is_reserved": 0, "fusion_lon": 0.0, "fusion_lat": 0.0, "name": "3c5104ac5970e4e57ae5a2bd5f21a414", "type": "electric_scooter", "is_disabled": 0, "lat": 38.91715266666667, "rental_uris": {"android": "https://dc.lft.to/lastmile_qr_scan", "ios": "https://dc.lft.to/lastmile_qr_scan"}, "bike_id": "3c5104ac5970e4e57ae5a2bd5f21a414", "lon": -77.0385635}, {"is_reserved": 0, "fusion_lon": 0.0, "fusion_lat": 0.0, "name": "30ed4283c143c4b61d438e9acec0bd26", "type": "electric_scooter", "is_disabled": 0, "lat": 38.90267033333333, "rental_uris": {"android": "https://dc.lft.to/lastmile_qr_scan", "ios": "https://dc.lft.to/lastmile_qr_scan"}, "bike_id": "30ed4283c143c4b61d438e9acec0bd26", "lon": -77.0177745}, {"is_reserved": 0, "fusion_lon": 0.0, "fusion_lat": 0.0, "name": "9e051742fa96fcbe0ba15eb5519395c4", "type": "electric_scooter", "is_disabled": 0, "lat": 38.93239533333333, "rental_uris": {"android": "https://dc.lft.to/lastmile_qr_scan", "ios": "https://dc.lft.to/lastmile_qr_scan"}, "bike_id": "9e051742fa96fcbe0ba15eb5519395c4", "lon": -77.03413966666666}, {"is_reserved": 0, "fusion_lon": 0.0, "fusion_lat": 0.0, "name": "3192c977d1e701d2d9c9f1adb4da8403", "type": "electric_scooter", "is_disabled": 0, "lat": 38.9097485, "rental_uris": {"android": "https://dc.lft.to/lastmile_qr_scan", "ios": "https://dc.lft.to/lastmile_qr_scan"}, "bike_id": "3192c977d1e701d2d9c9f1adb4da8403", "lon": -77.0341215}, {"is_reserved": 0, "fusion_lon": 0.0, "fusion_lat": 0.0, "name": "61e2433915b8d467fc2ac43fea00009b", "type": "electric_scooter", "is_disabled": 0, "lat": 38.918422666666665, "rental_uris": {"android": "https://dc.lft.to/lastmile_qr_scan", "ios": "https://dc.lft.to/lastmile_qr_scan"}, "bike_id": "61e2433915b8d467fc2ac43fea00009b", "lon": -77.016424}, {"is_reserved": 0, "fusion_lon": 0.0, "fusion_lat": 0.0, "name": "52425bd366bfd0cd22468e68cfc7a7f6", "type": "electric_bike", "is_disabled": 0, "lat": 38.852037833333334, "rental_uris": {"android": "https://dc.lft.to/lastmile_qr_scan", "ios": "https://dc.lft.to/lastmile_qr_scan"}, "bike_id": "52425bd366bfd0cd22468e68cfc7a7f6", "lon": -77.10129666666667}, {"is_reserved": 0, "fusion_lon": 0.0, "fusion_lat": 0.0, "name": "be0dded4f8b32bab7bb13f13324fde83", "type": "electric_bike", "is_disabled": 0, "lat": 38.94665966666667, "rental_uris": {"android": "https://dc.lft.to/lastmile_qr_scan", "ios": "https://dc.lft.to/lastmile_qr_scan"}, "bike_id": "be0dded4f8b32bab7bb13f13324fde83", "lon": -76.98305466666666}, {"is_reserved": 0, "fusion_lon": 0.0, "fusion_lat": 0.0, "name": "70afa23b65a580b1d269130c2cf4e54e", "type": "electric_scooter", "is_disabled": 0, "lat": 38.897902333333334, "rental_uris": {"android": "https://dc.lft.to/lastmile_qr_scan", "ios": "https://dc.lft.to/lastmile_qr_scan"}, "bike_id": "70afa23b65a580b1d269130c2cf4e54e", "lon": -77.04487233333333}, {"is_reserved": 0, "fusion_lon": 0.0, "fusion_lat": 0.0, "name": "29d80b659c9e87d4d90f8dcca8000b69", "type": "electric_scooter", "is_disabled": 0, "lat": 38.956333, "rental_uris": {"android": "https://dc.lft.to/lastmile_qr_scan", "ios": "https://dc.lft.to/lastmile_qr_scan"}, "bike_id": "29d80b659c9e87d4d90f8dcca8000b69", "lon": -77.02459033333334}, {"is_reserved": 0, "fusion_lon": 0.0, "fusion_lat": 0.0, "name": "270f6409fec108f1d4631dcae15c06c5", "type": "electric_scooter", "is_disabled": 0, "lat": 38.917817, "rental_uris": {"android": "https://dc.lft.to/lastmile_qr_scan", "ios": "https://dc.lft.to/lastmile_qr_scan"}, "bike_id": "270f6409fec108f1d4631dcae15c06c5", "lon": -77.042778}, {"is_reserved": 0, "fusion_lon": 0.0, "fusion_lat": 0.0, "name": "9e05e22aa56018b5ee41eb3257a37ec7", "type": "electric_scooter", "is_disabled": 0, "lat": 38.896185333333335, "rental_uris": {"android": "https://dc.lft.to/lastmile_qr_scan", "ios": "https://dc.lft.to/lastmile_qr_scan"}, "bike_id": "9e05e22aa56018b5ee41eb3257a37ec7", "lon": -76.981616}, {"is_reserved": 0, "fusion_lon": 0.0, "fusion_lat": 0.0, "name": "dfdc522df0505c453b0aa1f34bcbe39c", "type": "electric_scooter", "is_disabled": 0, "lat": 38.91806, "rental_uris": {"android": "https://dc.lft.to/lastmile_qr_scan", "ios": "https://dc.lft.to/lastmile_qr_scan"}, "bike_id": "dfdc522df0505c453b0aa1f34bcbe39c", "lon": -77.03254733333333}, {"is_reserved": 0, "fusion_lon": 0.0, "fusion_lat": 0.0, "name": "b1c011fbd4d9f7182d928b5f3f34b99e", "type": "electric_scooter", "is_disabled": 0, "lat": 38.883937, "rental_uris": {"android": "https://dc.lft.to/lastmile_qr_scan", "ios": "https://dc.lft.to/lastmile_qr_scan"}, "bike_id": "b1c011fbd4d9f7182d928b5f3f34b99e", "lon": -76.95444533333334}, {"is_reserved": 0, "fusion_lon": 0.0, "fusion_lat": 0.0, "name": "22569b6f61ca0e14d3895409c2c08ee8", "type": "electric_scooter", "is_disabled": 0, "lat": 38.951867666666665, "rental_uris": {"android": "https://dc.lft.to/lastmile_qr_scan", "ios": "https://dc.lft.to/lastmile_qr_scan"}, "bike_id": "22569b6f61ca0e14d3895409c2c08ee8", "lon": -77.02616133333333}, {"is_reserved": 0, "fusion_lon": 0.0, "fusion_lat": 0.0, "name": "d34ecfc4da7f26032d1a826fba696029", "type": "electric_scooter", "is_disabled": 0, "lat": 38.92769666666667, "rental_uris": {"android": "https://dc.lft.to/lastmile_qr_scan", "ios": "https://dc.lft.to/lastmile_qr_scan"}, "bike_id": "d34ecfc4da7f26032d1a826fba696029", "lon": -77.052576}, {"is_reserved": 0, "fusion_lon": 0.0, "fusion_lat": 0.0, "name": "98b375a11ae05994f30acff3e0056046", "type": "electric_scooter", "is_disabled": 0, "lat": 38.92071033333333, "rental_uris": {"android": "https://dc.lft.to/lastmile_qr_scan", "ios": "https://dc.lft.to/lastmile_qr_scan"}, "bike_id": "98b375a11ae05994f30acff3e0056046", "lon": -77.0242005}, {"is_reserved": 0, "fusion_lon": 0.0, "fusion_lat": 0.0, "name": "3c4ce834cfb6e60168851573d5da4be2", "type": "electric_scooter", "is_disabled": 0, "lat": 38.893652833333334, "rental_uris": {"android": "https://dc.lft.to/lastmile_qr_scan", "ios": "https://dc.lft.to/lastmile_qr_scan"}, "bike_id": "3c4ce834cfb6e60168851573d5da4be2", "lon": -77.0549355}, {"is_reserved": 0, "fusion_lon": 0.0, "fusion_lat": 0.0, "name": "db5dfe9f16bc918967ff3b89474e8f35", "type": "electric_scooter", "is_disabled": 0, "lat": 38.922970666666664, "rental_uris": {"android": "https://dc.lft.to/lastmile_qr_scan", "ios": "https://dc.lft.to/lastmile_qr_scan"}, "bike_id": "db5dfe9f16bc918967ff3b89474e8f35", "lon": -77.0426645}, {"is_reserved": 0, "fusion_lon": 0.0, "fusion_lat": 0.0, "name": "9ffbc9526d941ddf7f4aee4ee3faa732", "type": "electric_scooter", "is_disabled": 0, "lat": 38.90801116666667, "rental_uris": {"android": "https://dc.lft.to/lastmile_qr_scan", "ios": "https://dc.lft.to/lastmile_qr_scan"}, "bike_id": "9ffbc9526d941ddf7f4aee4ee3faa732", "lon": -77.031875}, {"is_reserved": 0, "fusion_lon": 0.0, "fusion_lat": 0.0, "name": "1fbd22ed7df0330ea6f4caebd179c5e7", "type": "electric_scooter", "is_disabled": 0, "lat": 38.8848085, "rental_uris": {"android": "https://dc.lft.to/lastmile_qr_scan", "ios": "https://dc.lft.to/lastmile_qr_scan"}, "bike_id": "1fbd22ed7df0330ea6f4caebd179c5e7", "lon": -77.02659116666666}, {"is_reserved": 0, "fusion_lon": 0.0, "fusion_lat": 0.0, "name": "291f99796953a318f39f37413116d86e", "type": "electric_scooter", "is_disabled": 0, "lat": 38.944426666666665, "rental_uris": {"android": "https://dc.lft.to/lastmile_qr_scan", "ios": "https://dc.lft.to/lastmile_qr_scan"}, "bike_id": "291f99796953a318f39f37413116d86e", "lon": -77.0603315}, {"is_reserved": 0, "fusion_lon": 0.0, "fusion_lat": 0.0, "name": "4d6248acf546f8d6a28ed12d912ce26b", "type": "electric_scooter", "is_disabled": 0, "lat": 38.893009666666664, "rental_uris": {"android": "https://dc.lft.to/lastmile_qr_scan", "ios": "https://dc.lft.to/lastmile_qr_scan"}, "bike_id": "4d6248acf546f8d6a28ed12d912ce26b", "lon": -76.9982775}, {"is_reserved": 0, "fusion_lon": 0.0, "fusion_lat": 0.0, "name": "7b680d52d3f8c7264d7a0f1a93629be5", "type": "electric_scooter", "is_disabled": 0, "lat": 38.903779666666665, "rental_uris": {"android": "https://dc.lft.to/lastmile_qr_scan", "ios": "https://dc.lft.to/lastmile_qr_scan"}, "bike_id": "7b680d52d3f8c7264d7a0f1a93629be5", "lon": -77.04049633333334}, {"is_reserved": 0, "fusion_lon": 0.0, "fusion_lat": 0.0, "name": "4bb595b48393b3bee5ff72fea5376876", "type": "electric_bike", "is_disabled": 0, "lat": 38.961872666666665, "rental_uris": {"android": "https://dc.lft.to/lastmile_qr_scan", "ios": "https://dc.lft.to/lastmile_qr_scan"}, "bike_id": "4bb595b48393b3bee5ff72fea5376876", "lon": -77.07391166666666}, {"is_reserved": 0, "fusion_lon": 0.0, "fusion_lat": 0.0, "name": "90ab71b9ee0fe4137c460d741d651e78", "type": "electric_scooter", "is_disabled": 0, "lat": 38.90779166666667, "rental_uris": {"android": "https://dc.lft.to/lastmile_qr_scan", "ios": "https://dc.lft.to/lastmile_qr_scan"}, "bike_id": "90ab71b9ee0fe4137c460d741d651e78", "lon": -77.03826483333333}, {"is_reserved": 0, "fusion_lon": 0.0, "fusion_lat": 0.0, "name": "8d7e385ddf032d9f6190b4205e040265", "type": "electric_scooter", "is_disabled": 0, "lat": 38.898043666666666, "rental_uris": {"android": "https://dc.lft.to/lastmile_qr_scan", "ios": "https://dc.lft.to/lastmile_qr_scan"}, "bike_id": "8d7e385ddf032d9f6190b4205e040265", "lon": -77.0249335}, {"is_reserved": 0, "fusion_lon": 0.0, "fusion_lat": 0.0, "name": "632b3ef0a856343b8ee680e4dac2b298", "type": "electric_scooter", "is_disabled": 0, "lat": 38.911897833333335, "rental_uris": {"android": "https://dc.lft.to/lastmile_qr_scan", "ios": "https://dc.lft.to/lastmile_qr_scan"}, "bike_id": "632b3ef0a856343b8ee680e4dac2b298", "lon": -77.00501816666667}, {"is_reserved": 0, "fusion_lon": 0.0, "fusion_lat": 0.0, "name": "dd6a6a97f80fffb29515d7f4ff55f6df", "type": "electric_scooter", "is_disabled": 0, "lat": 38.900176333333334, "rental_uris": {"android": "https://dc.lft.to/lastmile_qr_scan", "ios": "https://dc.lft.to/lastmile_qr_scan"}, "bike_id": "dd6a6a97f80fffb29515d7f4ff55f6df", "lon": -76.996042}, {"is_reserved": 0, "fusion_lon": 0.0, "fusion_lat": 0.0, "name": "6edf7293c048654f564d4ca79fa73b6d", "type": "electric_scooter", "is_disabled": 0, "lat": 38.89892566666666, "rental_uris": {"android": "https://dc.lft.to/lastmile_qr_scan", "ios": "https://dc.lft.to/lastmile_qr_scan"}, "bike_id": "6edf7293c048654f564d4ca79fa73b6d", "lon": -77.03304216666666}, {"is_reserved": 0, "fusion_lon": 0.0, "fusion_lat": 0.0, "name": "91cd3eda04745b5f0f29853ec04f7e75", "type": "electric_scooter", "is_disabled": 0, "lat": 38.887215166666664, "rental_uris": {"android": "https://dc.lft.to/lastmile_qr_scan", "ios": "https://dc.lft.to/lastmile_qr_scan"}, "bike_id": "91cd3eda04745b5f0f29853ec04f7e75", "lon": -77.0322485}, {"is_reserved": 0, "fusion_lon": 0.0, "fusion_lat": 0.0, "name": "5630bfcfa7a3fcf0d1fc4940efc59959", "type": "electric_scooter", "is_disabled": 0, "lat": 38.892282, "rental_uris": {"android": "https://dc.lft.to/lastmile_qr_scan", "ios": "https://dc.lft.to/lastmile_qr_scan"}, "bike_id": "5630bfcfa7a3fcf0d1fc4940efc59959", "lon": -77.04654733333334}, {"is_reserved": 0, "fusion_lon": 0.0, "fusion_lat": 0.0, "name": "9882bc053e1e56e6eeee8e9703104f98", "type": "electric_scooter", "is_disabled": 0, "lat": 38.906017166666665, "rental_uris": {"android": "https://dc.lft.to/lastmile_qr_scan", "ios": "https://dc.lft.to/lastmile_qr_scan"}, "bike_id": "9882bc053e1e56e6eeee8e9703104f98", "lon": -77.0642165}, {"is_reserved": 0, "fusion_lon": 0.0, "fusion_lat": 0.0, "name": "c480c360fbede517eba297d19acc399e", "type": "electric_scooter", "is_disabled": 0, "lat": 38.92224616666667, "rental_uris": {"android": "https://dc.lft.to/lastmile_qr_scan", "ios": "https://dc.lft.to/lastmile_qr_scan"}, "bike_id": "c480c360fbede517eba297d19acc399e", "lon": -77.04339383333334}, {"is_reserved": 0, "fusion_lon": 0.0, "fusion_lat": 0.0, "name": "da1229f5f179f021e86ebc2587a0b22f", "type": "electric_scooter", "is_disabled": 0, "lat": 38.89599366666667, "rental_uris": {"android": "https://dc.lft.to/lastmile_qr_scan", "ios": "https://dc.lft.to/lastmile_qr_scan"}, "bike_id": "da1229f5f179f021e86ebc2587a0b22f", "lon": -77.01135416666666}, {"is_reserved": 0, "fusion_lon": 0.0, "fusion_lat": 0.0, "name": "c7d7f33d925644c086387595004ea545", "type": "electric_scooter", "is_disabled": 0, "lat": 38.91534566666667, "rental_uris": {"android": "https://dc.lft.to/lastmile_qr_scan", "ios": "https://dc.lft.to/lastmile_qr_scan"}, "bike_id": "c7d7f33d925644c086387595004ea545", "lon": -76.97052833333333}, {"is_reserved": 0, "fusion_lon": 0.0, "fusion_lat": 0.0, "name": "41ce0ebef5716967f6f515525caa5f02", "type": "electric_scooter", "is_disabled": 0, "lat": 38.907338333333335, "rental_uris": {"android": "https://dc.lft.to/lastmile_qr_scan", "ios": "https://dc.lft.to/lastmile_qr_scan"}, "bike_id": "41ce0ebef5716967f6f515525caa5f02", "lon": -76.98693}, {"is_reserved": 0, "fusion_lon": 0.0, "fusion_lat": 0.0, "name": "459afe2057094ae867c07871111fab17", "type": "electric_scooter", "is_disabled": 0, "lat": 38.91717933333334, "rental_uris": {"android": "https://dc.lft.to/lastmile_qr_scan", "ios": "https://dc.lft.to/lastmile_qr_scan"}, "bike_id": "459afe2057094ae867c07871111fab17", "lon": -77.02909033333333}, {"is_reserved": 0, "fusion_lon": 0.0, "fusion_lat": 0.0, "name": "3bfdf0ae62d38dc2c9a7243bedbd8ad6", "type": "electric_scooter", "is_disabled": 0, "lat": 38.86060116666667, "rental_uris": {"android": "https://dc.lft.to/lastmile_qr_scan", "ios": "https://dc.lft.to/lastmile_qr_scan"}, "bike_id": "3bfdf0ae62d38dc2c9a7243bedbd8ad6", "lon": -76.985025}, {"is_reserved": 0, "fusion_lon": 0.0, "fusion_lat": 0.0, "name": "183ff14442a5f777dc558a8e15ece008", "type": "electric_scooter", "is_disabled": 0, "lat": 38.923724, "rental_uris": {"android": "https://dc.lft.to/lastmile_qr_scan", "ios": "https://dc.lft.to/lastmile_qr_scan"}, "bike_id": "183ff14442a5f777dc558a8e15ece008", "lon": -77.01915483333333}, {"is_reserved": 0, "fusion_lon": 0.0, "fusion_lat": 0.0, "name": "2187ee691a1b580d721613abadc1fa5f", "type": "electric_scooter", "is_disabled": 0, "lat": 38.9036825, "rental_uris": {"android": "https://dc.lft.to/lastmile_qr_scan", "ios": "https://dc.lft.to/lastmile_qr_scan"}, "bike_id": "2187ee691a1b580d721613abadc1fa5f", "lon": -76.99708333333334}, {"is_reserved": 0, "fusion_lon": 0.0, "fusion_lat": 0.0, "name": "15617ed2a2e3dcde3fd9194e045d2291", "type": "electric_scooter", "is_disabled": 0, "lat": 38.923426, "rental_uris": {"android": "https://dc.lft.to/lastmile_qr_scan", "ios": "https://dc.lft.to/lastmile_qr_scan"}, "bike_id": "15617ed2a2e3dcde3fd9194e045d2291", "lon": -77.0512235}, {"is_reserved": 0, "fusion_lon": 0.0, "fusion_lat": 0.0, "name": "33c515e4997b2a3cb3c6e66f98830b77", "type": "electric_scooter", "is_disabled": 0, "lat": 38.927504166666665, "rental_uris": {"android": "https://dc.lft.to/lastmile_qr_scan", "ios": "https://dc.lft.to/lastmile_qr_scan"}, "bike_id": "33c515e4997b2a3cb3c6e66f98830b77", "lon": -77.02421266666667}, {"is_reserved": 0, "fusion_lon": 0.0, "fusion_lat": 0.0, "name": "65402c5570f6b33d183cc4a574bc6b79", "type": "electric_scooter", "is_disabled": 0, "lat": 38.93712383333333, "rental_uris": {"android": "https://dc.lft.to/lastmile_qr_scan", "ios": "https://dc.lft.to/lastmile_qr_scan"}, "bike_id": "65402c5570f6b33d183cc4a574bc6b79", "lon": -77.02938966666666}, {"is_reserved": 0, "fusion_lon": 0.0, "fusion_lat": 0.0, "name": "000737917968e1298fbadcefc6e9abc2", "type": "electric_scooter", "is_disabled": 0, "lat": 38.907332833333335, "rental_uris": {"android": "https://dc.lft.to/lastmile_qr_scan", "ios": "https://dc.lft.to/lastmile_qr_scan"}, "bike_id": "000737917968e1298fbadcefc6e9abc2", "lon": -77.0107095}, {"is_reserved": 0, "fusion_lon": 0.0, "fusion_lat": 0.0, "name": "0a7ecfe587468642d8f71973536b3630", "type": "electric_bike", "is_disabled": 0, "lat": 39.04304233333333, "rental_uris": {"android": "https://dc.lft.to/lastmile_qr_scan", "ios": "https://dc.lft.to/lastmile_qr_scan"}, "bike_id": "0a7ecfe587468642d8f71973536b3630", "lon": -77.051566}, {"is_reserved": 0, "fusion_lon": 0.0, "fusion_lat": 0.0, "name": "ffd23d4ce86877c4903aa880abc61fe7", "type": "electric_scooter", "is_disabled": 0, "lat": 38.921133166666664, "rental_uris": {"android": "https://dc.lft.to/lastmile_qr_scan", "ios": "https://dc.lft.to/lastmile_qr_scan"}, "bike_id": "ffd23d4ce86877c4903aa880abc61fe7", "lon": -77.039229}, {"is_reserved": 0, "fusion_lon": 0.0, "fusion_lat": 0.0, "name": "e7c6481092af98faba19efa39cbe26bc", "type": "electric_scooter", "is_disabled": 0, "lat": 38.8960555, "rental_uris": {"android": "https://dc.lft.to/lastmile_qr_scan", "ios": "https://dc.lft.to/lastmile_qr_scan"}, "bike_id": "e7c6481092af98faba19efa39cbe26bc", "lon": -76.999672}, {"is_reserved": 0, "fusion_lon": 0.0, "fusion_lat": 0.0, "name": "f1d1f194861cfbc14c2ee04898575bd3", "type": "electric_scooter", "is_disabled": 0, "lat": 38.93023816666667, "rental_uris": {"android": "https://dc.lft.to/lastmile_qr_scan", "ios": "https://dc.lft.to/lastmile_qr_scan"}, "bike_id": "f1d1f194861cfbc14c2ee04898575bd3", "lon": -77.06310566666667}, {"is_reserved": 0, "fusion_lon": 0.0, "fusion_lat": 0.0, "name": "392304a9104f14b619e17c5be3d80653", "type": "electric_scooter", "is_disabled": 0, "lat": 38.90208233333333, "rental_uris": {"android": "https://dc.lft.to/lastmile_qr_scan", "ios": "https://dc.lft.to/lastmile_qr_scan"}, "bike_id": "392304a9104f14b619e17c5be3d80653", "lon": -77.048391}, {"is_reserved": 0, "fusion_lon": 0.0, "fusion_lat": 0.0, "name": "e1cbd594b3cac78fd3cd78a71c4b52fb", "type": "electric_scooter", "is_disabled": 0, "lat": 38.904113, "rental_uris": {"android": "https://dc.lft.to/lastmile_qr_scan", "ios": "https://dc.lft.to/lastmile_qr_scan"}, "bike_id": "e1cbd594b3cac78fd3cd78a71c4b52fb", "lon": -76.973328}, {"is_reserved": 0, "fusion_lon": 0.0, "fusion_lat": 0.0, "name": "6d4290fc6eb345d6022c9cba98356eef", "type": "electric_bike", "is_disabled": 0, "lat": 38.924823333333336, "rental_uris": {"android": "https://dc.lft.to/lastmile_qr_scan", "ios": "https://dc.lft.to/lastmile_qr_scan"}, "bike_id": "6d4290fc6eb345d6022c9cba98356eef", "lon": -77.037679}, {"is_reserved": 0, "fusion_lon": 0.0, "fusion_lat": 0.0, "name": "bff3681c444e1de83350b5bc6d6a46c1", "type": "electric_scooter", "is_disabled": 0, "lat": 38.921820833333335, "rental_uris": {"android": "https://dc.lft.to/lastmile_qr_scan", "ios": "https://dc.lft.to/lastmile_qr_scan"}, "bike_id": "bff3681c444e1de83350b5bc6d6a46c1", "lon": -77.04349416666666}, {"is_reserved": 0, "fusion_lon": 0.0, "fusion_lat": 0.0, "name": "e3bde00869817cec05a58a8386988488", "type": "electric_scooter", "is_disabled": 0, "lat": 38.92148816666667, "rental_uris": {"android": "https://dc.lft.to/lastmile_qr_scan", "ios": "https://dc.lft.to/lastmile_qr_scan"}, "bike_id": "e3bde00869817cec05a58a8386988488", "lon": -77.04524133333334}, {"is_reserved": 0, "fusion_lon": 0.0, "fusion_lat": 0.0, "name": "02be42c5c062060fb474ae760fd313d2", "type": "electric_bike", "is_disabled": 0, "lat": 39.05048766666667, "rental_uris": {"android": "https://dc.lft.to/lastmile_qr_scan", "ios": "https://dc.lft.to/lastmile_qr_scan"}, "bike_id": "02be42c5c062060fb474ae760fd313d2", "lon": -77.05151383333333}, {"is_reserved": 0, "fusion_lon": 0.0, "fusion_lat": 0.0, "name": "9da7cc2b1b24e7f27d6c85907b43b90f", "type": "electric_scooter", "is_disabled": 0, "lat": 38.91713216666667, "rental_uris": {"android": "https://dc.lft.to/lastmile_qr_scan", "ios": "https://dc.lft.to/lastmile_qr_scan"}, "bike_id": "9da7cc2b1b24e7f27d6c85907b43b90f", "lon": -77.038579}, {"is_reserved": 0, "fusion_lon": 0.0, "fusion_lat": 0.0, "name": "e7e7a966670b541b36d6e5e8aa1a4e9a", "type": "electric_scooter", "is_disabled": 0, "lat": 38.87669666666667, "rental_uris": {"android": "https://dc.lft.to/lastmile_qr_scan", "ios": "https://dc.lft.to/lastmile_qr_scan"}, "bike_id": "e7e7a966670b541b36d6e5e8aa1a4e9a", "lon": -77.00422533333334}, {"is_reserved": 0, "fusion_lon": 0.0, "fusion_lat": 0.0, "name": "7d12c73444251a2b2240641cc32474c2", "type": "electric_bike", "is_disabled": 0, "lat": 38.8323415, "rental_uris": {"android": "https://dc.lft.to/lastmile_qr_scan", "ios": "https://dc.lft.to/lastmile_qr_scan"}, "bike_id": "7d12c73444251a2b2240641cc32474c2", "lon": -76.94621783333334}, {"is_reserved": 0, "fusion_lon": 0.0, "fusion_lat": 0.0, "name": "278182a1f2653b026bbcc387e80f591a", "type": "electric_scooter", "is_disabled": 0, "lat": 38.910990166666664, "rental_uris": {"android": "https://dc.lft.to/lastmile_qr_scan", "ios": "https://dc.lft.to/lastmile_qr_scan"}, "bike_id": "278182a1f2653b026bbcc387e80f591a", "lon": -77.028027}, {"is_reserved": 0, "fusion_lon": 0.0, "fusion_lat": 0.0, "name": "1cae2fb22cc127d61e6d5d081f579fe0", "type": "electric_scooter", "is_disabled": 0, "lat": 38.933998833333334, "rental_uris": {"android": "https://dc.lft.to/lastmile_qr_scan", "ios": "https://dc.lft.to/lastmile_qr_scan"}, "bike_id": "1cae2fb22cc127d61e6d5d081f579fe0", "lon": -77.03265416666666}, {"is_reserved": 0, "fusion_lon": 0.0, "fusion_lat": 0.0, "name": "247642a2c53ebb832b16dca3bb2c74e1", "type": "electric_scooter", "is_disabled": 0, "lat": 38.885616166666665, "rental_uris": {"android": "https://dc.lft.to/lastmile_qr_scan", "ios": "https://dc.lft.to/lastmile_qr_scan"}, "bike_id": "247642a2c53ebb832b16dca3bb2c74e1", "lon": -76.9979505}, {"is_reserved": 0, "fusion_lon": 0.0, "fusion_lat": 0.0, "name": "4908d722fe7c31b3cbbd33cc841c6ad1", "type": "electric_scooter", "is_disabled": 0, "lat": 38.92401183333333, "rental_uris": {"android": "https://dc.lft.to/lastmile_qr_scan", "ios": "https://dc.lft.to/lastmile_qr_scan"}, "bike_id": "4908d722fe7c31b3cbbd33cc841c6ad1", "lon": -77.02691283333333}, {"is_reserved": 0, "fusion_lon": 0.0, "fusion_lat": 0.0, "name": "4c8ded4346d8dd3a64eaff4a229d83e3", "type": "electric_scooter", "is_disabled": 0, "lat": 38.917143, "rental_uris": {"android": "https://dc.lft.to/lastmile_qr_scan", "ios": "https://dc.lft.to/lastmile_qr_scan"}, "bike_id": "4c8ded4346d8dd3a64eaff4a229d83e3", "lon": -77.0088405}, {"is_reserved": 0, "fusion_lon": 0.0, "fusion_lat": 0.0, "name": "65109a89bdd92efb781d025d2a504110", "type": "electric_scooter", "is_disabled": 0, "lat": 38.90176183333333, "rental_uris": {"android": "https://dc.lft.to/lastmile_qr_scan", "ios": "https://dc.lft.to/lastmile_qr_scan"}, "bike_id": "65109a89bdd92efb781d025d2a504110", "lon": -77.02295033333333}, {"is_reserved": 0, "fusion_lon": 0.0, "fusion_lat": 0.0, "name": "0223289b37773fd084fd7d870c07f560", "type": "electric_scooter", "is_disabled": 0, "lat": 38.90142766666666, "rental_uris": {"android": "https://dc.lft.to/lastmile_qr_scan", "ios": "https://dc.lft.to/lastmile_qr_scan"}, "bike_id": "0223289b37773fd084fd7d870c07f560", "lon": -77.00005466666667}, {"is_reserved": 0, "fusion_lon": 0.0, "fusion_lat": 0.0, "name": "099c2b88488f0f84cd22e039ccb569b2", "type": "electric_scooter", "is_disabled": 0, "lat": 38.899180333333334, "rental_uris": {"android": "https://dc.lft.to/lastmile_qr_scan", "ios": "https://dc.lft.to/lastmile_qr_scan"}, "bike_id": "099c2b88488f0f84cd22e039ccb569b2", "lon": -76.93360866666667}, {"is_reserved": 0, "fusion_lon": 0.0, "fusion_lat": 0.0, "name": "e7f2d13b23f773226e5984344152a45d", "type": "electric_scooter", "is_disabled": 0, "lat": 38.901567, "rental_uris": {"android": "https://dc.lft.to/lastmile_qr_scan", "ios": "https://dc.lft.to/lastmile_qr_scan"}, "bike_id": "e7f2d13b23f773226e5984344152a45d", "lon": -76.97628366666666}, {"is_reserved": 0, "fusion_lon": 0.0, "fusion_lat": 0.0, "name": "b7a276f25856081dd8ee61974d8fb44d", "type": "electric_bike", "is_disabled": 0, "lat": 38.9622855, "rental_uris": {"android": "https://dc.lft.to/lastmile_qr_scan", "ios": "https://dc.lft.to/lastmile_qr_scan"}, "bike_id": "b7a276f25856081dd8ee61974d8fb44d", "lon": -77.02630883333333}, {"is_reserved": 0, "fusion_lon": 0.0, "fusion_lat": 0.0, "name": "215b956864b428df004f92084ac23a7f", "type": "electric_scooter", "is_disabled": 0, "lat": 38.90539033333334, "rental_uris": {"android": "https://dc.lft.to/lastmile_qr_scan", "ios": "https://dc.lft.to/lastmile_qr_scan"}, "bike_id": "215b956864b428df004f92084ac23a7f", "lon": -77.05077066666666}, {"is_reserved": 0, "fusion_lon": 0.0, "fusion_lat": 0.0, "name": "c40cb7a9a5ffae807d75e7f8b6e3dbfe", "type": "electric_scooter", "is_disabled": 0, "lat": 38.939801833333334, "rental_uris": {"android": "https://dc.lft.to/lastmile_qr_scan", "ios": "https://dc.lft.to/lastmile_qr_scan"}, "bike_id": "c40cb7a9a5ffae807d75e7f8b6e3dbfe", "lon": -77.03143933333334}, {"is_reserved": 0, "fusion_lon": 0.0, "fusion_lat": 0.0, "name": "f1a40f24501e427d9f50dc968b655eea", "type": "electric_scooter", "is_disabled": 0, "lat": 38.92750016666667, "rental_uris": {"android": "https://dc.lft.to/lastmile_qr_scan", "ios": "https://dc.lft.to/lastmile_qr_scan"}, "bike_id": "f1a40f24501e427d9f50dc968b655eea", "lon": -77.02962983333333}, {"is_reserved": 0, "fusion_lon": 0.0, "fusion_lat": 0.0, "name": "9f75af6e2990d5f9e4bc2f10c4e4e9a2", "type": "electric_scooter", "is_disabled": 0, "lat": 38.876586333333336, "rental_uris": {"android": "https://dc.lft.to/lastmile_qr_scan", "ios": "https://dc.lft.to/lastmile_qr_scan"}, "bike_id": "9f75af6e2990d5f9e4bc2f10c4e4e9a2", "lon": -77.015794}, {"is_reserved": 0, "fusion_lon": 0.0, "fusion_lat": 0.0, "name": "6fa9d7409a4e4865b5c0325597a94548", "type": "electric_scooter", "is_disabled": 0, "lat": 38.900303666666666, "rental_uris": {"android": "https://dc.lft.to/lastmile_qr_scan", "ios": "https://dc.lft.to/lastmile_qr_scan"}, "bike_id": "6fa9d7409a4e4865b5c0325597a94548", "lon": -76.9885465}, {"is_reserved": 0, "fusion_lon": 0.0, "fusion_lat": 0.0, "name": "e38e6937b0ed237d8fbb25dbcd2ebe4e", "type": "electric_scooter", "is_disabled": 0, "lat": 38.90809516666667, "rental_uris": {"android": "https://dc.lft.to/lastmile_qr_scan", "ios": "https://dc.lft.to/lastmile_qr_scan"}, "bike_id": "e38e6937b0ed237d8fbb25dbcd2ebe4e", "lon": -77.0434465}, {"is_reserved": 0, "fusion_lon": 0.0, "fusion_lat": 0.0, "name": "48578ba5d9203108c753bb444cf1e30a", "type": "electric_bike", "is_disabled": 0, "lat": 38.812051333333336, "rental_uris": {"android": "https://dc.lft.to/lastmile_qr_scan", "ios": "https://dc.lft.to/lastmile_qr_scan"}, "bike_id": "48578ba5d9203108c753bb444cf1e30a", "lon": -77.10835616666667}, {"is_reserved": 0, "fusion_lon": 0.0, "fusion_lat": 0.0, "name": "893ad8d335cbfe919caa95413f57ebc3", "type": "electric_scooter", "is_disabled": 0, "lat": 38.90022966666667, "rental_uris": {"android": "https://dc.lft.to/lastmile_qr_scan", "ios": "https://dc.lft.to/lastmile_qr_scan"}, "bike_id": "893ad8d335cbfe919caa95413f57ebc3", "lon": -77.01187883333333}, {"is_reserved": 0, "fusion_lon": 0.0, "fusion_lat": 0.0, "name": "a8decf8b3f86730645ffb9de4b00213d", "type": "electric_scooter", "is_disabled": 0, "lat": 38.88608583333333, "rental_uris": {"android": "https://dc.lft.to/lastmile_qr_scan", "ios": "https://dc.lft.to/lastmile_qr_scan"}, "bike_id": "a8decf8b3f86730645ffb9de4b00213d", "lon": -76.9951255}, {"is_reserved": 0, "fusion_lon": 0.0, "fusion_lat": 0.0, "name": "7dc62d068be2b803b05b33b2031b7ac0", "type": "electric_scooter", "is_disabled": 0, "lat": 38.911094166666665, "rental_uris": {"android": "https://dc.lft.to/lastmile_qr_scan", "ios": "https://dc.lft.to/lastmile_qr_scan"}, "bike_id": "7dc62d068be2b803b05b33b2031b7ac0", "lon": -77.04468866666667}, {"is_reserved": 0, "fusion_lon": 0.0, "fusion_lat": 0.0, "name": "31e9d4487e50fc52ffe78e57db1b283f", "type": "electric_bike", "is_disabled": 0, "lat": 38.93870033333334, "rental_uris": {"android": "https://dc.lft.to/lastmile_qr_scan", "ios": "https://dc.lft.to/lastmile_qr_scan"}, "bike_id": "31e9d4487e50fc52ffe78e57db1b283f", "lon": -76.94290016666666}, {"is_reserved": 0, "fusion_lon": 0.0, "fusion_lat": 0.0, "name": "97e767fca08fa3292afba686ff6dff48", "type": "electric_scooter", "is_disabled": 0, "lat": 38.91455916666666, "rental_uris": {"android": "https://dc.lft.to/lastmile_qr_scan", "ios": "https://dc.lft.to/lastmile_qr_scan"}, "bike_id": "97e767fca08fa3292afba686ff6dff48", "lon": -77.02287083333333}, {"is_reserved": 0, "fusion_lon": 0.0, "fusion_lat": 0.0, "name": "4b833cf29bf0855b547a7b7e14e3953f", "type": "electric_scooter", "is_disabled": 0, "lat": 38.885311, "rental_uris": {"android": "https://dc.lft.to/lastmile_qr_scan", "ios": "https://dc.lft.to/lastmile_qr_scan"}, "bike_id": "4b833cf29bf0855b547a7b7e14e3953f", "lon": -76.99607433333334}, {"is_reserved": 0, "fusion_lon": 0.0, "fusion_lat": 0.0, "name": "7cf9c3f8ace95a9d031b5cbdb3ed402a", "type": "electric_scooter", "is_disabled": 0, "lat": 38.92339716666667, "rental_uris": {"android": "https://dc.lft.to/lastmile_qr_scan", "ios": "https://dc.lft.to/lastmile_qr_scan"}, "bike_id": "7cf9c3f8ace95a9d031b5cbdb3ed402a", "lon": -77.0350655}, {"is_reserved": 0, "fusion_lon": 0.0, "fusion_lat": 0.0, "name": "3bfd5f8967e46094423ad297d1555e4f", "type": "electric_scooter", "is_disabled": 0, "lat": 38.872933, "rental_uris": {"android": "https://dc.lft.to/lastmile_qr_scan", "ios": "https://dc.lft.to/lastmile_qr_scan"}, "bike_id": "3bfd5f8967e46094423ad297d1555e4f", "lon": -77.00988466666666}, {"is_reserved": 0, "fusion_lon": 0.0, "fusion_lat": 0.0, "name": "e6c1feb10dc1ae27608069903fb7a625", "type": "electric_scooter", "is_disabled": 0, "lat": 38.884598833333335, "rental_uris": {"android": "https://dc.lft.to/lastmile_qr_scan", "ios": "https://dc.lft.to/lastmile_qr_scan"}, "bike_id": "e6c1feb10dc1ae27608069903fb7a625", "lon": -76.92624283333333}, {"is_reserved": 0, "fusion_lon": 0.0, "fusion_lat": 0.0, "name": "e25b5de5441f33c65b5f6e7a4a3b563c", "type": "electric_scooter", "is_disabled": 0, "lat": 38.930340666666666, "rental_uris": {"android": "https://dc.lft.to/lastmile_qr_scan", "ios": "https://dc.lft.to/lastmile_qr_scan"}, "bike_id": "e25b5de5441f33c65b5f6e7a4a3b563c", "lon": -77.03300083333333}, {"is_reserved": 0, "fusion_lon": 0.0, "fusion_lat": 0.0, "name": "ff9da74662e331db4bfd58fbcea6511c", "type": "electric_scooter", "is_disabled": 0, "lat": 38.90271116666667, "rental_uris": {"android": "https://dc.lft.to/lastmile_qr_scan", "ios": "https://dc.lft.to/lastmile_qr_scan"}, "bike_id": "ff9da74662e331db4bfd58fbcea6511c", "lon": -77.01760416666667}, {"is_reserved": 0, "fusion_lon": 0.0, "fusion_lat": 0.0, "name": "b5032e2c65e8bb02f92a4f42c8b753a4", "type": "electric_scooter", "is_disabled": 0, "lat": 38.91267766666667, "rental_uris": {"android": "https://dc.lft.to/lastmile_qr_scan", "ios": "https://dc.lft.to/lastmile_qr_scan"}, "bike_id": "b5032e2c65e8bb02f92a4f42c8b753a4", "lon": -77.02866233333333}, {"is_reserved": 0, "fusion_lon": 0.0, "fusion_lat": 0.0, "name": "8a82d54e7cc06617250fccdcf8c5a49e", "type": "electric_bike", "is_disabled": 0, "lat": 39.014757, "rental_uris": {"android": "https://dc.lft.to/lastmile_qr_scan", "ios": "https://dc.lft.to/lastmile_qr_scan"}, "bike_id": "8a82d54e7cc06617250fccdcf8c5a49e", "lon": -77.0549045}, {"is_reserved": 0, "fusion_lon": 0.0, "fusion_lat": 0.0, "name": "622271b0729c791660c866d494af41bd", "type": "electric_bike", "is_disabled": 0, "lat": 38.96745383333333, "rental_uris": {"android": "https://dc.lft.to/lastmile_qr_scan", "ios": "https://dc.lft.to/lastmile_qr_scan"}, "bike_id": "622271b0729c791660c866d494af41bd", "lon": -76.98193516666667}, {"is_reserved": 0, "fusion_lon": 0.0, "fusion_lat": 0.0, "name": "11f3c749660c1c9c41ed7ffe151755a7", "type": "electric_scooter", "is_disabled": 0, "lat": 38.91556833333333, "rental_uris": {"android": "https://dc.lft.to/lastmile_qr_scan", "ios": "https://dc.lft.to/lastmile_qr_scan"}, "bike_id": "11f3c749660c1c9c41ed7ffe151755a7", "lon": -77.04102583333334}, {"is_reserved": 0, "fusion_lon": 0.0, "fusion_lat": 0.0, "name": "f3444ecd19358e14d840c567669baed9", "type": "electric_scooter", "is_disabled": 0, "lat": 38.911955666666664, "rental_uris": {"android": "https://dc.lft.to/lastmile_qr_scan", "ios": "https://dc.lft.to/lastmile_qr_scan"}, "bike_id": "f3444ecd19358e14d840c567669baed9", "lon": -77.03831483333333}, {"is_reserved": 0, "fusion_lon": 0.0, "fusion_lat": 0.0, "name": "b2ca0221572fe5d0ab3c50c85f4fd1d8", "type": "electric_scooter", "is_disabled": 0, "lat": 38.89516666666667, "rental_uris": {"android": "https://dc.lft.to/lastmile_qr_scan", "ios": "https://dc.lft.to/lastmile_qr_scan"}, "bike_id": "b2ca0221572fe5d0ab3c50c85f4fd1d8", "lon": -77.02866383333334}, {"is_reserved": 0, "fusion_lon": 0.0, "fusion_lat": 0.0, "name": "0ff66198cc5b7fbaa95ff44fe5d1f026", "type": "electric_scooter", "is_disabled": 0, "lat": 38.919491666666666, "rental_uris": {"android": "https://dc.lft.to/lastmile_qr_scan", "ios": "https://dc.lft.to/lastmile_qr_scan"}, "bike_id": "0ff66198cc5b7fbaa95ff44fe5d1f026", "lon": -77.0251465}, {"is_reserved": 0, "fusion_lon": 0.0, "fusion_lat": 0.0, "name": "d4194a6d262355d3b5deed2f96bb45cb", "type": "electric_bike", "is_disabled": 0, "lat": 38.9415515, "rental_uris": {"android": "https://dc.lft.to/lastmile_qr_scan", "ios": "https://dc.lft.to/lastmile_qr_scan"}, "bike_id": "d4194a6d262355d3b5deed2f96bb45cb", "lon": -77.00194483333334}, {"is_reserved": 0, "fusion_lon": 0.0, "fusion_lat": 0.0, "name": "57ea04273897402ac1829fed4a1b3048", "type": "electric_scooter", "is_disabled": 0, "lat": 38.94867283333333, "rental_uris": {"android": "https://dc.lft.to/lastmile_qr_scan", "ios": "https://dc.lft.to/lastmile_qr_scan"}, "bike_id": "57ea04273897402ac1829fed4a1b3048", "lon": -77.03882533333334}, {"is_reserved": 0, "fusion_lon": 0.0, "fusion_lat": 0.0, "name": "8510b43768ab7da748c265b1b0c2a078", "type": "electric_scooter", "is_disabled": 0, "lat": 38.91471666666666, "rental_uris": {"android": "https://dc.lft.to/lastmile_qr_scan", "ios": "https://dc.lft.to/lastmile_qr_scan"}, "bike_id": "8510b43768ab7da748c265b1b0c2a078", "lon": -77.0319905}, {"is_reserved": 0, "fusion_lon": 0.0, "fusion_lat": 0.0, "name": "a2c1f84446428ad60fdcf7532943c1e8", "type": "electric_scooter", "is_disabled": 0, "lat": 38.91575916666667, "rental_uris": {"android": "https://dc.lft.to/lastmile_qr_scan", "ios": "https://dc.lft.to/lastmile_qr_scan"}, "bike_id": "a2c1f84446428ad60fdcf7532943c1e8", "lon": -77.012477}, {"is_reserved": 0, "fusion_lon": 0.0, "fusion_lat": 0.0, "name": "7bc76c3748b92946906408f683f1f7cd", "type": "electric_scooter", "is_disabled": 0, "lat": 38.90165966666667, "rental_uris": {"android": "https://dc.lft.to/lastmile_qr_scan", "ios": "https://dc.lft.to/lastmile_qr_scan"}, "bike_id": "7bc76c3748b92946906408f683f1f7cd", "lon": -77.0229065}, {"is_reserved": 0, "fusion_lon": 0.0, "fusion_lat": 0.0, "name": "f7a3384979e5b0e557cba775ffd84ba9", "type": "electric_scooter", "is_disabled": 0, "lat": 38.93562766666667, "rental_uris": {"android": "https://dc.lft.to/lastmile_qr_scan", "ios": "https://dc.lft.to/lastmile_qr_scan"}, "bike_id": "f7a3384979e5b0e557cba775ffd84ba9", "lon": -77.07309016666666}, {"is_reserved": 0, "fusion_lon": 0.0, "fusion_lat": 0.0, "name": "7fc12311d6c705e2c03b44934ea49bb9", "type": "electric_bike", "is_disabled": 0, "lat": 38.962276333333335, "rental_uris": {"android": "https://dc.lft.to/lastmile_qr_scan", "ios": "https://dc.lft.to/lastmile_qr_scan"}, "bike_id": "7fc12311d6c705e2c03b44934ea49bb9", "lon": -77.02629883333333}, {"is_reserved": 0, "fusion_lon": 0.0, "fusion_lat": 0.0, "name": "9cbca73559f4e344c81842e1271a1c91", "type": "electric_scooter", "is_disabled": 0, "lat": 38.86381133333333, "rental_uris": {"android": "https://dc.lft.to/lastmile_qr_scan", "ios": "https://dc.lft.to/lastmile_qr_scan"}, "bike_id": "9cbca73559f4e344c81842e1271a1c91", "lon": -76.9892635}, {"is_reserved": 0, "fusion_lon": 0.0, "fusion_lat": 0.0, "name": "7ba193fbdd7852ac0b5aa5cf46405a04", "type": "electric_scooter", "is_disabled": 0, "lat": 38.927468, "rental_uris": {"android": "https://dc.lft.to/lastmile_qr_scan", "ios": "https://dc.lft.to/lastmile_qr_scan"}, "bike_id": "7ba193fbdd7852ac0b5aa5cf46405a04", "lon": -77.02533983333333}, {"is_reserved": 0, "fusion_lon": 0.0, "fusion_lat": 0.0, "name": "2f80a7fcc4f90dea3d22a2f3c547b8ac", "type": "electric_scooter", "is_disabled": 0, "lat": 38.909726666666664, "rental_uris": {"android": "https://dc.lft.to/lastmile_qr_scan", "ios": "https://dc.lft.to/lastmile_qr_scan"}, "bike_id": "2f80a7fcc4f90dea3d22a2f3c547b8ac", "lon": -77.03214366666667}, {"is_reserved": 0, "fusion_lon": 0.0, "fusion_lat": 0.0, "name": "0348fd255e9e5e9d786ec2e652225eab", "type": "electric_scooter", "is_disabled": 0, "lat": 38.88834416666667, "rental_uris": {"android": "https://dc.lft.to/lastmile_qr_scan", "ios": "https://dc.lft.to/lastmile_qr_scan"}, "bike_id": "0348fd255e9e5e9d786ec2e652225eab", "lon": -76.99372716666667}, {"is_reserved": 0, "fusion_lon": 0.0, "fusion_lat": 0.0, "name": "746ab6e877e996e571239b1463d67292", "type": "electric_scooter", "is_disabled": 0, "lat": 38.918781, "rental_uris": {"android": "https://dc.lft.to/lastmile_qr_scan", "ios": "https://dc.lft.to/lastmile_qr_scan"}, "bike_id": "746ab6e877e996e571239b1463d67292", "lon": -77.04451066666667}, {"is_reserved": 0, "fusion_lon": 0.0, "fusion_lat": 0.0, "name": "26b1ce768a86285105ad5f5c6358a1e0", "type": "electric_scooter", "is_disabled": 0, "lat": 38.90858866666667, "rental_uris": {"android": "https://dc.lft.to/lastmile_qr_scan", "ios": "https://dc.lft.to/lastmile_qr_scan"}, "bike_id": "26b1ce768a86285105ad5f5c6358a1e0", "lon": -77.04272066666667}, {"is_reserved": 0, "fusion_lon": 0.0, "fusion_lat": 0.0, "name": "214c7dd3d4dc7b1bb37750fb3581ecc3", "type": "electric_scooter", "is_disabled": 0, "lat": 38.91115283333333, "rental_uris": {"android": "https://dc.lft.to/lastmile_qr_scan", "ios": "https://dc.lft.to/lastmile_qr_scan"}, "bike_id": "214c7dd3d4dc7b1bb37750fb3581ecc3", "lon": -77.04320566666667}, {"is_reserved": 0, "fusion_lon": 0.0, "fusion_lat": 0.0, "name": "f42009e093252195c5edd38466f6e676", "type": "electric_scooter", "is_disabled": 0, "lat": 38.9086315, "rental_uris": {"android": "https://dc.lft.to/lastmile_qr_scan", "ios": "https://dc.lft.to/lastmile_qr_scan"}, "bike_id": "f42009e093252195c5edd38466f6e676", "lon": -77.070921}, {"is_reserved": 0, "fusion_lon": 0.0, "fusion_lat": 0.0, "name": "83f801a92c9048a309c204bde479c601", "type": "electric_scooter", "is_disabled": 0, "lat": 38.876837, "rental_uris": {"android": "https://dc.lft.to/lastmile_qr_scan", "ios": "https://dc.lft.to/lastmile_qr_scan"}, "bike_id": "83f801a92c9048a309c204bde479c601", "lon": -77.01791116666666}, {"is_reserved": 0, "fusion_lon": 0.0, "fusion_lat": 0.0, "name": "810921a9616110e2cb1615c57447f2af", "type": "electric_scooter", "is_disabled": 0, "lat": 38.90592616666667, "rental_uris": {"android": "https://dc.lft.to/lastmile_qr_scan", "ios": "https://dc.lft.to/lastmile_qr_scan"}, "bike_id": "810921a9616110e2cb1615c57447f2af", "lon": -77.00725133333333}, {"is_reserved": 0, "fusion_lon": 0.0, "fusion_lat": 0.0, "name": "58f37dce1445b77251b554008d990449", "type": "electric_scooter", "is_disabled": 0, "lat": 38.88064883333333, "rental_uris": {"android": "https://dc.lft.to/lastmile_qr_scan", "ios": "https://dc.lft.to/lastmile_qr_scan"}, "bike_id": "58f37dce1445b77251b554008d990449", "lon": -76.9321565}, {"is_reserved": 0, "fusion_lon": 0.0, "fusion_lat": 0.0, "name": "af2620b5dcedb47e86e3a7bcea986fdf", "type": "electric_scooter", "is_disabled": 0, "lat": 38.919871, "rental_uris": {"android": "https://dc.lft.to/lastmile_qr_scan", "ios": "https://dc.lft.to/lastmile_qr_scan"}, "bike_id": "af2620b5dcedb47e86e3a7bcea986fdf", "lon": -77.0325135}, {"is_reserved": 0, "fusion_lon": 0.0, "fusion_lat": 0.0, "name": "655fea0a663807f4a337fdab681ef0b5", "type": "electric_bike", "is_disabled": 0, "lat": 38.9492405, "rental_uris": {"android": "https://dc.lft.to/lastmile_qr_scan", "ios": "https://dc.lft.to/lastmile_qr_scan"}, "bike_id": "655fea0a663807f4a337fdab681ef0b5", "lon": -77.00799616666667}, {"is_reserved": 0, "fusion_lon": 0.0, "fusion_lat": 0.0, "name": "977e4278be81391a41a0ced242e5eea9", "type": "electric_scooter", "is_disabled": 0, "lat": 38.91068383333333, "rental_uris": {"android": "https://dc.lft.to/lastmile_qr_scan", "ios": "https://dc.lft.to/lastmile_qr_scan"}, "bike_id": "977e4278be81391a41a0ced242e5eea9", "lon": -77.04252916666667}, {"is_reserved": 0, "fusion_lon": 0.0, "fusion_lat": 0.0, "name": "7ef4b7b33487ee3da434fe86532e5b27", "type": "electric_scooter", "is_disabled": 0, "lat": 38.906514666666666, "rental_uris": {"android": "https://dc.lft.to/lastmile_qr_scan", "ios": "https://dc.lft.to/lastmile_qr_scan"}, "bike_id": "7ef4b7b33487ee3da434fe86532e5b27", "lon": -77.02713116666666}, {"is_reserved": 0, "fusion_lon": 0.0, "fusion_lat": 0.0, "name": "9fa6d19a1ea334796ed509999e6653cf", "type": "electric_scooter", "is_disabled": 0, "lat": 38.901232666666665, "rental_uris": {"android": "https://dc.lft.to/lastmile_qr_scan", "ios": "https://dc.lft.to/lastmile_qr_scan"}, "bike_id": "9fa6d19a1ea334796ed509999e6653cf", "lon": -77.04363883333333}, {"is_reserved": 0, "fusion_lon": 0.0, "fusion_lat": 0.0, "name": "99f39b49371982c31ed7204bc7b62e3f", "type": "electric_scooter", "is_disabled": 0, "lat": 38.90886916666667, "rental_uris": {"android": "https://dc.lft.to/lastmile_qr_scan", "ios": "https://dc.lft.to/lastmile_qr_scan"}, "bike_id": "99f39b49371982c31ed7204bc7b62e3f", "lon": -77.04576516666667}, {"is_reserved": 0, "fusion_lon": 0.0, "fusion_lat": 0.0, "name": "2a48b5da9a956690cd743f5e8ccd3354", "type": "electric_scooter", "is_disabled": 0, "lat": 38.9097565, "rental_uris": {"android": "https://dc.lft.to/lastmile_qr_scan", "ios": "https://dc.lft.to/lastmile_qr_scan"}, "bike_id": "2a48b5da9a956690cd743f5e8ccd3354", "lon": -77.03833783333333}, {"is_reserved": 0, "fusion_lon": 0.0, "fusion_lat": 0.0, "name": "098b9649c7186263e8c3dda1aa2ad856", "type": "electric_scooter", "is_disabled": 0, "lat": 38.9191635, "rental_uris": {"android": "https://dc.lft.to/lastmile_qr_scan", "ios": "https://dc.lft.to/lastmile_qr_scan"}, "bike_id": "098b9649c7186263e8c3dda1aa2ad856", "lon": -77.044593}, {"is_reserved": 0, "fusion_lon": 0.0, "fusion_lat": 0.0, "name": "36c8dabfae28bc53ef71a4d2b171e01f", "type": "electric_scooter", "is_disabled": 0, "lat": 38.91770116666667, "rental_uris": {"android": "https://dc.lft.to/lastmile_qr_scan", "ios": "https://dc.lft.to/lastmile_qr_scan"}, "bike_id": "36c8dabfae28bc53ef71a4d2b171e01f", "lon": -77.032173}, {"is_reserved": 0, "fusion_lon": 0.0, "fusion_lat": 0.0, "name": "a88b2b4b5b001a3b0b534ea57a7b3f76", "type": "electric_scooter", "is_disabled": 0, "lat": 38.93004916666667, "rental_uris": {"android": "https://dc.lft.to/lastmile_qr_scan", "ios": "https://dc.lft.to/lastmile_qr_scan"}, "bike_id": "a88b2b4b5b001a3b0b534ea57a7b3f76", "lon": -77.01305283333333}, {"is_reserved": 0, "fusion_lon": 0.0, "fusion_lat": 0.0, "name": "36d556198a596adcd57c8df352ee5a21", "type": "electric_scooter", "is_disabled": 0, "lat": 38.9167015, "rental_uris": {"android": "https://dc.lft.to/lastmile_qr_scan", "ios": "https://dc.lft.to/lastmile_qr_scan"}, "bike_id": "36d556198a596adcd57c8df352ee5a21", "lon": -77.01912366666667}, {"is_reserved": 0, "fusion_lon": 0.0, "fusion_lat": 0.0, "name": "c57ad428bbef869e7f09c75a137561e9", "type": "electric_scooter", "is_disabled": 0, "lat": 38.921095666666666, "rental_uris": {"android": "https://dc.lft.to/lastmile_qr_scan", "ios": "https://dc.lft.to/lastmile_qr_scan"}, "bike_id": "c57ad428bbef869e7f09c75a137561e9", "lon": -77.03328133333333}, {"is_reserved": 0, "fusion_lon": 0.0, "fusion_lat": 0.0, "name": "ecf07c8965962692b6d57a2c16320100", "type": "electric_scooter", "is_disabled": 0, "lat": 38.903968666666664, "rental_uris": {"android": "https://dc.lft.to/lastmile_qr_scan", "ios": "https://dc.lft.to/lastmile_qr_scan"}, "bike_id": "ecf07c8965962692b6d57a2c16320100", "lon": -77.04035883333333}, {"is_reserved": 0, "fusion_lon": 0.0, "fusion_lat": 0.0, "name": "489aa0219e542a5ec250ad0b309683d3", "type": "electric_scooter", "is_disabled": 0, "lat": 38.86650733333333, "rental_uris": {"android": "https://dc.lft.to/lastmile_qr_scan", "ios": "https://dc.lft.to/lastmile_qr_scan"}, "bike_id": "489aa0219e542a5ec250ad0b309683d3", "lon": -76.98520816666667}, {"is_reserved": 0, "fusion_lon": 0.0, "fusion_lat": 0.0, "name": "8eca621b5395cdcdee10af4a0fe96dcf", "type": "electric_scooter", "is_disabled": 0, "lat": 38.91673933333333, "rental_uris": {"android": "https://dc.lft.to/lastmile_qr_scan", "ios": "https://dc.lft.to/lastmile_qr_scan"}, "bike_id": "8eca621b5395cdcdee10af4a0fe96dcf", "lon": -77.02985833333334}, {"is_reserved": 0, "fusion_lon": 0.0, "fusion_lat": 0.0, "name": "fd153dd6981a8fac1ddbb51ddbc314b2", "type": "electric_scooter", "is_disabled": 0, "lat": 38.87459883333333, "rental_uris": {"android": "https://dc.lft.to/lastmile_qr_scan", "ios": "https://dc.lft.to/lastmile_qr_scan"}, "bike_id": "fd153dd6981a8fac1ddbb51ddbc314b2", "lon": -77.005387}, {"is_reserved": 0, "fusion_lon": 0.0, "fusion_lat": 0.0, "name": "6c072a4e3cd70844ab00bc4e079d01d2", "type": "electric_scooter", "is_disabled": 0, "lat": 38.866659166666665, "rental_uris": {"android": "https://dc.lft.to/lastmile_qr_scan", "ios": "https://dc.lft.to/lastmile_qr_scan"}, "bike_id": "6c072a4e3cd70844ab00bc4e079d01d2", "lon": -76.98879583333333}, {"is_reserved": 0, "fusion_lon": 0.0, "fusion_lat": 0.0, "name": "272fbbc6c953ee7402e6c4a1812312f7", "type": "electric_scooter", "is_disabled": 0, "lat": 38.907693333333334, "rental_uris": {"android": "https://dc.lft.to/lastmile_qr_scan", "ios": "https://dc.lft.to/lastmile_qr_scan"}, "bike_id": "272fbbc6c953ee7402e6c4a1812312f7", "lon": -77.03831433333333}, {"is_reserved": 0, "fusion_lon": 0.0, "fusion_lat": 0.0, "name": "4d473298204cf44700f2773873aa9c5b", "type": "electric_scooter", "is_disabled": 0, "lat": 38.9237335, "rental_uris": {"android": "https://dc.lft.to/lastmile_qr_scan", "ios": "https://dc.lft.to/lastmile_qr_scan"}, "bike_id": "4d473298204cf44700f2773873aa9c5b", "lon": -77.02743233333334}, {"is_reserved": 0, "fusion_lon": 0.0, "fusion_lat": 0.0, "name": "dc5b36804c72285dfffc702a164b137b", "type": "electric_scooter", "is_disabled": 0, "lat": 38.89224433333333, "rental_uris": {"android": "https://dc.lft.to/lastmile_qr_scan", "ios": "https://dc.lft.to/lastmile_qr_scan"}, "bike_id": "dc5b36804c72285dfffc702a164b137b", "lon": -77.04375033333334}, {"is_reserved": 0, "fusion_lon": 0.0, "fusion_lat": 0.0, "name": "2b9c24dbf702871de26787ee67386625", "type": "electric_scooter", "is_disabled": 0, "lat": 38.9196495, "rental_uris": {"android": "https://dc.lft.to/lastmile_qr_scan", "ios": "https://dc.lft.to/lastmile_qr_scan"}, "bike_id": "2b9c24dbf702871de26787ee67386625", "lon": -77.02401933333333}, {"is_reserved": 0, "fusion_lon": 0.0, "fusion_lat": 0.0, "name": "b052c3ac382ebd584b480438d773a044", "type": "electric_scooter", "is_disabled": 0, "lat": 38.911921, "rental_uris": {"android": "https://dc.lft.to/lastmile_qr_scan", "ios": "https://dc.lft.to/lastmile_qr_scan"}, "bike_id": "b052c3ac382ebd584b480438d773a044", "lon": -77.0383475}, {"is_reserved": 0, "fusion_lon": 0.0, "fusion_lat": 0.0, "name": "ccfd678b6c9d14441df6f2d77b23bb79", "type": "electric_scooter", "is_disabled": 0, "lat": 38.8922385, "rental_uris": {"android": "https://dc.lft.to/lastmile_qr_scan", "ios": "https://dc.lft.to/lastmile_qr_scan"}, "bike_id": "ccfd678b6c9d14441df6f2d77b23bb79", "lon": -77.02627966666667}, {"is_reserved": 0, "fusion_lon": 0.0, "fusion_lat": 0.0, "name": "e9b9de0021c02cdce145d890c8fd188a", "type": "electric_bike", "is_disabled": 0, "lat": 38.962781666666665, "rental_uris": {"android": "https://dc.lft.to/lastmile_qr_scan", "ios": "https://dc.lft.to/lastmile_qr_scan"}, "bike_id": "e9b9de0021c02cdce145d890c8fd188a", "lon": -77.01456166666667}, {"is_reserved": 0, "fusion_lon": 0.0, "fusion_lat": 0.0, "name": "86c8535133b78b824166cc1ad8dee496", "type": "electric_bike", "is_disabled": 0, "lat": 38.930942, "rental_uris": {"android": "https://dc.lft.to/lastmile_qr_scan", "ios": "https://dc.lft.to/lastmile_qr_scan"}, "bike_id": "86c8535133b78b824166cc1ad8dee496", "lon": -77.025941}, {"is_reserved": 0, "fusion_lon": 0.0, "fusion_lat": 0.0, "name": "ad4b622516fdf5b6888e98c9121d7990", "type": "electric_scooter", "is_disabled": 0, "lat": 38.93442266666667, "rental_uris": {"android": "https://dc.lft.to/lastmile_qr_scan", "ios": "https://dc.lft.to/lastmile_qr_scan"}, "bike_id": "ad4b622516fdf5b6888e98c9121d7990", "lon": -76.998813}, {"is_reserved": 0, "fusion_lon": 0.0, "fusion_lat": 0.0, "name": "c2139fc1d18aa30b4f29844cc48dd423", "type": "electric_scooter", "is_disabled": 0, "lat": 38.926809, "rental_uris": {"android": "https://dc.lft.to/lastmile_qr_scan", "ios": "https://dc.lft.to/lastmile_qr_scan"}, "bike_id": "c2139fc1d18aa30b4f29844cc48dd423", "lon": -77.0277885}, {"is_reserved": 0, "fusion_lon": 0.0, "fusion_lat": 0.0, "name": "cb21539e3231c78621ccccf12fceef88", "type": "electric_scooter", "is_disabled": 0, "lat": 38.9216765, "rental_uris": {"android": "https://dc.lft.to/lastmile_qr_scan", "ios": "https://dc.lft.to/lastmile_qr_scan"}, "bike_id": "cb21539e3231c78621ccccf12fceef88", "lon": -77.04007216666666}, {"is_reserved": 0, "fusion_lon": 0.0, "fusion_lat": 0.0, "name": "27bcb3344df90251772f8f8ebc7cf880", "type": "electric_scooter", "is_disabled": 0, "lat": 38.90064233333333, "rental_uris": {"android": "https://dc.lft.to/lastmile_qr_scan", "ios": "https://dc.lft.to/lastmile_qr_scan"}, "bike_id": "27bcb3344df90251772f8f8ebc7cf880", "lon": -76.94690866666667}, {"is_reserved": 0, "fusion_lon": 0.0, "fusion_lat": 0.0, "name": "e87bc7f18260f45273525d35523634b7", "type": "electric_scooter", "is_disabled": 0, "lat": 38.90976216666667, "rental_uris": {"android": "https://dc.lft.to/lastmile_qr_scan", "ios": "https://dc.lft.to/lastmile_qr_scan"}, "bike_id": "e87bc7f18260f45273525d35523634b7", "lon": -77.03852366666666}, {"is_reserved": 0, "fusion_lon": 0.0, "fusion_lat": 0.0, "name": "6c7ae363dedeee937777b3f2ad3e19e1", "type": "electric_scooter", "is_disabled": 0, "lat": 38.89504383333333, "rental_uris": {"android": "https://dc.lft.to/lastmile_qr_scan", "ios": "https://dc.lft.to/lastmile_qr_scan"}, "bike_id": "6c7ae363dedeee937777b3f2ad3e19e1", "lon": -76.9347605}, {"is_reserved": 0, "fusion_lon": 0.0, "fusion_lat": 0.0, "name": "45e851aa0cc62fa3dda8a0ab95a7ee62", "type": "electric_bike", "is_disabled": 0, "lat": 38.949833, "rental_uris": {"android": "https://dc.lft.to/lastmile_qr_scan", "ios": "https://dc.lft.to/lastmile_qr_scan"}, "bike_id": "45e851aa0cc62fa3dda8a0ab95a7ee62", "lon": -77.06628983333333}, {"is_reserved": 0, "fusion_lon": 0.0, "fusion_lat": 0.0, "name": "59c183a59d742c8c8c78287a91ffd67a", "type": "electric_bike", "is_disabled": 0, "lat": 38.837833333333336, "rental_uris": {"android": "https://dc.lft.to/lastmile_qr_scan", "ios": "https://dc.lft.to/lastmile_qr_scan"}, "bike_id": "59c183a59d742c8c8c78287a91ffd67a", "lon": -76.99753716666666}, {"is_reserved": 0, "fusion_lon": 0.0, "fusion_lat": 0.0, "name": "65e933bb846f40b8a613ce0584ae2bae", "type": "electric_scooter", "is_disabled": 0, "lat": 38.90046983333333, "rental_uris": {"android": "https://dc.lft.to/lastmile_qr_scan", "ios": "https://dc.lft.to/lastmile_qr_scan"}, "bike_id": "65e933bb846f40b8a613ce0584ae2bae", "lon": -77.04305316666667}, {"is_reserved": 0, "fusion_lon": 0.0, "fusion_lat": 0.0, "name": "6b63d3b3c003e471935cb260f9546810", "type": "electric_scooter", "is_disabled": 0, "lat": 38.900799166666665, "rental_uris": {"android": "https://dc.lft.to/lastmile_qr_scan", "ios": "https://dc.lft.to/lastmile_qr_scan"}, "bike_id": "6b63d3b3c003e471935cb260f9546810", "lon": -77.05019633333333}, {"is_reserved": 0, "fusion_lon": 0.0, "fusion_lat": 0.0, "name": "1cfbfc132f2129865a8db7bb62e9eee2", "type": "electric_scooter", "is_disabled": 0, "lat": 38.89491866666667, "rental_uris": {"android": "https://dc.lft.to/lastmile_qr_scan", "ios": "https://dc.lft.to/lastmile_qr_scan"}, "bike_id": "1cfbfc132f2129865a8db7bb62e9eee2", "lon": -77.010866}, {"is_reserved": 0, "fusion_lon": 0.0, "fusion_lat": 0.0, "name": "26ed25ea56b34d3bd6a6ba78cb4f2093", "type": "electric_scooter", "is_disabled": 0, "lat": 38.93264833333333, "rental_uris": {"android": "https://dc.lft.to/lastmile_qr_scan", "ios": "https://dc.lft.to/lastmile_qr_scan"}, "bike_id": "26ed25ea56b34d3bd6a6ba78cb4f2093", "lon": -77.01926016666667}, {"is_reserved": 0, "fusion_lon": 0.0, "fusion_lat": 0.0, "name": "5a10b14d8148eb433bd459d858fbecbb", "type": "electric_scooter", "is_disabled": 0, "lat": 38.926199, "rental_uris": {"android": "https://dc.lft.to/lastmile_qr_scan", "ios": "https://dc.lft.to/lastmile_qr_scan"}, "bike_id": "5a10b14d8148eb433bd459d858fbecbb", "lon": -77.043216}, {"is_reserved": 0, "fusion_lon": 0.0, "fusion_lat": 0.0, "name": "cb2d06d57627041e7b9f444d711b096e", "type": "electric_scooter", "is_disabled": 0, "lat": 38.83496566666667, "rental_uris": {"android": "https://dc.lft.to/lastmile_qr_scan", "ios": "https://dc.lft.to/lastmile_qr_scan"}, "bike_id": "cb2d06d57627041e7b9f444d711b096e", "lon": -77.00673916666666}, {"is_reserved": 0, "fusion_lon": 0.0, "fusion_lat": 0.0, "name": "b56e3ac44a4de9758225361be125eb33", "type": "electric_bike", "is_disabled": 0, "lat": 38.8820165, "rental_uris": {"android": "https://dc.lft.to/lastmile_qr_scan", "ios": "https://dc.lft.to/lastmile_qr_scan"}, "bike_id": "b56e3ac44a4de9758225361be125eb33", "lon": -77.11742866666667}, {"is_reserved": 0, "fusion_lon": 0.0, "fusion_lat": 0.0, "name": "fbee6a82b6699484bf4ba7badf12a953", "type": "electric_scooter", "is_disabled": 0, "lat": 38.89206183333334, "rental_uris": {"android": "https://dc.lft.to/lastmile_qr_scan", "ios": "https://dc.lft.to/lastmile_qr_scan"}, "bike_id": "fbee6a82b6699484bf4ba7badf12a953", "lon": -76.95692883333334}, {"is_reserved": 0, "fusion_lon": 0.0, "fusion_lat": 0.0, "name": "18674937054c8ddd0ea149c45ea9f963", "type": "electric_scooter", "is_disabled": 0, "lat": 38.94504083333333, "rental_uris": {"android": "https://dc.lft.to/lastmile_qr_scan", "ios": "https://dc.lft.to/lastmile_qr_scan"}, "bike_id": "18674937054c8ddd0ea149c45ea9f963", "lon": -77.034973}, {"is_reserved": 0, "fusion_lon": 0.0, "fusion_lat": 0.0, "name": "6856d77644c735c0577896a2542bb874", "type": "electric_scooter", "is_disabled": 0, "lat": 38.878440499999996, "rental_uris": {"android": "https://dc.lft.to/lastmile_qr_scan", "ios": "https://dc.lft.to/lastmile_qr_scan"}, "bike_id": "6856d77644c735c0577896a2542bb874", "lon": -77.019658}, {"is_reserved": 0, "fusion_lon": 0.0, "fusion_lat": 0.0, "name": "ec7850ccc7801ab8d13636c8c982fb75", "type": "electric_scooter", "is_disabled": 0, "lat": 38.91822033333333, "rental_uris": {"android": "https://dc.lft.to/lastmile_qr_scan", "ios": "https://dc.lft.to/lastmile_qr_scan"}, "bike_id": "ec7850ccc7801ab8d13636c8c982fb75", "lon": -77.012101}, {"is_reserved": 0, "fusion_lon": 0.0, "fusion_lat": 0.0, "name": "0eac79b5046dfc6c28996c5497029f47", "type": "electric_scooter", "is_disabled": 0, "lat": 38.90084983333333, "rental_uris": {"android": "https://dc.lft.to/lastmile_qr_scan", "ios": "https://dc.lft.to/lastmile_qr_scan"}, "bike_id": "0eac79b5046dfc6c28996c5497029f47", "lon": -76.93026716666667}, {"is_reserved": 0, "fusion_lon": 0.0, "fusion_lat": 0.0, "name": "e00179f8ae4e00d7ecea168b5a735db3", "type": "electric_scooter", "is_disabled": 0, "lat": 38.9420425, "rental_uris": {"android": "https://dc.lft.to/lastmile_qr_scan", "ios": "https://dc.lft.to/lastmile_qr_scan"}, "bike_id": "e00179f8ae4e00d7ecea168b5a735db3", "lon": -77.02501233333334}, {"is_reserved": 0, "fusion_lon": 0.0, "fusion_lat": 0.0, "name": "4f4f28c90463e8092fd32fe009b8c83f", "type": "electric_scooter", "is_disabled": 0, "lat": 38.925083666666666, "rental_uris": {"android": "https://dc.lft.to/lastmile_qr_scan", "ios": "https://dc.lft.to/lastmile_qr_scan"}, "bike_id": "4f4f28c90463e8092fd32fe009b8c83f", "lon": -77.0022395},