{"data": {"bikes": [{"lat": 38.89968616666667, "lon": -77.05101683333334, "is_disabled": 0, "fusion_lon": 0.0, "is_reserved": 0, "name": "90f8ebfea72e7ccae6e23e2f47dbb4c4", "type": "electric_scooter", "bike_id": "90f8ebfea72e7ccae6e23e2f47dbb4c4", "rental_uris": {"ios": "https://dc.lft.to/lastmile_qr_scan", "android": "https://dc.lft.to/lastmile_qr_scan"}, "fusion_lat": 0.0}, {"lat": 38.905204, "lon": -77.06584883333333, "is_disabled": 0, "fusion_lon": 0.0, "is_reserved": 0, "name": "78717af3202730e739de50aa53012a19", "type": "electric_scooter", "bike_id": "78717af3202730e739de50aa53012a19", "rental_uris": {"ios": "https://dc.lft.to/lastmile_qr_scan", "android": "https://dc.lft.to/lastmile_qr_scan"}, "fusion_lat": 0.0}, {"lat": 38.89905016666667, "lon": -77.02387516666667, "is_disabled": 0, "fusion_lon": 0.0, "is_reserved": 0, "name": "938f68410f9c03e6ca8e3a104460796c", "type": "electric_scooter", "bike_id": "938f68410f9c03e6ca8e3a104460796c", "rental_uris": {"ios": "https://dc.lft.to/lastmile_qr_scan", "android": "https://dc.lft.to/lastmile_qr_scan"}, "fusion_lat": 0.0}, {"lat": 38.89844, "lon": -77.03951666666667, "is_disabled": 0, "fusion_lon": 0.0, "is_reserved": 0, "name": "c4f80aab383e1a0c09ddb3c6b5f11b33", "type": "electric_scooter", "bike_id": "c4f80aab383e1a0c09ddb3c6b5f11b33", "rental_uris": {"ios": "https://dc.lft.to/lastmile_qr_scan", "android": "https://dc.lft.to/lastmile_qr_scan"}, "fusion_lat": 0.0}, {"lat": 38.85205083333334, "lon": -76.96297, "is_disabled": 0, "fusion_lon": 0.0, "is_reserved": 0, "name": "16f7c52721c01f95238f366cfb025a8a", "type": "electric_bike", "bike_id": "16f7c52721c01f95238f366cfb025a8a", "rental_uris": {"ios": "https://dc.lft.to/lastmile_qr_scan", "android": "https://dc.lft.to/lastmile_qr_scan"}, "fusion_lat": 0.0}, {"lat": 38.90983816666667, "lon": -77.02292733333333, "is_disabled": 0, "fusion_lon": 0.0, "is_reserved": 0, "name": "89eaeccc759e0bfb22d94ef2bf902238", "type": "electric_scooter", "bike_id": "89eaeccc759e0bfb22d94ef2bf902238", "rental_uris": {"ios": "https://dc.lft.to/lastmile_qr_scan", "android": "https://dc.lft.to/lastmile_qr_scan"}, "fusion_lat": 0.0}, {"lat": 38.917011, "lon": -77.02898533333334, "is_disabled": 0, "fusion_lon": 0.0, "is_reserved": 0, "name": "35302a100d51d6e065b438fc419fe0f0", "type": "electric_scooter", "bike_id": "35302a100d51d6e065b438fc419fe0f0", "rental_uris": {"ios": "https://dc.lft.to/lastmile_qr_scan", "android": "https://dc.lft.to/lastmile_qr_scan"}, "fusion_lat": 0.0}, {"lat": 38.88740583333333, "lon": -77.02129316666667, "is_disabled": 0, "fusion_lon": 0.0, "is_reserved": 0, "name": "3a6c08548378da12f9e3f71e3074b29f", "type": "electric_scooter", "bike_id": "3a6c08548378da12f9e3f71e3074b29f", "rental_uris": {"ios": "https://dc.lft.to/lastmile_qr_scan", "android": "https://dc.lft.to/lastmile_qr_scan"}, "fusion_lat": 0.0}, {"lat": 38.92864266666667, "lon": -77.0330355, "is_disabled": 0, "fusion_lon": 0.0, "is_reserved": 0, "name": "ffaf631a93ab7be2f4af85b14cb7049e", "type": "electric_scooter", "bike_id": "ffaf631a93ab7be2f4af85b14cb7049e", "rental_uris": {"ios": "https://dc.lft.to/lastmile_qr_scan", "android": "https://dc.lft.to/lastmile_qr_scan"}, "fusion_lat": 0.0}, {"lat": 38.89721316666667, "lon": -77.04994766666667, "is_disabled": 0, "fusion_lon": 0.0, "is_reserved": 0, "name": "ee6e33ba7fecf0713be7ebaa53017e64", "type": "electric_scooter", "bike_id": "ee6e33ba7fecf0713be7ebaa53017e64", "rental_uris": {"ios": "https://dc.lft.to/lastmile_qr_scan", "android": "https://dc.lft.to/lastmile_qr_scan"}, "fusion_lat": 0.0}, {"lat": 38.910002666666664, "lon": -77.02697533333334, "is_disabled": 0, "fusion_lon": 0.0, "is_reserved": 0, "name": "3cafd9b5548e11217797c60f71bafe77", "type": "electric_scooter", "bike_id": "3cafd9b5548e11217797c60f71bafe77", "rental_uris": {"ios": "https://dc.lft.to/lastmile_qr_scan", "android": "https://dc.lft.to/lastmile_qr_scan"}, "fusion_lat": 0.0}, {"lat": 38.928614333333336, "lon": -77.0544005, "is_disabled": 0, "fusion_lon": 0.0, "is_reserved": 0, "name": "3e6b8a28f17a450be858e0c1b32cdf56", "type": "electric_scooter", "bike_id": "3e6b8a28f17a450be858e0c1b32cdf56", "rental_uris": {"ios": "https://dc.lft.to/lastmile_qr_scan", "android": "https://dc.lft.to/lastmile_qr_scan"}, "fusion_lat": 0.0}, {"lat": 38.907861, "lon": -77.03868633333333, "is_disabled": 0, "fusion_lon": 0.0, "is_reserved": 0, "name": "18162b42bf38dd437df71a2fbaf5f164", "type": "electric_scooter", "bike_id": "18162b42bf38dd437df71a2fbaf5f164", "rental_uris": {"ios": "https://dc.lft.to/lastmile_qr_scan", "android": "https://dc.lft.to/lastmile_qr_scan"}, "fusion_lat": 0.0}, {"lat": 38.904634333333334, "lon": -77.03454383333333, "is_disabled": 0, "fusion_lon": 0.0, "is_reserved": 0, "name": "e3937764886b749356ce0c3b695fa62d", "type": "electric_scooter", "bike_id": "e3937764886b749356ce0c3b695fa62d", "rental_uris": {"ios": "https://dc.lft.to/lastmile_qr_scan", "android": "https://dc.lft.to/lastmile_qr_scan"}, "fusion_lat": 0.0}, {"lat": 38.90271366666666, "lon": -77.03437416666667, "is_disabled": 0, "fusion_lon": 0.0, "is_reserved": 0, "name": "fbee6ed44716bcfae552d37e280a4122", "type": "electric_scooter", "bike_id": "fbee6ed44716bcfae552d37e280a4122", "rental_uris": {"ios": "https://dc.lft.to/lastmile_qr_scan", "android": "https://dc.lft.to/lastmile_qr_scan"}, "fusion_lat": 0.0}, {"lat": 38.875225666666665, "lon": -77.00177683333334, "is_disabled": 0, "fusion_lon": 0.0, "is_reserved": 0, "name": "9625c49957eae7d541606342a5aa8f32", "type": "electric_scooter", "bike_id": "9625c49957eae7d541606342a5aa8f32", "rental_uris": {"ios": "https://dc.lft.to/lastmile_qr_scan", "android": "https://dc.lft.to/lastmile_qr_scan"}, "fusion_lat": 0.0}, {"lat": 38.9207675, "lon": -77.02368483333333, "is_disabled": 0, "fusion_lon": 0.0, "is_reserved": 0, "name": "ddcd8ebaa3ce2fba923521a9e7b650ae", "type": "electric_scooter", "bike_id": "ddcd8ebaa3ce2fba923521a9e7b650ae", "rental_uris": {"ios": "https://dc.lft.to/lastmile_qr_scan", "android": "https://dc.lft.to/lastmile_qr_scan"}, "fusion_lat": 0.0}, {"lat": 38.847719, "lon": -76.966324, "is_disabled": 0, "fusion_lon": 0.0, "is_reserved": 0, "name": "0ba0b2965104a670dd9d0ec104a3bffd", "type": "electric_bike", "bike_id": "0ba0b2965104a670dd9d0ec104a3bffd", "rental_uris": {"ios": "https://dc.lft.to/lastmile_qr_scan", "android": "https://dc.lft.to/lastmile_qr_scan"}, "fusion_lat": 0.0}, {"lat": 38.84425533333334, "lon": -76.99781, "is_disabled": 0, "fusion_lon": 0.0, "is_reserved": 0, "name": "1dbd123425fb33c77c20a7927683cbc8", "type": "electric_scooter", "bike_id": "1dbd123425fb33c77c20a7927683cbc8", "rental_uris": {"ios": "https://dc.lft.to/lastmile_qr_scan", "android": "https://dc.lft.to/lastmile_qr_scan"}, "fusion_lat": 0.0}, {"lat": 38.909218, "lon": -76.99964183333333, "is_disabled": 0, "fusion_lon": 0.0, "is_reserved": 0, "name": "2985551f48ab800198865bee4671ffdf", "type": "electric_scooter", "bike_id": "2985551f48ab800198865bee4671ffdf", "rental_uris": {"ios": "https://dc.lft.to/lastmile_qr_scan", "android": "https://dc.lft.to/lastmile_qr_scan"}, "fusion_lat": 0.0}, {"lat": 38.909651, "lon": -77.03574016666667, "is_disabled": 0, "fusion_lon": 0.0, "is_reserved": 0, "name": "1fcd5f432bf60f741cd2fb3d1836eb8f", "type": "electric_scooter", "bike_id": "1fcd5f432bf60f741cd2fb3d1836eb8f", "rental_uris": {"ios": "https://dc.lft.to/lastmile_qr_scan", "android": "https://dc.lft.to/lastmile_qr_scan"}, "fusion_lat": 0.0}, {"lat": 38.89509366666667, "lon": -77.01119216666666, "is_disabled": 0, "fusion_lon": 0.0, "is_reserved": 0, "name": "7de2f68defc1454851f0917efdd839f3", "type": "electric_scooter", "bike_id": "7de2f68defc1454851f0917efdd839f3", "rental_uris": {"ios": "https://dc.lft.to/lastmile_qr_scan", "android": "https://dc.lft.to/lastmile_qr_scan"}, "fusion_lat": 0.0}, {"lat": 38.8097535, "lon": -77.07657466666667, "is_disabled": 0, "fusion_lon": 0.0, "is_reserved": 0, "name": "2a3a12ab4e8e94beaa72594fb0e8d217", "type": "electric_bike", "bike_id": "2a3a12ab4e8e94beaa72594fb0e8d217", "rental_uris": {"ios": "https://dc.lft.to/lastmile_qr_scan", "android": "https://dc.lft.to/lastmile_qr_scan"}, "fusion_lat": 0.0}, {"lat": 38.961786833333335, "lon": -77.0143515, "is_disabled": 0, "fusion_lon": 0.0, "is_reserved": 0, "name": "8cfa2d6073dca691dbe903e7bf9b8e1d", "type": "electric_scooter", "bike_id": "8cfa2d6073dca691dbe903e7bf9b8e1d", "rental_uris": {"ios": "https://dc.lft.to/lastmile_qr_scan", "android": "https://dc.lft.to/lastmile_qr_scan"}, "fusion_lat": 0.0}, {"lat": 38.90633366666667, "lon": -77.04332466666666, "is_disabled": 0, "fusion_lon": 0.0, "is_reserved": 0, "name": "7ad51a845f717e3a457fe415d59ce5f5", "type": "electric_bike", "bike_id": "7ad51a845f717e3a457fe415d59ce5f5", "rental_uris": {"ios": "https://dc.lft.to/lastmile_qr_scan", "android": "https://dc.lft.to/lastmile_qr_scan"}, "fusion_lat": 0.0}, {"lat": 38.916556, "lon": -77.0247535, "is_disabled": 0, "fusion_lon": 0.0, "is_reserved": 0, "name": "6b9375117529cff9bcb208f3dfe24a80", "type": "electric_scooter", "bike_id": "6b9375117529cff9bcb208f3dfe24a80", "rental_uris": {"ios": "https://dc.lft.to/lastmile_qr_scan", "android": "https://dc.lft.to/lastmile_qr_scan"}, "fusion_lat": 0.0}, {"lat": 38.90268733333333, "lon": -77.0214255, "is_disabled": 0, "fusion_lon": 0.0, "is_reserved": 0, "name": "36f8576ba61c75014c3e87496bf5beb3", "type": "electric_scooter", "bike_id": "36f8576ba61c75014c3e87496bf5beb3", "rental_uris": {"ios": "https://dc.lft.to/lastmile_qr_scan", "android": "https://dc.lft.to/lastmile_qr_scan"}, "fusion_lat": 0.0}, {"lat": 38.900462166666664, "lon": -77.00073833333333, "is_disabled": 0, "fusion_lon": 0.0, "is_reserved": 0, "name": "0a36cf9efa09eb7b794d98cdaee065b7", "type": "electric_scooter", "bike_id": "0a36cf9efa09eb7b794d98cdaee065b7", "rental_uris": {"ios": "https://dc.lft.to/lastmile_qr_scan", "android": "https://dc.lft.to/lastmile_qr_scan"}, "fusion_lat": 0.0}, {"lat": 38.949726166666665, "lon": -77.06658633333333, "is_disabled": 0, "fusion_lon": 0.0, "is_reserved": 0, "name": "2fa5cc4b13676e4fb91692935ab71cc1", "type": "electric_scooter", "bike_id": "2fa5cc4b13676e4fb91692935ab71cc1", "rental_uris": {"ios": "https://dc.lft.to/lastmile_qr_scan", "android": "https://dc.lft.to/lastmile_qr_scan"}, "fusion_lat": 0.0}, {"lat": 38.93248783333333, "lon": -77.03284066666667, "is_disabled": 0, "fusion_lon": 0.0, "is_reserved": 0, "name": "02dd3504b9ce3afa813a0ec853a212a3", "type": "electric_scooter", "bike_id": "02dd3504b9ce3afa813a0ec853a212a3", "rental_uris": {"ios": "https://dc.lft.to/lastmile_qr_scan", "android": "https://dc.lft.to/lastmile_qr_scan"}, "fusion_lat": 0.0}, {"lat": 38.90673, "lon": -77.02713466666667, "is_disabled": 0, "fusion_lon": 0.0, "is_reserved": 0, "name": "54e971044180172988f1f9d43ff8331d", "type": "electric_scooter", "bike_id": "54e971044180172988f1f9d43ff8331d", "rental_uris": {"ios": "https://dc.lft.to/lastmile_qr_scan", "android": "https://dc.lft.to/lastmile_qr_scan"}, "fusion_lat": 0.0}, {"lat": 38.90819583333333, "lon": -77.04357533333334, "is_disabled": 0, "fusion_lon": 0.0, "is_reserved": 0, "name": "8bcd68ae4fcf3371f312b532b86cb3a5", "type": "electric_scooter", "bike_id": "8bcd68ae4fcf3371f312b532b86cb3a5", "rental_uris": {"ios": "https://dc.lft.to/lastmile_qr_scan", "android": "https://dc.lft.to/lastmile_qr_scan"}, "fusion_lat": 0.0}, {"lat": 38.895788333333336, "lon": -76.983222, "is_disabled": 0, "fusion_lon": 0.0, "is_reserved": 0, "name": "9ffb5ee7593f648993c27b34cda480c1", "type": "electric_scooter", "bike_id": "9ffb5ee7593f648993c27b34cda480c1", "rental_uris": {"ios": "https://dc.lft.to/lastmile_qr_scan", "android": "https://dc.lft.to/lastmile_qr_scan"}, "fusion_lat": 0.0}, {"lat": 38.89226766666667, "lon": -77.02208033333334, "is_disabled": 0, "fusion_lon": 0.0, "is_reserved": 0, "name": "8a0bbd0540d9389c0dced9343ac30b25", "type": "electric_scooter", "bike_id": "8a0bbd0540d9389c0dced9343ac30b25", "rental_uris": {"ios": "https://dc.lft.to/lastmile_qr_scan", "android": "https://dc.lft.to/lastmile_qr_scan"}, "fusion_lat": 0.0}, {"lat": 38.903364333333336, "lon": -77.02003833333333, "is_disabled": 0, "fusion_lon": 0.0, "is_reserved": 0, "name": "2a14472c635f672256ba80463bb385f8", "type": "electric_scooter", "bike_id": "2a14472c635f672256ba80463bb385f8", "rental_uris": {"ios": "https://dc.lft.to/lastmile_qr_scan", "android": "https://dc.lft.to/lastmile_qr_scan"}, "fusion_lat": 0.0}, {"lat": 38.90860933333333, "lon": -76.991587, "is_disabled": 0, "fusion_lon": 0.0, "is_reserved": 0, "name": "945f14264dc0ca334e350eb94d664277", "type": "electric_scooter", "bike_id": "945f14264dc0ca334e350eb94d664277", "rental_uris": {"ios": "https://dc.lft.to/lastmile_qr_scan", "android": "https://dc.lft.to/lastmile_qr_scan"}, "fusion_lat": 0.0}, {"lat": 38.9186115, "lon": -77.0700175, "is_disabled": 0, "fusion_lon": 0.0, "is_reserved": 0, "name": "18264420f692ec00d98546806af13797", "type": "electric_scooter", "bike_id": "18264420f692ec00d98546806af13797", "rental_uris": {"ios": "https://dc.lft.to/lastmile_qr_scan", "android": "https://dc.lft.to/lastmile_qr_scan"}, "fusion_lat": 0.0}, {"lat": 38.899133666666664, "lon": -76.93380266666667, "is_disabled": 0, "fusion_lon": 0.0, "is_reserved": 0, "name": "19e6b571fe4ccb1a9144b84db97cce7a", "type": "electric_scooter", "bike_id": "19e6b571fe4ccb1a9144b84db97cce7a", "rental_uris": {"ios": "https://dc.lft.to/lastmile_qr_scan", "android": "https://dc.lft.to/lastmile_qr_scan"}, "fusion_lat": 0.0}, {"lat": 38.91034233333333, "lon": -77.04267266666666, "is_disabled": 0, "fusion_lon": 0.0, "is_reserved": 0, "name": "b07a08fd85690b59d131ad2d0205e89d", "type": "electric_scooter", "bike_id": "b07a08fd85690b59d131ad2d0205e89d", "rental_uris": {"ios": "https://dc.lft.to/lastmile_qr_scan", "android": "https://dc.lft.to/lastmile_qr_scan"}, "fusion_lat": 0.0}, {"lat": 38.87118733333333, "lon": -77.00757483333334, "is_disabled": 0, "fusion_lon": 0.0, "is_reserved": 0, "name": "5fb76c341f6f383330f926897acabaf7", "type": "electric_scooter", "bike_id": "5fb76c341f6f383330f926897acabaf7", "rental_uris": {"ios": "https://dc.lft.to/lastmile_qr_scan", "android": "https://dc.lft.to/lastmile_qr_scan"}, "fusion_lat": 0.0}, {"lat": 38.91546483333333, "lon": -77.03855283333333, "is_disabled": 0, "fusion_lon": 0.0, "is_reserved": 0, "name": "ba6b71f81cde1442804bac93819fb1e8", "type": "electric_scooter", "bike_id": "ba6b71f81cde1442804bac93819fb1e8", "rental_uris": {"ios": "https://dc.lft.to/lastmile_qr_scan", "android": "https://dc.lft.to/lastmile_qr_scan"}, "fusion_lat": 0.0}, {"lat": 38.874938666666665, "lon": -76.99974983333334, "is_disabled": 0, "fusion_lon": 0.0, "is_reserved": 0, "name": "eec1735125ae7e0fe44b5b92ab28133f", "type": "electric_scooter", "bike_id": "eec1735125ae7e0fe44b5b92ab28133f", "rental_uris": {"ios": "https://dc.lft.to/lastmile_qr_scan", "android": "https://dc.lft.to/lastmile_qr_scan"}, "fusion_lat": 0.0}, {"lat": 38.938271, "lon": -76.989942, "is_disabled": 0, "fusion_lon": 0.0, "is_reserved": 0, "name": "3a1d05f942e4422badb26b107e6a336a", "type": "electric_scooter", "bike_id": "3a1d05f942e4422badb26b107e6a336a", "rental_uris": {"ios": "https://dc.lft.to/lastmile_qr_scan", "android": "https://dc.lft.to/lastmile_qr_scan"}, "fusion_lat": 0.0}, {"lat": 38.92107333333333, "lon": -77.04696066666666, "is_disabled": 0, "fusion_lon": 0.0, "is_reserved": 0, "name": "e77cdeabdd4f3fb72a6903220a1c99eb", "type": "electric_scooter", "bike_id": "e77cdeabdd4f3fb72a6903220a1c99eb", "rental_uris": {"ios": "https://dc.lft.to/lastmile_qr_scan", "android": "https://dc.lft.to/lastmile_qr_scan"}, "fusion_lat": 0.0}, {"lat": 38.93716883333333, "lon": -77.03262083333334, "is_disabled": 0, "fusion_lon": 0.0, "is_reserved": 0, "name": "7c4ff2ef45075aecf633ee4ebed95956", "type": "electric_scooter", "bike_id": "7c4ff2ef45075aecf633ee4ebed95956", "rental_uris": {"ios": "https://dc.lft.to/lastmile_qr_scan", "android": "https://dc.lft.to/lastmile_qr_scan"}, "fusion_lat": 0.0}, {"lat": 38.8989995, "lon": -77.04861366666667, "is_disabled": 0, "fusion_lon": 0.0, "is_reserved": 0, "name": "b34e81034c685dbcdb0b4fe402326e8f", "type": "electric_scooter", "bike_id": "b34e81034c685dbcdb0b4fe402326e8f", "rental_uris": {"ios": "https://dc.lft.to/lastmile_qr_scan", "android": "https://dc.lft.to/lastmile_qr_scan"}, "fusion_lat": 0.0}, {"lat": 38.919843, "lon": -77.02537033333333, "is_disabled": 0, "fusion_lon": 0.0, "is_reserved": 0, "name": "00def02cfea317d886b86e9c8b0bf2d0", "type": "electric_scooter", "bike_id": "00def02cfea317d886b86e9c8b0bf2d0", "rental_uris": {"ios": "https://dc.lft.to/lastmile_qr_scan", "android": "https://dc.lft.to/lastmile_qr_scan"}, "fusion_lat": 0.0}, {"lat": 38.915537666666665, "lon": -77.032541, "is_disabled": 0, "fusion_lon": 0.0, "is_reserved": 0, "name": "6749c0f104de5179c7ad084a837031c4", "type": "electric_scooter", "bike_id": "6749c0f104de5179c7ad084a837031c4", "rental_uris": {"ios": "https://dc.lft.to/lastmile_qr_scan", "android": "https://dc.lft.to/lastmile_qr_scan"}, "fusion_lat": 0.0}, {"lat": 38.911236833333334, "lon": -77.04328533333333, "is_disabled": 0, "fusion_lon": 0.0, "is_reserved": 0, "name": "bcdfb7aaddb8b569122b48f35e9bc119", "type": "electric_scooter", "bike_id": "bcdfb7aaddb8b569122b48f35e9bc119", "rental_uris": {"ios": "https://dc.lft.to/lastmile_qr_scan", "android": "https://dc.lft.to/lastmile_qr_scan"}, "fusion_lat": 0.0}, {"lat": 38.923049, "lon": -77.0353165, "is_disabled": 0, "fusion_lon": 0.0, "is_reserved": 0, "name": "4bd48a3faf3d04b3606aecf4296edd50", "type": "electric_scooter", "bike_id": "4bd48a3faf3d04b3606aecf4296edd50", "rental_uris": {"ios": "https://dc.lft.to/lastmile_qr_scan", "android": "https://dc.lft.to/lastmile_qr_scan"}, "fusion_lat": 0.0}, {"lat": 39.014868166666666, "lon": -77.099528, "is_disabled": 0, "fusion_lon": 0.0, "is_reserved": 0, "name": "2e2a48b2b256612e35b7f63d11f4b4d3", "type": "electric_bike", "bike_id": "2e2a48b2b256612e35b7f63d11f4b4d3", "rental_uris": {"ios": "https://dc.lft.to/lastmile_qr_scan", "android": "https://dc.lft.to/lastmile_qr_scan"}, "fusion_lat": 0.0}, {"lat": 38.9245075, "lon": -77.05197533333333, "is_disabled": 0, "fusion_lon": 0.0, "is_reserved": 0, "name": "4601488c065b23b59f6cb899b4f25e4a", "type": "electric_scooter", "bike_id": "4601488c065b23b59f6cb899b4f25e4a", "rental_uris": {"ios": "https://dc.lft.to/lastmile_qr_scan", "android": "https://dc.lft.to/lastmile_qr_scan"}, "fusion_lat": 0.0}, {"lat": 38.9068585, "lon": -77.03663833333333, "is_disabled": 0, "fusion_lon": 0.0, "is_reserved": 0, "name": "0d6e9ba192b9471254c4fa54749c6a11", "type": "electric_scooter", "bike_id": "0d6e9ba192b9471254c4fa54749c6a11", "rental_uris": {"ios": "https://dc.lft.to/lastmile_qr_scan", "android": "https://dc.lft.to/lastmile_qr_scan"}, "fusion_lat": 0.0}, {"lat": 38.910206, "lon": -76.99726133333333, "is_disabled": 0, "fusion_lon": 0.0, "is_reserved": 0, "name": "e850ed5c4bba8c502c92d96ae14dc533", "type": "electric_scooter", "bike_id": "e850ed5c4bba8c502c92d96ae14dc533", "rental_uris": {"ios": "https://dc.lft.to/lastmile_qr_scan", "android": "https://dc.lft.to/lastmile_qr_scan"}, "fusion_lat": 0.0}, {"lat": 38.95693216666667, "lon": -77.022299, "is_disabled": 0, "fusion_lon": 0.0, "is_reserved": 0, "name": "023dbb7cb0ce750f2e6f06cb2abaa692", "type": "electric_bike", "bike_id": "023dbb7cb0ce750f2e6f06cb2abaa692", "rental_uris": {"ios": "https://dc.lft.to/lastmile_qr_scan", "android": "https://dc.lft.to/lastmile_qr_scan"}, "fusion_lat": 0.0}, {"lat": 38.930808166666665, "lon": -77.0341065, "is_disabled": 0, "fusion_lon": 0.0, "is_reserved": 0, "name": "17e8aeadb22f80024ede3b5aff4306ce", "type": "electric_scooter", "bike_id": "17e8aeadb22f80024ede3b5aff4306ce", "rental_uris": {"ios": "https://dc.lft.to/lastmile_qr_scan", "android": "https://dc.lft.to/lastmile_qr_scan"}, "fusion_lat": 0.0}, {"lat": 38.901442833333334, "lon": -77.03860466666667, "is_disabled": 0, "fusion_lon": 0.0, "is_reserved": 0, "name": "0e212b48056d688482c37358abfc103e", "type": "electric_scooter", "bike_id": "0e212b48056d688482c37358abfc103e", "rental_uris": {"ios": "https://dc.lft.to/lastmile_qr_scan", "android": "https://dc.lft.to/lastmile_qr_scan"}, "fusion_lat": 0.0}, {"lat": 38.9015005, "lon": -77.03267116666666, "is_disabled": 0, "fusion_lon": 0.0, "is_reserved": 0, "name": "a15a38f8396f6b2af4be97e0a6fe62e2", "type": "electric_scooter", "bike_id": "a15a38f8396f6b2af4be97e0a6fe62e2", "rental_uris": {"ios": "https://dc.lft.to/lastmile_qr_scan", "android": "https://dc.lft.to/lastmile_qr_scan"}, "fusion_lat": 0.0}, {"lat": 38.939483833333334, "lon": -77.0218585, "is_disabled": 0, "fusion_lon": 0.0, "is_reserved": 0, "name": "96cb07681bace6ccd20b4acaa4a7a6ac", "type": "electric_scooter", "bike_id": "96cb07681bace6ccd20b4acaa4a7a6ac", "rental_uris": {"ios": "https://dc.lft.to/lastmile_qr_scan", "android": "https://dc.lft.to/lastmile_qr_scan"}, "fusion_lat": 0.0}, {"lat": 38.928389333333335, "lon": -77.006036, "is_disabled": 0, "fusion_lon": 0.0, "is_reserved": 0, "name": "0d00b99d183098ebc18ed6f248b6ae5e", "type": "electric_scooter", "bike_id": "0d00b99d183098ebc18ed6f248b6ae5e", "rental_uris": {"ios": "https://dc.lft.to/lastmile_qr_scan", "android": "https://dc.lft.to/lastmile_qr_scan"}, "fusion_lat": 0.0}, {"lat": 38.90271466666667, "lon": -77.0629365, "is_disabled": 0, "fusion_lon": 0.0, "is_reserved": 0, "name": "d65abb1889588615d380087aaa2641d2", "type": "electric_scooter", "bike_id": "d65abb1889588615d380087aaa2641d2", "rental_uris": {"ios": "https://dc.lft.to/lastmile_qr_scan", "android": "https://dc.lft.to/lastmile_qr_scan"}, "fusion_lat": 0.0}, {"lat": 38.92798416666667, "lon": -77.02755183333333, "is_disabled": 0, "fusion_lon": 0.0, "is_reserved": 0, "name": "149cb94a3c08bb46e58ca7a11e4ab2de", "type": "electric_scooter", "bike_id": "149cb94a3c08bb46e58ca7a11e4ab2de", "rental_uris": {"ios": "https://dc.lft.to/lastmile_qr_scan", "android": "https://dc.lft.to/lastmile_qr_scan"}, "fusion_lat": 0.0}, {"lat": 38.920312, "lon": -77.01034816666666, "is_disabled": 0, "fusion_lon": 0.0, "is_reserved": 0, "name": "b8767144d9d7cb7d2a791fcdc82b0704", "type": "electric_scooter", "bike_id": "b8767144d9d7cb7d2a791fcdc82b0704", "rental_uris": {"ios": "https://dc.lft.to/lastmile_qr_scan", "android": "https://dc.lft.to/lastmile_qr_scan"}, "fusion_lat": 0.0}, {"lat": 38.91724816666667, "lon": -77.03663583333334, "is_disabled": 0, "fusion_lon": 0.0, "is_reserved": 0, "name": "ef76e7c67dc43317f8fd343a4486c4e5", "type": "electric_scooter", "bike_id": "ef76e7c67dc43317f8fd343a4486c4e5", "rental_uris": {"ios": "https://dc.lft.to/lastmile_qr_scan", "android": "https://dc.lft.to/lastmile_qr_scan"}, "fusion_lat": 0.0}, {"lat": 38.95634016666666, "lon": -77.03305, "is_disabled": 0, "fusion_lon": 0.0, "is_reserved": 0, "name": "f2e2b87131ec7c8a2636a64d45e94774", "type": "electric_scooter", "bike_id": "f2e2b87131ec7c8a2636a64d45e94774", "rental_uris": {"ios": "https://dc.lft.to/lastmile_qr_scan", "android": "https://dc.lft.to/lastmile_qr_scan"}, "fusion_lat": 0.0}, {"lat": 38.80672083333333, "lon": -77.069231, "is_disabled": 0, "fusion_lon": 0.0, "is_reserved": 0, "name": "6c4a149860e7bcf119a40aefaf405878", "type": "electric_bike", "bike_id": "6c4a149860e7bcf119a40aefaf405878", "rental_uris": {"ios": "https://dc.lft.to/lastmile_qr_scan", "android": "https://dc.lft.to/lastmile_qr_scan"}, "fusion_lat": 0.0}, {"lat": 38.93086183333333, "lon": -77.02489183333333, "is_disabled": 0, "fusion_lon": 0.0, "is_reserved": 0, "name": "aff2bb221d728b7b31ba89532d7b59c1", "type": "electric_scooter", "bike_id": "aff2bb221d728b7b31ba89532d7b59c1", "rental_uris": {"ios": "https://dc.lft.to/lastmile_qr_scan", "android": "https://dc.lft.to/lastmile_qr_scan"}, "fusion_lat": 0.0}, {"lat": 38.907197, "lon": -77.05048283333333, "is_disabled": 0, "fusion_lon": 0.0, "is_reserved": 0, "name": "b1036f6584d6717b3100bc61da699d6a", "type": "electric_scooter", "bike_id": "b1036f6584d6717b3100bc61da699d6a", "rental_uris": {"ios": "https://dc.lft.to/lastmile_qr_scan", "android": "https://dc.lft.to/lastmile_qr_scan"}, "fusion_lat": 0.0}, {"lat": 38.921738166666664, "lon": -77.04028983333333, "is_disabled": 0, "fusion_lon": 0.0, "is_reserved": 0, "name": "08a635effb69be4c771e1af3209149b2", "type": "electric_scooter", "bike_id": "08a635effb69be4c771e1af3209149b2", "rental_uris": {"ios": "https://dc.lft.to/lastmile_qr_scan", "android": "https://dc.lft.to/lastmile_qr_scan"}, "fusion_lat": 0.0}, {"lat": 38.838669, "lon": -76.99706133333333, "is_disabled": 0, "fusion_lon": 0.0, "is_reserved": 0, "name": "34360117b2c05dfe367562a869bdbbce", "type": "electric_bike", "bike_id": "34360117b2c05dfe367562a869bdbbce", "rental_uris": {"ios": "https://dc.lft.to/lastmile_qr_scan", "android": "https://dc.lft.to/lastmile_qr_scan"}, "fusion_lat": 0.0}, {"lat": 38.9154645, "lon": -77.02369583333333, "is_disabled": 0, "fusion_lon": 0.0, "is_reserved": 0, "name": "2fcba27041cb7295841f851804d1e90f", "type": "electric_scooter", "bike_id": "2fcba27041cb7295841f851804d1e90f", "rental_uris": {"ios": "https://dc.lft.to/lastmile_qr_scan", "android": "https://dc.lft.to/lastmile_qr_scan"}, "fusion_lat": 0.0}, {"lat": 38.902561166666665, "lon": -77.04614366666667, "is_disabled": 0, "fusion_lon": 0.0, "is_reserved": 0, "name": "35047001825bfdf0a36d3124a96dc23e", "type": "electric_scooter", "bike_id": "35047001825bfdf0a36d3124a96dc23e", "rental_uris": {"ios": "https://dc.lft.to/lastmile_qr_scan", "android": "https://dc.lft.to/lastmile_qr_scan"}, "fusion_lat": 0.0}, {"lat": 38.904664833333335, "lon": -77.06607033333333, "is_disabled": 0, "fusion_lon": 0.0, "is_reserved": 0, "name": "4ebc4bd6263808797658f5335a6376d6", "type": "electric_scooter", "bike_id": "4ebc4bd6263808797658f5335a6376d6", "rental_uris": {"ios": "https://dc.lft.to/lastmile_qr_scan", "android": "https://dc.lft.to/lastmile_qr_scan"}, "fusion_lat": 0.0}, {"lat": 38.987862666666665, "lon": -77.14103583333333, "is_disabled": 0, "fusion_lon": 0.0, "is_reserved": 0, "name": "5536e52b2d3c58868fb608cbaa8ed4be", "type": "electric_bike", "bike_id": "5536e52b2d3c58868fb608cbaa8ed4be", "rental_uris": {"ios": "https://dc.lft.to/lastmile_qr_scan", "android": "https://dc.lft.to/lastmile_qr_scan"}, "fusion_lat": 0.0}, {"lat": 38.863360666666665, "lon": -76.98727233333334, "is_disabled": 0, "fusion_lon": 0.0, "is_reserved": 0, "name": "a0cf72956fc015dac596d80e3c1d2b59", "type": "electric_bike", "bike_id": "a0cf72956fc015dac596d80e3c1d2b59", "rental_uris": {"ios": "https://dc.lft.to/lastmile_qr_scan", "android": "https://dc.lft.to/lastmile_qr_scan"}, "fusion_lat": 0.0}, {"lat": 38.87380816666666, "lon": -77.00127016666667, "is_disabled": 0, "fusion_lon": 0.0, "is_reserved": 0, "name": "84c3fed344d639ed5a50a9354fe3a806", "type": "electric_scooter", "bike_id": "84c3fed344d639ed5a50a9354fe3a806", "rental_uris": {"ios": "https://dc.lft.to/lastmile_qr_scan", "android": "https://dc.lft.to/lastmile_qr_scan"}, "fusion_lat": 0.0}, {"lat": 38.8849495, "lon": -77.0158785, "is_disabled": 0, "fusion_lon": 0.0, "is_reserved": 0, "name": "ed74b100bdfc8ff7bc16d7f2f8ffe5df", "type": "electric_scooter", "bike_id": "ed74b100bdfc8ff7bc16d7f2f8ffe5df", "rental_uris": {"ios": "https://dc.lft.to/lastmile_qr_scan", "android": "https://dc.lft.to/lastmile_qr_scan"}, "fusion_lat": 0.0}, {"lat": 38.898257666666666, "lon": -77.01527916666667, "is_disabled": 0, "fusion_lon": 0.0, "is_reserved": 0, "name": "6f793a7426d40a20a770206e9a80f798", "type": "electric_scooter", "bike_id": "6f793a7426d40a20a770206e9a80f798", "rental_uris": {"ios": "https://dc.lft.to/lastmile_qr_scan", "android": "https://dc.lft.to/lastmile_qr_scan"}, "fusion_lat": 0.0}, {"lat": 38.915879833333335, "lon": -77.046475, "is_disabled": 0, "fusion_lon": 0.0, "is_reserved": 0, "name": "81361bc181f7c878cb6f284532cc0d35", "type": "electric_scooter", "bike_id": "81361bc181f7c878cb6f284532cc0d35", "rental_uris": {"ios": "https://dc.lft.to/lastmile_qr_scan", "android": "https://dc.lft.to/lastmile_qr_scan"}, "fusion_lat": 0.0}, {"lat": 38.89545716666667, "lon": -76.98339133333333, "is_disabled": 0, "fusion_lon": 0.0, "is_reserved": 0, "name": "301100135928178f0e233769d3a4a3a7", "type": "electric_scooter", "bike_id": "301100135928178f0e233769d3a4a3a7", "rental_uris": {"ios": "https://dc.lft.to/lastmile_qr_scan", "android": "https://dc.lft.to/lastmile_qr_scan"}, "fusion_lat": 0.0}, {"lat": 38.920343833333334, "lon": -77.02586316666667, "is_disabled": 0, "fusion_lon": 0.0, "is_reserved": 0, "name": "5f840c27de5982d0dd111d7eb7b161a0", "type": "electric_scooter", "bike_id": "5f840c27de5982d0dd111d7eb7b161a0", "rental_uris": {"ios": "https://dc.lft.to/lastmile_qr_scan", "android": "https://dc.lft.to/lastmile_qr_scan"}, "fusion_lat": 0.0}, {"lat": 38.900417833333336, "lon": -77.02406033333334, "is_disabled": 0, "fusion_lon": 0.0, "is_reserved": 0, "name": "b23ce2a92881af17583aeb6d526b9042", "type": "electric_scooter", "bike_id": "b23ce2a92881af17583aeb6d526b9042", "rental_uris": {"ios": "https://dc.lft.to/lastmile_qr_scan", "android": "https://dc.lft.to/lastmile_qr_scan"}, "fusion_lat": 0.0}, {"lat": 38.92712133333333, "lon": -77.02082716666666, "is_disabled": 0, "fusion_lon": 0.0, "is_reserved": 0, "name": "ef0e1f01a87689e319d192e8fbf3d127", "type": "electric_scooter", "bike_id": "ef0e1f01a87689e319d192e8fbf3d127", "rental_uris": {"ios": "https://dc.lft.to/lastmile_qr_scan", "android": "https://dc.lft.to/lastmile_qr_scan"}, "fusion_lat": 0.0}, {"lat": 38.93032433333333, "lon": -77.02333216666666, "is_disabled": 0, "fusion_lon": 0.0, "is_reserved": 0, "name": "5eb1c5d5cad8494b07f51e4955f13e53", "type": "electric_scooter", "bike_id": "5eb1c5d5cad8494b07f51e4955f13e53", "rental_uris": {"ios": "https://dc.lft.to/lastmile_qr_scan", "android": "https://dc.lft.to/lastmile_qr_scan"}, "fusion_lat": 0.0}, {"lat": 38.8960195, "lon": -77.02197733333334, "is_disabled": 0, "fusion_lon": 0.0, "is_reserved": 0, "name": "5055b053b340ec98c67b5a87fc2bd11f", "type": "electric_bike", "bike_id": "5055b053b340ec98c67b5a87fc2bd11f", "rental_uris": {"ios": "https://dc.lft.to/lastmile_qr_scan", "android": "https://dc.lft.to/lastmile_qr_scan"}, "fusion_lat": 0.0}, {"lat": 38.905176, "lon": -77.053294, "is_disabled": 0, "fusion_lon": 0.0, "is_reserved": 0, "name": "6fb05a8f75c78bbdd8caacc09b80bb6f", "type": "electric_scooter", "bike_id": "6fb05a8f75c78bbdd8caacc09b80bb6f", "rental_uris": {"ios": "https://dc.lft.to/lastmile_qr_scan", "android": "https://dc.lft.to/lastmile_qr_scan"}, "fusion_lat": 0.0}, {"lat": 38.922943833333335, "lon": -77.04271816666666, "is_disabled": 0, "fusion_lon": 0.0, "is_reserved": 0, "name": "a5d5349d6d1b3492e9886d173fe41b8e", "type": "electric_scooter", "bike_id": "a5d5349d6d1b3492e9886d173fe41b8e", "rental_uris": {"ios": "https://dc.lft.to/lastmile_qr_scan", "android": "https://dc.lft.to/lastmile_qr_scan"}, "fusion_lat": 0.0}, {"lat": 38.90150333333333, "lon": -76.9306915, "is_disabled": 0, "fusion_lon": 0.0, "is_reserved": 0, "name": "70661f3ef7a9affc8ac8d83a411e4488", "type": "electric_scooter", "bike_id": "70661f3ef7a9affc8ac8d83a411e4488", "rental_uris": {"ios": "https://dc.lft.to/lastmile_qr_scan", "android": "https://dc.lft.to/lastmile_qr_scan"}, "fusion_lat": 0.0}, {"lat": 38.92425133333333, "lon": -77.05179716666666, "is_disabled": 0, "fusion_lon": 0.0, "is_reserved": 0, "name": "fc5468a2516bf367a6a9ca3ccf7c41ce", "type": "electric_scooter", "bike_id": "fc5468a2516bf367a6a9ca3ccf7c41ce", "rental_uris": {"ios": "https://dc.lft.to/lastmile_qr_scan", "android": "https://dc.lft.to/lastmile_qr_scan"}, "fusion_lat": 0.0}, {"lat": 38.90201583333333, "lon": -77.02374766666667, "is_disabled": 0, "fusion_lon": 0.0, "is_reserved": 0, "name": "ea6824c84b5b9497fa393671f118d73e", "type": "electric_scooter", "bike_id": "ea6824c84b5b9497fa393671f118d73e", "rental_uris": {"ios": "https://dc.lft.to/lastmile_qr_scan", "android": "https://dc.lft.to/lastmile_qr_scan"}, "fusion_lat": 0.0}, {"lat": 38.95058616666667, "lon": -77.08025866666667, "is_disabled": 0, "fusion_lon": 0.0, "is_reserved": 0, "name": "f9ad7b1021b98b382244613099395e22", "type": "electric_scooter", "bike_id": "f9ad7b1021b98b382244613099395e22", "rental_uris": {"ios": "https://dc.lft.to/lastmile_qr_scan", "android": "https://dc.lft.to/lastmile_qr_scan"}, "fusion_lat": 0.0}, {"lat": 38.93487283333333, "lon": -77.03604466666667, "is_disabled": 0, "fusion_lon": 0.0, "is_reserved": 0, "name": "b6aad805a8cacd21e5f0ab1a27d8d759", "type": "electric_scooter", "bike_id": "b6aad805a8cacd21e5f0ab1a27d8d759", "rental_uris": {"ios": "https://dc.lft.to/lastmile_qr_scan", "android": "https://dc.lft.to/lastmile_qr_scan"}, "fusion_lat": 0.0}, {"lat": 38.8755675, "lon": -77.00579716666667, "is_disabled": 0, "fusion_lon": 0.0, "is_reserved": 0, "name": "c7a3a814aadc68ebb0f685fe37219050", "type": "electric_scooter", "bike_id": "c7a3a814aadc68ebb0f685fe37219050", "rental_uris": {"ios": "https://dc.lft.to/lastmile_qr_scan", "android": "https://dc.lft.to/lastmile_qr_scan"}, "fusion_lat": 0.0}, {"lat": 38.912562666666666, "lon": -77.03059033333334, "is_disabled": 0, "fusion_lon": 0.0, "is_reserved": 0, "name": "e790e1465a63293d09d539362f5c73b3", "type": "electric_scooter", "bike_id": "e790e1465a63293d09d539362f5c73b3", "rental_uris": {"ios": "https://dc.lft.to/lastmile_qr_scan", "android": "https://dc.lft.to/lastmile_qr_scan"}, "fusion_lat": 0.0}, {"lat": 38.9234735, "lon": -77.03217916666667, "is_disabled": 0, "fusion_lon": 0.0, "is_reserved": 0, "name": "2f3f0dc624a43a9d1964e4e33a363689", "type": "electric_scooter", "bike_id": "2f3f0dc624a43a9d1964e4e33a363689", "rental_uris": {"ios": "https://dc.lft.to/lastmile_qr_scan", "android": "https://dc.lft.to/lastmile_qr_scan"}, "fusion_lat": 0.0}, {"lat": 38.8956635, "lon": -77.12739066666667, "is_disabled": 0, "fusion_lon": 0.0, "is_reserved": 0, "name": "c0e45108f1dd78cb4d2f9d6f6dae5b69", "type": "electric_bike", "bike_id": "c0e45108f1dd78cb4d2f9d6f6dae5b69", "rental_uris": {"ios": "https://dc.lft.to/lastmile_qr_scan", "android": "https://dc.lft.to/lastmile_qr_scan"}, "fusion_lat": 0.0}, {"lat": 38.989538, "lon": -77.09546833333333, "is_disabled": 0, "fusion_lon": 0.0, "is_reserved": 0, "name": "a0276650f49e20eaec3d96688d663eb7", "type": "electric_bike", "bike_id": "a0276650f49e20eaec3d96688d663eb7", "rental_uris": {"ios": "https://dc.lft.to/lastmile_qr_scan", "android": "https://dc.lft.to/lastmile_qr_scan"}, "fusion_lat": 0.0}, {"lat": 38.93426016666667, "lon": -77.039985, "is_disabled": 0, "fusion_lon": 0.0, "is_reserved": 0, "name": "59b1d5f615ed049feaa85c5bdc452233", "type": "electric_scooter", "bike_id": "59b1d5f615ed049feaa85c5bdc452233", "rental_uris": {"ios": "https://dc.lft.to/lastmile_qr_scan", "android": "https://dc.lft.to/lastmile_qr_scan"}, "fusion_lat": 0.0}, {"lat": 38.8736745, "lon": -77.00039566666666, "is_disabled": 0, "fusion_lon": 0.0, "is_reserved": 0, "name": "144b7c47a77763779b29b112ad443f3d", "type": "electric_scooter", "bike_id": "144b7c47a77763779b29b112ad443f3d", "rental_uris": {"ios": "https://dc.lft.to/lastmile_qr_scan", "android": "https://dc.lft.to/lastmile_qr_scan"}, "fusion_lat": 0.0}, {"lat": 38.875428666666664, "lon": -77.00535516666666, "is_disabled": 0, "fusion_lon": 0.0, "is_reserved": 0, "name": "220a6e910221d7972ae06a2737918854", "type": "electric_scooter", "bike_id": "220a6e910221d7972ae06a2737918854", "rental_uris": {"ios": "https://dc.lft.to/lastmile_qr_scan", "android": "https://dc.lft.to/lastmile_qr_scan"}, "fusion_lat": 0.0}, {"lat": 38.91870216666667, "lon": -77.02752383333333, "is_disabled": 0, "fusion_lon": 0.0, "is_reserved": 0, "name": "564e440bd7c61c5846cc4fd07bef36fb", "type": "electric_bike", "bike_id": "564e440bd7c61c5846cc4fd07bef36fb", "rental_uris": {"ios": "https://dc.lft.to/lastmile_qr_scan", "android": "https://dc.lft.to/lastmile_qr_scan"}, "fusion_lat": 0.0}, {"lat": 38.8857065, "lon": -77.00580316666667, "is_disabled": 0, "fusion_lon": 0.0, "is_reserved": 0, "name": "ddd09dcba75c99acc57b554fa47345ad", "type": "electric_scooter", "bike_id": "ddd09dcba75c99acc57b554fa47345ad", "rental_uris": {"ios": "https://dc.lft.to/lastmile_qr_scan", "android": "https://dc.lft.to/lastmile_qr_scan"}, "fusion_lat": 0.0}, {"lat": 38.91550316666667, "lon": -77.03854833333334, "is_disabled": 0, "fusion_lon": 0.0, "is_reserved": 0, "name": "7120430df31b525999430412527799b6", "type": "electric_scooter", "bike_id": "7120430df31b525999430412527799b6", "rental_uris": {"ios": "https://dc.lft.to/lastmile_qr_scan", "android": "https://dc.lft.to/lastmile_qr_scan"}, "fusion_lat": 0.0}, {"lat": 38.90502, "lon": -77.06020433333333, "is_disabled": 0, "fusion_lon": 0.0, "is_reserved": 0, "name": "78f5882c40b3e84a0184777ead49d745", "type": "electric_scooter", "bike_id": "78f5882c40b3e84a0184777ead49d745", "rental_uris": {"ios": "https://dc.lft.to/lastmile_qr_scan", "android": "https://dc.lft.to/lastmile_qr_scan"}, "fusion_lat": 0.0}, {"lat": 39.014117666666664, "lon": -77.0449775, "is_disabled": 0, "fusion_lon": 0.0, "is_reserved": 0, "name": "83909bb24391627efe73a225a4328eaa", "type": "electric_bike", "bike_id": "83909bb24391627efe73a225a4328eaa", "rental_uris": {"ios": "https://dc.lft.to/lastmile_qr_scan", "android": "https://dc.lft.to/lastmile_qr_scan"}, "fusion_lat": 0.0}, {"lat": 38.873707833333334, "lon": -77.00167633333334, "is_disabled": 0, "fusion_lon": 0.0, "is_reserved": 0, "name": "6c8af5dbd8d7a822e2a0615a249f9ee7", "type": "electric_scooter", "bike_id": "6c8af5dbd8d7a822e2a0615a249f9ee7", "rental_uris": {"ios": "https://dc.lft.to/lastmile_qr_scan", "android": "https://dc.lft.to/lastmile_qr_scan"}, "fusion_lat": 0.0}, {"lat": 38.9156675, "lon": -77.02006716666666, "is_disabled": 0, "fusion_lon": 0.0, "is_reserved": 0, "name": "65bd35b02bd784f8f270780064ba8f87", "type": "electric_scooter", "bike_id": "65bd35b02bd784f8f270780064ba8f87", "rental_uris": {"ios": "https://dc.lft.to/lastmile_qr_scan", "android": "https://dc.lft.to/lastmile_qr_scan"}, "fusion_lat": 0.0}, {"lat": 38.9269955, "lon": -77.02079266666667, "is_disabled": 0, "fusion_lon": 0.0, "is_reserved": 0, "name": "73774143348e41bb54e39fd84d6ff8c5", "type": "electric_scooter", "bike_id": "73774143348e41bb54e39fd84d6ff8c5", "rental_uris": {"ios": "https://dc.lft.to/lastmile_qr_scan", "android": "https://dc.lft.to/lastmile_qr_scan"}, "fusion_lat": 0.0}, {"lat": 38.894437333333336, "lon": -76.97817166666667, "is_disabled": 0, "fusion_lon": 0.0, "is_reserved": 0, "name": "9e202a83c28941ead7d2e598baefacfe", "type": "electric_scooter", "bike_id": "9e202a83c28941ead7d2e598baefacfe", "rental_uris": {"ios": "https://dc.lft.to/lastmile_qr_scan", "android": "https://dc.lft.to/lastmile_qr_scan"}, "fusion_lat": 0.0}, {"lat": 38.91981633333333, "lon": -77.02367283333334, "is_disabled": 0, "fusion_lon": 0.0, "is_reserved": 0, "name": "42ef18fddfc94528f93bdbff68385a32", "type": "electric_scooter", "bike_id": "42ef18fddfc94528f93bdbff68385a32", "rental_uris": {"ios": "https://dc.lft.to/lastmile_qr_scan", "android": "https://dc.lft.to/lastmile_qr_scan"}, "fusion_lat": 0.0}, {"lat": 38.925202166666665, "lon": -77.0771095, "is_disabled": 0, "fusion_lon": 0.0, "is_reserved": 0, "name": "af14ef3177b3a402bc088911ce183e53", "type": "electric_scooter", "bike_id": "af14ef3177b3a402bc088911ce183e53", "rental_uris": {"ios": "https://dc.lft.to/lastmile_qr_scan", "android": "https://dc.lft.to/lastmile_qr_scan"}, "fusion_lat": 0.0}, {"lat": 38.91821783333333, "lon": -77.02422133333333, "is_disabled": 0, "fusion_lon": 0.0, "is_reserved": 0, "name": "8a6428556ee237f2c4ef2f80d10fcc0c", "type": "electric_scooter", "bike_id": "8a6428556ee237f2c4ef2f80d10fcc0c", "rental_uris": {"ios": "https://dc.lft.to/lastmile_qr_scan", "android": "https://dc.lft.to/lastmile_qr_scan"}, "fusion_lat": 0.0}, {"lat": 38.9613035, "lon": -77.03273766666666, "is_disabled": 0, "fusion_lon": 0.0, "is_reserved": 0, "name": "92f99f0eb912e81babae1e64159d4bac", "type": "electric_bike", "bike_id": "92f99f0eb912e81babae1e64159d4bac", "rental_uris": {"ios": "https://dc.lft.to/lastmile_qr_scan", "android": "https://dc.lft.to/lastmile_qr_scan"}, "fusion_lat": 0.0}, {"lat": 38.91104333333333, "lon": -77.00214833333334, "is_disabled": 0, "fusion_lon": 0.0, "is_reserved": 0, "name": "6b600e9477e7630f129aa278ff9fe07d", "type": "electric_scooter", "bike_id": "6b600e9477e7630f129aa278ff9fe07d", "rental_uris": {"ios": "https://dc.lft.to/lastmile_qr_scan", "android": "https://dc.lft.to/lastmile_qr_scan"}, "fusion_lat": 0.0}, {"lat": 38.91673383333333, "lon": -77.02280183333333, "is_disabled": 0, "fusion_lon": 0.0, "is_reserved": 0, "name": "8c19fd3e17b6d0ddfe5cbcea6fc210c9", "type": "electric_scooter", "bike_id": "8c19fd3e17b6d0ddfe5cbcea6fc210c9", "rental_uris": {"ios": "https://dc.lft.to/lastmile_qr_scan", "android": "https://dc.lft.to/lastmile_qr_scan"}, "fusion_lat": 0.0}, {"lat": 38.90955266666667, "lon": -77.04477383333334, "is_disabled": 0, "fusion_lon": 0.0, "is_reserved": 0, "name": "57a8fd6ab962b17057e5fc4d7891167a", "type": "electric_scooter", "bike_id": "57a8fd6ab962b17057e5fc4d7891167a", "rental_uris": {"ios": "https://dc.lft.to/lastmile_qr_scan", "android": "https://dc.lft.to/lastmile_qr_scan"}, "fusion_lat": 0.0}, {"lat": 38.89542866666667, "lon": -76.98341483333333, "is_disabled": 0, "fusion_lon": 0.0, "is_reserved": 0, "name": "d032d383cba865ddfb878dcc33f9ddb7", "type": "electric_scooter", "bike_id": "d032d383cba865ddfb878dcc33f9ddb7", "rental_uris": {"ios": "https://dc.lft.to/lastmile_qr_scan", "android": "https://dc.lft.to/lastmile_qr_scan"}, "fusion_lat": 0.0}, {"lat": 38.922217, "lon": -77.01826883333334, "is_disabled": 0, "fusion_lon": 0.0, "is_reserved": 0, "name": "4d2aef1b6f763dba5277ed212bac993e", "type": "electric_scooter", "bike_id": "4d2aef1b6f763dba5277ed212bac993e", "rental_uris": {"ios": "https://dc.lft.to/lastmile_qr_scan", "android": "https://dc.lft.to/lastmile_qr_scan"}, "fusion_lat": 0.0}, {"lat": 38.905100166666664, "lon": -77.050443, "is_disabled": 0, "fusion_lon": 0.0, "is_reserved": 0, "name": "591e6f3c2d836c788455b63ce809c631", "type": "electric_scooter", "bike_id": "591e6f3c2d836c788455b63ce809c631", "rental_uris": {"ios": "https://dc.lft.to/lastmile_qr_scan", "android": "https://dc.lft.to/lastmile_qr_scan"}, "fusion_lat": 0.0}, {"lat": 38.956004166666666, "lon": -77.01016483333333, "is_disabled": 0, "fusion_lon": 0.0, "is_reserved": 0, "name": "ae74299eccc144be3b2249b4fcfd4ca4", "type": "electric_bike", "bike_id": "ae74299eccc144be3b2249b4fcfd4ca4", "rental_uris": {"ios": "https://dc.lft.to/lastmile_qr_scan", "android": "https://dc.lft.to/lastmile_qr_scan"}, "fusion_lat": 0.0}, {"lat": 38.92626383333333, "lon": -77.03701, "is_disabled": 0, "fusion_lon": 0.0, "is_reserved": 0, "name": "c50d66d8329a3f69d73c1a07205cb06f", "type": "electric_scooter", "bike_id": "c50d66d8329a3f69d73c1a07205cb06f", "rental_uris": {"ios": "https://dc.lft.to/lastmile_qr_scan", "android": "https://dc.lft.to/lastmile_qr_scan"}, "fusion_lat": 0.0}, {"lat": 38.934728, "lon": -77.07211916666667, "is_disabled": 0, "fusion_lon": 0.0, "is_reserved": 0, "name": "3057dd7a6658ee6aaa5b73122ebf04fe", "type": "electric_scooter", "bike_id": "3057dd7a6658ee6aaa5b73122ebf04fe", "rental_uris": {"ios": "https://dc.lft.to/lastmile_qr_scan", "android": "https://dc.lft.to/lastmile_qr_scan"}, "fusion_lat": 0.0}, {"lat": 38.89840933333333, "lon": -77.03167266666667, "is_disabled": 0, "fusion_lon": 0.0, "is_reserved": 0, "name": "3608ce3d3229389dd2c09a9799380f91", "type": "electric_scooter", "bike_id": "3608ce3d3229389dd2c09a9799380f91", "rental_uris": {"ios": "https://dc.lft.to/lastmile_qr_scan", "android": "https://dc.lft.to/lastmile_qr_scan"}, "fusion_lat": 0.0}, {"lat": 38.92306633333333, "lon": -77.03043783333334, "is_disabled": 0, "fusion_lon": 0.0, "is_reserved": 0, "name": "78749067c8d0b4cc46b6f105211673d2", "type": "electric_scooter", "bike_id": "78749067c8d0b4cc46b6f105211673d2", "rental_uris": {"ios": "https://dc.lft.to/lastmile_qr_scan", "android": "https://dc.lft.to/lastmile_qr_scan"}, "fusion_lat": 0.0}, {"lat": 38.888194, "lon": -76.9771905, "is_disabled": 0, "fusion_lon": 0.0, "is_reserved": 0, "name": "e28b24923b161f004ee45788402b1cd4", "type": "electric_scooter", "bike_id": "e28b24923b161f004ee45788402b1cd4", "rental_uris": {"ios": "https://dc.lft.to/lastmile_qr_scan", "android": "https://dc.lft.to/lastmile_qr_scan"}, "fusion_lat": 0.0}, {"lat": 38.92959716666667, "lon": -77.01149033333333, "is_disabled": 0, "fusion_lon": 0.0, "is_reserved": 0, "name": "ec28b1f272212b982dfaa55911eaf2ef", "type": "electric_scooter", "bike_id": "ec28b1f272212b982dfaa55911eaf2ef", "rental_uris": {"ios": "https://dc.lft.to/lastmile_qr_scan", "android": "https://dc.lft.to/lastmile_qr_scan"}, "fusion_lat": 0.0}, {"lat": 38.9238925, "lon": -77.03515833333333, "is_disabled": 0, "fusion_lon": 0.0, "is_reserved": 0, "name": "521070d740681c0615af368a1aba0714", "type": "electric_scooter", "bike_id": "521070d740681c0615af368a1aba0714", "rental_uris": {"ios": "https://dc.lft.to/lastmile_qr_scan", "android": "https://dc.lft.to/lastmile_qr_scan"}, "fusion_lat": 0.0}, {"lat": 38.905257666666664, "lon": -77.00700833333333, "is_disabled": 0, "fusion_lon": 0.0, "is_reserved": 0, "name": "91be5d8f32d42771bd03cc11095e8a5e", "type": "electric_scooter", "bike_id": "91be5d8f32d42771bd03cc11095e8a5e", "rental_uris": {"ios": "https://dc.lft.to/lastmile_qr_scan", "android": "https://dc.lft.to/lastmile_qr_scan"}, "fusion_lat": 0.0}, {"lat": 38.881789, "lon": -76.99262083333333, "is_disabled": 0, "fusion_lon": 0.0, "is_reserved": 0, "name": "8cbe4fb954d9faacd18843b6f73a8cec", "type": "electric_scooter", "bike_id": "8cbe4fb954d9faacd18843b6f73a8cec", "rental_uris": {"ios": "https://dc.lft.to/lastmile_qr_scan", "android": "https://dc.lft.to/lastmile_qr_scan"}, "fusion_lat": 0.0}, {"lat": 38.875323333333334, "lon": -77.00508616666667, "is_disabled": 0, "fusion_lon": 0.0, "is_reserved": 0, "name": "fbe644f9e11a71d9233089e94501c430", "type": "electric_scooter", "bike_id": "fbe644f9e11a71d9233089e94501c430", "rental_uris": {"ios": "https://dc.lft.to/lastmile_qr_scan", "android": "https://dc.lft.to/lastmile_qr_scan"}, "fusion_lat": 0.0}, {"lat": 38.895468666666666, "lon": -76.949543, "is_disabled": 0, "fusion_lon": 0.0, "is_reserved": 0, "name": "8bb122cce97a58f73a8d2da7ddd8e03f", "type": "electric_scooter", "bike_id": "8bb122cce97a58f73a8d2da7ddd8e03f", "rental_uris": {"ios": "https://dc.lft.to/lastmile_qr_scan", "android": "https://dc.lft.to/lastmile_qr_scan"}, "fusion_lat": 0.0}, {"lat": 38.80763816666666, "lon": -77.129843, "is_disabled": 0, "fusion_lon": 0.0, "is_reserved": 0, "name": "48e60d40c667ee62dde37fe2b2d0857a", "type": "electric_bike", "bike_id": "48e60d40c667ee62dde37fe2b2d0857a", "rental_uris": {"ios": "https://dc.lft.to/lastmile_qr_scan", "android": "https://dc.lft.to/lastmile_qr_scan"}, "fusion_lat": 0.0}, {"lat": 38.89555433333334, "lon": -76.94873233333334, "is_disabled": 0, "fusion_lon": 0.0, "is_reserved": 0, "name": "c7f9243951675469a2a7cef4e0a25d6b", "type": "electric_scooter", "bike_id": "c7f9243951675469a2a7cef4e0a25d6b", "rental_uris": {"ios": "https://dc.lft.to/lastmile_qr_scan", "android": "https://dc.lft.to/lastmile_qr_scan"}, "fusion_lat": 0.0}, {"lat": 38.87809883333333, "lon": -77.02237616666666, "is_disabled": 0, "fusion_lon": 0.0, "is_reserved": 0, "name": "dc4378a4db4c9802fe31392d0b428b0c", "type": "electric_scooter", "bike_id": "dc4378a4db4c9802fe31392d0b428b0c", "rental_uris": {"ios": "https://dc.lft.to/lastmile_qr_scan", "android": "https://dc.lft.to/lastmile_qr_scan"}, "fusion_lat": 0.0}, {"lat": 38.919139, "lon": -77.032049, "is_disabled": 0, "fusion_lon": 0.0, "is_reserved": 0, "name": "c4fef5c9b69aaf15c56e12a331446453", "type": "electric_scooter", "bike_id": "c4fef5c9b69aaf15c56e12a331446453", "rental_uris": {"ios": "https://dc.lft.to/lastmile_qr_scan", "android": "https://dc.lft.to/lastmile_qr_scan"}, "fusion_lat": 0.0}, {"lat": 38.90248783333333, "lon": -77.04706433333334, "is_disabled": 0, "fusion_lon": 0.0, "is_reserved": 0, "name": "d52265db1d0ba391fbbee6b396cf05d3", "type": "electric_scooter", "bike_id": "d52265db1d0ba391fbbee6b396cf05d3", "rental_uris": {"ios": "https://dc.lft.to/lastmile_qr_scan", "android": "https://dc.lft.to/lastmile_qr_scan"}, "fusion_lat": 0.0}, {"lat": 38.904172833333334, "lon": -77.02008833333333, "is_disabled": 0, "fusion_lon": 0.0, "is_reserved": 0, "name": "a7a68600d5bb7279a86a5863d18b862e", "type": "electric_scooter", "bike_id": "a7a68600d5bb7279a86a5863d18b862e", "rental_uris": {"ios": "https://dc.lft.to/lastmile_qr_scan", "android": "https://dc.lft.to/lastmile_qr_scan"}, "fusion_lat": 0.0}, {"lat": 38.917112333333336, "lon": -77.02477066666667, "is_disabled": 0, "fusion_lon": 0.0, "is_reserved": 0, "name": "189afc04056df6545cf63fd8956115c1", "type": "electric_scooter", "bike_id": "189afc04056df6545cf63fd8956115c1", "rental_uris": {"ios": "https://dc.lft.to/lastmile_qr_scan", "android": "https://dc.lft.to/lastmile_qr_scan"}, "fusion_lat": 0.0}, {"lat": 38.928641, "lon": -77.03456166666666, "is_disabled": 0, "fusion_lon": 0.0, "is_reserved": 0, "name": "f47f7303e1930429a73adbb5d22ce7db", "type": "electric_scooter", "bike_id": "f47f7303e1930429a73adbb5d22ce7db", "rental_uris": {"ios": "https://dc.lft.to/lastmile_qr_scan", "android": "https://dc.lft.to/lastmile_qr_scan"}, "fusion_lat": 0.0}, {"lat": 38.9014135, "lon": -77.01904716666667, "is_disabled": 0, "fusion_lon": 0.0, "is_reserved": 0, "name": "6dc08c87b73af39a5ed8cb2c088fcf1f", "type": "electric_scooter", "bike_id": "6dc08c87b73af39a5ed8cb2c088fcf1f", "rental_uris": {"ios": "https://dc.lft.to/lastmile_qr_scan", "android": "https://dc.lft.to/lastmile_qr_scan"}, "fusion_lat": 0.0}, {"lat": 38.911154833333335, "lon": -77.045451, "is_disabled": 0, "fusion_lon": 0.0, "is_reserved": 0, "name": "6603426c630f469d8b12ae53c6fe4d6a", "type": "electric_scooter", "bike_id": "6603426c630f469d8b12ae53c6fe4d6a", "rental_uris": {"ios": "https://dc.lft.to/lastmile_qr_scan", "android": "https://dc.lft.to/lastmile_qr_scan"}, "fusion_lat": 0.0}, {"lat": 38.917933166666664, "lon": -77.03450266666667, "is_disabled": 0, "fusion_lon": 0.0, "is_reserved": 0, "name": "2f7058762c97059380205fdb34cc9b1f", "type": "electric_scooter", "bike_id": "2f7058762c97059380205fdb34cc9b1f", "rental_uris": {"ios": "https://dc.lft.to/lastmile_qr_scan", "android": "https://dc.lft.to/lastmile_qr_scan"}, "fusion_lat": 0.0}, {"lat": 38.900645, "lon": -76.927478, "is_disabled": 0, "fusion_lon": 0.0, "is_reserved": 0, "name": "30287b985bda03057ed9576383a834da", "type": "electric_scooter", "bike_id": "30287b985bda03057ed9576383a834da", "rental_uris": {"ios": "https://dc.lft.to/lastmile_qr_scan", "android": "https://dc.lft.to/lastmile_qr_scan"}, "fusion_lat": 0.0}, {"lat": 38.90348633333333, "lon": -77.023877, "is_disabled": 0, "fusion_lon": 0.0, "is_reserved": 0, "name": "46a62d9168494bce4877cb9ffb0c4506", "type": "electric_scooter", "bike_id": "46a62d9168494bce4877cb9ffb0c4506", "rental_uris": {"ios": "https://dc.lft.to/lastmile_qr_scan", "android": "https://dc.lft.to/lastmile_qr_scan"}, "fusion_lat": 0.0}, {"lat": 38.94109733333333, "lon": -77.00048933333333, "is_disabled": 0, "fusion_lon": 0.0, "is_reserved": 0, "name": "0cb278d917894b13c1afc42dab9af7c0", "type": "electric_scooter", "bike_id": "0cb278d917894b13c1afc42dab9af7c0", "rental_uris": {"ios": "https://dc.lft.to/lastmile_qr_scan", "android": "https://dc.lft.to/lastmile_qr_scan"}, "fusion_lat": 0.0}, {"lat": 38.905097166666664, "lon": -77.06550416666667, "is_disabled": 0, "fusion_lon": 0.0, "is_reserved": 0, "name": "c79d126f1d2484fdff911931bb21b35b", "type": "electric_scooter", "bike_id": "c79d126f1d2484fdff911931bb21b35b", "rental_uris": {"ios": "https://dc.lft.to/lastmile_qr_scan", "android": "https://dc.lft.to/lastmile_qr_scan"}, "fusion_lat": 0.0}, {"lat": 38.907706, "lon": -76.99714883333333, "is_disabled": 0, "fusion_lon": 0.0, "is_reserved": 0, "name": "e8d21e1faa0886e0817a0d5830826082", "type": "electric_scooter", "bike_id": "e8d21e1faa0886e0817a0d5830826082", "rental_uris": {"ios": "https://dc.lft.to/lastmile_qr_scan", "android": "https://dc.lft.to/lastmile_qr_scan"}, "fusion_lat": 0.0}, {"lat": 38.91898666666667, "lon": -77.02478133333334, "is_disabled": 0, "fusion_lon": 0.0, "is_reserved": 0, "name": "f7fbab8226157b37715744b619adbe2c", "type": "electric_scooter", "bike_id": "f7fbab8226157b37715744b619adbe2c", "rental_uris": {"ios": "https://dc.lft.to/lastmile_qr_scan", "android": "https://dc.lft.to/lastmile_qr_scan"}, "fusion_lat": 0.0}, {"lat": 38.883328, "lon": -76.92595016666667, "is_disabled": 0, "fusion_lon": 0.0, "is_reserved": 0, "name": "d5810ab6b4dcae91bae67f062e737856", "type": "electric_scooter", "bike_id": "d5810ab6b4dcae91bae67f062e737856", "rental_uris": {"ios": "https://dc.lft.to/lastmile_qr_scan", "android": "https://dc.lft.to/lastmile_qr_scan"}, "fusion_lat": 0.0}, {"lat": 38.91534466666667, "lon": -77.02189133333333, "is_disabled": 0, "fusion_lon": 0.0, "is_reserved": 0, "name": "820b005073ed96dc1d118168cb0cdfd4", "type": "electric_scooter", "bike_id": "820b005073ed96dc1d118168cb0cdfd4", "rental_uris": {"ios": "https://dc.lft.to/lastmile_qr_scan", "android": "https://dc.lft.to/lastmile_qr_scan"}, "fusion_lat": 0.0}, {"lat": 38.9055425, "lon": -77.04664816666667, "is_disabled": 0, "fusion_lon": 0.0, "is_reserved": 0, "name": "7c923102aef896417166c818454c7d87", "type": "electric_scooter", "bike_id": "7c923102aef896417166c818454c7d87", "rental_uris": {"ios": "https://dc.lft.to/lastmile_qr_scan", "android": "https://dc.lft.to/lastmile_qr_scan"}, "fusion_lat": 0.0}, {"lat": 38.88013183333333, "lon": -76.99739183333334, "is_disabled": 0, "fusion_lon": 0.0, "is_reserved": 0, "name": "461eb40eaa88ec830efa397e8b4b13ba", "type": "electric_scooter", "bike_id": "461eb40eaa88ec830efa397e8b4b13ba", "rental_uris": {"ios": "https://dc.lft.to/lastmile_qr_scan", "android": "https://dc.lft.to/lastmile_qr_scan"}, "fusion_lat": 0.0}, {"lat": 38.906298666666665, "lon": -77.02964, "is_disabled": 0, "fusion_lon": 0.0, "is_reserved": 0, "name": "4f81f6aae5f86b5544bc37a888aa1e66", "type": "electric_scooter", "bike_id": "4f81f6aae5f86b5544bc37a888aa1e66", "rental_uris": {"ios": "https://dc.lft.to/lastmile_qr_scan", "android": "https://dc.lft.to/lastmile_qr_scan"}, "fusion_lat": 0.0}, {"lat": 38.919972333333334, "lon": -77.04760133333333, "is_disabled": 0, "fusion_lon": 0.0, "is_reserved": 0, "name": "803af1690b406351f3e962fe812d47c8", "type": "electric_scooter", "bike_id": "803af1690b406351f3e962fe812d47c8", "rental_uris": {"ios": "https://dc.lft.to/lastmile_qr_scan", "android": "https://dc.lft.to/lastmile_qr_scan"}, "fusion_lat": 0.0}, {"lat": 38.91713816666667, "lon": -77.02434833333334, "is_disabled": 0, "fusion_lon": 0.0, "is_reserved": 0, "name": "0b8faf2ad2a226ffa7789c570b25eaae", "type": "electric_scooter", "bike_id": "0b8faf2ad2a226ffa7789c570b25eaae", "rental_uris": {"ios": "https://dc.lft.to/lastmile_qr_scan", "android": "https://dc.lft.to/lastmile_qr_scan"}, "fusion_lat": 0.0}, {"lat": 38.90126883333333, "lon": -77.0499285, "is_disabled": 0, "fusion_lon": 0.0, "is_reserved": 0, "name": "c7d0c39726a84602c76ed5a36c6363d6", "type": "electric_scooter", "bike_id": "c7d0c39726a84602c76ed5a36c6363d6", "rental_uris": {"ios": "https://dc.lft.to/lastmile_qr_scan", "android": "https://dc.lft.to/lastmile_qr_scan"}, "fusion_lat": 0.0}, {"lat": 38.926489833333335, "lon": -77.04137316666667, "is_disabled": 0, "fusion_lon": 0.0, "is_reserved": 0, "name": "90d44ca6f142aef91b57fd64534891ee", "type": "electric_scooter", "bike_id": "90d44ca6f142aef91b57fd64534891ee", "rental_uris": {"ios": "https://dc.lft.to/lastmile_qr_scan", "android": "https://dc.lft.to/lastmile_qr_scan"}, "fusion_lat": 0.0}, {"lat": 38.8638125, "lon": -76.991262, "is_disabled": 0, "fusion_lon": 0.0, "is_reserved": 0, "name": "3dcdcd4059771d6769245a1dc0a1940f", "type": "electric_scooter", "bike_id": "3dcdcd4059771d6769245a1dc0a1940f", "rental_uris": {"ios": "https://dc.lft.to/lastmile_qr_scan", "android": "https://dc.lft.to/lastmile_qr_scan"}, "fusion_lat": 0.0}, {"lat": 38.90028483333333, "lon": -77.039659, "is_disabled": 0, "fusion_lon": 0.0, "is_reserved": 0, "name": "8f91f591bb451f51b6672886cd783cdb", "type": "electric_scooter", "bike_id": "8f91f591bb451f51b6672886cd783cdb", "rental_uris": {"ios": "https://dc.lft.to/lastmile_qr_scan", "android": "https://dc.lft.to/lastmile_qr_scan"}, "fusion_lat": 0.0}, {"lat": 38.9026595, "lon": -77.03470516666667, "is_disabled": 0, "fusion_lon": 0.0, "is_reserved": 0, "name": "465c95e1671c4286df3e75ffb6ff33a3", "type": "electric_scooter", "bike_id": "465c95e1671c4286df3e75ffb6ff33a3", "rental_uris": {"ios": "https://dc.lft.to/lastmile_qr_scan", "android": "https://dc.lft.to/lastmile_qr_scan"}, "fusion_lat": 0.0}, {"lat": 38.92456833333333, "lon": -76.971046, "is_disabled": 0, "fusion_lon": 0.0, "is_reserved": 0, "name": "f7d94855ebfdab9c25520101536a60bc", "type": "electric_scooter", "bike_id": "f7d94855ebfdab9c25520101536a60bc", "rental_uris": {"ios": "https://dc.lft.to/lastmile_qr_scan", "android": "https://dc.lft.to/lastmile_qr_scan"}, "fusion_lat": 0.0}, {"lat": 38.932782333333336, "lon": -76.98438366666667, "is_disabled": 0, "fusion_lon": 0.0, "is_reserved": 0, "name": "fb4e9f622d5f6d7498f2dc29e3513a9b", "type": "electric_scooter", "bike_id": "fb4e9f622d5f6d7498f2dc29e3513a9b", "rental_uris": {"ios": "https://dc.lft.to/lastmile_qr_scan", "android": "https://dc.lft.to/lastmile_qr_scan"}, "fusion_lat": 0.0}, {"lat": 38.89794666666667, "lon": -77.0221535, "is_disabled": 0, "fusion_lon": 0.0, "is_reserved": 0, "name": "3544a1aac02e67b530be749d124e7b46", "type": "electric_scooter", "bike_id": "3544a1aac02e67b530be749d124e7b46", "rental_uris": {"ios": "https://dc.lft.to/lastmile_qr_scan", "android": "https://dc.lft.to/lastmile_qr_scan"}, "fusion_lat": 0.0}, {"lat": 38.89922333333333, "lon": -76.98529166666667, "is_disabled": 0, "fusion_lon": 0.0, "is_reserved": 0, "name": "431000c9d58e675e910b6c1d223de87c", "type": "electric_scooter", "bike_id": "431000c9d58e675e910b6c1d223de87c", "rental_uris": {"ios": "https://dc.lft.to/lastmile_qr_scan", "android": "https://dc.lft.to/lastmile_qr_scan"}, "fusion_lat": 0.0}, {"lat": 38.927612833333335, "lon": -77.052685, "is_disabled": 0, "fusion_lon": 0.0, "is_reserved": 0, "name": "3ffaaee517f225e9f1c95b88de6c6137", "type": "electric_scooter", "bike_id": "3ffaaee517f225e9f1c95b88de6c6137", "rental_uris": {"ios": "https://dc.lft.to/lastmile_qr_scan", "android": "https://dc.lft.to/lastmile_qr_scan"}, "fusion_lat": 0.0}, {"lat": 38.91418616666667, "lon": -77.0180465, "is_disabled": 0, "fusion_lon": 0.0, "is_reserved": 0, "name": "10cd025ec6a68dd1f19d2bb344f8bdb7", "type": "electric_scooter", "bike_id": "10cd025ec6a68dd1f19d2bb344f8bdb7", "rental_uris": {"ios": "https://dc.lft.to/lastmile_qr_scan", "android": "https://dc.lft.to/lastmile_qr_scan"}, "fusion_lat": 0.0}, {"lat": 38.932271666666665, "lon": -76.99499083333333, "is_disabled": 0, "fusion_lon": 0.0, "is_reserved": 0, "name": "e3998abae1e27d2b104eda4718844e87", "type": "electric_scooter", "bike_id": "e3998abae1e27d2b104eda4718844e87", "rental_uris": {"ios": "https://dc.lft.to/lastmile_qr_scan", "android": "https://dc.lft.to/lastmile_qr_scan"}, "fusion_lat": 0.0}, {"lat": 38.90378333333334, "lon": -77.04151533333334, "is_disabled": 0, "fusion_lon": 0.0, "is_reserved": 0, "name": "eaa754777640a228e09ffe55926b0465", "type": "electric_scooter", "bike_id": "eaa754777640a228e09ffe55926b0465", "rental_uris": {"ios": "https://dc.lft.to/lastmile_qr_scan", "android": "https://dc.lft.to/lastmile_qr_scan"}, "fusion_lat": 0.0}, {"lat": 38.91984683333333, "lon": -77.0238125, "is_disabled": 0, "fusion_lon": 0.0, "is_reserved": 0, "name": "a1d0c3ddeb7dacf1e96e3a184039eb65", "type": "electric_scooter", "bike_id": "a1d0c3ddeb7dacf1e96e3a184039eb65", "rental_uris": {"ios": "https://dc.lft.to/lastmile_qr_scan", "android": "https://dc.lft.to/lastmile_qr_scan"}, "fusion_lat": 0.0}, {"lat": 38.91549966666667, "lon": -77.01018066666667, "is_disabled": 0, "fusion_lon": 0.0, "is_reserved": 0, "name": "018695840725fbc6b5924163af8a9f80", "type": "electric_scooter", "bike_id": "018695840725fbc6b5924163af8a9f80", "rental_uris": {"ios": "https://dc.lft.to/lastmile_qr_scan", "android": "https://dc.lft.to/lastmile_qr_scan"}, "fusion_lat": 0.0}, {"lat": 38.91546116666667, "lon": -77.03184683333333, "is_disabled": 0, "fusion_lon": 0.0, "is_reserved": 0, "name": "4981e7089a00835735b8fc87c04263b2", "type": "electric_scooter", "bike_id": "4981e7089a00835735b8fc87c04263b2", "rental_uris": {"ios": "https://dc.lft.to/lastmile_qr_scan", "android": "https://dc.lft.to/lastmile_qr_scan"}, "fusion_lat": 0.0}, {"lat": 38.89887133333333, "lon": -76.93176416666667, "is_disabled": 0, "fusion_lon": 0.0, "is_reserved": 0, "name": "a9ba95cbea49ed0f9bd6c7b9e1991768", "type": "electric_scooter", "bike_id": "a9ba95cbea49ed0f9bd6c7b9e1991768", "rental_uris": {"ios": "https://dc.lft.to/lastmile_qr_scan", "android": "https://dc.lft.to/lastmile_qr_scan"}, "fusion_lat": 0.0}, {"lat": 38.908536, "lon": -77.0452575, "is_disabled": 0, "fusion_lon": 0.0, "is_reserved": 0, "name": "38c8aedcb2e6a809962565d4f75e5855", "type": "electric_scooter", "bike_id": "38c8aedcb2e6a809962565d4f75e5855", "rental_uris": {"ios": "https://dc.lft.to/lastmile_qr_scan", "android": "https://dc.lft.to/lastmile_qr_scan"}, "fusion_lat": 0.0}, {"lat": 38.9019765, "lon": -77.02168483333334, "is_disabled": 0, "fusion_lon": 0.0, "is_reserved": 0, "name": "e0239891555f175adceae0201e03ac99", "type": "electric_scooter", "bike_id": "e0239891555f175adceae0201e03ac99", "rental_uris": {"ios": "https://dc.lft.to/lastmile_qr_scan", "android": "https://dc.lft.to/lastmile_qr_scan"}, "fusion_lat": 0.0}, {"lat": 38.99215316666667, "lon": -77.03217733333334, "is_disabled": 0, "fusion_lon": 0.0, "is_reserved": 0, "name": "1fc108539c636295f6d6fb738d68c20d", "type": "electric_bike", "bike_id": "1fc108539c636295f6d6fb738d68c20d", "rental_uris": {"ios": "https://dc.lft.to/lastmile_qr_scan", "android": "https://dc.lft.to/lastmile_qr_scan"}, "fusion_lat": 0.0}, {"lat": 38.93848933333334, "lon": -77.07228916666666, "is_disabled": 0, "fusion_lon": 0.0, "is_reserved": 0, "name": "12cba1c3761ab360fe0d358f512b63e2", "type": "electric_scooter", "bike_id": "12cba1c3761ab360fe0d358f512b63e2", "rental_uris": {"ios": "https://dc.lft.to/lastmile_qr_scan", "android": "https://dc.lft.to/lastmile_qr_scan"}, "fusion_lat": 0.0}, {"lat": 38.89299666666667, "lon": -77.01232616666667, "is_disabled": 0, "fusion_lon": 0.0, "is_reserved": 0, "name": "0435cda93aa00db7455bc51238080747", "type": "electric_scooter", "bike_id": "0435cda93aa00db7455bc51238080747", "rental_uris": {"ios": "https://dc.lft.to/lastmile_qr_scan", "android": "https://dc.lft.to/lastmile_qr_scan"}, "fusion_lat": 0.0}, {"lat": 38.9660745, "lon": -77.027421, "is_disabled": 0, "fusion_lon": 0.0, "is_reserved": 0, "name": "7cd9294b6e8979c8066cf21a07f84209", "type": "electric_scooter", "bike_id": "7cd9294b6e8979c8066cf21a07f84209", "rental_uris": {"ios": "https://dc.lft.to/lastmile_qr_scan", "android": "https://dc.lft.to/lastmile_qr_scan"}, "fusion_lat": 0.0}, {"lat": 38.9066385, "lon": -76.989428, "is_disabled": 0, "fusion_lon": 0.0, "is_reserved": 0, "name": "6c50c038aa73a0843b7e6eefdd7414b5", "type": "electric_scooter", "bike_id": "6c50c038aa73a0843b7e6eefdd7414b5", "rental_uris": {"ios": "https://dc.lft.to/lastmile_qr_scan", "android": "https://dc.lft.to/lastmile_qr_scan"}, "fusion_lat": 0.0}, {"lat": 38.973727, "lon": -77.01272666666667, "is_disabled": 0, "fusion_lon": 0.0, "is_reserved": 0, "name": "3c89e9b683b5a5a739521374eebcc10b", "type": "electric_scooter", "bike_id": "3c89e9b683b5a5a739521374eebcc10b", "rental_uris": {"ios": "https://dc.lft.to/lastmile_qr_scan", "android": "https://dc.lft.to/lastmile_qr_scan"}, "fusion_lat": 0.0}, {"lat": 38.93539083333334, "lon": -77.0574255, "is_disabled": 0, "fusion_lon": 0.0, "is_reserved": 0, "name": "3078cd357e7a4220d15bf46ae07e178c", "type": "electric_scooter", "bike_id": "3078cd357e7a4220d15bf46ae07e178c", "rental_uris": {"ios": "https://dc.lft.to/lastmile_qr_scan", "android": "https://dc.lft.to/lastmile_qr_scan"}, "fusion_lat": 0.0}, {"lat": 38.911409166666665, "lon": -77.04182366666667, "is_disabled": 0, "fusion_lon": 0.0, "is_reserved": 0, "name": "957a43c0d099fc172e0c0bf118a98d21", "type": "electric_scooter", "bike_id": "957a43c0d099fc172e0c0bf118a98d21", "rental_uris": {"ios": "https://dc.lft.to/lastmile_qr_scan", "android": "https://dc.lft.to/lastmile_qr_scan"}, "fusion_lat": 0.0}, {"lat": 38.872080833333335, "lon": -77.01388233333333, "is_disabled": 0, "fusion_lon": 0.0, "is_reserved": 0, "name": "7295e392d4ba3fcf9510fdd77a2c782a", "type": "electric_scooter", "bike_id": "7295e392d4ba3fcf9510fdd77a2c782a", "rental_uris": {"ios": "https://dc.lft.to/lastmile_qr_scan", "android": "https://dc.lft.to/lastmile_qr_scan"}, "fusion_lat": 0.0}, {"lat": 38.8351505, "lon": -76.98675366666667, "is_disabled": 0, "fusion_lon": 0.0, "is_reserved": 0, "name": "8d32065672b04cd143a4f145bb315b4b", "type": "electric_bike", "bike_id": "8d32065672b04cd143a4f145bb315b4b", "rental_uris": {"ios": "https://dc.lft.to/lastmile_qr_scan", "android": "https://dc.lft.to/lastmile_qr_scan"}, "fusion_lat": 0.0}, {"lat": 38.88745183333333, "lon": -77.01778166666666, "is_disabled": 0, "fusion_lon": 0.0, "is_reserved": 0, "name": "2dd6e4839e93e8e0beded6e5120d3e61", "type": "electric_scooter", "bike_id": "2dd6e4839e93e8e0beded6e5120d3e61", "rental_uris": {"ios": "https://dc.lft.to/lastmile_qr_scan", "android": "https://dc.lft.to/lastmile_qr_scan"}, "fusion_lat": 0.0}, {"lat": 38.90085833333333, "lon": -77.04787066666667, "is_disabled": 0, "fusion_lon": 0.0, "is_reserved": 0, "name": "659426bccb3e262c3b25f3bb1b0254d0", "type": "electric_scooter", "bike_id": "659426bccb3e262c3b25f3bb1b0254d0", "rental_uris": {"ios": "https://dc.lft.to/lastmile_qr_scan", "android": "https://dc.lft.to/lastmile_qr_scan"}, "fusion_lat": 0.0}, {"lat": 38.889980333333334, "lon": -76.95434916666666, "is_disabled": 0, "fusion_lon": 0.0, "is_reserved": 0, "name": "6d0144642d8539c5d5761ee858be6372", "type": "electric_scooter", "bike_id": "6d0144642d8539c5d5761ee858be6372", "rental_uris": {"ios": "https://dc.lft.to/lastmile_qr_scan", "android": "https://dc.lft.to/lastmile_qr_scan"}, "fusion_lat": 0.0}, {"lat": 38.89830516666667, "lon": -77.02778383333333, "is_disabled": 0, "fusion_lon": 0.0, "is_reserved": 0, "name": "39c8cae8b04c097d68d68158bc96fd5e", "type": "electric_scooter", "bike_id": "39c8cae8b04c097d68d68158bc96fd5e", "rental_uris": {"ios": "https://dc.lft.to/lastmile_qr_scan", "android": "https://dc.lft.to/lastmile_qr_scan"}, "fusion_lat": 0.0}, {"lat": 38.911093, "lon": -77.01147983333334, "is_disabled": 0, "fusion_lon": 0.0, "is_reserved": 0, "name": "66908989b6284766741ed772697591f4", "type": "electric_scooter", "bike_id": "66908989b6284766741ed772697591f4", "rental_uris": {"ios": "https://dc.lft.to/lastmile_qr_scan", "android": "https://dc.lft.to/lastmile_qr_scan"}, "fusion_lat": 0.0}, {"lat": 38.93101883333333, "lon": -77.07699, "is_disabled": 0, "fusion_lon": 0.0, "is_reserved": 0, "name": "d6dee8f3cdfb53e8947567aa6c91f7bd", "type": "electric_scooter", "bike_id": "d6dee8f3cdfb53e8947567aa6c91f7bd", "rental_uris": {"ios": "https://dc.lft.to/lastmile_qr_scan", "android": "https://dc.lft.to/lastmile_qr_scan"}, "fusion_lat": 0.0}, {"lat": 38.91784533333333, "lon": -77.04338933333334, "is_disabled": 0, "fusion_lon": 0.0, "is_reserved": 0, "name": "d81975401500f042a9943f77f9390b68", "type": "electric_scooter", "bike_id": "d81975401500f042a9943f77f9390b68", "rental_uris": {"ios": "https://dc.lft.to/lastmile_qr_scan", "android": "https://dc.lft.to/lastmile_qr_scan"}, "fusion_lat": 0.0}, {"lat": 38.92465333333333, "lon": -77.02252116666666, "is_disabled": 0, "fusion_lon": 0.0, "is_reserved": 0, "name": "a866c49fbc711b098f7df0dd6ba535a9", "type": "electric_scooter", "bike_id": "a866c49fbc711b098f7df0dd6ba535a9", "rental_uris": {"ios": "https://dc.lft.to/lastmile_qr_scan", "android": "https://dc.lft.to/lastmile_qr_scan"}, "fusion_lat": 0.0}, {"lat": 38.916715333333336, "lon": -77.02279683333333, "is_disabled": 0, "fusion_lon": 0.0, "is_reserved": 0, "name": "af36ffda1f7f4f851d8844de80e05b62", "type": "electric_scooter", "bike_id": "af36ffda1f7f4f851d8844de80e05b62", "rental_uris": {"ios": "https://dc.lft.to/lastmile_qr_scan", "android": "https://dc.lft.to/lastmile_qr_scan"}, "fusion_lat": 0.0}, {"lat": 38.8901075, "lon": -76.937079, "is_disabled": 0, "fusion_lon": 0.0, "is_reserved": 0, "name": "f9d39a3d0926d1aa027c547b376c8a97", "type": "electric_scooter", "bike_id": "f9d39a3d0926d1aa027c547b376c8a97", "rental_uris": {"ios": "https://dc.lft.to/lastmile_qr_scan", "android": "https://dc.lft.to/lastmile_qr_scan"}, "fusion_lat": 0.0}, {"lat": 38.900495666666664, "lon": -77.01779283333333, "is_disabled": 0, "fusion_lon": 0.0, "is_reserved": 0, "name": "05c5e4cd282aea1791c494ed0702a252", "type": "electric_scooter", "bike_id": "05c5e4cd282aea1791c494ed0702a252", "rental_uris": {"ios": "https://dc.lft.to/lastmile_qr_scan", "android": "https://dc.lft.to/lastmile_qr_scan"}, "fusion_lat": 0.0}, {"lat": 38.914053833333334, "lon": -77.02985666666666, "is_disabled": 0, "fusion_lon": 0.0, "is_reserved": 0, "name": "8b58ecd56b5317289eb60cc1f7b1bb77", "type": "electric_scooter", "bike_id": "8b58ecd56b5317289eb60cc1f7b1bb77", "rental_uris": {"ios": "https://dc.lft.to/lastmile_qr_scan", "android": "https://dc.lft.to/lastmile_qr_scan"}, "fusion_lat": 0.0}, {"lat": 38.95331633333333, "lon": -77.01653783333333, "is_disabled": 0, "fusion_lon": 0.0, "is_reserved": 0, "name": "806c835c626b2658ee9cfb06af9ea967", "type": "electric_bike", "bike_id": "806c835c626b2658ee9cfb06af9ea967", "rental_uris": {"ios": "https://dc.lft.to/lastmile_qr_scan", "android": "https://dc.lft.to/lastmile_qr_scan"}, "fusion_lat": 0.0}, {"lat": 38.9261295, "lon": -77.0216135, "is_disabled": 0, "fusion_lon": 0.0, "is_reserved": 0, "name": "e09a1ac834d8f9133dfa7351312257e9", "type": "electric_scooter", "bike_id": "e09a1ac834d8f9133dfa7351312257e9", "rental_uris": {"ios": "https://dc.lft.to/lastmile_qr_scan", "android": "https://dc.lft.to/lastmile_qr_scan"}, "fusion_lat": 0.0}, {"lat": 38.919542666666665, "lon": -77.0238065, "is_disabled": 0, "fusion_lon": 0.0, "is_reserved": 0, "name": "6cb07695f1f4862c7c78e61381e2da96", "type": "electric_scooter", "bike_id": "6cb07695f1f4862c7c78e61381e2da96", "rental_uris": {"ios": "https://dc.lft.to/lastmile_qr_scan", "android": "https://dc.lft.to/lastmile_qr_scan"}, "fusion_lat": 0.0}, {"lat": 38.9203595, "lon": -77.03703233333333, "is_disabled": 0, "fusion_lon": 0.0, "is_reserved": 0, "name": "c163a6506c510b5a2351b47eb3f6a38c", "type": "electric_scooter", "bike_id": "c163a6506c510b5a2351b47eb3f6a38c", "rental_uris": {"ios": "https://dc.lft.to/lastmile_qr_scan", "android": "https://dc.lft.to/lastmile_qr_scan"}, "fusion_lat": 0.0}, {"lat": 38.90004666666667, "lon": -76.995336, "is_disabled": 0, "fusion_lon": 0.0, "is_reserved": 0, "name": "822b12c2c19e4e279435ccb7bd1ebcc7", "type": "electric_scooter", "bike_id": "822b12c2c19e4e279435ccb7bd1ebcc7", "rental_uris": {"ios": "https://dc.lft.to/lastmile_qr_scan", "android": "https://dc.lft.to/lastmile_qr_scan"}, "fusion_lat": 0.0}, {"lat": 38.90268233333333, "lon": -77.02784433333333, "is_disabled": 0, "fusion_lon": 0.0, "is_reserved": 0, "name": "a46cfda5e73da7645a0397ebcd3698f2", "type": "electric_scooter", "bike_id": "a46cfda5e73da7645a0397ebcd3698f2", "rental_uris": {"ios": "https://dc.lft.to/lastmile_qr_scan", "android": "https://dc.lft.to/lastmile_qr_scan"}, "fusion_lat": 0.0}, {"lat": 38.86670483333333, "lon": -76.98906316666667, "is_disabled": 0, "fusion_lon": 0.0, "is_reserved": 0, "name": "9ae04ed49ccfb6c2c0d27eb840c24e85", "type": "electric_scooter", "bike_id": "9ae04ed49ccfb6c2c0d27eb840c24e85", "rental_uris": {"ios": "https://dc.lft.to/lastmile_qr_scan", "android": "https://dc.lft.to/lastmile_qr_scan"}, "fusion_lat": 0.0}, {"lat": 38.87713166666666, "lon": -77.006698, "is_disabled": 0, "fusion_lon": 0.0, "is_reserved": 0, "name": "0bb67cb24cc54c288198ca7b220ca34c", "type": "electric_scooter", "bike_id": "0bb67cb24cc54c288198ca7b220ca34c", "rental_uris": {"ios": "https://dc.lft.to/lastmile_qr_scan", "android": "https://dc.lft.to/lastmile_qr_scan"}, "fusion_lat": 0.0}, {"lat": 38.911072833333336, "lon": -77.0435885, "is_disabled": 0, "fusion_lon": 0.0, "is_reserved": 0, "name": "bed797bde51c55eaf8e98fbbe1b5827d", "type": "electric_scooter", "bike_id": "bed797bde51c55eaf8e98fbbe1b5827d", "rental_uris": {"ios": "https://dc.lft.to/lastmile_qr_scan", "android": "https://dc.lft.to/lastmile_qr_scan"}, "fusion_lat": 0.0}, {"lat": 38.87455816666667, "lon": -77.0054285, "is_disabled": 0, "fusion_lon": 0.0, "is_reserved": 0, "name": "67acfae9eb5a9644ceb879310d704ff8", "type": "electric_scooter", "bike_id": "67acfae9eb5a9644ceb879310d704ff8", "rental_uris": {"ios": "https://dc.lft.to/lastmile_qr_scan", "android": "https://dc.lft.to/lastmile_qr_scan"}, "fusion_lat": 0.0}, {"lat": 38.95401416666667, "lon": -77.02798516666667, "is_disabled": 0, "fusion_lon": 0.0, "is_reserved": 0, "name": "6d3f82ded354edd5f38464eb339da9c4", "type": "electric_scooter", "bike_id": "6d3f82ded354edd5f38464eb339da9c4", "rental_uris": {"ios": "https://dc.lft.to/lastmile_qr_scan", "android": "https://dc.lft.to/lastmile_qr_scan"}, "fusion_lat": 0.0}, {"lat": 38.902862666666664, "lon": -77.02378466666667, "is_disabled": 0, "fusion_lon": 0.0, "is_reserved": 0, "name": "8eb9e34c63a808a0c2ed4153f151c86b", "type": "electric_scooter", "bike_id": "8eb9e34c63a808a0c2ed4153f151c86b", "rental_uris": {"ios": "https://dc.lft.to/lastmile_qr_scan", "android": "https://dc.lft.to/lastmile_qr_scan"}, "fusion_lat": 0.0}, {"lat": 38.8873505, "lon": -77.03185066666667, "is_disabled": 0, "fusion_lon": 0.0, "is_reserved": 0, "name": "9760c086c61d6641ab98f59069660a74", "type": "electric_scooter", "bike_id": "9760c086c61d6641ab98f59069660a74", "rental_uris": {"ios": "https://dc.lft.to/lastmile_qr_scan", "android": "https://dc.lft.to/lastmile_qr_scan"}, "fusion_lat": 0.0}, {"lat": 38.88123516666667, "lon": -77.0174335, "is_disabled": 0, "fusion_lon": 0.0, "is_reserved": 0, "name": "88cef8dcb3607b6f63eaa0ea3310489e", "type": "electric_scooter", "bike_id": "88cef8dcb3607b6f63eaa0ea3310489e", "rental_uris": {"ios": "https://dc.lft.to/lastmile_qr_scan", "android": "https://dc.lft.to/lastmile_qr_scan"}, "fusion_lat": 0.0}, {"lat": 38.917236333333335, "lon": -77.01900033333334, "is_disabled": 0, "fusion_lon": 0.0, "is_reserved": 0, "name": "61889a0765f6bc8508ec9938147476cf", "type": "electric_scooter", "bike_id": "61889a0765f6bc8508ec9938147476cf", "rental_uris": {"ios": "https://dc.lft.to/lastmile_qr_scan", "android": "https://dc.lft.to/lastmile_qr_scan"}, "fusion_lat": 0.0}, {"lat": 38.915499833333335, "lon": -77.02849716666667, "is_disabled": 0, "fusion_lon": 0.0, "is_reserved": 0, "name": "26b367580e1da604d32bdde82df5bc52", "type": "electric_scooter", "bike_id": "26b367580e1da604d32bdde82df5bc52", "rental_uris": {"ios": "https://dc.lft.to/lastmile_qr_scan", "android": "https://dc.lft.to/lastmile_qr_scan"}, "fusion_lat": 0.0}, {"lat": 38.922973, "lon": -77.04272366666666, "is_disabled": 0, "fusion_lon": 0.0, "is_reserved": 0, "name": "e9fe40b947a37311032f16fc27039d11", "type": "electric_scooter", "bike_id": "e9fe40b947a37311032f16fc27039d11", "rental_uris": {"ios": "https://dc.lft.to/lastmile_qr_scan", "android": "https://dc.lft.to/lastmile_qr_scan"}, "fusion_lat": 0.0}, {"lat": 38.91231783333333, "lon": -77.03835383333333, "is_disabled": 0, "fusion_lon": 0.0, "is_reserved": 0, "name": "3499c96e0348ebb9d914e0a21014edb7", "type": "electric_scooter", "bike_id": "3499c96e0348ebb9d914e0a21014edb7", "rental_uris": {"ios": "https://dc.lft.to/lastmile_qr_scan", "android": "https://dc.lft.to/lastmile_qr_scan"}, "fusion_lat": 0.0}, {"lat": 38.90481, "lon": -77.01884716666666, "is_disabled": 0, "fusion_lon": 0.0, "is_reserved": 0, "name": "889eb86807e5c4ec27958aae5aab8755", "type": "electric_scooter", "bike_id": "889eb86807e5c4ec27958aae5aab8755", "rental_uris": {"ios": "https://dc.lft.to/lastmile_qr_scan", "android": "https://dc.lft.to/lastmile_qr_scan"}, "fusion_lat": 0.0}, {"lat": 38.912700666666666, "lon": -77.04713916666667, "is_disabled": 0, "fusion_lon": 0.0, "is_reserved": 0, "name": "c7e6a9d58c7030b538067a0dd6c9e813", "type": "electric_scooter", "bike_id": "c7e6a9d58c7030b538067a0dd6c9e813", "rental_uris": {"ios": "https://dc.lft.to/lastmile_qr_scan", "android": "https://dc.lft.to/lastmile_qr_scan"}, "fusion_lat": 0.0}, {"lat": 38.906681666666664, "lon": -77.03675983333333, "is_disabled": 0, "fusion_lon": 0.0, "is_reserved": 0, "name": "aede41824db9ccc9ba9c3d58a026f461", "type": "electric_scooter", "bike_id": "aede41824db9ccc9ba9c3d58a026f461", "rental_uris": {"ios": "https://dc.lft.to/lastmile_qr_scan", "android": "https://dc.lft.to/lastmile_qr_scan"}, "fusion_lat": 0.0}, {"lat": 38.92870583333333, "lon": -77.03261116666667, "is_disabled": 0, "fusion_lon": 0.0, "is_reserved": 0, "name": "8e219bebd9de97d63a26c70293e43715", "type": "electric_scooter", "bike_id": "8e219bebd9de97d63a26c70293e43715", "rental_uris": {"ios": "https://dc.lft.to/lastmile_qr_scan", "android": "https://dc.lft.to/lastmile_qr_scan"}, "fusion_lat": 0.0}, {"lat": 38.90773766666667, "lon": -77.0450995, "is_disabled": 0, "fusion_lon": 0.0, "is_reserved": 0, "name": "3063ce5d5f016a15e344102c003668d8", "type": "electric_scooter", "bike_id": "3063ce5d5f016a15e344102c003668d8", "rental_uris": {"ios": "https://dc.lft.to/lastmile_qr_scan", "android": "https://dc.lft.to/lastmile_qr_scan"}, "fusion_lat": 0.0}, {"lat": 38.9787515, "lon": -77.06033116666667, "is_disabled": 0, "fusion_lon": 0.0, "is_reserved": 0, "name": "43679b8605cd7de82c3c44f04460d648", "type": "electric_bike", "bike_id": "43679b8605cd7de82c3c44f04460d648", "rental_uris": {"ios": "https://dc.lft.to/lastmile_qr_scan", "android": "https://dc.lft.to/lastmile_qr_scan"}, "fusion_lat": 0.0}, {"lat": 38.87789733333334, "lon": -76.99940666666667, "is_disabled": 0, "fusion_lon": 0.0, "is_reserved": 0, "name": "a95b15e3f3a3cbac9f1158597067e6fe", "type": "electric_scooter", "bike_id": "a95b15e3f3a3cbac9f1158597067e6fe", "rental_uris": {"ios": "https://dc.lft.to/lastmile_qr_scan", "android": "https://dc.lft.to/lastmile_qr_scan"}, "fusion_lat": 0.0}, {"lat": 38.9112315, "lon": -77.04209716666666, "is_disabled": 0, "fusion_lon": 0.0, "is_reserved": 0, "name": "c4ae6f132e2cad08cf03ba158e1fc8ab", "type": "electric_scooter", "bike_id": "c4ae6f132e2cad08cf03ba158e1fc8ab", "rental_uris": {"ios": "https://dc.lft.to/lastmile_qr_scan", "android": "https://dc.lft.to/lastmile_qr_scan"}, "fusion_lat": 0.0}, {"lat": 38.923447, "lon": -77.0517055, "is_disabled": 0, "fusion_lon": 0.0, "is_reserved": 0, "name": "4d1d111abbd698ac6a13340c4877c8fd", "type": "electric_scooter", "bike_id": "4d1d111abbd698ac6a13340c4877c8fd", "rental_uris": {"ios": "https://dc.lft.to/lastmile_qr_scan", "android": "https://dc.lft.to/lastmile_qr_scan"}, "fusion_lat": 0.0}, {"lat": 38.901868, "lon": -77.05082383333334, "is_disabled": 0, "fusion_lon": 0.0, "is_reserved": 0, "name": "fcdac73e7340333fa2115155829c8aba", "type": "electric_scooter", "bike_id": "fcdac73e7340333fa2115155829c8aba", "rental_uris": {"ios": "https://dc.lft.to/lastmile_qr_scan", "android": "https://dc.lft.to/lastmile_qr_scan"}, "fusion_lat": 0.0}, {"lat": 38.920503, "lon": -77.02580383333333, "is_disabled": 0, "fusion_lon": 0.0, "is_reserved": 0, "name": "569768b0c0ba22c67ec084e6273c0560", "type": "electric_scooter", "bike_id": "569768b0c0ba22c67ec084e6273c0560", "rental_uris": {"ios": "https://dc.lft.to/lastmile_qr_scan", "android": "https://dc.lft.to/lastmile_qr_scan"}, "fusion_lat": 0.0}, {"lat": 38.917018, "lon": -77.0286775, "is_disabled": 0, "fusion_lon": 0.0, "is_reserved": 0, "name": "8382738f4ed8afab4f5bf99f8ba1f567", "type": "electric_scooter", "bike_id": "8382738f4ed8afab4f5bf99f8ba1f567", "rental_uris": {"ios": "https://dc.lft.to/lastmile_qr_scan", "android": "https://dc.lft.to/lastmile_qr_scan"}, "fusion_lat": 0.0}, {"lat": 38.919248, "lon": -77.03422583333334, "is_disabled": 0, "fusion_lon": 0.0, "is_reserved": 0, "name": "8240cb66ce2ac7d015bb31b2aee20a10", "type": "electric_scooter", "bike_id": "8240cb66ce2ac7d015bb31b2aee20a10", "rental_uris": {"ios": "https://dc.lft.to/lastmile_qr_scan", "android": "https://dc.lft.to/lastmile_qr_scan"}, "fusion_lat": 0.0}, {"lat": 38.913437333333334, "lon": -77.03985983333334, "is_disabled": 0, "fusion_lon": 0.0, "is_reserved": 0, "name": "8460352a3db63c3c2feeb82e4af15188", "type": "electric_scooter", "bike_id": "8460352a3db63c3c2feeb82e4af15188", "rental_uris": {"ios": "https://dc.lft.to/lastmile_qr_scan", "android": "https://dc.lft.to/lastmile_qr_scan"}, "fusion_lat": 0.0}, {"lat": 38.92384033333333, "lon": -77.02657666666667, "is_disabled": 0, "fusion_lon": 0.0, "is_reserved": 0, "name": "430ff6e8c2e24c1f38ca2b3764a8cca4", "type": "electric_scooter", "bike_id": "430ff6e8c2e24c1f38ca2b3764a8cca4", "rental_uris": {"ios": "https://dc.lft.to/lastmile_qr_scan", "android": "https://dc.lft.to/lastmile_qr_scan"}, "fusion_lat": 0.0}, {"lat": 38.903020833333336, "lon": -77.0581555, "is_disabled": 0, "fusion_lon": 0.0, "is_reserved": 0, "name": "8d4674924a409b1f88759e176ba62e9f", "type": "electric_scooter", "bike_id": "8d4674924a409b1f88759e176ba62e9f", "rental_uris": {"ios": "https://dc.lft.to/lastmile_qr_scan", "android": "https://dc.lft.to/lastmile_qr_scan"}, "fusion_lat": 0.0}, {"lat": 38.9847605, "lon": -77.02634, "is_disabled": 0, "fusion_lon": 0.0, "is_reserved": 0, "name": "8effe499ba3a2200263f078f7210a282", "type": "electric_scooter", "bike_id": "8effe499ba3a2200263f078f7210a282", "rental_uris": {"ios": "https://dc.lft.to/lastmile_qr_scan", "android": "https://dc.lft.to/lastmile_qr_scan"}, "fusion_lat": 0.0}, {"lat": 38.890024, "lon": -76.97735233333333, "is_disabled": 0, "fusion_lon": 0.0, "is_reserved": 0, "name": "96518ac555549f2b0dea10b7f81f1217", "type": "electric_scooter", "bike_id": "96518ac555549f2b0dea10b7f81f1217", "rental_uris": {"ios": "https://dc.lft.to/lastmile_qr_scan", "android": "https://dc.lft.to/lastmile_qr_scan"}, "fusion_lat": 0.0}, {"lat": 38.90703666666667, "lon": -77.043497, "is_disabled": 0, "fusion_lon": 0.0, "is_reserved": 0, "name": "4339ffe963a07234d83c765c1447d157", "type": "electric_scooter", "bike_id": "4339ffe963a07234d83c765c1447d157", "rental_uris": {"ios": "https://dc.lft.to/lastmile_qr_scan", "android": "https://dc.lft.to/lastmile_qr_scan"}, "fusion_lat": 0.0}, {"lat": 38.91580716666667, "lon": -77.0123625, "is_disabled": 0, "fusion_lon": 0.0, "is_reserved": 0, "name": "65a1eb43ed3f45542e26b5878fab158b", "type": "electric_scooter", "bike_id": "65a1eb43ed3f45542e26b5878fab158b", "rental_uris": {"ios": "https://dc.lft.to/lastmile_qr_scan", "android": "https://dc.lft.to/lastmile_qr_scan"}, "fusion_lat": 0.0}, {"lat": 38.90576183333334, "lon": -77.003211, "is_disabled": 0, "fusion_lon": 0.0, "is_reserved": 0, "name": "09ceb7083f21f61ebb08fb1444b69bf3", "type": "electric_scooter", "bike_id": "09ceb7083f21f61ebb08fb1444b69bf3", "rental_uris": {"ios": "https://dc.lft.to/lastmile_qr_scan", "android": "https://dc.lft.to/lastmile_qr_scan"}, "fusion_lat": 0.0}, {"lat": 38.915534666666666, "lon": -77.031847, "is_disabled": 0, "fusion_lon": 0.0, "is_reserved": 0, "name": "958ef98223432858123d2e5207e1a869", "type": "electric_scooter", "bike_id": "958ef98223432858123d2e5207e1a869", "rental_uris": {"ios": "https://dc.lft.to/lastmile_qr_scan", "android": "https://dc.lft.to/lastmile_qr_scan"}, "fusion_lat": 0.0}, {"lat": 38.887458, "lon": -77.02569116666666, "is_disabled": 0, "fusion_lon": 0.0, "is_reserved": 0, "name": "87b8f4b415e15e8b33a6f972e1a7dd1d", "type": "electric_scooter", "bike_id": "87b8f4b415e15e8b33a6f972e1a7dd1d", "rental_uris": {"ios": "https://dc.lft.to/lastmile_qr_scan", "android": "https://dc.lft.to/lastmile_qr_scan"}, "fusion_lat": 0.0}, {"lat": 38.933571, "lon": -77.0734425, "is_disabled": 0, "fusion_lon": 0.0, "is_reserved": 0, "name": "216269241b568fdcca21c8532fa74c87", "type": "electric_scooter", "bike_id": "216269241b568fdcca21c8532fa74c87", "rental_uris": {"ios": "https://dc.lft.to/lastmile_qr_scan", "android": "https://dc.lft.to/lastmile_qr_scan"}, "fusion_lat": 0.0}, {"lat": 38.926965833333334, "lon": -77.03781066666667, "is_disabled": 0, "fusion_lon": 0.0, "is_reserved": 0, "name": "590a58e995215d9bea9d2dfc27f676af", "type": "electric_scooter", "bike_id": "590a58e995215d9bea9d2dfc27f676af", "rental_uris": {"ios": "https://dc.lft.to/lastmile_qr_scan", "android": "https://dc.lft.to/lastmile_qr_scan"}, "fusion_lat": 0.0}, {"lat": 38.923214, "lon": -77.04028716666667, "is_disabled": 0, "fusion_lon": 0.0, "is_reserved": 0, "name": "a87cb6b0580b0f4adab5b4b6b6702b46", "type": "electric_scooter", "bike_id": "a87cb6b0580b0f4adab5b4b6b6702b46", "rental_uris": {"ios": "https://dc.lft.to/lastmile_qr_scan", "android": "https://dc.lft.to/lastmile_qr_scan"}, "fusion_lat": 0.0}, {"lat": 38.94829983333333, "lon": -77.09998533333334, "is_disabled": 0, "fusion_lon": 0.0, "is_reserved": 0, "name": "201589238933f7fe169b19858da50462", "type": "electric_scooter", "bike_id": "201589238933f7fe169b19858da50462", "rental_uris": {"ios": "https://dc.lft.to/lastmile_qr_scan", "android": "https://dc.lft.to/lastmile_qr_scan"}, "fusion_lat": 0.0}, {"lat": 38.919065833333335, "lon": -77.00148216666666, "is_disabled": 0, "fusion_lon": 0.0, "is_reserved": 0, "name": "a0cbd7e641bfa8d686f336e59d43faf1", "type": "electric_scooter", "bike_id": "a0cbd7e641bfa8d686f336e59d43faf1", "rental_uris": {"ios": "https://dc.lft.to/lastmile_qr_scan", "android": "https://dc.lft.to/lastmile_qr_scan"}, "fusion_lat": 0.0}, {"lat": 38.9140325, "lon": -77.02984216666667, "is_disabled": 0, "fusion_lon": 0.0, "is_reserved": 0, "name": "701c39260516fd435c6ae2c314a6416f", "type": "electric_scooter", "bike_id": "701c39260516fd435c6ae2c314a6416f", "rental_uris": {"ios": "https://dc.lft.to/lastmile_qr_scan", "android": "https://dc.lft.to/lastmile_qr_scan"}, "fusion_lat": 0.0}, {"lat": 38.89970733333333, "lon": -77.01775983333333, "is_disabled": 0, "fusion_lon": 0.0, "is_reserved": 0, "name": "1166f037683b4f196c5c969122870932", "type": "electric_scooter", "bike_id": "1166f037683b4f196c5c969122870932", "rental_uris": {"ios": "https://dc.lft.to/lastmile_qr_scan", "android": "https://dc.lft.to/lastmile_qr_scan"}, "fusion_lat": 0.0}, {"lat": 38.88744716666667, "lon": -77.01406166666666, "is_disabled": 0, "fusion_lon": 0.0, "is_reserved": 0, "name": "239005a3038dd164d284e4083c04b8e8", "type": "electric_scooter", "bike_id": "239005a3038dd164d284e4083c04b8e8", "rental_uris": {"ios": "https://dc.lft.to/lastmile_qr_scan", "android": "https://dc.lft.to/lastmile_qr_scan"}, "fusion_lat": 0.0}, {"lat": 38.887338666666665, "lon": -77.0318105, "is_disabled": 0, "fusion_lon": 0.0, "is_reserved": 0, "name": "245c81dc9e6b86b51923bdf7cad81b30", "type": "electric_scooter", "bike_id": "245c81dc9e6b86b51923bdf7cad81b30", "rental_uris": {"ios": "https://dc.lft.to/lastmile_qr_scan", "android": "https://dc.lft.to/lastmile_qr_scan"}, "fusion_lat": 0.0}, {"lat": 38.96218866666667, "lon": -77.02630383333333, "is_disabled": 0, "fusion_lon": 0.0, "is_reserved": 0, "name": "139790c237a6647d396ca122f7993fa7", "type": "electric_bike", "bike_id": "139790c237a6647d396ca122f7993fa7", "rental_uris": {"ios": "https://dc.lft.to/lastmile_qr_scan", "android": "https://dc.lft.to/lastmile_qr_scan"}, "fusion_lat": 0.0}, {"lat": 38.91802783333333, "lon": -77.040191, "is_disabled": 0, "fusion_lon": 0.0, "is_reserved": 0, "name": "5961108da2efdf756af1151cb5cd9171", "type": "electric_scooter", "bike_id": "5961108da2efdf756af1151cb5cd9171", "rental_uris": {"ios": "https://dc.lft.to/lastmile_qr_scan", "android": "https://dc.lft.to/lastmile_qr_scan"}, "fusion_lat": 0.0}, {"lat": 38.880189, "lon": -76.98069983333333, "is_disabled": 0, "fusion_lon": 0.0, "is_reserved": 0, "name": "682293aaa8ceaf6eec54a683387297b5", "type": "electric_scooter", "bike_id": "682293aaa8ceaf6eec54a683387297b5", "rental_uris": {"ios": "https://dc.lft.to/lastmile_qr_scan", "android": "https://dc.lft.to/lastmile_qr_scan"}, "fusion_lat": 0.0}, {"lat": 38.918097333333336, "lon": -77.03630516666666, "is_disabled": 0, "fusion_lon": 0.0, "is_reserved": 0, "name": "4d5f21bef024ebfe8b6f91cb1542b34f", "type": "electric_scooter", "bike_id": "4d5f21bef024ebfe8b6f91cb1542b34f", "rental_uris": {"ios": "https://dc.lft.to/lastmile_qr_scan", "android": "https://dc.lft.to/lastmile_qr_scan"}, "fusion_lat": 0.0}, {"lat": 38.931406, "lon": -77.0383515, "is_disabled": 0, "fusion_lon": 0.0, "is_reserved": 0, "name": "a29599c24b6c76553d25b073be98ec3b", "type": "electric_scooter", "bike_id": "a29599c24b6c76553d25b073be98ec3b", "rental_uris": {"ios": "https://dc.lft.to/lastmile_qr_scan", "android": "https://dc.lft.to/lastmile_qr_scan"}, "fusion_lat": 0.0}, {"lat": 38.93579233333333, "lon": -77.03362383333334, "is_disabled": 0, "fusion_lon": 0.0, "is_reserved": 0, "name": "becc6e4d86ff4cc995af6923695def3e", "type": "electric_scooter", "bike_id": "becc6e4d86ff4cc995af6923695def3e", "rental_uris": {"ios": "https://dc.lft.to/lastmile_qr_scan", "android": "https://dc.lft.to/lastmile_qr_scan"}, "fusion_lat": 0.0}, {"lat": 38.943991, "lon": -77.03905266666666, "is_disabled": 0, "fusion_lon": 0.0, "is_reserved": 0, "name": "93e0144708f29db242ac1abd152b80f6", "type": "electric_scooter", "bike_id": "93e0144708f29db242ac1abd152b80f6", "rental_uris": {"ios": "https://dc.lft.to/lastmile_qr_scan", "android": "https://dc.lft.to/lastmile_qr_scan"}, "fusion_lat": 0.0}, {"lat": 38.8923715, "lon": -77.027911, "is_disabled": 0, "fusion_lon": 0.0, "is_reserved": 0, "name": "3814624ce053a9c32572fbc3fe5bdb8f", "type": "electric_scooter", "bike_id": "3814624ce053a9c32572fbc3fe5bdb8f", "rental_uris": {"ios": "https://dc.lft.to/lastmile_qr_scan", "android": "https://dc.lft.to/lastmile_qr_scan"}, "fusion_lat": 0.0}, {"lat": 38.902829833333335, "lon": -77.02013183333334, "is_disabled": 0, "fusion_lon": 0.0, "is_reserved": 0, "name": "f029e27ecfb934a3f2d00f7db2b7ef90", "type": "electric_scooter", "bike_id": "f029e27ecfb934a3f2d00f7db2b7ef90", "rental_uris": {"ios": "https://dc.lft.to/lastmile_qr_scan", "android": "https://dc.lft.to/lastmile_qr_scan"}, "fusion_lat": 0.0}, {"lat": 38.909573, "lon": -77.039519, "is_disabled": 0, "fusion_lon": 0.0, "is_reserved": 0, "name": "985aa49913fc0c5f5fe023bc6fe0cb77", "type": "electric_scooter", "bike_id": "985aa49913fc0c5f5fe023bc6fe0cb77", "rental_uris": {"ios": "https://dc.lft.to/lastmile_qr_scan", "android": "https://dc.lft.to/lastmile_qr_scan"}, "fusion_lat": 0.0}, {"lat": 38.950416, "lon": -77.02722716666666, "is_disabled": 0, "fusion_lon": 0.0, "is_reserved": 0, "name": "bedad491ac76b73f7b7f44d788fd5479", "type": "electric_scooter", "bike_id": "bedad491ac76b73f7b7f44d788fd5479", "rental_uris": {"ios": "https://dc.lft.to/lastmile_qr_scan", "android": "https://dc.lft.to/lastmile_qr_scan"}, "fusion_lat": 0.0}, {"lat": 38.9617555, "lon": -77.07385216666667, "is_disabled": 0, "fusion_lon": 0.0, "is_reserved": 0, "name": "3cd7871e3d8dc0b2b3839d0f8f41f8c7", "type": "electric_bike", "bike_id": "3cd7871e3d8dc0b2b3839d0f8f41f8c7", "rental_uris": {"ios": "https://dc.lft.to/lastmile_qr_scan", "android": "https://dc.lft.to/lastmile_qr_scan"}, "fusion_lat": 0.0}, {"lat": 38.90844716666667, "lon": -77.01258833333333, "is_disabled": 0, "fusion_lon": 0.0, "is_reserved": 0, "name": "35928ceba9d1563261031fd65f1f3cf7", "type": "electric_scooter", "bike_id": "35928ceba9d1563261031fd65f1f3cf7", "rental_uris": {"ios": "https://dc.lft.to/lastmile_qr_scan", "android": "https://dc.lft.to/lastmile_qr_scan"}, "fusion_lat": 0.0}, {"lat": 38.91766283333333, "lon": -77.01494866666667, "is_disabled": 0, "fusion_lon": 0.0, "is_reserved": 0, "name": "f3dfb87e76a5e1e41ac8cbbf196c84ca", "type": "electric_scooter", "bike_id": "f3dfb87e76a5e1e41ac8cbbf196c84ca", "rental_uris": {"ios": "https://dc.lft.to/lastmile_qr_scan", "android": "https://dc.lft.to/lastmile_qr_scan"}, "fusion_lat": 0.0}, {"lat": 38.901474, "lon": -77.01906066666666, "is_disabled": 0, "fusion_lon": 0.0, "is_reserved": 0, "name": "0149c45b957aa7f3615e2c1d2a990477", "type": "electric_scooter", "bike_id": "0149c45b957aa7f3615e2c1d2a990477", "rental_uris": {"ios": "https://dc.lft.to/lastmile_qr_scan", "android": "https://dc.lft.to/lastmile_qr_scan"}, "fusion_lat": 0.0}, {"lat": 38.912571166666666, "lon": -77.02804433333333, "is_disabled": 0, "fusion_lon": 0.0, "is_reserved": 0, "name": "4ead5fa64a3b5a4d9200b7f3ac716833", "type": "electric_scooter", "bike_id": "4ead5fa64a3b5a4d9200b7f3ac716833", "rental_uris": {"ios": "https://dc.lft.to/lastmile_qr_scan", "android": "https://dc.lft.to/lastmile_qr_scan"}, "fusion_lat": 0.0}, {"lat": 38.9102305, "lon": -77.0239435, "is_disabled": 0, "fusion_lon": 0.0, "is_reserved": 0, "name": "d083ca5a4c1f2e0583ed37b6ef552687", "type": "electric_scooter", "bike_id": "d083ca5a4c1f2e0583ed37b6ef552687", "rental_uris": {"ios": "https://dc.lft.to/lastmile_qr_scan", "android": "https://dc.lft.to/lastmile_qr_scan"}, "fusion_lat": 0.0}, {"lat": 38.84441016666667, "lon": -76.99890833333333, "is_disabled": 0, "fusion_lon": 0.0, "is_reserved": 0, "name": "eac5e6c7ecf7d9dde7bd1c32be72f5ef", "type": "electric_bike", "bike_id": "eac5e6c7ecf7d9dde7bd1c32be72f5ef", "rental_uris": {"ios": "https://dc.lft.to/lastmile_qr_scan", "android": "https://dc.lft.to/lastmile_qr_scan"}, "fusion_lat": 0.0}, {"lat": 38.91413083333333, "lon": -77.01077316666667, "is_disabled": 0, "fusion_lon": 0.0, "is_reserved": 0, "name": "094721e573860927ba57d3673ca41c89", "type": "electric_scooter", "bike_id": "094721e573860927ba57d3673ca41c89", "rental_uris": {"ios": "https://dc.lft.to/lastmile_qr_scan", "android": "https://dc.lft.to/lastmile_qr_scan"}, "fusion_lat": 0.0}, {"lat": 38.885199166666666, "lon": -77.01129533333334, "is_disabled": 0, "fusion_lon": 0.0, "is_reserved": 0, "name": "1ec4d72b75782ab6d7aa987e4bff4949", "type": "electric_scooter", "bike_id": "1ec4d72b75782ab6d7aa987e4bff4949", "rental_uris": {"ios": "https://dc.lft.to/lastmile_qr_scan", "android": "https://dc.lft.to/lastmile_qr_scan"}, "fusion_lat": 0.0}, {"lat": 38.926011, "lon": -77.0215665, "is_disabled": 0, "fusion_lon": 0.0, "is_reserved": 0, "name": "2ad246f57998043ffc977637c37b19a0", "type": "electric_scooter", "bike_id": "2ad246f57998043ffc977637c37b19a0", "rental_uris": {"ios": "https://dc.lft.to/lastmile_qr_scan", "android": "https://dc.lft.to/lastmile_qr_scan"}, "fusion_lat": 0.0}, {"lat": 38.924846333333335, "lon": -77.05215533333333, "is_disabled": 0, "fusion_lon": 0.0, "is_reserved": 0, "name": "4fa3b35be54ee99976aa86eb0e90048f", "type": "electric_scooter", "bike_id": "4fa3b35be54ee99976aa86eb0e90048f", "rental_uris": {"ios": "https://dc.lft.to/lastmile_qr_scan", "android": "https://dc.lft.to/lastmile_qr_scan"}, "fusion_lat": 0.0}, {"lat": 38.90864083333334, "lon": -77.044771, "is_disabled": 0, "fusion_lon": 0.0, "is_reserved": 0, "name": "30738f7ce02ff4a0d34ef53555752309", "type": "electric_scooter", "bike_id": "30738f7ce02ff4a0d34ef53555752309", "rental_uris": {"ios": "https://dc.lft.to/lastmile_qr_scan", "android": "https://dc.lft.to/lastmile_qr_scan"}, "fusion_lat": 0.0}, {"lat": 38.93362066666667, "lon": -77.0573145, "is_disabled": 0, "fusion_lon": 0.0, "is_reserved": 0, "name": "8bf68265816c3487ee0605dd400f6029", "type": "electric_scooter", "bike_id": "8bf68265816c3487ee0605dd400f6029", "rental_uris": {"ios": "https://dc.lft.to/lastmile_qr_scan", "android": "https://dc.lft.to/lastmile_qr_scan"}, "fusion_lat": 0.0}, {"lat": 38.901216166666664, "lon": -77.00209366666667, "is_disabled": 0, "fusion_lon": 0.0, "is_reserved": 0, "name": "1754d61003d88bbb29705b3569e75c84", "type": "electric_scooter", "bike_id": "1754d61003d88bbb29705b3569e75c84", "rental_uris": {"ios": "https://dc.lft.to/lastmile_qr_scan", "android": "https://dc.lft.to/lastmile_qr_scan"}, "fusion_lat": 0.0}, {"lat": 38.900257833333335, "lon": -77.01189266666667, "is_disabled": 0, "fusion_lon": 0.0, "is_reserved": 0, "name": "d113024298bdb83297b1fb2bfb10c154", "type": "electric_scooter", "bike_id": "d113024298bdb83297b1fb2bfb10c154", "rental_uris": {"ios": "https://dc.lft.to/lastmile_qr_scan", "android": "https://dc.lft.to/lastmile_qr_scan"}, "fusion_lat": 0.0}, {"lat": 38.909863333333334, "lon": -77.03174366666667, "is_disabled": 0, "fusion_lon": 0.0, "is_reserved": 0, "name": "f62f4605cdc82b4e2ff19257d9e663d7", "type": "electric_scooter", "bike_id": "f62f4605cdc82b4e2ff19257d9e663d7", "rental_uris": {"ios": "https://dc.lft.to/lastmile_qr_scan", "android": "https://dc.lft.to/lastmile_qr_scan"}, "fusion_lat": 0.0}, {"lat": 38.90689916666667, "lon": -77.03595433333334, "is_disabled": 0, "fusion_lon": 0.0, "is_reserved": 0, "name": "f952a8f3049ee8e7ed37f7785c0b1bec", "type": "electric_scooter", "bike_id": "f952a8f3049ee8e7ed37f7785c0b1bec", "rental_uris": {"ios": "https://dc.lft.to/lastmile_qr_scan", "android": "https://dc.lft.to/lastmile_qr_scan"}, "fusion_lat": 0.0}, {"lat": 38.81907833333333, "lon": -77.12650083333334, "is_disabled": 0, "fusion_lon": 0.0, "is_reserved": 0, "name": "10e98b775f2de6e4d8c24b2da6ba2a38", "type": "electric_bike", "bike_id": "10e98b775f2de6e4d8c24b2da6ba2a38", "rental_uris": {"ios": "https://dc.lft.to/lastmile_qr_scan", "android": "https://dc.lft.to/lastmile_qr_scan"}, "fusion_lat": 0.0}, {"lat": 38.918196, "lon": -77.03658, "is_disabled": 0, "fusion_lon": 0.0, "is_reserved": 0, "name": "43da7c01abf5fd5819369a60ef268b25", "type": "electric_scooter", "bike_id": "43da7c01abf5fd5819369a60ef268b25", "rental_uris": {"ios": "https://dc.lft.to/lastmile_qr_scan", "android": "https://dc.lft.to/lastmile_qr_scan"}, "fusion_lat": 0.0}, {"lat": 38.898947666666665, "lon": -76.98084883333334, "is_disabled": 0, "fusion_lon": 0.0, "is_reserved": 0, "name": "938aa182538ef8b64db5d4c5f82d9d6f", "type": "electric_scooter", "bike_id": "938aa182538ef8b64db5d4c5f82d9d6f", "rental_uris": {"ios": "https://dc.lft.to/lastmile_qr_scan", "android": "https://dc.lft.to/lastmile_qr_scan"}, "fusion_lat": 0.0}, {"lat": 38.900101666666664, "lon": -77.006815, "is_disabled": 0, "fusion_lon": 0.0, "is_reserved": 0, "name": "51e0af751006de83c507a5a237ba8b0f", "type": "electric_scooter", "bike_id": "51e0af751006de83c507a5a237ba8b0f", "rental_uris": {"ios": "https://dc.lft.to/lastmile_qr_scan", "android": "https://dc.lft.to/lastmile_qr_scan"}, "fusion_lat": 0.0}, {"lat": 38.90006366666667, "lon": -77.00200866666667, "is_disabled": 0, "fusion_lon": 0.0, "is_reserved": 0, "name": "8d51656f3b1890cc269a968e89648f50", "type": "electric_scooter", "bike_id": "8d51656f3b1890cc269a968e89648f50", "rental_uris": {"ios": "https://dc.lft.to/lastmile_qr_scan", "android": "https://dc.lft.to/lastmile_qr_scan"}, "fusion_lat": 0.0}, {"lat": 38.91475283333333, "lon": -77.04244733333333, "is_disabled": 0, "fusion_lon": 0.0, "is_reserved": 0, "name": "2dc74dcead3ff6b61fcb296bb91df6b1", "type": "electric_scooter", "bike_id": "2dc74dcead3ff6b61fcb296bb91df6b1", "rental_uris": {"ios": "https://dc.lft.to/lastmile_qr_scan", "android": "https://dc.lft.to/lastmile_qr_scan"}, "fusion_lat": 0.0}, {"lat": 38.91240466666667, "lon": -77.04884433333334, "is_disabled": 0, "fusion_lon": 0.0, "is_reserved": 0, "name": "266532f5ef02a53994b346e9b8b56401", "type": "electric_scooter", "bike_id": "266532f5ef02a53994b346e9b8b56401", "rental_uris": {"ios": "https://dc.lft.to/lastmile_qr_scan", "android": "https://dc.lft.to/lastmile_qr_scan"}, "fusion_lat": 0.0}, {"lat": 38.92070283333334, "lon": -77.04196, "is_disabled": 0, "fusion_lon": 0.0, "is_reserved": 0, "name": "05207eed718885de7ee2d25d025ef0ec", "type": "electric_scooter", "bike_id": "05207eed718885de7ee2d25d025ef0ec", "rental_uris": {"ios": "https://dc.lft.to/lastmile_qr_scan", "android": "https://dc.lft.to/lastmile_qr_scan"}, "fusion_lat": 0.0},