{"data": {"bikes": [{"lon": -77.0296075, "is_disabled": 0, "lat": 38.9023365, "fusion_lat": 0.0, "is_reserved": 0, "rental_uris": {"ios": "https://dc.lft.to/lastmile_qr_scan", "android": "https://dc.lft.to/lastmile_qr_scan"}, "fusion_lon": 0.0, "type": "electric_scooter", "bike_id": "3ba82aa4efb60bdacb12284c05b4e63f", "name": "3ba82aa4efb60bdacb12284c05b4e63f"}, {"lon": -77.03837033333333, "is_disabled": 0, "lat": 38.92164366666667, "fusion_lat": 0.0, "is_reserved": 0, "rental_uris": {"ios": "https://dc.lft.to/lastmile_qr_scan", "android": "https://dc.lft.to/lastmile_qr_scan"}, "fusion_lon": 0.0, "type": "electric_scooter", "bike_id": "8b3ba32ecc7a1a15b758d6a24961c5de", "name": "8b3ba32ecc7a1a15b758d6a24961c5de"}, {"lon": -77.00555, "is_disabled": 0, "lat": 38.905979, "fusion_lat": 0.0, "is_reserved": 0, "rental_uris": {"ios": "https://dc.lft.to/lastmile_qr_scan", "android": "https://dc.lft.to/lastmile_qr_scan"}, "fusion_lon": 0.0, "type": "electric_scooter", "bike_id": "e2efb2b2012b7202eb64bd58af076063", "name": "e2efb2b2012b7202eb64bd58af076063"}, {"lon": -77.02702833333333, "is_disabled": 0, "lat": 38.906647166666666, "fusion_lat": 0.0, "is_reserved": 0, "rental_uris": {"ios": "https://dc.lft.to/lastmile_qr_scan", "android": "https://dc.lft.to/lastmile_qr_scan"}, "fusion_lon": 0.0, "type": "electric_scooter", "bike_id": "6cc4870e052239ebf4dff0e37debc49c", "name": "6cc4870e052239ebf4dff0e37debc49c"}, {"lon": -77.035939, "is_disabled": 0, "lat": 38.936741, "fusion_lat": 0.0, "is_reserved": 0, "rental_uris": {"ios": "https://dc.lft.to/lastmile_qr_scan", "android": "https://dc.lft.to/lastmile_qr_scan"}, "fusion_lon": 0.0, "type": "electric_scooter", "bike_id": "512f08acd1629c05bb39c61891ea2cbe", "name": "512f08acd1629c05bb39c61891ea2cbe"}, {"lon": -77.000392, "is_disabled": 0, "lat": 38.87382783333334, "fusion_lat": 0.0, "is_reserved": 0, "rental_uris": {"ios": "https://dc.lft.to/lastmile_qr_scan", "android": "https://dc.lft.to/lastmile_qr_scan"}, "fusion_lon": 0.0, "type": "electric_scooter", "bike_id": "b1901ef9c3d743d4d61c82321ed9c37a", "name": "b1901ef9c3d743d4d61c82321ed9c37a"}, {"lon": -77.03338016666666, "is_disabled": 0, "lat": 38.92358016666667, "fusion_lat": 0.0, "is_reserved": 0, "rental_uris": {"ios": "https://dc.lft.to/lastmile_qr_scan", "android": "https://dc.lft.to/lastmile_qr_scan"}, "fusion_lon": 0.0, "type": "electric_scooter", "bike_id": "bc57fa8051cce12f7b1da1100c7c1f87", "name": "bc57fa8051cce12f7b1da1100c7c1f87"}, {"lon": -77.0235845, "is_disabled": 0, "lat": 38.919920833333336, "fusion_lat": 0.0, "is_reserved": 0, "rental_uris": {"ios": "https://dc.lft.to/lastmile_qr_scan", "android": "https://dc.lft.to/lastmile_qr_scan"}, "fusion_lon": 0.0, "type": "electric_scooter", "bike_id": "204284b74966ab733e8849f6e3a45cb5", "name": "204284b74966ab733e8849f6e3a45cb5"}, {"lon": -77.020862, "is_disabled": 0, "lat": 38.88186533333333, "fusion_lat": 0.0, "is_reserved": 0, "rental_uris": {"ios": "https://dc.lft.to/lastmile_qr_scan", "android": "https://dc.lft.to/lastmile_qr_scan"}, "fusion_lon": 0.0, "type": "electric_scooter", "bike_id": "768aba422b8544b07b2059e35b6831a9", "name": "768aba422b8544b07b2059e35b6831a9"}, {"lon": -77.03357566666666, "is_disabled": 0, "lat": 38.920478333333335, "fusion_lat": 0.0, "is_reserved": 0, "rental_uris": {"ios": "https://dc.lft.to/lastmile_qr_scan", "android": "https://dc.lft.to/lastmile_qr_scan"}, "fusion_lon": 0.0, "type": "electric_scooter", "bike_id": "940e834b0490da0eda6d0c7a5e10b185", "name": "940e834b0490da0eda6d0c7a5e10b185"}, {"lon": -76.92659233333333, "is_disabled": 0, "lat": 38.901704, "fusion_lat": 0.0, "is_reserved": 0, "rental_uris": {"ios": "https://dc.lft.to/lastmile_qr_scan", "android": "https://dc.lft.to/lastmile_qr_scan"}, "fusion_lon": 0.0, "type": "electric_scooter", "bike_id": "1f6a00e002f08fd07098db95ad32239f", "name": "1f6a00e002f08fd07098db95ad32239f"}, {"lon": -77.019752, "is_disabled": 0, "lat": 38.91532683333333, "fusion_lat": 0.0, "is_reserved": 0, "rental_uris": {"ios": "https://dc.lft.to/lastmile_qr_scan", "android": "https://dc.lft.to/lastmile_qr_scan"}, "fusion_lon": 0.0, "type": "electric_scooter", "bike_id": "702bb71a4499417c3c4c84feb0aa12b4", "name": "702bb71a4499417c3c4c84feb0aa12b4"}, {"lon": -77.05088433333333, "is_disabled": 0, "lat": 38.923458, "fusion_lat": 0.0, "is_reserved": 0, "rental_uris": {"ios": "https://dc.lft.to/lastmile_qr_scan", "android": "https://dc.lft.to/lastmile_qr_scan"}, "fusion_lon": 0.0, "type": "electric_scooter", "bike_id": "e5e0716e43b30c723350f4938f1d6a7c", "name": "e5e0716e43b30c723350f4938f1d6a7c"}, {"lon": -77.00105783333333, "is_disabled": 0, "lat": 38.90769933333333, "fusion_lat": 0.0, "is_reserved": 0, "rental_uris": {"ios": "https://dc.lft.to/lastmile_qr_scan", "android": "https://dc.lft.to/lastmile_qr_scan"}, "fusion_lon": 0.0, "type": "electric_scooter", "bike_id": "2ef0391208bc4613438ac7b010b55a29", "name": "2ef0391208bc4613438ac7b010b55a29"}, {"lon": -77.023786, "is_disabled": 0, "lat": 38.9020525, "fusion_lat": 0.0, "is_reserved": 0, "rental_uris": {"ios": "https://dc.lft.to/lastmile_qr_scan", "android": "https://dc.lft.to/lastmile_qr_scan"}, "fusion_lon": 0.0, "type": "electric_scooter", "bike_id": "00ffe1ad66269ea795e22fbf36ce0d9b", "name": "00ffe1ad66269ea795e22fbf36ce0d9b"}, {"lon": -77.03768416666666, "is_disabled": 0, "lat": 38.91567666666667, "fusion_lat": 0.0, "is_reserved": 0, "rental_uris": {"ios": "https://dc.lft.to/lastmile_qr_scan", "android": "https://dc.lft.to/lastmile_qr_scan"}, "fusion_lon": 0.0, "type": "electric_scooter", "bike_id": "cb79754d2fc77d6b1d69910383774d04", "name": "cb79754d2fc77d6b1d69910383774d04"}, {"lon": -77.01696583333333, "is_disabled": 0, "lat": 38.97504466666667, "fusion_lat": 0.0, "is_reserved": 0, "rental_uris": {"ios": "https://dc.lft.to/lastmile_qr_scan", "android": "https://dc.lft.to/lastmile_qr_scan"}, "fusion_lon": 0.0, "type": "electric_scooter", "bike_id": "22b057ea3cd8c466239e4062725ae174", "name": "22b057ea3cd8c466239e4062725ae174"}, {"lon": -77.04725633333334, "is_disabled": 0, "lat": 38.913305333333334, "fusion_lat": 0.0, "is_reserved": 0, "rental_uris": {"ios": "https://dc.lft.to/lastmile_qr_scan", "android": "https://dc.lft.to/lastmile_qr_scan"}, "fusion_lon": 0.0, "type": "electric_scooter", "bike_id": "998dfbd2bd5196a626c405129e581703", "name": "998dfbd2bd5196a626c405129e581703"}, {"lon": -77.0212095, "is_disabled": 0, "lat": 38.930029, "fusion_lat": 0.0, "is_reserved": 0, "rental_uris": {"ios": "https://dc.lft.to/lastmile_qr_scan", "android": "https://dc.lft.to/lastmile_qr_scan"}, "fusion_lon": 0.0, "type": "electric_scooter", "bike_id": "7907293a02bb96828d1e796ea6515117", "name": "7907293a02bb96828d1e796ea6515117"}, {"lon": -77.04773583333333, "is_disabled": 0, "lat": 38.917696666666664, "fusion_lat": 0.0, "is_reserved": 0, "rental_uris": {"ios": "https://dc.lft.to/lastmile_qr_scan", "android": "https://dc.lft.to/lastmile_qr_scan"}, "fusion_lon": 0.0, "type": "electric_scooter", "bike_id": "8d96296363efc1bbc6d53191512fd990", "name": "8d96296363efc1bbc6d53191512fd990"}, {"lon": -77.01439066666667, "is_disabled": 0, "lat": 38.913149, "fusion_lat": 0.0, "is_reserved": 0, "rental_uris": {"ios": "https://dc.lft.to/lastmile_qr_scan", "android": "https://dc.lft.to/lastmile_qr_scan"}, "fusion_lon": 0.0, "type": "electric_scooter", "bike_id": "d4e473e65f85d74ec175827fbad9c99c", "name": "d4e473e65f85d74ec175827fbad9c99c"}, {"lon": -76.987176, "is_disabled": 0, "lat": 38.86703983333334, "fusion_lat": 0.0, "is_reserved": 0, "rental_uris": {"ios": "https://dc.lft.to/lastmile_qr_scan", "android": "https://dc.lft.to/lastmile_qr_scan"}, "fusion_lon": 0.0, "type": "electric_scooter", "bike_id": "ab50adfab392f3cb8d9ce2bff7896e27", "name": "ab50adfab392f3cb8d9ce2bff7896e27"}, {"lon": -77.0408335, "is_disabled": 0, "lat": 38.920299166666666, "fusion_lat": 0.0, "is_reserved": 0, "rental_uris": {"ios": "https://dc.lft.to/lastmile_qr_scan", "android": "https://dc.lft.to/lastmile_qr_scan"}, "fusion_lon": 0.0, "type": "electric_scooter", "bike_id": "5ecaad6579be0757822af57b6802ce4b", "name": "5ecaad6579be0757822af57b6802ce4b"}, {"lon": -77.0257085, "is_disabled": 0, "lat": 38.926900833333335, "fusion_lat": 0.0, "is_reserved": 0, "rental_uris": {"ios": "https://dc.lft.to/lastmile_qr_scan", "android": "https://dc.lft.to/lastmile_qr_scan"}, "fusion_lon": 0.0, "type": "electric_bike", "bike_id": "5b7a2d502c91c60ad729a5fac68ae33a", "name": "5b7a2d502c91c60ad729a5fac68ae33a"}, {"lon": -77.03226033333333, "is_disabled": 0, "lat": 38.92161816666667, "fusion_lat": 0.0, "is_reserved": 0, "rental_uris": {"ios": "https://dc.lft.to/lastmile_qr_scan", "android": "https://dc.lft.to/lastmile_qr_scan"}, "fusion_lon": 0.0, "type": "electric_scooter", "bike_id": "a03a59c02e45f9d7074aee06925a40c5", "name": "a03a59c02e45f9d7074aee06925a40c5"}, {"lon": -77.04456033333334, "is_disabled": 0, "lat": 38.896019833333334, "fusion_lat": 0.0, "is_reserved": 0, "rental_uris": {"ios": "https://dc.lft.to/lastmile_qr_scan", "android": "https://dc.lft.to/lastmile_qr_scan"}, "fusion_lon": 0.0, "type": "electric_scooter", "bike_id": "bd10f4d19a318b45de3dfdc9de2dc6aa", "name": "bd10f4d19a318b45de3dfdc9de2dc6aa"}, {"lon": -77.04168366666667, "is_disabled": 0, "lat": 38.9160405, "fusion_lat": 0.0, "is_reserved": 0, "rental_uris": {"ios": "https://dc.lft.to/lastmile_qr_scan", "android": "https://dc.lft.to/lastmile_qr_scan"}, "fusion_lon": 0.0, "type": "electric_scooter", "bike_id": "acf1e9240803770862ff04aab4c38a31", "name": "acf1e9240803770862ff04aab4c38a31"}, {"lon": -77.048459, "is_disabled": 0, "lat": 38.904366, "fusion_lat": 0.0, "is_reserved": 0, "rental_uris": {"ios": "https://dc.lft.to/lastmile_qr_scan", "android": "https://dc.lft.to/lastmile_qr_scan"}, "fusion_lon": 0.0, "type": "electric_scooter", "bike_id": "aa5cdeeb3376b376e77586f4c3aeb45f", "name": "aa5cdeeb3376b376e77586f4c3aeb45f"}, {"lon": -77.02812533333334, "is_disabled": 0, "lat": 38.917128, "fusion_lat": 0.0, "is_reserved": 0, "rental_uris": {"ios": "https://dc.lft.to/lastmile_qr_scan", "android": "https://dc.lft.to/lastmile_qr_scan"}, "fusion_lon": 0.0, "type": "electric_scooter", "bike_id": "b37f6327f2ca4fe8d6b07d49ca816db9", "name": "b37f6327f2ca4fe8d6b07d49ca816db9"}, {"lon": -77.130963, "is_disabled": 0, "lat": 39.02436133333333, "fusion_lat": 0.0, "is_reserved": 0, "rental_uris": {"ios": "https://dc.lft.to/lastmile_qr_scan", "android": "https://dc.lft.to/lastmile_qr_scan"}, "fusion_lon": 0.0, "type": "electric_bike", "bike_id": "55af7ea1087a21516e599d87bd3bec25", "name": "55af7ea1087a21516e599d87bd3bec25"}, {"lon": -77.04335516666667, "is_disabled": 0, "lat": 38.92228133333333, "fusion_lat": 0.0, "is_reserved": 0, "rental_uris": {"ios": "https://dc.lft.to/lastmile_qr_scan", "android": "https://dc.lft.to/lastmile_qr_scan"}, "fusion_lon": 0.0, "type": "electric_scooter", "bike_id": "b2561afbdb40800b0abe315bd0a1f961", "name": "b2561afbdb40800b0abe315bd0a1f961"}, {"lon": -77.04874833333334, "is_disabled": 0, "lat": 38.90977766666666, "fusion_lat": 0.0, "is_reserved": 0, "rental_uris": {"ios": "https://dc.lft.to/lastmile_qr_scan", "android": "https://dc.lft.to/lastmile_qr_scan"}, "fusion_lon": 0.0, "type": "electric_scooter", "bike_id": "67caced3153e9fb7606540610b870aef", "name": "67caced3153e9fb7606540610b870aef"}, {"lon": -76.91597033333333, "is_disabled": 0, "lat": 38.87985066666667, "fusion_lat": 0.0, "is_reserved": 0, "rental_uris": {"ios": "https://dc.lft.to/lastmile_qr_scan", "android": "https://dc.lft.to/lastmile_qr_scan"}, "fusion_lon": 0.0, "type": "electric_bike", "bike_id": "bb7189dd6cb86af70916a0b4c9e19ee5", "name": "bb7189dd6cb86af70916a0b4c9e19ee5"}, {"lon": -76.98538266666667, "is_disabled": 0, "lat": 38.9095595, "fusion_lat": 0.0, "is_reserved": 0, "rental_uris": {"ios": "https://dc.lft.to/lastmile_qr_scan", "android": "https://dc.lft.to/lastmile_qr_scan"}, "fusion_lon": 0.0, "type": "electric_scooter", "bike_id": "195850e4312a4647c382dda6cef5d7b2", "name": "195850e4312a4647c382dda6cef5d7b2"}, {"lon": -77.0525475, "is_disabled": 0, "lat": 38.9278655, "fusion_lat": 0.0, "is_reserved": 0, "rental_uris": {"ios": "https://dc.lft.to/lastmile_qr_scan", "android": "https://dc.lft.to/lastmile_qr_scan"}, "fusion_lon": 0.0, "type": "electric_scooter", "bike_id": "7a7d7df98b8abde266f782bf1d6959a5", "name": "7a7d7df98b8abde266f782bf1d6959a5"}, {"lon": -76.99161, "is_disabled": 0, "lat": 38.90139, "fusion_lat": 0.0, "is_reserved": 0, "rental_uris": {"ios": "https://dc.lft.to/lastmile_qr_scan", "android": "https://dc.lft.to/lastmile_qr_scan"}, "fusion_lon": 0.0, "type": "electric_scooter", "bike_id": "f43f2c201cba9c462690dc8fd08dcbdc", "name": "f43f2c201cba9c462690dc8fd08dcbdc"}, {"lon": -77.01415516666667, "is_disabled": 0, "lat": 38.928441, "fusion_lat": 0.0, "is_reserved": 0, "rental_uris": {"ios": "https://dc.lft.to/lastmile_qr_scan", "android": "https://dc.lft.to/lastmile_qr_scan"}, "fusion_lon": 0.0, "type": "electric_scooter", "bike_id": "7204c297663503db792711fcc51376dd", "name": "7204c297663503db792711fcc51376dd"}, {"lon": -76.94895733333334, "is_disabled": 0, "lat": 38.89533616666667, "fusion_lat": 0.0, "is_reserved": 0, "rental_uris": {"ios": "https://dc.lft.to/lastmile_qr_scan", "android": "https://dc.lft.to/lastmile_qr_scan"}, "fusion_lon": 0.0, "type": "electric_scooter", "bike_id": "4cac8ddae259c2b71173f27d88fe96b0", "name": "4cac8ddae259c2b71173f27d88fe96b0"}, {"lon": -76.99126966666667, "is_disabled": 0, "lat": 38.90887683333333, "fusion_lat": 0.0, "is_reserved": 0, "rental_uris": {"ios": "https://dc.lft.to/lastmile_qr_scan", "android": "https://dc.lft.to/lastmile_qr_scan"}, "fusion_lon": 0.0, "type": "electric_bike", "bike_id": "1035456f89fc738714c64c346cbd2fe5", "name": "1035456f89fc738714c64c346cbd2fe5"}, {"lon": -76.948949, "is_disabled": 0, "lat": 38.8953285, "fusion_lat": 0.0, "is_reserved": 0, "rental_uris": {"ios": "https://dc.lft.to/lastmile_qr_scan", "android": "https://dc.lft.to/lastmile_qr_scan"}, "fusion_lon": 0.0, "type": "electric_scooter", "bike_id": "fed6c295ce3dcf76cbb8102c6c0e349b", "name": "fed6c295ce3dcf76cbb8102c6c0e349b"}, {"lon": -77.031983, "is_disabled": 0, "lat": 38.89234316666667, "fusion_lat": 0.0, "is_reserved": 0, "rental_uris": {"ios": "https://dc.lft.to/lastmile_qr_scan", "android": "https://dc.lft.to/lastmile_qr_scan"}, "fusion_lon": 0.0, "type": "electric_scooter", "bike_id": "4e6eaadf73cfb40258f5831f18f9f295", "name": "4e6eaadf73cfb40258f5831f18f9f295"}, {"lon": -77.032102, "is_disabled": 0, "lat": 38.89230716666667, "fusion_lat": 0.0, "is_reserved": 0, "rental_uris": {"ios": "https://dc.lft.to/lastmile_qr_scan", "android": "https://dc.lft.to/lastmile_qr_scan"}, "fusion_lon": 0.0, "type": "electric_scooter", "bike_id": "587958c2f019118f7af08aff0d6581ad", "name": "587958c2f019118f7af08aff0d6581ad"}, {"lon": -77.03331966666667, "is_disabled": 0, "lat": 38.915666333333334, "fusion_lat": 0.0, "is_reserved": 0, "rental_uris": {"ios": "https://dc.lft.to/lastmile_qr_scan", "android": "https://dc.lft.to/lastmile_qr_scan"}, "fusion_lon": 0.0, "type": "electric_scooter", "bike_id": "9a9087f7ee5d99cd06c8c87a7e90fb4e", "name": "9a9087f7ee5d99cd06c8c87a7e90fb4e"}, {"lon": -77.02172516666667, "is_disabled": 0, "lat": 38.911092, "fusion_lat": 0.0, "is_reserved": 0, "rental_uris": {"ios": "https://dc.lft.to/lastmile_qr_scan", "android": "https://dc.lft.to/lastmile_qr_scan"}, "fusion_lon": 0.0, "type": "electric_scooter", "bike_id": "b6ae57b41f360347ead43713b85350ed", "name": "b6ae57b41f360347ead43713b85350ed"}, {"lon": -77.03666866666667, "is_disabled": 0, "lat": 38.9226795, "fusion_lat": 0.0, "is_reserved": 0, "rental_uris": {"ios": "https://dc.lft.to/lastmile_qr_scan", "android": "https://dc.lft.to/lastmile_qr_scan"}, "fusion_lon": 0.0, "type": "electric_scooter", "bike_id": "3f3ee7712d2203c80bba355b35f0ba12", "name": "3f3ee7712d2203c80bba355b35f0ba12"}, {"lon": -77.02117866666667, "is_disabled": 0, "lat": 38.914176166666664, "fusion_lat": 0.0, "is_reserved": 0, "rental_uris": {"ios": "https://dc.lft.to/lastmile_qr_scan", "android": "https://dc.lft.to/lastmile_qr_scan"}, "fusion_lon": 0.0, "type": "electric_scooter", "bike_id": "814e9bf931b67848b20e03c9678085dd", "name": "814e9bf931b67848b20e03c9678085dd"}, {"lon": -77.01777766666666, "is_disabled": 0, "lat": 38.88711833333333, "fusion_lat": 0.0, "is_reserved": 0, "rental_uris": {"ios": "https://dc.lft.to/lastmile_qr_scan", "android": "https://dc.lft.to/lastmile_qr_scan"}, "fusion_lon": 0.0, "type": "electric_scooter", "bike_id": "0112eab04a97e05909d869e6fb9a3fbb", "name": "0112eab04a97e05909d869e6fb9a3fbb"}, {"lon": -77.02956083333333, "is_disabled": 0, "lat": 38.91769633333333, "fusion_lat": 0.0, "is_reserved": 0, "rental_uris": {"ios": "https://dc.lft.to/lastmile_qr_scan", "android": "https://dc.lft.to/lastmile_qr_scan"}, "fusion_lon": 0.0, "type": "electric_scooter", "bike_id": "fca801b238a3676a489e1728d345cfd8", "name": "fca801b238a3676a489e1728d345cfd8"}, {"lon": -77.0057845, "is_disabled": 0, "lat": 38.88543816666667, "fusion_lat": 0.0, "is_reserved": 0, "rental_uris": {"ios": "https://dc.lft.to/lastmile_qr_scan", "android": "https://dc.lft.to/lastmile_qr_scan"}, "fusion_lon": 0.0, "type": "electric_scooter", "bike_id": "cb21813b700a8f5cce5a237bbae31d42", "name": "cb21813b700a8f5cce5a237bbae31d42"}, {"lon": -77.01977233333334, "is_disabled": 0, "lat": 38.88032, "fusion_lat": 0.0, "is_reserved": 0, "rental_uris": {"ios": "https://dc.lft.to/lastmile_qr_scan", "android": "https://dc.lft.to/lastmile_qr_scan"}, "fusion_lon": 0.0, "type": "electric_scooter", "bike_id": "f9580ff81d1a2644aca3080df1e8ef55", "name": "f9580ff81d1a2644aca3080df1e8ef55"}, {"lon": -77.0361825, "is_disabled": 0, "lat": 38.93740233333333, "fusion_lat": 0.0, "is_reserved": 0, "rental_uris": {"ios": "https://dc.lft.to/lastmile_qr_scan", "android": "https://dc.lft.to/lastmile_qr_scan"}, "fusion_lon": 0.0, "type": "electric_scooter", "bike_id": "257e7edcf1cce1313a748d692ee4b2fb", "name": "257e7edcf1cce1313a748d692ee4b2fb"}, {"lon": -77.03830766666667, "is_disabled": 0, "lat": 38.9126985, "fusion_lat": 0.0, "is_reserved": 0, "rental_uris": {"ios": "https://dc.lft.to/lastmile_qr_scan", "android": "https://dc.lft.to/lastmile_qr_scan"}, "fusion_lon": 0.0, "type": "electric_scooter", "bike_id": "0b15eeee2920ed46b2802e23cd4a5fee", "name": "0b15eeee2920ed46b2802e23cd4a5fee"}, {"lon": -76.99709466666667, "is_disabled": 0, "lat": 38.9081955, "fusion_lat": 0.0, "is_reserved": 0, "rental_uris": {"ios": "https://dc.lft.to/lastmile_qr_scan", "android": "https://dc.lft.to/lastmile_qr_scan"}, "fusion_lon": 0.0, "type": "electric_scooter", "bike_id": "e1125af7a72c84868c035178dc8bfbcf", "name": "e1125af7a72c84868c035178dc8bfbcf"}, {"lon": -77.019481, "is_disabled": 0, "lat": 38.90468083333333, "fusion_lat": 0.0, "is_reserved": 0, "rental_uris": {"ios": "https://dc.lft.to/lastmile_qr_scan", "android": "https://dc.lft.to/lastmile_qr_scan"}, "fusion_lon": 0.0, "type": "electric_scooter", "bike_id": "4a78f84afc1368e36ff98a344c427bf0", "name": "4a78f84afc1368e36ff98a344c427bf0"}, {"lon": -77.04892083333333, "is_disabled": 0, "lat": 38.90313666666667, "fusion_lat": 0.0, "is_reserved": 0, "rental_uris": {"ios": "https://dc.lft.to/lastmile_qr_scan", "android": "https://dc.lft.to/lastmile_qr_scan"}, "fusion_lon": 0.0, "type": "electric_scooter", "bike_id": "1d59c213b13250894219340ea316a9da", "name": "1d59c213b13250894219340ea316a9da"}, {"lon": -77.023712, "is_disabled": 0, "lat": 38.90207133333333, "fusion_lat": 0.0, "is_reserved": 0, "rental_uris": {"ios": "https://dc.lft.to/lastmile_qr_scan", "android": "https://dc.lft.to/lastmile_qr_scan"}, "fusion_lon": 0.0, "type": "electric_scooter", "bike_id": "088b5bef1d90b9459f3289d6defd72dd", "name": "088b5bef1d90b9459f3289d6defd72dd"}, {"lon": -76.998393, "is_disabled": 0, "lat": 38.900023166666664, "fusion_lat": 0.0, "is_reserved": 0, "rental_uris": {"ios": "https://dc.lft.to/lastmile_qr_scan", "android": "https://dc.lft.to/lastmile_qr_scan"}, "fusion_lon": 0.0, "type": "electric_bike", "bike_id": "df8069c4f1c4af41863eb8f5a91b5001", "name": "df8069c4f1c4af41863eb8f5a91b5001"}, {"lon": -76.921328, "is_disabled": 0, "lat": 39.013728666666665, "fusion_lat": 0.0, "is_reserved": 0, "rental_uris": {"ios": "https://dc.lft.to/lastmile_qr_scan", "android": "https://dc.lft.to/lastmile_qr_scan"}, "fusion_lon": 0.0, "type": "electric_bike", "bike_id": "1bde28f71c90a98bfe80e6ee57061bfa", "name": "1bde28f71c90a98bfe80e6ee57061bfa"}, {"lon": -76.99030166666667, "is_disabled": 0, "lat": 38.92872583333333, "fusion_lat": 0.0, "is_reserved": 0, "rental_uris": {"ios": "https://dc.lft.to/lastmile_qr_scan", "android": "https://dc.lft.to/lastmile_qr_scan"}, "fusion_lon": 0.0, "type": "electric_scooter", "bike_id": "7f2c005df0fac78d70d5570dadaff137", "name": "7f2c005df0fac78d70d5570dadaff137"}, {"lon": -77.01988516666667, "is_disabled": 0, "lat": 38.914195166666666, "fusion_lat": 0.0, "is_reserved": 0, "rental_uris": {"ios": "https://dc.lft.to/lastmile_qr_scan", "android": "https://dc.lft.to/lastmile_qr_scan"}, "fusion_lon": 0.0, "type": "electric_scooter", "bike_id": "21d6cd19aada4de5d4b0d2c72acf7a71", "name": "21d6cd19aada4de5d4b0d2c72acf7a71"}, {"lon": -77.01205766666666, "is_disabled": 0, "lat": 38.91716433333333, "fusion_lat": 0.0, "is_reserved": 0, "rental_uris": {"ios": "https://dc.lft.to/lastmile_qr_scan", "android": "https://dc.lft.to/lastmile_qr_scan"}, "fusion_lon": 0.0, "type": "electric_scooter", "bike_id": "22fcd64d9d760c7f942954d65f757004", "name": "22fcd64d9d760c7f942954d65f757004"}, {"lon": -77.00558866666667, "is_disabled": 0, "lat": 38.874678333333335, "fusion_lat": 0.0, "is_reserved": 0, "rental_uris": {"ios": "https://dc.lft.to/lastmile_qr_scan", "android": "https://dc.lft.to/lastmile_qr_scan"}, "fusion_lon": 0.0, "type": "electric_scooter", "bike_id": "3fe5b07eeaacb95d361971395e7cd17f", "name": "3fe5b07eeaacb95d361971395e7cd17f"}, {"lon": -77.02881616666667, "is_disabled": 0, "lat": 38.92482566666666, "fusion_lat": 0.0, "is_reserved": 0, "rental_uris": {"ios": "https://dc.lft.to/lastmile_qr_scan", "android": "https://dc.lft.to/lastmile_qr_scan"}, "fusion_lon": 0.0, "type": "electric_scooter", "bike_id": "d75c02b1c899884b82fd759cad6e8608", "name": "d75c02b1c899884b82fd759cad6e8608"}, {"lon": -77.02784566666666, "is_disabled": 0, "lat": 38.89655316666666, "fusion_lat": 0.0, "is_reserved": 0, "rental_uris": {"ios": "https://dc.lft.to/lastmile_qr_scan", "android": "https://dc.lft.to/lastmile_qr_scan"}, "fusion_lon": 0.0, "type": "electric_scooter", "bike_id": "918ab6b248dd80aa5e7f3dd5c4c1d684", "name": "918ab6b248dd80aa5e7f3dd5c4c1d684"}, {"lon": -77.03346566666667, "is_disabled": 0, "lat": 38.8925265, "fusion_lat": 0.0, "is_reserved": 0, "rental_uris": {"ios": "https://dc.lft.to/lastmile_qr_scan", "android": "https://dc.lft.to/lastmile_qr_scan"}, "fusion_lon": 0.0, "type": "electric_scooter", "bike_id": "33cf63325e5e7d622a71dd5e3a97a36f", "name": "33cf63325e5e7d622a71dd5e3a97a36f"}, {"lon": -77.0321825, "is_disabled": 0, "lat": 38.91710166666667, "fusion_lat": 0.0, "is_reserved": 0, "rental_uris": {"ios": "https://dc.lft.to/lastmile_qr_scan", "android": "https://dc.lft.to/lastmile_qr_scan"}, "fusion_lon": 0.0, "type": "electric_scooter", "bike_id": "3d4e71c263edf63d53315081b35802a1", "name": "3d4e71c263edf63d53315081b35802a1"}, {"lon": -77.0402825, "is_disabled": 0, "lat": 38.9170685, "fusion_lat": 0.0, "is_reserved": 0, "rental_uris": {"ios": "https://dc.lft.to/lastmile_qr_scan", "android": "https://dc.lft.to/lastmile_qr_scan"}, "fusion_lon": 0.0, "type": "electric_scooter", "bike_id": "daab56905b977479665bd7edf1148349", "name": "daab56905b977479665bd7edf1148349"}, {"lon": -77.025324, "is_disabled": 0, "lat": 38.920601833333336, "fusion_lat": 0.0, "is_reserved": 0, "rental_uris": {"ios": "https://dc.lft.to/lastmile_qr_scan", "android": "https://dc.lft.to/lastmile_qr_scan"}, "fusion_lon": 0.0, "type": "electric_scooter", "bike_id": "59c2ea00d71ceead92901c24275e3e62", "name": "59c2ea00d71ceead92901c24275e3e62"}, {"lon": -77.01767516666666, "is_disabled": 0, "lat": 38.887114333333336, "fusion_lat": 0.0, "is_reserved": 0, "rental_uris": {"ios": "https://dc.lft.to/lastmile_qr_scan", "android": "https://dc.lft.to/lastmile_qr_scan"}, "fusion_lon": 0.0, "type": "electric_scooter", "bike_id": "ce5ce2cdb5a9f469fe6248dd08280810", "name": "ce5ce2cdb5a9f469fe6248dd08280810"}, {"lon": -77.07229683333334, "is_disabled": 0, "lat": 38.93952866666667, "fusion_lat": 0.0, "is_reserved": 0, "rental_uris": {"ios": "https://dc.lft.to/lastmile_qr_scan", "android": "https://dc.lft.to/lastmile_qr_scan"}, "fusion_lon": 0.0, "type": "electric_scooter", "bike_id": "5236d313382458152b461ddf5839bcd1", "name": "5236d313382458152b461ddf5839bcd1"}, {"lon": -77.01730483333333, "is_disabled": 0, "lat": 38.88745933333333, "fusion_lat": 0.0, "is_reserved": 0, "rental_uris": {"ios": "https://dc.lft.to/lastmile_qr_scan", "android": "https://dc.lft.to/lastmile_qr_scan"}, "fusion_lon": 0.0, "type": "electric_scooter", "bike_id": "c826f295dd7aa55600501df4ba735d74", "name": "c826f295dd7aa55600501df4ba735d74"}, {"lon": -77.021556, "is_disabled": 0, "lat": 38.926022, "fusion_lat": 0.0, "is_reserved": 0, "rental_uris": {"ios": "https://dc.lft.to/lastmile_qr_scan", "android": "https://dc.lft.to/lastmile_qr_scan"}, "fusion_lon": 0.0, "type": "electric_scooter", "bike_id": "1d9e0624ea1f7298e83b8a271ff8a4c3", "name": "1d9e0624ea1f7298e83b8a271ff8a4c3"}, {"lon": -77.02954416666667, "is_disabled": 0, "lat": 38.9050035, "fusion_lat": 0.0, "is_reserved": 0, "rental_uris": {"ios": "https://dc.lft.to/lastmile_qr_scan", "android": "https://dc.lft.to/lastmile_qr_scan"}, "fusion_lon": 0.0, "type": "electric_scooter", "bike_id": "808daa96f06de366320e684ffc5f3e9c", "name": "808daa96f06de366320e684ffc5f3e9c"}, {"lon": -76.92044066666666, "is_disabled": 0, "lat": 38.89741083333333, "fusion_lat": 0.0, "is_reserved": 0, "rental_uris": {"ios": "https://dc.lft.to/lastmile_qr_scan", "android": "https://dc.lft.to/lastmile_qr_scan"}, "fusion_lon": 0.0, "type": "electric_bike", "bike_id": "9f7423a4ce0dba7e9d8d723a942e582d", "name": "9f7423a4ce0dba7e9d8d723a942e582d"}, {"lon": -77.008916, "is_disabled": 0, "lat": 38.9006935, "fusion_lat": 0.0, "is_reserved": 0, "rental_uris": {"ios": "https://dc.lft.to/lastmile_qr_scan", "android": "https://dc.lft.to/lastmile_qr_scan"}, "fusion_lon": 0.0, "type": "electric_scooter", "bike_id": "e0089619a03b241775e4af1a1cc47422", "name": "e0089619a03b241775e4af1a1cc47422"}, {"lon": -77.088627, "is_disabled": 0, "lat": 38.91639116666666, "fusion_lat": 0.0, "is_reserved": 0, "rental_uris": {"ios": "https://dc.lft.to/lastmile_qr_scan", "android": "https://dc.lft.to/lastmile_qr_scan"}, "fusion_lon": 0.0, "type": "electric_scooter", "bike_id": "9f1ce32aaa8ee9223191a22c67b0a5a2", "name": "9f1ce32aaa8ee9223191a22c67b0a5a2"}, {"lon": -77.031793, "is_disabled": 0, "lat": 38.919169833333335, "fusion_lat": 0.0, "is_reserved": 0, "rental_uris": {"ios": "https://dc.lft.to/lastmile_qr_scan", "android": "https://dc.lft.to/lastmile_qr_scan"}, "fusion_lon": 0.0, "type": "electric_scooter", "bike_id": "096a525a603a8bf8623ef707c073d8e4", "name": "096a525a603a8bf8623ef707c073d8e4"}, {"lon": -77.023707, "is_disabled": 0, "lat": 38.915466333333335, "fusion_lat": 0.0, "is_reserved": 0, "rental_uris": {"ios": "https://dc.lft.to/lastmile_qr_scan", "android": "https://dc.lft.to/lastmile_qr_scan"}, "fusion_lon": 0.0, "type": "electric_scooter", "bike_id": "c94bcb7064e127274d60fbcfb6e57a68", "name": "c94bcb7064e127274d60fbcfb6e57a68"}, {"lon": -77.03733916666667, "is_disabled": 0, "lat": 38.9248895, "fusion_lat": 0.0, "is_reserved": 0, "rental_uris": {"ios": "https://dc.lft.to/lastmile_qr_scan", "android": "https://dc.lft.to/lastmile_qr_scan"}, "fusion_lon": 0.0, "type": "electric_scooter", "bike_id": "3fbab925365f92b94c94f87eb065ff89", "name": "3fbab925365f92b94c94f87eb065ff89"}, {"lon": -77.03334366666667, "is_disabled": 0, "lat": 38.917119166666666, "fusion_lat": 0.0, "is_reserved": 0, "rental_uris": {"ios": "https://dc.lft.to/lastmile_qr_scan", "android": "https://dc.lft.to/lastmile_qr_scan"}, "fusion_lon": 0.0, "type": "electric_scooter", "bike_id": "52a5bac62c45e63197a873620fb1cd17", "name": "52a5bac62c45e63197a873620fb1cd17"}, {"lon": -77.031985, "is_disabled": 0, "lat": 38.89965316666667, "fusion_lat": 0.0, "is_reserved": 0, "rental_uris": {"ios": "https://dc.lft.to/lastmile_qr_scan", "android": "https://dc.lft.to/lastmile_qr_scan"}, "fusion_lon": 0.0, "type": "electric_scooter", "bike_id": "583006936ff6b4e38678872ad2ef6283", "name": "583006936ff6b4e38678872ad2ef6283"}, {"lon": -77.04825933333333, "is_disabled": 0, "lat": 38.90474416666667, "fusion_lat": 0.0, "is_reserved": 0, "rental_uris": {"ios": "https://dc.lft.to/lastmile_qr_scan", "android": "https://dc.lft.to/lastmile_qr_scan"}, "fusion_lon": 0.0, "type": "electric_scooter", "bike_id": "f5a717b3d363b6f8344fbc742d20e2dd", "name": "f5a717b3d363b6f8344fbc742d20e2dd"}, {"lon": -77.04616833333333, "is_disabled": 0, "lat": 38.902166333333334, "fusion_lat": 0.0, "is_reserved": 0, "rental_uris": {"ios": "https://dc.lft.to/lastmile_qr_scan", "android": "https://dc.lft.to/lastmile_qr_scan"}, "fusion_lon": 0.0, "type": "electric_scooter", "bike_id": "a4a672cc63d329cb09d272ccd92444f8", "name": "a4a672cc63d329cb09d272ccd92444f8"}, {"lon": -77.02404216666666, "is_disabled": 0, "lat": 38.91552, "fusion_lat": 0.0, "is_reserved": 0, "rental_uris": {"ios": "https://dc.lft.to/lastmile_qr_scan", "android": "https://dc.lft.to/lastmile_qr_scan"}, "fusion_lon": 0.0, "type": "electric_scooter", "bike_id": "ae06357aa9ec865800dce72fab5d11cb", "name": "ae06357aa9ec865800dce72fab5d11cb"}, {"lon": -76.94638283333333, "is_disabled": 0, "lat": 38.898674666666665, "fusion_lat": 0.0, "is_reserved": 0, "rental_uris": {"ios": "https://dc.lft.to/lastmile_qr_scan", "android": "https://dc.lft.to/lastmile_qr_scan"}, "fusion_lon": 0.0, "type": "electric_scooter", "bike_id": "7c0c913470f9c8a83209967b1911c604", "name": "7c0c913470f9c8a83209967b1911c604"}, {"lon": -77.02966266666667, "is_disabled": 0, "lat": 38.934500166666666, "fusion_lat": 0.0, "is_reserved": 0, "rental_uris": {"ios": "https://dc.lft.to/lastmile_qr_scan", "android": "https://dc.lft.to/lastmile_qr_scan"}, "fusion_lon": 0.0, "type": "electric_scooter", "bike_id": "82a37211a7974913dc9f437b32971bf3", "name": "82a37211a7974913dc9f437b32971bf3"}, {"lon": -77.02616783333333, "is_disabled": 0, "lat": 38.88770983333333, "fusion_lat": 0.0, "is_reserved": 0, "rental_uris": {"ios": "https://dc.lft.to/lastmile_qr_scan", "android": "https://dc.lft.to/lastmile_qr_scan"}, "fusion_lon": 0.0, "type": "electric_scooter", "bike_id": "2843061899492919b51c94b490df49ba", "name": "2843061899492919b51c94b490df49ba"}, {"lon": -77.03859266666667, "is_disabled": 0, "lat": 38.917159166666664, "fusion_lat": 0.0, "is_reserved": 0, "rental_uris": {"ios": "https://dc.lft.to/lastmile_qr_scan", "android": "https://dc.lft.to/lastmile_qr_scan"}, "fusion_lon": 0.0, "type": "electric_scooter", "bike_id": "288962639db6e9d513d3f4f47ef6094a", "name": "288962639db6e9d513d3f4f47ef6094a"}, {"lon": -76.94044466666666, "is_disabled": 0, "lat": 38.978596333333336, "fusion_lat": 0.0, "is_reserved": 0, "rental_uris": {"ios": "https://dc.lft.to/lastmile_qr_scan", "android": "https://dc.lft.to/lastmile_qr_scan"}, "fusion_lon": 0.0, "type": "electric_bike", "bike_id": "5b71f2616e1478b1e07fa6782b5d6d44", "name": "5b71f2616e1478b1e07fa6782b5d6d44"}, {"lon": -77.01910416666666, "is_disabled": 0, "lat": 38.87867466666667, "fusion_lat": 0.0, "is_reserved": 0, "rental_uris": {"ios": "https://dc.lft.to/lastmile_qr_scan", "android": "https://dc.lft.to/lastmile_qr_scan"}, "fusion_lon": 0.0, "type": "electric_scooter", "bike_id": "3d06e26b335d708b6e7fe79eaf4c6b8a", "name": "3d06e26b335d708b6e7fe79eaf4c6b8a"}, {"lon": -76.987148, "is_disabled": 0, "lat": 38.86701266666667, "fusion_lat": 0.0, "is_reserved": 0, "rental_uris": {"ios": "https://dc.lft.to/lastmile_qr_scan", "android": "https://dc.lft.to/lastmile_qr_scan"}, "fusion_lon": 0.0, "type": "electric_scooter", "bike_id": "9906c6ac08823151f8110bf8e405f676", "name": "9906c6ac08823151f8110bf8e405f676"}, {"lon": -77.0223675, "is_disabled": 0, "lat": 38.922397, "fusion_lat": 0.0, "is_reserved": 0, "rental_uris": {"ios": "https://dc.lft.to/lastmile_qr_scan", "android": "https://dc.lft.to/lastmile_qr_scan"}, "fusion_lon": 0.0, "type": "electric_scooter", "bike_id": "e7e684a37c98098257e5cd3c67e3ef95", "name": "e7e684a37c98098257e5cd3c67e3ef95"}, {"lon": -76.99636566666666, "is_disabled": 0, "lat": 38.90532066666667, "fusion_lat": 0.0, "is_reserved": 0, "rental_uris": {"ios": "https://dc.lft.to/lastmile_qr_scan", "android": "https://dc.lft.to/lastmile_qr_scan"}, "fusion_lon": 0.0, "type": "electric_scooter", "bike_id": "28e95e342648677ce52f24f4a24bd541", "name": "28e95e342648677ce52f24f4a24bd541"}, {"lon": -77.04338883333334, "is_disabled": 0, "lat": 38.908297833333336, "fusion_lat": 0.0, "is_reserved": 0, "rental_uris": {"ios": "https://dc.lft.to/lastmile_qr_scan", "android": "https://dc.lft.to/lastmile_qr_scan"}, "fusion_lon": 0.0, "type": "electric_scooter", "bike_id": "b462e16debf85c71eee6f110d2633b60", "name": "b462e16debf85c71eee6f110d2633b60"}, {"lon": -76.93012466666667, "is_disabled": 0, "lat": 38.88821883333333, "fusion_lat": 0.0, "is_reserved": 0, "rental_uris": {"ios": "https://dc.lft.to/lastmile_qr_scan", "android": "https://dc.lft.to/lastmile_qr_scan"}, "fusion_lon": 0.0, "type": "electric_scooter", "bike_id": "7b62663149ba2e97f61e6f277c4871a2", "name": "7b62663149ba2e97f61e6f277c4871a2"}, {"lon": -77.0178545, "is_disabled": 0, "lat": 38.877112, "fusion_lat": 0.0, "is_reserved": 0, "rental_uris": {"ios": "https://dc.lft.to/lastmile_qr_scan", "android": "https://dc.lft.to/lastmile_qr_scan"}, "fusion_lon": 0.0, "type": "electric_scooter", "bike_id": "dfac9322f83b08649bc9a9a97ec06644", "name": "dfac9322f83b08649bc9a9a97ec06644"}, {"lon": -77.03195666666667, "is_disabled": 0, "lat": 38.91741116666667, "fusion_lat": 0.0, "is_reserved": 0, "rental_uris": {"ios": "https://dc.lft.to/lastmile_qr_scan", "android": "https://dc.lft.to/lastmile_qr_scan"}, "fusion_lon": 0.0, "type": "electric_scooter", "bike_id": "27d855a50098c816266dad2af80972bb", "name": "27d855a50098c816266dad2af80972bb"}, {"lon": -77.03294333333334, "is_disabled": 0, "lat": 38.9235405, "fusion_lat": 0.0, "is_reserved": 0, "rental_uris": {"ios": "https://dc.lft.to/lastmile_qr_scan", "android": "https://dc.lft.to/lastmile_qr_scan"}, "fusion_lon": 0.0, "type": "electric_scooter", "bike_id": "cf15b2d120f40c66f32e8850fb94d6dc", "name": "cf15b2d120f40c66f32e8850fb94d6dc"}, {"lon": -77.04237533333334, "is_disabled": 0, "lat": 38.920642666666666, "fusion_lat": 0.0, "is_reserved": 0, "rental_uris": {"ios": "https://dc.lft.to/lastmile_qr_scan", "android": "https://dc.lft.to/lastmile_qr_scan"}, "fusion_lon": 0.0, "type": "electric_scooter", "bike_id": "fa53accae364e719b61b30ccf7252a7a", "name": "fa53accae364e719b61b30ccf7252a7a"}, {"lon": -76.99926933333333, "is_disabled": 0, "lat": 39.03989383333333, "fusion_lat": 0.0, "is_reserved": 0, "rental_uris": {"ios": "https://dc.lft.to/lastmile_qr_scan", "android": "https://dc.lft.to/lastmile_qr_scan"}, "fusion_lon": 0.0, "type": "electric_bike", "bike_id": "f76b357f23811b90bd08ca56b1f715b6", "name": "f76b357f23811b90bd08ca56b1f715b6"}, {"lon": -77.02199566666667, "is_disabled": 0, "lat": 38.91126166666667, "fusion_lat": 0.0, "is_reserved": 0, "rental_uris": {"ios": "https://dc.lft.to/lastmile_qr_scan", "android": "https://dc.lft.to/lastmile_qr_scan"}, "fusion_lon": 0.0, "type": "electric_scooter", "bike_id": "4e5ca0087d792b8e647a7a47454df757", "name": "4e5ca0087d792b8e647a7a47454df757"}, {"lon": -77.034633, "is_disabled": 0, "lat": 38.922166, "fusion_lat": 0.0, "is_reserved": 0, "rental_uris": {"ios": "https://dc.lft.to/lastmile_qr_scan", "android": "https://dc.lft.to/lastmile_qr_scan"}, "fusion_lon": 0.0, "type": "electric_scooter", "bike_id": "31daa84d37daf53a4d295bb778e3ccf1", "name": "31daa84d37daf53a4d295bb778e3ccf1"}, {"lon": -77.032591, "is_disabled": 0, "lat": 38.90961266666667, "fusion_lat": 0.0, "is_reserved": 0, "rental_uris": {"ios": "https://dc.lft.to/lastmile_qr_scan", "android": "https://dc.lft.to/lastmile_qr_scan"}, "fusion_lon": 0.0, "type": "electric_scooter", "bike_id": "7a4a13f80ffc30a1786e581b7c187e67", "name": "7a4a13f80ffc30a1786e581b7c187e67"}, {"lon": -77.003471, "is_disabled": 0, "lat": 38.8820755, "fusion_lat": 0.0, "is_reserved": 0, "rental_uris": {"ios": "https://dc.lft.to/lastmile_qr_scan", "android": "https://dc.lft.to/lastmile_qr_scan"}, "fusion_lon": 0.0, "type": "electric_scooter", "bike_id": "ce2f1245a84e4cd862a8d449bb86c3cb", "name": "ce2f1245a84e4cd862a8d449bb86c3cb"}, {"lon": -77.05308316666667, "is_disabled": 0, "lat": 38.90446433333334, "fusion_lat": 0.0, "is_reserved": 0, "rental_uris": {"ios": "https://dc.lft.to/lastmile_qr_scan", "android": "https://dc.lft.to/lastmile_qr_scan"}, "fusion_lon": 0.0, "type": "electric_scooter", "bike_id": "f6866e7bbd9621146785f38dc6b77b2c", "name": "f6866e7bbd9621146785f38dc6b77b2c"}, {"lon": -77.02914416666667, "is_disabled": 0, "lat": 38.90163, "fusion_lat": 0.0, "is_reserved": 0, "rental_uris": {"ios": "https://dc.lft.to/lastmile_qr_scan", "android": "https://dc.lft.to/lastmile_qr_scan"}, "fusion_lon": 0.0, "type": "electric_scooter", "bike_id": "106306795de371a607cdd7e935a4d08c", "name": "106306795de371a607cdd7e935a4d08c"}, {"lon": -77.036637, "is_disabled": 0, "lat": 38.922635, "fusion_lat": 0.0, "is_reserved": 0, "rental_uris": {"ios": "https://dc.lft.to/lastmile_qr_scan", "android": "https://dc.lft.to/lastmile_qr_scan"}, "fusion_lon": 0.0, "type": "electric_scooter", "bike_id": "14d94b953fa4aaf93bb927f0db5c6c9b", "name": "14d94b953fa4aaf93bb927f0db5c6c9b"}, {"lon": -77.03335166666666, "is_disabled": 0, "lat": 38.938894833333336, "fusion_lat": 0.0, "is_reserved": 0, "rental_uris": {"ios": "https://dc.lft.to/lastmile_qr_scan", "android": "https://dc.lft.to/lastmile_qr_scan"}, "fusion_lon": 0.0, "type": "electric_scooter", "bike_id": "99d8d4317903a7597341f52ebcc3dad9", "name": "99d8d4317903a7597341f52ebcc3dad9"}, {"lon": -77.0383055, "is_disabled": 0, "lat": 38.9155985, "fusion_lat": 0.0, "is_reserved": 0, "rental_uris": {"ios": "https://dc.lft.to/lastmile_qr_scan", "android": "https://dc.lft.to/lastmile_qr_scan"}, "fusion_lon": 0.0, "type": "electric_bike", "bike_id": "a5a656f7ce9b49d18b9d6d7b37027efe", "name": "a5a656f7ce9b49d18b9d6d7b37027efe"}, {"lon": -77.03180216666667, "is_disabled": 0, "lat": 38.91241, "fusion_lat": 0.0, "is_reserved": 0, "rental_uris": {"ios": "https://dc.lft.to/lastmile_qr_scan", "android": "https://dc.lft.to/lastmile_qr_scan"}, "fusion_lon": 0.0, "type": "electric_scooter", "bike_id": "2241c7493b5037881fbf43bc7371e48b", "name": "2241c7493b5037881fbf43bc7371e48b"}, {"lon": -77.05856083333333, "is_disabled": 0, "lat": 38.93041733333333, "fusion_lat": 0.0, "is_reserved": 0, "rental_uris": {"ios": "https://dc.lft.to/lastmile_qr_scan", "android": "https://dc.lft.to/lastmile_qr_scan"}, "fusion_lon": 0.0, "type": "electric_scooter", "bike_id": "9ec7c25872016ce76e60b2d09b20e9d9", "name": "9ec7c25872016ce76e60b2d09b20e9d9"}, {"lon": -76.99802766666667, "is_disabled": 0, "lat": 38.9087765, "fusion_lat": 0.0, "is_reserved": 0, "rental_uris": {"ios": "https://dc.lft.to/lastmile_qr_scan", "android": "https://dc.lft.to/lastmile_qr_scan"}, "fusion_lon": 0.0, "type": "electric_scooter", "bike_id": "0f3b58f25d1ca4cef76b00f7af072167", "name": "0f3b58f25d1ca4cef76b00f7af072167"}, {"lon": -76.95423633333333, "is_disabled": 0, "lat": 38.884157, "fusion_lat": 0.0, "is_reserved": 0, "rental_uris": {"ios": "https://dc.lft.to/lastmile_qr_scan", "android": "https://dc.lft.to/lastmile_qr_scan"}, "fusion_lon": 0.0, "type": "electric_bike", "bike_id": "508ec32e49ec566e1e61710d463f3acb", "name": "508ec32e49ec566e1e61710d463f3acb"}, {"lon": -77.02149, "is_disabled": 0, "lat": 38.8793935, "fusion_lat": 0.0, "is_reserved": 0, "rental_uris": {"ios": "https://dc.lft.to/lastmile_qr_scan", "android": "https://dc.lft.to/lastmile_qr_scan"}, "fusion_lon": 0.0, "type": "electric_scooter", "bike_id": "3b4c26b39c274fe05d1bdb2a26248154", "name": "3b4c26b39c274fe05d1bdb2a26248154"}, {"lon": -77.031878, "is_disabled": 0, "lat": 38.909775, "fusion_lat": 0.0, "is_reserved": 0, "rental_uris": {"ios": "https://dc.lft.to/lastmile_qr_scan", "android": "https://dc.lft.to/lastmile_qr_scan"}, "fusion_lon": 0.0, "type": "electric_scooter", "bike_id": "f0ee936484a216485d45575c220dc3cb", "name": "f0ee936484a216485d45575c220dc3cb"}, {"lon": -76.980641, "is_disabled": 0, "lat": 38.901164666666666, "fusion_lat": 0.0, "is_reserved": 0, "rental_uris": {"ios": "https://dc.lft.to/lastmile_qr_scan", "android": "https://dc.lft.to/lastmile_qr_scan"}, "fusion_lon": 0.0, "type": "electric_bike", "bike_id": "b88973faa974790ba8d962a287ec2de0", "name": "b88973faa974790ba8d962a287ec2de0"}, {"lon": -77.06191966666667, "is_disabled": 0, "lat": 38.903411166666665, "fusion_lat": 0.0, "is_reserved": 0, "rental_uris": {"ios": "https://dc.lft.to/lastmile_qr_scan", "android": "https://dc.lft.to/lastmile_qr_scan"}, "fusion_lon": 0.0, "type": "electric_scooter", "bike_id": "53ec8a9977a2a5eada144e68c8294a25", "name": "53ec8a9977a2a5eada144e68c8294a25"}, {"lon": -77.00227933333333, "is_disabled": 0, "lat": 38.92509066666667, "fusion_lat": 0.0, "is_reserved": 0, "rental_uris": {"ios": "https://dc.lft.to/lastmile_qr_scan", "android": "https://dc.lft.to/lastmile_qr_scan"}, "fusion_lon": 0.0, "type": "electric_scooter", "bike_id": "75c80cd55adde806dd3893d7858c78b1", "name": "75c80cd55adde806dd3893d7858c78b1"}, {"lon": -77.04929366666667, "is_disabled": 0, "lat": 38.9182715, "fusion_lat": 0.0, "is_reserved": 0, "rental_uris": {"ios": "https://dc.lft.to/lastmile_qr_scan", "android": "https://dc.lft.to/lastmile_qr_scan"}, "fusion_lon": 0.0, "type": "electric_scooter", "bike_id": "bada90ecef9e5050f94b0b2101df47ee", "name": "bada90ecef9e5050f94b0b2101df47ee"}, {"lon": -77.02976316666667, "is_disabled": 0, "lat": 38.91991633333333, "fusion_lat": 0.0, "is_reserved": 0, "rental_uris": {"ios": "https://dc.lft.to/lastmile_qr_scan", "android": "https://dc.lft.to/lastmile_qr_scan"}, "fusion_lon": 0.0, "type": "electric_scooter", "bike_id": "e87e02a3eee640ba586310582454c8c7", "name": "e87e02a3eee640ba586310582454c8c7"}, {"lon": -77.02805416666666, "is_disabled": 0, "lat": 38.911304, "fusion_lat": 0.0, "is_reserved": 0, "rental_uris": {"ios": "https://dc.lft.to/lastmile_qr_scan", "android": "https://dc.lft.to/lastmile_qr_scan"}, "fusion_lon": 0.0, "type": "electric_scooter", "bike_id": "2e402c518db2c0b379d475364910e366", "name": "2e402c518db2c0b379d475364910e366"}, {"lon": -77.05264716666667, "is_disabled": 0, "lat": 38.92775116666667, "fusion_lat": 0.0, "is_reserved": 0, "rental_uris": {"ios": "https://dc.lft.to/lastmile_qr_scan", "android": "https://dc.lft.to/lastmile_qr_scan"}, "fusion_lon": 0.0, "type": "electric_scooter", "bike_id": "b5940289c37d8c3c97d6bba7f8f8cb83", "name": "b5940289c37d8c3c97d6bba7f8f8cb83"}, {"lon": -77.03225933333333, "is_disabled": 0, "lat": 38.9087155, "fusion_lat": 0.0, "is_reserved": 0, "rental_uris": {"ios": "https://dc.lft.to/lastmile_qr_scan", "android": "https://dc.lft.to/lastmile_qr_scan"}, "fusion_lon": 0.0, "type": "electric_scooter", "bike_id": "751b0221f60d7793d4954a31d777d637", "name": "751b0221f60d7793d4954a31d777d637"}, {"lon": -77.038706, "is_disabled": 0, "lat": 38.921524166666664, "fusion_lat": 0.0, "is_reserved": 0, "rental_uris": {"ios": "https://dc.lft.to/lastmile_qr_scan", "android": "https://dc.lft.to/lastmile_qr_scan"}, "fusion_lon": 0.0, "type": "electric_scooter", "bike_id": "84288aa0a24e97eb8a2e3fc541967deb", "name": "84288aa0a24e97eb8a2e3fc541967deb"}, {"lon": -77.03869016666667, "is_disabled": 0, "lat": 38.921532166666665, "fusion_lat": 0.0, "is_reserved": 0, "rental_uris": {"ios": "https://dc.lft.to/lastmile_qr_scan", "android": "https://dc.lft.to/lastmile_qr_scan"}, "fusion_lon": 0.0, "type": "electric_scooter", "bike_id": "3b261b5f00e5745d8c5e2ed83dd5efa8", "name": "3b261b5f00e5745d8c5e2ed83dd5efa8"}, {"lon": -76.9895765, "is_disabled": 0, "lat": 38.858785166666664, "fusion_lat": 0.0, "is_reserved": 0, "rental_uris": {"ios": "https://dc.lft.to/lastmile_qr_scan", "android": "https://dc.lft.to/lastmile_qr_scan"}, "fusion_lon": 0.0, "type": "electric_scooter", "bike_id": "3bc3953b6d6f49eecf1f3950e5b84703", "name": "3bc3953b6d6f49eecf1f3950e5b84703"}, {"lon": -77.0206485, "is_disabled": 0, "lat": 38.9284805, "fusion_lat": 0.0, "is_reserved": 0, "rental_uris": {"ios": "https://dc.lft.to/lastmile_qr_scan", "android": "https://dc.lft.to/lastmile_qr_scan"}, "fusion_lon": 0.0, "type": "electric_bike", "bike_id": "8200a207acb042fe07b25e9b159c1967", "name": "8200a207acb042fe07b25e9b159c1967"}, {"lon": -77.03095783333333, "is_disabled": 0, "lat": 38.883228, "fusion_lat": 0.0, "is_reserved": 0, "rental_uris": {"ios": "https://dc.lft.to/lastmile_qr_scan", "android": "https://dc.lft.to/lastmile_qr_scan"}, "fusion_lon": 0.0, "type": "electric_scooter", "bike_id": "57d692c538e0f0013b90149d44e87e9c", "name": "57d692c538e0f0013b90149d44e87e9c"}, {"lon": -76.92901766666667, "is_disabled": 0, "lat": 38.89850033333333, "fusion_lat": 0.0, "is_reserved": 0, "rental_uris": {"ios": "https://dc.lft.to/lastmile_qr_scan", "android": "https://dc.lft.to/lastmile_qr_scan"}, "fusion_lon": 0.0, "type": "electric_scooter", "bike_id": "3c84c573d5385668254f5885fcd09678", "name": "3c84c573d5385668254f5885fcd09678"}, {"lon": -77.04832983333333, "is_disabled": 0, "lat": 38.89837433333334, "fusion_lat": 0.0, "is_reserved": 0, "rental_uris": {"ios": "https://dc.lft.to/lastmile_qr_scan", "android": "https://dc.lft.to/lastmile_qr_scan"}, "fusion_lon": 0.0, "type": "electric_scooter", "bike_id": "e06511ff41b71b57fa76253ba0d2a196", "name": "e06511ff41b71b57fa76253ba0d2a196"}, {"lon": -77.0366655, "is_disabled": 0, "lat": 38.91723316666667, "fusion_lat": 0.0, "is_reserved": 0, "rental_uris": {"ios": "https://dc.lft.to/lastmile_qr_scan", "android": "https://dc.lft.to/lastmile_qr_scan"}, "fusion_lon": 0.0, "type": "electric_scooter", "bike_id": "765341ea4ff3c6aebe9562665538e667", "name": "765341ea4ff3c6aebe9562665538e667"}, {"lon": -77.04301333333333, "is_disabled": 0, "lat": 38.931844, "fusion_lat": 0.0, "is_reserved": 0, "rental_uris": {"ios": "https://dc.lft.to/lastmile_qr_scan", "android": "https://dc.lft.to/lastmile_qr_scan"}, "fusion_lon": 0.0, "type": "electric_scooter", "bike_id": "1567b4f73ead3fab4ecd20a10eb5f08d", "name": "1567b4f73ead3fab4ecd20a10eb5f08d"}, {"lon": -77.03627033333333, "is_disabled": 0, "lat": 38.93158716666667, "fusion_lat": 0.0, "is_reserved": 0, "rental_uris": {"ios": "https://dc.lft.to/lastmile_qr_scan", "android": "https://dc.lft.to/lastmile_qr_scan"}, "fusion_lon": 0.0, "type": "electric_scooter", "bike_id": "b0a119742b12c5e086c14b0bf9d13117", "name": "b0a119742b12c5e086c14b0bf9d13117"}, {"lon": -77.01388466666667, "is_disabled": 0, "lat": 38.91910083333333, "fusion_lat": 0.0, "is_reserved": 0, "rental_uris": {"ios": "https://dc.lft.to/lastmile_qr_scan", "android": "https://dc.lft.to/lastmile_qr_scan"}, "fusion_lon": 0.0, "type": "electric_scooter", "bike_id": "524d049c0c728adf523b73ee9039fa9b", "name": "524d049c0c728adf523b73ee9039fa9b"}, {"lon": -77.03002416666666, "is_disabled": 0, "lat": 38.897548666666665, "fusion_lat": 0.0, "is_reserved": 0, "rental_uris": {"ios": "https://dc.lft.to/lastmile_qr_scan", "android": "https://dc.lft.to/lastmile_qr_scan"}, "fusion_lon": 0.0, "type": "electric_scooter", "bike_id": "5e12f1eb343d76458f3313b20e3e02d6", "name": "5e12f1eb343d76458f3313b20e3e02d6"}, {"lon": -77.023794, "is_disabled": 0, "lat": 38.8920095, "fusion_lat": 0.0, "is_reserved": 0, "rental_uris": {"ios": "https://dc.lft.to/lastmile_qr_scan", "android": "https://dc.lft.to/lastmile_qr_scan"}, "fusion_lon": 0.0, "type": "electric_scooter", "bike_id": "5a6c735c0652bbf1ce6fbab6181e7510", "name": "5a6c735c0652bbf1ce6fbab6181e7510"}, {"lon": -76.94826483333334, "is_disabled": 0, "lat": 38.8841375, "fusion_lat": 0.0, "is_reserved": 0, "rental_uris": {"ios": "https://dc.lft.to/lastmile_qr_scan", "android": "https://dc.lft.to/lastmile_qr_scan"}, "fusion_lon": 0.0, "type": "electric_scooter", "bike_id": "0d5f16fae40d5e70f5c55057d8d2b2ef", "name": "0d5f16fae40d5e70f5c55057d8d2b2ef"}, {"lon": -77.04293116666666, "is_disabled": 0, "lat": 38.830979, "fusion_lat": 0.0, "is_reserved": 0, "rental_uris": {"ios": "https://dc.lft.to/lastmile_qr_scan", "android": "https://dc.lft.to/lastmile_qr_scan"}, "fusion_lon": 0.0, "type": "electric_bike", "bike_id": "6f05ec7cc3479521801f6ac6ffba0372", "name": "6f05ec7cc3479521801f6ac6ffba0372"}, {"lon": -77.03489066666667, "is_disabled": 0, "lat": 38.923407833333336, "fusion_lat": 0.0, "is_reserved": 0, "rental_uris": {"ios": "https://dc.lft.to/lastmile_qr_scan", "android": "https://dc.lft.to/lastmile_qr_scan"}, "fusion_lon": 0.0, "type": "electric_scooter", "bike_id": "22b0bca8ff50f87a403071d18ef3cb3c", "name": "22b0bca8ff50f87a403071d18ef3cb3c"}, {"lon": -77.05745616666667, "is_disabled": 0, "lat": 38.93395433333333, "fusion_lat": 0.0, "is_reserved": 0, "rental_uris": {"ios": "https://dc.lft.to/lastmile_qr_scan", "android": "https://dc.lft.to/lastmile_qr_scan"}, "fusion_lon": 0.0, "type": "electric_scooter", "bike_id": "725f7a451c124ca3b329bc3276a3708a", "name": "725f7a451c124ca3b329bc3276a3708a"}, {"lon": -77.02195, "is_disabled": 0, "lat": 38.9112995, "fusion_lat": 0.0, "is_reserved": 0, "rental_uris": {"ios": "https://dc.lft.to/lastmile_qr_scan", "android": "https://dc.lft.to/lastmile_qr_scan"}, "fusion_lon": 0.0, "type": "electric_scooter", "bike_id": "8448011735681ba12adfddb9297bf75c", "name": "8448011735681ba12adfddb9297bf75c"}, {"lon": -77.02608816666667, "is_disabled": 0, "lat": 38.89628166666667, "fusion_lat": 0.0, "is_reserved": 0, "rental_uris": {"ios": "https://dc.lft.to/lastmile_qr_scan", "android": "https://dc.lft.to/lastmile_qr_scan"}, "fusion_lon": 0.0, "type": "electric_scooter", "bike_id": "9b5e8d99eea2f449511afb881dabb1f3", "name": "9b5e8d99eea2f449511afb881dabb1f3"}, {"lon": -77.02847316666667, "is_disabled": 0, "lat": 38.89360716666667, "fusion_lat": 0.0, "is_reserved": 0, "rental_uris": {"ios": "https://dc.lft.to/lastmile_qr_scan", "android": "https://dc.lft.to/lastmile_qr_scan"}, "fusion_lon": 0.0, "type": "electric_scooter", "bike_id": "3beac44fbfbebb6a648cf3dac6e5a037", "name": "3beac44fbfbebb6a648cf3dac6e5a037"}, {"lon": -77.01947533333333, "is_disabled": 0, "lat": 38.924214166666665, "fusion_lat": 0.0, "is_reserved": 0, "rental_uris": {"ios": "https://dc.lft.to/lastmile_qr_scan", "android": "https://dc.lft.to/lastmile_qr_scan"}, "fusion_lon": 0.0, "type": "electric_scooter", "bike_id": "f6f9bf1c75746d0b7e4961105262217d", "name": "f6f9bf1c75746d0b7e4961105262217d"}, {"lon": -76.992208, "is_disabled": 0, "lat": 38.940202666666664, "fusion_lat": 0.0, "is_reserved": 0, "rental_uris": {"ios": "https://dc.lft.to/lastmile_qr_scan", "android": "https://dc.lft.to/lastmile_qr_scan"}, "fusion_lon": 0.0, "type": "electric_bike", "bike_id": "94128c47e8e4687008a6ea196b22e379", "name": "94128c47e8e4687008a6ea196b22e379"}, {"lon": -77.02377383333334, "is_disabled": 0, "lat": 38.91408333333333, "fusion_lat": 0.0, "is_reserved": 0, "rental_uris": {"ios": "https://dc.lft.to/lastmile_qr_scan", "android": "https://dc.lft.to/lastmile_qr_scan"}, "fusion_lon": 0.0, "type": "electric_scooter", "bike_id": "fb5e1d2ab7e8a1a33ebf37adfc2e22c9", "name": "fb5e1d2ab7e8a1a33ebf37adfc2e22c9"}, {"lon": -77.03848683333334, "is_disabled": 0, "lat": 38.9079095, "fusion_lat": 0.0, "is_reserved": 0, "rental_uris": {"ios": "https://dc.lft.to/lastmile_qr_scan", "android": "https://dc.lft.to/lastmile_qr_scan"}, "fusion_lon": 0.0, "type": "electric_scooter", "bike_id": "90cc8f709a1ee3f4c18c173d1ad8d545", "name": "90cc8f709a1ee3f4c18c173d1ad8d545"}, {"lon": -77.08573366666667, "is_disabled": 0, "lat": 38.874223, "fusion_lat": 0.0, "is_reserved": 0, "rental_uris": {"ios": "https://dc.lft.to/lastmile_qr_scan", "android": "https://dc.lft.to/lastmile_qr_scan"}, "fusion_lon": 0.0, "type": "electric_bike", "bike_id": "733d3e6fd88842148e45ff987e509ddd", "name": "733d3e6fd88842148e45ff987e509ddd"}, {"lon": -77.05429333333333, "is_disabled": 0, "lat": 38.928554166666665, "fusion_lat": 0.0, "is_reserved": 0, "rental_uris": {"ios": "https://dc.lft.to/lastmile_qr_scan", "android": "https://dc.lft.to/lastmile_qr_scan"}, "fusion_lon": 0.0, "type": "electric_scooter", "bike_id": "f9de06aab13650dc5a36df98a79c799a", "name": "f9de06aab13650dc5a36df98a79c799a"}, {"lon": -77.0442525, "is_disabled": 0, "lat": 38.89838133333333, "fusion_lat": 0.0, "is_reserved": 0, "rental_uris": {"ios": "https://dc.lft.to/lastmile_qr_scan", "android": "https://dc.lft.to/lastmile_qr_scan"}, "fusion_lon": 0.0, "type": "electric_scooter", "bike_id": "6d79f88e8a1230eaf8251fe31deb31a1", "name": "6d79f88e8a1230eaf8251fe31deb31a1"}, {"lon": -77.02627466666667, "is_disabled": 0, "lat": 38.89614366666667, "fusion_lat": 0.0, "is_reserved": 0, "rental_uris": {"ios": "https://dc.lft.to/lastmile_qr_scan", "android": "https://dc.lft.to/lastmile_qr_scan"}, "fusion_lon": 0.0, "type": "electric_scooter", "bike_id": "f504220701dfcbb9ca065832b42f24fb", "name": "f504220701dfcbb9ca065832b42f24fb"}, {"lon": -77.003436, "is_disabled": 0, "lat": 38.89527733333333, "fusion_lat": 0.0, "is_reserved": 0, "rental_uris": {"ios": "https://dc.lft.to/lastmile_qr_scan", "android": "https://dc.lft.to/lastmile_qr_scan"}, "fusion_lon": 0.0, "type": "electric_scooter", "bike_id": "e5f4a5e947b988e59d9ea0b9b0418a48", "name": "e5f4a5e947b988e59d9ea0b9b0418a48"}, {"lon": -77.036552, "is_disabled": 0, "lat": 38.91241566666667, "fusion_lat": 0.0, "is_reserved": 0, "rental_uris": {"ios": "https://dc.lft.to/lastmile_qr_scan", "android": "https://dc.lft.to/lastmile_qr_scan"}, "fusion_lon": 0.0, "type": "electric_scooter", "bike_id": "2d304991a7af7307ba7f75ceca97bcef", "name": "2d304991a7af7307ba7f75ceca97bcef"}, {"lon": -76.98836316666667, "is_disabled": 0, "lat": 38.8966115, "fusion_lat": 0.0, "is_reserved": 0, "rental_uris": {"ios": "https://dc.lft.to/lastmile_qr_scan", "android": "https://dc.lft.to/lastmile_qr_scan"}, "fusion_lon": 0.0, "type": "electric_scooter", "bike_id": "5a5b41b09d4fa01d616357bd5ea7816c", "name": "5a5b41b09d4fa01d616357bd5ea7816c"}, {"lon": -76.996315, "is_disabled": 0, "lat": 38.8872295, "fusion_lat": 0.0, "is_reserved": 0, "rental_uris": {"ios": "https://dc.lft.to/lastmile_qr_scan", "android": "https://dc.lft.to/lastmile_qr_scan"}, "fusion_lon": 0.0, "type": "electric_scooter", "bike_id": "a567df2d19888dbcb97d199a9b39d5e7", "name": "a567df2d19888dbcb97d199a9b39d5e7"}, {"lon": -77.04460616666667, "is_disabled": 0, "lat": 38.923063666666664, "fusion_lat": 0.0, "is_reserved": 0, "rental_uris": {"ios": "https://dc.lft.to/lastmile_qr_scan", "android": "https://dc.lft.to/lastmile_qr_scan"}, "fusion_lon": 0.0, "type": "electric_scooter", "bike_id": "218ead2d2927896b1b64f6a8a0f5c6f3", "name": "218ead2d2927896b1b64f6a8a0f5c6f3"}, {"lon": -77.02542716666666, "is_disabled": 0, "lat": 38.924027833333334, "fusion_lat": 0.0, "is_reserved": 0, "rental_uris": {"ios": "https://dc.lft.to/lastmile_qr_scan", "android": "https://dc.lft.to/lastmile_qr_scan"}, "fusion_lon": 0.0, "type": "electric_scooter", "bike_id": "5022fe95a70e87bc9dd428e4ce1fbcc1", "name": "5022fe95a70e87bc9dd428e4ce1fbcc1"}, {"lon": -77.02171266666667, "is_disabled": 0, "lat": 38.94294633333333, "fusion_lat": 0.0, "is_reserved": 0, "rental_uris": {"ios": "https://dc.lft.to/lastmile_qr_scan", "android": "https://dc.lft.to/lastmile_qr_scan"}, "fusion_lon": 0.0, "type": "electric_scooter", "bike_id": "1bc4fe4c1ce47217db558311435c024e", "name": "1bc4fe4c1ce47217db558311435c024e"}, {"lon": -77.042237, "is_disabled": 0, "lat": 38.9262375, "fusion_lat": 0.0, "is_reserved": 0, "rental_uris": {"ios": "https://dc.lft.to/lastmile_qr_scan", "android": "https://dc.lft.to/lastmile_qr_scan"}, "fusion_lon": 0.0, "type": "electric_scooter", "bike_id": "13e80391f565eced9ab4bc8182dd2b48", "name": "13e80391f565eced9ab4bc8182dd2b48"}, {"lon": -77.05231416666666, "is_disabled": 0, "lat": 38.92505283333333, "fusion_lat": 0.0, "is_reserved": 0, "rental_uris": {"ios": "https://dc.lft.to/lastmile_qr_scan", "android": "https://dc.lft.to/lastmile_qr_scan"}, "fusion_lon": 0.0, "type": "electric_scooter", "bike_id": "3ae2e49a7944b7d79f48dc719b3016f6", "name": "3ae2e49a7944b7d79f48dc719b3016f6"}, {"lon": -77.0003645, "is_disabled": 0, "lat": 38.87413216666667, "fusion_lat": 0.0, "is_reserved": 0, "rental_uris": {"ios": "https://dc.lft.to/lastmile_qr_scan", "android": "https://dc.lft.to/lastmile_qr_scan"}, "fusion_lon": 0.0, "type": "electric_scooter", "bike_id": "313aecd74bd177b4e92d7579f000813e", "name": "313aecd74bd177b4e92d7579f000813e"}, {"lon": -77.03774216666666, "is_disabled": 0, "lat": 38.92468816666667, "fusion_lat": 0.0, "is_reserved": 0, "rental_uris": {"ios": "https://dc.lft.to/lastmile_qr_scan", "android": "https://dc.lft.to/lastmile_qr_scan"}, "fusion_lon": 0.0, "type": "electric_scooter", "bike_id": "17079c2321ecada68d8c919d617dda03", "name": "17079c2321ecada68d8c919d617dda03"}, {"lon": -77.01218883333334, "is_disabled": 0, "lat": 38.900799166666665, "fusion_lat": 0.0, "is_reserved": 0, "rental_uris": {"ios": "https://dc.lft.to/lastmile_qr_scan", "android": "https://dc.lft.to/lastmile_qr_scan"}, "fusion_lon": 0.0, "type": "electric_scooter", "bike_id": "0243e01b8499bc9d7dc5acc4511cc8a9", "name": "0243e01b8499bc9d7dc5acc4511cc8a9"}, {"lon": -77.00130616666667, "is_disabled": 0, "lat": 38.89270916666667, "fusion_lat": 0.0, "is_reserved": 0, "rental_uris": {"ios": "https://dc.lft.to/lastmile_qr_scan", "android": "https://dc.lft.to/lastmile_qr_scan"}, "fusion_lon": 0.0, "type": "electric_scooter", "bike_id": "c3121b804367dc08e4c026b56b4a96bc", "name": "c3121b804367dc08e4c026b56b4a96bc"}, {"lon": -77.02310016666667, "is_disabled": 0, "lat": 38.917820166666665, "fusion_lat": 0.0, "is_reserved": 0, "rental_uris": {"ios": "https://dc.lft.to/lastmile_qr_scan", "android": "https://dc.lft.to/lastmile_qr_scan"}, "fusion_lon": 0.0, "type": "electric_scooter", "bike_id": "9a73e567510cb4e0635a3771ee8c0bc3", "name": "9a73e567510cb4e0635a3771ee8c0bc3"}, {"lon": -76.977112, "is_disabled": 0, "lat": 38.89203033333333, "fusion_lat": 0.0, "is_reserved": 0, "rental_uris": {"ios": "https://dc.lft.to/lastmile_qr_scan", "android": "https://dc.lft.to/lastmile_qr_scan"}, "fusion_lon": 0.0, "type": "electric_bike", "bike_id": "4b3835c0a42e01894a39d7ed5e341f75", "name": "4b3835c0a42e01894a39d7ed5e341f75"}, {"lon": -77.021651, "is_disabled": 0, "lat": 38.901906833333335, "fusion_lat": 0.0, "is_reserved": 0, "rental_uris": {"ios": "https://dc.lft.to/lastmile_qr_scan", "android": "https://dc.lft.to/lastmile_qr_scan"}, "fusion_lon": 0.0, "type": "electric_scooter", "bike_id": "20d50d8c533055257700112151e74205", "name": "20d50d8c533055257700112151e74205"}, {"lon": -77.0259685, "is_disabled": 0, "lat": 38.923838833333335, "fusion_lat": 0.0, "is_reserved": 0, "rental_uris": {"ios": "https://dc.lft.to/lastmile_qr_scan", "android": "https://dc.lft.to/lastmile_qr_scan"}, "fusion_lon": 0.0, "type": "electric_scooter", "bike_id": "4d78268cf4a6a4833de6354a73e9a03c", "name": "4d78268cf4a6a4833de6354a73e9a03c"}, {"lon": -77.03837733333333, "is_disabled": 0, "lat": 38.91560166666667, "fusion_lat": 0.0, "is_reserved": 0, "rental_uris": {"ios": "https://dc.lft.to/lastmile_qr_scan", "android": "https://dc.lft.to/lastmile_qr_scan"}, "fusion_lon": 0.0, "type": "electric_scooter", "bike_id": "747adcb6027ec1b382f40ade87a525f6", "name": "747adcb6027ec1b382f40ade87a525f6"}, {"lon": -77.05024883333333, "is_disabled": 0, "lat": 38.90085533333333, "fusion_lat": 0.0, "is_reserved": 0, "rental_uris": {"ios": "https://dc.lft.to/lastmile_qr_scan", "android": "https://dc.lft.to/lastmile_qr_scan"}, "fusion_lon": 0.0, "type": "electric_scooter", "bike_id": "1579677098b265f6821a5f48c64e03a5", "name": "1579677098b265f6821a5f48c64e03a5"}, {"lon": -76.9605185, "is_disabled": 0, "lat": 38.88402083333333, "fusion_lat": 0.0, "is_reserved": 0, "rental_uris": {"ios": "https://dc.lft.to/lastmile_qr_scan", "android": "https://dc.lft.to/lastmile_qr_scan"}, "fusion_lon": 0.0, "type": "electric_bike", "bike_id": "3b53a5bac8f5e2199448ae3939be2637", "name": "3b53a5bac8f5e2199448ae3939be2637"}, {"lon": -77.02521983333334, "is_disabled": 0, "lat": 38.919177833333336, "fusion_lat": 0.0, "is_reserved": 0, "rental_uris": {"ios": "https://dc.lft.to/lastmile_qr_scan", "android": "https://dc.lft.to/lastmile_qr_scan"}, "fusion_lon": 0.0, "type": "electric_scooter", "bike_id": "20886224b52065310e7bf813b9063bc2", "name": "20886224b52065310e7bf813b9063bc2"}, {"lon": -77.00669366666666, "is_disabled": 0, "lat": 38.900146166666666, "fusion_lat": 0.0, "is_reserved": 0, "rental_uris": {"ios": "https://dc.lft.to/lastmile_qr_scan", "android": "https://dc.lft.to/lastmile_qr_scan"}, "fusion_lon": 0.0, "type": "electric_scooter", "bike_id": "7ab3da8621a39dff4432148d5411229f", "name": "7ab3da8621a39dff4432148d5411229f"}, {"lon": -77.00254083333333, "is_disabled": 0, "lat": 38.87486616666666, "fusion_lat": 0.0, "is_reserved": 0, "rental_uris": {"ios": "https://dc.lft.to/lastmile_qr_scan", "android": "https://dc.lft.to/lastmile_qr_scan"}, "fusion_lon": 0.0, "type": "electric_scooter", "bike_id": "cb86fed42e7ee9ce4e9d3d32523682ba", "name": "cb86fed42e7ee9ce4e9d3d32523682ba"}, {"lon": -77.01104133333334, "is_disabled": 0, "lat": 38.90970183333334, "fusion_lat": 0.0, "is_reserved": 0, "rental_uris": {"ios": "https://dc.lft.to/lastmile_qr_scan", "android": "https://dc.lft.to/lastmile_qr_scan"}, "fusion_lon": 0.0, "type": "electric_scooter", "bike_id": "dcb724950830e59cbd1d3f3e9bd19516", "name": "dcb724950830e59cbd1d3f3e9bd19516"}, {"lon": -77.02460966666666, "is_disabled": 0, "lat": 38.91875683333333, "fusion_lat": 0.0, "is_reserved": 0, "rental_uris": {"ios": "https://dc.lft.to/lastmile_qr_scan", "android": "https://dc.lft.to/lastmile_qr_scan"}, "fusion_lon": 0.0, "type": "electric_scooter", "bike_id": "b522358cd394e24a0232b1f3cf5a2edb", "name": "b522358cd394e24a0232b1f3cf5a2edb"}, {"lon": -77.00908883333334, "is_disabled": 0, "lat": 38.901082833333334, "fusion_lat": 0.0, "is_reserved": 0, "rental_uris": {"ios": "https://dc.lft.to/lastmile_qr_scan", "android": "https://dc.lft.to/lastmile_qr_scan"}, "fusion_lon": 0.0, "type": "electric_scooter", "bike_id": "8bd4fe55a9adf2834a99ed336bd942c5", "name": "8bd4fe55a9adf2834a99ed336bd942c5"}, {"lon": -77.03709783333333, "is_disabled": 0, "lat": 38.928605833333336, "fusion_lat": 0.0, "is_reserved": 0, "rental_uris": {"ios": "https://dc.lft.to/lastmile_qr_scan", "android": "https://dc.lft.to/lastmile_qr_scan"}, "fusion_lon": 0.0, "type": "electric_scooter", "bike_id": "c80891891093b84e3c3d2c9058f93cc3", "name": "c80891891093b84e3c3d2c9058f93cc3"}, {"lon": -77.03536533333333, "is_disabled": 0, "lat": 38.91843883333333, "fusion_lat": 0.0, "is_reserved": 0, "rental_uris": {"ios": "https://dc.lft.to/lastmile_qr_scan", "android": "https://dc.lft.to/lastmile_qr_scan"}, "fusion_lon": 0.0, "type": "electric_scooter", "bike_id": "cdf23876c6223a624efb84a71ee4a04f", "name": "cdf23876c6223a624efb84a71ee4a04f"}, {"lon": -77.02627833333334, "is_disabled": 0, "lat": 38.928231, "fusion_lat": 0.0, "is_reserved": 0, "rental_uris": {"ios": "https://dc.lft.to/lastmile_qr_scan", "android": "https://dc.lft.to/lastmile_qr_scan"}, "fusion_lon": 0.0, "type": "electric_scooter", "bike_id": "e831eda081d74cccac6c926daf22ef12", "name": "e831eda081d74cccac6c926daf22ef12"}, {"lon": -77.048145, "is_disabled": 0, "lat": 38.90961816666667, "fusion_lat": 0.0, "is_reserved": 0, "rental_uris": {"ios": "https://dc.lft.to/lastmile_qr_scan", "android": "https://dc.lft.to/lastmile_qr_scan"}, "fusion_lon": 0.0, "type": "electric_scooter", "bike_id": "8c33e1c5fe46270fce97235d229da902", "name": "8c33e1c5fe46270fce97235d229da902"}, {"lon": -76.98880916666667, "is_disabled": 0, "lat": 38.86660233333333, "fusion_lat": 0.0, "is_reserved": 0, "rental_uris": {"ios": "https://dc.lft.to/lastmile_qr_scan", "android": "https://dc.lft.to/lastmile_qr_scan"}, "fusion_lon": 0.0, "type": "electric_scooter", "bike_id": "6716b00b8aa2fd49715d6896d35a47d1", "name": "6716b00b8aa2fd49715d6896d35a47d1"}, {"lon": -77.018468, "is_disabled": 0, "lat": 38.90972266666667, "fusion_lat": 0.0, "is_reserved": 0, "rental_uris": {"ios": "https://dc.lft.to/lastmile_qr_scan", "android": "https://dc.lft.to/lastmile_qr_scan"}, "fusion_lon": 0.0, "type": "electric_scooter", "bike_id": "bfde05ea76e78e3ca0344fefb81eae69", "name": "bfde05ea76e78e3ca0344fefb81eae69"}, {"lon": -77.02308083333334, "is_disabled": 0, "lat": 38.91776483333334, "fusion_lat": 0.0, "is_reserved": 0, "rental_uris": {"ios": "https://dc.lft.to/lastmile_qr_scan", "android": "https://dc.lft.to/lastmile_qr_scan"}, "fusion_lon": 0.0, "type": "electric_scooter", "bike_id": "2667e2abf806dad23b051caefd09a207", "name": "2667e2abf806dad23b051caefd09a207"}, {"lon": -77.228878, "is_disabled": 0, "lat": 38.90954283333333, "fusion_lat": 0.0, "is_reserved": 0, "rental_uris": {"ios": "https://dc.lft.to/lastmile_qr_scan", "android": "https://dc.lft.to/lastmile_qr_scan"}, "fusion_lon": 0.0, "type": "electric_bike", "bike_id": "c07267bdd55db389fa195c27873b5771", "name": "c07267bdd55db389fa195c27873b5771"}, {"lon": -77.007659, "is_disabled": 0, "lat": 38.87927666666667, "fusion_lat": 0.0, "is_reserved": 0, "rental_uris": {"ios": "https://dc.lft.to/lastmile_qr_scan", "android": "https://dc.lft.to/lastmile_qr_scan"}, "fusion_lon": 0.0, "type": "electric_scooter", "bike_id": "996310910190b8135690a1ab5ee6c791", "name": "996310910190b8135690a1ab5ee6c791"}, {"lon": -77.0393605, "is_disabled": 0, "lat": 38.89861033333333, "fusion_lat": 0.0, "is_reserved": 0, "rental_uris": {"ios": "https://dc.lft.to/lastmile_qr_scan", "android": "https://dc.lft.to/lastmile_qr_scan"}, "fusion_lon": 0.0, "type": "electric_scooter", "bike_id": "d815eea491c098ff3593cb1a225f4d1c", "name": "d815eea491c098ff3593cb1a225f4d1c"}, {"lon": -77.03321583333333, "is_disabled": 0, "lat": 38.8983075, "fusion_lat": 0.0, "is_reserved": 0, "rental_uris": {"ios": "https://dc.lft.to/lastmile_qr_scan", "android": "https://dc.lft.to/lastmile_qr_scan"}, "fusion_lon": 0.0, "type": "electric_scooter", "bike_id": "22ee8e3e413aafa606529e65ab363d12", "name": "22ee8e3e413aafa606529e65ab363d12"}, {"lon": -76.98175366666666, "is_disabled": 0, "lat": 38.86966666666667, "fusion_lat": 0.0, "is_reserved": 0, "rental_uris": {"ios": "https://dc.lft.to/lastmile_qr_scan", "android": "https://dc.lft.to/lastmile_qr_scan"}, "fusion_lon": 0.0, "type": "electric_scooter", "bike_id": "0efcfa4eca88ddee8d9af8cca2d7f9d5", "name": "0efcfa4eca88ddee8d9af8cca2d7f9d5"}, {"lon": -77.041029, "is_disabled": 0, "lat": 38.91051016666667, "fusion_lat": 0.0, "is_reserved": 0, "rental_uris": {"ios": "https://dc.lft.to/lastmile_qr_scan", "android": "https://dc.lft.to/lastmile_qr_scan"}, "fusion_lon": 0.0, "type": "electric_scooter", "bike_id": "f4caeebfb2d5b7dc5cdf424ca4bf0c1c", "name": "f4caeebfb2d5b7dc5cdf424ca4bf0c1c"}, {"lon": -77.03425183333333, "is_disabled": 0, "lat": 38.92866316666667, "fusion_lat": 0.0, "is_reserved": 0, "rental_uris": {"ios": "https://dc.lft.to/lastmile_qr_scan", "android": "https://dc.lft.to/lastmile_qr_scan"}, "fusion_lon": 0.0, "type": "electric_scooter", "bike_id": "6868c60aa00c8600d27328eb5fc25cd5", "name": "6868c60aa00c8600d27328eb5fc25cd5"}, {"lon": -77.0417165, "is_disabled": 0, "lat": 38.913948, "fusion_lat": 0.0, "is_reserved": 0, "rental_uris": {"ios": "https://dc.lft.to/lastmile_qr_scan", "android": "https://dc.lft.to/lastmile_qr_scan"}, "fusion_lon": 0.0, "type": "electric_scooter", "bike_id": "840d8558dfee914f3aff6d69f723b6eb", "name": "840d8558dfee914f3aff6d69f723b6eb"}, {"lon": -76.97834166666667, "is_disabled": 0, "lat": 38.8984565, "fusion_lat": 0.0, "is_reserved": 0, "rental_uris": {"ios": "https://dc.lft.to/lastmile_qr_scan", "android": "https://dc.lft.to/lastmile_qr_scan"}, "fusion_lon": 0.0, "type": "electric_scooter", "bike_id": "24c4a40cd92898915464ed40172349ce", "name": "24c4a40cd92898915464ed40172349ce"}, {"lon": -77.024552, "is_disabled": 0, "lat": 38.9385505, "fusion_lat": 0.0, "is_reserved": 0, "rental_uris": {"ios": "https://dc.lft.to/lastmile_qr_scan", "android": "https://dc.lft.to/lastmile_qr_scan"}, "fusion_lon": 0.0, "type": "electric_scooter", "bike_id": "ca738eeeebd8ba26c81dee370ffea5f1", "name": "ca738eeeebd8ba26c81dee370ffea5f1"}, {"lon": -77.03639566666666, "is_disabled": 0, "lat": 38.9178915, "fusion_lat": 0.0, "is_reserved": 0, "rental_uris": {"ios": "https://dc.lft.to/lastmile_qr_scan", "android": "https://dc.lft.to/lastmile_qr_scan"}, "fusion_lon": 0.0, "type": "electric_scooter", "bike_id": "3991afa8e30aeb0b2122da68e721ca08", "name": "3991afa8e30aeb0b2122da68e721ca08"}, {"lon": -77.01166816666667, "is_disabled": 0, "lat": 38.8961895, "fusion_lat": 0.0, "is_reserved": 0, "rental_uris": {"ios": "https://dc.lft.to/lastmile_qr_scan", "android": "https://dc.lft.to/lastmile_qr_scan"}, "fusion_lon": 0.0, "type": "electric_scooter", "bike_id": "5b106d2fd40dfa165e3ad8fab11b5477", "name": "5b106d2fd40dfa165e3ad8fab11b5477"}, {"lon": -77.03861416666666, "is_disabled": 0, "lat": 38.90714533333333, "fusion_lat": 0.0, "is_reserved": 0, "rental_uris": {"ios": "https://dc.lft.to/lastmile_qr_scan", "android": "https://dc.lft.to/lastmile_qr_scan"}, "fusion_lon": 0.0, "type": "electric_scooter", "bike_id": "b1fbca842ddd174602cb6039f31083d1", "name": "b1fbca842ddd174602cb6039f31083d1"}, {"lon": -77.23259283333333, "is_disabled": 0, "lat": 38.8725665, "fusion_lat": 0.0, "is_reserved": 0, "rental_uris": {"ios": "https://dc.lft.to/lastmile_qr_scan", "android": "https://dc.lft.to/lastmile_qr_scan"}, "fusion_lon": 0.0, "type": "electric_bike", "bike_id": "74c6235a68e5b2f21a4e158178c0b24e", "name": "74c6235a68e5b2f21a4e158178c0b24e"}, {"lon": -77.02778833333333, "is_disabled": 0, "lat": 38.92771116666667, "fusion_lat": 0.0, "is_reserved": 0, "rental_uris": {"ios": "https://dc.lft.to/lastmile_qr_scan", "android": "https://dc.lft.to/lastmile_qr_scan"}, "fusion_lon": 0.0, "type": "electric_scooter", "bike_id": "e983e505da7d3ca4b7b02862d18906a6", "name": "e983e505da7d3ca4b7b02862d18906a6"}, {"lon": -77.05054916666667, "is_disabled": 0, "lat": 38.9053385, "fusion_lat": 0.0, "is_reserved": 0, "rental_uris": {"ios": "https://dc.lft.to/lastmile_qr_scan", "android": "https://dc.lft.to/lastmile_qr_scan"}, "fusion_lon": 0.0, "type": "electric_scooter", "bike_id": "63096d7cc4aef68f87b069a4d2dead32", "name": "63096d7cc4aef68f87b069a4d2dead32"}, {"lon": -77.088603, "is_disabled": 0, "lat": 38.916403, "fusion_lat": 0.0, "is_reserved": 0, "rental_uris": {"ios": "https://dc.lft.to/lastmile_qr_scan", "android": "https://dc.lft.to/lastmile_qr_scan"}, "fusion_lon": 0.0, "type": "electric_scooter", "bike_id": "cf645eae405897d464a85795a15988d0", "name": "cf645eae405897d464a85795a15988d0"}, {"lon": -77.00402533333333, "is_disabled": 0, "lat": 38.92136383333333, "fusion_lat": 0.0, "is_reserved": 0, "rental_uris": {"ios": "https://dc.lft.to/lastmile_qr_scan", "android": "https://dc.lft.to/lastmile_qr_scan"}, "fusion_lon": 0.0, "type": "electric_scooter", "bike_id": "8a64b7bb840bf7839dfe6a41f4e2c949", "name": "8a64b7bb840bf7839dfe6a41f4e2c949"}, {"lon": -76.95949033333333, "is_disabled": 0, "lat": 38.86191866666667, "fusion_lat": 0.0, "is_reserved": 0, "rental_uris": {"ios": "https://dc.lft.to/lastmile_qr_scan", "android": "https://dc.lft.to/lastmile_qr_scan"}, "fusion_lon": 0.0, "type": "electric_scooter", "bike_id": "3acef627d0ed86d2daacaf6c52812547", "name": "3acef627d0ed86d2daacaf6c52812547"}, {"lon": -77.04453833333334, "is_disabled": 0, "lat": 38.915392, "fusion_lat": 0.0, "is_reserved": 0, "rental_uris": {"ios": "https://dc.lft.to/lastmile_qr_scan", "android": "https://dc.lft.to/lastmile_qr_scan"}, "fusion_lon": 0.0, "type": "electric_scooter", "bike_id": "4776cb3698a8033ff38b6fcb759ce408", "name": "4776cb3698a8033ff38b6fcb759ce408"}, {"lon": -77.02218216666667, "is_disabled": 0, "lat": 38.89613933333333, "fusion_lat": 0.0, "is_reserved": 0, "rental_uris": {"ios": "https://dc.lft.to/lastmile_qr_scan", "android": "https://dc.lft.to/lastmile_qr_scan"}, "fusion_lon": 0.0, "type": "electric_scooter", "bike_id": "ce43d7fec0f66e0bdb830c1a1ce2d812", "name": "ce43d7fec0f66e0bdb830c1a1ce2d812"}, {"lon": -77.032854, "is_disabled": 0, "lat": 38.92869433333333, "fusion_lat": 0.0, "is_reserved": 0, "rental_uris": {"ios": "https://dc.lft.to/lastmile_qr_scan", "android": "https://dc.lft.to/lastmile_qr_scan"}, "fusion_lon": 0.0, "type": "electric_scooter", "bike_id": "6a0634b497520449f1b6f58ad413e63e", "name": "6a0634b497520449f1b6f58ad413e63e"}, {"lon": -77.02159916666666, "is_disabled": 0, "lat": 38.92457316666667, "fusion_lat": 0.0, "is_reserved": 0, "rental_uris": {"ios": "https://dc.lft.to/lastmile_qr_scan", "android": "https://dc.lft.to/lastmile_qr_scan"}, "fusion_lon": 0.0, "type": "electric_scooter", "bike_id": "5f8d36beaa0015a1e9b7140bbce5b523", "name": "5f8d36beaa0015a1e9b7140bbce5b523"}, {"lon": -77.03397133333333, "is_disabled": 0, "lat": 38.923472, "fusion_lat": 0.0, "is_reserved": 0, "rental_uris": {"ios": "https://dc.lft.to/lastmile_qr_scan", "android": "https://dc.lft.to/lastmile_qr_scan"}, "fusion_lon": 0.0, "type": "electric_scooter", "bike_id": "23f6c26b45ab6c5e294e4c452b00c565", "name": "23f6c26b45ab6c5e294e4c452b00c565"}, {"lon": -77.04003083333333, "is_disabled": 0, "lat": 38.90310933333333, "fusion_lat": 0.0, "is_reserved": 0, "rental_uris": {"ios": "https://dc.lft.to/lastmile_qr_scan", "android": "https://dc.lft.to/lastmile_qr_scan"}, "fusion_lon": 0.0, "type": "electric_scooter", "bike_id": "b077b98819db5b6efb542955c23716d0", "name": "b077b98819db5b6efb542955c23716d0"}, {"lon": -77.04893616666666, "is_disabled": 0, "lat": 38.90059083333333, "fusion_lat": 0.0, "is_reserved": 0, "rental_uris": {"ios": "https://dc.lft.to/lastmile_qr_scan", "android": "https://dc.lft.to/lastmile_qr_scan"}, "fusion_lon": 0.0, "type": "electric_scooter", "bike_id": "f14e99eb153a029f6212116d423d2234", "name": "f14e99eb153a029f6212116d423d2234"}, {"lon": -77.017524, "is_disabled": 0, "lat": 38.91710883333333, "fusion_lat": 0.0, "is_reserved": 0, "rental_uris": {"ios": "https://dc.lft.to/lastmile_qr_scan", "android": "https://dc.lft.to/lastmile_qr_scan"}, "fusion_lon": 0.0, "type": "electric_scooter", "bike_id": "12193f496c648a3f2eb9e984ebaec364", "name": "12193f496c648a3f2eb9e984ebaec364"}, {"lon": -76.98145583333333, "is_disabled": 0, "lat": 38.89746566666667, "fusion_lat": 0.0, "is_reserved": 0, "rental_uris": {"ios": "https://dc.lft.to/lastmile_qr_scan", "android": "https://dc.lft.to/lastmile_qr_scan"}, "fusion_lon": 0.0, "type": "electric_scooter", "bike_id": "d6ef39dc2fd3f763ba1470a9ecc43003", "name": "d6ef39dc2fd3f763ba1470a9ecc43003"}, {"lon": -77.0279315, "is_disabled": 0, "lat": 38.89990066666667, "fusion_lat": 0.0, "is_reserved": 0, "rental_uris": {"ios": "https://dc.lft.to/lastmile_qr_scan", "android": "https://dc.lft.to/lastmile_qr_scan"}, "fusion_lon": 0.0, "type": "electric_scooter", "bike_id": "204f7b33835eebef014e828962d6c1de", "name": "204f7b33835eebef014e828962d6c1de"}, {"lon": -77.04166383333333, "is_disabled": 0, "lat": 38.9162315, "fusion_lat": 0.0, "is_reserved": 0, "rental_uris": {"ios": "https://dc.lft.to/lastmile_qr_scan", "android": "https://dc.lft.to/lastmile_qr_scan"}, "fusion_lon": 0.0, "type": "electric_scooter", "bike_id": "58be5e6e5a34b8b2e4a1f23b0eb07b6a", "name": "58be5e6e5a34b8b2e4a1f23b0eb07b6a"}, {"lon": -77.01217366666667, "is_disabled": 0, "lat": 38.87474733333333, "fusion_lat": 0.0, "is_reserved": 0, "rental_uris": {"ios": "https://dc.lft.to/lastmile_qr_scan", "android": "https://dc.lft.to/lastmile_qr_scan"}, "fusion_lon": 0.0, "type": "electric_scooter", "bike_id": "8dc4c94317395cf2856db80cdcdcaa1c", "name": "8dc4c94317395cf2856db80cdcdcaa1c"}, {"lon": -77.02199333333333, "is_disabled": 0, "lat": 38.9112355, "fusion_lat": 0.0, "is_reserved": 0, "rental_uris": {"ios": "https://dc.lft.to/lastmile_qr_scan", "android": "https://dc.lft.to/lastmile_qr_scan"}, "fusion_lon": 0.0, "type": "electric_scooter", "bike_id": "43dfaabf3c6afbddc9896216e2500c82", "name": "43dfaabf3c6afbddc9896216e2500c82"}, {"lon": -77.03638283333333, "is_disabled": 0, "lat": 38.924120333333335, "fusion_lat": 0.0, "is_reserved": 0, "rental_uris": {"ios": "https://dc.lft.to/lastmile_qr_scan", "android": "https://dc.lft.to/lastmile_qr_scan"}, "fusion_lon": 0.0, "type": "electric_scooter", "bike_id": "272725682f979d0341c24416f937fe40", "name": "272725682f979d0341c24416f937fe40"}, {"lon": -77.0386385, "is_disabled": 0, "lat": 38.908063166666665, "fusion_lat": 0.0, "is_reserved": 0, "rental_uris": {"ios": "https://dc.lft.to/lastmile_qr_scan", "android": "https://dc.lft.to/lastmile_qr_scan"}, "fusion_lon": 0.0, "type": "electric_scooter", "bike_id": "5d12449b7a06c2e899e4002f34a083b5", "name": "5d12449b7a06c2e899e4002f34a083b5"}, {"lon": -77.042737, "is_disabled": 0, "lat": 38.92546733333333, "fusion_lat": 0.0, "is_reserved": 0, "rental_uris": {"ios": "https://dc.lft.to/lastmile_qr_scan", "android": "https://dc.lft.to/lastmile_qr_scan"}, "fusion_lon": 0.0, "type": "electric_scooter", "bike_id": "17200c954fe86f8283c2905b1a8c3cd3", "name": "17200c954fe86f8283c2905b1a8c3cd3"}, {"lon": -77.037318, "is_disabled": 0, "lat": 38.9265965, "fusion_lat": 0.0, "is_reserved": 0, "rental_uris": {"ios": "https://dc.lft.to/lastmile_qr_scan", "android": "https://dc.lft.to/lastmile_qr_scan"}, "fusion_lon": 0.0, "type": "electric_scooter", "bike_id": "f3df1e27d2378060cd6e09ddd47d7d6b", "name": "f3df1e27d2378060cd6e09ddd47d7d6b"}, {"lon": -76.99703716666667, "is_disabled": 0, "lat": 38.90803066666667, "fusion_lat": 0.0, "is_reserved": 0, "rental_uris": {"ios": "https://dc.lft.to/lastmile_qr_scan", "android": "https://dc.lft.to/lastmile_qr_scan"}, "fusion_lon": 0.0, "type": "electric_scooter", "bike_id": "84c3e6b034686699d5aa168ffc216659", "name": "84c3e6b034686699d5aa168ffc216659"}, {"lon": -76.96523916666666, "is_disabled": 0, "lat": 38.876233, "fusion_lat": 0.0, "is_reserved": 0, "rental_uris": {"ios": "https://dc.lft.to/lastmile_qr_scan", "android": "https://dc.lft.to/lastmile_qr_scan"}, "fusion_lon": 0.0, "type": "electric_scooter", "bike_id": "4799e6b23bfad6681f92080074a77e3e", "name": "4799e6b23bfad6681f92080074a77e3e"}, {"lon": -77.0082315, "is_disabled": 0, "lat": 38.876705333333334, "fusion_lat": 0.0, "is_reserved": 0, "rental_uris": {"ios": "https://dc.lft.to/lastmile_qr_scan", "android": "https://dc.lft.to/lastmile_qr_scan"}, "fusion_lon": 0.0, "type": "electric_scooter", "bike_id": "ec021758df4fe9b2460e390e98d9cfb5", "name": "ec021758df4fe9b2460e390e98d9cfb5"}, {"lon": -77.041548, "is_disabled": 0, "lat": 38.901544333333334, "fusion_lat": 0.0, "is_reserved": 0, "rental_uris": {"ios": "https://dc.lft.to/lastmile_qr_scan", "android": "https://dc.lft.to/lastmile_qr_scan"}, "fusion_lon": 0.0, "type": "electric_scooter", "bike_id": "4d6c2a2f30c0918f282f3e4d17600c92", "name": "4d6c2a2f30c0918f282f3e4d17600c92"}, {"lon": -77.01023133333334, "is_disabled": 0, "lat": 38.956138333333335, "fusion_lat": 0.0, "is_reserved": 0, "rental_uris": {"ios": "https://dc.lft.to/lastmile_qr_scan", "android": "https://dc.lft.to/lastmile_qr_scan"}, "fusion_lon": 0.0, "type": "electric_scooter", "bike_id": "591d9e398558233acbc31b2a3283c25e", "name": "591d9e398558233acbc31b2a3283c25e"}, {"lon": -77.053254, "is_disabled": 0, "lat": 38.910568166666664, "fusion_lat": 0.0, "is_reserved": 0, "rental_uris": {"ios": "https://dc.lft.to/lastmile_qr_scan", "android": "https://dc.lft.to/lastmile_qr_scan"}, "fusion_lon": 0.0, "type": "electric_scooter", "bike_id": "8efd05f0a1f5bf6e2c049d4040889600", "name": "8efd05f0a1f5bf6e2c049d4040889600"}, {"lon": -77.0190805, "is_disabled": 0, "lat": 38.917238, "fusion_lat": 0.0, "is_reserved": 0, "rental_uris": {"ios": "https://dc.lft.to/lastmile_qr_scan", "android": "https://dc.lft.to/lastmile_qr_scan"}, "fusion_lon": 0.0, "type": "electric_scooter", "bike_id": "19c4fbc0e974a102d8cb25418c984729", "name": "19c4fbc0e974a102d8cb25418c984729"}, {"lon": -77.01684133333333, "is_disabled": 0, "lat": 38.90037866666667, "fusion_lat": 0.0, "is_reserved": 0, "rental_uris": {"ios": "https://dc.lft.to/lastmile_qr_scan", "android": "https://dc.lft.to/lastmile_qr_scan"}, "fusion_lon": 0.0, "type": "electric_scooter", "bike_id": "64dd55c55daaa4c63c43b962a49d296b", "name": "64dd55c55daaa4c63c43b962a49d296b"}, {"lon": -77.03577733333333, "is_disabled": 0, "lat": 38.90386683333333, "fusion_lat": 0.0, "is_reserved": 0, "rental_uris": {"ios": "https://dc.lft.to/lastmile_qr_scan", "android": "https://dc.lft.to/lastmile_qr_scan"}, "fusion_lon": 0.0, "type": "electric_scooter", "bike_id": "33ef3734ff9df91be8c043b7e0a12ade", "name": "33ef3734ff9df91be8c043b7e0a12ade"}, {"lon": -77.02213833333333, "is_disabled": 0, "lat": 38.9206895, "fusion_lat": 0.0, "is_reserved": 0, "rental_uris": {"ios": "https://dc.lft.to/lastmile_qr_scan", "android": "https://dc.lft.to/lastmile_qr_scan"}, "fusion_lon": 0.0, "type": "electric_scooter", "bike_id": "5e8a5025564f8b334e35ed66b4744aaf", "name": "5e8a5025564f8b334e35ed66b4744aaf"}, {"lon": -77.006032, "is_disabled": 0, "lat": 38.89810633333333, "fusion_lat": 0.0, "is_reserved": 0, "rental_uris": {"ios": "https://dc.lft.to/lastmile_qr_scan", "android": "https://dc.lft.to/lastmile_qr_scan"}, "fusion_lon": 0.0, "type": "electric_bike", "bike_id": "e2c5ee824dff86af11b3b3c77ec7320e", "name": "e2c5ee824dff86af11b3b3c77ec7320e"}, {"lon": -77.01858716666666, "is_disabled": 0, "lat": 38.94922016666666, "fusion_lat": 0.0, "is_reserved": 0, "rental_uris": {"ios": "https://dc.lft.to/lastmile_qr_scan", "android": "https://dc.lft.to/lastmile_qr_scan"}, "fusion_lon": 0.0, "type": "electric_scooter", "bike_id": "7a2f3d1dc61abf6a7650f5d81fe64a4e", "name": "7a2f3d1dc61abf6a7650f5d81fe64a4e"}, {"lon": -77.03950716666667, "is_disabled": 0, "lat": 38.902642666666665, "fusion_lat": 0.0, "is_reserved": 0, "rental_uris": {"ios": "https://dc.lft.to/lastmile_qr_scan", "android": "https://dc.lft.to/lastmile_qr_scan"}, "fusion_lon": 0.0, "type": "electric_scooter", "bike_id": "6bdc8b0827da0f54bdafa29320572c7c", "name": "6bdc8b0827da0f54bdafa29320572c7c"}, {"lon": -77.02707183333334, "is_disabled": 0, "lat": 38.897168666666666, "fusion_lat": 0.0, "is_reserved": 0, "rental_uris": {"ios": "https://dc.lft.to/lastmile_qr_scan", "android": "https://dc.lft.to/lastmile_qr_scan"}, "fusion_lon": 0.0, "type": "electric_scooter", "bike_id": "2300b4caec4710eb13f1d0f892ce6745", "name": "2300b4caec4710eb13f1d0f892ce6745"}, {"lon": -77.02222933333333, "is_disabled": 0, "lat": 38.897261666666665, "fusion_lat": 0.0, "is_reserved": 0, "rental_uris": {"ios": "https://dc.lft.to/lastmile_qr_scan", "android": "https://dc.lft.to/lastmile_qr_scan"}, "fusion_lon": 0.0, "type": "electric_scooter", "bike_id": "84bbd4846a9559f479fd01621b6764cf", "name": "84bbd4846a9559f479fd01621b6764cf"}, {"lon": -77.0396715, "is_disabled": 0, "lat": 38.894294, "fusion_lat": 0.0, "is_reserved": 0, "rental_uris": {"ios": "https://dc.lft.to/lastmile_qr_scan", "android": "https://dc.lft.to/lastmile_qr_scan"}, "fusion_lon": 0.0, "type": "electric_scooter", "bike_id": "a5969ae2dcf6de17d8b1f0f804c368a7", "name": "a5969ae2dcf6de17d8b1f0f804c368a7"}, {"lon": -77.01044066666667, "is_disabled": 0, "lat": 38.91568783333334, "fusion_lat": 0.0, "is_reserved": 0, "rental_uris": {"ios": "https://dc.lft.to/lastmile_qr_scan", "android": "https://dc.lft.to/lastmile_qr_scan"}, "fusion_lon": 0.0, "type": "electric_scooter", "bike_id": "a3dc6c0316bea8fd3b00f7eeb492ecbe", "name": "a3dc6c0316bea8fd3b00f7eeb492ecbe"}, {"lon": -77.0432765, "is_disabled": 0, "lat": 38.896444, "fusion_lat": 0.0, "is_reserved": 0, "rental_uris": {"ios": "https://dc.lft.to/lastmile_qr_scan", "android": "https://dc.lft.to/lastmile_qr_scan"}, "fusion_lon": 0.0, "type": "electric_scooter", "bike_id": "c04c9961d8cf5637db4ead384d8383a9", "name": "c04c9961d8cf5637db4ead384d8383a9"}, {"lon": -77.02181666666667, "is_disabled": 0, "lat": 38.906844, "fusion_lat": 0.0, "is_reserved": 0, "rental_uris": {"ios": "https://dc.lft.to/lastmile_qr_scan", "android": "https://dc.lft.to/lastmile_qr_scan"}, "fusion_lon": 0.0, "type": "electric_scooter", "bike_id": "e257777675165ac3240d4131293bf589", "name": "e257777675165ac3240d4131293bf589"}, {"lon": -77.03124016666666, "is_disabled": 0, "lat": 38.930896833333335, "fusion_lat": 0.0, "is_reserved": 0, "rental_uris": {"ios": "https://dc.lft.to/lastmile_qr_scan", "android": "https://dc.lft.to/lastmile_qr_scan"}, "fusion_lon": 0.0, "type": "electric_scooter", "bike_id": "014c6bf25a45bfc1a732bea61ab47a7a", "name": "014c6bf25a45bfc1a732bea61ab47a7a"}, {"lon": -77.0327995, "is_disabled": 0, "lat": 38.926708166666664, "fusion_lat": 0.0, "is_reserved": 0, "rental_uris": {"ios": "https://dc.lft.to/lastmile_qr_scan", "android": "https://dc.lft.to/lastmile_qr_scan"}, "fusion_lon": 0.0, "type": "electric_scooter", "bike_id": "8f8297f87d956792f1d1aaa7c694e717", "name": "8f8297f87d956792f1d1aaa7c694e717"}, {"lon": -77.0211275, "is_disabled": 0, "lat": 38.91408716666667, "fusion_lat": 0.0, "is_reserved": 0, "rental_uris": {"ios": "https://dc.lft.to/lastmile_qr_scan", "android": "https://dc.lft.to/lastmile_qr_scan"}, "fusion_lon": 0.0, "type": "electric_scooter", "bike_id": "6b5f3a64e5d7a747c04380d1e67fce83", "name": "6b5f3a64e5d7a747c04380d1e67fce83"}, {"lon": -77.04460466666667, "is_disabled": 0, "lat": 38.915484166666666, "fusion_lat": 0.0, "is_reserved": 0, "rental_uris": {"ios": "https://dc.lft.to/lastmile_qr_scan", "android": "https://dc.lft.to/lastmile_qr_scan"}, "fusion_lon": 0.0, "type": "electric_scooter", "bike_id": "cf4d86b6e51243083114dff6e00fb9cd", "name": "cf4d86b6e51243083114dff6e00fb9cd"}, {"lon": -77.02451383333333, "is_disabled": 0, "lat": 38.92077366666667, "fusion_lat": 0.0, "is_reserved": 0, "rental_uris": {"ios": "https://dc.lft.to/lastmile_qr_scan", "android": "https://dc.lft.to/lastmile_qr_scan"}, "fusion_lon": 0.0, "type": "electric_scooter", "bike_id": "85b83531b78d1773072e31e8516631d3", "name": "85b83531b78d1773072e31e8516631d3"}, {"lon": -77.02206766666667, "is_disabled": 0, "lat": 38.91054, "fusion_lat": 0.0, "is_reserved": 0, "rental_uris": {"ios": "https://dc.lft.to/lastmile_qr_scan", "android": "https://dc.lft.to/lastmile_qr_scan"}, "fusion_lon": 0.0, "type": "electric_scooter", "bike_id": "0b5f52e92268f520989036000cbd15e3", "name": "0b5f52e92268f520989036000cbd15e3"}, {"lon": -76.95333866666667, "is_disabled": 0, "lat": 38.89241366666667, "fusion_lat": 0.0, "is_reserved": 0, "rental_uris": {"ios": "https://dc.lft.to/lastmile_qr_scan", "android": "https://dc.lft.to/lastmile_qr_scan"}, "fusion_lon": 0.0, "type": "electric_scooter", "bike_id": "47e5c224cf9577bbe455814579c39427", "name": "47e5c224cf9577bbe455814579c39427"}, {"lon": -77.01906833333334, "is_disabled": 0, "lat": 38.923376833333336, "fusion_lat": 0.0, "is_reserved": 0, "rental_uris": {"ios": "https://dc.lft.to/lastmile_qr_scan", "android": "https://dc.lft.to/lastmile_qr_scan"}, "fusion_lon": 0.0, "type": "electric_scooter", "bike_id": "7aab67a6d5160d7e2914900cee799bf6", "name": "7aab67a6d5160d7e2914900cee799bf6"}, {"lon": -76.9900825, "is_disabled": 0, "lat": 38.865070333333335, "fusion_lat": 0.0, "is_reserved": 0, "rental_uris": {"ios": "https://dc.lft.to/lastmile_qr_scan", "android": "https://dc.lft.to/lastmile_qr_scan"}, "fusion_lon": 0.0, "type": "electric_scooter", "bike_id": "f1f1259eee8a688e816ee8b66b64ebee", "name": "f1f1259eee8a688e816ee8b66b64ebee"}, {"lon": -77.044121, "is_disabled": 0, "lat": 38.89750083333333, "fusion_lat": 0.0, "is_reserved": 0, "rental_uris": {"ios": "https://dc.lft.to/lastmile_qr_scan", "android": "https://dc.lft.to/lastmile_qr_scan"}, "fusion_lon": 0.0, "type": "electric_scooter", "bike_id": "52312301296c376fe95d590159f41c4c", "name": "52312301296c376fe95d590159f41c4c"}, {"lon": -77.02798216666666, "is_disabled": 0, "lat": 38.89651716666667, "fusion_lat": 0.0, "is_reserved": 0, "rental_uris": {"ios": "https://dc.lft.to/lastmile_qr_scan", "android": "https://dc.lft.to/lastmile_qr_scan"}, "fusion_lon": 0.0, "type": "electric_scooter", "bike_id": "cc81defca82d9216fabcfd217554f02c", "name": "cc81defca82d9216fabcfd217554f02c"}, {"lon": -77.03968983333333, "is_disabled": 0, "lat": 38.90276433333333, "fusion_lat": 0.0, "is_reserved": 0, "rental_uris": {"ios": "https://dc.lft.to/lastmile_qr_scan", "android": "https://dc.lft.to/lastmile_qr_scan"}, "fusion_lon": 0.0, "type": "electric_scooter", "bike_id": "6ad690348d748bfa8e6f6f1cf0074f6b", "name": "6ad690348d748bfa8e6f6f1cf0074f6b"}, {"lon": -77.02528683333334, "is_disabled": 0, "lat": 38.92064766666667, "fusion_lat": 0.0, "is_reserved": 0, "rental_uris": {"ios": "https://dc.lft.to/lastmile_qr_scan", "android": "https://dc.lft.to/lastmile_qr_scan"}, "fusion_lon": 0.0, "type": "electric_scooter", "bike_id": "109955489bfe34fbd4195d9a192e34ec", "name": "109955489bfe34fbd4195d9a192e34ec"}, {"lon": -77.05349133333333, "is_disabled": 0, "lat": 38.902333666666664, "fusion_lat": 0.0, "is_reserved": 0, "rental_uris": {"ios": "https://dc.lft.to/lastmile_qr_scan", "android": "https://dc.lft.to/lastmile_qr_scan"}, "fusion_lon": 0.0, "type": "electric_scooter", "bike_id": "fda8ce412ecfbe86751ef50683a70cee", "name": "fda8ce412ecfbe86751ef50683a70cee"}, {"lon": -77.0123285, "is_disabled": 0, "lat": 38.875060166666664, "fusion_lat": 0.0, "is_reserved": 0, "rental_uris": {"ios": "https://dc.lft.to/lastmile_qr_scan", "android": "https://dc.lft.to/lastmile_qr_scan"}, "fusion_lon": 0.0, "type": "electric_scooter", "bike_id": "42ff6038e7fbb22a4d7acbfc29305f5a", "name": "42ff6038e7fbb22a4d7acbfc29305f5a"}, {"lon": -77.05886666666666, "is_disabled": 0, "lat": 38.936368333333334, "fusion_lat": 0.0, "is_reserved": 0, "rental_uris": {"ios": "https://dc.lft.to/lastmile_qr_scan", "android": "https://dc.lft.to/lastmile_qr_scan"}, "fusion_lon": 0.0, "type": "electric_scooter", "bike_id": "71eb2bd29871d1ae7a2a2e61c310ab51", "name": "71eb2bd29871d1ae7a2a2e61c310ab51"}, {"lon": -76.98337216666667, "is_disabled": 0, "lat": 38.90091483333333, "fusion_lat": 0.0, "is_reserved": 0, "rental_uris": {"ios": "https://dc.lft.to/lastmile_qr_scan", "android": "https://dc.lft.to/lastmile_qr_scan"}, "fusion_lon": 0.0, "type": "electric_scooter", "bike_id": "0edf206f0bbbbd292501a56e5fc701ff", "name": "0edf206f0bbbbd292501a56e5fc701ff"}, {"lon": -77.02972383333334, "is_disabled": 0, "lat": 38.933171, "fusion_lat": 0.0, "is_reserved": 0, "rental_uris": {"ios": "https://dc.lft.to/lastmile_qr_scan", "android": "https://dc.lft.to/lastmile_qr_scan"}, "fusion_lon": 0.0, "type": "electric_scooter", "bike_id": "6a30bba0a22ddf03d9f9e060f1c0de48", "name": "6a30bba0a22ddf03d9f9e060f1c0de48"}, {"lon": -77.04878616666667, "is_disabled": 0, "lat": 38.892517833333336, "fusion_lat": 0.0, "is_reserved": 0, "rental_uris": {"ios": "https://dc.lft.to/lastmile_qr_scan", "android": "https://dc.lft.to/lastmile_qr_scan"}, "fusion_lon": 0.0, "type": "electric_scooter", "bike_id": "eea1c5b35f83b44890921ab2e89af374", "name": "eea1c5b35f83b44890921ab2e89af374"}, {"lon": -77.08651983333333, "is_disabled": 0, "lat": 38.80903216666667, "fusion_lat": 0.0, "is_reserved": 0, "rental_uris": {"ios": "https://dc.lft.to/lastmile_qr_scan", "android": "https://dc.lft.to/lastmile_qr_scan"}, "fusion_lon": 0.0, "type": "electric_bike", "bike_id": "3f67fb0b96827572f42c4351283c2860", "name": "3f67fb0b96827572f42c4351283c2860"}, {"lon": -76.97557483333334, "is_disabled": 0, "lat": 38.924552166666665, "fusion_lat": 0.0, "is_reserved": 0, "rental_uris": {"ios": "https://dc.lft.to/lastmile_qr_scan", "android": "https://dc.lft.to/lastmile_qr_scan"}, "fusion_lon": 0.0, "type": "electric_bike", "bike_id": "9bbe8bf59837aae30783f45280e5bbbc", "name": "9bbe8bf59837aae30783f45280e5bbbc"}, {"lon": -77.01225166666667, "is_disabled": 0, "lat": 38.91755116666667, "fusion_lat": 0.0, "is_reserved": 0, "rental_uris": {"ios": "https://dc.lft.to/lastmile_qr_scan", "android": "https://dc.lft.to/lastmile_qr_scan"}, "fusion_lon": 0.0, "type": "electric_scooter", "bike_id": "ab269d1fd2efaa6bc80266b9a632b85f", "name": "ab269d1fd2efaa6bc80266b9a632b85f"}, {"lon": -77.059739, "is_disabled": 0, "lat": 38.90107183333333, "fusion_lat": 0.0, "is_reserved": 0, "rental_uris": {"ios": "https://dc.lft.to/lastmile_qr_scan", "android": "https://dc.lft.to/lastmile_qr_scan"}, "fusion_lon": 0.0, "type": "electric_scooter", "bike_id": "27b6a03a81ae4e4288c604f0bcd7bd2b", "name": "27b6a03a81ae4e4288c604f0bcd7bd2b"}, {"lon": -77.127379, "is_disabled": 0, "lat": 38.89568516666667, "fusion_lat": 0.0, "is_reserved": 0, "rental_uris": {"ios": "https://dc.lft.to/lastmile_qr_scan", "android": "https://dc.lft.to/lastmile_qr_scan"}, "fusion_lon": 0.0, "type": "electric_bike", "bike_id": "dce6a8771a83734d034e84e5533ee259", "name": "dce6a8771a83734d034e84e5533ee259"}, {"lon": -76.98441683333333, "is_disabled": 0, "lat": 38.90580766666667, "fusion_lat": 0.0, "is_reserved": 0, "rental_uris": {"ios": "https://dc.lft.to/lastmile_qr_scan", "android": "https://dc.lft.to/lastmile_qr_scan"}, "fusion_lon": 0.0, "type": "electric_scooter", "bike_id": "9fbeb47ab713450e5b3a35b3f2e2e7f3", "name": "9fbeb47ab713450e5b3a35b3f2e2e7f3"}, {"lon": -77.02406483333333, "is_disabled": 0, "lat": 38.9139825, "fusion_lat": 0.0, "is_reserved": 0, "rental_uris": {"ios": "https://dc.lft.to/lastmile_qr_scan", "android": "https://dc.lft.to/lastmile_qr_scan"}, "fusion_lon": 0.0, "type": "electric_scooter", "bike_id": "3a010a292dc95a55f450485d3bb56b36", "name": "3a010a292dc95a55f450485d3bb56b36"}, {"lon": -77.00381866666666, "is_disabled": 0, "lat": 38.836100333333334, "fusion_lat": 0.0, "is_reserved": 0, "rental_uris": {"ios": "https://dc.lft.to/lastmile_qr_scan", "android": "https://dc.lft.to/lastmile_qr_scan"}, "fusion_lon": 0.0, "type": "electric_bike", "bike_id": "ddf1c44304b5b2e009f4ce5c8430cde4", "name": "ddf1c44304b5b2e009f4ce5c8430cde4"}, {"lon": -77.02495816666666, "is_disabled": 0, "lat": 38.91805983333333, "fusion_lat": 0.0, "is_reserved": 0, "rental_uris": {"ios": "https://dc.lft.to/lastmile_qr_scan", "android": "https://dc.lft.to/lastmile_qr_scan"}, "fusion_lon": 0.0, "type": "electric_scooter", "bike_id": "d541f9f223ea56c23c6e0505a203eb02", "name": "d541f9f223ea56c23c6e0505a203eb02"}, {"lon": -77.02260316666667, "is_disabled": 0, "lat": 38.893721, "fusion_lat": 0.0, "is_reserved": 0, "rental_uris": {"ios": "https://dc.lft.to/lastmile_qr_scan", "android": "https://dc.lft.to/lastmile_qr_scan"}, "fusion_lon": 0.0, "type": "electric_scooter", "bike_id": "3f0631218010739f9abb83ed113c929f", "name": "3f0631218010739f9abb83ed113c929f"}, {"lon": -77.01901833333334, "is_disabled": 0, "lat": 38.90930916666667, "fusion_lat": 0.0, "is_reserved": 0, "rental_uris": {"ios": "https://dc.lft.to/lastmile_qr_scan", "android": "https://dc.lft.to/lastmile_qr_scan"}, "fusion_lon": 0.0, "type": "electric_scooter", "bike_id": "07a498db623a9fc5d7721b2d431f7e0f", "name": "07a498db623a9fc5d7721b2d431f7e0f"}, {"lon": -77.07347633333333, "is_disabled": 0, "lat": 38.922635, "fusion_lat": 0.0, "is_reserved": 0, "rental_uris": {"ios": "https://dc.lft.to/lastmile_qr_scan", "android": "https://dc.lft.to/lastmile_qr_scan"}, "fusion_lon": 0.0, "type": "electric_scooter", "bike_id": "7b9ff6a3e671528f15cb21b742a500f3", "name": "7b9ff6a3e671528f15cb21b742a500f3"}, {"lon": -77.0198045, "is_disabled": 0, "lat": 38.91423783333333, "fusion_lat": 0.0, "is_reserved": 0, "rental_uris": {"ios": "https://dc.lft.to/lastmile_qr_scan", "android": "https://dc.lft.to/lastmile_qr_scan"}, "fusion_lon": 0.0, "type": "electric_scooter", "bike_id": "5b07dd36088c06fe2b1c64303ce839cc", "name": "5b07dd36088c06fe2b1c64303ce839cc"}, {"lon": -77.029531, "is_disabled": 0, "lat": 38.905021833333336, "fusion_lat": 0.0, "is_reserved": 0, "rental_uris": {"ios": "https://dc.lft.to/lastmile_qr_scan", "android": "https://dc.lft.to/lastmile_qr_scan"}, "fusion_lon": 0.0, "type": "electric_bike", "bike_id": "02be0390fe833cc8e15017deba63a5a8", "name": "02be0390fe833cc8e15017deba63a5a8"}, {"lon": -77.03844683333334, "is_disabled": 0, "lat": 38.91217983333333, "fusion_lat": 0.0, "is_reserved": 0, "rental_uris": {"ios": "https://dc.lft.to/lastmile_qr_scan", "android": "https://dc.lft.to/lastmile_qr_scan"}, "fusion_lon": 0.0, "type": "electric_scooter", "bike_id": "5c1a1e50208a91b1b619c5f21372cca6", "name": "5c1a1e50208a91b1b619c5f21372cca6"}, {"lon": -77.00199066666667, "is_disabled": 0, "lat": 38.9026205, "fusion_lat": 0.0, "is_reserved": 0, "rental_uris": {"ios": "https://dc.lft.to/lastmile_qr_scan", "android": "https://dc.lft.to/lastmile_qr_scan"}, "fusion_lon": 0.0, "type": "electric_scooter", "bike_id": "2a1a18ebdc0bd2c33b590562180586c1", "name": "2a1a18ebdc0bd2c33b590562180586c1"}, {"lon": -77.02294383333333, "is_disabled": 0, "lat": 38.91568933333333, "fusion_lat": 0.0, "is_reserved": 0, "rental_uris": {"ios": "https://dc.lft.to/lastmile_qr_scan", "android": "https://dc.lft.to/lastmile_qr_scan"}, "fusion_lon": 0.0, "type": "electric_scooter", "bike_id": "8b2516b7c9ae05d46c9b3c2911a8fc3e", "name": "8b2516b7c9ae05d46c9b3c2911a8fc3e"}, {"lon": -77.03398166666666, "is_disabled": 0, "lat": 38.90976083333334, "fusion_lat": 0.0, "is_reserved": 0, "rental_uris": {"ios": "https://dc.lft.to/lastmile_qr_scan", "android": "https://dc.lft.to/lastmile_qr_scan"}, "fusion_lon": 0.0, "type": "electric_scooter", "bike_id": "5a4d048de6f4192f7974ab18a81e90e0", "name": "5a4d048de6f4192f7974ab18a81e90e0"}, {"lon": -77.02709016666667, "is_disabled": 0, "lat": 38.906727333333336, "fusion_lat": 0.0, "is_reserved": 0, "rental_uris": {"ios": "https://dc.lft.to/lastmile_qr_scan", "android": "https://dc.lft.to/lastmile_qr_scan"}, "fusion_lon": 0.0, "type": "electric_scooter", "bike_id": "3b0083aad4cd4b8175e923cdc1904f05", "name": "3b0083aad4cd4b8175e923cdc1904f05"}, {"lon": -77.05041966666667, "is_disabled": 0, "lat": 38.923399333333336, "fusion_lat": 0.0, "is_reserved": 0, "rental_uris": {"ios": "https://dc.lft.to/lastmile_qr_scan", "android": "https://dc.lft.to/lastmile_qr_scan"}, "fusion_lon": 0.0, "type": "electric_scooter", "bike_id": "63f85db71742f5ea770bc132168d5c7c", "name": "63f85db71742f5ea770bc132168d5c7c"}, {"lon": -77.0325735, "is_disabled": 0, "lat": 38.939698166666666, "fusion_lat": 0.0, "is_reserved": 0, "rental_uris": {"ios": "https://dc.lft.to/lastmile_qr_scan", "android": "https://dc.lft.to/lastmile_qr_scan"}, "fusion_lon": 0.0, "type": "electric_scooter", "bike_id": "1986cb5ffe62b4d5327d7545133e7647", "name": "1986cb5ffe62b4d5327d7545133e7647"}, {"lon": -77.10859333333333, "is_disabled": 0, "lat": 38.84598666666667, "fusion_lat": 0.0, "is_reserved": 0, "rental_uris": {"ios": "https://dc.lft.to/lastmile_qr_scan", "android": "https://dc.lft.to/lastmile_qr_scan"}, "fusion_lon": 0.0, "type": "electric_bike", "bike_id": "c75fc92b17a07ed2c52f947442674d7a", "name": "c75fc92b17a07ed2c52f947442674d7a"}, {"lon": -76.99508283333333, "is_disabled": 0, "lat": 38.821741333333335, "fusion_lat": 0.0, "is_reserved": 0, "rental_uris": {"ios": "https://dc.lft.to/lastmile_qr_scan", "android": "https://dc.lft.to/lastmile_qr_scan"}, "fusion_lon": 0.0, "type": "electric_bike", "bike_id": "dc7c8d3b81decb4a33554cbb164f8384", "name": "dc7c8d3b81decb4a33554cbb164f8384"}, {"lon": -76.99129383333333, "is_disabled": 0, "lat": 38.84643, "fusion_lat": 0.0, "is_reserved": 0, "rental_uris": {"ios": "https://dc.lft.to/lastmile_qr_scan", "android": "https://dc.lft.to/lastmile_qr_scan"}, "fusion_lon": 0.0, "type": "electric_scooter", "bike_id": "5afbf150f82dc9ad1766ce33ed26fa5f", "name": "5afbf150f82dc9ad1766ce33ed26fa5f"},