{"data": {"bikes": [{"fusion_lat": 0.0, "name": "3b33b4c842e4e427fe55d4aee0730a81", "is_disabled": 0, "rental_uris": {"android": "https://dc.lft.to/lastmile_qr_scan", "ios": "https://dc.lft.to/lastmile_qr_scan"}, "fusion_lon": 0.0, "lat": 38.9198705, "bike_id": "3b33b4c842e4e427fe55d4aee0730a81", "type": "electric_scooter", "is_reserved": 0, "lon": -77.0325895}, {"fusion_lat": 0.0, "name": "62101352dcb318040a11b6b8675613d4", "is_disabled": 0, "rental_uris": {"android": "https://dc.lft.to/lastmile_qr_scan", "ios": "https://dc.lft.to/lastmile_qr_scan"}, "fusion_lon": 0.0, "lat": 38.90041083333333, "bike_id": "62101352dcb318040a11b6b8675613d4", "type": "electric_scooter", "is_reserved": 0, "lon": -76.98832783333333}, {"fusion_lat": 0.0, "name": "dda5191787a003967db541e90faf4508", "is_disabled": 0, "rental_uris": {"android": "https://dc.lft.to/lastmile_qr_scan", "ios": "https://dc.lft.to/lastmile_qr_scan"}, "fusion_lon": 0.0, "lat": 38.90617266666667, "bike_id": "dda5191787a003967db541e90faf4508", "type": "electric_scooter", "is_reserved": 0, "lon": -77.02408466666667}, {"fusion_lat": 0.0, "name": "136c682115214c17f864fe8fce5cbcb9", "is_disabled": 0, "rental_uris": {"android": "https://dc.lft.to/lastmile_qr_scan", "ios": "https://dc.lft.to/lastmile_qr_scan"}, "fusion_lon": 0.0, "lat": 38.9505045, "bike_id": "136c682115214c17f864fe8fce5cbcb9", "type": "electric_scooter", "is_reserved": 0, "lon": -77.08028516666667}, {"fusion_lat": 0.0, "name": "402b6ce04461ca82d3826a4298535cde", "is_disabled": 0, "rental_uris": {"android": "https://dc.lft.to/lastmile_qr_scan", "ios": "https://dc.lft.to/lastmile_qr_scan"}, "fusion_lon": 0.0, "lat": 38.9339835, "bike_id": "402b6ce04461ca82d3826a4298535cde", "type": "electric_scooter", "is_reserved": 0, "lon": -77.05750266666666}, {"fusion_lat": 0.0, "name": "0d7bb10ef9625a380c05adc611c999f6", "is_disabled": 0, "rental_uris": {"android": "https://dc.lft.to/lastmile_qr_scan", "ios": "https://dc.lft.to/lastmile_qr_scan"}, "fusion_lon": 0.0, "lat": 38.916908666666664, "bike_id": "0d7bb10ef9625a380c05adc611c999f6", "type": "electric_scooter", "is_reserved": 0, "lon": -77.02594966666666}, {"fusion_lat": 0.0, "name": "356331c93f391f6f8ec94cf8365487a5", "is_disabled": 0, "rental_uris": {"android": "https://dc.lft.to/lastmile_qr_scan", "ios": "https://dc.lft.to/lastmile_qr_scan"}, "fusion_lon": 0.0, "lat": 38.899832, "bike_id": "356331c93f391f6f8ec94cf8365487a5", "type": "electric_scooter", "is_reserved": 0, "lon": -77.04988383333334}, {"fusion_lat": 0.0, "name": "b36b68715a25c489272b449c46fc5459", "is_disabled": 0, "rental_uris": {"android": "https://dc.lft.to/lastmile_qr_scan", "ios": "https://dc.lft.to/lastmile_qr_scan"}, "fusion_lon": 0.0, "lat": 38.91123066666667, "bike_id": "b36b68715a25c489272b449c46fc5459", "type": "electric_scooter", "is_reserved": 0, "lon": -77.02197266666667}, {"fusion_lat": 0.0, "name": "26f3183131387c662ae712b3802dfbdf", "is_disabled": 0, "rental_uris": {"android": "https://dc.lft.to/lastmile_qr_scan", "ios": "https://dc.lft.to/lastmile_qr_scan"}, "fusion_lon": 0.0, "lat": 38.910573166666666, "bike_id": "26f3183131387c662ae712b3802dfbdf", "type": "electric_scooter", "is_reserved": 0, "lon": -77.040826}, {"fusion_lat": 0.0, "name": "a0ad4b77a743a3f8b32858949b6e9b59", "is_disabled": 0, "rental_uris": {"android": "https://dc.lft.to/lastmile_qr_scan", "ios": "https://dc.lft.to/lastmile_qr_scan"}, "fusion_lon": 0.0, "lat": 38.885922666666666, "bike_id": "a0ad4b77a743a3f8b32858949b6e9b59", "type": "electric_scooter", "is_reserved": 0, "lon": -77.0171975}, {"fusion_lat": 0.0, "name": "82f8c89ae97f76962cc54294320a38f1", "is_disabled": 0, "rental_uris": {"android": "https://dc.lft.to/lastmile_qr_scan", "ios": "https://dc.lft.to/lastmile_qr_scan"}, "fusion_lon": 0.0, "lat": 38.9159155, "bike_id": "82f8c89ae97f76962cc54294320a38f1", "type": "electric_scooter", "is_reserved": 0, "lon": -77.03199516666666}, {"fusion_lat": 0.0, "name": "2b21631f74f82ff1f2c118c95457296d", "is_disabled": 0, "rental_uris": {"android": "https://dc.lft.to/lastmile_qr_scan", "ios": "https://dc.lft.to/lastmile_qr_scan"}, "fusion_lon": 0.0, "lat": 38.90703883333333, "bike_id": "2b21631f74f82ff1f2c118c95457296d", "type": "electric_scooter", "is_reserved": 0, "lon": -76.98698066666667}, {"fusion_lat": 0.0, "name": "041701e58382d25ab7a255970a520c87", "is_disabled": 0, "rental_uris": {"android": "https://dc.lft.to/lastmile_qr_scan", "ios": "https://dc.lft.to/lastmile_qr_scan"}, "fusion_lon": 0.0, "lat": 38.93577633333334, "bike_id": "041701e58382d25ab7a255970a520c87", "type": "electric_scooter", "is_reserved": 0, "lon": -77.02845833333333}, {"fusion_lat": 0.0, "name": "536eeceadb4a9da04adc764b28226804", "is_disabled": 0, "rental_uris": {"android": "https://dc.lft.to/lastmile_qr_scan", "ios": "https://dc.lft.to/lastmile_qr_scan"}, "fusion_lon": 0.0, "lat": 38.92515316666667, "bike_id": "536eeceadb4a9da04adc764b28226804", "type": "electric_scooter", "is_reserved": 0, "lon": -77.02287716666666}, {"fusion_lat": 0.0, "name": "46785ecdb14c9a6a36a96b9502190290", "is_disabled": 0, "rental_uris": {"android": "https://dc.lft.to/lastmile_qr_scan", "ios": "https://dc.lft.to/lastmile_qr_scan"}, "fusion_lon": 0.0, "lat": 38.952219666666664, "bike_id": "46785ecdb14c9a6a36a96b9502190290", "type": "electric_scooter", "is_reserved": 0, "lon": -77.08216}, {"fusion_lat": 0.0, "name": "f56bc886e5c5264de9d4a81d594503b3", "is_disabled": 0, "rental_uris": {"android": "https://dc.lft.to/lastmile_qr_scan", "ios": "https://dc.lft.to/lastmile_qr_scan"}, "fusion_lon": 0.0, "lat": 38.92081783333333, "bike_id": "f56bc886e5c5264de9d4a81d594503b3", "type": "electric_scooter", "is_reserved": 0, "lon": -76.99445833333333}, {"fusion_lat": 0.0, "name": "954a9971996cabaf17d43f039e91534c", "is_disabled": 0, "rental_uris": {"android": "https://dc.lft.to/lastmile_qr_scan", "ios": "https://dc.lft.to/lastmile_qr_scan"}, "fusion_lon": 0.0, "lat": 38.89335583333333, "bike_id": "954a9971996cabaf17d43f039e91534c", "type": "electric_scooter", "is_reserved": 0, "lon": -77.04675483333334}, {"fusion_lat": 0.0, "name": "cfdced109dcba94819552b7180e4a0e7", "is_disabled": 0, "rental_uris": {"android": "https://dc.lft.to/lastmile_qr_scan", "ios": "https://dc.lft.to/lastmile_qr_scan"}, "fusion_lon": 0.0, "lat": 38.94861933333333, "bike_id": "cfdced109dcba94819552b7180e4a0e7", "type": "electric_scooter", "is_reserved": 0, "lon": -77.02572316666667}, {"fusion_lat": 0.0, "name": "4991aa87a429781e7ad4075da3ac3698", "is_disabled": 0, "rental_uris": {"android": "https://dc.lft.to/lastmile_qr_scan", "ios": "https://dc.lft.to/lastmile_qr_scan"}, "fusion_lon": 0.0, "lat": 38.898429, "bike_id": "4991aa87a429781e7ad4075da3ac3698", "type": "electric_scooter", "is_reserved": 0, "lon": -77.00734033333333}, {"fusion_lat": 0.0, "name": "0800552557714b4d34fc3e16f9c2ce87", "is_disabled": 0, "rental_uris": {"android": "https://dc.lft.to/lastmile_qr_scan", "ios": "https://dc.lft.to/lastmile_qr_scan"}, "fusion_lon": 0.0, "lat": 38.91995283333333, "bike_id": "0800552557714b4d34fc3e16f9c2ce87", "type": "electric_scooter", "is_reserved": 0, "lon": -77.07196616666667}, {"fusion_lat": 0.0, "name": "fcf3af7752d8809d545c569e5a56c95e", "is_disabled": 0, "rental_uris": {"android": "https://dc.lft.to/lastmile_qr_scan", "ios": "https://dc.lft.to/lastmile_qr_scan"}, "fusion_lon": 0.0, "lat": 38.88380766666667, "bike_id": "fcf3af7752d8809d545c569e5a56c95e", "type": "electric_scooter", "is_reserved": 0, "lon": -77.04611916666667}, {"fusion_lat": 0.0, "name": "e0987662dbf1728773c60b9cffe076a4", "is_disabled": 0, "rental_uris": {"android": "https://dc.lft.to/lastmile_qr_scan", "ios": "https://dc.lft.to/lastmile_qr_scan"}, "fusion_lon": 0.0, "lat": 38.9015185, "bike_id": "e0987662dbf1728773c60b9cffe076a4", "type": "electric_scooter", "is_reserved": 0, "lon": -77.05399166666666}, {"fusion_lat": 0.0, "name": "ccf4b2122506a8ed30b59d452d8ae65c", "is_disabled": 0, "rental_uris": {"android": "https://dc.lft.to/lastmile_qr_scan", "ios": "https://dc.lft.to/lastmile_qr_scan"}, "fusion_lon": 0.0, "lat": 38.854138666666664, "bike_id": "ccf4b2122506a8ed30b59d452d8ae65c", "type": "electric_bike", "is_reserved": 0, "lon": -77.120745}, {"fusion_lat": 0.0, "name": "18a1fba2ce4fe700f52f4d190f91b52d", "is_disabled": 0, "rental_uris": {"android": "https://dc.lft.to/lastmile_qr_scan", "ios": "https://dc.lft.to/lastmile_qr_scan"}, "fusion_lon": 0.0, "lat": 38.920715666666666, "bike_id": "18a1fba2ce4fe700f52f4d190f91b52d", "type": "electric_scooter", "is_reserved": 0, "lon": -77.02422883333334}, {"fusion_lat": 0.0, "name": "f2d0d0b40796a2265f3033a063d1d7e8", "is_disabled": 0, "rental_uris": {"android": "https://dc.lft.to/lastmile_qr_scan", "ios": "https://dc.lft.to/lastmile_qr_scan"}, "fusion_lon": 0.0, "lat": 38.8829865, "bike_id": "f2d0d0b40796a2265f3033a063d1d7e8", "type": "electric_scooter", "is_reserved": 0, "lon": -76.94852866666666}, {"fusion_lat": 0.0, "name": "c942e9b28044f8a403732b0ea9fefdfc", "is_disabled": 0, "rental_uris": {"android": "https://dc.lft.to/lastmile_qr_scan", "ios": "https://dc.lft.to/lastmile_qr_scan"}, "fusion_lon": 0.0, "lat": 38.94616933333333, "bike_id": "c942e9b28044f8a403732b0ea9fefdfc", "type": "electric_scooter", "is_reserved": 0, "lon": -77.07919216666667}, {"fusion_lat": 0.0, "name": "c8a637b491dd72ef36794224a523a2e2", "is_disabled": 0, "rental_uris": {"android": "https://dc.lft.to/lastmile_qr_scan", "ios": "https://dc.lft.to/lastmile_qr_scan"}, "fusion_lon": 0.0, "lat": 38.884274833333336, "bike_id": "c8a637b491dd72ef36794224a523a2e2", "type": "electric_scooter", "is_reserved": 0, "lon": -76.95756133333333}, {"fusion_lat": 0.0, "name": "fe47c78aa0fad7c6e0ffc3013af55408", "is_disabled": 0, "rental_uris": {"android": "https://dc.lft.to/lastmile_qr_scan", "ios": "https://dc.lft.to/lastmile_qr_scan"}, "fusion_lon": 0.0, "lat": 38.909332, "bike_id": "fe47c78aa0fad7c6e0ffc3013af55408", "type": "electric_scooter", "is_reserved": 0, "lon": -76.99738333333333}, {"fusion_lat": 0.0, "name": "1e6df51a1c0fa8eaccb55bb8661aa656", "is_disabled": 0, "rental_uris": {"android": "https://dc.lft.to/lastmile_qr_scan", "ios": "https://dc.lft.to/lastmile_qr_scan"}, "fusion_lon": 0.0, "lat": 38.9110415, "bike_id": "1e6df51a1c0fa8eaccb55bb8661aa656", "type": "electric_scooter", "is_reserved": 0, "lon": -77.04225166666667}, {"fusion_lat": 0.0, "name": "8617614837b36c2c58e6e9dd68ce8b84", "is_disabled": 0, "rental_uris": {"android": "https://dc.lft.to/lastmile_qr_scan", "ios": "https://dc.lft.to/lastmile_qr_scan"}, "fusion_lon": 0.0, "lat": 38.90665383333334, "bike_id": "8617614837b36c2c58e6e9dd68ce8b84", "type": "electric_scooter", "is_reserved": 0, "lon": -77.03770366666667}, {"fusion_lat": 0.0, "name": "db0e110da62eed6661977713335a8cec", "is_disabled": 0, "rental_uris": {"android": "https://dc.lft.to/lastmile_qr_scan", "ios": "https://dc.lft.to/lastmile_qr_scan"}, "fusion_lon": 0.0, "lat": 38.93769266666666, "bike_id": "db0e110da62eed6661977713335a8cec", "type": "electric_scooter", "is_reserved": 0, "lon": -77.0207305}, {"fusion_lat": 0.0, "name": "1b3f57d90b00eb80232c1becdd67f00a", "is_disabled": 0, "rental_uris": {"android": "https://dc.lft.to/lastmile_qr_scan", "ios": "https://dc.lft.to/lastmile_qr_scan"}, "fusion_lon": 0.0, "lat": 38.997756, "bike_id": "1b3f57d90b00eb80232c1becdd67f00a", "type": "electric_bike", "is_reserved": 0, "lon": -77.04714833333334}, {"fusion_lat": 0.0, "name": "40b31071f13e6055abf8674a6f8c124c", "is_disabled": 0, "rental_uris": {"android": "https://dc.lft.to/lastmile_qr_scan", "ios": "https://dc.lft.to/lastmile_qr_scan"}, "fusion_lon": 0.0, "lat": 38.807585, "bike_id": "40b31071f13e6055abf8674a6f8c124c", "type": "electric_bike", "is_reserved": 0, "lon": -77.09469966666667}, {"fusion_lat": 0.0, "name": "ec86cfecb41b944e2283a83d6d880016", "is_disabled": 0, "rental_uris": {"android": "https://dc.lft.to/lastmile_qr_scan", "ios": "https://dc.lft.to/lastmile_qr_scan"}, "fusion_lon": 0.0, "lat": 38.94123883333334, "bike_id": "ec86cfecb41b944e2283a83d6d880016", "type": "electric_scooter", "is_reserved": 0, "lon": -77.026503}, {"fusion_lat": 0.0, "name": "cb9c4093dba529189ac1de1a49b9e17f", "is_disabled": 0, "rental_uris": {"android": "https://dc.lft.to/lastmile_qr_scan", "ios": "https://dc.lft.to/lastmile_qr_scan"}, "fusion_lon": 0.0, "lat": 38.91636833333333, "bike_id": "cb9c4093dba529189ac1de1a49b9e17f", "type": "electric_scooter", "is_reserved": 0, "lon": -77.03151016666666}, {"fusion_lat": 0.0, "name": "51496ab3c518c2a79d3c2d4f46d5eb40", "is_disabled": 0, "rental_uris": {"android": "https://dc.lft.to/lastmile_qr_scan", "ios": "https://dc.lft.to/lastmile_qr_scan"}, "fusion_lon": 0.0, "lat": 38.9028995, "bike_id": "51496ab3c518c2a79d3c2d4f46d5eb40", "type": "electric_scooter", "is_reserved": 0, "lon": -76.97635116666666}, {"fusion_lat": 0.0, "name": "ba3bc49533a28f55546699ed045e8c3e", "is_disabled": 0, "rental_uris": {"android": "https://dc.lft.to/lastmile_qr_scan", "ios": "https://dc.lft.to/lastmile_qr_scan"}, "fusion_lon": 0.0, "lat": 38.90524033333333, "bike_id": "ba3bc49533a28f55546699ed045e8c3e", "type": "electric_scooter", "is_reserved": 0, "lon": -77.065483}, {"fusion_lat": 0.0, "name": "a090197801362114c5d899d855bcd33e", "is_disabled": 0, "rental_uris": {"android": "https://dc.lft.to/lastmile_qr_scan", "ios": "https://dc.lft.to/lastmile_qr_scan"}, "fusion_lon": 0.0, "lat": 38.9222605, "bike_id": "a090197801362114c5d899d855bcd33e", "type": "electric_scooter", "is_reserved": 0, "lon": -77.018254}, {"fusion_lat": 0.0, "name": "3ce0c5cf82f861955cd8e500cf214e97", "is_disabled": 0, "rental_uris": {"android": "https://dc.lft.to/lastmile_qr_scan", "ios": "https://dc.lft.to/lastmile_qr_scan"}, "fusion_lon": 0.0, "lat": 38.914178666666665, "bike_id": "3ce0c5cf82f861955cd8e500cf214e97", "type": "electric_scooter", "is_reserved": 0, "lon": -77.031757}, {"fusion_lat": 0.0, "name": "6c892204a2ba6d9e26da76beab67f3dd", "is_disabled": 0, "rental_uris": {"android": "https://dc.lft.to/lastmile_qr_scan", "ios": "https://dc.lft.to/lastmile_qr_scan"}, "fusion_lon": 0.0, "lat": 38.8936845, "bike_id": "6c892204a2ba6d9e26da76beab67f3dd", "type": "electric_scooter", "is_reserved": 0, "lon": -77.01982733333334}, {"fusion_lat": 0.0, "name": "e6024aaf1ef4d75490cd4e41609d3765", "is_disabled": 0, "rental_uris": {"android": "https://dc.lft.to/lastmile_qr_scan", "ios": "https://dc.lft.to/lastmile_qr_scan"}, "fusion_lon": 0.0, "lat": 38.91674233333333, "bike_id": "e6024aaf1ef4d75490cd4e41609d3765", "type": "electric_scooter", "is_reserved": 0, "lon": -77.02383033333334}, {"fusion_lat": 0.0, "name": "45acd45148dc8be75ccc206a6bbadb35", "is_disabled": 0, "rental_uris": {"android": "https://dc.lft.to/lastmile_qr_scan", "ios": "https://dc.lft.to/lastmile_qr_scan"}, "fusion_lon": 0.0, "lat": 38.903896, "bike_id": "45acd45148dc8be75ccc206a6bbadb35", "type": "electric_scooter", "is_reserved": 0, "lon": -77.03526433333333}, {"fusion_lat": 0.0, "name": "3a61b61180fb1a051d7d0dcc4e6574a7", "is_disabled": 0, "rental_uris": {"android": "https://dc.lft.to/lastmile_qr_scan", "ios": "https://dc.lft.to/lastmile_qr_scan"}, "fusion_lon": 0.0, "lat": 38.909701166666665, "bike_id": "3a61b61180fb1a051d7d0dcc4e6574a7", "type": "electric_scooter", "is_reserved": 0, "lon": -77.038638}, {"fusion_lat": 0.0, "name": "821cd485c6c1aa3b5cb646fc53d9e22a", "is_disabled": 0, "rental_uris": {"android": "https://dc.lft.to/lastmile_qr_scan", "ios": "https://dc.lft.to/lastmile_qr_scan"}, "fusion_lon": 0.0, "lat": 38.919235666666665, "bike_id": "821cd485c6c1aa3b5cb646fc53d9e22a", "type": "electric_scooter", "is_reserved": 0, "lon": -77.025052}, {"fusion_lat": 0.0, "name": "f83b75cf24a5deeb8a937dcb60baaf58", "is_disabled": 0, "rental_uris": {"android": "https://dc.lft.to/lastmile_qr_scan", "ios": "https://dc.lft.to/lastmile_qr_scan"}, "fusion_lon": 0.0, "lat": 38.922193, "bike_id": "f83b75cf24a5deeb8a937dcb60baaf58", "type": "electric_scooter", "is_reserved": 0, "lon": -77.0221295}, {"fusion_lat": 0.0, "name": "58ded63624c960ffcf12dc688620a811", "is_disabled": 0, "rental_uris": {"android": "https://dc.lft.to/lastmile_qr_scan", "ios": "https://dc.lft.to/lastmile_qr_scan"}, "fusion_lon": 0.0, "lat": 38.928478166666665, "bike_id": "58ded63624c960ffcf12dc688620a811", "type": "electric_scooter", "is_reserved": 0, "lon": -77.01411983333334}, {"fusion_lat": 0.0, "name": "28e3192601e7cf89d4d70e2c21f77bde", "is_disabled": 0, "rental_uris": {"android": "https://dc.lft.to/lastmile_qr_scan", "ios": "https://dc.lft.to/lastmile_qr_scan"}, "fusion_lon": 0.0, "lat": 38.914130666666665, "bike_id": "28e3192601e7cf89d4d70e2c21f77bde", "type": "electric_scooter", "is_reserved": 0, "lon": -77.03172083333334}, {"fusion_lat": 0.0, "name": "9f30fa0afa1b6633192886f95e095b2b", "is_disabled": 0, "rental_uris": {"android": "https://dc.lft.to/lastmile_qr_scan", "ios": "https://dc.lft.to/lastmile_qr_scan"}, "fusion_lon": 0.0, "lat": 38.93022166666667, "bike_id": "9f30fa0afa1b6633192886f95e095b2b", "type": "electric_scooter", "is_reserved": 0, "lon": -77.03781916666667}, {"fusion_lat": 0.0, "name": "16789d05e572d30b219fa2f010bc8995", "is_disabled": 0, "rental_uris": {"android": "https://dc.lft.to/lastmile_qr_scan", "ios": "https://dc.lft.to/lastmile_qr_scan"}, "fusion_lon": 0.0, "lat": 38.866204, "bike_id": "16789d05e572d30b219fa2f010bc8995", "type": "electric_bike", "is_reserved": 0, "lon": -76.94571583333334}, {"fusion_lat": 0.0, "name": "f571a2eb1142b01c6b6bc022726bfe0f", "is_disabled": 0, "rental_uris": {"android": "https://dc.lft.to/lastmile_qr_scan", "ios": "https://dc.lft.to/lastmile_qr_scan"}, "fusion_lon": 0.0, "lat": 38.930617, "bike_id": "f571a2eb1142b01c6b6bc022726bfe0f", "type": "electric_scooter", "is_reserved": 0, "lon": -77.03157733333333}, {"fusion_lat": 0.0, "name": "18ca9f7901383fc7b234aa0c8abc6977", "is_disabled": 0, "rental_uris": {"android": "https://dc.lft.to/lastmile_qr_scan", "ios": "https://dc.lft.to/lastmile_qr_scan"}, "fusion_lon": 0.0, "lat": 38.890026166666665, "bike_id": "18ca9f7901383fc7b234aa0c8abc6977", "type": "electric_scooter", "is_reserved": 0, "lon": -76.93743416666666}, {"fusion_lat": 0.0, "name": "995b5ed3d6c90e103b1eea288cf1a35c", "is_disabled": 0, "rental_uris": {"android": "https://dc.lft.to/lastmile_qr_scan", "ios": "https://dc.lft.to/lastmile_qr_scan"}, "fusion_lon": 0.0, "lat": 38.91695, "bike_id": "995b5ed3d6c90e103b1eea288cf1a35c", "type": "electric_scooter", "is_reserved": 0, "lon": -77.03588166666667}, {"fusion_lat": 0.0, "name": "f73d3fd8a1aecdf5efee12e17289e6b1", "is_disabled": 0, "rental_uris": {"android": "https://dc.lft.to/lastmile_qr_scan", "ios": "https://dc.lft.to/lastmile_qr_scan"}, "fusion_lon": 0.0, "lat": 38.914052, "bike_id": "f73d3fd8a1aecdf5efee12e17289e6b1", "type": "electric_scooter", "is_reserved": 0, "lon": -77.03225116666667}, {"fusion_lat": 0.0, "name": "fb6398bcb2a2f78c41b7a0a4c6cf6b6c", "is_disabled": 0, "rental_uris": {"android": "https://dc.lft.to/lastmile_qr_scan", "ios": "https://dc.lft.to/lastmile_qr_scan"}, "fusion_lon": 0.0, "lat": 38.91612, "bike_id": "fb6398bcb2a2f78c41b7a0a4c6cf6b6c", "type": "electric_scooter", "is_reserved": 0, "lon": -77.02956916666666}, {"fusion_lat": 0.0, "name": "172dc76c4cd3de66f54f35a639705dff", "is_disabled": 0, "rental_uris": {"android": "https://dc.lft.to/lastmile_qr_scan", "ios": "https://dc.lft.to/lastmile_qr_scan"}, "fusion_lon": 0.0, "lat": 38.90698283333333, "bike_id": "172dc76c4cd3de66f54f35a639705dff", "type": "electric_scooter", "is_reserved": 0, "lon": -77.04205583333334}, {"fusion_lat": 0.0, "name": "fb9517655256b6eb0e4b74e9082f8d6d", "is_disabled": 0, "rental_uris": {"android": "https://dc.lft.to/lastmile_qr_scan", "ios": "https://dc.lft.to/lastmile_qr_scan"}, "fusion_lon": 0.0, "lat": 38.898312833333335, "bike_id": "fb9517655256b6eb0e4b74e9082f8d6d", "type": "electric_scooter", "is_reserved": 0, "lon": -77.03026416666667}, {"fusion_lat": 0.0, "name": "a7a330668dbd14d63810a79b16932c74", "is_disabled": 0, "rental_uris": {"android": "https://dc.lft.to/lastmile_qr_scan", "ios": "https://dc.lft.to/lastmile_qr_scan"}, "fusion_lon": 0.0, "lat": 38.90462016666667, "bike_id": "a7a330668dbd14d63810a79b16932c74", "type": "electric_scooter", "is_reserved": 0, "lon": -77.033652}, {"fusion_lat": 0.0, "name": "32c50e22004858d040dadfa8f3a02632", "is_disabled": 0, "rental_uris": {"android": "https://dc.lft.to/lastmile_qr_scan", "ios": "https://dc.lft.to/lastmile_qr_scan"}, "fusion_lon": 0.0, "lat": 38.913585166666664, "bike_id": "32c50e22004858d040dadfa8f3a02632", "type": "electric_scooter", "is_reserved": 0, "lon": -77.04879716666667}, {"fusion_lat": 0.0, "name": "a25c8042aebea3d05eb9b130d9e80d15", "is_disabled": 0, "rental_uris": {"android": "https://dc.lft.to/lastmile_qr_scan", "ios": "https://dc.lft.to/lastmile_qr_scan"}, "fusion_lon": 0.0, "lat": 38.91260166666667, "bike_id": "a25c8042aebea3d05eb9b130d9e80d15", "type": "electric_scooter", "is_reserved": 0, "lon": -77.049252}, {"fusion_lat": 0.0, "name": "d2f0be5ed1ecad7974cc4aaffdb45ebc", "is_disabled": 0, "rental_uris": {"android": "https://dc.lft.to/lastmile_qr_scan", "ios": "https://dc.lft.to/lastmile_qr_scan"}, "fusion_lon": 0.0, "lat": 38.90585033333333, "bike_id": "d2f0be5ed1ecad7974cc4aaffdb45ebc", "type": "electric_scooter", "is_reserved": 0, "lon": -77.04385683333334}, {"fusion_lat": 0.0, "name": "5c58eb48ad7ec53118f44b367b911852", "is_disabled": 0, "rental_uris": {"android": "https://dc.lft.to/lastmile_qr_scan", "ios": "https://dc.lft.to/lastmile_qr_scan"}, "fusion_lon": 0.0, "lat": 38.90498566666667, "bike_id": "5c58eb48ad7ec53118f44b367b911852", "type": "electric_scooter", "is_reserved": 0, "lon": -77.02960216666666}, {"fusion_lat": 0.0, "name": "19e85779e06a4195d7b8ff82b72b8157", "is_disabled": 0, "rental_uris": {"android": "https://dc.lft.to/lastmile_qr_scan", "ios": "https://dc.lft.to/lastmile_qr_scan"}, "fusion_lon": 0.0, "lat": 38.919448333333335, "bike_id": "19e85779e06a4195d7b8ff82b72b8157", "type": "electric_scooter", "is_reserved": 0, "lon": -77.01789483333333}, {"fusion_lat": 0.0, "name": "d8e412bb847d4dbfdd69f90330880a28", "is_disabled": 0, "rental_uris": {"android": "https://dc.lft.to/lastmile_qr_scan", "ios": "https://dc.lft.to/lastmile_qr_scan"}, "fusion_lon": 0.0, "lat": 39.05632516666667, "bike_id": "d8e412bb847d4dbfdd69f90330880a28", "type": "electric_bike", "is_reserved": 0, "lon": -77.12525633333334}, {"fusion_lat": 0.0, "name": "b9424ddee42d90a6796d159ee7285ef2", "is_disabled": 0, "rental_uris": {"android": "https://dc.lft.to/lastmile_qr_scan", "ios": "https://dc.lft.to/lastmile_qr_scan"}, "fusion_lon": 0.0, "lat": 38.923983, "bike_id": "b9424ddee42d90a6796d159ee7285ef2", "type": "electric_scooter", "is_reserved": 0, "lon": -77.02412383333333}, {"fusion_lat": 0.0, "name": "7dd64716c38577d134f6c298e39f9450", "is_disabled": 0, "rental_uris": {"android": "https://dc.lft.to/lastmile_qr_scan", "ios": "https://dc.lft.to/lastmile_qr_scan"}, "fusion_lon": 0.0, "lat": 38.90411183333333, "bike_id": "7dd64716c38577d134f6c298e39f9450", "type": "electric_scooter", "is_reserved": 0, "lon": -76.973333}, {"fusion_lat": 0.0, "name": "dc1e6a7c41d6cbe651469f6c48a16e59", "is_disabled": 0, "rental_uris": {"android": "https://dc.lft.to/lastmile_qr_scan", "ios": "https://dc.lft.to/lastmile_qr_scan"}, "fusion_lon": 0.0, "lat": 38.90727483333333, "bike_id": "dc1e6a7c41d6cbe651469f6c48a16e59", "type": "electric_scooter", "is_reserved": 0, "lon": -77.0122105}, {"fusion_lat": 0.0, "name": "6f5ec79e465dbe1bdef3fcda56f50c3f", "is_disabled": 0, "rental_uris": {"android": "https://dc.lft.to/lastmile_qr_scan", "ios": "https://dc.lft.to/lastmile_qr_scan"}, "fusion_lon": 0.0, "lat": 38.902575666666664, "bike_id": "6f5ec79e465dbe1bdef3fcda56f50c3f", "type": "electric_scooter", "is_reserved": 0, "lon": -76.97452433333333}, {"fusion_lat": 0.0, "name": "ebe090f898085cdd31015547847eea14", "is_disabled": 0, "rental_uris": {"android": "https://dc.lft.to/lastmile_qr_scan", "ios": "https://dc.lft.to/lastmile_qr_scan"}, "fusion_lon": 0.0, "lat": 38.903965166666666, "bike_id": "ebe090f898085cdd31015547847eea14", "type": "electric_scooter", "is_reserved": 0, "lon": -77.020589}, {"fusion_lat": 0.0, "name": "a838f91332ebeeb22411d295dd26845f", "is_disabled": 0, "rental_uris": {"android": "https://dc.lft.to/lastmile_qr_scan", "ios": "https://dc.lft.to/lastmile_qr_scan"}, "fusion_lon": 0.0, "lat": 38.860168, "bike_id": "a838f91332ebeeb22411d295dd26845f", "type": "electric_bike", "is_reserved": 0, "lon": -77.1280815}, {"fusion_lat": 0.0, "name": "96da5bd8e55d88ce0694ba229aeac3d2", "is_disabled": 0, "rental_uris": {"android": "https://dc.lft.to/lastmile_qr_scan", "ios": "https://dc.lft.to/lastmile_qr_scan"}, "fusion_lon": 0.0, "lat": 38.95231116666667, "bike_id": "96da5bd8e55d88ce0694ba229aeac3d2", "type": "electric_scooter", "is_reserved": 0, "lon": -76.99008633333334}, {"fusion_lat": 0.0, "name": "8c01a98bcedb28f6da936bcc5e1bd78b", "is_disabled": 0, "rental_uris": {"android": "https://dc.lft.to/lastmile_qr_scan", "ios": "https://dc.lft.to/lastmile_qr_scan"}, "fusion_lon": 0.0, "lat": 38.93077066666667, "bike_id": "8c01a98bcedb28f6da936bcc5e1bd78b", "type": "electric_scooter", "is_reserved": 0, "lon": -77.07765433333333}, {"fusion_lat": 0.0, "name": "3fa334adb9d6575cad347b469abf9aac", "is_disabled": 0, "rental_uris": {"android": "https://dc.lft.to/lastmile_qr_scan", "ios": "https://dc.lft.to/lastmile_qr_scan"}, "fusion_lon": 0.0, "lat": 38.907488, "bike_id": "3fa334adb9d6575cad347b469abf9aac", "type": "electric_scooter", "is_reserved": 0, "lon": -77.03756483333333}, {"fusion_lat": 0.0, "name": "d044a80a8765c4cdd9c12812e6eeb71a", "is_disabled": 0, "rental_uris": {"android": "https://dc.lft.to/lastmile_qr_scan", "ios": "https://dc.lft.to/lastmile_qr_scan"}, "fusion_lon": 0.0, "lat": 38.915534, "bike_id": "d044a80a8765c4cdd9c12812e6eeb71a", "type": "electric_scooter", "is_reserved": 0, "lon": -77.03238383333333}, {"fusion_lat": 0.0, "name": "6bbbc1b67ffa4605d9d93f984df76490", "is_disabled": 0, "rental_uris": {"android": "https://dc.lft.to/lastmile_qr_scan", "ios": "https://dc.lft.to/lastmile_qr_scan"}, "fusion_lon": 0.0, "lat": 38.925985, "bike_id": "6bbbc1b67ffa4605d9d93f984df76490", "type": "electric_scooter", "is_reserved": 0, "lon": -77.02152116666667}, {"fusion_lat": 0.0, "name": "5eb7f52fdf9069c2d39857a0992a7d79", "is_disabled": 0, "rental_uris": {"android": "https://dc.lft.to/lastmile_qr_scan", "ios": "https://dc.lft.to/lastmile_qr_scan"}, "fusion_lon": 0.0, "lat": 38.901347333333334, "bike_id": "5eb7f52fdf9069c2d39857a0992a7d79", "type": "electric_scooter", "is_reserved": 0, "lon": -77.032363}, {"fusion_lat": 0.0, "name": "4e91c10ffe663b4cd2d826dd83abe4c7", "is_disabled": 0, "rental_uris": {"android": "https://dc.lft.to/lastmile_qr_scan", "ios": "https://dc.lft.to/lastmile_qr_scan"}, "fusion_lon": 0.0, "lat": 38.90551933333333, "bike_id": "4e91c10ffe663b4cd2d826dd83abe4c7", "type": "electric_scooter", "is_reserved": 0, "lon": -77.03467333333333}, {"fusion_lat": 0.0, "name": "8cc3394826e34c117b70476dd367388a", "is_disabled": 0, "rental_uris": {"android": "https://dc.lft.to/lastmile_qr_scan", "ios": "https://dc.lft.to/lastmile_qr_scan"}, "fusion_lon": 0.0, "lat": 38.88450266666667, "bike_id": "8cc3394826e34c117b70476dd367388a", "type": "electric_scooter", "is_reserved": 0, "lon": -76.92947816666667}, {"fusion_lat": 0.0, "name": "aa32335d88f9eb173f8bef4a4e02fff7", "is_disabled": 0, "rental_uris": {"android": "https://dc.lft.to/lastmile_qr_scan", "ios": "https://dc.lft.to/lastmile_qr_scan"}, "fusion_lon": 0.0, "lat": 38.934883166666665, "bike_id": "aa32335d88f9eb173f8bef4a4e02fff7", "type": "electric_scooter", "is_reserved": 0, "lon": -77.03079433333333}, {"fusion_lat": 0.0, "name": "0c33f644f895b244a721a99e112e7634", "is_disabled": 0, "rental_uris": {"android": "https://dc.lft.to/lastmile_qr_scan", "ios": "https://dc.lft.to/lastmile_qr_scan"}, "fusion_lon": 0.0, "lat": 38.925571, "bike_id": "0c33f644f895b244a721a99e112e7634", "type": "electric_scooter", "is_reserved": 0, "lon": -77.02282266666667}, {"fusion_lat": 0.0, "name": "b7845017b19de07685673e972c2bc390", "is_disabled": 0, "rental_uris": {"android": "https://dc.lft.to/lastmile_qr_scan", "ios": "https://dc.lft.to/lastmile_qr_scan"}, "fusion_lon": 0.0, "lat": 38.89989283333333, "bike_id": "b7845017b19de07685673e972c2bc390", "type": "electric_scooter", "is_reserved": 0, "lon": -77.01631933333333}, {"fusion_lat": 0.0, "name": "4ffe4272c826614f63e38e2835bf2bd6", "is_disabled": 0, "rental_uris": {"android": "https://dc.lft.to/lastmile_qr_scan", "ios": "https://dc.lft.to/lastmile_qr_scan"}, "fusion_lon": 0.0, "lat": 38.91583083333333, "bike_id": "4ffe4272c826614f63e38e2835bf2bd6", "type": "electric_scooter", "is_reserved": 0, "lon": -77.05008616666667}, {"fusion_lat": 0.0, "name": "6440251fd5933c1562007d544b060cb0", "is_disabled": 0, "rental_uris": {"android": "https://dc.lft.to/lastmile_qr_scan", "ios": "https://dc.lft.to/lastmile_qr_scan"}, "fusion_lon": 0.0, "lat": 38.90958466666667, "bike_id": "6440251fd5933c1562007d544b060cb0", "type": "electric_bike", "is_reserved": 0, "lon": -77.22886866666667}, {"fusion_lat": 0.0, "name": "60b266d8f8ba9c1ef8571aa88eb0baf2", "is_disabled": 0, "rental_uris": {"android": "https://dc.lft.to/lastmile_qr_scan", "ios": "https://dc.lft.to/lastmile_qr_scan"}, "fusion_lon": 0.0, "lat": 38.916244666666664, "bike_id": "60b266d8f8ba9c1ef8571aa88eb0baf2", "type": "electric_scooter", "is_reserved": 0, "lon": -77.022077}, {"fusion_lat": 0.0, "name": "521b00118edd40ee4d50abf1c819d9c1", "is_disabled": 0, "rental_uris": {"android": "https://dc.lft.to/lastmile_qr_scan", "ios": "https://dc.lft.to/lastmile_qr_scan"}, "fusion_lon": 0.0, "lat": 38.9250115, "bike_id": "521b00118edd40ee4d50abf1c819d9c1", "type": "electric_scooter", "is_reserved": 0, "lon": -77.03821633333334}, {"fusion_lat": 0.0, "name": "1754ec82eaeb923477be4a249ab288e5", "is_disabled": 0, "rental_uris": {"android": "https://dc.lft.to/lastmile_qr_scan", "ios": "https://dc.lft.to/lastmile_qr_scan"}, "fusion_lon": 0.0, "lat": 38.915178, "bike_id": "1754ec82eaeb923477be4a249ab288e5", "type": "electric_scooter", "is_reserved": 0, "lon": -77.04158166666667}, {"fusion_lat": 0.0, "name": "56a8d325fbf7971a95e91bcc5385adab", "is_disabled": 0, "rental_uris": {"android": "https://dc.lft.to/lastmile_qr_scan", "ios": "https://dc.lft.to/lastmile_qr_scan"}, "fusion_lon": 0.0, "lat": 38.88890983333334, "bike_id": "56a8d325fbf7971a95e91bcc5385adab", "type": "electric_bike", "is_reserved": 0, "lon": -77.11527533333333}, {"fusion_lat": 0.0, "name": "80ef661b33f50ba1c4470dd34ee78fa2", "is_disabled": 0, "rental_uris": {"android": "https://dc.lft.to/lastmile_qr_scan", "ios": "https://dc.lft.to/lastmile_qr_scan"}, "fusion_lon": 0.0, "lat": 38.93241366666667, "bike_id": "80ef661b33f50ba1c4470dd34ee78fa2", "type": "electric_scooter", "is_reserved": 0, "lon": -77.04067483333333}, {"fusion_lat": 0.0, "name": "350e1cf2bbc32d339c16bfb1d8ef7cdd", "is_disabled": 0, "rental_uris": {"android": "https://dc.lft.to/lastmile_qr_scan", "ios": "https://dc.lft.to/lastmile_qr_scan"}, "fusion_lon": 0.0, "lat": 38.89852316666666, "bike_id": "350e1cf2bbc32d339c16bfb1d8ef7cdd", "type": "electric_scooter", "is_reserved": 0, "lon": -76.99267283333333}, {"fusion_lat": 0.0, "name": "0ec4ff0504bd60d2645443638ae53f48", "is_disabled": 0, "rental_uris": {"android": "https://dc.lft.to/lastmile_qr_scan", "ios": "https://dc.lft.to/lastmile_qr_scan"}, "fusion_lon": 0.0, "lat": 38.91812683333333, "bike_id": "0ec4ff0504bd60d2645443638ae53f48", "type": "electric_scooter", "is_reserved": 0, "lon": -77.0308155}, {"fusion_lat": 0.0, "name": "4bdcfaed74eeee2e16bd5c1ad6329bd1", "is_disabled": 0, "rental_uris": {"android": "https://dc.lft.to/lastmile_qr_scan", "ios": "https://dc.lft.to/lastmile_qr_scan"}, "fusion_lon": 0.0, "lat": 38.887190833333335, "bike_id": "4bdcfaed74eeee2e16bd5c1ad6329bd1", "type": "electric_scooter", "is_reserved": 0, "lon": -77.019808}, {"fusion_lat": 0.0, "name": "a18b1ce34ce34b3e545443b6b04b9b0f", "is_disabled": 0, "rental_uris": {"android": "https://dc.lft.to/lastmile_qr_scan", "ios": "https://dc.lft.to/lastmile_qr_scan"}, "fusion_lon": 0.0, "lat": 38.91397633333333, "bike_id": "a18b1ce34ce34b3e545443b6b04b9b0f", "type": "electric_scooter", "is_reserved": 0, "lon": -77.0318365}, {"fusion_lat": 0.0, "name": "d18cd647834d307d511c4e6b54eb4e50", "is_disabled": 0, "rental_uris": {"android": "https://dc.lft.to/lastmile_qr_scan", "ios": "https://dc.lft.to/lastmile_qr_scan"}, "fusion_lon": 0.0, "lat": 38.912675166666666, "bike_id": "d18cd647834d307d511c4e6b54eb4e50", "type": "electric_scooter", "is_reserved": 0, "lon": -77.03331016666667}, {"fusion_lat": 0.0, "name": "d3727e396f2199632edebe8ec201276b", "is_disabled": 0, "rental_uris": {"android": "https://dc.lft.to/lastmile_qr_scan", "ios": "https://dc.lft.to/lastmile_qr_scan"}, "fusion_lon": 0.0, "lat": 38.9036575, "bike_id": "d3727e396f2199632edebe8ec201276b", "type": "electric_scooter", "is_reserved": 0, "lon": -77.0329705}, {"fusion_lat": 0.0, "name": "62b1e4705a1c0c748a1a88521ebc92d9", "is_disabled": 0, "rental_uris": {"android": "https://dc.lft.to/lastmile_qr_scan", "ios": "https://dc.lft.to/lastmile_qr_scan"}, "fusion_lon": 0.0, "lat": 38.89617766666667, "bike_id": "62b1e4705a1c0c748a1a88521ebc92d9", "type": "electric_scooter", "is_reserved": 0, "lon": -77.00917033333333}, {"fusion_lat": 0.0, "name": "a76fba858f2a74a2141475fbb435722c", "is_disabled": 0, "rental_uris": {"android": "https://dc.lft.to/lastmile_qr_scan", "ios": "https://dc.lft.to/lastmile_qr_scan"}, "fusion_lon": 0.0, "lat": 38.935218666666664, "bike_id": "a76fba858f2a74a2141475fbb435722c", "type": "electric_scooter", "is_reserved": 0, "lon": -77.072597}, {"fusion_lat": 0.0, "name": "660b801b54f44152e7bb6b0c8b58fe1d", "is_disabled": 0, "rental_uris": {"android": "https://dc.lft.to/lastmile_qr_scan", "ios": "https://dc.lft.to/lastmile_qr_scan"}, "fusion_lon": 0.0, "lat": 38.878847, "bike_id": "660b801b54f44152e7bb6b0c8b58fe1d", "type": "electric_scooter", "is_reserved": 0, "lon": -77.02241233333334}, {"fusion_lat": 0.0, "name": "20b44235bbc408022d5c99f5e10587d2", "is_disabled": 0, "rental_uris": {"android": "https://dc.lft.to/lastmile_qr_scan", "ios": "https://dc.lft.to/lastmile_qr_scan"}, "fusion_lon": 0.0, "lat": 38.89875033333333, "bike_id": "20b44235bbc408022d5c99f5e10587d2", "type": "electric_scooter", "is_reserved": 0, "lon": -76.93185416666667}, {"fusion_lat": 0.0, "name": "01e1f9016713d7935717ecf582985d81", "is_disabled": 0, "rental_uris": {"android": "https://dc.lft.to/lastmile_qr_scan", "ios": "https://dc.lft.to/lastmile_qr_scan"}, "fusion_lon": 0.0, "lat": 38.914676, "bike_id": "01e1f9016713d7935717ecf582985d81", "type": "electric_scooter", "is_reserved": 0, "lon": -77.02396316666666}, {"fusion_lat": 0.0, "name": "1e846a9fdb4b4894daafe7b2d9d0e1f5", "is_disabled": 0, "rental_uris": {"android": "https://dc.lft.to/lastmile_qr_scan", "ios": "https://dc.lft.to/lastmile_qr_scan"}, "fusion_lon": 0.0, "lat": 39.05252766666667, "bike_id": "1e846a9fdb4b4894daafe7b2d9d0e1f5", "type": "electric_bike", "is_reserved": 0, "lon": -77.0806445}, {"fusion_lat": 0.0, "name": "03eaa37b3f630ad9470e703ba6a9b3ff", "is_disabled": 0, "rental_uris": {"android": "https://dc.lft.to/lastmile_qr_scan", "ios": "https://dc.lft.to/lastmile_qr_scan"}, "fusion_lon": 0.0, "lat": 38.8832665, "bike_id": "03eaa37b3f630ad9470e703ba6a9b3ff", "type": "electric_scooter", "is_reserved": 0, "lon": -77.0173335}, {"fusion_lat": 0.0, "name": "46bb54100dcb9db081426d28a08fb99a", "is_disabled": 0, "rental_uris": {"android": "https://dc.lft.to/lastmile_qr_scan", "ios": "https://dc.lft.to/lastmile_qr_scan"}, "fusion_lon": 0.0, "lat": 38.847549, "bike_id": "46bb54100dcb9db081426d28a08fb99a", "type": "electric_scooter", "is_reserved": 0, "lon": -76.994993}, {"fusion_lat": 0.0, "name": "c6258a8ced5b28720bbf60a291647b06", "is_disabled": 0, "rental_uris": {"android": "https://dc.lft.to/lastmile_qr_scan", "ios": "https://dc.lft.to/lastmile_qr_scan"}, "fusion_lon": 0.0, "lat": 38.873830833333336, "bike_id": "c6258a8ced5b28720bbf60a291647b06", "type": "electric_scooter", "is_reserved": 0, "lon": -77.0000515}, {"fusion_lat": 0.0, "name": "743227474a2128c6aac89da8c823c04b", "is_disabled": 0, "rental_uris": {"android": "https://dc.lft.to/lastmile_qr_scan", "ios": "https://dc.lft.to/lastmile_qr_scan"}, "fusion_lon": 0.0, "lat": 38.905371333333335, "bike_id": "743227474a2128c6aac89da8c823c04b", "type": "electric_scooter", "is_reserved": 0, "lon": -77.02179133333334}, {"fusion_lat": 0.0, "name": "9c957744fad936943665acd62b9a38ed", "is_disabled": 0, "rental_uris": {"android": "https://dc.lft.to/lastmile_qr_scan", "ios": "https://dc.lft.to/lastmile_qr_scan"}, "fusion_lon": 0.0, "lat": 38.90404733333333, "bike_id": "9c957744fad936943665acd62b9a38ed", "type": "electric_scooter", "is_reserved": 0, "lon": -77.02395866666667}, {"fusion_lat": 0.0, "name": "5966c0668372da0bcaff651c98da9c36", "is_disabled": 0, "rental_uris": {"android": "https://dc.lft.to/lastmile_qr_scan", "ios": "https://dc.lft.to/lastmile_qr_scan"}, "fusion_lon": 0.0, "lat": 38.87647616666667, "bike_id": "5966c0668372da0bcaff651c98da9c36", "type": "electric_scooter", "is_reserved": 0, "lon": -77.00577433333333}, {"fusion_lat": 0.0, "name": "9ea8f2f8a76e976893e4e44dd876d6b8", "is_disabled": 0, "rental_uris": {"android": "https://dc.lft.to/lastmile_qr_scan", "ios": "https://dc.lft.to/lastmile_qr_scan"}, "fusion_lon": 0.0, "lat": 38.87248733333333, "bike_id": "9ea8f2f8a76e976893e4e44dd876d6b8", "type": "electric_scooter", "is_reserved": 0, "lon": -76.97727366666666}, {"fusion_lat": 0.0, "name": "40738a5099829f54cc504d77e5e938a0", "is_disabled": 0, "rental_uris": {"android": "https://dc.lft.to/lastmile_qr_scan", "ios": "https://dc.lft.to/lastmile_qr_scan"}, "fusion_lon": 0.0, "lat": 38.90227083333333, "bike_id": "40738a5099829f54cc504d77e5e938a0", "type": "electric_scooter", "is_reserved": 0, "lon": -77.04551983333333}, {"fusion_lat": 0.0, "name": "f6ae7300173661411e0e7e100ec0dff3", "is_disabled": 0, "rental_uris": {"android": "https://dc.lft.to/lastmile_qr_scan", "ios": "https://dc.lft.to/lastmile_qr_scan"}, "fusion_lon": 0.0, "lat": 38.9097215, "bike_id": "f6ae7300173661411e0e7e100ec0dff3", "type": "electric_scooter", "is_reserved": 0, "lon": -77.00897333333333}, {"fusion_lat": 0.0, "name": "2dc4f3faf3f842a39ee071658c867f35", "is_disabled": 0, "rental_uris": {"android": "https://dc.lft.to/lastmile_qr_scan", "ios": "https://dc.lft.to/lastmile_qr_scan"}, "fusion_lon": 0.0, "lat": 38.905784, "bike_id": "2dc4f3faf3f842a39ee071658c867f35", "type": "electric_scooter", "is_reserved": 0, "lon": -77.00882366666667}, {"fusion_lat": 0.0, "name": "9cb70f4f852a4885e504011fde4f8ba5", "is_disabled": 0, "rental_uris": {"android": "https://dc.lft.to/lastmile_qr_scan", "ios": "https://dc.lft.to/lastmile_qr_scan"}, "fusion_lon": 0.0, "lat": 38.89659833333333, "bike_id": "9cb70f4f852a4885e504011fde4f8ba5", "type": "electric_scooter", "is_reserved": 0, "lon": -77.04900466666666}, {"fusion_lat": 0.0, "name": "de2a1a0283d69108cbdfcf76eb38eb81", "is_disabled": 0, "rental_uris": {"android": "https://dc.lft.to/lastmile_qr_scan", "ios": "https://dc.lft.to/lastmile_qr_scan"}, "fusion_lon": 0.0, "lat": 38.9168715, "bike_id": "de2a1a0283d69108cbdfcf76eb38eb81", "type": "electric_scooter", "is_reserved": 0, "lon": -77.03769083333333}, {"fusion_lat": 0.0, "name": "5cdb33728d05f7fd5a337661ae583c0a", "is_disabled": 0, "rental_uris": {"android": "https://dc.lft.to/lastmile_qr_scan", "ios": "https://dc.lft.to/lastmile_qr_scan"}, "fusion_lon": 0.0, "lat": 38.8393335, "bike_id": "5cdb33728d05f7fd5a337661ae583c0a", "type": "electric_bike", "is_reserved": 0, "lon": -77.07901483333333}, {"fusion_lat": 0.0, "name": "257d8db7e13379352b3a6512341230a0", "is_disabled": 0, "rental_uris": {"android": "https://dc.lft.to/lastmile_qr_scan", "ios": "https://dc.lft.to/lastmile_qr_scan"}, "fusion_lon": 0.0, "lat": 38.90041133333333, "bike_id": "257d8db7e13379352b3a6512341230a0", "type": "electric_scooter", "is_reserved": 0, "lon": -77.0122165}, {"fusion_lat": 0.0, "name": "2dc5613a19955e7d04093c2be7b68e5f", "is_disabled": 0, "rental_uris": {"android": "https://dc.lft.to/lastmile_qr_scan", "ios": "https://dc.lft.to/lastmile_qr_scan"}, "fusion_lon": 0.0, "lat": 38.928703666666664, "bike_id": "2dc5613a19955e7d04093c2be7b68e5f", "type": "electric_scooter", "is_reserved": 0, "lon": -77.0336105}, {"fusion_lat": 0.0, "name": "25207d874c76d3be048dc66276d1c2fc", "is_disabled": 0, "rental_uris": {"android": "https://dc.lft.to/lastmile_qr_scan", "ios": "https://dc.lft.to/lastmile_qr_scan"}, "fusion_lon": 0.0, "lat": 38.94133266666667, "bike_id": "25207d874c76d3be048dc66276d1c2fc", "type": "electric_scooter", "is_reserved": 0, "lon": -77.00612366666667}, {"fusion_lat": 0.0, "name": "34efaef58a160a59371b9901084ee358", "is_disabled": 0, "rental_uris": {"android": "https://dc.lft.to/lastmile_qr_scan", "ios": "https://dc.lft.to/lastmile_qr_scan"}, "fusion_lon": 0.0, "lat": 38.887151833333334, "bike_id": "34efaef58a160a59371b9901084ee358", "type": "electric_scooter", "is_reserved": 0, "lon": -77.01777}, {"fusion_lat": 0.0, "name": "ab43ff44c961bcdcdc53dc160c326047", "is_disabled": 0, "rental_uris": {"android": "https://dc.lft.to/lastmile_qr_scan", "ios": "https://dc.lft.to/lastmile_qr_scan"}, "fusion_lon": 0.0, "lat": 38.9588985, "bike_id": "ab43ff44c961bcdcdc53dc160c326047", "type": "electric_scooter", "is_reserved": 0, "lon": -77.027799}, {"fusion_lat": 0.0, "name": "20924f6e8ac56d8f20fbbb231f8341da", "is_disabled": 0, "rental_uris": {"android": "https://dc.lft.to/lastmile_qr_scan", "ios": "https://dc.lft.to/lastmile_qr_scan"}, "fusion_lon": 0.0, "lat": 38.90902633333334, "bike_id": "20924f6e8ac56d8f20fbbb231f8341da", "type": "electric_scooter", "is_reserved": 0, "lon": -77.04474366666666}, {"fusion_lat": 0.0, "name": "b13d79ebf139b014df162e0cab5175a6", "is_disabled": 0, "rental_uris": {"android": "https://dc.lft.to/lastmile_qr_scan", "ios": "https://dc.lft.to/lastmile_qr_scan"}, "fusion_lon": 0.0, "lat": 38.903811833333336, "bike_id": "b13d79ebf139b014df162e0cab5175a6", "type": "electric_scooter", "is_reserved": 0, "lon": -77.06717866666666}, {"fusion_lat": 0.0, "name": "77095bec5d424a386881a5d3c60e861d", "is_disabled": 0, "rental_uris": {"android": "https://dc.lft.to/lastmile_qr_scan", "ios": "https://dc.lft.to/lastmile_qr_scan"}, "fusion_lon": 0.0, "lat": 38.883863166666664, "bike_id": "77095bec5d424a386881a5d3c60e861d", "type": "electric_scooter", "is_reserved": 0, "lon": -76.93053183333333}, {"fusion_lat": 0.0, "name": "6627d609ac21f4c403862733764aed51", "is_disabled": 0, "rental_uris": {"android": "https://dc.lft.to/lastmile_qr_scan", "ios": "https://dc.lft.to/lastmile_qr_scan"}, "fusion_lon": 0.0, "lat": 38.91528183333333, "bike_id": "6627d609ac21f4c403862733764aed51", "type": "electric_scooter", "is_reserved": 0, "lon": -77.0317845}, {"fusion_lat": 0.0, "name": "c5c821962aaa65392c92865c65f0b79c", "is_disabled": 0, "rental_uris": {"android": "https://dc.lft.to/lastmile_qr_scan", "ios": "https://dc.lft.to/lastmile_qr_scan"}, "fusion_lon": 0.0, "lat": 38.89830833333333, "bike_id": "c5c821962aaa65392c92865c65f0b79c", "type": "electric_scooter", "is_reserved": 0, "lon": -77.02969533333334}, {"fusion_lat": 0.0, "name": "4aee7f67b95c95c56b9e12b67966dc18", "is_disabled": 0, "rental_uris": {"android": "https://dc.lft.to/lastmile_qr_scan", "ios": "https://dc.lft.to/lastmile_qr_scan"}, "fusion_lon": 0.0, "lat": 38.90423166666667, "bike_id": "4aee7f67b95c95c56b9e12b67966dc18", "type": "electric_scooter", "is_reserved": 0, "lon": -77.05337516666667}, {"fusion_lat": 0.0, "name": "364f90205de86dc94f68954558532f0b", "is_disabled": 0, "rental_uris": {"android": "https://dc.lft.to/lastmile_qr_scan", "ios": "https://dc.lft.to/lastmile_qr_scan"}, "fusion_lon": 0.0, "lat": 38.9149185, "bike_id": "364f90205de86dc94f68954558532f0b", "type": "electric_scooter", "is_reserved": 0, "lon": -77.04532416666666}, {"fusion_lat": 0.0, "name": "85af6e2f080b8275503503c1bf4db615", "is_disabled": 0, "rental_uris": {"android": "https://dc.lft.to/lastmile_qr_scan", "ios": "https://dc.lft.to/lastmile_qr_scan"}, "fusion_lon": 0.0, "lat": 38.888742, "bike_id": "85af6e2f080b8275503503c1bf4db615", "type": "electric_scooter", "is_reserved": 0, "lon": -76.98453966666666}, {"fusion_lat": 0.0, "name": "d1b445c18560bc5f8686b206c89077a8", "is_disabled": 0, "rental_uris": {"android": "https://dc.lft.to/lastmile_qr_scan", "ios": "https://dc.lft.to/lastmile_qr_scan"}, "fusion_lon": 0.0, "lat": 38.87915816666667, "bike_id": "d1b445c18560bc5f8686b206c89077a8", "type": "electric_scooter", "is_reserved": 0, "lon": -76.99510066666667}, {"fusion_lat": 0.0, "name": "0ffcf679cf2b6e8ca1ae0da5061c79b1", "is_disabled": 0, "rental_uris": {"android": "https://dc.lft.to/lastmile_qr_scan", "ios": "https://dc.lft.to/lastmile_qr_scan"}, "fusion_lon": 0.0, "lat": 38.910383, "bike_id": "0ffcf679cf2b6e8ca1ae0da5061c79b1", "type": "electric_scooter", "is_reserved": 0, "lon": -77.00831616666666}, {"fusion_lat": 0.0, "name": "bb83aa67856395781879088d6cfff018", "is_disabled": 0, "rental_uris": {"android": "https://dc.lft.to/lastmile_qr_scan", "ios": "https://dc.lft.to/lastmile_qr_scan"}, "fusion_lon": 0.0, "lat": 38.9018175, "bike_id": "bb83aa67856395781879088d6cfff018", "type": "electric_scooter", "is_reserved": 0, "lon": -76.92899733333333}, {"fusion_lat": 0.0, "name": "dd7ba0bc1725e21da780cfc2bc03ad64", "is_disabled": 0, "rental_uris": {"android": "https://dc.lft.to/lastmile_qr_scan", "ios": "https://dc.lft.to/lastmile_qr_scan"}, "fusion_lon": 0.0, "lat": 38.9179385, "bike_id": "dd7ba0bc1725e21da780cfc2bc03ad64", "type": "electric_scooter", "is_reserved": 0, "lon": -77.032069}, {"fusion_lat": 0.0, "name": "a4336dbf03d220fada7429c584498221", "is_disabled": 0, "rental_uris": {"android": "https://dc.lft.to/lastmile_qr_scan", "ios": "https://dc.lft.to/lastmile_qr_scan"}, "fusion_lon": 0.0, "lat": 38.880156166666666, "bike_id": "a4336dbf03d220fada7429c584498221", "type": "electric_scooter", "is_reserved": 0, "lon": -76.931098}, {"fusion_lat": 0.0, "name": "3de1c3faef0c8f65a3ef4772bb88944c", "is_disabled": 0, "rental_uris": {"android": "https://dc.lft.to/lastmile_qr_scan", "ios": "https://dc.lft.to/lastmile_qr_scan"}, "fusion_lon": 0.0, "lat": 38.887412833333336, "bike_id": "3de1c3faef0c8f65a3ef4772bb88944c", "type": "electric_scooter", "is_reserved": 0, "lon": -76.99625466666667}, {"fusion_lat": 0.0, "name": "0cfb84bf671bf6c729d05baeb35783b2", "is_disabled": 0, "rental_uris": {"android": "https://dc.lft.to/lastmile_qr_scan", "ios": "https://dc.lft.to/lastmile_qr_scan"}, "fusion_lon": 0.0, "lat": 38.855094333333334, "bike_id": "0cfb84bf671bf6c729d05baeb35783b2", "type": "electric_bike", "is_reserved": 0, "lon": -77.10537533333333}, {"fusion_lat": 0.0, "name": "95867206be9d0dbcd9f54859acd3062d", "is_disabled": 0, "rental_uris": {"android": "https://dc.lft.to/lastmile_qr_scan", "ios": "https://dc.lft.to/lastmile_qr_scan"}, "fusion_lon": 0.0, "lat": 38.9031575, "bike_id": "95867206be9d0dbcd9f54859acd3062d", "type": "electric_scooter", "is_reserved": 0, "lon": -76.97802283333333}, {"fusion_lat": 0.0, "name": "ae27c39f20a0dea38c137177a24169dd", "is_disabled": 0, "rental_uris": {"android": "https://dc.lft.to/lastmile_qr_scan", "ios": "https://dc.lft.to/lastmile_qr_scan"}, "fusion_lon": 0.0, "lat": 38.911372666666665, "bike_id": "ae27c39f20a0dea38c137177a24169dd", "type": "electric_scooter", "is_reserved": 0, "lon": -76.9881335}, {"fusion_lat": 0.0, "name": "01154d0dcf5cbadfe95b0937ce69b445", "is_disabled": 0, "rental_uris": {"android": "https://dc.lft.to/lastmile_qr_scan", "ios": "https://dc.lft.to/lastmile_qr_scan"}, "fusion_lon": 0.0, "lat": 38.9202185, "bike_id": "01154d0dcf5cbadfe95b0937ce69b445", "type": "electric_scooter", "is_reserved": 0, "lon": -76.99560783333334}, {"fusion_lat": 0.0, "name": "0ce1283cbc34eaae9fd73ff3246103c9", "is_disabled": 0, "rental_uris": {"android": "https://dc.lft.to/lastmile_qr_scan", "ios": "https://dc.lft.to/lastmile_qr_scan"}, "fusion_lon": 0.0, "lat": 38.900265166666664, "bike_id": "0ce1283cbc34eaae9fd73ff3246103c9", "type": "electric_scooter", "is_reserved": 0, "lon": -77.0347595}, {"fusion_lat": 0.0, "name": "452d9a7c8f14f1ba1543d6dd00e3356b", "is_disabled": 0, "rental_uris": {"android": "https://dc.lft.to/lastmile_qr_scan", "ios": "https://dc.lft.to/lastmile_qr_scan"}, "fusion_lon": 0.0, "lat": 38.9146385, "bike_id": "452d9a7c8f14f1ba1543d6dd00e3356b", "type": "electric_scooter", "is_reserved": 0, "lon": -77.04994933333333}, {"fusion_lat": 0.0, "name": "8a3467546efec4d9ab75b61a1e8b1595", "is_disabled": 0, "rental_uris": {"android": "https://dc.lft.to/lastmile_qr_scan", "ios": "https://dc.lft.to/lastmile_qr_scan"}, "fusion_lon": 0.0, "lat": 38.9088435, "bike_id": "8a3467546efec4d9ab75b61a1e8b1595", "type": "electric_scooter", "is_reserved": 0, "lon": -77.06424333333334}, {"fusion_lat": 0.0, "name": "092af5b201a135b6fe79e18cf31af9cf", "is_disabled": 0, "rental_uris": {"android": "https://dc.lft.to/lastmile_qr_scan", "ios": "https://dc.lft.to/lastmile_qr_scan"}, "fusion_lon": 0.0, "lat": 38.943768, "bike_id": "092af5b201a135b6fe79e18cf31af9cf", "type": "electric_scooter", "is_reserved": 0, "lon": -77.06348783333334}, {"fusion_lat": 0.0, "name": "17eff23b5211dddcc7106c47b5f38778", "is_disabled": 0, "rental_uris": {"android": "https://dc.lft.to/lastmile_qr_scan", "ios": "https://dc.lft.to/lastmile_qr_scan"}, "fusion_lon": 0.0, "lat": 38.900256166666665, "bike_id": "17eff23b5211dddcc7106c47b5f38778", "type": "electric_scooter", "is_reserved": 0, "lon": -77.001771}, {"fusion_lat": 0.0, "name": "16ca43bb515f9e06d05728e8d18f36a2", "is_disabled": 0, "rental_uris": {"android": "https://dc.lft.to/lastmile_qr_scan", "ios": "https://dc.lft.to/lastmile_qr_scan"}, "fusion_lon": 0.0, "lat": 38.917995833333336, "bike_id": "16ca43bb515f9e06d05728e8d18f36a2", "type": "electric_scooter", "is_reserved": 0, "lon": -77.03661}, {"fusion_lat": 0.0, "name": "731cccc3674fb21094747fe1f35378c3", "is_disabled": 0, "rental_uris": {"android": "https://dc.lft.to/lastmile_qr_scan", "ios": "https://dc.lft.to/lastmile_qr_scan"}, "fusion_lon": 0.0, "lat": 38.8784575, "bike_id": "731cccc3674fb21094747fe1f35378c3", "type": "electric_bike", "is_reserved": 0, "lon": -77.0301965}, {"fusion_lat": 0.0, "name": "218403ba24725d95571f2a8a78feeb99", "is_disabled": 0, "rental_uris": {"android": "https://dc.lft.to/lastmile_qr_scan", "ios": "https://dc.lft.to/lastmile_qr_scan"}, "fusion_lon": 0.0, "lat": 38.93672133333333, "bike_id": "218403ba24725d95571f2a8a78feeb99", "type": "electric_scooter", "is_reserved": 0, "lon": -77.035952}, {"fusion_lat": 0.0, "name": "955948cb95114a98528d6a7b6681e2c4", "is_disabled": 0, "rental_uris": {"android": "https://dc.lft.to/lastmile_qr_scan", "ios": "https://dc.lft.to/lastmile_qr_scan"}, "fusion_lon": 0.0, "lat": 38.90028816666667, "bike_id": "955948cb95114a98528d6a7b6681e2c4", "type": "electric_scooter", "is_reserved": 0, "lon": -77.0019965}, {"fusion_lat": 0.0, "name": "6222354a98efbc03f7636cdac648dd12", "is_disabled": 0, "rental_uris": {"android": "https://dc.lft.to/lastmile_qr_scan", "ios": "https://dc.lft.to/lastmile_qr_scan"}, "fusion_lon": 0.0, "lat": 38.903851333333336, "bike_id": "6222354a98efbc03f7636cdac648dd12", "type": "electric_scooter", "is_reserved": 0, "lon": -77.04603666666667}, {"fusion_lat": 0.0, "name": "392eaa9738d9805a869e5768e1976ba3", "is_disabled": 0, "rental_uris": {"android": "https://dc.lft.to/lastmile_qr_scan", "ios": "https://dc.lft.to/lastmile_qr_scan"}, "fusion_lon": 0.0, "lat": 38.9211595, "bike_id": "392eaa9738d9805a869e5768e1976ba3", "type": "electric_scooter", "is_reserved": 0, "lon": -77.01211}, {"fusion_lat": 0.0, "name": "bb880272b32a2566d9a69572ab626abc", "is_disabled": 0, "rental_uris": {"android": "https://dc.lft.to/lastmile_qr_scan", "ios": "https://dc.lft.to/lastmile_qr_scan"}, "fusion_lon": 0.0, "lat": 38.92744483333333, "bike_id": "bb880272b32a2566d9a69572ab626abc", "type": "electric_scooter", "is_reserved": 0, "lon": -77.02162566666667}, {"fusion_lat": 0.0, "name": "4e2d97def64ca25b3992ce0918d85a17", "is_disabled": 0, "rental_uris": {"android": "https://dc.lft.to/lastmile_qr_scan", "ios": "https://dc.lft.to/lastmile_qr_scan"}, "fusion_lon": 0.0, "lat": 38.908608, "bike_id": "4e2d97def64ca25b3992ce0918d85a17", "type": "electric_scooter", "is_reserved": 0, "lon": -77.02437933333333}, {"fusion_lat": 0.0, "name": "12b69d30d5a0561006cb0d298aa27e01", "is_disabled": 0, "rental_uris": {"android": "https://dc.lft.to/lastmile_qr_scan", "ios": "https://dc.lft.to/lastmile_qr_scan"}, "fusion_lon": 0.0, "lat": 38.876674333333334, "bike_id": "12b69d30d5a0561006cb0d298aa27e01", "type": "electric_scooter", "is_reserved": 0, "lon": -77.01760483333334}, {"fusion_lat": 0.0, "name": "bdf00a56a62668d6c77ac5b3f1b22ffa", "is_disabled": 0, "rental_uris": {"android": "https://dc.lft.to/lastmile_qr_scan", "ios": "https://dc.lft.to/lastmile_qr_scan"}, "fusion_lon": 0.0, "lat": 38.90758616666667, "bike_id": "bdf00a56a62668d6c77ac5b3f1b22ffa", "type": "electric_scooter", "is_reserved": 0, "lon": -77.03212333333333}, {"fusion_lat": 0.0, "name": "48d8e4314ff448131ec800dfeb9cafb3", "is_disabled": 0, "rental_uris": {"android": "https://dc.lft.to/lastmile_qr_scan", "ios": "https://dc.lft.to/lastmile_qr_scan"}, "fusion_lon": 0.0, "lat": 38.91951233333333, "bike_id": "48d8e4314ff448131ec800dfeb9cafb3", "type": "electric_scooter", "is_reserved": 0, "lon": -77.017765}, {"fusion_lat": 0.0, "name": "2974ca21605ab47a4367cf29ec8f123f", "is_disabled": 0, "rental_uris": {"android": "https://dc.lft.to/lastmile_qr_scan", "ios": "https://dc.lft.to/lastmile_qr_scan"}, "fusion_lon": 0.0, "lat": 38.8405345, "bike_id": "2974ca21605ab47a4367cf29ec8f123f", "type": "electric_scooter", "is_reserved": 0, "lon": -76.97668616666667}, {"fusion_lat": 0.0, "name": "ada2ce30bdab3f6df961fe37426be68e", "is_disabled": 0, "rental_uris": {"android": "https://dc.lft.to/lastmile_qr_scan", "ios": "https://dc.lft.to/lastmile_qr_scan"}, "fusion_lon": 0.0, "lat": 38.89728983333333, "bike_id": "ada2ce30bdab3f6df961fe37426be68e", "type": "electric_scooter", "is_reserved": 0, "lon": -76.94699866666667}, {"fusion_lat": 0.0, "name": "d3b16aac848385f26aec38aafe08fe56", "is_disabled": 0, "rental_uris": {"android": "https://dc.lft.to/lastmile_qr_scan", "ios": "https://dc.lft.to/lastmile_qr_scan"}, "fusion_lon": 0.0, "lat": 38.9037425, "bike_id": "d3b16aac848385f26aec38aafe08fe56", "type": "electric_scooter", "is_reserved": 0, "lon": -77.03442883333334}, {"fusion_lat": 0.0, "name": "94a989fb21e6e3fb6ceb3d2b8a6296db", "is_disabled": 0, "rental_uris": {"android": "https://dc.lft.to/lastmile_qr_scan", "ios": "https://dc.lft.to/lastmile_qr_scan"}, "fusion_lon": 0.0, "lat": 38.9021935, "bike_id": "94a989fb21e6e3fb6ceb3d2b8a6296db", "type": "electric_scooter", "is_reserved": 0, "lon": -77.02362716666667}, {"fusion_lat": 0.0, "name": "3f65866f561469a2a7489e353e7f3b33", "is_disabled": 0, "rental_uris": {"android": "https://dc.lft.to/lastmile_qr_scan", "ios": "https://dc.lft.to/lastmile_qr_scan"}, "fusion_lon": 0.0, "lat": 38.9044895, "bike_id": "3f65866f561469a2a7489e353e7f3b33", "type": "electric_bike", "is_reserved": 0, "lon": -76.97426083333333}, {"fusion_lat": 0.0, "name": "026a03199c0ae7c136b7379407708728", "is_disabled": 0, "rental_uris": {"android": "https://dc.lft.to/lastmile_qr_scan", "ios": "https://dc.lft.to/lastmile_qr_scan"}, "fusion_lon": 0.0, "lat": 38.85562016666667, "bike_id": "026a03199c0ae7c136b7379407708728", "type": "electric_bike", "is_reserved": 0, "lon": -77.113172}, {"fusion_lat": 0.0, "name": "47712cb311fdf85adaac0d8907da1c52", "is_disabled": 0, "rental_uris": {"android": "https://dc.lft.to/lastmile_qr_scan", "ios": "https://dc.lft.to/lastmile_qr_scan"}, "fusion_lon": 0.0, "lat": 38.905554, "bike_id": "47712cb311fdf85adaac0d8907da1c52", "type": "electric_scooter", "is_reserved": 0, "lon": -77.0436315}, {"fusion_lat": 0.0, "name": "c59a12c586720a3fc6bf7643769a379f", "is_disabled": 0, "rental_uris": {"android": "https://dc.lft.to/lastmile_qr_scan", "ios": "https://dc.lft.to/lastmile_qr_scan"}, "fusion_lon": 0.0, "lat": 38.89848666666666, "bike_id": "c59a12c586720a3fc6bf7643769a379f", "type": "electric_scooter", "is_reserved": 0, "lon": -76.93183683333334}, {"fusion_lat": 0.0, "name": "09817753a238722aa6f7e126a1dd178b", "is_disabled": 0, "rental_uris": {"android": "https://dc.lft.to/lastmile_qr_scan", "ios": "https://dc.lft.to/lastmile_qr_scan"}, "fusion_lon": 0.0, "lat": 38.911239, "bike_id": "09817753a238722aa6f7e126a1dd178b", "type": "electric_scooter", "is_reserved": 0, "lon": -77.02201233333334}, {"fusion_lat": 0.0, "name": "59beaa0c606ae6d4f24903cf8242e489", "is_disabled": 0, "rental_uris": {"android": "https://dc.lft.to/lastmile_qr_scan", "ios": "https://dc.lft.to/lastmile_qr_scan"}, "fusion_lon": 0.0, "lat": 38.911553833333336, "bike_id": "59beaa0c606ae6d4f24903cf8242e489", "type": "electric_bike", "is_reserved": 0, "lon": -77.0025575}, {"fusion_lat": 0.0, "name": "0b5107894166c2e92d81d0f0891fc21e", "is_disabled": 0, "rental_uris": {"android": "https://dc.lft.to/lastmile_qr_scan", "ios": "https://dc.lft.to/lastmile_qr_scan"}, "fusion_lon": 0.0, "lat": 38.89674083333333, "bike_id": "0b5107894166c2e92d81d0f0891fc21e", "type": "electric_bike", "is_reserved": 0, "lon": -76.98690266666667}, {"fusion_lat": 0.0, "name": "2a3b06b1add1b7e9f75deec186c4696a", "is_disabled": 0, "rental_uris": {"android": "https://dc.lft.to/lastmile_qr_scan", "ios": "https://dc.lft.to/lastmile_qr_scan"}, "fusion_lon": 0.0, "lat": 38.885742666666665, "bike_id": "2a3b06b1add1b7e9f75deec186c4696a", "type": "electric_scooter", "is_reserved": 0, "lon": -77.0121325}, {"fusion_lat": 0.0, "name": "775f645cd7e15ca9e2bc9bfb3034ab35", "is_disabled": 0, "rental_uris": {"android": "https://dc.lft.to/lastmile_qr_scan", "ios": "https://dc.lft.to/lastmile_qr_scan"}, "fusion_lon": 0.0, "lat": 38.90975916666667, "bike_id": "775f645cd7e15ca9e2bc9bfb3034ab35", "type": "electric_scooter", "is_reserved": 0, "lon": -77.04873716666667}, {"fusion_lat": 0.0, "name": "f7530afe9e370eb0293fbf0616adc45d", "is_disabled": 0, "rental_uris": {"android": "https://dc.lft.to/lastmile_qr_scan", "ios": "https://dc.lft.to/lastmile_qr_scan"}, "fusion_lon": 0.0, "lat": 38.90605983333333, "bike_id": "f7530afe9e370eb0293fbf0616adc45d", "type": "electric_scooter", "is_reserved": 0, "lon": -77.0648035}, {"fusion_lat": 0.0, "name": "5efc019df7f8e7246ac99d370175529f", "is_disabled": 0, "rental_uris": {"android": "https://dc.lft.to/lastmile_qr_scan", "ios": "https://dc.lft.to/lastmile_qr_scan"}, "fusion_lon": 0.0, "lat": 38.92251066666667, "bike_id": "5efc019df7f8e7246ac99d370175529f", "type": "electric_scooter", "is_reserved": 0, "lon": -77.03890033333333}, {"fusion_lat": 0.0, "name": "7b0ec7c2e0c0ec75b0de948aa0c217b5", "is_disabled": 0, "rental_uris": {"android": "https://dc.lft.to/lastmile_qr_scan", "ios": "https://dc.lft.to/lastmile_qr_scan"}, "fusion_lon": 0.0, "lat": 38.7985175, "bike_id": "7b0ec7c2e0c0ec75b0de948aa0c217b5", "type": "electric_bike", "is_reserved": 0, "lon": -77.06309183333333}, {"fusion_lat": 0.0, "name": "fbe7de0668e93e6072ee1cd906098415", "is_disabled": 0, "rental_uris": {"android": "https://dc.lft.to/lastmile_qr_scan", "ios": "https://dc.lft.to/lastmile_qr_scan"}, "fusion_lon": 0.0, "lat": 38.898553, "bike_id": "fbe7de0668e93e6072ee1cd906098415", "type": "electric_scooter", "is_reserved": 0, "lon": -76.97664683333333}, {"fusion_lat": 0.0, "name": "647136191f87ac5be5070005230ec5e4", "is_disabled": 0, "rental_uris": {"android": "https://dc.lft.to/lastmile_qr_scan", "ios": "https://dc.lft.to/lastmile_qr_scan"}, "fusion_lon": 0.0, "lat": 38.912478166666666, "bike_id": "647136191f87ac5be5070005230ec5e4", "type": "electric_scooter", "is_reserved": 0, "lon": -77.0199935}, {"fusion_lat": 0.0, "name": "4300b60e71ed6ff0e6a7f36ae5d3f75c", "is_disabled": 0, "rental_uris": {"android": "https://dc.lft.to/lastmile_qr_scan", "ios": "https://dc.lft.to/lastmile_qr_scan"}, "fusion_lon": 0.0, "lat": 38.881925333333335, "bike_id": "4300b60e71ed6ff0e6a7f36ae5d3f75c", "type": "electric_scooter", "is_reserved": 0, "lon": -77.02861983333334}, {"fusion_lat": 0.0, "name": "3090b29a7a52851482de19ae1a97fc1f", "is_disabled": 0, "rental_uris": {"android": "https://dc.lft.to/lastmile_qr_scan", "ios": "https://dc.lft.to/lastmile_qr_scan"}, "fusion_lon": 0.0, "lat": 38.890878, "bike_id": "3090b29a7a52851482de19ae1a97fc1f", "type": "electric_scooter", "is_reserved": 0, "lon": -76.91926050000001}, {"fusion_lat": 0.0, "name": "8dc0566a5c76ac6a414c05efd2854b2d", "is_disabled": 0, "rental_uris": {"android": "https://dc.lft.to/lastmile_qr_scan", "ios": "https://dc.lft.to/lastmile_qr_scan"}, "fusion_lon": 0.0, "lat": 38.93811983333333, "bike_id": "8dc0566a5c76ac6a414c05efd2854b2d", "type": "electric_scooter", "is_reserved": 0, "lon": -76.99693066666667}, {"fusion_lat": 0.0, "name": "b4494a1f87eb09633cc877629bf7e739", "is_disabled": 0, "rental_uris": {"android": "https://dc.lft.to/lastmile_qr_scan", "ios": "https://dc.lft.to/lastmile_qr_scan"}, "fusion_lon": 0.0, "lat": 38.94430416666667, "bike_id": "b4494a1f87eb09633cc877629bf7e739", "type": "electric_bike", "is_reserved": 0, "lon": -77.02601616666666}, {"fusion_lat": 0.0, "name": "afac78a182939d6499257962eed7dd3e", "is_disabled": 0, "rental_uris": {"android": "https://dc.lft.to/lastmile_qr_scan", "ios": "https://dc.lft.to/lastmile_qr_scan"}, "fusion_lon": 0.0, "lat": 38.93230766666667, "bike_id": "afac78a182939d6499257962eed7dd3e", "type": "electric_scooter", "is_reserved": 0, "lon": -77.0342905}, {"fusion_lat": 0.0, "name": "57a69dc5eb8044de7fc99047458785aa", "is_disabled": 0, "rental_uris": {"android": "https://dc.lft.to/lastmile_qr_scan", "ios": "https://dc.lft.to/lastmile_qr_scan"}, "fusion_lon": 0.0, "lat": 38.91406416666667, "bike_id": "57a69dc5eb8044de7fc99047458785aa", "type": "electric_scooter", "is_reserved": 0, "lon": -77.03226266666667}, {"fusion_lat": 0.0, "name": "9eef653ea22061e21b4d94bf32cc07fb", "is_disabled": 0, "rental_uris": {"android": "https://dc.lft.to/lastmile_qr_scan", "ios": "https://dc.lft.to/lastmile_qr_scan"}, "fusion_lon": 0.0, "lat": 38.8990485, "bike_id": "9eef653ea22061e21b4d94bf32cc07fb", "type": "electric_scooter", "is_reserved": 0, "lon": -76.93351066666666}, {"fusion_lat": 0.0, "name": "4391d1794d26c1f9af46194d383db88a", "is_disabled": 0, "rental_uris": {"android": "https://dc.lft.to/lastmile_qr_scan", "ios": "https://dc.lft.to/lastmile_qr_scan"}, "fusion_lon": 0.0, "lat": 38.90733616666667, "bike_id": "4391d1794d26c1f9af46194d383db88a", "type": "electric_scooter", "is_reserved": 0, "lon": -77.06330766666666}, {"fusion_lat": 0.0, "name": "a71387a96ec9d32c048654581f7cdd26", "is_disabled": 0, "rental_uris": {"android": "https://dc.lft.to/lastmile_qr_scan", "ios": "https://dc.lft.to/lastmile_qr_scan"}, "fusion_lon": 0.0, "lat": 38.794664, "bike_id": "a71387a96ec9d32c048654581f7cdd26", "type": "electric_bike", "is_reserved": 0, "lon": -76.99245033333334}, {"fusion_lat": 0.0, "name": "39f39aee556178ffb80a7f4f600bb6bc", "is_disabled": 0, "rental_uris": {"android": "https://dc.lft.to/lastmile_qr_scan", "ios": "https://dc.lft.to/lastmile_qr_scan"}, "fusion_lon": 0.0, "lat": 38.919008166666664, "bike_id": "39f39aee556178ffb80a7f4f600bb6bc", "type": "electric_scooter", "is_reserved": 0, "lon": -77.02756816666667}, {"fusion_lat": 0.0, "name": "45733bc355681ec74eee910d4966b5e6", "is_disabled": 0, "rental_uris": {"android": "https://dc.lft.to/lastmile_qr_scan", "ios": "https://dc.lft.to/lastmile_qr_scan"}, "fusion_lon": 0.0, "lat": 38.93504216666667, "bike_id": "45733bc355681ec74eee910d4966b5e6", "type": "electric_scooter", "is_reserved": 0, "lon": -77.024058}, {"fusion_lat": 0.0, "name": "50461cdf515d745dea57a36ba1eceec7", "is_disabled": 0, "rental_uris": {"android": "https://dc.lft.to/lastmile_qr_scan", "ios": "https://dc.lft.to/lastmile_qr_scan"}, "fusion_lon": 0.0, "lat": 38.90033016666667, "bike_id": "50461cdf515d745dea57a36ba1eceec7", "type": "electric_scooter", "is_reserved": 0, "lon": -77.05821866666666}, {"fusion_lat": 0.0, "name": "978b98a33a8befaeaaf7575222b40721", "is_disabled": 0, "rental_uris": {"android": "https://dc.lft.to/lastmile_qr_scan", "ios": "https://dc.lft.to/lastmile_qr_scan"}, "fusion_lon": 0.0, "lat": 38.904091666666666, "bike_id": "978b98a33a8befaeaaf7575222b40721", "type": "electric_scooter", "is_reserved": 0, "lon": -76.99360683333333}, {"fusion_lat": 0.0, "name": "6a929134b28636b34a24b46f665f39c6", "is_disabled": 0, "rental_uris": {"android": "https://dc.lft.to/lastmile_qr_scan", "ios": "https://dc.lft.to/lastmile_qr_scan"}, "fusion_lon": 0.0, "lat": 38.9241735, "bike_id": "6a929134b28636b34a24b46f665f39c6", "type": "electric_scooter", "is_reserved": 0, "lon": -77.02332533333333}, {"fusion_lat": 0.0, "name": "0b47805144f3a3e30fb141ee7a019fce", "is_disabled": 0, "rental_uris": {"android": "https://dc.lft.to/lastmile_qr_scan", "ios": "https://dc.lft.to/lastmile_qr_scan"}, "fusion_lon": 0.0, "lat": 38.902676666666665, "bike_id": "0b47805144f3a3e30fb141ee7a019fce", "type": "electric_bike", "is_reserved": 0, "lon": -77.06162133333333}, {"fusion_lat": 0.0, "name": "a55cf3a3388dd2d759bdc55e64529cad", "is_disabled": 0, "rental_uris": {"android": "https://dc.lft.to/lastmile_qr_scan", "ios": "https://dc.lft.to/lastmile_qr_scan"}, "fusion_lon": 0.0, "lat": 38.90327, "bike_id": "a55cf3a3388dd2d759bdc55e64529cad", "type": "electric_scooter", "is_reserved": 0, "lon": -77.03459383333333}, {"fusion_lat": 0.0, "name": "36c1b29a90784f4037144641f8b5477e", "is_disabled": 0, "rental_uris": {"android": "https://dc.lft.to/lastmile_qr_scan", "ios": "https://dc.lft.to/lastmile_qr_scan"}, "fusion_lon": 0.0, "lat": 38.9004525, "bike_id": "36c1b29a90784f4037144641f8b5477e", "type": "electric_scooter", "is_reserved": 0, "lon": -77.0560875}, {"fusion_lat": 0.0, "name": "876c962e8a7d6c5cfd62bb246c669786", "is_disabled": 0, "rental_uris": {"android": "https://dc.lft.to/lastmile_qr_scan", "ios": "https://dc.lft.to/lastmile_qr_scan"}, "fusion_lon": 0.0, "lat": 38.91764383333334, "bike_id": "876c962e8a7d6c5cfd62bb246c669786", "type": "electric_scooter", "is_reserved": 0, "lon": -77.03636716666666}, {"fusion_lat": 0.0, "name": "d4f2114e1867065f6bbb5e92045167fb", "is_disabled": 0, "rental_uris": {"android": "https://dc.lft.to/lastmile_qr_scan", "ios": "https://dc.lft.to/lastmile_qr_scan"}, "fusion_lon": 0.0, "lat": 38.919615666666665, "bike_id": "d4f2114e1867065f6bbb5e92045167fb", "type": "electric_scooter", "is_reserved": 0, "lon": -77.07087966666667}, {"fusion_lat": 0.0, "name": "4d5e0294c891fa471a0800a71e8aa85c", "is_disabled": 0, "rental_uris": {"android": "https://dc.lft.to/lastmile_qr_scan", "ios": "https://dc.lft.to/lastmile_qr_scan"}, "fusion_lon": 0.0, "lat": 38.92789, "bike_id": "4d5e0294c891fa471a0800a71e8aa85c", "type": "electric_scooter", "is_reserved": 0, "lon": -77.03215766666666}, {"fusion_lat": 0.0, "name": "2e5a381063dc482c2de486741e2f53ae", "is_disabled": 0, "rental_uris": {"android": "https://dc.lft.to/lastmile_qr_scan", "ios": "https://dc.lft.to/lastmile_qr_scan"}, "fusion_lon": 0.0, "lat": 38.904531666666664, "bike_id": "2e5a381063dc482c2de486741e2f53ae", "type": "electric_scooter", "is_reserved": 0, "lon": -77.032169}, {"fusion_lat": 0.0, "name": "7c2eed7aaf6d63b591da47fb400db358", "is_disabled": 0, "rental_uris": {"android": "https://dc.lft.to/lastmile_qr_scan", "ios": "https://dc.lft.to/lastmile_qr_scan"}, "fusion_lon": 0.0, "lat": 38.89282466666667, "bike_id": "7c2eed7aaf6d63b591da47fb400db358", "type": "electric_scooter", "is_reserved": 0, "lon": -76.98306133333334}, {"fusion_lat": 0.0, "name": "6549e4ea69674fdedb79a0e202d4d96b", "is_disabled": 0, "rental_uris": {"android": "https://dc.lft.to/lastmile_qr_scan", "ios": "https://dc.lft.to/lastmile_qr_scan"}, "fusion_lon": 0.0, "lat": 38.804919, "bike_id": "6549e4ea69674fdedb79a0e202d4d96b", "type": "electric_bike", "is_reserved": 0, "lon": -77.10163133333333}, {"fusion_lat": 0.0, "name": "2f0ac78d979cc3e968964a05ec3d5be9", "is_disabled": 0, "rental_uris": {"android": "https://dc.lft.to/lastmile_qr_scan", "ios": "https://dc.lft.to/lastmile_qr_scan"}, "fusion_lon": 0.0, "lat": 38.9489525, "bike_id": "2f0ac78d979cc3e968964a05ec3d5be9", "type": "electric_bike", "is_reserved": 0, "lon": -76.9637345}, {"fusion_lat": 0.0, "name": "960466c1a4e58f95572e1177a5dba10c", "is_disabled": 0, "rental_uris": {"android": "https://dc.lft.to/lastmile_qr_scan", "ios": "https://dc.lft.to/lastmile_qr_scan"}, "fusion_lon": 0.0, "lat": 38.92069, "bike_id": "960466c1a4e58f95572e1177a5dba10c", "type": "electric_scooter", "is_reserved": 0, "lon": -77.00213133333334}, {"fusion_lat": 0.0, "name": "bf62cb46cdeb621b67d7f02e16e25643", "is_disabled": 0, "rental_uris": {"android": "https://dc.lft.to/lastmile_qr_scan", "ios": "https://dc.lft.to/lastmile_qr_scan"}, "fusion_lon": 0.0, "lat": 38.908798833333336, "bike_id": "bf62cb46cdeb621b67d7f02e16e25643", "type": "electric_scooter", "is_reserved": 0, "lon": -77.03273983333334}, {"fusion_lat": 0.0, "name": "745aef55523f53d1551038bf9f4adb4e", "is_disabled": 0, "rental_uris": {"android": "https://dc.lft.to/lastmile_qr_scan", "ios": "https://dc.lft.to/lastmile_qr_scan"}, "fusion_lon": 0.0, "lat": 38.908187, "bike_id": "745aef55523f53d1551038bf9f4adb4e", "type": "electric_scooter", "is_reserved": 0, "lon": -76.99989883333333}, {"fusion_lat": 0.0, "name": "b097aea18ab117bc2d1b6961a0bf76ef", "is_disabled": 0, "rental_uris": {"android": "https://dc.lft.to/lastmile_qr_scan", "ios": "https://dc.lft.to/lastmile_qr_scan"}, "fusion_lon": 0.0, "lat": 38.929722, "bike_id": "b097aea18ab117bc2d1b6961a0bf76ef", "type": "electric_scooter", "is_reserved": 0, "lon": -77.027933}, {"fusion_lat": 0.0, "name": "22b9685c6115098fb99bfef29ef91018", "is_disabled": 0, "rental_uris": {"android": "https://dc.lft.to/lastmile_qr_scan", "ios": "https://dc.lft.to/lastmile_qr_scan"}, "fusion_lon": 0.0, "lat": 38.8616675, "bike_id": "22b9685c6115098fb99bfef29ef91018", "type": "electric_scooter", "is_reserved": 0, "lon": -76.9836535}, {"fusion_lat": 0.0, "name": "5c78923415833f76134eb7e45a69a1fa", "is_disabled": 0, "rental_uris": {"android": "https://dc.lft.to/lastmile_qr_scan", "ios": "https://dc.lft.to/lastmile_qr_scan"}, "fusion_lon": 0.0, "lat": 38.9072505, "bike_id": "5c78923415833f76134eb7e45a69a1fa", "type": "electric_scooter", "is_reserved": 0, "lon": -77.04542266666667}, {"fusion_lat": 0.0, "name": "d8e79d1c793a67f3313b3e0b13a6b1f7", "is_disabled": 0, "rental_uris": {"android": "https://dc.lft.to/lastmile_qr_scan", "ios": "https://dc.lft.to/lastmile_qr_scan"}, "fusion_lon": 0.0, "lat": 38.909787666666666, "bike_id": "d8e79d1c793a67f3313b3e0b13a6b1f7", "type": "electric_scooter", "is_reserved": 0, "lon": -77.031875}, {"fusion_lat": 0.0, "name": "34b6055d7328e1c13ef65395811c95be", "is_disabled": 0, "rental_uris": {"android": "https://dc.lft.to/lastmile_qr_scan", "ios": "https://dc.lft.to/lastmile_qr_scan"}, "fusion_lon": 0.0, "lat": 38.91299383333333, "bike_id": "34b6055d7328e1c13ef65395811c95be", "type": "electric_scooter", "is_reserved": 0, "lon": -77.048784}, {"fusion_lat": 0.0, "name": "b9561d4e11205c1e4203048e3082d79c", "is_disabled": 0, "rental_uris": {"android": "https://dc.lft.to/lastmile_qr_scan", "ios": "https://dc.lft.to/lastmile_qr_scan"}, "fusion_lon": 0.0, "lat": 38.9224565, "bike_id": "b9561d4e11205c1e4203048e3082d79c", "type": "electric_scooter", "is_reserved": 0, "lon": -77.022196}, {"fusion_lat": 0.0, "name": "cbaa3d6f46d445e4a184926f025b7dc5", "is_disabled": 0, "rental_uris": {"android": "https://dc.lft.to/lastmile_qr_scan", "ios": "https://dc.lft.to/lastmile_qr_scan"}, "fusion_lon": 0.0, "lat": 39.07055283333333, "bike_id": "cbaa3d6f46d445e4a184926f025b7dc5", "type": "electric_bike", "is_reserved": 0, "lon": -77.11484383333334}, {"fusion_lat": 0.0, "name": "4b7877f6c3aaa37514ff211a008972ec", "is_disabled": 0, "rental_uris": {"android": "https://dc.lft.to/lastmile_qr_scan", "ios": "https://dc.lft.to/lastmile_qr_scan"}, "fusion_lon": 0.0, "lat": 38.92472866666667, "bike_id": "4b7877f6c3aaa37514ff211a008972ec", "type": "electric_scooter", "is_reserved": 0, "lon": -77.02891766666667}, {"fusion_lat": 0.0, "name": "96376cd8601a4b691fecb4d8e5f5bfa4", "is_disabled": 0, "rental_uris": {"android": "https://dc.lft.to/lastmile_qr_scan", "ios": "https://dc.lft.to/lastmile_qr_scan"}, "fusion_lon": 0.0, "lat": 38.945314333333336, "bike_id": "96376cd8601a4b691fecb4d8e5f5bfa4", "type": "electric_scooter", "is_reserved": 0, "lon": -77.02532933333333}, {"fusion_lat": 0.0, "name": "9041ffdc9a31555de0e75aed3bc81de2", "is_disabled": 0, "rental_uris": {"android": "https://dc.lft.to/lastmile_qr_scan", "ios": "https://dc.lft.to/lastmile_qr_scan"}, "fusion_lon": 0.0, "lat": 38.88299416666667, "bike_id": "9041ffdc9a31555de0e75aed3bc81de2", "type": "electric_scooter", "is_reserved": 0, "lon": -76.9485705}, {"fusion_lat": 0.0, "name": "ca61ab3d87b4b159783f723fe09a7c76", "is_disabled": 0, "rental_uris": {"android": "https://dc.lft.to/lastmile_qr_scan", "ios": "https://dc.lft.to/lastmile_qr_scan"}, "fusion_lon": 0.0, "lat": 38.92971033333333, "bike_id": "ca61ab3d87b4b159783f723fe09a7c76", "type": "electric_scooter", "is_reserved": 0, "lon": -77.02529333333334}, {"fusion_lat": 0.0, "name": "f435466745126122b65c9750b8322049", "is_disabled": 0, "rental_uris": {"android": "https://dc.lft.to/lastmile_qr_scan", "ios": "https://dc.lft.to/lastmile_qr_scan"}, "fusion_lon": 0.0, "lat": 38.923571, "bike_id": "f435466745126122b65c9750b8322049", "type": "electric_scooter", "is_reserved": 0, "lon": -77.04312783333333}, {"fusion_lat": 0.0, "name": "226aa372431341e191e4c4a53462eaea", "is_disabled": 0, "rental_uris": {"android": "https://dc.lft.to/lastmile_qr_scan", "ios": "https://dc.lft.to/lastmile_qr_scan"}, "fusion_lon": 0.0, "lat": 38.912568, "bike_id": "226aa372431341e191e4c4a53462eaea", "type": "electric_scooter", "is_reserved": 0, "lon": -77.04452483333333}, {"fusion_lat": 0.0, "name": "53e825181d2fd11d795787030cda29f1", "is_disabled": 0, "rental_uris": {"android": "https://dc.lft.to/lastmile_qr_scan", "ios": "https://dc.lft.to/lastmile_qr_scan"}, "fusion_lon": 0.0, "lat": 38.916379166666665, "bike_id": "53e825181d2fd11d795787030cda29f1", "type": "electric_scooter", "is_reserved": 0, "lon": -77.04798}, {"fusion_lat": 0.0, "name": "9685e6ac609fa1d48f1fb514ab3211c6", "is_disabled": 0, "rental_uris": {"android": "https://dc.lft.to/lastmile_qr_scan", "ios": "https://dc.lft.to/lastmile_qr_scan"}, "fusion_lon": 0.0, "lat": 39.036049166666665, "bike_id": "9685e6ac609fa1d48f1fb514ab3211c6", "type": "electric_bike", "is_reserved": 0, "lon": -77.05547066666666}, {"fusion_lat": 0.0, "name": "7bc6ffc3277c368e5d4f753e9be86963", "is_disabled": 0, "rental_uris": {"android": "https://dc.lft.to/lastmile_qr_scan", "ios": "https://dc.lft.to/lastmile_qr_scan"}, "fusion_lon": 0.0, "lat": 38.89988683333333, "bike_id": "7bc6ffc3277c368e5d4f753e9be86963", "type": "electric_scooter", "is_reserved": 0, "lon": -76.9843555}, {"fusion_lat": 0.0, "name": "9dfd147cbf728c93bccffb1bc21ec50b", "is_disabled": 0, "rental_uris": {"android": "https://dc.lft.to/lastmile_qr_scan", "ios": "https://dc.lft.to/lastmile_qr_scan"}, "fusion_lon": 0.0, "lat": 38.92338066666667, "bike_id": "9dfd147cbf728c93bccffb1bc21ec50b", "type": "electric_scooter", "is_reserved": 0, "lon": -77.03534516666667}, {"fusion_lat": 0.0, "name": "5fa63bfea3b205191ed212ca4001da5b", "is_disabled": 0, "rental_uris": {"android": "https://dc.lft.to/lastmile_qr_scan", "ios": "https://dc.lft.to/lastmile_qr_scan"}, "fusion_lon": 0.0, "lat": 38.87847166666667, "bike_id": "5fa63bfea3b205191ed212ca4001da5b", "type": "electric_bike", "is_reserved": 0, "lon": -77.0302085}, {"fusion_lat": 0.0, "name": "7a47d13738d488baa4917dc65cd1d9b4", "is_disabled": 0, "rental_uris": {"android": "https://dc.lft.to/lastmile_qr_scan", "ios": "https://dc.lft.to/lastmile_qr_scan"}, "fusion_lon": 0.0, "lat": 38.9103475, "bike_id": "7a47d13738d488baa4917dc65cd1d9b4", "type": "electric_scooter", "is_reserved": 0, "lon": -77.03829}, {"fusion_lat": 0.0, "name": "6f2b8bdb685df825fcec17c20a77b302", "is_disabled": 0, "rental_uris": {"android": "https://dc.lft.to/lastmile_qr_scan", "ios": "https://dc.lft.to/lastmile_qr_scan"}, "fusion_lon": 0.0, "lat": 38.90009366666666, "bike_id": "6f2b8bdb685df825fcec17c20a77b302", "type": "electric_scooter", "is_reserved": 0, "lon": -77.00182266666667}, {"fusion_lat": 0.0, "name": "22734e99052912cbd49ce2e5b4f6b5d1", "is_disabled": 0, "rental_uris": {"android": "https://dc.lft.to/lastmile_qr_scan", "ios": "https://dc.lft.to/lastmile_qr_scan"}, "fusion_lon": 0.0, "lat": 38.802928666666666, "bike_id": "22734e99052912cbd49ce2e5b4f6b5d1", "type": "electric_bike", "is_reserved": 0, "lon": -77.05938683333333}, {"fusion_lat": 0.0, "name": "2c08a76dc6eb43865a187be3a6d4ccde", "is_disabled": 0, "rental_uris": {"android": "https://dc.lft.to/lastmile_qr_scan", "ios": "https://dc.lft.to/lastmile_qr_scan"}, "fusion_lon": 0.0, "lat": 38.903979666666665, "bike_id": "2c08a76dc6eb43865a187be3a6d4ccde", "type": "electric_scooter", "is_reserved": 0, "lon": -77.04220983333333}, {"fusion_lat": 0.0, "name": "f656adf9f1973b55b6793526669abcd1", "is_disabled": 0, "rental_uris": {"android": "https://dc.lft.to/lastmile_qr_scan", "ios": "https://dc.lft.to/lastmile_qr_scan"}, "fusion_lon": 0.0, "lat": 38.91404416666666, "bike_id": "f656adf9f1973b55b6793526669abcd1", "type": "electric_scooter", "is_reserved": 0, "lon": -77.03224766666666}, {"fusion_lat": 0.0, "name": "1187bd2990f90dbd0e3d59270a12db4b", "is_disabled": 0, "rental_uris": {"android": "https://dc.lft.to/lastmile_qr_scan", "ios": "https://dc.lft.to/lastmile_qr_scan"}, "fusion_lon": 0.0, "lat": 38.904980333333334, "bike_id": "1187bd2990f90dbd0e3d59270a12db4b", "type": "electric_scooter", "is_reserved": 0, "lon": -77.02959783333333}, {"fusion_lat": 0.0, "name": "b025edb71718cdd3e5a53b7a0f2bf81a", "is_disabled": 0, "rental_uris": {"android": "https://dc.lft.to/lastmile_qr_scan", "ios": "https://dc.lft.to/lastmile_qr_scan"}, "fusion_lon": 0.0, "lat": 38.9061195, "bike_id": "b025edb71718cdd3e5a53b7a0f2bf81a", "type": "electric_scooter", "is_reserved": 0, "lon": -77.02406933333333}, {"fusion_lat": 0.0, "name": "31ea5abda136297b78e977ffbdec44e5", "is_disabled": 0, "rental_uris": {"android": "https://dc.lft.to/lastmile_qr_scan", "ios": "https://dc.lft.to/lastmile_qr_scan"}, "fusion_lon": 0.0, "lat": 38.896842166666666, "bike_id": "31ea5abda136297b78e977ffbdec44e5", "type": "electric_scooter", "is_reserved": 0, "lon": -76.93711933333333}, {"fusion_lat": 0.0, "name": "18acab037e47b3544d57bb19a3c4ac44", "is_disabled": 0, "rental_uris": {"android": "https://dc.lft.to/lastmile_qr_scan", "ios": "https://dc.lft.to/lastmile_qr_scan"}, "fusion_lon": 0.0, "lat": 38.928071, "bike_id": "18acab037e47b3544d57bb19a3c4ac44", "type": "electric_scooter", "is_reserved": 0, "lon": -77.05381583333333}, {"fusion_lat": 0.0, "name": "1c19676175cfb993078adb716603f889", "is_disabled": 0, "rental_uris": {"android": "https://dc.lft.to/lastmile_qr_scan", "ios": "https://dc.lft.to/lastmile_qr_scan"}, "fusion_lon": 0.0, "lat": 38.919361333333335, "bike_id": "1c19676175cfb993078adb716603f889", "type": "electric_scooter", "is_reserved": 0, "lon": -77.070609}, {"fusion_lat": 0.0, "name": "730c811d2f8200c557a6048aff9b0e3b", "is_disabled": 0, "rental_uris": {"android": "https://dc.lft.to/lastmile_qr_scan", "ios": "https://dc.lft.to/lastmile_qr_scan"}, "fusion_lon": 0.0, "lat": 38.900158166666664, "bike_id": "730c811d2f8200c557a6048aff9b0e3b", "type": "electric_scooter", "is_reserved": 0, "lon": -76.99861966666667}, {"fusion_lat": 0.0, "name": "a5bd2752b40c9359d060a7db18b9edff", "is_disabled": 0, "rental_uris": {"android": "https://dc.lft.to/lastmile_qr_scan", "ios": "https://dc.lft.to/lastmile_qr_scan"}, "fusion_lon": 0.0, "lat": 38.885625833333336, "bike_id": "a5bd2752b40c9359d060a7db18b9edff", "type": "electric_scooter", "is_reserved": 0, "lon": -77.01135116666667}, {"fusion_lat": 0.0, "name": "46a403d84274acdd6428155638e9f0b7", "is_disabled": 0, "rental_uris": {"android": "https://dc.lft.to/lastmile_qr_scan", "ios": "https://dc.lft.to/lastmile_qr_scan"}, "fusion_lon": 0.0, "lat": 38.910159166666666, "bike_id": "46a403d84274acdd6428155638e9f0b7", "type": "electric_scooter", "is_reserved": 0, "lon": -77.00921366666667}, {"fusion_lat": 0.0, "name": "7c4e2e63533f19df66de95768c85dad1", "is_disabled": 0, "rental_uris": {"android": "https://dc.lft.to/lastmile_qr_scan", "ios": "https://dc.lft.to/lastmile_qr_scan"}, "fusion_lon": 0.0, "lat": 38.8773475, "bike_id": "7c4e2e63533f19df66de95768c85dad1", "type": "electric_scooter", "is_reserved": 0, "lon": -76.9962845}, {"fusion_lat": 0.0, "name": "829e778154924359e63f33ae2f27ebc6", "is_disabled": 0, "rental_uris": {"android": "https://dc.lft.to/lastmile_qr_scan", "ios": "https://dc.lft.to/lastmile_qr_scan"}, "fusion_lon": 0.0, "lat": 38.92338933333333, "bike_id": "829e778154924359e63f33ae2f27ebc6", "type": "electric_scooter", "is_reserved": 0, "lon": -77.05228216666667}, {"fusion_lat": 0.0, "name": "a523ac659b5a85883af899aaa6e0e4d4", "is_disabled": 0, "rental_uris": {"android": "https://dc.lft.to/lastmile_qr_scan", "ios": "https://dc.lft.to/lastmile_qr_scan"}, "fusion_lon": 0.0, "lat": 38.87951916666667, "bike_id": "a523ac659b5a85883af899aaa6e0e4d4", "type": "electric_scooter", "is_reserved": 0, "lon": -76.98991133333334}, {"fusion_lat": 0.0, "name": "5ea316b8a884287d777bfc8d7df709fc", "is_disabled": 0, "rental_uris": {"android": "https://dc.lft.to/lastmile_qr_scan", "ios": "https://dc.lft.to/lastmile_qr_scan"}, "fusion_lon": 0.0, "lat": 38.867143166666665, "bike_id": "5ea316b8a884287d777bfc8d7df709fc", "type": "electric_scooter", "is_reserved": 0, "lon": -77.01029283333334}, {"fusion_lat": 0.0, "name": "c0001e6e2bb7b8e3add069899395d9de", "is_disabled": 0, "rental_uris": {"android": "https://dc.lft.to/lastmile_qr_scan", "ios": "https://dc.lft.to/lastmile_qr_scan"}, "fusion_lon": 0.0, "lat": 38.8969375, "bike_id": "c0001e6e2bb7b8e3add069899395d9de", "type": "electric_scooter", "is_reserved": 0, "lon": -77.05098566666666}, {"fusion_lat": 0.0, "name": "88122d6a01cb7db858aeab9c7071aad5", "is_disabled": 0, "rental_uris": {"android": "https://dc.lft.to/lastmile_qr_scan", "ios": "https://dc.lft.to/lastmile_qr_scan"}, "fusion_lon": 0.0, "lat": 38.93262416666666, "bike_id": "88122d6a01cb7db858aeab9c7071aad5", "type": "electric_scooter", "is_reserved": 0, "lon": -77.02095116666666}, {"fusion_lat": 0.0, "name": "6a82b5bedfc8b25aa0f481cb3047a538", "is_disabled": 0, "rental_uris": {"android": "https://dc.lft.to/lastmile_qr_scan", "ios": "https://dc.lft.to/lastmile_qr_scan"}, "fusion_lon": 0.0, "lat": 38.804481833333334, "bike_id": "6a82b5bedfc8b25aa0f481cb3047a538", "type": "electric_bike", "is_reserved": 0, "lon": -77.0538945}, {"fusion_lat": 0.0, "name": "e379aeb85228394d77c25179c06a2005", "is_disabled": 0, "rental_uris": {"android": "https://dc.lft.to/lastmile_qr_scan", "ios": "https://dc.lft.to/lastmile_qr_scan"}, "fusion_lon": 0.0, "lat": 38.91128466666667, "bike_id": "e379aeb85228394d77c25179c06a2005", "type": "electric_bike", "is_reserved": 0, "lon": -77.06575983333333}, {"fusion_lat": 0.0, "name": "b678697cfe68062f7caae17d9839025e", "is_disabled": 0, "rental_uris": {"android": "https://dc.lft.to/lastmile_qr_scan", "ios": "https://dc.lft.to/lastmile_qr_scan"}, "fusion_lon": 0.0, "lat": 38.87743966666667, "bike_id": "b678697cfe68062f7caae17d9839025e", "type": "electric_scooter", "is_reserved": 0, "lon": -77.014268}, {"fusion_lat": 0.0, "name": "e62abd7c675c3ced67db5e3ee9cc3780", "is_disabled": 0, "rental_uris": {"android": "https://dc.lft.to/lastmile_qr_scan", "ios": "https://dc.lft.to/lastmile_qr_scan"}, "fusion_lon": 0.0, "lat": 38.8813485, "bike_id": "e62abd7c675c3ced67db5e3ee9cc3780", "type": "electric_scooter", "is_reserved": 0, "lon": -77.02707}, {"fusion_lat": 0.0, "name": "22befd7918c0a394853e7eb2ee3449f6", "is_disabled": 0, "rental_uris": {"android": "https://dc.lft.to/lastmile_qr_scan", "ios": "https://dc.lft.to/lastmile_qr_scan"}, "fusion_lon": 0.0, "lat": 38.900604666666666, "bike_id": "22befd7918c0a394853e7eb2ee3449f6", "type": "electric_scooter", "is_reserved": 0, "lon": -76.927459}, {"fusion_lat": 0.0, "name": "2558d3249e6e82446f67b3b7255f5dc1", "is_disabled": 0, "rental_uris": {"android": "https://dc.lft.to/lastmile_qr_scan", "ios": "https://dc.lft.to/lastmile_qr_scan"}, "fusion_lon": 0.0, "lat": 38.9071145, "bike_id": "2558d3249e6e82446f67b3b7255f5dc1", "type": "electric_scooter", "is_reserved": 0, "lon": -77.05131233333333}, {"fusion_lat": 0.0, "name": "675a07f2cfbbcb867c86cfcaa167885a", "is_disabled": 0, "rental_uris": {"android": "https://dc.lft.to/lastmile_qr_scan", "ios": "https://dc.lft.to/lastmile_qr_scan"}, "fusion_lon": 0.0, "lat": 38.821732, "bike_id": "675a07f2cfbbcb867c86cfcaa167885a", "type": "electric_bike", "is_reserved": 0, "lon": -76.995147}, {"fusion_lat": 0.0, "name": "ef76e6947185e83b3c014f89c01c87d2", "is_disabled": 0, "rental_uris": {"android": "https://dc.lft.to/lastmile_qr_scan", "ios": "https://dc.lft.to/lastmile_qr_scan"}, "fusion_lon": 0.0, "lat": 38.924473166666665, "bike_id": "ef76e6947185e83b3c014f89c01c87d2", "type": "electric_scooter", "is_reserved": 0, "lon": -77.04023333333333}, {"fusion_lat": 0.0, "name": "bec2edc0ee9dd56336bff31d13dc9b3e", "is_disabled": 0, "rental_uris": {"android": "https://dc.lft.to/lastmile_qr_scan", "ios": "https://dc.lft.to/lastmile_qr_scan"}, "fusion_lon": 0.0, "lat": 38.88705733333333, "bike_id": "bec2edc0ee9dd56336bff31d13dc9b3e", "type": "electric_scooter", "is_reserved": 0, "lon": -77.00246616666666}, {"fusion_lat": 0.0, "name": "8d777a9623ea353fc8754de1ac8ca5af", "is_disabled": 0, "rental_uris": {"android": "https://dc.lft.to/lastmile_qr_scan", "ios": "https://dc.lft.to/lastmile_qr_scan"}, "fusion_lon": 0.0, "lat": 38.904798666666665, "bike_id": "8d777a9623ea353fc8754de1ac8ca5af", "type": "electric_scooter", "is_reserved": 0, "lon": -77.0188205}, {"fusion_lat": 0.0, "name": "3bc29a55fca0dc8a950cfb239db958ed", "is_disabled": 0, "rental_uris": {"android": "https://dc.lft.to/lastmile_qr_scan", "ios": "https://dc.lft.to/lastmile_qr_scan"}, "fusion_lon": 0.0, "lat": 38.904070833333336, "bike_id": "3bc29a55fca0dc8a950cfb239db958ed", "type": "electric_scooter", "is_reserved": 0, "lon": -76.973323}, {"fusion_lat": 0.0, "name": "78a86a9d4119a66973960d22905183d4", "is_disabled": 0, "rental_uris": {"android": "https://dc.lft.to/lastmile_qr_scan", "ios": "https://dc.lft.to/lastmile_qr_scan"}, "fusion_lon": 0.0, "lat": 38.89540983333333, "bike_id": "78a86a9d4119a66973960d22905183d4", "type": "electric_scooter", "is_reserved": 0, "lon": -76.94956466666666}, {"fusion_lat": 0.0, "name": "be40305ed1df38f7b2d060b6ae98467d", "is_disabled": 0, "rental_uris": {"android": "https://dc.lft.to/lastmile_qr_scan", "ios": "https://dc.lft.to/lastmile_qr_scan"}, "fusion_lon": 0.0, "lat": 38.91662683333333, "bike_id": "be40305ed1df38f7b2d060b6ae98467d", "type": "electric_scooter", "is_reserved": 0, "lon": -77.02817216666666}, {"fusion_lat": 0.0, "name": "31b25394da9c87a3b193d3138e7fbb96", "is_disabled": 0, "rental_uris": {"android": "https://dc.lft.to/lastmile_qr_scan", "ios": "https://dc.lft.to/lastmile_qr_scan"}, "fusion_lon": 0.0, "lat": 38.95111516666667, "bike_id": "31b25394da9c87a3b193d3138e7fbb96", "type": "electric_scooter", "is_reserved": 0, "lon": -77.0586215}, {"fusion_lat": 0.0, "name": "ff2599e61ff072ce9354f3e3b2c351bb", "is_disabled": 0, "rental_uris": {"android": "https://dc.lft.to/lastmile_qr_scan", "ios": "https://dc.lft.to/lastmile_qr_scan"}, "fusion_lon": 0.0, "lat": 38.81985733333333, "bike_id": "ff2599e61ff072ce9354f3e3b2c351bb", "type": "electric_bike", "is_reserved": 0, "lon": -76.99769533333334}, {"fusion_lat": 0.0, "name": "4bb03bf288e4654d044e5e8436a3800e", "is_disabled": 0, "rental_uris": {"android": "https://dc.lft.to/lastmile_qr_scan", "ios": "https://dc.lft.to/lastmile_qr_scan"}, "fusion_lon": 0.0, "lat": 38.915534666666666, "bike_id": "4bb03bf288e4654d044e5e8436a3800e", "type": "electric_scooter", "is_reserved": 0, "lon": -77.0347665}, {"fusion_lat": 0.0, "name": "4cc4dbf1943b8d1b377a3c977fadac66", "is_disabled": 0, "rental_uris": {"android": "https://dc.lft.to/lastmile_qr_scan", "ios": "https://dc.lft.to/lastmile_qr_scan"}, "fusion_lon": 0.0, "lat": 38.86627716666667, "bike_id": "4cc4dbf1943b8d1b377a3c977fadac66", "type": "electric_scooter", "is_reserved": 0, "lon": -76.98713366666667}, {"fusion_lat": 0.0, "name": "9f30d77b6be7e4ed2df95ab3dabd87c2", "is_disabled": 0, "rental_uris": {"android": "https://dc.lft.to/lastmile_qr_scan", "ios": "https://dc.lft.to/lastmile_qr_scan"}, "fusion_lon": 0.0, "lat": 38.95054366666667, "bike_id": "9f30d77b6be7e4ed2df95ab3dabd87c2", "type": "electric_scooter", "is_reserved": 0, "lon": -77.0802815}, {"fusion_lat": 0.0, "name": "7d637ceded7364c97c7ce4a9dc5d3406", "is_disabled": 0, "rental_uris": {"android": "https://dc.lft.to/lastmile_qr_scan", "ios": "https://dc.lft.to/lastmile_qr_scan"}, "fusion_lon": 0.0, "lat": 38.902755, "bike_id": "7d637ceded7364c97c7ce4a9dc5d3406", "type": "electric_scooter", "is_reserved": 0, "lon": -77.01890483333334}, {"fusion_lat": 0.0, "name": "7e32d838f689c228af86d4cf72f92c70", "is_disabled": 0, "rental_uris": {"android": "https://dc.lft.to/lastmile_qr_scan", "ios": "https://dc.lft.to/lastmile_qr_scan"}, "fusion_lon": 0.0, "lat": 38.90589583333333, "bike_id": "7e32d838f689c228af86d4cf72f92c70", "type": "electric_scooter", "is_reserved": 0, "lon": -77.06271666666666}, {"fusion_lat": 0.0, "name": "18674ddf819b5afac2948beb9303d55e", "is_disabled": 0, "rental_uris": {"android": "https://dc.lft.to/lastmile_qr_scan", "ios": "https://dc.lft.to/lastmile_qr_scan"}, "fusion_lon": 0.0, "lat": 38.876499333333335, "bike_id": "18674ddf819b5afac2948beb9303d55e", "type": "electric_scooter", "is_reserved": 0, "lon": -77.00642866666666}, {"fusion_lat": 0.0, "name": "d0d32ea0b565298989360adfce9d1c2c", "is_disabled": 0, "rental_uris": {"android": "https://dc.lft.to/lastmile_qr_scan", "ios": "https://dc.lft.to/lastmile_qr_scan"}, "fusion_lon": 0.0, "lat": 38.956315000000004, "bike_id": "d0d32ea0b565298989360adfce9d1c2c", "type": "electric_scooter", "is_reserved": 0, "lon": -77.032801}, {"fusion_lat": 0.0, "name": "dc3921f3ac6404e684595186f6582552", "is_disabled": 0, "rental_uris": {"android": "https://dc.lft.to/lastmile_qr_scan", "ios": "https://dc.lft.to/lastmile_qr_scan"}, "fusion_lon": 0.0, "lat": 38.9215445, "bike_id": "dc3921f3ac6404e684595186f6582552", "type": "electric_scooter", "is_reserved": 0, "lon": -77.03666}, {"fusion_lat": 0.0, "name": "c7b0457ac57b629ae0d74216af04f98a", "is_disabled": 0, "rental_uris": {"android": "https://dc.lft.to/lastmile_qr_scan", "ios": "https://dc.lft.to/lastmile_qr_scan"}, "fusion_lon": 0.0, "lat": 38.9009115, "bike_id": "c7b0457ac57b629ae0d74216af04f98a", "type": "electric_scooter", "is_reserved": 0, "lon": -77.047537}, {"fusion_lat": 0.0, "name": "bf5c2946ec1162067fa8201ea58ba5a7", "is_disabled": 0, "rental_uris": {"android": "https://dc.lft.to/lastmile_qr_scan", "ios": "https://dc.lft.to/lastmile_qr_scan"}, "fusion_lon": 0.0, "lat": 38.938423666666665, "bike_id": "bf5c2946ec1162067fa8201ea58ba5a7", "type": "electric_scooter", "is_reserved": 0, "lon": -77.0624855}, {"fusion_lat": 0.0, "name": "8d04360ca23be74a67260869e3de7b97", "is_disabled": 0, "rental_uris": {"android": "https://dc.lft.to/lastmile_qr_scan", "ios": "https://dc.lft.to/lastmile_qr_scan"}, "fusion_lon": 0.0, "lat": 38.931146166666664, "bike_id": "8d04360ca23be74a67260869e3de7b97", "type": "electric_scooter", "is_reserved": 0, "lon": -77.02095083333333}, {"fusion_lat": 0.0, "name": "8c7f0036f39cdda807accdd70c7b8186", "is_disabled": 0, "rental_uris": {"android": "https://dc.lft.to/lastmile_qr_scan", "ios": "https://dc.lft.to/lastmile_qr_scan"}, "fusion_lon": 0.0, "lat": 38.9340085, "bike_id": "8c7f0036f39cdda807accdd70c7b8186", "type": "electric_bike", "is_reserved": 0, "lon": -77.035409}, {"fusion_lat": 0.0, "name": "f048b3b6cac4b83ab5f907148c340816", "is_disabled": 0, "rental_uris": {"android": "https://dc.lft.to/lastmile_qr_scan", "ios": "https://dc.lft.to/lastmile_qr_scan"}, "fusion_lon": 0.0, "lat": 38.906349666666664, "bike_id": "f048b3b6cac4b83ab5f907148c340816", "type": "electric_scooter", "is_reserved": 0, "lon": -77.01141466666667}, {"fusion_lat": 0.0, "name": "5cd818f210b4a5c162eb9a7a278974c4", "is_disabled": 0, "rental_uris": {"android": "https://dc.lft.to/lastmile_qr_scan", "ios": "https://dc.lft.to/lastmile_qr_scan"}, "fusion_lon": 0.0, "lat": 38.9002795, "bike_id": "5cd818f210b4a5c162eb9a7a278974c4", "type": "electric_scooter", "is_reserved": 0, "lon": -77.0003035}, {"fusion_lat": 0.0, "name": "2e43ff4848a0dcb0163eb0fc93bb67ba", "is_disabled": 0, "rental_uris": {"android": "https://dc.lft.to/lastmile_qr_scan", "ios": "https://dc.lft.to/lastmile_qr_scan"}, "fusion_lon": 0.0, "lat": 38.84085183333333, "bike_id": "2e43ff4848a0dcb0163eb0fc93bb67ba", "type": "electric_bike", "is_reserved": 0, "lon": -76.97027733333333}, {"fusion_lat": 0.0, "name": "62c44d45d66ccde996459fd2e367a18c", "is_disabled": 0, "rental_uris": {"android": "https://dc.lft.to/lastmile_qr_scan", "ios": "https://dc.lft.to/lastmile_qr_scan"}, "fusion_lon": 0.0, "lat": 38.920003333333334, "bike_id": "62c44d45d66ccde996459fd2e367a18c", "type": "electric_scooter", "is_reserved": 0, "lon": -77.07118483333333}, {"fusion_lat": 0.0, "name": "36b025b5bd769ece45cc94f1f86c9fdc", "is_disabled": 0, "rental_uris": {"android": "https://dc.lft.to/lastmile_qr_scan", "ios": "https://dc.lft.to/lastmile_qr_scan"}, "fusion_lon": 0.0, "lat": 38.916981, "bike_id": "36b025b5bd769ece45cc94f1f86c9fdc", "type": "electric_scooter", "is_reserved": 0, "lon": -77.040432}, {"fusion_lat": 0.0, "name": "d4cadee770908e3d447d4a70e7de8f3e", "is_disabled": 0, "rental_uris": {"android": "https://dc.lft.to/lastmile_qr_scan", "ios": "https://dc.lft.to/lastmile_qr_scan"}, "fusion_lon": 0.0, "lat": 38.90322416666667, "bike_id": "d4cadee770908e3d447d4a70e7de8f3e", "type": "electric_scooter", "is_reserved": 0, "lon": -77.04476033333333}, {"fusion_lat": 0.0, "name": "40bc9a494cbd6bdbc6934ec16e4a4b84", "is_disabled": 0, "rental_uris": {"android": "https://dc.lft.to/lastmile_qr_scan", "ios": "https://dc.lft.to/lastmile_qr_scan"}, "fusion_lon": 0.0, "lat": 38.90721083333333, "bike_id": "40bc9a494cbd6bdbc6934ec16e4a4b84", "type": "electric_scooter", "is_reserved": 0, "lon": -77.03432733333334}, {"fusion_lat": 0.0, "name": "79f4414d678d74f4e166c06335d1fed1", "is_disabled": 0, "rental_uris": {"android": "https://dc.lft.to/lastmile_qr_scan", "ios": "https://dc.lft.to/lastmile_qr_scan"}, "fusion_lon": 0.0, "lat": 38.9552645, "bike_id": "79f4414d678d74f4e166c06335d1fed1", "type": "electric_bike", "is_reserved": 0, "lon": -76.96816916666667}, {"fusion_lat": 0.0, "name": "94fb12ce5acabb7b5cc2c2e69f32f17e", "is_disabled": 0, "rental_uris": {"android": "https://dc.lft.to/lastmile_qr_scan", "ios": "https://dc.lft.to/lastmile_qr_scan"}, "fusion_lon": 0.0, "lat": 38.9231085, "bike_id": "94fb12ce5acabb7b5cc2c2e69f32f17e", "type": "electric_scooter", "is_reserved": 0, "lon": -77.05329283333333}, {"fusion_lat": 0.0, "name": "193b4c2caac1e0df6f0436633bda69b2", "is_disabled": 0, "rental_uris": {"android": "https://dc.lft.to/lastmile_qr_scan", "ios": "https://dc.lft.to/lastmile_qr_scan"}, "fusion_lon": 0.0, "lat": 38.931901833333335, "bike_id": "193b4c2caac1e0df6f0436633bda69b2", "type": "electric_scooter", "is_reserved": 0, "lon": -77.042937}, {"fusion_lat": 0.0, "name": "f0e43fd651ccdf88d68bddefe4ceef72", "is_disabled": 0, "rental_uris": {"android": "https://dc.lft.to/lastmile_qr_scan", "ios": "https://dc.lft.to/lastmile_qr_scan"}, "fusion_lon": 0.0, "lat": 38.88456333333333, "bike_id": "f0e43fd651ccdf88d68bddefe4ceef72", "type": "electric_scooter", "is_reserved": 0, "lon": -76.99838116666666}, {"fusion_lat": 0.0, "name": "c20c66d6ccf72c0e3c19b96029a002fc", "is_disabled": 0, "rental_uris": {"android": "https://dc.lft.to/lastmile_qr_scan", "ios": "https://dc.lft.to/lastmile_qr_scan"}, "fusion_lon": 0.0, "lat": 38.921096166666665, "bike_id": "c20c66d6ccf72c0e3c19b96029a002fc", "type": "electric_scooter", "is_reserved": 0, "lon": -77.01758233333334}, {"fusion_lat": 0.0, "name": "89f1b90734b59142a76b796247722123", "is_disabled": 0, "rental_uris": {"android": "https://dc.lft.to/lastmile_qr_scan", "ios": "https://dc.lft.to/lastmile_qr_scan"}, "fusion_lon": 0.0, "lat": 38.9111785, "bike_id": "89f1b90734b59142a76b796247722123", "type": "electric_scooter", "is_reserved": 0, "lon": -77.02096333333333}, {"fusion_lat": 0.0, "name": "a99a2e96e0cfe113c5d9fb601875ce7a", "is_disabled": 0, "rental_uris": {"android": "https://dc.lft.to/lastmile_qr_scan", "ios": "https://dc.lft.to/lastmile_qr_scan"}, "fusion_lon": 0.0, "lat": 38.91778933333333, "bike_id": "a99a2e96e0cfe113c5d9fb601875ce7a", "type": "electric_scooter", "is_reserved": 0, "lon": -77.02306533333334}, {"fusion_lat": 0.0, "name": "65d8d559cb002255f67c0b3f1f6e5fe4", "is_disabled": 0, "rental_uris": {"android": "https://dc.lft.to/lastmile_qr_scan", "ios": "https://dc.lft.to/lastmile_qr_scan"}, "fusion_lon": 0.0, "lat": 38.93772166666667, "bike_id": "65d8d559cb002255f67c0b3f1f6e5fe4", "type": "electric_scooter", "is_reserved": 0, "lon": -77.03286283333334}, {"fusion_lat": 0.0, "name": "46a507eac5e5645d61ce2a15bcb2f9cd", "is_disabled": 0, "rental_uris": {"android": "https://dc.lft.to/lastmile_qr_scan", "ios": "https://dc.lft.to/lastmile_qr_scan"}, "fusion_lon": 0.0, "lat": 38.92761216666667, "bike_id": "46a507eac5e5645d61ce2a15bcb2f9cd", "type": "electric_scooter", "is_reserved": 0, "lon": -77.02319016666667}, {"fusion_lat": 0.0, "name": "1474fc30a916aad39f6a7975221df7ff", "is_disabled": 0, "rental_uris": {"android": "https://dc.lft.to/lastmile_qr_scan", "ios": "https://dc.lft.to/lastmile_qr_scan"}, "fusion_lon": 0.0, "lat": 38.91430916666667, "bike_id": "1474fc30a916aad39f6a7975221df7ff", "type": "electric_scooter", "is_reserved": 0, "lon": -77.022117}, {"fusion_lat": 0.0, "name": "6ece3d61df57628d872c445a43dfac36", "is_disabled": 0, "rental_uris": {"android": "https://dc.lft.to/lastmile_qr_scan", "ios": "https://dc.lft.to/lastmile_qr_scan"}, "fusion_lon": 0.0, "lat": 38.90191683333333, "bike_id": "6ece3d61df57628d872c445a43dfac36", "type": "electric_scooter", "is_reserved": 0, "lon": -77.021287}, {"fusion_lat": 0.0, "name": "7566a537e3a11ccdbece7a46c3ebcf8d", "is_disabled": 0, "rental_uris": {"android": "https://dc.lft.to/lastmile_qr_scan", "ios": "https://dc.lft.to/lastmile_qr_scan"}, "fusion_lon": 0.0, "lat": 38.9570685, "bike_id": "7566a537e3a11ccdbece7a46c3ebcf8d", "type": "electric_scooter", "is_reserved": 0, "lon": -77.024045}, {"fusion_lat": 0.0, "name": "525d4b843e04f3cfe8161be4877f944f", "is_disabled": 0, "rental_uris": {"android": "https://dc.lft.to/lastmile_qr_scan", "ios": "https://dc.lft.to/lastmile_qr_scan"}, "fusion_lon": 0.0, "lat": 38.927748666666666, "bike_id": "525d4b843e04f3cfe8161be4877f944f", "type": "electric_scooter", "is_reserved": 0, "lon": -77.0526605}, {"fusion_lat": 0.0, "name": "7b0e7aadd92c48a10c2161466bdf2f50", "is_disabled": 0, "rental_uris": {"android": "https://dc.lft.to/lastmile_qr_scan", "ios": "https://dc.lft.to/lastmile_qr_scan"}, "fusion_lon": 0.0, "lat": 38.9180335, "bike_id": "7b0e7aadd92c48a10c2161466bdf2f50", "type": "electric_scooter", "is_reserved": 0, "lon": -76.9997865}, {"fusion_lat": 0.0, "name": "92499564e18902f9a4a7e94e6dfb19f7", "is_disabled": 0, "rental_uris": {"android": "https://dc.lft.to/lastmile_qr_scan", "ios": "https://dc.lft.to/lastmile_qr_scan"}, "fusion_lon": 0.0, "lat": 38.94702616666667, "bike_id": "92499564e18902f9a4a7e94e6dfb19f7", "type": "electric_scooter", "is_reserved": 0, "lon": -77.01942433333333}, {"fusion_lat": 0.0, "name": "64f72433fd6c7f9c972ec1f6d6a2cfaa", "is_disabled": 0, "rental_uris": {"android": "https://dc.lft.to/lastmile_qr_scan", "ios": "https://dc.lft.to/lastmile_qr_scan"},