{"data": {"bikes": [{"rental_uris": {"ios": "https://dc.lft.to/lastmile_qr_scan", "android": "https://dc.lft.to/lastmile_qr_scan"}, "type": "electric_scooter", "name": "f8c787d7f38389a94a977dbda6a0a658", "is_reserved": 0, "lon": -77.05119466666666, "is_disabled": 0, "fusion_lat": 0.0, "lat": 38.92531233333333, "bike_id": "f8c787d7f38389a94a977dbda6a0a658", "fusion_lon": 0.0}, {"rental_uris": {"ios": "https://dc.lft.to/lastmile_qr_scan", "android": "https://dc.lft.to/lastmile_qr_scan"}, "type": "electric_scooter", "name": "1f3045ce4a1c898337ae1f8b26ac9f03", "is_reserved": 0, "lon": -77.0400325, "is_disabled": 0, "fusion_lat": 0.0, "lat": 38.888664166666665, "bike_id": "1f3045ce4a1c898337ae1f8b26ac9f03", "fusion_lon": 0.0}, {"rental_uris": {"ios": "https://dc.lft.to/lastmile_qr_scan", "android": "https://dc.lft.to/lastmile_qr_scan"}, "type": "electric_scooter", "name": "9a0ad38c18042534ca19c503969ee41e", "is_reserved": 0, "lon": -77.04470966666666, "is_disabled": 0, "fusion_lat": 0.0, "lat": 38.9229045, "bike_id": "9a0ad38c18042534ca19c503969ee41e", "fusion_lon": 0.0}, {"rental_uris": {"ios": "https://dc.lft.to/lastmile_qr_scan", "android": "https://dc.lft.to/lastmile_qr_scan"}, "type": "electric_bike", "name": "f083f5f1edd885aa76bfb69ace0eb370", "is_reserved": 0, "lon": -76.999075, "is_disabled": 0, "fusion_lat": 0.0, "lat": 38.9946995, "bike_id": "f083f5f1edd885aa76bfb69ace0eb370", "fusion_lon": 0.0}, {"rental_uris": {"ios": "https://dc.lft.to/lastmile_qr_scan", "android": "https://dc.lft.to/lastmile_qr_scan"}, "type": "electric_scooter", "name": "4f47e1bb12c443a4f296df7ad4f7aafb", "is_reserved": 0, "lon": -77.01424466666667, "is_disabled": 0, "fusion_lat": 0.0, "lat": 38.91331316666667, "bike_id": "4f47e1bb12c443a4f296df7ad4f7aafb", "fusion_lon": 0.0}, {"rental_uris": {"ios": "https://dc.lft.to/lastmile_qr_scan", "android": "https://dc.lft.to/lastmile_qr_scan"}, "type": "electric_scooter", "name": "da35aa3fa3023c71b28cbcf32a231e39", "is_reserved": 0, "lon": -77.06612466666667, "is_disabled": 0, "fusion_lat": 0.0, "lat": 38.91110966666667, "bike_id": "da35aa3fa3023c71b28cbcf32a231e39", "fusion_lon": 0.0}, {"rental_uris": {"ios": "https://dc.lft.to/lastmile_qr_scan", "android": "https://dc.lft.to/lastmile_qr_scan"}, "type": "electric_scooter", "name": "c1d3f6ed92291c9542a04a6de6ccb838", "is_reserved": 0, "lon": -77.02915433333334, "is_disabled": 0, "fusion_lat": 0.0, "lat": 38.944424, "bike_id": "c1d3f6ed92291c9542a04a6de6ccb838", "fusion_lon": 0.0}, {"rental_uris": {"ios": "https://dc.lft.to/lastmile_qr_scan", "android": "https://dc.lft.to/lastmile_qr_scan"}, "type": "electric_scooter", "name": "40891be996f88582a3c4f235b7209dc3", "is_reserved": 0, "lon": -77.04177383333334, "is_disabled": 0, "fusion_lat": 0.0, "lat": 38.910915, "bike_id": "40891be996f88582a3c4f235b7209dc3", "fusion_lon": 0.0}, {"rental_uris": {"ios": "https://dc.lft.to/lastmile_qr_scan", "android": "https://dc.lft.to/lastmile_qr_scan"}, "type": "electric_bike", "name": "783ccced042c6ab1ae5e825fb80b7c4a", "is_reserved": 0, "lon": -77.05512983333334, "is_disabled": 0, "fusion_lat": 0.0, "lat": 38.94412466666667, "bike_id": "783ccced042c6ab1ae5e825fb80b7c4a", "fusion_lon": 0.0}, {"rental_uris": {"ios": "https://dc.lft.to/lastmile_qr_scan", "android": "https://dc.lft.to/lastmile_qr_scan"}, "type": "electric_scooter", "name": "686f546d79a992754d7ee6aa4b40087f", "is_reserved": 0, "lon": -77.03153366666666, "is_disabled": 0, "fusion_lat": 0.0, "lat": 38.91690233333333, "bike_id": "686f546d79a992754d7ee6aa4b40087f", "fusion_lon": 0.0}, {"rental_uris": {"ios": "https://dc.lft.to/lastmile_qr_scan", "android": "https://dc.lft.to/lastmile_qr_scan"}, "type": "electric_scooter", "name": "6a0610810e5e8071b62e6168e178eb61", "is_reserved": 0, "lon": -77.04672766666667, "is_disabled": 0, "fusion_lat": 0.0, "lat": 38.892803, "bike_id": "6a0610810e5e8071b62e6168e178eb61", "fusion_lon": 0.0}, {"rental_uris": {"ios": "https://dc.lft.to/lastmile_qr_scan", "android": "https://dc.lft.to/lastmile_qr_scan"}, "type": "electric_scooter", "name": "77e86b9d18b0d61652fc8a2e6044092b", "is_reserved": 0, "lon": -76.99506183333334, "is_disabled": 0, "fusion_lat": 0.0, "lat": 38.883051, "bike_id": "77e86b9d18b0d61652fc8a2e6044092b", "fusion_lon": 0.0}, {"rental_uris": {"ios": "https://dc.lft.to/lastmile_qr_scan", "android": "https://dc.lft.to/lastmile_qr_scan"}, "type": "electric_scooter", "name": "13960306c8c7ae450b97fa190c1516e3", "is_reserved": 0, "lon": -77.03519933333334, "is_disabled": 0, "fusion_lat": 0.0, "lat": 38.92233233333333, "bike_id": "13960306c8c7ae450b97fa190c1516e3", "fusion_lon": 0.0}, {"rental_uris": {"ios": "https://dc.lft.to/lastmile_qr_scan", "android": "https://dc.lft.to/lastmile_qr_scan"}, "type": "electric_bike", "name": "8669f436b12e8bcb7aa102e895a61897", "is_reserved": 0, "lon": -76.91716683333334, "is_disabled": 0, "fusion_lat": 0.0, "lat": 38.880328166666665, "bike_id": "8669f436b12e8bcb7aa102e895a61897", "fusion_lon": 0.0}, {"rental_uris": {"ios": "https://dc.lft.to/lastmile_qr_scan", "android": "https://dc.lft.to/lastmile_qr_scan"}, "type": "electric_scooter", "name": "e7b592e464af6f45aaee7b081fa24b73", "is_reserved": 0, "lon": -77.04121016666667, "is_disabled": 0, "fusion_lat": 0.0, "lat": 38.93360116666667, "bike_id": "e7b592e464af6f45aaee7b081fa24b73", "fusion_lon": 0.0}, {"rental_uris": {"ios": "https://dc.lft.to/lastmile_qr_scan", "android": "https://dc.lft.to/lastmile_qr_scan"}, "type": "electric_scooter", "name": "24e9372b3da8942f5dd036bd6c860314", "is_reserved": 0, "lon": -77.02710933333333, "is_disabled": 0, "fusion_lat": 0.0, "lat": 38.91829966666667, "bike_id": "24e9372b3da8942f5dd036bd6c860314", "fusion_lon": 0.0}, {"rental_uris": {"ios": "https://dc.lft.to/lastmile_qr_scan", "android": "https://dc.lft.to/lastmile_qr_scan"}, "type": "electric_scooter", "name": "a9e0eec9d92f49c401eaf54f10e373c0", "is_reserved": 0, "lon": -77.03852983333333, "is_disabled": 0, "fusion_lat": 0.0, "lat": 38.932034333333334, "bike_id": "a9e0eec9d92f49c401eaf54f10e373c0", "fusion_lon": 0.0}, {"rental_uris": {"ios": "https://dc.lft.to/lastmile_qr_scan", "android": "https://dc.lft.to/lastmile_qr_scan"}, "type": "electric_scooter", "name": "0e8c85d907d7fe9826521254578b772d", "is_reserved": 0, "lon": -77.0122685, "is_disabled": 0, "fusion_lat": 0.0, "lat": 38.91352783333333, "bike_id": "0e8c85d907d7fe9826521254578b772d", "fusion_lon": 0.0}, {"rental_uris": {"ios": "https://dc.lft.to/lastmile_qr_scan", "android": "https://dc.lft.to/lastmile_qr_scan"}, "type": "electric_scooter", "name": "5f9ee4bf7121dacd079186d6d8b2edb3", "is_reserved": 0, "lon": -77.01447366666666, "is_disabled": 0, "fusion_lat": 0.0, "lat": 38.9180855, "bike_id": "5f9ee4bf7121dacd079186d6d8b2edb3", "fusion_lon": 0.0}, {"rental_uris": {"ios": "https://dc.lft.to/lastmile_qr_scan", "android": "https://dc.lft.to/lastmile_qr_scan"}, "type": "electric_scooter", "name": "cd444c27c9989882b50898973b9ec36a", "is_reserved": 0, "lon": -77.0152325, "is_disabled": 0, "fusion_lat": 0.0, "lat": 38.887042666666666, "bike_id": "cd444c27c9989882b50898973b9ec36a", "fusion_lon": 0.0}, {"rental_uris": {"ios": "https://dc.lft.to/lastmile_qr_scan", "android": "https://dc.lft.to/lastmile_qr_scan"}, "type": "electric_scooter", "name": "963fdf2dfbd722a50a9fa5723e83e348", "is_reserved": 0, "lon": -77.0384425, "is_disabled": 0, "fusion_lat": 0.0, "lat": 38.931721333333336, "bike_id": "963fdf2dfbd722a50a9fa5723e83e348", "fusion_lon": 0.0}, {"rental_uris": {"ios": "https://dc.lft.to/lastmile_qr_scan", "android": "https://dc.lft.to/lastmile_qr_scan"}, "type": "electric_scooter", "name": "9a5c4d2c5d56eab83a4bdc7a19148a1f", "is_reserved": 0, "lon": -76.9961745, "is_disabled": 0, "fusion_lat": 0.0, "lat": 38.889696666666666, "bike_id": "9a5c4d2c5d56eab83a4bdc7a19148a1f", "fusion_lon": 0.0}, {"rental_uris": {"ios": "https://dc.lft.to/lastmile_qr_scan", "android": "https://dc.lft.to/lastmile_qr_scan"}, "type": "electric_bike", "name": "041ec612f5385e2c80e6e4f21ebc0145", "is_reserved": 0, "lon": -76.962601, "is_disabled": 0, "fusion_lat": 0.0, "lat": 38.967883666666665, "bike_id": "041ec612f5385e2c80e6e4f21ebc0145", "fusion_lon": 0.0}, {"rental_uris": {"ios": "https://dc.lft.to/lastmile_qr_scan", "android": "https://dc.lft.to/lastmile_qr_scan"}, "type": "electric_bike", "name": "eeac409edceac3e1ed6609e9ab2183f6", "is_reserved": 0, "lon": -77.10211966666667, "is_disabled": 0, "fusion_lat": 0.0, "lat": 38.91999583333333, "bike_id": "eeac409edceac3e1ed6609e9ab2183f6", "fusion_lon": 0.0}, {"rental_uris": {"ios": "https://dc.lft.to/lastmile_qr_scan", "android": "https://dc.lft.to/lastmile_qr_scan"}, "type": "electric_scooter", "name": "f54659cd74f64d85e74e0a78e75616e3", "is_reserved": 0, "lon": -76.985069, "is_disabled": 0, "fusion_lat": 0.0, "lat": 38.87994833333333, "bike_id": "f54659cd74f64d85e74e0a78e75616e3", "fusion_lon": 0.0}, {"rental_uris": {"ios": "https://dc.lft.to/lastmile_qr_scan", "android": "https://dc.lft.to/lastmile_qr_scan"}, "type": "electric_bike", "name": "2ff791a0b2a7b716cce8069761a390de", "is_reserved": 0, "lon": -76.986823, "is_disabled": 0, "fusion_lat": 0.0, "lat": 38.944738, "bike_id": "2ff791a0b2a7b716cce8069761a390de", "fusion_lon": 0.0}, {"rental_uris": {"ios": "https://dc.lft.to/lastmile_qr_scan", "android": "https://dc.lft.to/lastmile_qr_scan"}, "type": "electric_scooter", "name": "dcca7d8791db670f678d0152873a3055", "is_reserved": 0, "lon": -77.02198883333334, "is_disabled": 0, "fusion_lat": 0.0, "lat": 38.89491733333333, "bike_id": "dcca7d8791db670f678d0152873a3055", "fusion_lon": 0.0}, {"rental_uris": {"ios": "https://dc.lft.to/lastmile_qr_scan", "android": "https://dc.lft.to/lastmile_qr_scan"}, "type": "electric_bike", "name": "62e3420161d0cc75a561933ebacf957d", "is_reserved": 0, "lon": -77.008243, "is_disabled": 0, "fusion_lat": 0.0, "lat": 38.87514866666667, "bike_id": "62e3420161d0cc75a561933ebacf957d", "fusion_lon": 0.0}, {"rental_uris": {"ios": "https://dc.lft.to/lastmile_qr_scan", "android": "https://dc.lft.to/lastmile_qr_scan"}, "type": "electric_scooter", "name": "5c308d9bb8494471f93ee009eed9eb35", "is_reserved": 0, "lon": -77.02586116666667, "is_disabled": 0, "fusion_lat": 0.0, "lat": 38.9582755, "bike_id": "5c308d9bb8494471f93ee009eed9eb35", "fusion_lon": 0.0}, {"rental_uris": {"ios": "https://dc.lft.to/lastmile_qr_scan", "android": "https://dc.lft.to/lastmile_qr_scan"}, "type": "electric_scooter", "name": "a8c0ab6a5d123e1f07c3f9d0dd892bad", "is_reserved": 0, "lon": -77.0249975, "is_disabled": 0, "fusion_lat": 0.0, "lat": 38.91966333333333, "bike_id": "a8c0ab6a5d123e1f07c3f9d0dd892bad", "fusion_lon": 0.0}, {"rental_uris": {"ios": "https://dc.lft.to/lastmile_qr_scan", "android": "https://dc.lft.to/lastmile_qr_scan"}, "type": "electric_scooter", "name": "4eac85c333fda7f16ba9257815cc4380", "is_reserved": 0, "lon": -77.03341433333334, "is_disabled": 0, "fusion_lat": 0.0, "lat": 38.89901916666667, "bike_id": "4eac85c333fda7f16ba9257815cc4380", "fusion_lon": 0.0}, {"rental_uris": {"ios": "https://dc.lft.to/lastmile_qr_scan", "android": "https://dc.lft.to/lastmile_qr_scan"}, "type": "electric_scooter", "name": "f2b458b2e5306b2073a28136dfb8c52c", "is_reserved": 0, "lon": -77.0248065, "is_disabled": 0, "fusion_lat": 0.0, "lat": 38.918151333333334, "bike_id": "f2b458b2e5306b2073a28136dfb8c52c", "fusion_lon": 0.0}, {"rental_uris": {"ios": "https://dc.lft.to/lastmile_qr_scan", "android": "https://dc.lft.to/lastmile_qr_scan"}, "type": "electric_bike", "name": "9bb301994ec85f2e38da6576a2763d62", "is_reserved": 0, "lon": -76.98878166666667, "is_disabled": 0, "fusion_lat": 0.0, "lat": 38.9211505, "bike_id": "9bb301994ec85f2e38da6576a2763d62", "fusion_lon": 0.0}, {"rental_uris": {"ios": "https://dc.lft.to/lastmile_qr_scan", "android": "https://dc.lft.to/lastmile_qr_scan"}, "type": "electric_scooter", "name": "38f4e148e72eff5e9f457e1fc0ed0a11", "is_reserved": 0, "lon": -77.02296816666667, "is_disabled": 0, "fusion_lat": 0.0, "lat": 38.917582333333335, "bike_id": "38f4e148e72eff5e9f457e1fc0ed0a11", "fusion_lon": 0.0}, {"rental_uris": {"ios": "https://dc.lft.to/lastmile_qr_scan", "android": "https://dc.lft.to/lastmile_qr_scan"}, "type": "electric_scooter", "name": "8e0f8ee0aa61596e435e94e941e259bd", "is_reserved": 0, "lon": -77.02587933333334, "is_disabled": 0, "fusion_lat": 0.0, "lat": 38.904940333333336, "bike_id": "8e0f8ee0aa61596e435e94e941e259bd", "fusion_lon": 0.0}, {"rental_uris": {"ios": "https://dc.lft.to/lastmile_qr_scan", "android": "https://dc.lft.to/lastmile_qr_scan"}, "type": "electric_scooter", "name": "40b29d3cfb9e5c13cc0325bb816b07b7", "is_reserved": 0, "lon": -77.00196233333334, "is_disabled": 0, "fusion_lat": 0.0, "lat": 38.90043983333333, "bike_id": "40b29d3cfb9e5c13cc0325bb816b07b7", "fusion_lon": 0.0}, {"rental_uris": {"ios": "https://dc.lft.to/lastmile_qr_scan", "android": "https://dc.lft.to/lastmile_qr_scan"}, "type": "electric_scooter", "name": "4536fc5f4e60a3758914d9976c6c7d2f", "is_reserved": 0, "lon": -76.92634783333334, "is_disabled": 0, "fusion_lat": 0.0, "lat": 38.9019175, "bike_id": "4536fc5f4e60a3758914d9976c6c7d2f", "fusion_lon": 0.0}, {"rental_uris": {"ios": "https://dc.lft.to/lastmile_qr_scan", "android": "https://dc.lft.to/lastmile_qr_scan"}, "type": "electric_scooter", "name": "a8e019f61fe3f1165eaf32ce34b09aa8", "is_reserved": 0, "lon": -77.02962433333333, "is_disabled": 0, "fusion_lat": 0.0, "lat": 38.92462316666666, "bike_id": "a8e019f61fe3f1165eaf32ce34b09aa8", "fusion_lon": 0.0}, {"rental_uris": {"ios": "https://dc.lft.to/lastmile_qr_scan", "android": "https://dc.lft.to/lastmile_qr_scan"}, "type": "electric_scooter", "name": "6981dd8b0954677826e2fb9b5a08365b", "is_reserved": 0, "lon": -76.98334283333334, "is_disabled": 0, "fusion_lat": 0.0, "lat": 38.90090283333333, "bike_id": "6981dd8b0954677826e2fb9b5a08365b", "fusion_lon": 0.0}, {"rental_uris": {"ios": "https://dc.lft.to/lastmile_qr_scan", "android": "https://dc.lft.to/lastmile_qr_scan"}, "type": "electric_scooter", "name": "968c10d8e0777e3243040f99ba6fef3e", "is_reserved": 0, "lon": -77.04383733333333, "is_disabled": 0, "fusion_lat": 0.0, "lat": 38.93424316666667, "bike_id": "968c10d8e0777e3243040f99ba6fef3e", "fusion_lon": 0.0}, {"rental_uris": {"ios": "https://dc.lft.to/lastmile_qr_scan", "android": "https://dc.lft.to/lastmile_qr_scan"}, "type": "electric_scooter", "name": "5819fe148e114ed25b089744229bd35c", "is_reserved": 0, "lon": -77.0315835, "is_disabled": 0, "fusion_lat": 0.0, "lat": 38.959351, "bike_id": "5819fe148e114ed25b089744229bd35c", "fusion_lon": 0.0}, {"rental_uris": {"ios": "https://dc.lft.to/lastmile_qr_scan", "android": "https://dc.lft.to/lastmile_qr_scan"}, "type": "electric_scooter", "name": "a6bbb93f36f4731fda30a7b58d6fa5b5", "is_reserved": 0, "lon": -77.04985283333333, "is_disabled": 0, "fusion_lat": 0.0, "lat": 38.90797, "bike_id": "a6bbb93f36f4731fda30a7b58d6fa5b5", "fusion_lon": 0.0}, {"rental_uris": {"ios": "https://dc.lft.to/lastmile_qr_scan", "android": "https://dc.lft.to/lastmile_qr_scan"}, "type": "electric_scooter", "name": "9e1c9a44e07145a1543774b04e829775", "is_reserved": 0, "lon": -76.95201633333333, "is_disabled": 0, "fusion_lat": 0.0, "lat": 38.905139, "bike_id": "9e1c9a44e07145a1543774b04e829775", "fusion_lon": 0.0}, {"rental_uris": {"ios": "https://dc.lft.to/lastmile_qr_scan", "android": "https://dc.lft.to/lastmile_qr_scan"}, "type": "electric_scooter", "name": "a242269518deaf19e66b8f109678a835", "is_reserved": 0, "lon": -77.02684166666667, "is_disabled": 0, "fusion_lat": 0.0, "lat": 38.9137965, "bike_id": "a242269518deaf19e66b8f109678a835", "fusion_lon": 0.0}, {"rental_uris": {"ios": "https://dc.lft.to/lastmile_qr_scan", "android": "https://dc.lft.to/lastmile_qr_scan"}, "type": "electric_scooter", "name": "0641a739041f3425f0e6f16e3bf2af78", "is_reserved": 0, "lon": -77.0262575, "is_disabled": 0, "fusion_lat": 0.0, "lat": 38.88380983333333, "bike_id": "0641a739041f3425f0e6f16e3bf2af78", "fusion_lon": 0.0}, {"rental_uris": {"ios": "https://dc.lft.to/lastmile_qr_scan", "android": "https://dc.lft.to/lastmile_qr_scan"}, "type": "electric_bike", "name": "0701ba6ef4d92da739978a9842624441", "is_reserved": 0, "lon": -77.00197983333334, "is_disabled": 0, "fusion_lat": 0.0, "lat": 38.94152283333333, "bike_id": "0701ba6ef4d92da739978a9842624441", "fusion_lon": 0.0}, {"rental_uris": {"ios": "https://dc.lft.to/lastmile_qr_scan", "android": "https://dc.lft.to/lastmile_qr_scan"}, "type": "electric_scooter", "name": "3c25de820f612d209d7bd9142289caf0", "is_reserved": 0, "lon": -77.02488183333334, "is_disabled": 0, "fusion_lat": 0.0, "lat": 38.918190833333334, "bike_id": "3c25de820f612d209d7bd9142289caf0", "fusion_lon": 0.0}, {"rental_uris": {"ios": "https://dc.lft.to/lastmile_qr_scan", "android": "https://dc.lft.to/lastmile_qr_scan"}, "type": "electric_scooter", "name": "5d358decd93fba4e4326448e78755f4a", "is_reserved": 0, "lon": -77.0321135, "is_disabled": 0, "fusion_lat": 0.0, "lat": 38.913490333333336, "bike_id": "5d358decd93fba4e4326448e78755f4a", "fusion_lon": 0.0}, {"rental_uris": {"ios": "https://dc.lft.to/lastmile_qr_scan", "android": "https://dc.lft.to/lastmile_qr_scan"}, "type": "electric_scooter", "name": "539d668338251613879ea6f9e4ce7823", "is_reserved": 0, "lon": -77.04296916666667, "is_disabled": 0, "fusion_lat": 0.0, "lat": 38.9224275, "bike_id": "539d668338251613879ea6f9e4ce7823", "fusion_lon": 0.0}, {"rental_uris": {"ios": "https://dc.lft.to/lastmile_qr_scan", "android": "https://dc.lft.to/lastmile_qr_scan"}, "type": "electric_scooter", "name": "5ba75d7d36af148272084ca736ac46fe", "is_reserved": 0, "lon": -77.042266, "is_disabled": 0, "fusion_lat": 0.0, "lat": 38.921571166666666, "bike_id": "5ba75d7d36af148272084ca736ac46fe", "fusion_lon": 0.0}, {"rental_uris": {"ios": "https://dc.lft.to/lastmile_qr_scan", "android": "https://dc.lft.to/lastmile_qr_scan"}, "type": "electric_scooter", "name": "c8ab798da8c97281deba86d0399b4630", "is_reserved": 0, "lon": -77.04247016666666, "is_disabled": 0, "fusion_lat": 0.0, "lat": 38.92225033333333, "bike_id": "c8ab798da8c97281deba86d0399b4630", "fusion_lon": 0.0}, {"rental_uris": {"ios": "https://dc.lft.to/lastmile_qr_scan", "android": "https://dc.lft.to/lastmile_qr_scan"}, "type": "electric_scooter", "name": "8c7d6172718976f1c3e48818ed7d5316", "is_reserved": 0, "lon": -77.005874, "is_disabled": 0, "fusion_lat": 0.0, "lat": 38.88595483333334, "bike_id": "8c7d6172718976f1c3e48818ed7d5316", "fusion_lon": 0.0}, {"rental_uris": {"ios": "https://dc.lft.to/lastmile_qr_scan", "android": "https://dc.lft.to/lastmile_qr_scan"}, "type": "electric_scooter", "name": "57cc4ed947807f22285ba7f46901c9a1", "is_reserved": 0, "lon": -77.02357033333334, "is_disabled": 0, "fusion_lat": 0.0, "lat": 38.90972883333333, "bike_id": "57cc4ed947807f22285ba7f46901c9a1", "fusion_lon": 0.0}, {"rental_uris": {"ios": "https://dc.lft.to/lastmile_qr_scan", "android": "https://dc.lft.to/lastmile_qr_scan"}, "type": "electric_scooter", "name": "cc203a5cc0c1c0918de5b657af1976bf", "is_reserved": 0, "lon": -76.94874433333334, "is_disabled": 0, "fusion_lat": 0.0, "lat": 38.8948735, "bike_id": "cc203a5cc0c1c0918de5b657af1976bf", "fusion_lon": 0.0}, {"rental_uris": {"ios": "https://dc.lft.to/lastmile_qr_scan", "android": "https://dc.lft.to/lastmile_qr_scan"}, "type": "electric_scooter", "name": "823b14db512261621fd8bf041b6fa192", "is_reserved": 0, "lon": -77.0421905, "is_disabled": 0, "fusion_lat": 0.0, "lat": 38.921559333333335, "bike_id": "823b14db512261621fd8bf041b6fa192", "fusion_lon": 0.0}, {"rental_uris": {"ios": "https://dc.lft.to/lastmile_qr_scan", "android": "https://dc.lft.to/lastmile_qr_scan"}, "type": "electric_scooter", "name": "f63a143cb26cb8c954a2c9684bbed871", "is_reserved": 0, "lon": -77.04568083333334, "is_disabled": 0, "fusion_lat": 0.0, "lat": 38.9178095, "bike_id": "f63a143cb26cb8c954a2c9684bbed871", "fusion_lon": 0.0}, {"rental_uris": {"ios": "https://dc.lft.to/lastmile_qr_scan", "android": "https://dc.lft.to/lastmile_qr_scan"}, "type": "electric_scooter", "name": "7deac387f3fcf45220da1dd0c7651782", "is_reserved": 0, "lon": -77.046211, "is_disabled": 0, "fusion_lat": 0.0, "lat": 38.91567516666667, "bike_id": "7deac387f3fcf45220da1dd0c7651782", "fusion_lon": 0.0}, {"rental_uris": {"ios": "https://dc.lft.to/lastmile_qr_scan", "android": "https://dc.lft.to/lastmile_qr_scan"}, "type": "electric_scooter", "name": "5f43317342ec3bf2a387ff137c6e20b1", "is_reserved": 0, "lon": -76.9949335, "is_disabled": 0, "fusion_lat": 0.0, "lat": 38.862214333333334, "bike_id": "5f43317342ec3bf2a387ff137c6e20b1", "fusion_lon": 0.0}, {"rental_uris": {"ios": "https://dc.lft.to/lastmile_qr_scan", "android": "https://dc.lft.to/lastmile_qr_scan"}, "type": "electric_scooter", "name": "905a8fc456a8e2afedfadc6d05d51b63", "is_reserved": 0, "lon": -76.9265775, "is_disabled": 0, "fusion_lat": 0.0, "lat": 38.88239383333333, "bike_id": "905a8fc456a8e2afedfadc6d05d51b63", "fusion_lon": 0.0}, {"rental_uris": {"ios": "https://dc.lft.to/lastmile_qr_scan", "android": "https://dc.lft.to/lastmile_qr_scan"}, "type": "electric_scooter", "name": "bc5c9ce66e7a13cc031587965cd845f1", "is_reserved": 0, "lon": -77.06417516666667, "is_disabled": 0, "fusion_lat": 0.0, "lat": 38.905090333333334, "bike_id": "bc5c9ce66e7a13cc031587965cd845f1", "fusion_lon": 0.0}, {"rental_uris": {"ios": "https://dc.lft.to/lastmile_qr_scan", "android": "https://dc.lft.to/lastmile_qr_scan"}, "type": "electric_scooter", "name": "7765c7d1d23804f6ad7088630738b8dc", "is_reserved": 0, "lon": -77.010439, "is_disabled": 0, "fusion_lat": 0.0, "lat": 38.911100166666664, "bike_id": "7765c7d1d23804f6ad7088630738b8dc", "fusion_lon": 0.0}, {"rental_uris": {"ios": "https://dc.lft.to/lastmile_qr_scan", "android": "https://dc.lft.to/lastmile_qr_scan"}, "type": "electric_scooter", "name": "e8b2c1f2c5bb8c21367364cb183e24bf", "is_reserved": 0, "lon": -77.03257766666667, "is_disabled": 0, "fusion_lat": 0.0, "lat": 38.911144, "bike_id": "e8b2c1f2c5bb8c21367364cb183e24bf", "fusion_lon": 0.0}, {"rental_uris": {"ios": "https://dc.lft.to/lastmile_qr_scan", "android": "https://dc.lft.to/lastmile_qr_scan"}, "type": "electric_scooter", "name": "155246b31f37cabe5eec2b37bf064f82", "is_reserved": 0, "lon": -77.01191416666667, "is_disabled": 0, "fusion_lat": 0.0, "lat": 38.89717533333334, "bike_id": "155246b31f37cabe5eec2b37bf064f82", "fusion_lon": 0.0}, {"rental_uris": {"ios": "https://dc.lft.to/lastmile_qr_scan", "android": "https://dc.lft.to/lastmile_qr_scan"}, "type": "electric_scooter", "name": "e0ef348c76643d0fd0c4a842f4fa4991", "is_reserved": 0, "lon": -77.03020666666667, "is_disabled": 0, "fusion_lat": 0.0, "lat": 38.878479666666664, "bike_id": "e0ef348c76643d0fd0c4a842f4fa4991", "fusion_lon": 0.0}, {"rental_uris": {"ios": "https://dc.lft.to/lastmile_qr_scan", "android": "https://dc.lft.to/lastmile_qr_scan"}, "type": "electric_scooter", "name": "7a6fa4729145f5bc0d07df77a0c38dde", "is_reserved": 0, "lon": -77.06609866666666, "is_disabled": 0, "fusion_lat": 0.0, "lat": 38.905284, "bike_id": "7a6fa4729145f5bc0d07df77a0c38dde", "fusion_lon": 0.0}, {"rental_uris": {"ios": "https://dc.lft.to/lastmile_qr_scan", "android": "https://dc.lft.to/lastmile_qr_scan"}, "type": "electric_bike", "name": "616a89f826aa8fb09d7ab15a8965c81b", "is_reserved": 0, "lon": -77.0282865, "is_disabled": 0, "fusion_lat": 0.0, "lat": 38.965596833333336, "bike_id": "616a89f826aa8fb09d7ab15a8965c81b", "fusion_lon": 0.0}, {"rental_uris": {"ios": "https://dc.lft.to/lastmile_qr_scan", "android": "https://dc.lft.to/lastmile_qr_scan"}, "type": "electric_scooter", "name": "0bb05667176df88f26ba277cf25d8115", "is_reserved": 0, "lon": -77.01843566666666, "is_disabled": 0, "fusion_lat": 0.0, "lat": 38.95431516666667, "bike_id": "0bb05667176df88f26ba277cf25d8115", "fusion_lon": 0.0}, {"rental_uris": {"ios": "https://dc.lft.to/lastmile_qr_scan", "android": "https://dc.lft.to/lastmile_qr_scan"}, "type": "electric_scooter", "name": "6419b096c86fac7ba839565a1b9fa94a", "is_reserved": 0, "lon": -76.98988233333333, "is_disabled": 0, "fusion_lat": 0.0, "lat": 38.91761533333333, "bike_id": "6419b096c86fac7ba839565a1b9fa94a", "fusion_lon": 0.0}, {"rental_uris": {"ios": "https://dc.lft.to/lastmile_qr_scan", "android": "https://dc.lft.to/lastmile_qr_scan"}, "type": "electric_scooter", "name": "50eecbf00734840ba474e9abfa5150f6", "is_reserved": 0, "lon": -77.05126883333334, "is_disabled": 0, "fusion_lat": 0.0, "lat": 38.9038265, "bike_id": "50eecbf00734840ba474e9abfa5150f6", "fusion_lon": 0.0}, {"rental_uris": {"ios": "https://dc.lft.to/lastmile_qr_scan", "android": "https://dc.lft.to/lastmile_qr_scan"}, "type": "electric_scooter", "name": "38250b9ed8c0c8a925b76c2ea470cadf", "is_reserved": 0, "lon": -77.04392883333334, "is_disabled": 0, "fusion_lat": 0.0, "lat": 38.909033, "bike_id": "38250b9ed8c0c8a925b76c2ea470cadf", "fusion_lon": 0.0}, {"rental_uris": {"ios": "https://dc.lft.to/lastmile_qr_scan", "android": "https://dc.lft.to/lastmile_qr_scan"}, "type": "electric_scooter", "name": "455a77ebc349ba53584ec04612217dcc", "is_reserved": 0, "lon": -77.02695666666666, "is_disabled": 0, "fusion_lat": 0.0, "lat": 38.91372333333333, "bike_id": "455a77ebc349ba53584ec04612217dcc", "fusion_lon": 0.0}, {"rental_uris": {"ios": "https://dc.lft.to/lastmile_qr_scan", "android": "https://dc.lft.to/lastmile_qr_scan"}, "type": "electric_scooter", "name": "855933941942f2f57b30897fbde3a464", "is_reserved": 0, "lon": -76.996289, "is_disabled": 0, "fusion_lat": 0.0, "lat": 38.90447666666667, "bike_id": "855933941942f2f57b30897fbde3a464", "fusion_lon": 0.0}, {"rental_uris": {"ios": "https://dc.lft.to/lastmile_qr_scan", "android": "https://dc.lft.to/lastmile_qr_scan"}, "type": "electric_scooter", "name": "8aac70f88846c90d982d307e4e5689ce", "is_reserved": 0, "lon": -77.02805433333333, "is_disabled": 0, "fusion_lat": 0.0, "lat": 38.90737333333333, "bike_id": "8aac70f88846c90d982d307e4e5689ce", "fusion_lon": 0.0}, {"rental_uris": {"ios": "https://dc.lft.to/lastmile_qr_scan", "android": "https://dc.lft.to/lastmile_qr_scan"}, "type": "electric_scooter", "name": "b2c9eab19a9446b35a5b0b0821418ecb", "is_reserved": 0, "lon": -77.028305, "is_disabled": 0, "fusion_lat": 0.0, "lat": 38.938835833333336, "bike_id": "b2c9eab19a9446b35a5b0b0821418ecb", "fusion_lon": 0.0}, {"rental_uris": {"ios": "https://dc.lft.to/lastmile_qr_scan", "android": "https://dc.lft.to/lastmile_qr_scan"}, "type": "electric_scooter", "name": "13a6a7fd0916395063b9e3bc8992d5ac", "is_reserved": 0, "lon": -77.07801283333333, "is_disabled": 0, "fusion_lat": 0.0, "lat": 38.943084999999996, "bike_id": "13a6a7fd0916395063b9e3bc8992d5ac", "fusion_lon": 0.0}, {"rental_uris": {"ios": "https://dc.lft.to/lastmile_qr_scan", "android": "https://dc.lft.to/lastmile_qr_scan"}, "type": "electric_scooter", "name": "1d4db8b0565228d2bd3a70c54b00d790", "is_reserved": 0, "lon": -76.99384016666667, "is_disabled": 0, "fusion_lat": 0.0, "lat": 38.910122333333334, "bike_id": "1d4db8b0565228d2bd3a70c54b00d790", "fusion_lon": 0.0}, {"rental_uris": {"ios": "https://dc.lft.to/lastmile_qr_scan", "android": "https://dc.lft.to/lastmile_qr_scan"}, "type": "electric_scooter", "name": "8bae5fb683443a83c6cb57a532a659af", "is_reserved": 0, "lon": -77.00789866666666, "is_disabled": 0, "fusion_lat": 0.0, "lat": 38.897257, "bike_id": "8bae5fb683443a83c6cb57a532a659af", "fusion_lon": 0.0}, {"rental_uris": {"ios": "https://dc.lft.to/lastmile_qr_scan", "android": "https://dc.lft.to/lastmile_qr_scan"}, "type": "electric_bike", "name": "b6294828974c8d373f0f7604120bacd0", "is_reserved": 0, "lon": -77.11321016666666, "is_disabled": 0, "fusion_lat": 0.0, "lat": 38.855848, "bike_id": "b6294828974c8d373f0f7604120bacd0", "fusion_lon": 0.0}, {"rental_uris": {"ios": "https://dc.lft.to/lastmile_qr_scan", "android": "https://dc.lft.to/lastmile_qr_scan"}, "type": "electric_scooter", "name": "73b94b4ff152a019e1c445a77e2cfd84", "is_reserved": 0, "lon": -77.0277895, "is_disabled": 0, "fusion_lat": 0.0, "lat": 38.917078333333336, "bike_id": "73b94b4ff152a019e1c445a77e2cfd84", "fusion_lon": 0.0}, {"rental_uris": {"ios": "https://dc.lft.to/lastmile_qr_scan", "android": "https://dc.lft.to/lastmile_qr_scan"}, "type": "electric_scooter", "name": "5be20ed69188ba095639f76c3def2ee2", "is_reserved": 0, "lon": -77.04815266666667, "is_disabled": 0, "fusion_lat": 0.0, "lat": 38.91640783333333, "bike_id": "5be20ed69188ba095639f76c3def2ee2", "fusion_lon": 0.0}, {"rental_uris": {"ios": "https://dc.lft.to/lastmile_qr_scan", "android": "https://dc.lft.to/lastmile_qr_scan"}, "type": "electric_scooter", "name": "17dc38620b074a1ab5d1cd65f65f2129", "is_reserved": 0, "lon": -77.02529416666667, "is_disabled": 0, "fusion_lat": 0.0, "lat": 38.916850333333336, "bike_id": "17dc38620b074a1ab5d1cd65f65f2129", "fusion_lon": 0.0}, {"rental_uris": {"ios": "https://dc.lft.to/lastmile_qr_scan", "android": "https://dc.lft.to/lastmile_qr_scan"}, "type": "electric_scooter", "name": "4f598c46573dd7fa64df15f41271649d", "is_reserved": 0, "lon": -77.03082666666667, "is_disabled": 0, "fusion_lat": 0.0, "lat": 38.93874816666667, "bike_id": "4f598c46573dd7fa64df15f41271649d", "fusion_lon": 0.0}, {"rental_uris": {"ios": "https://dc.lft.to/lastmile_qr_scan", "android": "https://dc.lft.to/lastmile_qr_scan"}, "type": "electric_scooter", "name": "70cdb92d86657c11c42e827f92593030", "is_reserved": 0, "lon": -77.0434565, "is_disabled": 0, "fusion_lat": 0.0, "lat": 38.899816, "bike_id": "70cdb92d86657c11c42e827f92593030", "fusion_lon": 0.0}, {"rental_uris": {"ios": "https://dc.lft.to/lastmile_qr_scan", "android": "https://dc.lft.to/lastmile_qr_scan"}, "type": "electric_scooter", "name": "697114db41fe14ff24d14db98fd34835", "is_reserved": 0, "lon": -77.0213715, "is_disabled": 0, "fusion_lat": 0.0, "lat": 38.92489716666667, "bike_id": "697114db41fe14ff24d14db98fd34835", "fusion_lon": 0.0}, {"rental_uris": {"ios": "https://dc.lft.to/lastmile_qr_scan", "android": "https://dc.lft.to/lastmile_qr_scan"}, "type": "electric_scooter", "name": "d3aba3bf8ee20062f938cdb1d3bc6cd0", "is_reserved": 0, "lon": -77.03260083333333, "is_disabled": 0, "fusion_lat": 0.0, "lat": 38.93888616666667, "bike_id": "d3aba3bf8ee20062f938cdb1d3bc6cd0", "fusion_lon": 0.0}, {"rental_uris": {"ios": "https://dc.lft.to/lastmile_qr_scan", "android": "https://dc.lft.to/lastmile_qr_scan"}, "type": "electric_bike", "name": "7b1d796a2708a00a29afe0ea28816570", "is_reserved": 0, "lon": -77.12887883333333, "is_disabled": 0, "fusion_lat": 0.0, "lat": 38.90599916666667, "bike_id": "7b1d796a2708a00a29afe0ea28816570", "fusion_lon": 0.0}, {"rental_uris": {"ios": "https://dc.lft.to/lastmile_qr_scan", "android": "https://dc.lft.to/lastmile_qr_scan"}, "type": "electric_scooter", "name": "7916d82fb31c7eecb54fa5ba5abbdfe1", "is_reserved": 0, "lon": -77.042387, "is_disabled": 0, "fusion_lat": 0.0, "lat": 38.92276733333333, "bike_id": "7916d82fb31c7eecb54fa5ba5abbdfe1", "fusion_lon": 0.0}, {"rental_uris": {"ios": "https://dc.lft.to/lastmile_qr_scan", "android": "https://dc.lft.to/lastmile_qr_scan"}, "type": "electric_scooter", "name": "f1bdd084e37fe862113e2ef8ca13edf9", "is_reserved": 0, "lon": -77.040016, "is_disabled": 0, "fusion_lat": 0.0, "lat": 38.93425583333333, "bike_id": "f1bdd084e37fe862113e2ef8ca13edf9", "fusion_lon": 0.0}, {"rental_uris": {"ios": "https://dc.lft.to/lastmile_qr_scan", "android": "https://dc.lft.to/lastmile_qr_scan"}, "type": "electric_scooter", "name": "4daa13962d28481022f3121c4bdaa823", "is_reserved": 0, "lon": -77.00057266666667, "is_disabled": 0, "fusion_lat": 0.0, "lat": 38.87688766666667, "bike_id": "4daa13962d28481022f3121c4bdaa823", "fusion_lon": 0.0}, {"rental_uris": {"ios": "https://dc.lft.to/lastmile_qr_scan", "android": "https://dc.lft.to/lastmile_qr_scan"}, "type": "electric_bike", "name": "c0057b1784e4ca9ef880061cf76d13a0", "is_reserved": 0, "lon": -76.9688645, "is_disabled": 0, "fusion_lat": 0.0, "lat": 38.86982966666667, "bike_id": "c0057b1784e4ca9ef880061cf76d13a0", "fusion_lon": 0.0}, {"rental_uris": {"ios": "https://dc.lft.to/lastmile_qr_scan", "android": "https://dc.lft.to/lastmile_qr_scan"}, "type": "electric_scooter", "name": "133c1d586a840f394c308c5236dd7274", "is_reserved": 0, "lon": -76.991465, "is_disabled": 0, "fusion_lat": 0.0, "lat": 38.87337733333333, "bike_id": "133c1d586a840f394c308c5236dd7274", "fusion_lon": 0.0}, {"rental_uris": {"ios": "https://dc.lft.to/lastmile_qr_scan", "android": "https://dc.lft.to/lastmile_qr_scan"}, "type": "electric_scooter", "name": "60affe5a0649bfdfd1d668c0ac446dfc", "is_reserved": 0, "lon": -77.0271215, "is_disabled": 0, "fusion_lat": 0.0, "lat": 38.92065183333333, "bike_id": "60affe5a0649bfdfd1d668c0ac446dfc", "fusion_lon": 0.0}, {"rental_uris": {"ios": "https://dc.lft.to/lastmile_qr_scan", "android": "https://dc.lft.to/lastmile_qr_scan"}, "type": "electric_scooter", "name": "601b47d714a85ec7106df98e1dc8513e", "is_reserved": 0, "lon": -77.04479433333333, "is_disabled": 0, "fusion_lat": 0.0, "lat": 38.910856833333334, "bike_id": "601b47d714a85ec7106df98e1dc8513e", "fusion_lon": 0.0}, {"rental_uris": {"ios": "https://dc.lft.to/lastmile_qr_scan", "android": "https://dc.lft.to/lastmile_qr_scan"}, "type": "electric_scooter", "name": "b28f85bb733f778035ab7e8932af7330", "is_reserved": 0, "lon": -77.06395566666667, "is_disabled": 0, "fusion_lat": 0.0, "lat": 38.90861733333333, "bike_id": "b28f85bb733f778035ab7e8932af7330", "fusion_lon": 0.0}, {"rental_uris": {"ios": "https://dc.lft.to/lastmile_qr_scan", "android": "https://dc.lft.to/lastmile_qr_scan"}, "type": "electric_scooter", "name": "05b252da5d16ad0b84706dcb8e82f315", "is_reserved": 0, "lon": -77.07157066666667, "is_disabled": 0, "fusion_lat": 0.0, "lat": 38.90780316666667, "bike_id": "05b252da5d16ad0b84706dcb8e82f315", "fusion_lon": 0.0}, {"rental_uris": {"ios": "https://dc.lft.to/lastmile_qr_scan", "android": "https://dc.lft.to/lastmile_qr_scan"}, "type": "electric_scooter", "name": "bbbd31a39813aa578a436e8168520547", "is_reserved": 0, "lon": -77.03873216666666, "is_disabled": 0, "fusion_lat": 0.0, "lat": 38.90369916666667, "bike_id": "bbbd31a39813aa578a436e8168520547", "fusion_lon": 0.0}, {"rental_uris": {"ios": "https://dc.lft.to/lastmile_qr_scan", "android": "https://dc.lft.to/lastmile_qr_scan"}, "type": "electric_scooter", "name": "9e7ed6f53980d0b9776382f49ee534d3", "is_reserved": 0, "lon": -77.05317516666666, "is_disabled": 0, "fusion_lat": 0.0, "lat": 38.940947666666666, "bike_id": "9e7ed6f53980d0b9776382f49ee534d3", "fusion_lon": 0.0}, {"rental_uris": {"ios": "https://dc.lft.to/lastmile_qr_scan", "android": "https://dc.lft.to/lastmile_qr_scan"}, "type": "electric_scooter", "name": "39b381376af8d557b6a64330b66f6f31", "is_reserved": 0, "lon": -77.032182, "is_disabled": 0, "fusion_lat": 0.0, "lat": 38.9185815, "bike_id": "39b381376af8d557b6a64330b66f6f31", "fusion_lon": 0.0}, {"rental_uris": {"ios": "https://dc.lft.to/lastmile_qr_scan", "android": "https://dc.lft.to/lastmile_qr_scan"}, "type": "electric_scooter", "name": "c63f2a0be97d83614f53096be77271b2", "is_reserved": 0, "lon": -77.02548316666666, "is_disabled": 0, "fusion_lat": 0.0, "lat": 38.917094, "bike_id": "c63f2a0be97d83614f53096be77271b2", "fusion_lon": 0.0}, {"rental_uris": {"ios": "https://dc.lft.to/lastmile_qr_scan", "android": "https://dc.lft.to/lastmile_qr_scan"}, "type": "electric_scooter", "name": "7121e4c066900dff129dbf8d4075b1f2", "is_reserved": 0, "lon": -77.04080933333333, "is_disabled": 0, "fusion_lat": 0.0, "lat": 38.9207835, "bike_id": "7121e4c066900dff129dbf8d4075b1f2", "fusion_lon": 0.0}, {"rental_uris": {"ios": "https://dc.lft.to/lastmile_qr_scan", "android": "https://dc.lft.to/lastmile_qr_scan"}, "type": "electric_scooter", "name": "111d7ab157349056b16186829d815d0e", "is_reserved": 0, "lon": -76.9415075, "is_disabled": 0, "fusion_lat": 0.0, "lat": 38.901726333333336, "bike_id": "111d7ab157349056b16186829d815d0e", "fusion_lon": 0.0}, {"rental_uris": {"ios": "https://dc.lft.to/lastmile_qr_scan", "android": "https://dc.lft.to/lastmile_qr_scan"}, "type": "electric_scooter", "name": "df04f368dc1366da1b5c9094d87101b2", "is_reserved": 0, "lon": -76.97653233333334, "is_disabled": 0, "fusion_lat": 0.0, "lat": 38.90362616666667, "bike_id": "df04f368dc1366da1b5c9094d87101b2", "fusion_lon": 0.0}, {"rental_uris": {"ios": "https://dc.lft.to/lastmile_qr_scan", "android": "https://dc.lft.to/lastmile_qr_scan"}, "type": "electric_scooter", "name": "ec11ebcfd80c7f52faae547d5daa2f27", "is_reserved": 0, "lon": -77.02818583333334, "is_disabled": 0, "fusion_lat": 0.0, "lat": 38.885176, "bike_id": "ec11ebcfd80c7f52faae547d5daa2f27", "fusion_lon": 0.0}, {"rental_uris": {"ios": "https://dc.lft.to/lastmile_qr_scan", "android": "https://dc.lft.to/lastmile_qr_scan"}, "type": "electric_scooter", "name": "ce2bbb6f780e6dcbe6bad2c655fd9484", "is_reserved": 0, "lon": -77.0358505, "is_disabled": 0, "fusion_lat": 0.0, "lat": 38.907605, "bike_id": "ce2bbb6f780e6dcbe6bad2c655fd9484", "fusion_lon": 0.0}, {"rental_uris": {"ios": "https://dc.lft.to/lastmile_qr_scan", "android": "https://dc.lft.to/lastmile_qr_scan"}, "type": "electric_scooter", "name": "a651e249254cf01342caad7c828e9c1e", "is_reserved": 0, "lon": -77.0152315, "is_disabled": 0, "fusion_lat": 0.0, "lat": 38.88711283333333, "bike_id": "a651e249254cf01342caad7c828e9c1e", "fusion_lon": 0.0}, {"rental_uris": {"ios": "https://dc.lft.to/lastmile_qr_scan", "android": "https://dc.lft.to/lastmile_qr_scan"}, "type": "electric_scooter", "name": "0f7286bb4580a27ee83bf6909afa4b88", "is_reserved": 0, "lon": -77.031727, "is_disabled": 0, "fusion_lat": 0.0, "lat": 38.915582, "bike_id": "0f7286bb4580a27ee83bf6909afa4b88", "fusion_lon": 0.0}, {"rental_uris": {"ios": "https://dc.lft.to/lastmile_qr_scan", "android": "https://dc.lft.to/lastmile_qr_scan"}, "type": "electric_scooter", "name": "dc118d6e96aac74e1e43823e520aa3cd", "is_reserved": 0, "lon": -77.0430255, "is_disabled": 0, "fusion_lat": 0.0, "lat": 38.903625, "bike_id": "dc118d6e96aac74e1e43823e520aa3cd", "fusion_lon": 0.0}, {"rental_uris": {"ios": "https://dc.lft.to/lastmile_qr_scan", "android": "https://dc.lft.to/lastmile_qr_scan"}, "type": "electric_scooter", "name": "f825c34c36a2427fde9feef6c70a1ee4", "is_reserved": 0, "lon": -77.00042766666667, "is_disabled": 0, "fusion_lat": 0.0, "lat": 38.8739255, "bike_id": "f825c34c36a2427fde9feef6c70a1ee4", "fusion_lon": 0.0}, {"rental_uris": {"ios": "https://dc.lft.to/lastmile_qr_scan", "android": "https://dc.lft.to/lastmile_qr_scan"}, "type": "electric_scooter", "name": "b161418f70630d03525b1debff458ad3", "is_reserved": 0, "lon": -76.98211916666666, "is_disabled": 0, "fusion_lat": 0.0, "lat": 38.886421, "bike_id": "b161418f70630d03525b1debff458ad3", "fusion_lon": 0.0}, {"rental_uris": {"ios": "https://dc.lft.to/lastmile_qr_scan", "android": "https://dc.lft.to/lastmile_qr_scan"}, "type": "electric_scooter", "name": "fa67943503f13f5f5607eb0a70c84c9c", "is_reserved": 0, "lon": -77.02293916666666, "is_disabled": 0, "fusion_lat": 0.0, "lat": 38.916905666666665, "bike_id": "fa67943503f13f5f5607eb0a70c84c9c", "fusion_lon": 0.0}, {"rental_uris": {"ios": "https://dc.lft.to/lastmile_qr_scan", "android": "https://dc.lft.to/lastmile_qr_scan"}, "type": "electric_scooter", "name": "145a43ba064129b897e0c89391e627a1", "is_reserved": 0, "lon": -76.99475333333334, "is_disabled": 0, "fusion_lat": 0.0, "lat": 38.8621245, "bike_id": "145a43ba064129b897e0c89391e627a1", "fusion_lon": 0.0}, {"rental_uris": {"ios": "https://dc.lft.to/lastmile_qr_scan", "android": "https://dc.lft.to/lastmile_qr_scan"}, "type": "electric_scooter", "name": "58da1cf8b8cf0cddafbc085a826f0ad7", "is_reserved": 0, "lon": -77.00799066666667, "is_disabled": 0, "fusion_lat": 0.0, "lat": 38.912649, "bike_id": "58da1cf8b8cf0cddafbc085a826f0ad7", "fusion_lon": 0.0}, {"rental_uris": {"ios": "https://dc.lft.to/lastmile_qr_scan", "android": "https://dc.lft.to/lastmile_qr_scan"}, "type": "electric_scooter", "name": "c66d67163f789982d1f69fca21ebb190", "is_reserved": 0, "lon": -77.029415, "is_disabled": 0, "fusion_lat": 0.0, "lat": 38.896236, "bike_id": "c66d67163f789982d1f69fca21ebb190", "fusion_lon": 0.0}, {"rental_uris": {"ios": "https://dc.lft.to/lastmile_qr_scan", "android": "https://dc.lft.to/lastmile_qr_scan"}, "type": "electric_scooter", "name": "edb3254bd35b9a7d9766c5cc65d2a8ed", "is_reserved": 0, "lon": -77.0031655, "is_disabled": 0, "fusion_lat": 0.0, "lat": 38.87727366666667, "bike_id": "edb3254bd35b9a7d9766c5cc65d2a8ed", "fusion_lon": 0.0}, {"rental_uris": {"ios": "https://dc.lft.to/lastmile_qr_scan", "android": "https://dc.lft.to/lastmile_qr_scan"}, "type": "electric_scooter", "name": "31bd57cc72e9cf52191bd7bb5cf381b4", "is_reserved": 0, "lon": -77.02189216666666, "is_disabled": 0, "fusion_lat": 0.0, "lat": 38.896033833333334, "bike_id": "31bd57cc72e9cf52191bd7bb5cf381b4", "fusion_lon": 0.0}, {"rental_uris": {"ios": "https://dc.lft.to/lastmile_qr_scan", "android": "https://dc.lft.to/lastmile_qr_scan"}, "type": "electric_scooter", "name": "c02aff4dcf7b32a78c11260b6cfda602", "is_reserved": 0, "lon": -77.06113166666667, "is_disabled": 0, "fusion_lat": 0.0, "lat": 38.904394, "bike_id": "c02aff4dcf7b32a78c11260b6cfda602", "fusion_lon": 0.0}, {"rental_uris": {"ios": "https://dc.lft.to/lastmile_qr_scan", "android": "https://dc.lft.to/lastmile_qr_scan"}, "type": "electric_bike", "name": "05a127f9b95041fa8fdf2470d2e2c359", "is_reserved": 0, "lon": -76.998014, "is_disabled": 0, "fusion_lat": 0.0, "lat": 38.905364166666665, "bike_id": "05a127f9b95041fa8fdf2470d2e2c359", "fusion_lon": 0.0}, {"rental_uris": {"ios": "https://dc.lft.to/lastmile_qr_scan", "android": "https://dc.lft.to/lastmile_qr_scan"}, "type": "electric_scooter", "name": "b13f7f29389cd88acd74546882ad8891", "is_reserved": 0, "lon": -77.0083965, "is_disabled": 0, "fusion_lat": 0.0, "lat": 38.897135666666664, "bike_id": "b13f7f29389cd88acd74546882ad8891", "fusion_lon": 0.0}, {"rental_uris": {"ios": "https://dc.lft.to/lastmile_qr_scan", "android": "https://dc.lft.to/lastmile_qr_scan"}, "type": "electric_scooter", "name": "f238542b119f95603a7a4d65e447d992", "is_reserved": 0, "lon": -77.0181395, "is_disabled": 0, "fusion_lat": 0.0, "lat": 38.944202, "bike_id": "f238542b119f95603a7a4d65e447d992", "fusion_lon": 0.0}, {"rental_uris": {"ios": "https://dc.lft.to/lastmile_qr_scan", "android": "https://dc.lft.to/lastmile_qr_scan"}, "type": "electric_scooter", "name": "f6598068a8514a85d6b951197e91ed30", "is_reserved": 0, "lon": -77.0468195, "is_disabled": 0, "fusion_lat": 0.0, "lat": 38.918191, "bike_id": "f6598068a8514a85d6b951197e91ed30", "fusion_lon": 0.0}, {"rental_uris": {"ios": "https://dc.lft.to/lastmile_qr_scan", "android": "https://dc.lft.to/lastmile_qr_scan"}, "type": "electric_scooter", "name": "8c59735e38e53124da1557a59aec81d3", "is_reserved": 0, "lon": -77.02127966666667, "is_disabled": 0, "fusion_lat": 0.0, "lat": 38.91611666666667, "bike_id": "8c59735e38e53124da1557a59aec81d3", "fusion_lon": 0.0}, {"rental_uris": {"ios": "https://dc.lft.to/lastmile_qr_scan", "android": "https://dc.lft.to/lastmile_qr_scan"}, "type": "electric_scooter", "name": "db0a115c97683f554ccf54ef5650ccb9", "is_reserved": 0, "lon": -77.07221433333333, "is_disabled": 0, "fusion_lat": 0.0, "lat": 38.934318833333336, "bike_id": "db0a115c97683f554ccf54ef5650ccb9", "fusion_lon": 0.0}, {"rental_uris": {"ios": "https://dc.lft.to/lastmile_qr_scan", "android": "https://dc.lft.to/lastmile_qr_scan"}, "type": "electric_scooter", "name": "0e6847e719521490817c6cfe01a41d09", "is_reserved": 0, "lon": -77.07148383333333, "is_disabled": 0, "fusion_lat": 0.0, "lat": 38.952936, "bike_id": "0e6847e719521490817c6cfe01a41d09", "fusion_lon": 0.0}, {"rental_uris": {"ios": "https://dc.lft.to/lastmile_qr_scan", "android": "https://dc.lft.to/lastmile_qr_scan"}, "type": "electric_scooter", "name": "736fa65f52a13e5ad3cd4ce7bf9d4c16", "is_reserved": 0, "lon": -77.07702283333333, "is_disabled": 0, "fusion_lat": 0.0, "lat": 38.89306366666667, "bike_id": "736fa65f52a13e5ad3cd4ce7bf9d4c16", "fusion_lon": 0.0}, {"rental_uris": {"ios": "https://dc.lft.to/lastmile_qr_scan", "android": "https://dc.lft.to/lastmile_qr_scan"}, "type": "electric_scooter", "name": "916502f8200239c9b68af6bb77525649", "is_reserved": 0, "lon": -77.04487483333334, "is_disabled": 0, "fusion_lat": 0.0, "lat": 38.900641, "bike_id": "916502f8200239c9b68af6bb77525649", "fusion_lon": 0.0}, {"rental_uris": {"ios": "https://dc.lft.to/lastmile_qr_scan", "android": "https://dc.lft.to/lastmile_qr_scan"}, "type": "electric_scooter", "name": "58587f51a813a3a16122d726868f731c", "is_reserved": 0, "lon": -77.0153855, "is_disabled": 0, "fusion_lat": 0.0, "lat": 38.902536833333336, "bike_id": "58587f51a813a3a16122d726868f731c", "fusion_lon": 0.0}, {"rental_uris": {"ios": "https://dc.lft.to/lastmile_qr_scan", "android": "https://dc.lft.to/lastmile_qr_scan"}, "type": "electric_scooter", "name": "827d7cdb59d8a895b9f86a0a96abf82f", "is_reserved": 0, "lon": -76.988874, "is_disabled": 0, "fusion_lat": 0.0, "lat": 38.89951766666667, "bike_id": "827d7cdb59d8a895b9f86a0a96abf82f", "fusion_lon": 0.0}, {"rental_uris": {"ios": "https://dc.lft.to/lastmile_qr_scan", "android": "https://dc.lft.to/lastmile_qr_scan"}, "type": "electric_scooter", "name": "afc5256a5a52f6ed742bcb90975a6847", "is_reserved": 0, "lon": -77.0310275, "is_disabled": 0, "fusion_lat": 0.0, "lat": 38.918776666666666, "bike_id": "afc5256a5a52f6ed742bcb90975a6847", "fusion_lon": 0.0}, {"rental_uris": {"ios": "https://dc.lft.to/lastmile_qr_scan", "android": "https://dc.lft.to/lastmile_qr_scan"}, "type": "electric_scooter", "name": "19cc9a888f380e9f1b02abdc4d5535d0", "is_reserved": 0, "lon": -77.04151683333333, "is_disabled": 0, "fusion_lat": 0.0, "lat": 38.90153516666667, "bike_id": "19cc9a888f380e9f1b02abdc4d5535d0", "fusion_lon": 0.0}, {"rental_uris": {"ios": "https://dc.lft.to/lastmile_qr_scan", "android": "https://dc.lft.to/lastmile_qr_scan"}, "type": "electric_scooter", "name": "5aef6c5e2bc3b7f0329fd7b4e324b40d", "is_reserved": 0, "lon": -77.03186016666666, "is_disabled": 0, "fusion_lat": 0.0, "lat": 38.924872666666666, "bike_id": "5aef6c5e2bc3b7f0329fd7b4e324b40d", "fusion_lon": 0.0}, {"rental_uris": {"ios": "https://dc.lft.to/lastmile_qr_scan", "android": "https://dc.lft.to/lastmile_qr_scan"}, "type": "electric_scooter", "name": "1276f4fa5f15b3fe12451ba11f7946b5", "is_reserved": 0, "lon": -76.99098733333334, "is_disabled": 0, "fusion_lat": 0.0, "lat": 38.85730016666667, "bike_id": "1276f4fa5f15b3fe12451ba11f7946b5", "fusion_lon": 0.0}, {"rental_uris": {"ios": "https://dc.lft.to/lastmile_qr_scan", "android": "https://dc.lft.to/lastmile_qr_scan"}, "type": "electric_scooter", "name": "e4e2bc01bc4076365543becc63e215c5", "is_reserved": 0, "lon": -77.044009, "is_disabled": 0, "fusion_lat": 0.0, "lat": 38.910911, "bike_id": "e4e2bc01bc4076365543becc63e215c5", "fusion_lon": 0.0}, {"rental_uris": {"ios": "https://dc.lft.to/lastmile_qr_scan", "android": "https://dc.lft.to/lastmile_qr_scan"}, "type": "electric_scooter", "name": "a56823da5b404a583566c3f4f32c422a", "is_reserved": 0, "lon": -77.00216, "is_disabled": 0, "fusion_lat": 0.0, "lat": 38.900499, "bike_id": "a56823da5b404a583566c3f4f32c422a", "fusion_lon": 0.0}, {"rental_uris": {"ios": "https://dc.lft.to/lastmile_qr_scan", "android": "https://dc.lft.to/lastmile_qr_scan"}, "type": "electric_scooter", "name": "2905944ed1c0e0525254f0dd7c71325d", "is_reserved": 0, "lon": -76.98275316666667, "is_disabled": 0, "fusion_lat": 0.0, "lat": 38.9034785, "bike_id": "2905944ed1c0e0525254f0dd7c71325d", "fusion_lon": 0.0}, {"rental_uris": {"ios": "https://dc.lft.to/lastmile_qr_scan", "android": "https://dc.lft.to/lastmile_qr_scan"}, "type": "electric_scooter", "name": "5f1a07ec777cce0e3082153d4f0c2794", "is_reserved": 0, "lon": -77.0417405, "is_disabled": 0, "fusion_lat": 0.0, "lat": 38.915502833333335, "bike_id": "5f1a07ec777cce0e3082153d4f0c2794", "fusion_lon": 0.0}, {"rental_uris": {"ios": "https://dc.lft.to/lastmile_qr_scan", "android": "https://dc.lft.to/lastmile_qr_scan"}, "type": "electric_scooter", "name": "1f44368e1167a222b61a28b29f62b3a6", "is_reserved": 0, "lon": -76.94195183333333, "is_disabled": 0, "fusion_lat": 0.0, "lat": 38.90229266666667, "bike_id": "1f44368e1167a222b61a28b29f62b3a6", "fusion_lon": 0.0}, {"rental_uris": {"ios": "https://dc.lft.to/lastmile_qr_scan", "android": "https://dc.lft.to/lastmile_qr_scan"}, "type": "electric_bike", "name": "c1046a5ee0c8d00a07ba4648fc997298", "is_reserved": 0, "lon": -77.06580516666666, "is_disabled": 0, "fusion_lat": 0.0, "lat": 38.911335666666666, "bike_id": "c1046a5ee0c8d00a07ba4648fc997298", "fusion_lon": 0.0}, {"rental_uris": {"ios": "https://dc.lft.to/lastmile_qr_scan", "android": "https://dc.lft.to/lastmile_qr_scan"}, "type": "electric_scooter", "name": "f8fc7de3868e15a1a85dacd8b0ae3cea", "is_reserved": 0, "lon": -77.02614683333333, "is_disabled": 0, "fusion_lat": 0.0, "lat": 38.896027333333336, "bike_id": "f8fc7de3868e15a1a85dacd8b0ae3cea", "fusion_lon": 0.0}, {"rental_uris": {"ios": "https://dc.lft.to/lastmile_qr_scan", "android": "https://dc.lft.to/lastmile_qr_scan"}, "type": "electric_scooter", "name": "1f2c5186f444a280cf3f4fcb8599ad44", "is_reserved": 0, "lon": -77.07557383333334, "is_disabled": 0, "fusion_lat": 0.0, "lat": 38.920936833333336, "bike_id": "1f2c5186f444a280cf3f4fcb8599ad44", "fusion_lon": 0.0}, {"rental_uris": {"ios": "https://dc.lft.to/lastmile_qr_scan", "android": "https://dc.lft.to/lastmile_qr_scan"}, "type": "electric_scooter", "name": "1f607945253705dc6c9e45017ff25470", "is_reserved": 0, "lon": -77.03270733333333, "is_disabled": 0, "fusion_lat": 0.0, "lat": 38.905553166666664, "bike_id": "1f607945253705dc6c9e45017ff25470", "fusion_lon": 0.0}, {"rental_uris": {"ios": "https://dc.lft.to/lastmile_qr_scan", "android": "https://dc.lft.to/lastmile_qr_scan"}, "type": "electric_scooter", "name": "1ccfd5b25470d8992f0644d883c3c20d", "is_reserved": 0, "lon": -77.01842, "is_disabled": 0, "fusion_lat": 0.0, "lat": 38.92223833333333, "bike_id": "1ccfd5b25470d8992f0644d883c3c20d", "fusion_lon": 0.0}, {"rental_uris": {"ios": "https://dc.lft.to/lastmile_qr_scan", "android": "https://dc.lft.to/lastmile_qr_scan"}, "type": "electric_scooter", "name": "8be0f086f364c749f41fbe60ad5657a3", "is_reserved": 0, "lon": -77.00201066666666, "is_disabled": 0, "fusion_lat": 0.0, "lat": 38.902402, "bike_id": "8be0f086f364c749f41fbe60ad5657a3", "fusion_lon": 0.0}, {"rental_uris": {"ios": "https://dc.lft.to/lastmile_qr_scan", "android": "https://dc.lft.to/lastmile_qr_scan"}, "type": "electric_scooter", "name": "ce5d0d4de02d03508279947fe4db11fb", "is_reserved": 0, "lon": -77.02687683333333, "is_disabled": 0, "fusion_lat": 0.0, "lat": 38.97244933333333, "bike_id": "ce5d0d4de02d03508279947fe4db11fb", "fusion_lon": 0.0}, {"rental_uris": {"ios": "https://dc.lft.to/lastmile_qr_scan", "android": "https://dc.lft.to/lastmile_qr_scan"}, "type": "electric_scooter", "name": "b7a86190a05c26e299d60dbb91f9fa92", "is_reserved": 0, "lon": -76.99474033333334, "is_disabled": 0, "fusion_lat": 0.0, "lat": 38.9054965, "bike_id": "b7a86190a05c26e299d60dbb91f9fa92", "fusion_lon": 0.0}, {"rental_uris": {"ios": "https://dc.lft.to/lastmile_qr_scan", "android": "https://dc.lft.to/lastmile_qr_scan"}, "type": "electric_scooter", "name": "76c6597f4c1c8bd76c40f91a45e89047", "is_reserved": 0, "lon": -77.02151266666667, "is_disabled": 0, "fusion_lat": 0.0, "lat": 38.903018333333335, "bike_id": "76c6597f4c1c8bd76c40f91a45e89047", "fusion_lon": 0.0}, {"rental_uris": {"ios": "https://dc.lft.to/lastmile_qr_scan", "android": "https://dc.lft.to/lastmile_qr_scan"}, "type": "electric_scooter", "name": "6932c47ef3c43d1d5eaa6c4315f896e7", "is_reserved": 0, "lon": -77.037351, "is_disabled": 0, "fusion_lat": 0.0, "lat": 38.92611016666667, "bike_id": "6932c47ef3c43d1d5eaa6c4315f896e7", "fusion_lon": 0.0}, {"rental_uris": {"ios": "https://dc.lft.to/lastmile_qr_scan", "android": "https://dc.lft.to/lastmile_qr_scan"}, "type": "electric_scooter", "name": "8e790caf161722f8dc792b245103e781", "is_reserved": 0, "lon": -77.03826683333334, "is_disabled": 0, "fusion_lat": 0.0, "lat": 38.96268466666667, "bike_id": "8e790caf161722f8dc792b245103e781", "fusion_lon": 0.0}, {"rental_uris": {"ios": "https://dc.lft.to/lastmile_qr_scan", "android": "https://dc.lft.to/lastmile_qr_scan"}, "type": "electric_scooter", "name": "da699d3e5dfca12bcf5923a331fb4ad3", "is_reserved": 0, "lon": -77.0499995, "is_disabled": 0, "fusion_lat": 0.0, "lat": 38.8922885, "bike_id": "da699d3e5dfca12bcf5923a331fb4ad3", "fusion_lon": 0.0}, {"rental_uris": {"ios": "https://dc.lft.to/lastmile_qr_scan", "android": "https://dc.lft.to/lastmile_qr_scan"}, "type": "electric_scooter", "name": "7a8a49a785a19d731183786794305cac", "is_reserved": 0, "lon": -77.02318483333333, "is_disabled": 0, "fusion_lat": 0.0, "lat": 38.917915666666666, "bike_id": "7a8a49a785a19d731183786794305cac", "fusion_lon": 0.0}, {"rental_uris": {"ios": "https://dc.lft.to/lastmile_qr_scan", "android": "https://dc.lft.to/lastmile_qr_scan"}, "type": "electric_scooter", "name": "0cfa9996b2f466ae9affeead59c590ca", "is_reserved": 0, "lon": -76.9955325, "is_disabled": 0, "fusion_lat": 0.0, "lat": 38.862341666666666, "bike_id": "0cfa9996b2f466ae9affeead59c590ca", "fusion_lon": 0.0}, {"rental_uris": {"ios": "https://dc.lft.to/lastmile_qr_scan", "android": "https://dc.lft.to/lastmile_qr_scan"}, "type": "electric_scooter", "name": "0f8167307b4d2f17355d890e77513a6a", "is_reserved": 0, "lon": -77.00952516666666, "is_disabled": 0, "fusion_lat": 0.0, "lat": 38.91917633333333, "bike_id": "0f8167307b4d2f17355d890e77513a6a", "fusion_lon": 0.0}, {"rental_uris": {"ios": "https://dc.lft.to/lastmile_qr_scan", "android": "https://dc.lft.to/lastmile_qr_scan"}, "type": "electric_scooter", "name": "8ae1c582b3e35bb02d8612c4fb63c4a9", "is_reserved": 0, "lon": -77.01310616666666, "is_disabled": 0, "fusion_lat": 0.0, "lat": 38.9203025, "bike_id": "8ae1c582b3e35bb02d8612c4fb63c4a9", "fusion_lon": 0.0}, {"rental_uris": {"ios": "https://dc.lft.to/lastmile_qr_scan", "android": "https://dc.lft.to/lastmile_qr_scan"}, "type": "electric_scooter", "name": "f611563d59677c7c693666072b1873a1", "is_reserved": 0, "lon": -76.99919866666667, "is_disabled": 0, "fusion_lat": 0.0, "lat": 38.900559666666666, "bike_id": "f611563d59677c7c693666072b1873a1", "fusion_lon": 0.0}, {"rental_uris": {"ios": "https://dc.lft.to/lastmile_qr_scan", "android": "https://dc.lft.to/lastmile_qr_scan"}, "type": "electric_bike", "name": "0e1805b609e6756982e99d6cef29289a", "is_reserved": 0, "lon": -76.94531866666667, "is_disabled": 0, "fusion_lat": 0.0, "lat": 38.86753216666666, "bike_id": "0e1805b609e6756982e99d6cef29289a", "fusion_lon": 0.0}, {"rental_uris": {"ios": "https://dc.lft.to/lastmile_qr_scan", "android": "https://dc.lft.to/lastmile_qr_scan"}, "type": "electric_scooter", "name": "a97f93fa2c7ced6ad65cebe793c9f5e3", "is_reserved": 0, "lon": -76.98734366666666, "is_disabled": 0, "fusion_lat": 0.0, "lat": 38.87834816666667, "bike_id": "a97f93fa2c7ced6ad65cebe793c9f5e3", "fusion_lon": 0.0}, {"rental_uris": {"ios": "https://dc.lft.to/lastmile_qr_scan", "android": "https://dc.lft.to/lastmile_qr_scan"}, "type": "electric_scooter", "name": "8420cb8938dc510a0a6dedf52b141cca", "is_reserved": 0, "lon": -77.06993016666667, "is_disabled": 0, "fusion_lat": 0.0, "lat": 38.89363433333333, "bike_id": "8420cb8938dc510a0a6dedf52b141cca", "fusion_lon": 0.0}, {"rental_uris": {"ios": "https://dc.lft.to/lastmile_qr_scan", "android": "https://dc.lft.to/lastmile_qr_scan"}, "type": "electric_scooter", "name": "4e0b94f3dd3b737a1a3b0d952e88cc2a", "is_reserved": 0, "lon": -77.03451933333334, "is_disabled": 0, "fusion_lat": 0.0, "lat": 38.908116166666666, "bike_id": "4e0b94f3dd3b737a1a3b0d952e88cc2a", "fusion_lon": 0.0}, {"rental_uris": {"ios": "https://dc.lft.to/lastmile_qr_scan", "android": "https://dc.lft.to/lastmile_qr_scan"}, "type": "electric_scooter", "name": "f9f65a4f7fea4fb8d57b6b38f7e834e2", "is_reserved": 0, "lon": -77.02500816666667, "is_disabled": 0, "fusion_lat": 0.0, "lat": 38.931082833333335, "bike_id": "f9f65a4f7fea4fb8d57b6b38f7e834e2", "fusion_lon": 0.0}, {"rental_uris": {"ios": "https://dc.lft.to/lastmile_qr_scan", "android": "https://dc.lft.to/lastmile_qr_scan"}, "type": "electric_bike", "name": "b8e037d1c45f419ee2dbf89cb1ba61a5", "is_reserved": 0, "lon": -76.94153633333333, "is_disabled": 0, "fusion_lat": 0.0, "lat": 38.890207833333335, "bike_id": "b8e037d1c45f419ee2dbf89cb1ba61a5", "fusion_lon": 0.0}, {"rental_uris": {"ios": "https://dc.lft.to/lastmile_qr_scan", "android": "https://dc.lft.to/lastmile_qr_scan"}, "type": "electric_scooter", "name": "c9b7ecd5b17609aa74a8d667f1cd9613", "is_reserved": 0, "lon": -77.00031583333333, "is_disabled": 0, "fusion_lat": 0.0, "lat": 38.90681433333334, "bike_id": "c9b7ecd5b17609aa74a8d667f1cd9613", "fusion_lon": 0.0}, {"rental_uris": {"ios": "https://dc.lft.to/lastmile_qr_scan", "android": "https://dc.lft.to/lastmile_qr_scan"}, "type": "electric_bike", "name": "c1711cf03df153f8afbf09dd6a71817f", "is_reserved": 0, "lon": -76.995264, "is_disabled": 0, "fusion_lat": 0.0, "lat": 38.88410016666667, "bike_id": "c1711cf03df153f8afbf09dd6a71817f", "fusion_lon": 0.0}, {"rental_uris": {"ios": "https://dc.lft.to/lastmile_qr_scan", "android": "https://dc.lft.to/lastmile_qr_scan"}, "type": "electric_bike", "name": "ee6d7fcb34d7bb779d23afc71a1219b0", "is_reserved": 0, "lon": -77.12935433333334, "is_disabled": 0, "fusion_lat": 0.0, "lat": 38.8657985, "bike_id": "ee6d7fcb34d7bb779d23afc71a1219b0", "fusion_lon": 0.0}, {"rental_uris": {"ios": "https://dc.lft.to/lastmile_qr_scan", "android": "https://dc.lft.to/lastmile_qr_scan"}, "type": "electric_scooter", "name": "1f8c531f716a56b4ce8c08d545826153", "is_reserved": 0, "lon": -76.93185033333333, "is_disabled": 0, "fusion_lat": 0.0, "lat": 38.89877083333333, "bike_id": "1f8c531f716a56b4ce8c08d545826153", "fusion_lon": 0.0}, {"rental_uris": {"ios": "https://dc.lft.to/lastmile_qr_scan", "android": "https://dc.lft.to/lastmile_qr_scan"}, "type": "electric_scooter", "name": "edae0fa00d1e6aad34ecd8c4a925d445", "is_reserved": 0, "lon": -77.00045483333334, "is_disabled": 0, "fusion_lat": 0.0, "lat": 38.87441533333333, "bike_id": "edae0fa00d1e6aad34ecd8c4a925d445", "fusion_lon": 0.0}, {"rental_uris": {"ios": "https://dc.lft.to/lastmile_qr_scan", "android": "https://dc.lft.to/lastmile_qr_scan"}, "type": "electric_scooter", "name": "247f9a135785458b0e6c9b3834e4df3d", "is_reserved": 0, "lon": -77.04567916666667, "is_disabled": 0, "fusion_lat": 0.0, "lat": 38.909578333333336, "bike_id": "247f9a135785458b0e6c9b3834e4df3d", "fusion_lon": 0.0}, {"rental_uris": {"ios": "https://dc.lft.to/lastmile_qr_scan", "android": "https://dc.lft.to/lastmile_qr_scan"}, "type": "electric_scooter", "name": "9748b321d97d9792194cb4fa1bb7082c", "is_reserved": 0, "lon": -77.02810366666667, "is_disabled": 0, "fusion_lat": 0.0, "lat": 38.898888, "bike_id": "9748b321d97d9792194cb4fa1bb7082c", "fusion_lon": 0.0}, {"rental_uris": {"ios": "https://dc.lft.to/lastmile_qr_scan", "android": "https://dc.lft.to/lastmile_qr_scan"}, "type": "electric_bike", "name": "f08620a0e3ef3e0908b22d1eec89c638", "is_reserved": 0, "lon": -76.97545366666667, "is_disabled": 0, "fusion_lat": 0.0, "lat": 38.90436833333333, "bike_id": "f08620a0e3ef3e0908b22d1eec89c638", "fusion_lon": 0.0}, {"rental_uris": {"ios": "https://dc.lft.to/lastmile_qr_scan", "android": "https://dc.lft.to/lastmile_qr_scan"}, "type": "electric_bike", "name": "6b1d204e7f3ec41be8fb667f156b7c50", "is_reserved": 0, "lon": -76.95157566666667, "is_disabled": 0, "fusion_lat": 0.0, "lat": 39.084392666666666, "bike_id": "6b1d204e7f3ec41be8fb667f156b7c50", "fusion_lon": 0.0}, {"rental_uris": {"ios": "https://dc.lft.to/lastmile_qr_scan", "android": "https://dc.lft.to/lastmile_qr_scan"}, "type": "electric_scooter", "name": "dddbfc5a806e4b071bccc1e029c2292f", "is_reserved": 0, "lon": -77.0348695, "is_disabled": 0, "fusion_lat": 0.0, "lat": 38.93537466666667, "bike_id": "dddbfc5a806e4b071bccc1e029c2292f", "fusion_lon": 0.0}, {"rental_uris": {"ios": "https://dc.lft.to/lastmile_qr_scan", "android": "https://dc.lft.to/lastmile_qr_scan"}, "type": "electric_scooter", "name": "ab4fe49146bfabde55a0dcdfc8c21524", "is_reserved": 0, "lon": -77.06119566666666, "is_disabled": 0, "fusion_lat": 0.0, "lat": 38.906107, "bike_id": "ab4fe49146bfabde55a0dcdfc8c21524", "fusion_lon": 0.0}, {"rental_uris": {"ios": "https://dc.lft.to/lastmile_qr_scan", "android": "https://dc.lft.to/lastmile_qr_scan"}, "type": "electric_scooter", "name": "3843e5b48dde90f65fbb8ce64d643a5a", "is_reserved": 0, "lon": -77.0194805, "is_disabled": 0, "fusion_lat": 0.0, "lat": 38.94703066666667, "bike_id": "3843e5b48dde90f65fbb8ce64d643a5a", "fusion_lon": 0.0}, {"rental_uris": {"ios": "https://dc.lft.to/lastmile_qr_scan", "android": "https://dc.lft.to/lastmile_qr_scan"}, "type": "electric_scooter", "name": "82736e3d50feda77c9c8f0af9483406b", "is_reserved": 0, "lon": -77.01879216666667, "is_disabled": 0, "fusion_lat": 0.0, "lat": 38.903438333333334, "bike_id": "82736e3d50feda77c9c8f0af9483406b", "fusion_lon": 0.0}, {"rental_uris": {"ios": "https://dc.lft.to/lastmile_qr_scan", "android": "https://dc.lft.to/lastmile_qr_scan"}, "type": "electric_scooter", "name": "c90211e0101def2ab891ecfc0134e9ab", "is_reserved": 0, "lon": -77.001558, "is_disabled": 0, "fusion_lat": 0.0, "lat": 38.821328333333334, "bike_id": "c90211e0101def2ab891ecfc0134e9ab", "fusion_lon": 0.0}, {"rental_uris": {"ios": "https://dc.lft.to/lastmile_qr_scan", "android": "https://dc.lft.to/lastmile_qr_scan"}, "type": "electric_scooter", "name": "504f2f87d60aa6d41305bf5a6405fefc", "is_reserved": 0, "lon": -77.0202455, "is_disabled": 0, "fusion_lat": 0.0, "lat": 38.894298166666665, "bike_id": "504f2f87d60aa6d41305bf5a6405fefc", "fusion_lon": 0.0}, {"rental_uris": {"ios": "https://dc.lft.to/lastmile_qr_scan", "android": "https://dc.lft.to/lastmile_qr_scan"}, "type": "electric_scooter", "name": "0c8bd8d1258608285fc6c92481d7ec46", "is_reserved": 0, "lon": -77.00771133333333, "is_disabled": 0, "fusion_lat": 0.0, "lat": 38.95246183333333, "bike_id": "0c8bd8d1258608285fc6c92481d7ec46", "fusion_lon": 0.0}, {"rental_uris": {"ios": "https://dc.lft.to/lastmile_qr_scan", "android": "https://dc.lft.to/lastmile_qr_scan"}, "type": "electric_scooter", "name": "a717bf2fd5a3a6e753a08d3c9fbc6e56", "is_reserved": 0, "lon": -77.0220865, "is_disabled": 0, "fusion_lat": 0.0, "lat": 38.892777833333334, "bike_id": "a717bf2fd5a3a6e753a08d3c9fbc6e56", "fusion_lon": 0.0}, {"rental_uris": {"ios": "https://dc.lft.to/lastmile_qr_scan", "android": "https://dc.lft.to/lastmile_qr_scan"}, "type": "electric_scooter", "name": "bdc2ea870fce48529c82453c78b2b5a6", "is_reserved": 0, "lon": -77.031546, "is_disabled": 0, "fusion_lat": 0.0, "lat": 38.92961283333333, "bike_id": "bdc2ea870fce48529c82453c78b2b5a6", "fusion_lon": 0.0}, {"rental_uris": {"ios": "https://dc.lft.to/lastmile_qr_scan", "android": "https://dc.lft.to/lastmile_qr_scan"}, "type": "electric_scooter", "name": "d56d393a73c8c6b3d9d48612b4fc26b9", "is_reserved": 0, "lon": -77.044858, "is_disabled": 0, "fusion_lat": 0.0, "lat": 38.918725, "bike_id": "d56d393a73c8c6b3d9d48612b4fc26b9", "fusion_lon": 0.0}, {"rental_uris": {"ios": "https://dc.lft.to/lastmile_qr_scan", "android": "https://dc.lft.to/lastmile_qr_scan"}, "type": "electric_bike", "name": "eec510e4bc6d42fdde6e9a151144349c", "is_reserved": 0, "lon": -76.99277316666667, "is_disabled": 0, "fusion_lat": 0.0, "lat": 38.972603166666666, "bike_id": "eec510e4bc6d42fdde6e9a151144349c", "fusion_lon": 0.0}, {"rental_uris": {"ios": "https://dc.lft.to/lastmile_qr_scan", "android": "https://dc.lft.to/lastmile_qr_scan"}, "type": "electric_scooter", "name": "4bc076a5640a41e6acb22f7e5f55705a", "is_reserved": 0, "lon": -77.03861166666667, "is_disabled": 0, "fusion_lat": 0.0, "lat": 38.903848833333335, "bike_id": "4bc076a5640a41e6acb22f7e5f55705a", "fusion_lon": 0.0}, {"rental_uris": {"ios": "https://dc.lft.to/lastmile_qr_scan", "android": "https://dc.lft.to/lastmile_qr_scan"}, "type": "electric_scooter", "name": "f3be373abfa7aa54721704c31f297199", "is_reserved": 0, "lon": -77.015168, "is_disabled": 0, "fusion_lat": 0.0, "lat": 38.88709016666667, "bike_id": "f3be373abfa7aa54721704c31f297199", "fusion_lon": 0.0}, {"rental_uris": {"ios": "https://dc.lft.to/lastmile_qr_scan", "android": "https://dc.lft.to/lastmile_qr_scan"}, "type": "electric_scooter", "name": "839e1d116f5e17369c12fe9f0c8cfd97", "is_reserved": 0, "lon": -77.0309115, "is_disabled": 0, "fusion_lat": 0.0, "lat": 38.913415666666666, "bike_id": "839e1d116f5e17369c12fe9f0c8cfd97", "fusion_lon": 0.0}, {"rental_uris": {"ios": "https://dc.lft.to/lastmile_qr_scan", "android": "https://dc.lft.to/lastmile_qr_scan"}, "type": "electric_scooter", "name": "092508e432c98225a75aadf900f9f2fc", "is_reserved": 0, "lon": -77.02792116666667, "is_disabled": 0, "fusion_lat": 0.0, "lat": 38.930871, "bike_id": "092508e432c98225a75aadf900f9f2fc", "fusion_lon": 0.0}, {"rental_uris": {"ios": "https://dc.lft.to/lastmile_qr_scan", "android": "https://dc.lft.to/lastmile_qr_scan"}, "type": "electric_scooter", "name": "92d5f6815d44da7db44b87fcf4d18543", "is_reserved": 0, "lon": -77.0522355, "is_disabled": 0, "fusion_lat": 0.0, "lat": 38.9249385, "bike_id": "92d5f6815d44da7db44b87fcf4d18543", "fusion_lon": 0.0}, {"rental_uris": {"ios": "https://dc.lft.to/lastmile_qr_scan", "android": "https://dc.lft.to/lastmile_qr_scan"}, "type": "electric_scooter", "name": "9e7915e1f8be0b6c77eaaec63ea2ae6a", "is_reserved": 0, "lon": -77.02399516666667, "is_disabled": 0, "fusion_lat": 0.0, "lat": 38.938153, "bike_id": "9e7915e1f8be0b6c77eaaec63ea2ae6a", "fusion_lon": 0.0}, {"rental_uris": {"ios": "https://dc.lft.to/lastmile_qr_scan", "android": "https://dc.lft.to/lastmile_qr_scan"}, "type": "electric_bike", "name": "517db3e64f3c79a764a8da573fe8a20f", "is_reserved": 0, "lon": -76.99695433333333, "is_disabled": 0, "fusion_lat": 0.0, "lat": 38.838677833333335, "bike_id": "517db3e64f3c79a764a8da573fe8a20f", "fusion_lon": 0.0}, {"rental_uris": {"ios": "https://dc.lft.to/lastmile_qr_scan", "android": "https://dc.lft.to/lastmile_qr_scan"}, "type": "electric_scooter", "name": "46f5238c5bec68ddb3ad33a91055d9e0", "is_reserved": 0, "lon": -77.01548966666667, "is_disabled": 0, "fusion_lat": 0.0, "lat": 38.90220016666667, "bike_id": "46f5238c5bec68ddb3ad33a91055d9e0", "fusion_lon": 0.0}, {"rental_uris": {"ios": "https://dc.lft.to/lastmile_qr_scan", "android": "https://dc.lft.to/lastmile_qr_scan"}, "type": "electric_bike", "name": "e0a67a63ea2e166400ee1aa2e346de04", "is_reserved": 0, "lon": -76.99016516666667, "is_disabled": 0, "fusion_lat": 0.0, "lat": 38.954810333333334, "bike_id": "e0a67a63ea2e166400ee1aa2e346de04", "fusion_lon": 0.0}, {"rental_uris": {"ios": "https://dc.lft.to/lastmile_qr_scan", "android": "https://dc.lft.to/lastmile_qr_scan"}, "type": "electric_scooter", "name": "bf3d7c3bb594f5b998620a2473715744", "is_reserved": 0, "lon": -76.99993666666667, "is_disabled": 0, "fusion_lat": 0.0, "lat": 38.907537166666664, "bike_id": "bf3d7c3bb594f5b998620a2473715744", "fusion_lon": 0.0}, {"rental_uris": {"ios": "https://dc.lft.to/lastmile_qr_scan", "android": "https://dc.lft.to/lastmile_qr_scan"}, "type": "electric_bike", "name": "c4f3850d2918017d42996231f63ce2ac", "is_reserved": 0, "lon": -76.98764783333333, "is_disabled": 0, "fusion_lat": 0.0, "lat": 38.8576865, "bike_id": "c4f3850d2918017d42996231f63ce2ac", "fusion_lon": 0.0}, {"rental_uris": {"ios": "https://dc.lft.to/lastmile_qr_scan", "android": "https://dc.lft.to/lastmile_qr_scan"}, "type": "electric_scooter", "name": "265981f3e5804e6f02379ab38b1c9477", "is_reserved": 0, "lon": -77.027163, "is_disabled": 0, "fusion_lat": 0.0, "lat": 38.895816333333336, "bike_id": "265981f3e5804e6f02379ab38b1c9477", "fusion_lon": 0.0}, {"rental_uris": {"ios": "https://dc.lft.to/lastmile_qr_scan", "android": "https://dc.lft.to/lastmile_qr_scan"}, "type": "electric_scooter", "name": "e84a421ce7f152430635dc47a26e3d38", "is_reserved": 0, "lon": -77.02397183333333, "is_disabled": 0, "fusion_lat": 0.0, "lat": 38.89905916666667, "bike_id": "e84a421ce7f152430635dc47a26e3d38", "fusion_lon": 0.0}, {"rental_uris": {"ios": "https://dc.lft.to/lastmile_qr_scan", "android": "https://dc.lft.to/lastmile_qr_scan"}, "type": "electric_scooter", "name": "7f1d37e564bbc0661bedb9faca9137a0", "is_reserved": 0, "lon": -77.04615883333334, "is_disabled": 0, "fusion_lat": 0.0, "lat": 38.9096155, "bike_id": "7f1d37e564bbc0661bedb9faca9137a0", "fusion_lon": 0.0}, {"rental_uris": {"ios": "https://dc.lft.to/lastmile_qr_scan", "android": "https://dc.lft.to/lastmile_qr_scan"}, "type": "electric_scooter", "name": "22698e681588429c2b9831be187d9c92", "is_reserved": 0, "lon": -77.03939866666667, "is_disabled": 0, "fusion_lat": 0.0, "lat": 38.9029935, "bike_id": "22698e681588429c2b9831be187d9c92", "fusion_lon": 0.0}, {"rental_uris": {"ios": "https://dc.lft.to/lastmile_qr_scan", "android": "https://dc.lft.to/lastmile_qr_scan"}, "type": "electric_scooter", "name": "9600aab6ef17c85d1a4ba04ca10345fd", "is_reserved": 0, "lon": -76.9883865, "is_disabled": 0, "fusion_lat": 0.0, "lat": 38.895002166666664, "bike_id": "9600aab6ef17c85d1a4ba04ca10345fd", "fusion_lon": 0.0}, {"rental_uris": {"ios": "https://dc.lft.to/lastmile_qr_scan", "android": "https://dc.lft.to/lastmile_qr_scan"}, "type": "electric_scooter", "name": "16a86cdbde9bde37345c1b2dc5e8c4db", "is_reserved": 0, "lon": -77.02835933333333, "is_disabled": 0, "fusion_lat": 0.0, "lat": 38.88731966666667, "bike_id": "16a86cdbde9bde37345c1b2dc5e8c4db", "fusion_lon": 0.0}, {"rental_uris": {"ios": "https://dc.lft.to/lastmile_qr_scan", "android": "https://dc.lft.to/lastmile_qr_scan"}, "type": "electric_scooter", "name": "904e5ab608b311c8adcc14ee35e99223", "is_reserved": 0, "lon": -77.04491666666667, "is_disabled": 0, "fusion_lat": 0.0, "lat": 38.91446783333333, "bike_id": "904e5ab608b311c8adcc14ee35e99223", "fusion_lon": 0.0}, {"rental_uris": {"ios": "https://dc.lft.to/lastmile_qr_scan", "android": "https://dc.lft.to/lastmile_qr_scan"}, "type": "electric_scooter", "name": "3966c390f877b2acacaf1d0132a2b188", "is_reserved": 0, "lon": -77.034487, "is_disabled": 0, "fusion_lat": 0.0, "lat": 38.908440166666665, "bike_id": "3966c390f877b2acacaf1d0132a2b188", "fusion_lon": 0.0}, {"rental_uris": {"ios": "https://dc.lft.to/lastmile_qr_scan", "android": "https://dc.lft.to/lastmile_qr_scan"}, "type": "electric_scooter", "name": "65cb88970c8e311d40a35406d2818a5b", "is_reserved": 0, "lon": -77.04238233333334, "is_disabled": 0, "fusion_lat": 0.0, "lat": 38.9163625, "bike_id": "65cb88970c8e311d40a35406d2818a5b", "fusion_lon": 0.0}, {"rental_uris": {"ios": "https://dc.lft.to/lastmile_qr_scan", "android": "https://dc.lft.to/lastmile_qr_scan"}, "type": "electric_scooter", "name": "1558de0418701bef72f40bbdb4179548", "is_reserved": 0, "lon": -77.04460966666667, "is_disabled": 0, "fusion_lat": 0.0, "lat": 38.908076, "bike_id": "1558de0418701bef72f40bbdb4179548", "fusion_lon": 0.0}, {"rental_uris": {"ios": "https://dc.lft.to/lastmile_qr_scan", "android": "https://dc.lft.to/lastmile_qr_scan"}, "type": "electric_bike", "name": "9a1bc803e99f220a270f1e763169d208", "is_reserved": 0, "lon": -77.00411666666666, "is_disabled": 0, "fusion_lat": 0.0, "lat": 38.98531216666667, "bike_id": "9a1bc803e99f220a270f1e763169d208", "fusion_lon": 0.0}, {"rental_uris": {"ios": "https://dc.lft.to/lastmile_qr_scan", "android": "https://dc.lft.to/lastmile_qr_scan"}, "type": "electric_scooter", "name": "662cfa1e97cff03a517403031d054f11", "is_reserved": 0, "lon": -77.04475166666667, "is_disabled": 0, "fusion_lat": 0.0, "lat": 38.900464666666664, "bike_id": "662cfa1e97cff03a517403031d054f11", "fusion_lon": 0.0}, {"rental_uris": {"ios": "https://dc.lft.to/lastmile_qr_scan", "android": "https://dc.lft.to/lastmile_qr_scan"}, "type": "electric_bike", "name": "a17ca55717ad7ab401d0797a97c6827a", "is_reserved": 0, "lon": -77.2218715, "is_disabled": 0, "fusion_lat": 0.0, "lat": 38.87175166666667, "bike_id": "a17ca55717ad7ab401d0797a97c6827a", "fusion_lon": 0.0}, {"rental_uris": {"ios": "https://dc.lft.to/lastmile_qr_scan", "android": "https://dc.lft.to/lastmile_qr_scan"}, "type": "electric_scooter", "name": "2b70fdb86efd4f137adeb4b614122a23", "is_reserved": 0, "lon": -77.03840966666667, "is_disabled": 0, "fusion_lat": 0.0, "lat": 38.91092366666667, "bike_id": "2b70fdb86efd4f137adeb4b614122a23", "fusion_lon": 0.0}, {"rental_uris": {"ios": "https://dc.lft.to/lastmile_qr_scan", "android": "https://dc.lft.to/lastmile_qr_scan"}, "type": "electric_scooter", "name": "3a21be95be868a4d36f880ef7bcfedd7", "is_reserved": 0, "lon": -77.01215466666666, "is_disabled": 0, "fusion_lat": 0.0, "lat": 38.876677666666666, "bike_id": "3a21be95be868a4d36f880ef7bcfedd7", "fusion_lon": 0.0}, {"rental_uris": {"ios": "https://dc.lft.to/lastmile_qr_scan", "android": "https://dc.lft.to/lastmile_qr_scan"}, "type": "electric_scooter", "name": "db33d95c37bfa2b9aa2f58701cef4f20", "is_reserved": 0, "lon": -77.03572533333333, "is_disabled": 0, "fusion_lat": 0.0, "lat": 38.90375133333333, "bike_id": "db33d95c37bfa2b9aa2f58701cef4f20", "fusion_lon": 0.0}, {"rental_uris": {"ios": "https://dc.lft.to/lastmile_qr_scan", "android": "https://dc.lft.to/lastmile_qr_scan"}, "type": "electric_scooter", "name": "f1a5c15dfa7667085e8063ff27ce20da", "is_reserved": 0, "lon": -77.00205166666667, "is_disabled": 0, "fusion_lat": 0.0, "lat": 38.90055516666666, "bike_id": "f1a5c15dfa7667085e8063ff27ce20da", "fusion_lon": 0.0}, {"rental_uris": {"ios": "https://dc.lft.to/lastmile_qr_scan", "android": "https://dc.lft.to/lastmile_qr_scan"}, "type": "electric_bike", "name": "8b5dbf71002a0d0cbcc3f98bc291bb34", "is_reserved": 0, "lon": -76.98672083333334, "is_disabled": 0, "fusion_lat": 0.0, "lat": 38.899683, "bike_id": "8b5dbf71002a0d0cbcc3f98bc291bb34", "fusion_lon": 0.0}, {"rental_uris": {"ios": "https://dc.lft.to/lastmile_qr_scan", "android": "https://dc.lft.to/lastmile_qr_scan"}, "type": "electric_scooter", "name": "360b556f72567fabd93c4df73af12e59", "is_reserved": 0, "lon": -77.03662066666666, "is_disabled": 0, "fusion_lat": 0.0, "lat": 38.9395865, "bike_id": "360b556f72567fabd93c4df73af12e59", "fusion_lon": 0.0}, {"rental_uris": {"ios": "https://dc.lft.to/lastmile_qr_scan", "android": "https://dc.lft.to/lastmile_qr_scan"}, "type": "electric_scooter", "name": "66d0eb3e7821a073abe7e7974d411848", "is_reserved": 0, "lon": -77.05132766666667, "is_disabled": 0, "fusion_lat": 0.0, "lat": 38.8977045, "bike_id": "66d0eb3e7821a073abe7e7974d411848", "fusion_lon": 0.0}, {"rental_uris": {"ios": "https://dc.lft.to/lastmile_qr_scan", "android": "https://dc.lft.to/lastmile_qr_scan"}, "type": "electric_scooter", "name": "6ab706775585e269cb8af6f37a780a9b", "is_reserved": 0, "lon": -77.02181766666666, "is_disabled": 0, "fusion_lat": 0.0, "lat": 38.919899666666666, "bike_id": "6ab706775585e269cb8af6f37a780a9b", "fusion_lon": 0.0}, {"rental_uris": {"ios": "https://dc.lft.to/lastmile_qr_scan", "android": "https://dc.lft.to/lastmile_qr_scan"}, "type": "electric_scooter", "name": "d71e70a2604294e13f6037e051a1b36d", "is_reserved": 0, "lon": -77.03290766666667, "is_disabled": 0, "fusion_lat": 0.0, "lat": 38.899019, "bike_id": "d71e70a2604294e13f6037e051a1b36d", "fusion_lon": 0.0}, {"rental_uris": {"ios": "https://dc.lft.to/lastmile_qr_scan", "android": "https://dc.lft.to/lastmile_qr_scan"}, "type": "electric_scooter", "name": "20498a345caf79bea32a60e117a252b6", "is_reserved": 0, "lon": -77.01659083333334, "is_disabled": 0, "fusion_lat": 0.0, "lat": 38.87944266666667, "bike_id": "20498a345caf79bea32a60e117a252b6", "fusion_lon": 0.0}, {"rental_uris": {"ios": "https://dc.lft.to/lastmile_qr_scan", "android": "https://dc.lft.to/lastmile_qr_scan"}, "type": "electric_scooter", "name": "f71abda3e5a1d4ac4c3cd969bc7560aa", "is_reserved": 0, "lon": -77.02363583333333, "is_disabled": 0, "fusion_lat": 0.0, "lat": 38.9206315, "bike_id": "f71abda3e5a1d4ac4c3cd969bc7560aa", "fusion_lon": 0.0}, {"rental_uris": {"ios": "https://dc.lft.to/lastmile_qr_scan", "android": "https://dc.lft.to/lastmile_qr_scan"}, "type": "electric_scooter", "name": "ee351a8798648f0f7008a0874c3739c7", "is_reserved": 0, "lon": -77.04788033333334, "is_disabled": 0, "fusion_lat": 0.0, "lat": 38.89776966666667, "bike_id": "ee351a8798648f0f7008a0874c3739c7", "fusion_lon": 0.0}, {"rental_uris": {"ios": "https://dc.lft.to/lastmile_qr_scan", "android": "https://dc.lft.to/lastmile_qr_scan"}, "type": "electric_scooter", "name": "fddf78619053e28ae19404760628985c", "is_reserved": 0, "lon": -77.0306625, "is_disabled": 0, "fusion_lat": 0.0, "lat": 38.905639, "bike_id": "fddf78619053e28ae19404760628985c", "fusion_lon": 0.0}, {"rental_uris": {"ios": "https://dc.lft.to/lastmile_qr_scan", "android": "https://dc.lft.to/lastmile_qr_scan"}, "type": "electric_scooter", "name": "7413067dc655841217d7b17c28006564", "is_reserved": 0, "lon": -77.023188, "is_disabled": 0, "fusion_lat": 0.0, "lat": 38.91784633333333, "bike_id": "7413067dc655841217d7b17c28006564", "fusion_lon": 0.0}, {"rental_uris": {"ios": "https://dc.lft.to/lastmile_qr_scan", "android": "https://dc.lft.to/lastmile_qr_scan"}, "type": "electric_scooter", "name": "b3d4985ff8b9525772ec2639656a85aa", "is_reserved": 0, "lon": -77.01619116666667, "is_disabled": 0, "fusion_lat": 0.0, "lat": 38.884931, "bike_id": "b3d4985ff8b9525772ec2639656a85aa", "fusion_lon": 0.0}, {"rental_uris": {"ios": "https://dc.lft.to/lastmile_qr_scan", "android": "https://dc.lft.to/lastmile_qr_scan"}, "type": "electric_bike", "name": "9d2573f2ecd7b2d73eac9833873ac2ae", "is_reserved": 0, "lon": -76.93667666666667, "is_disabled": 0, "fusion_lat": 0.0, "lat": 38.8945505, "bike_id": "9d2573f2ecd7b2d73eac9833873ac2ae", "fusion_lon": 0.0}, {"rental_uris": {"ios": "https://dc.lft.to/lastmile_qr_scan", "android": "https://dc.lft.to/lastmile_qr_scan"}, "type": "electric_scooter", "name": "861ac45478b8efc632dd8269f5e584bd", "is_reserved": 0, "lon": -77.01643833333333, "is_disabled": 0, "fusion_lat": 0.0, "lat": 38.90039483333334, "bike_id": "861ac45478b8efc632dd8269f5e584bd", "fusion_lon": 0.0}, {"rental_uris": {"ios": "https://dc.lft.to/lastmile_qr_scan", "android": "https://dc.lft.to/lastmile_qr_scan"}, "type": "electric_scooter", "name": "9f41f42935fe8794f07bcf77746f88cd", "is_reserved": 0, "lon": -77.03969783333334, "is_disabled": 0, "fusion_lat": 0.0, "lat": 38.89352316666667, "bike_id": "9f41f42935fe8794f07bcf77746f88cd", "fusion_lon": 0.0}, {"rental_uris": {"ios": "https://dc.lft.to/lastmile_qr_scan", "android": "https://dc.lft.to/lastmile_qr_scan"}, "type": "electric_scooter", "name": "515b6f6ead29adcfd3d332c6f76dceba", "is_reserved": 0, "lon": -76.983711, "is_disabled": 0, "fusion_lat": 0.0, "lat": 38.8603225, "bike_id": "515b6f6ead29adcfd3d332c6f76dceba", "fusion_lon": 0.0}, {"rental_uris": {"ios": "https://dc.lft.to/lastmile_qr_scan", "android": "https://dc.lft.to/lastmile_qr_scan"}, "type": "electric_scooter", "name": "fff0ac552d6bbc792f0361776ef0b980", "is_reserved": 0, "lon": -77.0004775, "is_disabled": 0, "fusion_lat": 0.0, "lat": 38.87388216666667, "bike_id": "fff0ac552d6bbc792f0361776ef0b980", "fusion_lon": 0.0}, {"rental_uris": {"ios": "https://dc.lft.to/lastmile_qr_scan", "android": "https://dc.lft.to/lastmile_qr_scan"}, "type": "electric_scooter", "name": "0f14e2620425cd1e8a79cdca87af868c", "is_reserved": 0, "lon": -77.024781, "is_disabled": 0, "fusion_lat": 0.0, "lat": 38.918139, "bike_id": "0f14e2620425cd1e8a79cdca87af868c", "fusion_lon": 0.0}, {"rental_uris": {"ios": "https://dc.lft.to/lastmile_qr_scan", "android": "https://dc.lft.to/lastmile_qr_scan"}, "type": "electric_scooter", "name": "4489ea59d0535a3d334ea9bbdfafb1ca", "is_reserved": 0, "lon": -77.03174483333333, "is_disabled": 0, "fusion_lat": 0.0, "lat": 38.915546166666665, "bike_id": "4489ea59d0535a3d334ea9bbdfafb1ca", "fusion_lon": 0.0}, {"rental_uris": {"ios": "https://dc.lft.to/lastmile_qr_scan", "android": "https://dc.lft.to/lastmile_qr_scan"}, "type": "electric_scooter", "name": "090b3f7d7e91941a97be804daba70584", "is_reserved": 0, "lon": -76.9942065, "is_disabled": 0, "fusion_lat": 0.0, "lat": 38.91685866666667, "bike_id": "090b3f7d7e91941a97be804daba70584", "fusion_lon": 0.0}, {"rental_uris": {"ios": "https://dc.lft.to/lastmile_qr_scan", "android": "https://dc.lft.to/lastmile_qr_scan"}, "type": "electric_scooter", "name": "92a2c6f8c583016d5c492b6aa9b9a0c1", "is_reserved": 0, "lon": -77.01818083333333, "is_disabled": 0, "fusion_lat": 0.0, "lat": 38.905210333333336, "bike_id": "92a2c6f8c583016d5c492b6aa9b9a0c1", "fusion_lon": 0.0}, {"rental_uris": {"ios": "https://dc.lft.to/lastmile_qr_scan", "android": "https://dc.lft.to/lastmile_qr_scan"}, "type": "electric_scooter", "name": "cbfc7acd4d4e65c3cfafc0c2264c3b6d", "is_reserved": 0, "lon": -77.04730366666666, "is_disabled": 0, "fusion_lat": 0.0, "lat": 38.89554583333334, "bike_id": "cbfc7acd4d4e65c3cfafc0c2264c3b6d", "fusion_lon": 0.0}, {"rental_uris": {"ios": "https://dc.lft.to/lastmile_qr_scan", "android": "https://dc.lft.to/lastmile_qr_scan"}, "type": "electric_scooter", "name": "13102f85247b4776ed6f5c744fc36075", "is_reserved": 0, "lon": -77.038314, "is_disabled": 0, "fusion_lat": 0.0, "lat": 38.96261366666667, "bike_id": "13102f85247b4776ed6f5c744fc36075", "fusion_lon": 0.0}, {"rental_uris": {"ios": "https://dc.lft.to/lastmile_qr_scan", "android": "https://dc.lft.to/lastmile_qr_scan"}, "type": "electric_scooter", "name": "ada1ac76a208046a77fcc5f1adb21827", "is_reserved": 0, "lon": -77.02693683333334, "is_disabled": 0, "fusion_lat": 0.0, "lat": 38.908444, "bike_id": "ada1ac76a208046a77fcc5f1adb21827", "fusion_lon": 0.0}, {"rental_uris": {"ios": "https://dc.lft.to/lastmile_qr_scan", "android": "https://dc.lft.to/lastmile_qr_scan"}, "type": "electric_scooter", "name": "3057941860ec1b849c371d36f6fb3e41", "is_reserved": 0, "lon": -77.02136833333333, "is_disabled": 0, "fusion_lat": 0.0, "lat": 38.91557483333333, "bike_id": "3057941860ec1b849c371d36f6fb3e41", "fusion_lon": 0.0}, {"rental_uris": {"ios": "https://dc.lft.to/lastmile_qr_scan", "android": "https://dc.lft.to/lastmile_qr_scan"}, "type": "electric_scooter", "name": "d8957045bb63449854818d2dcfd22657", "is_reserved": 0, "lon": -77.04005416666666, "is_disabled": 0, "fusion_lat": 0.0, "lat": 38.911845166666666, "bike_id": "d8957045bb63449854818d2dcfd22657", "fusion_lon": 0.0}, {"rental_uris": {"ios": "https://dc.lft.to/lastmile_qr_scan", "android": "https://dc.lft.to/lastmile_qr_scan"}, "type": "electric_scooter", "name": "523c481f9c6c18055ce885ec4381cfcb", "is_reserved": 0, "lon": -77.0020755, "is_disabled": 0, "fusion_lat": 0.0, "lat": 38.908532, "bike_id": "523c481f9c6c18055ce885ec4381cfcb", "fusion_lon": 0.0}, {"rental_uris": {"ios": "https://dc.lft.to/lastmile_qr_scan", "android": "https://dc.lft.to/lastmile_qr_scan"}, "type": "electric_scooter", "name": "61b8f60ca149fe5b343439a330bb63b3", "is_reserved": 0, "lon": -77.03254383333334, "is_disabled": 0, "fusion_lat": 0.0, "lat": 38.92974366666667, "bike_id": "61b8f60ca149fe5b343439a330bb63b3", "fusion_lon": 0.0}, {"rental_uris": {"ios": "https://dc.lft.to/lastmile_qr_scan", "android": "https://dc.lft.to/lastmile_qr_scan"}, "type": "electric_scooter", "name": "d4a4872d06bace67a4fa64a228422f47", "is_reserved": 0, "lon": -77.03195733333334, "is_disabled": 0, "fusion_lat": 0.0, "lat": 38.918678666666665, "bike_id": "d4a4872d06bace67a4fa64a228422f47", "fusion_lon": 0.0}, {"rental_uris": {"ios": "https://dc.lft.to/lastmile_qr_scan", "android": "https://dc.lft.to/lastmile_qr_scan"}, "type": "electric_bike", "name": "236410b91a2cb180532c4f1e20c9c62c", "is_reserved": 0, "lon": -76.98840266666667, "is_disabled": 0, "fusion_lat": 0.0, "lat": 38.84280233333333, "bike_id": "236410b91a2cb180532c4f1e20c9c62c", "fusion_lon": 0.0}, {"rental_uris": {"ios": "https://dc.lft.to/lastmile_qr_scan", "android": "https://dc.lft.to/lastmile_qr_scan"}, "type": "electric_scooter", "name": "3b92daeac03247dd95b9b98ca8122059", "is_reserved": 0, "lon": -77.01923133333334, "is_disabled": 0, "fusion_lat": 0.0, "lat": 38.937322, "bike_id": "3b92daeac03247dd95b9b98ca8122059", "fusion_lon": 0.0}, {"rental_uris": {"ios": "https://dc.lft.to/lastmile_qr_scan", "android": "https://dc.lft.to/lastmile_qr_scan"}, "type": "electric_scooter", "name": "76b9a7898e0256985ebd29d2a33656de", "is_reserved": 0, "lon": -77.0409085, "is_disabled": 0, "fusion_lat": 0.0, "lat": 38.90015916666667, "bike_id": "76b9a7898e0256985ebd29d2a33656de", "fusion_lon": 0.0}, {"rental_uris": {"ios": "https://dc.lft.to/lastmile_qr_scan", "android": "https://dc.lft.to/lastmile_qr_scan"}, "type": "electric_scooter", "name": "191cbe2c4aa40330e7be7442c50d9adc", "is_reserved": 0, "lon": -77.023581, "is_disabled": 0, "fusion_lat": 0.0, "lat": 38.92057416666667, "bike_id": "191cbe2c4aa40330e7be7442c50d9adc", "fusion_lon": 0.0}, {"rental_uris": {"ios": "https://dc.lft.to/lastmile_qr_scan", "android": "https://dc.lft.to/lastmile_qr_scan"}, "type": "electric_bike", "name": "f51a375c017b2578686d23e2769b9a13", "is_reserved": 0, "lon": -77.10747783333333, "is_disabled": 0, "fusion_lat": 0.0, "lat": 38.8554645, "bike_id": "f51a375c017b2578686d23e2769b9a13", "fusion_lon": 0.0}, {"rental_uris": {"ios": "https://dc.lft.to/lastmile_qr_scan", "android": "https://dc.lft.to/lastmile_qr_scan"}, "type": "electric_scooter", "name": "914c139c63e77b8caf8c796ab62ee3eb", "is_reserved": 0, "lon": -77.01818683333333, "is_disabled": 0, "fusion_lat": 0.0, "lat": 38.92038683333333, "bike_id": "914c139c63e77b8caf8c796ab62ee3eb", "fusion_lon": 0.0}, {"rental_uris": {"ios": "https://dc.lft.to/lastmile_qr_scan", "android": "https://dc.lft.to/lastmile_qr_scan"}, "type": "electric_scooter", "name": "d3e5d4573ba673e23ec2276345d4cb38", "is_reserved": 0, "lon": -77.0186575, "is_disabled": 0, "fusion_lat": 0.0, "lat": 38.95153116666667, "bike_id": "d3e5d4573ba673e23ec2276345d4cb38", "fusion_lon": 0.0}, {"rental_uris": {"ios": "https://dc.lft.to/lastmile_qr_scan", "android": "https://dc.lft.to/lastmile_qr_scan"}, "type": "electric_scooter", "name": "d744f221d133002927b070d99f4efd1f", "is_reserved": 0, "lon": -77.0434755, "is_disabled": 0, "fusion_lat": 0.0, "lat": 38.92184683333333, "bike_id": "d744f221d133002927b070d99f4efd1f", "fusion_lon": 0.0}, {"rental_uris": {"ios": "https://dc.lft.to/lastmile_qr_scan", "android": "https://dc.lft.to/lastmile_qr_scan"}, "type": "electric_scooter", "name": "3229fa2d78fbef9d382e6e42742f15d2", "is_reserved": 0, "lon": -77.062867, "is_disabled": 0, "fusion_lat": 0.0, "lat": 38.905037666666665, "bike_id": "3229fa2d78fbef9d382e6e42742f15d2", "fusion_lon": 0.0}, {"rental_uris": {"ios": "https://dc.lft.to/lastmile_qr_scan", "android": "https://dc.lft.to/lastmile_qr_scan"}, "type": "electric_bike", "name": "a2ab4edc7e22f59284c5c4194b3a49a3", "is_reserved": 0, "lon": -77.07658483333333, "is_disabled": 0, "fusion_lat": 0.0, "lat": 38.888534166666666, "bike_id": "a2ab4edc7e22f59284c5c4194b3a49a3", "fusion_lon": 0.0}, {"rental_uris": {"ios": "https://dc.lft.to/lastmile_qr_scan", "android": "https://dc.lft.to/lastmile_qr_scan"}, "type": "electric_scooter", "name": "cb0c430f890a8b6dcb1d11f94af27123", "is_reserved": 0, "lon": -76.9831665, "is_disabled": 0, "fusion_lat": 0.0, "lat": 38.9258815, "bike_id": "cb0c430f890a8b6dcb1d11f94af27123", "fusion_lon": 0.0}, {"rental_uris": {"ios": "https://dc.lft.to/lastmile_qr_scan", "android": "https://dc.lft.to/lastmile_qr_scan"}, "type": "electric_scooter", "name": "b294e8bfd10b40fa4b422603756e8c55", "is_reserved": 0, "lon": -77.03099483333334, "is_disabled": 0, "fusion_lat": 0.0, "lat": 38.946715833333336, "bike_id": "b294e8bfd10b40fa4b422603756e8c55", "fusion_lon": 0.0}, {"rental_uris": {"ios": "https://dc.lft.to/lastmile_qr_scan", "android": "https://dc.lft.to/lastmile_qr_scan"}, "type": "electric_scooter", "name": "29001b0aeffb31d25ac247fe9774ee83", "is_reserved": 0, "lon": -77.0420005, "is_disabled": 0, "fusion_lat": 0.0, "lat": 38.920728833333335, "bike_id": "29001b0aeffb31d25ac247fe9774ee83", "fusion_lon": 0.0}, {"rental_uris": {"ios": "https://dc.lft.to/lastmile_qr_scan", "android": "https://dc.lft.to/lastmile_qr_scan"}, "type": "electric_bike", "name": "d12aaeb098115f1d24d908ea68ef0752", "is_reserved": 0, "lon": -76.95789766666667, "is_disabled": 0, "fusion_lat": 0.0, "lat": 38.9804605, "bike_id": "d12aaeb098115f1d24d908ea68ef0752", "fusion_lon": 0.0}, {"rental_uris": {"ios": "https://dc.lft.to/lastmile_qr_scan", "android": "https://dc.lft.to/lastmile_qr_scan"}, "type": "electric_scooter", "name": "9ccfd445d42f7a3d72a5bcfb7a9cd5a3", "is_reserved": 0, "lon": -77.02355083333333, "is_disabled": 0, "fusion_lat": 0.0, "lat": 38.931061666666665, "bike_id": "9ccfd445d42f7a3d72a5bcfb7a9cd5a3", "fusion_lon": 0.0}, {"rental_uris": {"ios": "https://dc.lft.to/lastmile_qr_scan", "android": "https://dc.lft.to/lastmile_qr_scan"}, "type": "electric_scooter", "name": "273d333d6d00171e79d85e5d2ebe282f", "is_reserved": 0, "lon": -76.975653, "is_disabled": 0, "fusion_lat": 0.0, "lat": 38.9442525, "bike_id": "273d333d6d00171e79d85e5d2ebe282f", "fusion_lon": 0.0}, {"rental_uris": {"ios": "https://dc.lft.to/lastmile_qr_scan", "android": "https://dc.lft.to/lastmile_qr_scan"}, "type": "electric_bike", "name": "7763c35851b0e5b7752deda77ad0e876", "is_reserved": 0, "lon": -77.02622166666667, "is_disabled": 0, "fusion_lat": 0.0, "lat": 38.96224433333333, "bike_id": "7763c35851b0e5b7752deda77ad0e876", "fusion_lon": 0.0}, {"rental_uris": {"ios": "https://dc.lft.to/lastmile_qr_scan", "android": "https://dc.lft.to/lastmile_qr_scan"}, "type": "electric_bike", "name": "b6d4fed3892951b62c5e06f9d10c67b2", "is_reserved": 0, "lon": -77.00133883333334, "is_disabled": 0, "fusion_lat": 0.0, "lat": 38.99499466666666, "bike_id": "b6d4fed3892951b62c5e06f9d10c67b2", "fusion_lon": 0.0}, {"rental_uris": {"ios": "https://dc.lft.to/lastmile_qr_scan", "android": "https://dc.lft.to/lastmile_qr_scan"}, "type": "electric_scooter", "name": "3aae98be33586d136f480737597acdfa", "is_reserved": 0, "lon": -76.99793016666666, "is_disabled": 0, "fusion_lat": 0.0, "lat": 38.87634333333333, "bike_id": "3aae98be33586d136f480737597acdfa", "fusion_lon": 0.0}, {"rental_uris": {"ios": "https://dc.lft.to/lastmile_qr_scan", "android": "https://dc.lft.to/lastmile_qr_scan"}, "type": "electric_bike", "name": "a2e1f31a56aa168827998a9d6f7e57d8", "is_reserved": 0, "lon": -77.01920783333334, "is_disabled": 0, "fusion_lat": 0.0, "lat": 38.976574666666664, "bike_id": "a2e1f31a56aa168827998a9d6f7e57d8", "fusion_lon": 0.0}, {"rental_uris": {"ios": "https://dc.lft.to/lastmile_qr_scan", "android": "https://dc.lft.to/lastmile_qr_scan"}, "type": "electric_scooter", "name": "b03b86227d30b5c1c47000c0ff28ed63", "is_reserved": 0, "lon": -76.990297, "is_disabled": 0, "fusion_lat": 0.0, "lat": 38.8888165, "bike_id": "b03b86227d30b5c1c47000c0ff28ed63", "fusion_lon": 0.0}, {"rental_uris": {"ios": "https://dc.lft.to/lastmile_qr_scan", "android": "https://dc.lft.to/lastmile_qr_scan"}, "type": "electric_scooter", "name": "7a3d7a5bb204f85d4bee83d6841d063b", "is_reserved": 0, "lon": -77.0237195, "is_disabled": 0, "fusion_lat": 0.0, "lat": 38.905789666666664, "bike_id": "7a3d7a5bb204f85d4bee83d6841d063b", "fusion_lon": 0.0}, {"rental_uris": {"ios": "https://dc.lft.to/lastmile_qr_scan", "android": "https://dc.lft.to/lastmile_qr_scan"}, "type": "electric_scooter", "name": "fee20c1d5addc6ffec26c9821bf9199f", "is_reserved": 0, "lon": -77.03854583333333, "is_disabled": 0, "fusion_lat": 0.0, "lat": 38.91117066666666, "bike_id": "fee20c1d5addc6ffec26c9821bf9199f", "fusion_lon": 0.0}, {"rental_uris": {"ios": "https://dc.lft.to/lastmile_qr_scan", "android": "https://dc.lft.to/lastmile_qr_scan"}, "type": "electric_scooter", "name": "cba730a05e99ba2d93db82056b812d34", "is_reserved": 0, "lon": -77.02714166666667, "is_disabled": 0, "fusion_lat": 0.0, "lat": 38.912237166666664, "bike_id": "cba730a05e99ba2d93db82056b812d34", "fusion_lon": 0.0}, {"rental_uris": {"ios": "https://dc.lft.to/lastmile_qr_scan", "android": "https://dc.lft.to/lastmile_qr_scan"}, "type": "electric_bike", "name": "ec4a22e7153e82e6e3f0807c91780472", "is_reserved": 0, "lon": -77.02072833333334, "is_disabled": 0, "fusion_lat": 0.0, "lat": 38.96439616666667, "bike_id": "ec4a22e7153e82e6e3f0807c91780472", "fusion_lon": 0.0}, {"rental_uris": {"ios": "https://dc.lft.to/lastmile_qr_scan", "android": "https://dc.lft.to/lastmile_qr_scan"}, "type": "electric_scooter", "name": "e22a9601296f55715ee616d3255b75c6", "is_reserved": 0, "lon": -77.00551033333333, "is_disabled": 0, "fusion_lat": 0.0, "lat": 38.911809, "bike_id": "e22a9601296f55715ee616d3255b75c6", "fusion_lon": 0.0}, {"rental_uris": {"ios": "https://dc.lft.to/lastmile_qr_scan", "android": "https://dc.lft.to/lastmile_qr_scan"}, "type": "electric_scooter", "name": "74bcd1c7225eec46f1911e10b9dcbcde", "is_reserved": 0, "lon": -77.0240165, "is_disabled": 0, "fusion_lat": 0.0, "lat": 38.92084166666667, "bike_id": "74bcd1c7225eec46f1911e10b9dcbcde", "fusion_lon": 0.0}, {"rental_uris": {"ios": "https://dc.lft.to/lastmile_qr_scan", "android": "https://dc.lft.to/lastmile_qr_scan"}, "type": "electric_bike", "name": "dd7e403374cc381703b9c86e13db5cc2", "is_reserved": 0, "lon": -77.07659166666667, "is_disabled": 0, "fusion_lat": 0.0, "lat": 38.80981633333333, "bike_id": "dd7e403374cc381703b9c86e13db5cc2", "fusion_lon": 0.0}, {"rental_uris": {"ios": "https://dc.lft.to/lastmile_qr_scan", "android": "https://dc.lft.to/lastmile_qr_scan"}, "type": "electric_scooter", "name": "d9a14495b1858d20f48bf63782e99112", "is_reserved": 0, "lon": -77.0602525, "is_disabled": 0, "fusion_lat": 0.0, "lat": 38.9388285, "bike_id": "d9a14495b1858d20f48bf63782e99112", "fusion_lon": 0.0}, {"rental_uris": {"ios": "https://dc.lft.to/lastmile_qr_scan", "android": "https://dc.lft.to/lastmile_qr_scan"}, "type": "electric_scooter", "name": "b4fd007030dc5790b25fc2ddb3789c47", "is_reserved": 0, "lon": -76.985365, "is_disabled": 0, "fusion_lat": 0.0, "lat": 38.914528, "bike_id": "b4fd007030dc5790b25fc2ddb3789c47", "fusion_lon": 0.0}, {"rental_uris": {"ios": "https://dc.lft.to/lastmile_qr_scan", "android": "https://dc.lft.to/lastmile_qr_scan"}, "type": "electric_scooter", "name": "0405129fbc3bea7d1a201a7cc1d2c79d", "is_reserved": 0, "lon": -76.991586, "is_disabled": 0, "fusion_lat": 0.0, "lat": 38.90036883333333, "bike_id": "0405129fbc3bea7d1a201a7cc1d2c79d", "fusion_lon": 0.0}, {"rental_uris": {"ios": "https://dc.lft.to/lastmile_qr_scan", "android": "https://dc.lft.to/lastmile_qr_scan"}, "type": "electric_scooter", "name": "b46f3c7a0feb271ff8beddb0d8d9c4e2", "is_reserved": 0, "lon": -77.03621216666667, "is_disabled": 0, "fusion_lat": 0.0, "lat": 38.942876, "bike_id": "b46f3c7a0feb271ff8beddb0d8d9c4e2", "fusion_lon": 0.0}, {"rental_uris": {"ios": "https://dc.lft.to/lastmile_qr_scan", "android": "https://dc.lft.to/lastmile_qr_scan"}, "type": "electric_scooter", "name": "d29c3fa224219ff1e2b8245c2f086c40", "is_reserved": 0, "lon": -76.99964333333334, "is_disabled": 0, "fusion_lat": 0.0, "lat": 38.908614166666666, "bike_id": "d29c3fa224219ff1e2b8245c2f086c40", "fusion_lon": 0.0}, {"rental_uris": {"ios": "https://dc.lft.to/lastmile_qr_scan", "android": "https://dc.lft.to/lastmile_qr_scan"}, "type": "electric_scooter", "name": "ec735d51c1ba6607f7f698f6c31139bb", "is_reserved": 0, "lon": -77.02525316666667, "is_disabled": 0, "fusion_lat": 0.0, "lat": 38.918198, "bike_id": "ec735d51c1ba6607f7f698f6c31139bb", "fusion_lon": 0.0}, {"rental_uris": {"ios": "https://dc.lft.to/lastmile_qr_scan", "android": "https://dc.lft.to/lastmile_qr_scan"}, "type": "electric_scooter", "name": "2a1499033e379047005236807e52f21f", "is_reserved": 0, "lon": -77.0210925, "is_disabled": 0, "fusion_lat": 0.0, "lat": 38.96674066666667, "bike_id": "2a1499033e379047005236807e52f21f", "fusion_lon": 0.0}, {"rental_uris": {"ios": "https://dc.lft.to/lastmile_qr_scan", "android": "https://dc.lft.to/lastmile_qr_scan"}, "type": "electric_scooter", "name": "b6d4fc905a35f34da738d90baa399f22", "is_reserved": 0, "lon": -77.03801233333333, "is_disabled": 0, "fusion_lat": 0.0, "lat": 38.9040005, "bike_id": "b6d4fc905a35f34da738d90baa399f22", "fusion_lon": 0.0}, {"rental_uris": {"ios": "https://dc.lft.to/lastmile_qr_scan", "android": "https://dc.lft.to/lastmile_qr_scan"}, "type": "electric_scooter", "name": "9b9db5518e9c07621af0b470b1979457", "is_reserved": 0, "lon": -76.9907425, "is_disabled": 0, "fusion_lat": 0.0, "lat": 38.90297783333333, "bike_id": "9b9db5518e9c07621af0b470b1979457", "fusion_lon": 0.0}, {"rental_uris": {"ios": "https://dc.lft.to/lastmile_qr_scan", "android": "https://dc.lft.to/lastmile_qr_scan"}, "type": "electric_scooter", "name": "3b6e4b1f256cd0fdabd5a34db8566d0c", "is_reserved": 0, "lon": -77.0587515, "is_disabled": 0, "fusion_lat": 0.0, "lat": 38.90531983333333, "bike_id": "3b6e4b1f256cd0fdabd5a34db8566d0c", "fusion_lon": 0.0}, {"rental_uris": {"ios": "https://dc.lft.to/lastmile_qr_scan", "android": "https://dc.lft.to/lastmile_qr_scan"}, "type": "electric_scooter", "name": "29f77ef1a1e564bebad6ca22853ecc6b", "is_reserved": 0, "lon": -76.99590416666666, "is_disabled": 0, "fusion_lat": 0.0, "lat": 38.909419, "bike_id": "29f77ef1a1e564bebad6ca22853ecc6b", "fusion_lon": 0.0}, {"rental_uris": {"ios": "https://dc.lft.to/lastmile_qr_scan", "android": "https://dc.lft.to/lastmile_qr_scan"}, "type": "electric_scooter", "name": "93b74850e35a296e034634ae79102164", "is_reserved": 0, "lon": -77.0175835, "is_disabled": 0, "fusion_lat": 0.0, "lat": 38.878612833333335, "bike_id": "93b74850e35a296e034634ae79102164", "fusion_lon": 0.0}, {"rental_uris": {"ios": "https://dc.lft.to/lastmile_qr_scan", "android": "https://dc.lft.to/lastmile_qr_scan"}, "type": "electric_scooter", "name": "c3f3e2283f0233f176b816efc4f2a5e7", "is_reserved": 0, "lon": -77.0481655, "is_disabled": 0, "fusion_lat": 0.0, "lat": 38.914948333333335, "bike_id": "c3f3e2283f0233f176b816efc4f2a5e7", "fusion_lon": 0.0}, {"rental_uris": {"ios": "https://dc.lft.to/lastmile_qr_scan", "android": "https://dc.lft.to/lastmile_qr_scan"}, "type": "electric_scooter", "name": "c353d89b041ac709cecf856f26a28132", "is_reserved": 0, "lon": -76.97329666666667, "is_disabled": 0, "fusion_lat": 0.0, "lat": 38.90412416666667, "bike_id": "c353d89b041ac709cecf856f26a28132", "fusion_lon": 0.0}, {"rental_uris": {"ios": "https://dc.lft.to/lastmile_qr_scan", "android": "https://dc.lft.to/lastmile_qr_scan"}, "type": "electric_scooter", "name": "2e39537872d6562bd80301a3180d8862", "is_reserved": 0, "lon": -77.03976366666667, "is_disabled": 0, "fusion_lat": 0.0, "lat": 38.93149, "bike_id": "2e39537872d6562bd80301a3180d8862", "fusion_lon": 0.0}, {"rental_uris": {"ios": "https://dc.lft.to/lastmile_qr_scan", "android": "https://dc.lft.to/lastmile_qr_scan"}, "type": "electric_scooter", "name": "bc8aecedcfab4fd6c90222c637c449b9", "is_reserved": 0, "lon": -77.00930133333334, "is_disabled": 0, "fusion_lat": 0.0, "lat": 38.897441666666666, "bike_id": "bc8aecedcfab4fd6c90222c637c449b9", "fusion_lon": 0.0}, {"rental_uris": {"ios": "https://dc.lft.to/lastmile_qr_scan", "android": "https://dc.lft.to/lastmile_qr_scan"}, "type": "electric_scooter", "name": "1c569c87e8e71f4493585d7d77461923", "is_reserved": 0, "lon": -77.06109383333333, "is_disabled": 0, "fusion_lat": 0.0, "lat": 38.904733666666665, "bike_id": "1c569c87e8e71f4493585d7d77461923", "fusion_lon": 0.0}, {"rental_uris": {"ios": "https://dc.lft.to/lastmile_qr_scan", "android": "https://dc.lft.to/lastmile_qr_scan"}, "type": "electric_bike", "name": "a10aeaf0ff0a53f5daeb66e4d8f4354f", "is_reserved": 0, "lon": -77.06950433333333, "is_disabled": 0, "fusion_lat": 0.0, "lat": 38.83626016666667, "bike_id": "a10aeaf0ff0a53f5daeb66e4d8f4354f", "fusion_lon": 0.0}, {"rental_uris": {"ios": "https://dc.lft.to/lastmile_qr_scan", "android": "https://dc.lft.to/lastmile_qr_scan"}, "type": "electric_scooter", "name": "dc727bd0b85764d7c763b6d464e2a204", "is_reserved": 0, "lon": -76.981056, "is_disabled": 0, "fusion_lat": 0.0, "lat": 38.9024725, "bike_id": "dc727bd0b85764d7c763b6d464e2a204", "fusion_lon": 0.0}, {"rental_uris": {"ios": "https://dc.lft.to/lastmile_qr_scan", "android": "https://dc.lft.to/lastmile_qr_scan"},