{"data": {"bikes": [{"bike_id": "41eba55aeb0340b4384f730639b2b466", "type": "electric_scooter", "is_disabled": 0, "lat": 38.965508166666666, "rental_uris": {"ios": "https://dc.lft.to/lastmile_qr_scan", "android": "https://dc.lft.to/lastmile_qr_scan"}, "is_reserved": 0, "fusion_lon": 0.0, "fusion_lat": 0.0, "lon": -77.03625216666667, "name": "41eba55aeb0340b4384f730639b2b466"}, {"bike_id": "135ec025c4e6b6c388d97f44c5994441", "type": "electric_scooter", "is_disabled": 0, "lat": 38.916737833333336, "rental_uris": {"ios": "https://dc.lft.to/lastmile_qr_scan", "android": "https://dc.lft.to/lastmile_qr_scan"}, "is_reserved": 0, "fusion_lon": 0.0, "fusion_lat": 0.0, "lon": -77.0239255, "name": "135ec025c4e6b6c388d97f44c5994441"}, {"bike_id": "cbb77b8a0adbdfac9bc5d17a2bf76481", "type": "electric_scooter", "is_disabled": 0, "lat": 38.876620333333335, "rental_uris": {"ios": "https://dc.lft.to/lastmile_qr_scan", "android": "https://dc.lft.to/lastmile_qr_scan"}, "is_reserved": 0, "fusion_lon": 0.0, "fusion_lat": 0.0, "lon": -77.00441533333333, "name": "cbb77b8a0adbdfac9bc5d17a2bf76481"}, {"bike_id": "f4cce9c46427b98bf6efbcb64839f3a8", "type": "electric_scooter", "is_disabled": 0, "lat": 38.902398833333336, "rental_uris": {"ios": "https://dc.lft.to/lastmile_qr_scan", "android": "https://dc.lft.to/lastmile_qr_scan"}, "is_reserved": 0, "fusion_lon": 0.0, "fusion_lat": 0.0, "lon": -77.04110016666667, "name": "f4cce9c46427b98bf6efbcb64839f3a8"}, {"bike_id": "2d19f6b461959c3a85bc8db7ddad2a9a", "type": "electric_scooter", "is_disabled": 0, "lat": 38.92036016666667, "rental_uris": {"ios": "https://dc.lft.to/lastmile_qr_scan", "android": "https://dc.lft.to/lastmile_qr_scan"}, "is_reserved": 0, "fusion_lon": 0.0, "fusion_lat": 0.0, "lon": -77.0243195, "name": "2d19f6b461959c3a85bc8db7ddad2a9a"}, {"bike_id": "35bcf4ca57ce0fb2e191952ab81eacba", "type": "electric_scooter", "is_disabled": 0, "lat": 38.9001605, "rental_uris": {"ios": "https://dc.lft.to/lastmile_qr_scan", "android": "https://dc.lft.to/lastmile_qr_scan"}, "is_reserved": 0, "fusion_lon": 0.0, "fusion_lat": 0.0, "lon": -76.9854095, "name": "35bcf4ca57ce0fb2e191952ab81eacba"}, {"bike_id": "bfa3eb7ea9308fb8892eb3f3eda2429a", "type": "electric_scooter", "is_disabled": 0, "lat": 38.915439, "rental_uris": {"ios": "https://dc.lft.to/lastmile_qr_scan", "android": "https://dc.lft.to/lastmile_qr_scan"}, "is_reserved": 0, "fusion_lon": 0.0, "fusion_lat": 0.0, "lon": -77.022022, "name": "bfa3eb7ea9308fb8892eb3f3eda2429a"}, {"bike_id": "0acf1ad26e99986ed8f0259b9b20fc48", "type": "electric_scooter", "is_disabled": 0, "lat": 38.955291833333334, "rental_uris": {"ios": "https://dc.lft.to/lastmile_qr_scan", "android": "https://dc.lft.to/lastmile_qr_scan"}, "is_reserved": 0, "fusion_lon": 0.0, "fusion_lat": 0.0, "lon": -77.02780383333334, "name": "0acf1ad26e99986ed8f0259b9b20fc48"}, {"bike_id": "0b15d66b354354b75d974e5f638b86b4", "type": "electric_scooter", "is_disabled": 0, "lat": 38.90784933333333, "rental_uris": {"ios": "https://dc.lft.to/lastmile_qr_scan", "android": "https://dc.lft.to/lastmile_qr_scan"}, "is_reserved": 0, "fusion_lon": 0.0, "fusion_lat": 0.0, "lon": -77.0108055, "name": "0b15d66b354354b75d974e5f638b86b4"}, {"bike_id": "adddb4948a2e7ad416700d4bfcef52c9", "type": "electric_scooter", "is_disabled": 0, "lat": 38.91418133333333, "rental_uris": {"ios": "https://dc.lft.to/lastmile_qr_scan", "android": "https://dc.lft.to/lastmile_qr_scan"}, "is_reserved": 0, "fusion_lon": 0.0, "fusion_lat": 0.0, "lon": -77.031755, "name": "adddb4948a2e7ad416700d4bfcef52c9"}, {"bike_id": "594fb0cf62e44fe23957ebfb23b6edfd", "type": "electric_scooter", "is_disabled": 0, "lat": 38.91171583333333, "rental_uris": {"ios": "https://dc.lft.to/lastmile_qr_scan", "android": "https://dc.lft.to/lastmile_qr_scan"}, "is_reserved": 0, "fusion_lon": 0.0, "fusion_lat": 0.0, "lon": -77.06858883333334, "name": "594fb0cf62e44fe23957ebfb23b6edfd"}, {"bike_id": "ce955ae4ba77fb0eebe88062a036e0c3", "type": "electric_scooter", "is_disabled": 0, "lat": 38.9216395, "rental_uris": {"ios": "https://dc.lft.to/lastmile_qr_scan", "android": "https://dc.lft.to/lastmile_qr_scan"}, "is_reserved": 0, "fusion_lon": 0.0, "fusion_lat": 0.0, "lon": -77.03843416666666, "name": "ce955ae4ba77fb0eebe88062a036e0c3"}, {"bike_id": "5811f703d26589f782f6dc2cb56734ee", "type": "electric_scooter", "is_disabled": 0, "lat": 38.8997625, "rental_uris": {"ios": "https://dc.lft.to/lastmile_qr_scan", "android": "https://dc.lft.to/lastmile_qr_scan"}, "is_reserved": 0, "fusion_lon": 0.0, "fusion_lat": 0.0, "lon": -77.01575383333333, "name": "5811f703d26589f782f6dc2cb56734ee"}, {"bike_id": "e0d384e910ff510d412d8513b675499c", "type": "electric_bike", "is_disabled": 0, "lat": 38.88950833333333, "rental_uris": {"ios": "https://dc.lft.to/lastmile_qr_scan", "android": "https://dc.lft.to/lastmile_qr_scan"}, "is_reserved": 0, "fusion_lon": 0.0, "fusion_lat": 0.0, "lon": -77.0912795, "name": "e0d384e910ff510d412d8513b675499c"}, {"bike_id": "87b280c2a603e99677eb57ba8f847d2a", "type": "electric_scooter", "is_disabled": 0, "lat": 38.906037166666664, "rental_uris": {"ios": "https://dc.lft.to/lastmile_qr_scan", "android": "https://dc.lft.to/lastmile_qr_scan"}, "is_reserved": 0, "fusion_lon": 0.0, "fusion_lat": 0.0, "lon": -77.0629165, "name": "87b280c2a603e99677eb57ba8f847d2a"}, {"bike_id": "a8ef27d02f09631bae563df808b1487c", "type": "electric_scooter", "is_disabled": 0, "lat": 38.89688366666667, "rental_uris": {"ios": "https://dc.lft.to/lastmile_qr_scan", "android": "https://dc.lft.to/lastmile_qr_scan"}, "is_reserved": 0, "fusion_lon": 0.0, "fusion_lat": 0.0, "lon": -76.99966366666666, "name": "a8ef27d02f09631bae563df808b1487c"}, {"bike_id": "9b9ff5210aacc591fc47879cca6f392b", "type": "electric_scooter", "is_disabled": 0, "lat": 38.92791116666667, "rental_uris": {"ios": "https://dc.lft.to/lastmile_qr_scan", "android": "https://dc.lft.to/lastmile_qr_scan"}, "is_reserved": 0, "fusion_lon": 0.0, "fusion_lat": 0.0, "lon": -77.02205266666667, "name": "9b9ff5210aacc591fc47879cca6f392b"}, {"bike_id": "f6cfbf97dc6649bd86594efd9e02d942", "type": "electric_scooter", "is_disabled": 0, "lat": 38.9030045, "rental_uris": {"ios": "https://dc.lft.to/lastmile_qr_scan", "android": "https://dc.lft.to/lastmile_qr_scan"}, "is_reserved": 0, "fusion_lon": 0.0, "fusion_lat": 0.0, "lon": -77.06536116666666, "name": "f6cfbf97dc6649bd86594efd9e02d942"}, {"bike_id": "fc7786f835447a9cce07f7aec9d81d65", "type": "electric_bike", "is_disabled": 0, "lat": 38.931686, "rental_uris": {"ios": "https://dc.lft.to/lastmile_qr_scan", "android": "https://dc.lft.to/lastmile_qr_scan"}, "is_reserved": 0, "fusion_lon": 0.0, "fusion_lat": 0.0, "lon": -77.0355495, "name": "fc7786f835447a9cce07f7aec9d81d65"}, {"bike_id": "dfe1f77d66c4d5a9c86ea1f20025c5b0", "type": "electric_scooter", "is_disabled": 0, "lat": 38.89912116666667, "rental_uris": {"ios": "https://dc.lft.to/lastmile_qr_scan", "android": "https://dc.lft.to/lastmile_qr_scan"}, "is_reserved": 0, "fusion_lon": 0.0, "fusion_lat": 0.0, "lon": -77.03928983333333, "name": "dfe1f77d66c4d5a9c86ea1f20025c5b0"}, {"bike_id": "16cc090bd0e78a197ffc956bc1998cc4", "type": "electric_scooter", "is_disabled": 0, "lat": 38.86208283333333, "rental_uris": {"ios": "https://dc.lft.to/lastmile_qr_scan", "android": "https://dc.lft.to/lastmile_qr_scan"}, "is_reserved": 0, "fusion_lon": 0.0, "fusion_lat": 0.0, "lon": -76.99468483333334, "name": "16cc090bd0e78a197ffc956bc1998cc4"}, {"bike_id": "c60650f09980edcafccdd0cc057cbd37", "type": "electric_scooter", "is_disabled": 0, "lat": 38.956258, "rental_uris": {"ios": "https://dc.lft.to/lastmile_qr_scan", "android": "https://dc.lft.to/lastmile_qr_scan"}, "is_reserved": 0, "fusion_lon": 0.0, "fusion_lat": 0.0, "lon": -77.03617433333334, "name": "c60650f09980edcafccdd0cc057cbd37"}, {"bike_id": "719292a89a47950e0b87b35f0ca48ae1", "type": "electric_scooter", "is_disabled": 0, "lat": 38.90565766666667, "rental_uris": {"ios": "https://dc.lft.to/lastmile_qr_scan", "android": "https://dc.lft.to/lastmile_qr_scan"}, "is_reserved": 0, "fusion_lon": 0.0, "fusion_lat": 0.0, "lon": -77.02698766666667, "name": "719292a89a47950e0b87b35f0ca48ae1"}, {"bike_id": "585e2a073e7844535d5f5658856ad31f", "type": "electric_scooter", "is_disabled": 0, "lat": 38.90721716666667, "rental_uris": {"ios": "https://dc.lft.to/lastmile_qr_scan", "android": "https://dc.lft.to/lastmile_qr_scan"}, "is_reserved": 0, "fusion_lon": 0.0, "fusion_lat": 0.0, "lon": -77.04513183333333, "name": "585e2a073e7844535d5f5658856ad31f"}, {"bike_id": "4379a58d45cafa3519caeb575a99bde7", "type": "electric_scooter", "is_disabled": 0, "lat": 38.91219483333333, "rental_uris": {"ios": "https://dc.lft.to/lastmile_qr_scan", "android": "https://dc.lft.to/lastmile_qr_scan"}, "is_reserved": 0, "fusion_lon": 0.0, "fusion_lat": 0.0, "lon": -77.03205366666667, "name": "4379a58d45cafa3519caeb575a99bde7"}, {"bike_id": "a08b2b7cfc3e2d7df35025d714ba537c", "type": "electric_scooter", "is_disabled": 0, "lat": 38.88526133333333, "rental_uris": {"ios": "https://dc.lft.to/lastmile_qr_scan", "android": "https://dc.lft.to/lastmile_qr_scan"}, "is_reserved": 0, "fusion_lon": 0.0, "fusion_lat": 0.0, "lon": -76.99823916666666, "name": "a08b2b7cfc3e2d7df35025d714ba537c"}, {"bike_id": "604131675d7652b1f97005ebfdadf585", "type": "electric_scooter", "is_disabled": 0, "lat": 38.923257, "rental_uris": {"ios": "https://dc.lft.to/lastmile_qr_scan", "android": "https://dc.lft.to/lastmile_qr_scan"}, "is_reserved": 0, "fusion_lon": 0.0, "fusion_lat": 0.0, "lon": -77.0378125, "name": "604131675d7652b1f97005ebfdadf585"}, {"bike_id": "a970724d419faf6bf144ece1995068ed", "type": "electric_scooter", "is_disabled": 0, "lat": 38.90119083333333, "rental_uris": {"ios": "https://dc.lft.to/lastmile_qr_scan", "android": "https://dc.lft.to/lastmile_qr_scan"}, "is_reserved": 0, "fusion_lon": 0.0, "fusion_lat": 0.0, "lon": -76.92953866666667, "name": "a970724d419faf6bf144ece1995068ed"}, {"bike_id": "976ac4eb1a9937197e0a4a70fc5f1601", "type": "electric_bike", "is_disabled": 0, "lat": 38.974013, "rental_uris": {"ios": "https://dc.lft.to/lastmile_qr_scan", "android": "https://dc.lft.to/lastmile_qr_scan"}, "is_reserved": 0, "fusion_lon": 0.0, "fusion_lat": 0.0, "lon": -77.064535, "name": "976ac4eb1a9937197e0a4a70fc5f1601"}, {"bike_id": "fe9baf8c62b43c98327f6e51b662372b", "type": "electric_scooter", "is_disabled": 0, "lat": 38.894811, "rental_uris": {"ios": "https://dc.lft.to/lastmile_qr_scan", "android": "https://dc.lft.to/lastmile_qr_scan"}, "is_reserved": 0, "fusion_lon": 0.0, "fusion_lat": 0.0, "lon": -76.98776266666667, "name": "fe9baf8c62b43c98327f6e51b662372b"}, {"bike_id": "4f8fc6f552ad1224ef5f227f1b5c12be", "type": "electric_scooter", "is_disabled": 0, "lat": 38.92326083333333, "rental_uris": {"ios": "https://dc.lft.to/lastmile_qr_scan", "android": "https://dc.lft.to/lastmile_qr_scan"}, "is_reserved": 0, "fusion_lon": 0.0, "fusion_lat": 0.0, "lon": -77.00057483333333, "name": "4f8fc6f552ad1224ef5f227f1b5c12be"}, {"bike_id": "2e17be19cfa363c349c7b7de804adb48", "type": "electric_bike", "is_disabled": 0, "lat": 38.94367316666667, "rental_uris": {"ios": "https://dc.lft.to/lastmile_qr_scan", "android": "https://dc.lft.to/lastmile_qr_scan"}, "is_reserved": 0, "fusion_lon": 0.0, "fusion_lat": 0.0, "lon": -77.0035445, "name": "2e17be19cfa363c349c7b7de804adb48"}, {"bike_id": "fda5d3731180fcf79ef224c1af5b99f3", "type": "electric_scooter", "is_disabled": 0, "lat": 38.8928675, "rental_uris": {"ios": "https://dc.lft.to/lastmile_qr_scan", "android": "https://dc.lft.to/lastmile_qr_scan"}, "is_reserved": 0, "fusion_lon": 0.0, "fusion_lat": 0.0, "lon": -77.02015283333333, "name": "fda5d3731180fcf79ef224c1af5b99f3"}, {"bike_id": "eb2863b33cd3604efea060749c459450", "type": "electric_scooter", "is_disabled": 0, "lat": 38.917300166666664, "rental_uris": {"ios": "https://dc.lft.to/lastmile_qr_scan", "android": "https://dc.lft.to/lastmile_qr_scan"}, "is_reserved": 0, "fusion_lon": 0.0, "fusion_lat": 0.0, "lon": -77.00818833333334, "name": "eb2863b33cd3604efea060749c459450"}, {"bike_id": "82498b003f622deeaa050b587894c822", "type": "electric_bike", "is_disabled": 0, "lat": 38.80753266666667, "rental_uris": {"ios": "https://dc.lft.to/lastmile_qr_scan", "android": "https://dc.lft.to/lastmile_qr_scan"}, "is_reserved": 0, "fusion_lon": 0.0, "fusion_lat": 0.0, "lon": -77.094544, "name": "82498b003f622deeaa050b587894c822"}, {"bike_id": "e1ad5fddc70b4127c07914cd628cc030", "type": "electric_scooter", "is_disabled": 0, "lat": 38.8706725, "rental_uris": {"ios": "https://dc.lft.to/lastmile_qr_scan", "android": "https://dc.lft.to/lastmile_qr_scan"}, "is_reserved": 0, "fusion_lon": 0.0, "fusion_lat": 0.0, "lon": -76.98132416666667, "name": "e1ad5fddc70b4127c07914cd628cc030"}, {"bike_id": "be6d49b693be741e953e69605785f0c8", "type": "electric_bike", "is_disabled": 0, "lat": 38.86475166666666, "rental_uris": {"ios": "https://dc.lft.to/lastmile_qr_scan", "android": "https://dc.lft.to/lastmile_qr_scan"}, "is_reserved": 0, "fusion_lon": 0.0, "fusion_lat": 0.0, "lon": -76.97738166666667, "name": "be6d49b693be741e953e69605785f0c8"}, {"bike_id": "62c01cbe6d6cf6a3ccb8157c1d89e01a", "type": "electric_scooter", "is_disabled": 0, "lat": 38.924828166666664, "rental_uris": {"ios": "https://dc.lft.to/lastmile_qr_scan", "android": "https://dc.lft.to/lastmile_qr_scan"}, "is_reserved": 0, "fusion_lon": 0.0, "fusion_lat": 0.0, "lon": -77.0296165, "name": "62c01cbe6d6cf6a3ccb8157c1d89e01a"}, {"bike_id": "59f3bc0819347b1c83d3e387c1953312", "type": "electric_scooter", "is_disabled": 0, "lat": 38.858084166666664, "rental_uris": {"ios": "https://dc.lft.to/lastmile_qr_scan", "android": "https://dc.lft.to/lastmile_qr_scan"}, "is_reserved": 0, "fusion_lon": 0.0, "fusion_lat": 0.0, "lon": -76.98921833333333, "name": "59f3bc0819347b1c83d3e387c1953312"}, {"bike_id": "1f5d4489e71be6bd6cb1372eae69936b", "type": "electric_scooter", "is_disabled": 0, "lat": 38.91419333333333, "rental_uris": {"ios": "https://dc.lft.to/lastmile_qr_scan", "android": "https://dc.lft.to/lastmile_qr_scan"}, "is_reserved": 0, "fusion_lon": 0.0, "fusion_lat": 0.0, "lon": -77.03961966666667, "name": "1f5d4489e71be6bd6cb1372eae69936b"}, {"bike_id": "cdda60d1f6a9187bf7fc448b9acbf332", "type": "electric_scooter", "is_disabled": 0, "lat": 38.9170125, "rental_uris": {"ios": "https://dc.lft.to/lastmile_qr_scan", "android": "https://dc.lft.to/lastmile_qr_scan"}, "is_reserved": 0, "fusion_lon": 0.0, "fusion_lat": 0.0, "lon": -77.028861, "name": "cdda60d1f6a9187bf7fc448b9acbf332"}, {"bike_id": "a93a4de8f30f402a73c068a8c1b0ebab", "type": "electric_scooter", "is_disabled": 0, "lat": 38.938963333333334, "rental_uris": {"ios": "https://dc.lft.to/lastmile_qr_scan", "android": "https://dc.lft.to/lastmile_qr_scan"}, "is_reserved": 0, "fusion_lon": 0.0, "fusion_lat": 0.0, "lon": -77.03319816666666, "name": "a93a4de8f30f402a73c068a8c1b0ebab"}, {"bike_id": "df36e5a154d069d41fe46e6844667fdf", "type": "electric_scooter", "is_disabled": 0, "lat": 38.9419625, "rental_uris": {"ios": "https://dc.lft.to/lastmile_qr_scan", "android": "https://dc.lft.to/lastmile_qr_scan"}, "is_reserved": 0, "fusion_lon": 0.0, "fusion_lat": 0.0, "lon": -77.02542383333333, "name": "df36e5a154d069d41fe46e6844667fdf"}, {"bike_id": "4b4877f02cea02055d884b168749b8bf", "type": "electric_scooter", "is_disabled": 0, "lat": 38.899667, "rental_uris": {"ios": "https://dc.lft.to/lastmile_qr_scan", "android": "https://dc.lft.to/lastmile_qr_scan"}, "is_reserved": 0, "fusion_lon": 0.0, "fusion_lat": 0.0, "lon": -76.98302383333333, "name": "4b4877f02cea02055d884b168749b8bf"}, {"bike_id": "be5e06b238fd2f50b53cf20ae61d3ef7", "type": "electric_scooter", "is_disabled": 0, "lat": 38.90791266666667, "rental_uris": {"ios": "https://dc.lft.to/lastmile_qr_scan", "android": "https://dc.lft.to/lastmile_qr_scan"}, "is_reserved": 0, "fusion_lon": 0.0, "fusion_lat": 0.0, "lon": -76.99453683333333, "name": "be5e06b238fd2f50b53cf20ae61d3ef7"}, {"bike_id": "962979a655f5cf9ccc8d03d31eb41ae4", "type": "electric_scooter", "is_disabled": 0, "lat": 38.866269833333334, "rental_uris": {"ios": "https://dc.lft.to/lastmile_qr_scan", "android": "https://dc.lft.to/lastmile_qr_scan"}, "is_reserved": 0, "fusion_lon": 0.0, "fusion_lat": 0.0, "lon": -76.9871835, "name": "962979a655f5cf9ccc8d03d31eb41ae4"}, {"bike_id": "5a6d1f53f565e466673821ef404317cf", "type": "electric_scooter", "is_disabled": 0, "lat": 38.93980233333333, "rental_uris": {"ios": "https://dc.lft.to/lastmile_qr_scan", "android": "https://dc.lft.to/lastmile_qr_scan"}, "is_reserved": 0, "fusion_lon": 0.0, "fusion_lat": 0.0, "lon": -77.028733, "name": "5a6d1f53f565e466673821ef404317cf"}, {"bike_id": "fe07cd09f286e427241da67579588698", "type": "electric_scooter", "is_disabled": 0, "lat": 38.84435533333333, "rental_uris": {"ios": "https://dc.lft.to/lastmile_qr_scan", "android": "https://dc.lft.to/lastmile_qr_scan"}, "is_reserved": 0, "fusion_lon": 0.0, "fusion_lat": 0.0, "lon": -76.99870116666666, "name": "fe07cd09f286e427241da67579588698"}, {"bike_id": "4bf5c8f69960888e5cbd030fa2d6063c", "type": "electric_scooter", "is_disabled": 0, "lat": 38.908738666666665, "rental_uris": {"ios": "https://dc.lft.to/lastmile_qr_scan", "android": "https://dc.lft.to/lastmile_qr_scan"}, "is_reserved": 0, "fusion_lon": 0.0, "fusion_lat": 0.0, "lon": -77.02303266666667, "name": "4bf5c8f69960888e5cbd030fa2d6063c"}, {"bike_id": "0e025e0cf3ff336232aa054f1f4c81ac", "type": "electric_scooter", "is_disabled": 0, "lat": 38.93400283333333, "rental_uris": {"ios": "https://dc.lft.to/lastmile_qr_scan", "android": "https://dc.lft.to/lastmile_qr_scan"}, "is_reserved": 0, "fusion_lon": 0.0, "fusion_lat": 0.0, "lon": -77.035216, "name": "0e025e0cf3ff336232aa054f1f4c81ac"}, {"bike_id": "a50904b1a75b314ff9759503a489c2f9", "type": "electric_scooter", "is_disabled": 0, "lat": 38.9172315, "rental_uris": {"ios": "https://dc.lft.to/lastmile_qr_scan", "android": "https://dc.lft.to/lastmile_qr_scan"}, "is_reserved": 0, "fusion_lon": 0.0, "fusion_lat": 0.0, "lon": -77.03659116666667, "name": "a50904b1a75b314ff9759503a489c2f9"}, {"bike_id": "35c3312f756b14bd17baf4fe007518a3", "type": "electric_scooter", "is_disabled": 0, "lat": 38.90703466666667, "rental_uris": {"ios": "https://dc.lft.to/lastmile_qr_scan", "android": "https://dc.lft.to/lastmile_qr_scan"}, "is_reserved": 0, "fusion_lon": 0.0, "fusion_lat": 0.0, "lon": -77.0416445, "name": "35c3312f756b14bd17baf4fe007518a3"}, {"bike_id": "4f26cbb35a8b90e5ef21c69a7d5d2292", "type": "electric_scooter", "is_disabled": 0, "lat": 38.93847316666667, "rental_uris": {"ios": "https://dc.lft.to/lastmile_qr_scan", "android": "https://dc.lft.to/lastmile_qr_scan"}, "is_reserved": 0, "fusion_lon": 0.0, "fusion_lat": 0.0, "lon": -77.07231983333334, "name": "4f26cbb35a8b90e5ef21c69a7d5d2292"}, {"bike_id": "ed37e3dc78051e102f21f66c4579e168", "type": "electric_scooter", "is_disabled": 0, "lat": 38.90977516666667, "rental_uris": {"ios": "https://dc.lft.to/lastmile_qr_scan", "android": "https://dc.lft.to/lastmile_qr_scan"}, "is_reserved": 0, "fusion_lon": 0.0, "fusion_lat": 0.0, "lon": -77.0151285, "name": "ed37e3dc78051e102f21f66c4579e168"}, {"bike_id": "a3c4210ab4f92655d22169a2fc61fee0", "type": "electric_scooter", "is_disabled": 0, "lat": 38.92487416666667, "rental_uris": {"ios": "https://dc.lft.to/lastmile_qr_scan", "android": "https://dc.lft.to/lastmile_qr_scan"}, "is_reserved": 0, "fusion_lon": 0.0, "fusion_lat": 0.0, "lon": -77.05215466666667, "name": "a3c4210ab4f92655d22169a2fc61fee0"}, {"bike_id": "68468ee421f6ef1d5839e65bf746928f", "type": "electric_scooter", "is_disabled": 0, "lat": 38.909457833333335, "rental_uris": {"ios": "https://dc.lft.to/lastmile_qr_scan", "android": "https://dc.lft.to/lastmile_qr_scan"}, "is_reserved": 0, "fusion_lon": 0.0, "fusion_lat": 0.0, "lon": -77.055665, "name": "68468ee421f6ef1d5839e65bf746928f"}, {"bike_id": "768bd73dde4843929c6ff3db1926c337", "type": "electric_scooter", "is_disabled": 0, "lat": 38.965034333333335, "rental_uris": {"ios": "https://dc.lft.to/lastmile_qr_scan", "android": "https://dc.lft.to/lastmile_qr_scan"}, "is_reserved": 0, "fusion_lon": 0.0, "fusion_lat": 0.0, "lon": -77.00205983333333, "name": "768bd73dde4843929c6ff3db1926c337"}, {"bike_id": "0c9faecb399ee199a03fcb66ad8f2d0d", "type": "electric_scooter", "is_disabled": 0, "lat": 38.91104583333333, "rental_uris": {"ios": "https://dc.lft.to/lastmile_qr_scan", "android": "https://dc.lft.to/lastmile_qr_scan"}, "is_reserved": 0, "fusion_lon": 0.0, "fusion_lat": 0.0, "lon": -77.0114865, "name": "0c9faecb399ee199a03fcb66ad8f2d0d"}, {"bike_id": "d0912b2b1dddb201d523c1048a15ac08", "type": "electric_scooter", "is_disabled": 0, "lat": 38.9014295, "rental_uris": {"ios": "https://dc.lft.to/lastmile_qr_scan", "android": "https://dc.lft.to/lastmile_qr_scan"}, "is_reserved": 0, "fusion_lon": 0.0, "fusion_lat": 0.0, "lon": -76.93084433333334, "name": "d0912b2b1dddb201d523c1048a15ac08"}, {"bike_id": "56d299b0e1cc71ca81e958010e713295", "type": "electric_scooter", "is_disabled": 0, "lat": 38.90631333333333, "rental_uris": {"ios": "https://dc.lft.to/lastmile_qr_scan", "android": "https://dc.lft.to/lastmile_qr_scan"}, "is_reserved": 0, "fusion_lon": 0.0, "fusion_lat": 0.0, "lon": -77.04161066666667, "name": "56d299b0e1cc71ca81e958010e713295"}, {"bike_id": "3e85c3d2d122cc9442151fbe83b2fce0", "type": "electric_scooter", "is_disabled": 0, "lat": 38.91674166666667, "rental_uris": {"ios": "https://dc.lft.to/lastmile_qr_scan", "android": "https://dc.lft.to/lastmile_qr_scan"}, "is_reserved": 0, "fusion_lon": 0.0, "fusion_lat": 0.0, "lon": -77.02284966666667, "name": "3e85c3d2d122cc9442151fbe83b2fce0"}, {"bike_id": "45bf06d9c67d5e18bb6f9b6455824386", "type": "electric_scooter", "is_disabled": 0, "lat": 38.89918866666667, "rental_uris": {"ios": "https://dc.lft.to/lastmile_qr_scan", "android": "https://dc.lft.to/lastmile_qr_scan"}, "is_reserved": 0, "fusion_lon": 0.0, "fusion_lat": 0.0, "lon": -76.933652, "name": "45bf06d9c67d5e18bb6f9b6455824386"}, {"bike_id": "1c1ded3cc391dd54cb0438b2bbd0e847", "type": "electric_scooter", "is_disabled": 0, "lat": 38.9346105, "rental_uris": {"ios": "https://dc.lft.to/lastmile_qr_scan", "android": "https://dc.lft.to/lastmile_qr_scan"}, "is_reserved": 0, "fusion_lon": 0.0, "fusion_lat": 0.0, "lon": -77.02242266666667, "name": "1c1ded3cc391dd54cb0438b2bbd0e847"}, {"bike_id": "1027d5b3ed3f39f905abf084e67498a9", "type": "electric_scooter", "is_disabled": 0, "lat": 38.9326855, "rental_uris": {"ios": "https://dc.lft.to/lastmile_qr_scan", "android": "https://dc.lft.to/lastmile_qr_scan"}, "is_reserved": 0, "fusion_lon": 0.0, "fusion_lat": 0.0, "lon": -77.039344, "name": "1027d5b3ed3f39f905abf084e67498a9"}, {"bike_id": "4f3ff963a6c9b8fca6bfa9f7590b4e84", "type": "electric_scooter", "is_disabled": 0, "lat": 38.92602633333333, "rental_uris": {"ios": "https://dc.lft.to/lastmile_qr_scan", "android": "https://dc.lft.to/lastmile_qr_scan"}, "is_reserved": 0, "fusion_lon": 0.0, "fusion_lat": 0.0, "lon": -77.03757366666666, "name": "4f3ff963a6c9b8fca6bfa9f7590b4e84"}, {"bike_id": "2ed4216ae5b2be661fb82f2d6a8eea13", "type": "electric_scooter", "is_disabled": 0, "lat": 38.907956666666664, "rental_uris": {"ios": "https://dc.lft.to/lastmile_qr_scan", "android": "https://dc.lft.to/lastmile_qr_scan"}, "is_reserved": 0, "fusion_lon": 0.0, "fusion_lat": 0.0, "lon": -77.04350816666667, "name": "2ed4216ae5b2be661fb82f2d6a8eea13"}, {"bike_id": "7b73e9248a9f2c0a242e8e5e8127d9e3", "type": "electric_scooter", "is_disabled": 0, "lat": 38.89548683333334, "rental_uris": {"ios": "https://dc.lft.to/lastmile_qr_scan", "android": "https://dc.lft.to/lastmile_qr_scan"}, "is_reserved": 0, "fusion_lon": 0.0, "fusion_lat": 0.0, "lon": -76.94936133333333, "name": "7b73e9248a9f2c0a242e8e5e8127d9e3"}, {"bike_id": "f8aef1dd091d34b4eda4e3170ec48348", "type": "electric_scooter", "is_disabled": 0, "lat": 38.86210833333333, "rental_uris": {"ios": "https://dc.lft.to/lastmile_qr_scan", "android": "https://dc.lft.to/lastmile_qr_scan"}, "is_reserved": 0, "fusion_lon": 0.0, "fusion_lat": 0.0, "lon": -76.99471416666667, "name": "f8aef1dd091d34b4eda4e3170ec48348"}, {"bike_id": "11451b78ebc92fbba39cdf034578846a", "type": "electric_scooter", "is_disabled": 0, "lat": 38.91607333333333, "rental_uris": {"ios": "https://dc.lft.to/lastmile_qr_scan", "android": "https://dc.lft.to/lastmile_qr_scan"}, "is_reserved": 0, "fusion_lon": 0.0, "fusion_lat": 0.0, "lon": -77.04603983333334, "name": "11451b78ebc92fbba39cdf034578846a"}, {"bike_id": "3f3876a629d5d593586c4ef78b515ac7", "type": "electric_scooter", "is_disabled": 0, "lat": 38.867010666666665, "rental_uris": {"ios": "https://dc.lft.to/lastmile_qr_scan", "android": "https://dc.lft.to/lastmile_qr_scan"}, "is_reserved": 0, "fusion_lon": 0.0, "fusion_lat": 0.0, "lon": -76.98714016666666, "name": "3f3876a629d5d593586c4ef78b515ac7"}, {"bike_id": "6630befee24b619742d8777d395e2ffd", "type": "electric_scooter", "is_disabled": 0, "lat": 38.938495, "rental_uris": {"ios": "https://dc.lft.to/lastmile_qr_scan", "android": "https://dc.lft.to/lastmile_qr_scan"}, "is_reserved": 0, "fusion_lon": 0.0, "fusion_lat": 0.0, "lon": -77.03375416666667, "name": "6630befee24b619742d8777d395e2ffd"}, {"bike_id": "166af1c4b71d46001edf33edf257223f", "type": "electric_scooter", "is_disabled": 0, "lat": 38.8988205, "rental_uris": {"ios": "https://dc.lft.to/lastmile_qr_scan", "android": "https://dc.lft.to/lastmile_qr_scan"}, "is_reserved": 0, "fusion_lon": 0.0, "fusion_lat": 0.0, "lon": -76.931761, "name": "166af1c4b71d46001edf33edf257223f"}, {"bike_id": "c6a3fc17697125b4468247edb8e5f6ef", "type": "electric_scooter", "is_disabled": 0, "lat": 38.867001, "rental_uris": {"ios": "https://dc.lft.to/lastmile_qr_scan", "android": "https://dc.lft.to/lastmile_qr_scan"}, "is_reserved": 0, "fusion_lon": 0.0, "fusion_lat": 0.0, "lon": -76.98713816666667, "name": "c6a3fc17697125b4468247edb8e5f6ef"}, {"bike_id": "09f3b107ef85c0bdfe91addd87fa2b8f", "type": "electric_bike", "is_disabled": 0, "lat": 38.94364933333333, "rental_uris": {"ios": "https://dc.lft.to/lastmile_qr_scan", "android": "https://dc.lft.to/lastmile_qr_scan"}, "is_reserved": 0, "fusion_lon": 0.0, "fusion_lat": 0.0, "lon": -76.96784583333333, "name": "09f3b107ef85c0bdfe91addd87fa2b8f"}, {"bike_id": "b49d701ad8a31a177f5d648e04f34621", "type": "electric_scooter", "is_disabled": 0, "lat": 38.917674166666664, "rental_uris": {"ios": "https://dc.lft.to/lastmile_qr_scan", "android": "https://dc.lft.to/lastmile_qr_scan"}, "is_reserved": 0, "fusion_lon": 0.0, "fusion_lat": 0.0, "lon": -77.04771633333333, "name": "b49d701ad8a31a177f5d648e04f34621"}, {"bike_id": "b2bec3ff086e8372d81b50b58b1727e4", "type": "electric_scooter", "is_disabled": 0, "lat": 38.91695766666667, "rental_uris": {"ios": "https://dc.lft.to/lastmile_qr_scan", "android": "https://dc.lft.to/lastmile_qr_scan"}, "is_reserved": 0, "fusion_lon": 0.0, "fusion_lat": 0.0, "lon": -77.0321365, "name": "b2bec3ff086e8372d81b50b58b1727e4"}, {"bike_id": "d4f9b2d6a889836de93dd645f9dd1518", "type": "electric_scooter", "is_disabled": 0, "lat": 38.88031066666667, "rental_uris": {"ios": "https://dc.lft.to/lastmile_qr_scan", "android": "https://dc.lft.to/lastmile_qr_scan"}, "is_reserved": 0, "fusion_lon": 0.0, "fusion_lat": 0.0, "lon": -77.00567333333333, "name": "d4f9b2d6a889836de93dd645f9dd1518"}, {"bike_id": "29c53cdb802ae2278663b029f45e1260", "type": "electric_scooter", "is_disabled": 0, "lat": 38.938894166666664, "rental_uris": {"ios": "https://dc.lft.to/lastmile_qr_scan", "android": "https://dc.lft.to/lastmile_qr_scan"}, "is_reserved": 0, "fusion_lon": 0.0, "fusion_lat": 0.0, "lon": -77.02825983333334, "name": "29c53cdb802ae2278663b029f45e1260"}, {"bike_id": "4cdbdb26a260f972a7a6f4cac03fc443", "type": "electric_scooter", "is_disabled": 0, "lat": 38.9156605, "rental_uris": {"ios": "https://dc.lft.to/lastmile_qr_scan", "android": "https://dc.lft.to/lastmile_qr_scan"}, "is_reserved": 0, "fusion_lon": 0.0, "fusion_lat": 0.0, "lon": -77.0201665, "name": "4cdbdb26a260f972a7a6f4cac03fc443"}, {"bike_id": "213b57f951dff6e5aa987df9ae5d82de", "type": "electric_scooter", "is_disabled": 0, "lat": 38.90966016666667, "rental_uris": {"ios": "https://dc.lft.to/lastmile_qr_scan", "android": "https://dc.lft.to/lastmile_qr_scan"}, "is_reserved": 0, "fusion_lon": 0.0, "fusion_lat": 0.0, "lon": -77.03331483333334, "name": "213b57f951dff6e5aa987df9ae5d82de"}, {"bike_id": "e4aa57df99a6962e89201212185d70fc", "type": "electric_bike", "is_disabled": 0, "lat": 39.013709166666665, "rental_uris": {"ios": "https://dc.lft.to/lastmile_qr_scan", "android": "https://dc.lft.to/lastmile_qr_scan"}, "is_reserved": 0, "fusion_lon": 0.0, "fusion_lat": 0.0, "lon": -76.92133966666667, "name": "e4aa57df99a6962e89201212185d70fc"}, {"bike_id": "8376084a08880624eee59c96b4a5a8d7", "type": "electric_bike", "is_disabled": 0, "lat": 38.9535425, "rental_uris": {"ios": "https://dc.lft.to/lastmile_qr_scan", "android": "https://dc.lft.to/lastmile_qr_scan"}, "is_reserved": 0, "fusion_lon": 0.0, "fusion_lat": 0.0, "lon": -76.98096833333334, "name": "8376084a08880624eee59c96b4a5a8d7"}, {"bike_id": "11f40ed571ff50e91e3fc008e82dc853", "type": "electric_scooter", "is_disabled": 0, "lat": 38.87221016666667, "rental_uris": {"ios": "https://dc.lft.to/lastmile_qr_scan", "android": "https://dc.lft.to/lastmile_qr_scan"}, "is_reserved": 0, "fusion_lon": 0.0, "fusion_lat": 0.0, "lon": -77.01771866666667, "name": "11f40ed571ff50e91e3fc008e82dc853"}, {"bike_id": "33c662b2bfaf11d847b9527e90ec8551", "type": "electric_scooter", "is_disabled": 0, "lat": 38.923342, "rental_uris": {"ios": "https://dc.lft.to/lastmile_qr_scan", "android": "https://dc.lft.to/lastmile_qr_scan"}, "is_reserved": 0, "fusion_lon": 0.0, "fusion_lat": 0.0, "lon": -77.02300516666666, "name": "33c662b2bfaf11d847b9527e90ec8551"}, {"bike_id": "c652f9aa9c8a0c33d1074ccb69d923c9", "type": "electric_scooter", "is_disabled": 0, "lat": 38.89673333333333, "rental_uris": {"ios": "https://dc.lft.to/lastmile_qr_scan", "android": "https://dc.lft.to/lastmile_qr_scan"}, "is_reserved": 0, "fusion_lon": 0.0, "fusion_lat": 0.0, "lon": -77.005205, "name": "c652f9aa9c8a0c33d1074ccb69d923c9"}, {"bike_id": "bc2cda15ac04135dbb75c9e592e95ef2", "type": "electric_scooter", "is_disabled": 0, "lat": 38.92333033333333, "rental_uris": {"ios": "https://dc.lft.to/lastmile_qr_scan", "android": "https://dc.lft.to/lastmile_qr_scan"}, "is_reserved": 0, "fusion_lon": 0.0, "fusion_lat": 0.0, "lon": -77.0461405, "name": "bc2cda15ac04135dbb75c9e592e95ef2"}, {"bike_id": "6ff526948ff4d91b06fc258d5a49be6e", "type": "electric_scooter", "is_disabled": 0, "lat": 38.907516666666666, "rental_uris": {"ios": "https://dc.lft.to/lastmile_qr_scan", "android": "https://dc.lft.to/lastmile_qr_scan"}, "is_reserved": 0, "fusion_lon": 0.0, "fusion_lat": 0.0, "lon": -77.0347955, "name": "6ff526948ff4d91b06fc258d5a49be6e"}, {"bike_id": "3d6a8fffce46cd3a07c6d2c304668acb", "type": "electric_scooter", "is_disabled": 0, "lat": 38.914824833333334, "rental_uris": {"ios": "https://dc.lft.to/lastmile_qr_scan", "android": "https://dc.lft.to/lastmile_qr_scan"}, "is_reserved": 0, "fusion_lon": 0.0, "fusion_lat": 0.0, "lon": -76.98571983333333, "name": "3d6a8fffce46cd3a07c6d2c304668acb"}, {"bike_id": "64bb46165adccd8284116b37c615dd06", "type": "electric_scooter", "is_disabled": 0, "lat": 38.904613833333336, "rental_uris": {"ios": "https://dc.lft.to/lastmile_qr_scan", "android": "https://dc.lft.to/lastmile_qr_scan"}, "is_reserved": 0, "fusion_lon": 0.0, "fusion_lat": 0.0, "lon": -77.007389, "name": "64bb46165adccd8284116b37c615dd06"}, {"bike_id": "ecb9cac6979f6c4b15a15be24e331e21", "type": "electric_scooter", "is_disabled": 0, "lat": 38.922479333333335, "rental_uris": {"ios": "https://dc.lft.to/lastmile_qr_scan", "android": "https://dc.lft.to/lastmile_qr_scan"}, "is_reserved": 0, "fusion_lon": 0.0, "fusion_lat": 0.0, "lon": -77.02830716666666, "name": "ecb9cac6979f6c4b15a15be24e331e21"}, {"bike_id": "badbac2b90a1a617a01620d1961ac818", "type": "electric_scooter", "is_disabled": 0, "lat": 38.90254316666667, "rental_uris": {"ios": "https://dc.lft.to/lastmile_qr_scan", "android": "https://dc.lft.to/lastmile_qr_scan"}, "is_reserved": 0, "fusion_lon": 0.0, "fusion_lat": 0.0, "lon": -76.9867075, "name": "badbac2b90a1a617a01620d1961ac818"}, {"bike_id": "b6bf12866a28d2720f643fc257d11189", "type": "electric_scooter", "is_disabled": 0, "lat": 38.921522, "rental_uris": {"ios": "https://dc.lft.to/lastmile_qr_scan", "android": "https://dc.lft.to/lastmile_qr_scan"}, "is_reserved": 0, "fusion_lon": 0.0, "fusion_lat": 0.0, "lon": -77.03317683333333, "name": "b6bf12866a28d2720f643fc257d11189"}, {"bike_id": "a6ef49f06f90b36271fd3fcea7ffaf3c", "type": "electric_scooter", "is_disabled": 0, "lat": 38.8967205, "rental_uris": {"ios": "https://dc.lft.to/lastmile_qr_scan", "android": "https://dc.lft.to/lastmile_qr_scan"}, "is_reserved": 0, "fusion_lon": 0.0, "fusion_lat": 0.0, "lon": -77.02384216666667, "name": "a6ef49f06f90b36271fd3fcea7ffaf3c"}, {"bike_id": "f81d537a5fafbee4fd961ae907de2225", "type": "electric_scooter", "is_disabled": 0, "lat": 38.915691333333335, "rental_uris": {"ios": "https://dc.lft.to/lastmile_qr_scan", "android": "https://dc.lft.to/lastmile_qr_scan"}, "is_reserved": 0, "fusion_lon": 0.0, "fusion_lat": 0.0, "lon": -77.0201825, "name": "f81d537a5fafbee4fd961ae907de2225"}, {"bike_id": "db5bdad1976c8f4b9e9ecb03bd8ab588", "type": "electric_scooter", "is_disabled": 0, "lat": 38.89993366666667, "rental_uris": {"ios": "https://dc.lft.to/lastmile_qr_scan", "android": "https://dc.lft.to/lastmile_qr_scan"}, "is_reserved": 0, "fusion_lon": 0.0, "fusion_lat": 0.0, "lon": -77.01032383333333, "name": "db5bdad1976c8f4b9e9ecb03bd8ab588"}, {"bike_id": "22bfc736649d0c9c0f05fb4858dd61f4", "type": "electric_scooter", "is_disabled": 0, "lat": 38.881072833333334, "rental_uris": {"ios": "https://dc.lft.to/lastmile_qr_scan", "android": "https://dc.lft.to/lastmile_qr_scan"}, "is_reserved": 0, "fusion_lon": 0.0, "fusion_lat": 0.0, "lon": -77.026565, "name": "22bfc736649d0c9c0f05fb4858dd61f4"}, {"bike_id": "b94c3cae8372d39e40c24ef4406a4a81", "type": "electric_scooter", "is_disabled": 0, "lat": 38.8382585, "rental_uris": {"ios": "https://dc.lft.to/lastmile_qr_scan", "android": "https://dc.lft.to/lastmile_qr_scan"}, "is_reserved": 0, "fusion_lon": 0.0, "fusion_lat": 0.0, "lon": -77.00273716666666, "name": "b94c3cae8372d39e40c24ef4406a4a81"}, {"bike_id": "933e91fb03d5d5401d4f30b9d6d61337", "type": "electric_scooter", "is_disabled": 0, "lat": 38.90421683333334, "rental_uris": {"ios": "https://dc.lft.to/lastmile_qr_scan", "android": "https://dc.lft.to/lastmile_qr_scan"}, "is_reserved": 0, "fusion_lon": 0.0, "fusion_lat": 0.0, "lon": -77.02727916666667, "name": "933e91fb03d5d5401d4f30b9d6d61337"}, {"bike_id": "681a52540670fe8980e5d1e8234d387f", "type": "electric_scooter", "is_disabled": 0, "lat": 38.9227125, "rental_uris": {"ios": "https://dc.lft.to/lastmile_qr_scan", "android": "https://dc.lft.to/lastmile_qr_scan"}, "is_reserved": 0, "fusion_lon": 0.0, "fusion_lat": 0.0, "lon": -77.036672, "name": "681a52540670fe8980e5d1e8234d387f"}, {"bike_id": "4ace87f913875ce0917ca8b2fff9e026", "type": "electric_scooter", "is_disabled": 0, "lat": 38.864757166666664, "rental_uris": {"ios": "https://dc.lft.to/lastmile_qr_scan", "android": "https://dc.lft.to/lastmile_qr_scan"}, "is_reserved": 0, "fusion_lon": 0.0, "fusion_lat": 0.0, "lon": -77.000113, "name": "4ace87f913875ce0917ca8b2fff9e026"}, {"bike_id": "03aef8a3006741641383187b2521da1f", "type": "electric_bike", "is_disabled": 0, "lat": 38.89564266666667, "rental_uris": {"ios": "https://dc.lft.to/lastmile_qr_scan", "android": "https://dc.lft.to/lastmile_qr_scan"}, "is_reserved": 0, "fusion_lon": 0.0, "fusion_lat": 0.0, "lon": -77.12737733333333, "name": "03aef8a3006741641383187b2521da1f"}, {"bike_id": "f319c76f6124d4d0c6f9fd037b37c6ef", "type": "electric_scooter", "is_disabled": 0, "lat": 38.907956, "rental_uris": {"ios": "https://dc.lft.to/lastmile_qr_scan", "android": "https://dc.lft.to/lastmile_qr_scan"}, "is_reserved": 0, "fusion_lon": 0.0, "fusion_lat": 0.0, "lon": -77.0419035, "name": "f319c76f6124d4d0c6f9fd037b37c6ef"}, {"bike_id": "58db8bd601bea16ac7a57a785cfb3278", "type": "electric_scooter", "is_disabled": 0, "lat": 38.939445666666664, "rental_uris": {"ios": "https://dc.lft.to/lastmile_qr_scan", "android": "https://dc.lft.to/lastmile_qr_scan"}, "is_reserved": 0, "fusion_lon": 0.0, "fusion_lat": 0.0, "lon": -77.07253333333334, "name": "58db8bd601bea16ac7a57a785cfb3278"}, {"bike_id": "b32f47ec2cddffd1750d0e3f8a5861d3", "type": "electric_scooter", "is_disabled": 0, "lat": 38.901028333333336, "rental_uris": {"ios": "https://dc.lft.to/lastmile_qr_scan", "android": "https://dc.lft.to/lastmile_qr_scan"}, "is_reserved": 0, "fusion_lon": 0.0, "fusion_lat": 0.0, "lon": -77.03823316666667, "name": "b32f47ec2cddffd1750d0e3f8a5861d3"}, {"bike_id": "d34841ae166df07d410e98fb5e41d6c2", "type": "electric_scooter", "is_disabled": 0, "lat": 38.84310833333333, "rental_uris": {"ios": "https://dc.lft.to/lastmile_qr_scan", "android": "https://dc.lft.to/lastmile_qr_scan"}, "is_reserved": 0, "fusion_lon": 0.0, "fusion_lat": 0.0, "lon": -76.99933616666667, "name": "d34841ae166df07d410e98fb5e41d6c2"}, {"bike_id": "095f2b29a73b3a3bbeef7922db596403", "type": "electric_scooter", "is_disabled": 0, "lat": 38.919965166666664, "rental_uris": {"ios": "https://dc.lft.to/lastmile_qr_scan", "android": "https://dc.lft.to/lastmile_qr_scan"}, "is_reserved": 0, "fusion_lon": 0.0, "fusion_lat": 0.0, "lon": -77.01805533333334, "name": "095f2b29a73b3a3bbeef7922db596403"}, {"bike_id": "2d4382e8021dcd0fc735d8b54ddc6ca7", "type": "electric_scooter", "is_disabled": 0, "lat": 38.911159, "rental_uris": {"ios": "https://dc.lft.to/lastmile_qr_scan", "android": "https://dc.lft.to/lastmile_qr_scan"}, "is_reserved": 0, "fusion_lon": 0.0, "fusion_lat": 0.0, "lon": -77.045234, "name": "2d4382e8021dcd0fc735d8b54ddc6ca7"}, {"bike_id": "5a04f7f2b7231f0e1b1cbb41a3c0374f", "type": "electric_scooter", "is_disabled": 0, "lat": 38.923648, "rental_uris": {"ios": "https://dc.lft.to/lastmile_qr_scan", "android": "https://dc.lft.to/lastmile_qr_scan"}, "is_reserved": 0, "fusion_lon": 0.0, "fusion_lat": 0.0, "lon": -77.05128366666666, "name": "5a04f7f2b7231f0e1b1cbb41a3c0374f"}, {"bike_id": "ffce371c1208a72718eb5de8b2ef1f91", "type": "electric_bike", "is_disabled": 0, "lat": 38.8360805, "rental_uris": {"ios": "https://dc.lft.to/lastmile_qr_scan", "android": "https://dc.lft.to/lastmile_qr_scan"}, "is_reserved": 0, "fusion_lon": 0.0, "fusion_lat": 0.0, "lon": -77.00382566666667, "name": "ffce371c1208a72718eb5de8b2ef1f91"}, {"bike_id": "97b8d4f488a3932432c0306a181365d8", "type": "electric_scooter", "is_disabled": 0, "lat": 38.91467883333333, "rental_uris": {"ios": "https://dc.lft.to/lastmile_qr_scan", "android": "https://dc.lft.to/lastmile_qr_scan"}, "is_reserved": 0, "fusion_lon": 0.0, "fusion_lat": 0.0, "lon": -77.00195283333333, "name": "97b8d4f488a3932432c0306a181365d8"}, {"bike_id": "4ee29c4a802b0e6612c08ad9d8819175", "type": "electric_scooter", "is_disabled": 0, "lat": 38.91992366666667, "rental_uris": {"ios": "https://dc.lft.to/lastmile_qr_scan", "android": "https://dc.lft.to/lastmile_qr_scan"}, "is_reserved": 0, "fusion_lon": 0.0, "fusion_lat": 0.0, "lon": -77.01787683333333, "name": "4ee29c4a802b0e6612c08ad9d8819175"}, {"bike_id": "fad404b1f86ad1bad62f4d917e2eb0ab", "type": "electric_scooter", "is_disabled": 0, "lat": 38.92256416666667, "rental_uris": {"ios": "https://dc.lft.to/lastmile_qr_scan", "android": "https://dc.lft.to/lastmile_qr_scan"}, "is_reserved": 0, "fusion_lon": 0.0, "fusion_lat": 0.0, "lon": -77.03519383333334, "name": "fad404b1f86ad1bad62f4d917e2eb0ab"}, {"bike_id": "13aaf3b73bf7673bfd27e1e085cd14fc", "type": "electric_scooter", "is_disabled": 0, "lat": 38.9133005, "rental_uris": {"ios": "https://dc.lft.to/lastmile_qr_scan", "android": "https://dc.lft.to/lastmile_qr_scan"}, "is_reserved": 0, "fusion_lon": 0.0, "fusion_lat": 0.0, "lon": -77.03988766666667, "name": "13aaf3b73bf7673bfd27e1e085cd14fc"}, {"bike_id": "79a174132579f32e3985392c660eadc6", "type": "electric_scooter", "is_disabled": 0, "lat": 38.923899, "rental_uris": {"ios": "https://dc.lft.to/lastmile_qr_scan", "android": "https://dc.lft.to/lastmile_qr_scan"}, "is_reserved": 0, "fusion_lon": 0.0, "fusion_lat": 0.0, "lon": -77.04474, "name": "79a174132579f32e3985392c660eadc6"}, {"bike_id": "e0a324781b4585efaa605e9741dc9580", "type": "electric_scooter", "is_disabled": 0, "lat": 38.91692233333333, "rental_uris": {"ios": "https://dc.lft.to/lastmile_qr_scan", "android": "https://dc.lft.to/lastmile_qr_scan"}, "is_reserved": 0, "fusion_lon": 0.0, "fusion_lat": 0.0, "lon": -77.03213583333333, "name": "e0a324781b4585efaa605e9741dc9580"}, {"bike_id": "08dee0609c4dd64a65f8ff2ab25484f7", "type": "electric_scooter", "is_disabled": 0, "lat": 38.90716783333333, "rental_uris": {"ios": "https://dc.lft.to/lastmile_qr_scan", "android": "https://dc.lft.to/lastmile_qr_scan"}, "is_reserved": 0, "fusion_lon": 0.0, "fusion_lat": 0.0, "lon": -77.03201683333333, "name": "08dee0609c4dd64a65f8ff2ab25484f7"}, {"bike_id": "876f767647c18eb37fc71a1e399e0839", "type": "electric_bike", "is_disabled": 0, "lat": 38.80754233333333, "rental_uris": {"ios": "https://dc.lft.to/lastmile_qr_scan", "android": "https://dc.lft.to/lastmile_qr_scan"}, "is_reserved": 0, "fusion_lon": 0.0, "fusion_lat": 0.0, "lon": -77.09453966666666, "name": "876f767647c18eb37fc71a1e399e0839"}, {"bike_id": "27917e415436a7f06f9c4520182726ce", "type": "electric_scooter", "is_disabled": 0, "lat": 38.86504716666666, "rental_uris": {"ios": "https://dc.lft.to/lastmile_qr_scan", "android": "https://dc.lft.to/lastmile_qr_scan"}, "is_reserved": 0, "fusion_lon": 0.0, "fusion_lat": 0.0, "lon": -76.9900165, "name": "27917e415436a7f06f9c4520182726ce"}, {"bike_id": "7574d77c4bcd12b7c930580fa0e38930", "type": "electric_scooter", "is_disabled": 0, "lat": 38.91611233333333, "rental_uris": {"ios": "https://dc.lft.to/lastmile_qr_scan", "android": "https://dc.lft.to/lastmile_qr_scan"}, "is_reserved": 0, "fusion_lon": 0.0, "fusion_lat": 0.0, "lon": -77.0339055, "name": "7574d77c4bcd12b7c930580fa0e38930"}, {"bike_id": "43e55997258fd4d9328f2f7a1b5b5bf5", "type": "electric_scooter", "is_disabled": 0, "lat": 38.935150666666665, "rental_uris": {"ios": "https://dc.lft.to/lastmile_qr_scan", "android": "https://dc.lft.to/lastmile_qr_scan"}, "is_reserved": 0, "fusion_lon": 0.0, "fusion_lat": 0.0, "lon": -77.03355983333333, "name": "43e55997258fd4d9328f2f7a1b5b5bf5"}, {"bike_id": "b6b64775119f345fcc702882ee5d2cfc", "type": "electric_scooter", "is_disabled": 0, "lat": 38.91667183333333, "rental_uris": {"ios": "https://dc.lft.to/lastmile_qr_scan", "android": "https://dc.lft.to/lastmile_qr_scan"}, "is_reserved": 0, "fusion_lon": 0.0, "fusion_lat": 0.0, "lon": -77.04685716666667, "name": "b6b64775119f345fcc702882ee5d2cfc"}, {"bike_id": "8e4402680953f178040838c0c8574a0d", "type": "electric_scooter", "is_disabled": 0, "lat": 38.89335833333333, "rental_uris": {"ios": "https://dc.lft.to/lastmile_qr_scan", "android": "https://dc.lft.to/lastmile_qr_scan"}, "is_reserved": 0, "fusion_lon": 0.0, "fusion_lat": 0.0, "lon": -76.950571, "name": "8e4402680953f178040838c0c8574a0d"}, {"bike_id": "985d2f6bb124a11c98c04a57d22690c4", "type": "electric_scooter", "is_disabled": 0, "lat": 38.936697333333335, "rental_uris": {"ios": "https://dc.lft.to/lastmile_qr_scan", "android": "https://dc.lft.to/lastmile_qr_scan"}, "is_reserved": 0, "fusion_lon": 0.0, "fusion_lat": 0.0, "lon": -77.024495, "name": "985d2f6bb124a11c98c04a57d22690c4"}, {"bike_id": "7a631ebdae1e3eba876ba13c554b6316", "type": "electric_scooter", "is_disabled": 0, "lat": 38.914047, "rental_uris": {"ios": "https://dc.lft.to/lastmile_qr_scan", "android": "https://dc.lft.to/lastmile_qr_scan"}, "is_reserved": 0, "fusion_lon": 0.0, "fusion_lat": 0.0, "lon": -77.03223566666666, "name": "7a631ebdae1e3eba876ba13c554b6316"}, {"bike_id": "cef71b1b27bcc6bb4c97e00cefd06cdd", "type": "electric_scooter", "is_disabled": 0, "lat": 38.90266716666667, "rental_uris": {"ios": "https://dc.lft.to/lastmile_qr_scan", "android": "https://dc.lft.to/lastmile_qr_scan"}, "is_reserved": 0, "fusion_lon": 0.0, "fusion_lat": 0.0, "lon": -77.03379783333334, "name": "cef71b1b27bcc6bb4c97e00cefd06cdd"}, {"bike_id": "fba8a4fbf576f9afb7c91973e12292d9", "type": "electric_scooter", "is_disabled": 0, "lat": 38.924721166666664, "rental_uris": {"ios": "https://dc.lft.to/lastmile_qr_scan", "android": "https://dc.lft.to/lastmile_qr_scan"}, "is_reserved": 0, "fusion_lon": 0.0, "fusion_lat": 0.0, "lon": -77.0520785, "name": "fba8a4fbf576f9afb7c91973e12292d9"}, {"bike_id": "d7780f6af5a4dd0b21c529bf301df03c", "type": "electric_scooter", "is_disabled": 0, "lat": 38.9008315, "rental_uris": {"ios": "https://dc.lft.to/lastmile_qr_scan", "android": "https://dc.lft.to/lastmile_qr_scan"}, "is_reserved": 0, "fusion_lon": 0.0, "fusion_lat": 0.0, "lon": -76.98336933333333, "name": "d7780f6af5a4dd0b21c529bf301df03c"}, {"bike_id": "616a2b8667d94a69758da64ca9151991", "type": "electric_scooter", "is_disabled": 0, "lat": 38.90976533333333, "rental_uris": {"ios": "https://dc.lft.to/lastmile_qr_scan", "android": "https://dc.lft.to/lastmile_qr_scan"}, "is_reserved": 0, "fusion_lon": 0.0, "fusion_lat": 0.0, "lon": -77.03433816666667, "name": "616a2b8667d94a69758da64ca9151991"}, {"bike_id": "87073e6c8cbb83d1e143741dbafd0985", "type": "electric_scooter", "is_disabled": 0, "lat": 38.87385366666667, "rental_uris": {"ios": "https://dc.lft.to/lastmile_qr_scan", "android": "https://dc.lft.to/lastmile_qr_scan"}, "is_reserved": 0, "fusion_lon": 0.0, "fusion_lat": 0.0, "lon": -77.04335516666667, "name": "87073e6c8cbb83d1e143741dbafd0985"}, {"bike_id": "18b6998bdd396220f2ccb8f670170aa1", "type": "electric_scooter", "is_disabled": 0, "lat": 38.878162833333334, "rental_uris": {"ios": "https://dc.lft.to/lastmile_qr_scan", "android": "https://dc.lft.to/lastmile_qr_scan"}, "is_reserved": 0, "fusion_lon": 0.0, "fusion_lat": 0.0, "lon": -77.0223535, "name": "18b6998bdd396220f2ccb8f670170aa1"}, {"bike_id": "c0c3a66981350729dd53db6165749648", "type": "electric_scooter", "is_disabled": 0, "lat": 38.925662833333334, "rental_uris": {"ios": "https://dc.lft.to/lastmile_qr_scan", "android": "https://dc.lft.to/lastmile_qr_scan"}, "is_reserved": 0, "fusion_lon": 0.0, "fusion_lat": 0.0, "lon": -77.03777816666667, "name": "c0c3a66981350729dd53db6165749648"}, {"bike_id": "9dce28426be75a6cd0bb812d98d3313d", "type": "electric_scooter", "is_disabled": 0, "lat": 38.886260666666665, "rental_uris": {"ios": "https://dc.lft.to/lastmile_qr_scan", "android": "https://dc.lft.to/lastmile_qr_scan"}, "is_reserved": 0, "fusion_lon": 0.0, "fusion_lat": 0.0, "lon": -77.015104, "name": "9dce28426be75a6cd0bb812d98d3313d"}, {"bike_id": "3bc0ac2e4a4d9588e7178b85143eb6d0", "type": "electric_scooter", "is_disabled": 0, "lat": 38.908648666666664, "rental_uris": {"ios": "https://dc.lft.to/lastmile_qr_scan", "android": "https://dc.lft.to/lastmile_qr_scan"}, "is_reserved": 0, "fusion_lon": 0.0, "fusion_lat": 0.0, "lon": -77.08587716666666, "name": "3bc0ac2e4a4d9588e7178b85143eb6d0"}, {"bike_id": "f99146a1f49968268b18e1812e7b67f6", "type": "electric_scooter", "is_disabled": 0, "lat": 38.922556666666665, "rental_uris": {"ios": "https://dc.lft.to/lastmile_qr_scan", "android": "https://dc.lft.to/lastmile_qr_scan"}, "is_reserved": 0, "fusion_lon": 0.0, "fusion_lat": 0.0, "lon": -77.04295233333333, "name": "f99146a1f49968268b18e1812e7b67f6"}, {"bike_id": "632b0d7094c25c4d4a893b02b99c2f81", "type": "electric_scooter", "is_disabled": 0, "lat": 38.884008666666666, "rental_uris": {"ios": "https://dc.lft.to/lastmile_qr_scan", "android": "https://dc.lft.to/lastmile_qr_scan"}, "is_reserved": 0, "fusion_lon": 0.0, "fusion_lat": 0.0, "lon": -76.95390666666667, "name": "632b0d7094c25c4d4a893b02b99c2f81"}, {"bike_id": "c630fcd008ae16def2e58c44893affad", "type": "electric_scooter", "is_disabled": 0, "lat": 38.905317833333335, "rental_uris": {"ios": "https://dc.lft.to/lastmile_qr_scan", "android": "https://dc.lft.to/lastmile_qr_scan"}, "is_reserved": 0, "fusion_lon": 0.0, "fusion_lat": 0.0, "lon": -77.05721333333334, "name": "c630fcd008ae16def2e58c44893affad"}, {"bike_id": "4b49dfe907c162d2019ef1be7ef36bde", "type": "electric_scooter", "is_disabled": 0, "lat": 38.890938, "rental_uris": {"ios": "https://dc.lft.to/lastmile_qr_scan", "android": "https://dc.lft.to/lastmile_qr_scan"}, "is_reserved": 0, "fusion_lon": 0.0, "fusion_lat": 0.0, "lon": -76.93850783333333, "name": "4b49dfe907c162d2019ef1be7ef36bde"}, {"bike_id": "27583cb870c9483a7146b3b5fe1ab3dd", "type": "electric_scooter", "is_disabled": 0, "lat": 38.932482, "rental_uris": {"ios": "https://dc.lft.to/lastmile_qr_scan", "android": "https://dc.lft.to/lastmile_qr_scan"}, "is_reserved": 0, "fusion_lon": 0.0, "fusion_lat": 0.0, "lon": -77.03264033333333, "name": "27583cb870c9483a7146b3b5fe1ab3dd"}, {"bike_id": "53baf64d961d4f7824ad15b48e16dbd3", "type": "electric_scooter", "is_disabled": 0, "lat": 38.898524333333334, "rental_uris": {"ios": "https://dc.lft.to/lastmile_qr_scan", "android": "https://dc.lft.to/lastmile_qr_scan"}, "is_reserved": 0, "fusion_lon": 0.0, "fusion_lat": 0.0, "lon": -77.02604516666666, "name": "53baf64d961d4f7824ad15b48e16dbd3"}, {"bike_id": "548e700944160934706a305be0acd1f6", "type": "electric_scooter", "is_disabled": 0, "lat": 38.86697916666667, "rental_uris": {"ios": "https://dc.lft.to/lastmile_qr_scan", "android": "https://dc.lft.to/lastmile_qr_scan"}, "is_reserved": 0, "fusion_lon": 0.0, "fusion_lat": 0.0, "lon": -76.987102, "name": "548e700944160934706a305be0acd1f6"}, {"bike_id": "d9b14d649151aafebddb8e76209355f6", "type": "electric_scooter", "is_disabled": 0, "lat": 38.87084, "rental_uris": {"ios": "https://dc.lft.to/lastmile_qr_scan", "android": "https://dc.lft.to/lastmile_qr_scan"}, "is_reserved": 0, "fusion_lon": 0.0, "fusion_lat": 0.0, "lon": -77.01211566666667, "name": "d9b14d649151aafebddb8e76209355f6"}, {"bike_id": "6e3013fb15aab94d786f4dbfbb6ad33c", "type": "electric_scooter", "is_disabled": 0, "lat": 38.90567633333333, "rental_uris": {"ios": "https://dc.lft.to/lastmile_qr_scan", "android": "https://dc.lft.to/lastmile_qr_scan"}, "is_reserved": 0, "fusion_lon": 0.0, "fusion_lat": 0.0, "lon": -76.9762955, "name": "6e3013fb15aab94d786f4dbfbb6ad33c"}, {"bike_id": "85bb0c9eeb3f3ede57f95bea0c5902d4", "type": "electric_scooter", "is_disabled": 0, "lat": 38.951155666666665, "rental_uris": {"ios": "https://dc.lft.to/lastmile_qr_scan", "android": "https://dc.lft.to/lastmile_qr_scan"}, "is_reserved": 0, "fusion_lon": 0.0, "fusion_lat": 0.0, "lon": -77.01431983333333, "name": "85bb0c9eeb3f3ede57f95bea0c5902d4"}, {"bike_id": "5b59615571a4bb34bd7a9e2642cd882b", "type": "electric_scooter", "is_disabled": 0, "lat": 38.925475666666664, "rental_uris": {"ios": "https://dc.lft.to/lastmile_qr_scan", "android": "https://dc.lft.to/lastmile_qr_scan"}, "is_reserved": 0, "fusion_lon": 0.0, "fusion_lat": 0.0, "lon": -77.0335615, "name": "5b59615571a4bb34bd7a9e2642cd882b"}, {"bike_id": "7c10895a648d70bd7072d7127503b6d7", "type": "electric_scooter", "is_disabled": 0, "lat": 38.92863283333333, "rental_uris": {"ios": "https://dc.lft.to/lastmile_qr_scan", "android": "https://dc.lft.to/lastmile_qr_scan"}, "is_reserved": 0, "fusion_lon": 0.0, "fusion_lat": 0.0, "lon": -77.03712633333333, "name": "7c10895a648d70bd7072d7127503b6d7"}, {"bike_id": "59574e28f8fb70fb345bc5a3e9e69405", "type": "electric_bike", "is_disabled": 0, "lat": 39.007798, "rental_uris": {"ios": "https://dc.lft.to/lastmile_qr_scan", "android": "https://dc.lft.to/lastmile_qr_scan"}, "is_reserved": 0, "fusion_lon": 0.0, "fusion_lat": 0.0, "lon": -76.88971016666666, "name": "59574e28f8fb70fb345bc5a3e9e69405"}, {"bike_id": "47a94dc92ca63c70c0ad0fd0cd4175c5", "type": "electric_scooter", "is_disabled": 0, "lat": 38.9084075, "rental_uris": {"ios": "https://dc.lft.to/lastmile_qr_scan", "android": "https://dc.lft.to/lastmile_qr_scan"}, "is_reserved": 0, "fusion_lon": 0.0, "fusion_lat": 0.0, "lon": -77.03348716666666, "name": "47a94dc92ca63c70c0ad0fd0cd4175c5"}, {"bike_id": "f4c844b7ac14e19f83fc2952c2aac75d", "type": "electric_bike", "is_disabled": 0, "lat": 38.84841866666667, "rental_uris": {"ios": "https://dc.lft.to/lastmile_qr_scan", "android": "https://dc.lft.to/lastmile_qr_scan"}, "is_reserved": 0, "fusion_lon": 0.0, "fusion_lat": 0.0, "lon": -77.07914283333334, "name": "f4c844b7ac14e19f83fc2952c2aac75d"}, {"bike_id": "762a6afe895df0382cff05c8fe565d5f", "type": "electric_scooter", "is_disabled": 0, "lat": 38.9494, "rental_uris": {"ios": "https://dc.lft.to/lastmile_qr_scan", "android": "https://dc.lft.to/lastmile_qr_scan"}, "is_reserved": 0, "fusion_lon": 0.0, "fusion_lat": 0.0, "lon": -77.06538483333334, "name": "762a6afe895df0382cff05c8fe565d5f"}, {"bike_id": "b561a8f49c707afb99ea770ddd426490", "type": "electric_scooter", "is_disabled": 0, "lat": 38.898834666666666, "rental_uris": {"ios": "https://dc.lft.to/lastmile_qr_scan", "android": "https://dc.lft.to/lastmile_qr_scan"}, "is_reserved": 0, "fusion_lon": 0.0, "fusion_lat": 0.0, "lon": -76.93176466666667, "name": "b561a8f49c707afb99ea770ddd426490"}, {"bike_id": "395edf68e099299d6b4bbf9f1c9b3eb9", "type": "electric_scooter", "is_disabled": 0, "lat": 38.8669435, "rental_uris": {"ios": "https://dc.lft.to/lastmile_qr_scan", "android": "https://dc.lft.to/lastmile_qr_scan"}, "is_reserved": 0, "fusion_lon": 0.0, "fusion_lat": 0.0, "lon": -76.98560333333333, "name": "395edf68e099299d6b4bbf9f1c9b3eb9"}, {"bike_id": "7bc6eab75a19916b7d08fe5bd77a8047", "type": "electric_scooter", "is_disabled": 0, "lat": 38.9293815, "rental_uris": {"ios": "https://dc.lft.to/lastmile_qr_scan", "android": "https://dc.lft.to/lastmile_qr_scan"}, "is_reserved": 0, "fusion_lon": 0.0, "fusion_lat": 0.0, "lon": -77.0328585, "name": "7bc6eab75a19916b7d08fe5bd77a8047"}, {"bike_id": "a736d04970aeb16b3f677f8f6ed87d6f", "type": "electric_bike", "is_disabled": 0, "lat": 38.942581, "rental_uris": {"ios": "https://dc.lft.to/lastmile_qr_scan", "android": "https://dc.lft.to/lastmile_qr_scan"}, "is_reserved": 0, "fusion_lon": 0.0, "fusion_lat": 0.0, "lon": -76.990707, "name": "a736d04970aeb16b3f677f8f6ed87d6f"}, {"bike_id": "126f34d927ca004f8e775758a764b63f", "type": "electric_scooter", "is_disabled": 0, "lat": 38.8949945, "rental_uris": {"ios": "https://dc.lft.to/lastmile_qr_scan", "android": "https://dc.lft.to/lastmile_qr_scan"}, "is_reserved": 0, "fusion_lon": 0.0, "fusion_lat": 0.0, "lon": -76.93480333333333, "name": "126f34d927ca004f8e775758a764b63f"}, {"bike_id": "16e7e8a23483a1697dcdb5eae612972c", "type": "electric_scooter", "is_disabled": 0, "lat": 38.90719216666667, "rental_uris": {"ios": "https://dc.lft.to/lastmile_qr_scan", "android": "https://dc.lft.to/lastmile_qr_scan"}, "is_reserved": 0, "fusion_lon": 0.0, "fusion_lat": 0.0, "lon": -77.04336133333334, "name": "16e7e8a23483a1697dcdb5eae612972c"}, {"bike_id": "858bcf9eb8c26df87b6877798dc001f2", "type": "electric_scooter", "is_disabled": 0, "lat": 38.90698866666666, "rental_uris": {"ios": "https://dc.lft.to/lastmile_qr_scan", "android": "https://dc.lft.to/lastmile_qr_scan"}, "is_reserved": 0, "fusion_lon": 0.0, "fusion_lat": 0.0, "lon": -76.98726833333333, "name": "858bcf9eb8c26df87b6877798dc001f2"}, {"bike_id": "05885a902bb9d4da12d4e04855d96b04", "type": "electric_scooter", "is_disabled": 0, "lat": 38.92054533333334, "rental_uris": {"ios": "https://dc.lft.to/lastmile_qr_scan", "android": "https://dc.lft.to/lastmile_qr_scan"}, "is_reserved": 0, "fusion_lon": 0.0, "fusion_lat": 0.0, "lon": -76.99884516666667, "name": "05885a902bb9d4da12d4e04855d96b04"}, {"bike_id": "087c1a482200c867cba02d1421e64a68", "type": "electric_scooter", "is_disabled": 0, "lat": 38.92359866666666, "rental_uris": {"ios": "https://dc.lft.to/lastmile_qr_scan", "android": "https://dc.lft.to/lastmile_qr_scan"}, "is_reserved": 0, "fusion_lon": 0.0, "fusion_lat": 0.0, "lon": -77.07643416666667, "name": "087c1a482200c867cba02d1421e64a68"}, {"bike_id": "a18db7dd837a35881719c345ce93f76c", "type": "electric_scooter", "is_disabled": 0, "lat": 38.92168183333333, "rental_uris": {"ios": "https://dc.lft.to/lastmile_qr_scan", "android": "https://dc.lft.to/lastmile_qr_scan"}, "is_reserved": 0, "fusion_lon": 0.0, "fusion_lat": 0.0, "lon": -77.040274, "name": "a18db7dd837a35881719c345ce93f76c"}, {"bike_id": "bef3646c5314e7066d9bc5ed26fa90a4", "type": "electric_scooter", "is_disabled": 0, "lat": 38.919782, "rental_uris": {"ios": "https://dc.lft.to/lastmile_qr_scan", "android": "https://dc.lft.to/lastmile_qr_scan"}, "is_reserved": 0, "fusion_lon": 0.0, "fusion_lat": 0.0, "lon": -77.03960683333334, "name": "bef3646c5314e7066d9bc5ed26fa90a4"}, {"bike_id": "c2aa8311627daa6bf4d37d0deb6a5da5", "type": "electric_scooter", "is_disabled": 0, "lat": 38.854603166666664, "rental_uris": {"ios": "https://dc.lft.to/lastmile_qr_scan", "android": "https://dc.lft.to/lastmile_qr_scan"}, "is_reserved": 0, "fusion_lon": 0.0, "fusion_lat": 0.0, "lon": -76.97239716666667, "name": "c2aa8311627daa6bf4d37d0deb6a5da5"}, {"bike_id": "ab513f259cbe58aef6050d8a84394d75", "type": "electric_scooter", "is_disabled": 0, "lat": 38.92713033333333, "rental_uris": {"ios": "https://dc.lft.to/lastmile_qr_scan", "android": "https://dc.lft.to/lastmile_qr_scan"}, "is_reserved": 0, "fusion_lon": 0.0, "fusion_lat": 0.0, "lon": -77.0209915, "name": "ab513f259cbe58aef6050d8a84394d75"}, {"bike_id": "d5915560dc88cceefcb5aa1cfbb3b963", "type": "electric_scooter", "is_disabled": 0, "lat": 38.923237, "rental_uris": {"ios": "https://dc.lft.to/lastmile_qr_scan", "android": "https://dc.lft.to/lastmile_qr_scan"}, "is_reserved": 0, "fusion_lon": 0.0, "fusion_lat": 0.0, "lon": -77.02970366666666, "name": "d5915560dc88cceefcb5aa1cfbb3b963"}, {"bike_id": "04dc0a664fea1c404d3ca66a263edc3d", "type": "electric_scooter", "is_disabled": 0, "lat": 38.92146916666667, "rental_uris": {"ios": "https://dc.lft.to/lastmile_qr_scan", "android": "https://dc.lft.to/lastmile_qr_scan"}, "is_reserved": 0, "fusion_lon": 0.0, "fusion_lat": 0.0, "lon": -77.03442333333334, "name": "04dc0a664fea1c404d3ca66a263edc3d"}, {"bike_id": "e03ce3475a0f14da9eebe4d4858579bc", "type": "electric_scooter", "is_disabled": 0, "lat": 38.910478833333336, "rental_uris": {"ios": "https://dc.lft.to/lastmile_qr_scan", "android": "https://dc.lft.to/lastmile_qr_scan"}, "is_reserved": 0, "fusion_lon": 0.0, "fusion_lat": 0.0, "lon": -77.04337233333334, "name": "e03ce3475a0f14da9eebe4d4858579bc"}, {"bike_id": "e5330b8d34ff06a5a5105df5881ae7bf", "type": "electric_scooter", "is_disabled": 0, "lat": 38.88299516666667, "rental_uris": {"ios": "https://dc.lft.to/lastmile_qr_scan", "android": "https://dc.lft.to/lastmile_qr_scan"}, "is_reserved": 0, "fusion_lon": 0.0, "fusion_lat": 0.0, "lon": -76.948553, "name": "e5330b8d34ff06a5a5105df5881ae7bf"}, {"bike_id": "4f0ecff8fead44482bb843b5f612df15", "type": "electric_scooter", "is_disabled": 0, "lat": 38.92468316666667, "rental_uris": {"ios": "https://dc.lft.to/lastmile_qr_scan", "android": "https://dc.lft.to/lastmile_qr_scan"}, "is_reserved": 0, "fusion_lon": 0.0, "fusion_lat": 0.0, "lon": -77.02834633333333, "name": "4f0ecff8fead44482bb843b5f612df15"}, {"bike_id": "195f7c3fbbe707c8399348336e1d89bd", "type": "electric_bike", "is_disabled": 0, "lat": 38.96958133333333, "rental_uris": {"ios": "https://dc.lft.to/lastmile_qr_scan", "android": "https://dc.lft.to/lastmile_qr_scan"}, "is_reserved": 0, "fusion_lon": 0.0, "fusion_lat": 0.0, "lon": -76.9574965, "name": "195f7c3fbbe707c8399348336e1d89bd"}, {"bike_id": "07f42eb38365c22d8b519e45ba675967", "type": "electric_scooter", "is_disabled": 0, "lat": 38.898415, "rental_uris": {"ios": "https://dc.lft.to/lastmile_qr_scan", "android": "https://dc.lft.to/lastmile_qr_scan"}, "is_reserved": 0, "fusion_lon": 0.0, "fusion_lat": 0.0, "lon": -76.94634333333333, "name": "07f42eb38365c22d8b519e45ba675967"}, {"bike_id": "c48b91d78f1e6f5b071ef7ed081fc36b", "type": "electric_scooter", "is_disabled": 0, "lat": 38.90771566666667, "rental_uris": {"ios": "https://dc.lft.to/lastmile_qr_scan", "android": "https://dc.lft.to/lastmile_qr_scan"}, "is_reserved": 0, "fusion_lon": 0.0, "fusion_lat": 0.0, "lon": -77.0271335, "name": "c48b91d78f1e6f5b071ef7ed081fc36b"}, {"bike_id": "24cbeed62a3f1b8006b782df21854b51", "type": "electric_scooter", "is_disabled": 0, "lat": 38.91589366666667, "rental_uris": {"ios": "https://dc.lft.to/lastmile_qr_scan", "android": "https://dc.lft.to/lastmile_qr_scan"}, "is_reserved": 0, "fusion_lon": 0.0, "fusion_lat": 0.0, "lon": -77.00193933333334, "name": "24cbeed62a3f1b8006b782df21854b51"}, {"bike_id": "7ca872960ac02bf26899f144fb779c33", "type": "electric_scooter", "is_disabled": 0, "lat": 38.919608, "rental_uris": {"ios": "https://dc.lft.to/lastmile_qr_scan", "android": "https://dc.lft.to/lastmile_qr_scan"}, "is_reserved": 0, "fusion_lon": 0.0, "fusion_lat": 0.0, "lon": -77.01436816666667, "name": "7ca872960ac02bf26899f144fb779c33"}, {"bike_id": "df4d3da5cb4d841ab69a8519e8ab3962", "type": "electric_scooter", "is_disabled": 0, "lat": 38.901209333333334, "rental_uris": {"ios": "https://dc.lft.to/lastmile_qr_scan", "android": "https://dc.lft.to/lastmile_qr_scan"}, "is_reserved": 0, "fusion_lon": 0.0, "fusion_lat": 0.0, "lon": -76.99073066666666, "name": "df4d3da5cb4d841ab69a8519e8ab3962"}, {"bike_id": "72fac3cbb8cc8f5a76a1819397e36956", "type": "electric_bike", "is_disabled": 0, "lat": 39.014802, "rental_uris": {"ios": "https://dc.lft.to/lastmile_qr_scan", "android": "https://dc.lft.to/lastmile_qr_scan"}, "is_reserved": 0, "fusion_lon": 0.0, "fusion_lat": 0.0, "lon": -77.05493816666667, "name": "72fac3cbb8cc8f5a76a1819397e36956"}, {"bike_id": "f3152ce1657f4468d6c80385beeee168", "type": "electric_scooter", "is_disabled": 0, "lat": 38.91708233333333, "rental_uris": {"ios": "https://dc.lft.to/lastmile_qr_scan", "android": "https://dc.lft.to/lastmile_qr_scan"}, "is_reserved": 0, "fusion_lon": 0.0, "fusion_lat": 0.0, "lon": -77.02906833333333, "name": "f3152ce1657f4468d6c80385beeee168"}, {"bike_id": "e2ac3a8ed11f2c59df86e8822114ade3", "type": "electric_scooter", "is_disabled": 0, "lat": 38.920670333333334, "rental_uris": {"ios": "https://dc.lft.to/lastmile_qr_scan", "android": "https://dc.lft.to/lastmile_qr_scan"}, "is_reserved": 0, "fusion_lon": 0.0, "fusion_lat": 0.0, "lon": -77.023793, "name": "e2ac3a8ed11f2c59df86e8822114ade3"}, {"bike_id": "68ed506e36cd92ae4a5fbf07b13b9992", "type": "electric_scooter", "is_disabled": 0, "lat": 38.9346055, "rental_uris": {"ios": "https://dc.lft.to/lastmile_qr_scan", "android": "https://dc.lft.to/lastmile_qr_scan"}, "is_reserved": 0, "fusion_lon": 0.0, "fusion_lat": 0.0, "lon": -76.9643895, "name": "68ed506e36cd92ae4a5fbf07b13b9992"}, {"bike_id": "07af090e1d9e20a348cf28a3d3f37ba7", "type": "electric_bike", "is_disabled": 0, "lat": 39.02434816666667, "rental_uris": {"ios": "https://dc.lft.to/lastmile_qr_scan", "android": "https://dc.lft.to/lastmile_qr_scan"}, "is_reserved": 0, "fusion_lon": 0.0, "fusion_lat": 0.0, "lon": -77.13101783333333, "name": "07af090e1d9e20a348cf28a3d3f37ba7"}, {"bike_id": "3c72781ac7e3c205ba2d891dc2ac373a", "type": "electric_scooter", "is_disabled": 0, "lat": 38.931483666666665, "rental_uris": {"ios": "https://dc.lft.to/lastmile_qr_scan", "android": "https://dc.lft.to/lastmile_qr_scan"}, "is_reserved": 0, "fusion_lon": 0.0, "fusion_lat": 0.0, "lon": -77.0451845, "name": "3c72781ac7e3c205ba2d891dc2ac373a"}, {"bike_id": "4f35588a71e2d0261cd735075f6ad8c0", "type": "electric_bike", "is_disabled": 0, "lat": 38.898477666666665, "rental_uris": {"ios": "https://dc.lft.to/lastmile_qr_scan", "android": "https://dc.lft.to/lastmile_qr_scan"}, "is_reserved": 0, "fusion_lon": 0.0, "fusion_lat": 0.0, "lon": -77.05301916666667, "name": "4f35588a71e2d0261cd735075f6ad8c0"}, {"bike_id": "e00ff0a5908d21c87efabdb4f9368ba5", "type": "electric_scooter", "is_disabled": 0, "lat": 38.90226533333333, "rental_uris": {"ios": "https://dc.lft.to/lastmile_qr_scan", "android": "https://dc.lft.to/lastmile_qr_scan"}, "is_reserved": 0, "fusion_lon": 0.0, "fusion_lat": 0.0, "lon": -77.02594016666667, "name": "e00ff0a5908d21c87efabdb4f9368ba5"}, {"bike_id": "2c2fc32658115fe6b70f7a4c242f26b3", "type": "electric_scooter", "is_disabled": 0, "lat": 38.92128866666667, "rental_uris": {"ios": "https://dc.lft.to/lastmile_qr_scan", "android": "https://dc.lft.to/lastmile_qr_scan"}, "is_reserved": 0, "fusion_lon": 0.0, "fusion_lat": 0.0, "lon": -77.03664, "name": "2c2fc32658115fe6b70f7a4c242f26b3"}, {"bike_id": "e57d992c4702f925675b52b55e1b19c9", "type": "electric_scooter", "is_disabled": 0, "lat": 38.904540833333336, "rental_uris": {"ios": "https://dc.lft.to/lastmile_qr_scan", "android": "https://dc.lft.to/lastmile_qr_scan"}, "is_reserved": 0, "fusion_lon": 0.0, "fusion_lat": 0.0, "lon": -77.02888616666667, "name": "e57d992c4702f925675b52b55e1b19c9"}, {"bike_id": "28cdfa8c0c1594ac51619fd3e514037b", "type": "electric_scooter", "is_disabled": 0, "lat": 38.9266835, "rental_uris": {"ios": "https://dc.lft.to/lastmile_qr_scan", "android": "https://dc.lft.to/lastmile_qr_scan"}, "is_reserved": 0, "fusion_lon": 0.0, "fusion_lat": 0.0, "lon": -77.0319595, "name": "28cdfa8c0c1594ac51619fd3e514037b"}, {"bike_id": "e9ad4251ca2eae5dbd0a91c4ed50e65c", "type": "electric_scooter", "is_disabled": 0, "lat": 38.86694466666667, "rental_uris": {"ios": "https://dc.lft.to/lastmile_qr_scan", "android": "https://dc.lft.to/lastmile_qr_scan"}, "is_reserved": 0, "fusion_lon": 0.0, "fusion_lat": 0.0, "lon": -76.98710766666667, "name": "e9ad4251ca2eae5dbd0a91c4ed50e65c"}, {"bike_id": "e980309dd47f91078c5e88d96de5016b", "type": "electric_scooter", "is_disabled": 0, "lat": 38.92264633333333, "rental_uris": {"ios": "https://dc.lft.to/lastmile_qr_scan", "android": "https://dc.lft.to/lastmile_qr_scan"}, "is_reserved": 0, "fusion_lon": 0.0, "fusion_lat": 0.0, "lon": -76.99764816666666, "name": "e980309dd47f91078c5e88d96de5016b"}, {"bike_id": "933abe15f11bd146cd74d78e7f9add5e", "type": "electric_scooter", "is_disabled": 0, "lat": 38.91419483333333, "rental_uris": {"ios": "https://dc.lft.to/lastmile_qr_scan", "android": "https://dc.lft.to/lastmile_qr_scan"}, "is_reserved": 0, "fusion_lon": 0.0, "fusion_lat": 0.0, "lon": -77.02131816666666, "name": "933abe15f11bd146cd74d78e7f9add5e"}, {"bike_id": "4da16970984bcf863534486873e93dda", "type": "electric_scooter", "is_disabled": 0, "lat": 38.940893833333334, "rental_uris": {"ios": "https://dc.lft.to/lastmile_qr_scan", "android": "https://dc.lft.to/lastmile_qr_scan"}, "is_reserved": 0, "fusion_lon": 0.0, "fusion_lat": 0.0, "lon": -77.036546, "name": "4da16970984bcf863534486873e93dda"}, {"bike_id": "8e42a776a6f45c1a7aa859597511912d", "type": "electric_scooter", "is_disabled": 0, "lat": 38.909542, "rental_uris": {"ios": "https://dc.lft.to/lastmile_qr_scan", "android": "https://dc.lft.to/lastmile_qr_scan"}, "is_reserved": 0, "fusion_lon": 0.0, "fusion_lat": 0.0, "lon": -77.02120833333333, "name": "8e42a776a6f45c1a7aa859597511912d"}, {"bike_id": "e3bdccec810cac1baa5de9827c589a8b", "type": "electric_scooter", "is_disabled": 0, "lat": 38.917047, "rental_uris": {"ios": "https://dc.lft.to/lastmile_qr_scan", "android": "https://dc.lft.to/lastmile_qr_scan"}, "is_reserved": 0, "fusion_lon": 0.0, "fusion_lat": 0.0, "lon": -77.0287365, "name": "e3bdccec810cac1baa5de9827c589a8b"}, {"bike_id": "db07bf2600ed19d77dedc78f4a108902", "type": "electric_scooter", "is_disabled": 0, "lat": 38.908662166666666, "rental_uris": {"ios": "https://dc.lft.to/lastmile_qr_scan", "android": "https://dc.lft.to/lastmile_qr_scan"}, "is_reserved": 0, "fusion_lon": 0.0, "fusion_lat": 0.0, "lon": -77.03459233333334, "name": "db07bf2600ed19d77dedc78f4a108902"}, {"bike_id": "6f43719a9f0230ab20fd421c0eb8ab96", "type": "electric_scooter", "is_disabled": 0, "lat": 38.9150275, "rental_uris": {"ios": "https://dc.lft.to/lastmile_qr_scan", "android": "https://dc.lft.to/lastmile_qr_scan"}, "is_reserved": 0, "fusion_lon": 0.0, "fusion_lat": 0.0, "lon": -77.01776333333333, "name": "6f43719a9f0230ab20fd421c0eb8ab96"}, {"bike_id": "10028e3cbe654e41e2b3947cdb0efe2b", "type": "electric_scooter", "is_disabled": 0, "lat": 38.917071, "rental_uris": {"ios": "https://dc.lft.to/lastmile_qr_scan", "android": "https://dc.lft.to/lastmile_qr_scan"}, "is_reserved": 0, "fusion_lon": 0.0, "fusion_lat": 0.0, "lon": -77.02371116666667, "name": "10028e3cbe654e41e2b3947cdb0efe2b"}, {"bike_id": "d0f9a4305409d2bdcceca09d02d85f2d", "type": "electric_scooter", "is_disabled": 0, "lat": 38.911045666666666, "rental_uris": {"ios": "https://dc.lft.to/lastmile_qr_scan", "android": "https://dc.lft.to/lastmile_qr_scan"}, "is_reserved": 0, "fusion_lon": 0.0, "fusion_lat": 0.0, "lon": -77.01146516666667, "name": "d0f9a4305409d2bdcceca09d02d85f2d"}, {"bike_id": "9319f9059a927dd4c0b545d3ce18cc8b", "type": "electric_scooter", "is_disabled": 0, "lat": 38.905164, "rental_uris": {"ios": "https://dc.lft.to/lastmile_qr_scan", "android": "https://dc.lft.to/lastmile_qr_scan"}, "is_reserved": 0, "fusion_lon": 0.0, "fusion_lat": 0.0, "lon": -77.0690845, "name": "9319f9059a927dd4c0b545d3ce18cc8b"}, {"bike_id": "35cbcec4f6c13967979dfed3bc1ecddc", "type": "electric_scooter", "is_disabled": 0, "lat": 38.88267166666667, "rental_uris": {"ios": "https://dc.lft.to/lastmile_qr_scan", "android": "https://dc.lft.to/lastmile_qr_scan"}, "is_reserved": 0, "fusion_lon": 0.0, "fusion_lat": 0.0, "lon": -76.99359, "name": "35cbcec4f6c13967979dfed3bc1ecddc"}, {"bike_id": "777a10dc4d04b4002c36ef968859bd24", "type": "electric_scooter", "is_disabled": 0, "lat": 38.88046966666667, "rental_uris": {"ios": "https://dc.lft.to/lastmile_qr_scan", "android": "https://dc.lft.to/lastmile_qr_scan"}, "is_reserved": 0, "fusion_lon": 0.0, "fusion_lat": 0.0, "lon": -77.005531, "name": "777a10dc4d04b4002c36ef968859bd24"}, {"bike_id": "08c6238200cf0e39ffbcc718354c5ec0", "type": "electric_scooter", "is_disabled": 0, "lat": 38.930658, "rental_uris": {"ios": "https://dc.lft.to/lastmile_qr_scan", "android": "https://dc.lft.to/lastmile_qr_scan"}, "is_reserved": 0, "fusion_lon": 0.0, "fusion_lat": 0.0, "lon": -77.01995133333334, "name": "08c6238200cf0e39ffbcc718354c5ec0"}, {"bike_id": "009bb32387ac3d4b5bc24de2fd198284", "type": "electric_scooter", "is_disabled": 0, "lat": 38.94200816666667, "rental_uris": {"ios": "https://dc.lft.to/lastmile_qr_scan", "android": "https://dc.lft.to/lastmile_qr_scan"}, "is_reserved": 0, "fusion_lon": 0.0, "fusion_lat": 0.0, "lon": -77.0259175, "name": "009bb32387ac3d4b5bc24de2fd198284"}, {"bike_id": "5a87b05df28022673557daa787adc97e", "type": "electric_scooter", "is_disabled": 0, "lat": 38.90684183333333, "rental_uris": {"ios": "https://dc.lft.to/lastmile_qr_scan", "android": "https://dc.lft.to/lastmile_qr_scan"}, "is_reserved": 0, "fusion_lon": 0.0, "fusion_lat": 0.0, "lon": -77.0269475, "name": "5a87b05df28022673557daa787adc97e"}, {"bike_id": "79c3ec0830faf4f2dc96624adc3dc5b7", "type": "electric_scooter", "is_disabled": 0, "lat": 38.913353666666666, "rental_uris": {"ios": "https://dc.lft.to/lastmile_qr_scan", "android": "https://dc.lft.to/lastmile_qr_scan"}, "is_reserved": 0, "fusion_lon": 0.0, "fusion_lat": 0.0, "lon": -77.03680616666666, "name": "79c3ec0830faf4f2dc96624adc3dc5b7"}, {"bike_id": "b672e449dab6820003185e65a53203d2", "type": "electric_scooter", "is_disabled": 0, "lat": 38.9012795, "rental_uris": {"ios": "https://dc.lft.to/lastmile_qr_scan", "android": "https://dc.lft.to/lastmile_qr_scan"}, "is_reserved": 0, "fusion_lon": 0.0, "fusion_lat": 0.0, "lon": -77.0182045, "name": "b672e449dab6820003185e65a53203d2"}, {"bike_id": "3b9468a3de3930e135ad1ff05eb6ed08", "type": "electric_scooter", "is_disabled": 0, "lat": 38.89232366666667, "rental_uris": {"ios": "https://dc.lft.to/lastmile_qr_scan", "android": "https://dc.lft.to/lastmile_qr_scan"}, "is_reserved": 0, "fusion_lon": 0.0, "fusion_lat": 0.0, "lon": -77.050039, "name": "3b9468a3de3930e135ad1ff05eb6ed08"}, {"bike_id": "29125583a2f224a0c88f79a1cc06e2e6", "type": "electric_scooter", "is_disabled": 0, "lat": 38.9154395, "rental_uris": {"ios": "https://dc.lft.to/lastmile_qr_scan", "android": "https://dc.lft.to/lastmile_qr_scan"}, "is_reserved": 0, "fusion_lon": 0.0, "fusion_lat": 0.0, "lon": -77.012223, "name": "29125583a2f224a0c88f79a1cc06e2e6"}, {"bike_id": "d3bb9a0f75a6fa3b413b7d043fafc7b0", "type": "electric_bike", "is_disabled": 0, "lat": 38.89826133333333, "rental_uris": {"ios": "https://dc.lft.to/lastmile_qr_scan", "android": "https://dc.lft.to/lastmile_qr_scan"}, "is_reserved": 0, "fusion_lon": 0.0, "fusion_lat": 0.0, "lon": -76.99075016666667, "name": "d3bb9a0f75a6fa3b413b7d043fafc7b0"}, {"bike_id": "dfc06b5c176831d3e5e18d6daf729970", "type": "electric_bike", "is_disabled": 0, "lat": 38.85933466666667, "rental_uris": {"ios": "https://dc.lft.to/lastmile_qr_scan", "android": "https://dc.lft.to/lastmile_qr_scan"}, "is_reserved": 0, "fusion_lon": 0.0, "fusion_lat": 0.0, "lon": -77.118309, "name": "dfc06b5c176831d3e5e18d6daf729970"}, {"bike_id": "95be326184557234fce512bd53ed0916", "type": "electric_scooter", "is_disabled": 0, "lat": 38.9054865, "rental_uris": {"ios": "https://dc.lft.to/lastmile_qr_scan", "android": "https://dc.lft.to/lastmile_qr_scan"}, "is_reserved": 0, "fusion_lon": 0.0, "fusion_lat": 0.0, "lon": -77.03248316666667, "name": "95be326184557234fce512bd53ed0916"}, {"bike_id": "f7a9691d17d0cace179c6ab7fc77017c", "type": "electric_scooter", "is_disabled": 0, "lat": 38.909449, "rental_uris": {"ios": "https://dc.lft.to/lastmile_qr_scan", "android": "https://dc.lft.to/lastmile_qr_scan"}, "is_reserved": 0, "fusion_lon": 0.0, "fusion_lat": 0.0, "lon": -77.03445583333334, "name": "f7a9691d17d0cace179c6ab7fc77017c"}, {"bike_id": "f55a691c888ec27e7a6e62415c9a55e1", "type": "electric_bike", "is_disabled": 0, "lat": 38.823679166666665, "rental_uris": {"ios": "https://dc.lft.to/lastmile_qr_scan", "android": "https://dc.lft.to/lastmile_qr_scan"}, "is_reserved": 0, "fusion_lon": 0.0, "fusion_lat": 0.0, "lon": -77.00218066666666, "name": "f55a691c888ec27e7a6e62415c9a55e1"}, {"bike_id": "76481277ab33aa9ccddcc4bd40083181", "type": "electric_scooter", "is_disabled": 0, "lat": 38.9170655, "rental_uris": {"ios": "https://dc.lft.to/lastmile_qr_scan", "android": "https://dc.lft.to/lastmile_qr_scan"}, "is_reserved": 0, "fusion_lon": 0.0, "fusion_lat": 0.0, "lon": -77.09578483333334, "name": "76481277ab33aa9ccddcc4bd40083181"}, {"bike_id": "a5415e7506b8b5f43dea535d6527f820", "type": "electric_scooter", "is_disabled": 0, "lat": 38.926034666666666, "rental_uris": {"ios": "https://dc.lft.to/lastmile_qr_scan", "android": "https://dc.lft.to/lastmile_qr_scan"}, "is_reserved": 0, "fusion_lon": 0.0, "fusion_lat": 0.0, "lon": -77.0375765, "name": "a5415e7506b8b5f43dea535d6527f820"}, {"bike_id": "531c395c8aafd1d207d52aae165ba4bb", "type": "electric_scooter", "is_disabled": 0, "lat": 38.9171115, "rental_uris": {"ios": "https://dc.lft.to/lastmile_qr_scan", "android": "https://dc.lft.to/lastmile_qr_scan"}, "is_reserved": 0, "fusion_lon": 0.0, "fusion_lat": 0.0, "lon": -77.03471816666666, "name": "531c395c8aafd1d207d52aae165ba4bb"}, {"bike_id": "23c81044bb644c52957be45ae1f5f95a", "type": "electric_scooter", "is_disabled": 0, "lat": 38.92771166666667, "rental_uris": {"ios": "https://dc.lft.to/lastmile_qr_scan", "android": "https://dc.lft.to/lastmile_qr_scan"}, "is_reserved": 0, "fusion_lon": 0.0, "fusion_lat": 0.0, "lon": -76.98755766666666, "name": "23c81044bb644c52957be45ae1f5f95a"}, {"bike_id": "48952b9aaf4aa6b6e4fa61e0b67689c2", "type": "electric_scooter", "is_disabled": 0, "lat": 38.92257, "rental_uris": {"ios": "https://dc.lft.to/lastmile_qr_scan", "android": "https://dc.lft.to/lastmile_qr_scan"}, "is_reserved": 0, "fusion_lon": 0.0, "fusion_lat": 0.0, "lon": -76.99444283333334, "name": "48952b9aaf4aa6b6e4fa61e0b67689c2"}, {"bike_id": "b8722589474e49d1dd8b013d2ccbc2a2", "type": "electric_scooter", "is_disabled": 0, "lat": 38.95730016666667, "rental_uris": {"ios": "https://dc.lft.to/lastmile_qr_scan", "android": "https://dc.lft.to/lastmile_qr_scan"}, "is_reserved": 0, "fusion_lon": 0.0, "fusion_lat": 0.0, "lon": -77.024009, "name": "b8722589474e49d1dd8b013d2ccbc2a2"}, {"bike_id": "e42c7ec23bdd00f0eacc0f73c0b57630", "type": "electric_scooter", "is_disabled": 0, "lat": 38.919525166666666, "rental_uris": {"ios": "https://dc.lft.to/lastmile_qr_scan", "android": "https://dc.lft.to/lastmile_qr_scan"}, "is_reserved": 0, "fusion_lon": 0.0, "fusion_lat": 0.0, "lon": -77.041513, "name": "e42c7ec23bdd00f0eacc0f73c0b57630"}, {"bike_id": "ae44b1a6058334b275d24dcd0db7074f", "type": "electric_bike", "is_disabled": 0, "lat": 38.912501666666664, "rental_uris": {"ios": "https://dc.lft.to/lastmile_qr_scan", "android": "https://dc.lft.to/lastmile_qr_scan"}, "is_reserved": 0, "fusion_lon": 0.0, "fusion_lat": 0.0, "lon": -77.08738333333334, "name": "ae44b1a6058334b275d24dcd0db7074f"}, {"bike_id": "026b7ab994821ba7e18e0f1fad49c31a", "type": "electric_bike", "is_disabled": 0, "lat": 38.90561366666667, "rental_uris": {"ios": "https://dc.lft.to/lastmile_qr_scan", "android": "https://dc.lft.to/lastmile_qr_scan"}, "is_reserved": 0, "fusion_lon": 0.0, "fusion_lat": 0.0, "lon": -77.01312066666667, "name": "026b7ab994821ba7e18e0f1fad49c31a"}, {"bike_id": "5189d33b6a7bb73b1ce66f00dbc65493", "type": "electric_scooter", "is_disabled": 0, "lat": 38.86685633333333, "rental_uris": {"ios": "https://dc.lft.to/lastmile_qr_scan", "android": "https://dc.lft.to/lastmile_qr_scan"}, "is_reserved": 0, "fusion_lon": 0.0, "fusion_lat": 0.0, "lon": -76.9857745, "name": "5189d33b6a7bb73b1ce66f00dbc65493"}, {"bike_id": "cb727983b2e520e26f89e74e3f8f2957", "type": "electric_scooter", "is_disabled": 0, "lat": 38.8650415, "rental_uris": {"ios": "https://dc.lft.to/lastmile_qr_scan", "android": "https://dc.lft.to/lastmile_qr_scan"}, "is_reserved": 0, "fusion_lon": 0.0, "fusion_lat": 0.0, "lon": -76.990033, "name": "cb727983b2e520e26f89e74e3f8f2957"}, {"bike_id": "855e230a1b12f64f831460022c8e4e28", "type": "electric_scooter", "is_disabled": 0, "lat": 38.898247, "rental_uris": {"ios": "https://dc.lft.to/lastmile_qr_scan", "android": "https://dc.lft.to/lastmile_qr_scan"}, "is_reserved": 0, "fusion_lon": 0.0, "fusion_lat": 0.0, "lon": -76.91954933333334, "name": "855e230a1b12f64f831460022c8e4e28"}, {"bike_id": "09ccafed19397f06ad943cc290d6e32b", "type": "electric_scooter", "is_disabled": 0, "lat": 38.92294166666667, "rental_uris": {"ios": "https://dc.lft.to/lastmile_qr_scan", "android": "https://dc.lft.to/lastmile_qr_scan"}, "is_reserved": 0, "fusion_lon": 0.0, "fusion_lat": 0.0, "lon": -77.04269983333333, "name": "09ccafed19397f06ad943cc290d6e32b"}, {"bike_id": "3fd66fd7ca4b34e2c257bae3c06da281", "type": "electric_scooter", "is_disabled": 0, "lat": 38.92004333333333, "rental_uris": {"ios": "https://dc.lft.to/lastmile_qr_scan", "android": "https://dc.lft.to/lastmile_qr_scan"}, "is_reserved": 0, "fusion_lon": 0.0, "fusion_lat": 0.0, "lon": -76.98494133333334, "name": "3fd66fd7ca4b34e2c257bae3c06da281"}, {"bike_id": "faa337a45fff65c3415a9635ac4e70a8", "type": "electric_scooter", "is_disabled": 0, "lat": 38.92321033333333, "rental_uris": {"ios": "https://dc.lft.to/lastmile_qr_scan", "android": "https://dc.lft.to/lastmile_qr_scan"}, "is_reserved": 0, "fusion_lon": 0.0, "fusion_lat": 0.0, "lon": -77.021316, "name": "faa337a45fff65c3415a9635ac4e70a8"}, {"bike_id": "02d320027c32f3f9a4eb2ebda4464b53", "type": "electric_scooter", "is_disabled": 0, "lat": 38.8839055, "rental_uris": {"ios": "https://dc.lft.to/lastmile_qr_scan", "android": "https://dc.lft.to/lastmile_qr_scan"}, "is_reserved": 0, "fusion_lon": 0.0, "fusion_lat": 0.0, "lon": -77.0176665, "name": "02d320027c32f3f9a4eb2ebda4464b53"}, {"bike_id": "e5b6ee73a2e7a29290e1d4dfd590d2a3", "type": "electric_scooter", "is_disabled": 0, "lat": 38.91874516666667, "rental_uris": {"ios": "https://dc.lft.to/lastmile_qr_scan", "android": "https://dc.lft.to/lastmile_qr_scan"}, "is_reserved": 0, "fusion_lon": 0.0, "fusion_lat": 0.0, "lon": -77.04765783333333, "name": "e5b6ee73a2e7a29290e1d4dfd590d2a3"}, {"bike_id": "1d608e351509f15adc7f0633f67e8056", "type": "electric_scooter", "is_disabled": 0, "lat": 38.915641, "rental_uris": {"ios": "https://dc.lft.to/lastmile_qr_scan", "android": "https://dc.lft.to/lastmile_qr_scan"}, "is_reserved": 0, "fusion_lon": 0.0, "fusion_lat": 0.0, "lon": -77.0312225, "name": "1d608e351509f15adc7f0633f67e8056"}, {"bike_id": "9866292772eb331873304641c7a92dcd", "type": "electric_bike", "is_disabled": 0, "lat": 38.87982916666667, "rental_uris": {"ios": "https://dc.lft.to/lastmile_qr_scan", "android": "https://dc.lft.to/lastmile_qr_scan"}, "is_reserved": 0, "fusion_lon": 0.0, "fusion_lat": 0.0, "lon": -76.91597283333333, "name": "9866292772eb331873304641c7a92dcd"}, {"bike_id": "3e2556e638fd35a1401b77519cd2ed03", "type": "electric_scooter", "is_disabled": 0, "lat": 38.880649, "rental_uris": {"ios": "https://dc.lft.to/lastmile_qr_scan", "android": "https://dc.lft.to/lastmile_qr_scan"}, "is_reserved": 0, "fusion_lon": 0.0, "fusion_lat": 0.0, "lon": -76.932154, "name": "3e2556e638fd35a1401b77519cd2ed03"}, {"bike_id": "add5a05b323abb349b04e08a92317911", "type": "electric_scooter", "is_disabled": 0, "lat": 38.90752483333333, "rental_uris": {"ios": "https://dc.lft.to/lastmile_qr_scan", "android": "https://dc.lft.to/lastmile_qr_scan"}, "is_reserved": 0, "fusion_lon": 0.0, "fusion_lat": 0.0, "lon": -76.99948683333334, "name": "add5a05b323abb349b04e08a92317911"}, {"bike_id": "94b0b9bcb343d7225e3db282243e7e94", "type": "electric_scooter", "is_disabled": 0, "lat": 38.92800366666667, "rental_uris": {"ios": "https://dc.lft.to/lastmile_qr_scan", "android": "https://dc.lft.to/lastmile_qr_scan"}, "is_reserved": 0, "fusion_lon": 0.0, "fusion_lat": 0.0, "lon": -77.02363966666667, "name": "94b0b9bcb343d7225e3db282243e7e94"}, {"bike_id": "dbf5f2eda1e3c2fa6e97a98fd0886f2b", "type": "electric_scooter", "is_disabled": 0, "lat": 38.888546166666664, "rental_uris": {"ios": "https://dc.lft.to/lastmile_qr_scan", "android": "https://dc.lft.to/lastmile_qr_scan"}, "is_reserved": 0, "fusion_lon": 0.0, "fusion_lat": 0.0, "lon": -77.00051483333333, "name": "dbf5f2eda1e3c2fa6e97a98fd0886f2b"}, {"bike_id": "6271407156b2626d78095109f918ce9d", "type": "electric_scooter", "is_disabled": 0, "lat": 38.91667966666667, "rental_uris": {"ios": "https://dc.lft.to/lastmile_qr_scan", "android": "https://dc.lft.to/lastmile_qr_scan"}, "is_reserved": 0, "fusion_lon": 0.0, "fusion_lat": 0.0, "lon": -77.0288895, "name": "6271407156b2626d78095109f918ce9d"}, {"bike_id": "06fbc2552f1606372b3beb0b7452ff8a", "type": "electric_scooter", "is_disabled": 0, "lat": 38.88744483333333, "rental_uris": {"ios": "https://dc.lft.to/lastmile_qr_scan", "android": "https://dc.lft.to/lastmile_qr_scan"}, "is_reserved": 0, "fusion_lon": 0.0, "fusion_lat": 0.0, "lon": -76.99626166666667, "name": "06fbc2552f1606372b3beb0b7452ff8a"}, {"bike_id": "a05b074808157c751950fec2df143ca8", "type": "electric_scooter", "is_disabled": 0, "lat": 38.907898833333334, "rental_uris": {"ios": "https://dc.lft.to/lastmile_qr_scan", "android": "https://dc.lft.to/lastmile_qr_scan"}, "is_reserved": 0, "fusion_lon": 0.0, "fusion_lat": 0.0, "lon": -77.03866383333333, "name": "a05b074808157c751950fec2df143ca8"}, {"bike_id": "0866abc972f8ab53e631a6827751da6b", "type": "electric_scooter", "is_disabled": 0, "lat": 38.86654566666667, "rental_uris": {"ios": "https://dc.lft.to/lastmile_qr_scan", "android": "https://dc.lft.to/lastmile_qr_scan"}, "is_reserved": 0, "fusion_lon": 0.0, "fusion_lat": 0.0, "lon": -76.98891133333333, "name": "0866abc972f8ab53e631a6827751da6b"}, {"bike_id": "d03535b2fc9ca59429abcc4c3325a657", "type": "electric_scooter", "is_disabled": 0, "lat": 38.9348325, "rental_uris": {"ios": "https://dc.lft.to/lastmile_qr_scan", "android": "https://dc.lft.to/lastmile_qr_scan"}, "is_reserved": 0, "fusion_lon": 0.0, "fusion_lat": 0.0, "lon": -77.03416383333334, "name": "d03535b2fc9ca59429abcc4c3325a657"}, {"bike_id": "b31ab9df7b76d087c1482bcac9b2b72e", "type": "electric_scooter", "is_disabled": 0, "lat": 38.93914016666667, "rental_uris": {"ios": "https://dc.lft.to/lastmile_qr_scan", "android": "https://dc.lft.to/lastmile_qr_scan"}, "is_reserved": 0, "fusion_lon": 0.0, "fusion_lat": 0.0, "lon": -77.06055233333333, "name": "b31ab9df7b76d087c1482bcac9b2b72e"}, {"bike_id": "2761970b04072285e550a39066e7b70d", "type": "electric_scooter", "is_disabled": 0, "lat": 38.9018855, "rental_uris": {"ios": "https://dc.lft.to/lastmile_qr_scan", "android": "https://dc.lft.to/lastmile_qr_scan"}, "is_reserved": 0, "fusion_lon": 0.0, "fusion_lat": 0.0, "lon": -77.0130335, "name": "2761970b04072285e550a39066e7b70d"}, {"bike_id": "ab4938f0189221b7dc4f15006316577e", "type": "electric_scooter", "is_disabled": 0, "lat": 38.9064675, "rental_uris": {"ios": "https://dc.lft.to/lastmile_qr_scan", "android": "https://dc.lft.to/lastmile_qr_scan"}, "is_reserved": 0, "fusion_lon": 0.0, "fusion_lat": 0.0, "lon": -77.05138016666666, "name": "ab4938f0189221b7dc4f15006316577e"}, {"bike_id": "ef6a30ca427e8fb9a0f2f2653f4315f9", "type": "electric_scooter", "is_disabled": 0, "lat": 38.87562716666667, "rental_uris": {"ios": "https://dc.lft.to/lastmile_qr_scan", "android": "https://dc.lft.to/lastmile_qr_scan"}, "is_reserved": 0, "fusion_lon": 0.0, "fusion_lat": 0.0, "lon": -76.95864816666666, "name": "ef6a30ca427e8fb9a0f2f2653f4315f9"}, {"bike_id": "ba22db03aa4d37b75bb25998b99eb9fd", "type": "electric_scooter", "is_disabled": 0, "lat": 38.91697166666667, "rental_uris": {"ios": "https://dc.lft.to/lastmile_qr_scan", "android": "https://dc.lft.to/lastmile_qr_scan"}, "is_reserved": 0, "fusion_lon": 0.0, "fusion_lat": 0.0, "lon": -77.02342816666666, "name": "ba22db03aa4d37b75bb25998b99eb9fd"}, {"bike_id": "2a4e08b4a24c44ea59e78a347af4203f", "type": "electric_scooter", "is_disabled": 0, "lat": 38.909704833333336, "rental_uris": {"ios": "https://dc.lft.to/lastmile_qr_scan", "android": "https://dc.lft.to/lastmile_qr_scan"}, "is_reserved": 0, "fusion_lon": 0.0, "fusion_lat": 0.0, "lon": -77.0257775, "name": "2a4e08b4a24c44ea59e78a347af4203f"}, {"bike_id": "a7a9d522114111244bcbc00635e834dc", "type": "electric_bike", "is_disabled": 0, "lat": 39.03697616666667, "rental_uris": {"ios": "https://dc.lft.to/lastmile_qr_scan", "android": "https://dc.lft.to/lastmile_qr_scan"}, "is_reserved": 0, "fusion_lon": 0.0, "fusion_lat": 0.0, "lon": -77.028603, "name": "a7a9d522114111244bcbc00635e834dc"}, {"bike_id": "860e675ab073997ef3cf2fc9f254a74f", "type": "electric_scooter", "is_disabled": 0, "lat": 38.916541333333335, "rental_uris": {"ios": "https://dc.lft.to/lastmile_qr_scan", "android": "https://dc.lft.to/lastmile_qr_scan"}, "is_reserved": 0, "fusion_lon": 0.0, "fusion_lat": 0.0, "lon": -77.0228245, "name": "860e675ab073997ef3cf2fc9f254a74f"}, {"bike_id": "7deb53f3720a829a48bc832c16378315", "type": "electric_scooter", "is_disabled": 0, "lat": 38.9259425, "rental_uris": {"ios": "https://dc.lft.to/lastmile_qr_scan", "android": "https://dc.lft.to/lastmile_qr_scan"}, "is_reserved": 0, "fusion_lon": 0.0, "fusion_lat": 0.0, "lon": -77.02386216666666, "name": "7deb53f3720a829a48bc832c16378315"}, {"bike_id": "2721cefb9c35457cfdcc72a062e75202", "type": "electric_scooter", "is_disabled": 0, "lat": 38.88633733333333, "rental_uris": {"ios": "https://dc.lft.to/lastmile_qr_scan", "android": "https://dc.lft.to/lastmile_qr_scan"}, "is_reserved": 0, "fusion_lon": 0.0, "fusion_lat": 0.0, "lon": -77.0153855, "name": "2721cefb9c35457cfdcc72a062e75202"}, {"bike_id": "a941469e1be80d2c92f61db6a479b9a0", "type": "electric_scooter", "is_disabled": 0, "lat": 38.914148833333336, "rental_uris": {"ios": "https://dc.lft.to/lastmile_qr_scan", "android": "https://dc.lft.to/lastmile_qr_scan"}, "is_reserved": 0, "fusion_lon": 0.0, "fusion_lat": 0.0, "lon": -77.0209655, "name": "a941469e1be80d2c92f61db6a479b9a0"}, {"bike_id": "963442d22773d7fd3e682f7290633812", "type": "electric_scooter", "is_disabled": 0, "lat": 38.83090266666667, "rental_uris": {"ios": "https://dc.lft.to/lastmile_qr_scan", "android": "https://dc.lft.to/lastmile_qr_scan"}, "is_reserved": 0, "fusion_lon": 0.0, "fusion_lat": 0.0, "lon": -77.051598, "name": "963442d22773d7fd3e682f7290633812"}, {"bike_id": "af6230f16aaa5f3ac79094fc4fd190e0", "type": "electric_scooter", "is_disabled": 0, "lat": 38.914116, "rental_uris": {"ios": "https://dc.lft.to/lastmile_qr_scan", "android": "https://dc.lft.to/lastmile_qr_scan"}, "is_reserved": 0, "fusion_lon": 0.0, "fusion_lat": 0.0, "lon": -77.02215016666666, "name": "af6230f16aaa5f3ac79094fc4fd190e0"}, {"bike_id": "b07e4d27178825a5d370f84fddf6f418", "type": "electric_scooter", "is_disabled": 0, "lat": 38.9276615, "rental_uris": {"ios": "https://dc.lft.to/lastmile_qr_scan", "android": "https://dc.lft.to/lastmile_qr_scan"}, "is_reserved": 0, "fusion_lon": 0.0, "fusion_lat": 0.0, "lon": -76.9609955, "name": "b07e4d27178825a5d370f84fddf6f418"}, {"bike_id": "8f503c0febf87e0183aaa139ec3b14a7", "type": "electric_scooter", "is_disabled": 0, "lat": 38.9096925, "rental_uris": {"ios": "https://dc.lft.to/lastmile_qr_scan", "android": "https://dc.lft.to/lastmile_qr_scan"}, "is_reserved": 0, "fusion_lon": 0.0, "fusion_lat": 0.0, "lon": -77.03866233333333, "name": "8f503c0febf87e0183aaa139ec3b14a7"}, {"bike_id": "56f615293d4b36a97329bf3127680327", "type": "electric_scooter", "is_disabled": 0, "lat": 38.923226166666666, "rental_uris": {"ios": "https://dc.lft.to/lastmile_qr_scan", "android": "https://dc.lft.to/lastmile_qr_scan"}, "is_reserved": 0, "fusion_lon": 0.0, "fusion_lat": 0.0, "lon": -77.03813333333333, "name": "56f615293d4b36a97329bf3127680327"}, {"bike_id": "3ef68c92fe035ab256e6eccf31f7c5af", "type": "electric_scooter", "is_disabled": 0, "lat": 38.867298, "rental_uris": {"ios": "https://dc.lft.to/lastmile_qr_scan", "android": "https://dc.lft.to/lastmile_qr_scan"}, "is_reserved": 0, "fusion_lon": 0.0, "fusion_lat": 0.0, "lon": -76.97866416666666, "name": "3ef68c92fe035ab256e6eccf31f7c5af"}, {"bike_id": "a45dbd05dcc1b9ae00b3b13078b930d6", "type": "electric_scooter", "is_disabled": 0, "lat": 38.9003645, "rental_uris": {"ios": "https://dc.lft.to/lastmile_qr_scan", "android": "https://dc.lft.to/lastmile_qr_scan"}, "is_reserved": 0, "fusion_lon": 0.0, "fusion_lat": 0.0, "lon": -77.01673783333334, "name": "a45dbd05dcc1b9ae00b3b13078b930d6"}, {"bike_id": "e55a07ba7e16fb07bf0337723b6ff832", "type": "electric_scooter", "is_disabled": 0, "lat": 38.909440333333336, "rental_uris": {"ios": "https://dc.lft.to/lastmile_qr_scan", "android": "https://dc.lft.to/lastmile_qr_scan"}, "is_reserved": 0, "fusion_lon": 0.0, "fusion_lat": 0.0, "lon": -77.05565016666667, "name": "e55a07ba7e16fb07bf0337723b6ff832"}, {"bike_id": "94092f5070e1b8a7a34e7be6a733f17a", "type": "electric_scooter", "is_disabled": 0, "lat": 38.90357183333333, "rental_uris": {"ios": "https://dc.lft.to/lastmile_qr_scan", "android": "https://dc.lft.to/lastmile_qr_scan"}, "is_reserved": 0, "fusion_lon": 0.0, "fusion_lat": 0.0, "lon": -77.02934016666667, "name": "94092f5070e1b8a7a34e7be6a733f17a"}, {"bike_id": "888471cbe1e4cb39c9de823c7ba28d52", "type": "electric_scooter", "is_disabled": 0, "lat": 38.90648916666667, "rental_uris": {"ios": "https://dc.lft.to/lastmile_qr_scan", "android": "https://dc.lft.to/lastmile_qr_scan"}, "is_reserved": 0, "fusion_lon": 0.0, "fusion_lat": 0.0, "lon": -77.00985216666666, "name": "888471cbe1e4cb39c9de823c7ba28d52"}, {"bike_id": "34e9799956efd31119a1c57709a4bd8a", "type": "electric_scooter", "is_disabled": 0, "lat": 38.94194866666667, "rental_uris": {"ios": "https://dc.lft.to/lastmile_qr_scan", "android": "https://dc.lft.to/lastmile_qr_scan"}, "is_reserved": 0, "fusion_lon": 0.0, "fusion_lat": 0.0, "lon": -77.02432566666667, "name": "34e9799956efd31119a1c57709a4bd8a"}, {"bike_id": "482e586ee871d87581e828908814af36", "type": "electric_bike", "is_disabled": 0, "lat": 38.952200166666664, "rental_uris": {"ios": "https://dc.lft.to/lastmile_qr_scan", "android": "https://dc.lft.to/lastmile_qr_scan"}, "is_reserved": 0, "fusion_lon": 0.0, "fusion_lat": 0.0, "lon": -77.00268283333334, "name": "482e586ee871d87581e828908814af36"}, {"bike_id": "482e202421f78b19b3191cbd751ba951", "type": "electric_bike", "is_disabled": 0, "lat": 38.9466235, "rental_uris": {"ios": "https://dc.lft.to/lastmile_qr_scan", "android": "https://dc.lft.to/lastmile_qr_scan"}, "is_reserved": 0, "fusion_lon": 0.0, "fusion_lat": 0.0, "lon": -76.956694, "name": "482e202421f78b19b3191cbd751ba951"}, {"bike_id": "a3f95aea30958a34d4637d489af357be", "type": "electric_bike", "is_disabled": 0, "lat": 38.92450566666667, "rental_uris": {"ios": "https://dc.lft.to/lastmile_qr_scan", "android": "https://dc.lft.to/lastmile_qr_scan"}, "is_reserved": 0, "fusion_lon": 0.0, "fusion_lat": 0.0, "lon": -77.225502, "name": "a3f95aea30958a34d4637d489af357be"}, {"bike_id": "0463da09f30a9520b6e6c0e990209fdb", "type": "electric_scooter", "is_disabled": 0, "lat": 38.92656733333333, "rental_uris": {"ios": "https://dc.lft.to/lastmile_qr_scan", "android": "https://dc.lft.to/lastmile_qr_scan"}, "is_reserved": 0, "fusion_lon": 0.0, "fusion_lat": 0.0, "lon": -77.02434666666667, "name": "0463da09f30a9520b6e6c0e990209fdb"}, {"bike_id": "589bc7544b72874a98ae86164a6adb36", "type": "electric_scooter", "is_disabled": 0, "lat": 38.89843583333333, "rental_uris": {"ios": "https://dc.lft.to/lastmile_qr_scan", "android": "https://dc.lft.to/lastmile_qr_scan"}, "is_reserved": 0, "fusion_lon": 0.0, "fusion_lat": 0.0, "lon": -76.94636883333334, "name": "589bc7544b72874a98ae86164a6adb36"}, {"bike_id": "488f3a0cf59acd7c20e6fba92ecd04e6", "type": "electric_scooter", "is_disabled": 0, "lat": 38.91458516666667, "rental_uris": {"ios": "https://dc.lft.to/lastmile_qr_scan", "android": "https://dc.lft.to/lastmile_qr_scan"}, "is_reserved": 0, "fusion_lon": 0.0, "fusion_lat": 0.0, "lon": -77.02291083333333, "name": "488f3a0cf59acd7c20e6fba92ecd04e6"}, {"bike_id": "7ab5aa16849ff55055a1d88938b4d2b2", "type": "electric_bike", "is_disabled": 0, "lat": 38.92995616666666, "rental_uris": {"ios": "https://dc.lft.to/lastmile_qr_scan", "android": "https://dc.lft.to/lastmile_qr_scan"}, "is_reserved": 0, "fusion_lon": 0.0, "fusion_lat": 0.0, "lon": -77.02171383333334, "name": "7ab5aa16849ff55055a1d88938b4d2b2"}, {"bike_id": "e3ea5c57dc890457436c0f1e71f11122", "type": "electric_scooter", "is_disabled": 0, "lat": 38.94270216666666, "rental_uris": {"ios": "https://dc.lft.to/lastmile_qr_scan", "android": "https://dc.lft.to/lastmile_qr_scan"}, "is_reserved": 0, "fusion_lon": 0.0, "fusion_lat": 0.0, "lon": -77.03257983333333, "name": "e3ea5c57dc890457436c0f1e71f11122"}, {"bike_id": "23c21f53b68e5b8e7623c45874d7e035", "type": "electric_scooter", "is_disabled": 0, "lat": 38.8786635, "rental_uris": {"ios": "https://dc.lft.to/lastmile_qr_scan", "android": "https://dc.lft.to/lastmile_qr_scan"}, "is_reserved": 0, "fusion_lon": 0.0, "fusion_lat": 0.0, "lon": -76.96982066666666, "name": "23c21f53b68e5b8e7623c45874d7e035"}, {"bike_id": "41bae6178498670d8dd02b81ea1b9823", "type": "electric_scooter", "is_disabled": 0, "lat": 38.91106966666667, "rental_uris": {"ios": "https://dc.lft.to/lastmile_qr_scan", "android": "https://dc.lft.to/lastmile_qr_scan"}, "is_reserved": 0, "fusion_lon": 0.0, "fusion_lat": 0.0, "lon": -77.0382875, "name": "41bae6178498670d8dd02b81ea1b9823"}, {"bike_id": "ba3d517a2749f2c9b5153fc8ae7ef4ad", "type": "electric_scooter", "is_disabled": 0, "lat": 38.9291015, "rental_uris": {"ios": "https://dc.lft.to/lastmile_qr_scan", "android": "https://dc.lft.to/lastmile_qr_scan"}, "is_reserved": 0, "fusion_lon": 0.0, "fusion_lat": 0.0, "lon": -77.0209485, "name": "ba3d517a2749f2c9b5153fc8ae7ef4ad"}, {"bike_id": "30558e1a5cb3a4149f4c1bc4aa7f5cda", "type": "electric_scooter", "is_disabled": 0, "lat": 38.902368333333335, "rental_uris": {"ios": "https://dc.lft.to/lastmile_qr_scan", "android": "https://dc.lft.to/lastmile_qr_scan"}, "is_reserved": 0, "fusion_lon": 0.0, "fusion_lat": 0.0, "lon": -77.043243, "name": "30558e1a5cb3a4149f4c1bc4aa7f5cda"}, {"bike_id": "3e8c31abf9bb0eec4f42fc0bbaacbed2", "type": "electric_scooter", "is_disabled": 0, "lat": 38.874196166666664, "rental_uris": {"ios": "https://dc.lft.to/lastmile_qr_scan", "android": "https://dc.lft.to/lastmile_qr_scan"}, "is_reserved": 0, "fusion_lon": 0.0, "fusion_lat": 0.0, "lon": -76.96907366666667, "name": "3e8c31abf9bb0eec4f42fc0bbaacbed2"}, {"bike_id": "4525748cbd1913664ef57b1026545db2", "type": "electric_scooter", "is_disabled": 0, "lat": 38.9247495, "rental_uris": {"ios": "https://dc.lft.to/lastmile_qr_scan", "android": "https://dc.lft.to/lastmile_qr_scan"}, "is_reserved": 0, "fusion_lon": 0.0, "fusion_lat": 0.0, "lon": -77.02831383333333, "name": "4525748cbd1913664ef57b1026545db2"}, {"bike_id": "89dbe16f4a2a7f32f8a3a77566576bff", "type": "electric_scooter", "is_disabled": 0, "lat": 38.91438516666667, "rental_uris": {"ios": "https://dc.lft.to/lastmile_qr_scan", "android": "https://dc.lft.to/lastmile_qr_scan"}, "is_reserved": 0, "fusion_lon": 0.0, "fusion_lat": 0.0, "lon": -77.02291633333333, "name": "89dbe16f4a2a7f32f8a3a77566576bff"}, {"bike_id": "888c4f6e3cb334bee2e977a1a9ee5e2a", "type": "electric_scooter", "is_disabled": 0, "lat": 38.9164285, "rental_uris": {"ios": "https://dc.lft.to/lastmile_qr_scan", "android": "https://dc.lft.to/lastmile_qr_scan"}, "is_reserved": 0, "fusion_lon": 0.0, "fusion_lat": 0.0, "lon": -77.02291583333333, "name": "888c4f6e3cb334bee2e977a1a9ee5e2a"}, {"bike_id": "0c2ecdd1389fa8d0a64b730d1cd717d9", "type": "electric_scooter", "is_disabled": 0, "lat": 38.853164166666666, "rental_uris": {"ios": "https://dc.lft.to/lastmile_qr_scan", "android": "https://dc.lft.to/lastmile_qr_scan"}, "is_reserved": 0, "fusion_lon": 0.0, "fusion_lat": 0.0, "lon": -76.98010033333334, "name": "0c2ecdd1389fa8d0a64b730d1cd717d9"}, {"bike_id": "3847bf5220025e326f34b2e97f87f5d6", "type": "electric_scooter", "is_disabled": 0, "lat": 38.86685466666667, "rental_uris": {"ios": "https://dc.lft.to/lastmile_qr_scan", "android": "https://dc.lft.to/lastmile_qr_scan"}, "is_reserved": 0, "fusion_lon": 0.0, "fusion_lat": 0.0, "lon": -76.985766, "name": "3847bf5220025e326f34b2e97f87f5d6"}, {"bike_id": "05167f8cfd4c2d570fbb2f7a25e1835f", "type": "electric_scooter", "is_disabled": 0, "lat": 38.912598, "rental_uris": {"ios": "https://dc.lft.to/lastmile_qr_scan", "android": "https://dc.lft.to/lastmile_qr_scan"}, "is_reserved": 0, "fusion_lon": 0.0, "fusion_lat": 0.0, "lon": -77.0375905, "name": "05167f8cfd4c2d570fbb2f7a25e1835f"}, {"bike_id": "701152377e80cf124b569964b4c542fb", "type": "electric_scooter", "is_disabled": 0, "lat": 38.888476833333335, "rental_uris": {"ios": "https://dc.lft.to/lastmile_qr_scan", "android": "https://dc.lft.to/lastmile_qr_scan"}, "is_reserved": 0, "fusion_lon": 0.0, "fusion_lat": 0.0, "lon": -76.92679133333333, "name": "701152377e80cf124b569964b4c542fb"}, {"bike_id": "45bace6eee1679f07da255f94b4641be", "type": "electric_scooter", "is_disabled": 0, "lat": 38.876232333333334, "rental_uris": {"ios": "https://dc.lft.to/lastmile_qr_scan", "android": "https://dc.lft.to/lastmile_qr_scan"}, "is_reserved": 0, "fusion_lon": 0.0, "fusion_lat": 0.0, "lon": -76.96522466666667, "name": "45bace6eee1679f07da255f94b4641be"}, {"bike_id": "f5addfff55ead5c86a715c2e1f241065", "type": "electric_scooter", "is_disabled": 0, "lat": 38.9096855, "rental_uris": {"ios": "https://dc.lft.to/lastmile_qr_scan", "android": "https://dc.lft.to/lastmile_qr_scan"}, "is_reserved": 0, "fusion_lon": 0.0, "fusion_lat": 0.0, "lon": -77.02725866666667, "name": "f5addfff55ead5c86a715c2e1f241065"}, {"bike_id": "b2f15d9b0428c44ea1c884161f2443ed", "type": "electric_scooter", "is_disabled": 0, "lat": 38.956121, "rental_uris": {"ios": "https://dc.lft.to/lastmile_qr_scan", "android": "https://dc.lft.to/lastmile_qr_scan"}, "is_reserved": 0, "fusion_lon": 0.0, "fusion_lat": 0.0, "lon": -77.0101355, "name": "b2f15d9b0428c44ea1c884161f2443ed"},