{"data": {"bikes": [{"type": "electric_bike", "rental_uris": {"ios": "https://dc.lft.to/lastmile_qr_scan", "android": "https://dc.lft.to/lastmile_qr_scan"}, "lon": -77.0656965, "fusion_lon": 0.0, "is_disabled": 0, "lat": 38.86996766666667, "bike_id": "41779d108aac33daa84f226a45068c6d", "name": "41779d108aac33daa84f226a45068c6d", "is_reserved": 0, "fusion_lat": 0.0}, {"type": "electric_scooter", "rental_uris": {"ios": "https://dc.lft.to/lastmile_qr_scan", "android": "https://dc.lft.to/lastmile_qr_scan"}, "lon": -77.038459, "fusion_lon": 0.0, "is_disabled": 0, "lat": 38.911128166666664, "bike_id": "6503734f77176ef15be037f16d47bd9b", "name": "6503734f77176ef15be037f16d47bd9b", "is_reserved": 0, "fusion_lat": 0.0}, {"type": "electric_scooter", "rental_uris": {"ios": "https://dc.lft.to/lastmile_qr_scan", "android": "https://dc.lft.to/lastmile_qr_scan"}, "lon": -77.01532616666667, "fusion_lon": 0.0, "is_disabled": 0, "lat": 38.887322166666664, "bike_id": "2682200fa2839f9a8251230b537be25b", "name": "2682200fa2839f9a8251230b537be25b", "is_reserved": 0, "fusion_lat": 0.0}, {"type": "electric_scooter", "rental_uris": {"ios": "https://dc.lft.to/lastmile_qr_scan", "android": "https://dc.lft.to/lastmile_qr_scan"}, "lon": -77.01525783333334, "fusion_lon": 0.0, "is_disabled": 0, "lat": 38.88405083333333, "bike_id": "df63e3e21e7e3f0d5688990aa6e3dcbe", "name": "df63e3e21e7e3f0d5688990aa6e3dcbe", "is_reserved": 0, "fusion_lat": 0.0}, {"type": "electric_scooter", "rental_uris": {"ios": "https://dc.lft.to/lastmile_qr_scan", "android": "https://dc.lft.to/lastmile_qr_scan"}, "lon": -77.03162883333333, "fusion_lon": 0.0, "is_disabled": 0, "lat": 38.8977695, "bike_id": "ffa5475c96e7b065d305333b56d7c3b6", "name": "ffa5475c96e7b065d305333b56d7c3b6", "is_reserved": 0, "fusion_lat": 0.0}, {"type": "electric_scooter", "rental_uris": {"ios": "https://dc.lft.to/lastmile_qr_scan", "android": "https://dc.lft.to/lastmile_qr_scan"}, "lon": -77.02531883333333, "fusion_lon": 0.0, "is_disabled": 0, "lat": 38.91267583333333, "bike_id": "31729db8be3a0ac3b16682182f041b5b", "name": "31729db8be3a0ac3b16682182f041b5b", "is_reserved": 0, "fusion_lat": 0.0}, {"type": "electric_scooter", "rental_uris": {"ios": "https://dc.lft.to/lastmile_qr_scan", "android": "https://dc.lft.to/lastmile_qr_scan"}, "lon": -77.0365555, "fusion_lon": 0.0, "is_disabled": 0, "lat": 38.9213785, "bike_id": "78af1bead67142e78899d7b8ff7aef1d", "name": "78af1bead67142e78899d7b8ff7aef1d", "is_reserved": 0, "fusion_lat": 0.0}, {"type": "electric_scooter", "rental_uris": {"ios": "https://dc.lft.to/lastmile_qr_scan", "android": "https://dc.lft.to/lastmile_qr_scan"}, "lon": -77.0437965, "fusion_lon": 0.0, "is_disabled": 0, "lat": 38.921064666666666, "bike_id": "fa36c55c1a3ff4e32f669d27b58e89e0", "name": "fa36c55c1a3ff4e32f669d27b58e89e0", "is_reserved": 0, "fusion_lat": 0.0}, {"type": "electric_scooter", "rental_uris": {"ios": "https://dc.lft.to/lastmile_qr_scan", "android": "https://dc.lft.to/lastmile_qr_scan"}, "lon": -77.02421183333334, "fusion_lon": 0.0, "is_disabled": 0, "lat": 38.927525, "bike_id": "f88c835151e58bc2165a0a19fce7d6e9", "name": "f88c835151e58bc2165a0a19fce7d6e9", "is_reserved": 0, "fusion_lat": 0.0}, {"type": "electric_scooter", "rental_uris": {"ios": "https://dc.lft.to/lastmile_qr_scan", "android": "https://dc.lft.to/lastmile_qr_scan"}, "lon": -77.03645816666666, "fusion_lon": 0.0, "is_disabled": 0, "lat": 38.917811666666665, "bike_id": "7c2a09fb3db6708b28d01426e9acf282", "name": "7c2a09fb3db6708b28d01426e9acf282", "is_reserved": 0, "fusion_lat": 0.0}, {"type": "electric_scooter", "rental_uris": {"ios": "https://dc.lft.to/lastmile_qr_scan", "android": "https://dc.lft.to/lastmile_qr_scan"}, "lon": -77.04360283333334, "fusion_lon": 0.0, "is_disabled": 0, "lat": 38.90150783333333, "bike_id": "6fb96eb5245498c0ce7870728e2741e4", "name": "6fb96eb5245498c0ce7870728e2741e4", "is_reserved": 0, "fusion_lat": 0.0}, {"type": "electric_scooter", "rental_uris": {"ios": "https://dc.lft.to/lastmile_qr_scan", "android": "https://dc.lft.to/lastmile_qr_scan"}, "lon": -77.03532166666666, "fusion_lon": 0.0, "is_disabled": 0, "lat": 38.918220166666664, "bike_id": "0ff4d630508b2606f0d46180bed3635f", "name": "0ff4d630508b2606f0d46180bed3635f", "is_reserved": 0, "fusion_lat": 0.0}, {"type": "electric_scooter", "rental_uris": {"ios": "https://dc.lft.to/lastmile_qr_scan", "android": "https://dc.lft.to/lastmile_qr_scan"}, "lon": -77.033448, "fusion_lon": 0.0, "is_disabled": 0, "lat": 38.92880983333333, "bike_id": "00c627ca9df5fde6f924ae8ab3b56064", "name": "00c627ca9df5fde6f924ae8ab3b56064", "is_reserved": 0, "fusion_lat": 0.0}, {"type": "electric_scooter", "rental_uris": {"ios": "https://dc.lft.to/lastmile_qr_scan", "android": "https://dc.lft.to/lastmile_qr_scan"}, "lon": -77.05147433333333, "fusion_lon": 0.0, "is_disabled": 0, "lat": 38.90048566666667, "bike_id": "611731afadf4e85926fd6012935c35ab", "name": "611731afadf4e85926fd6012935c35ab", "is_reserved": 0, "fusion_lat": 0.0}, {"type": "electric_scooter", "rental_uris": {"ios": "https://dc.lft.to/lastmile_qr_scan", "android": "https://dc.lft.to/lastmile_qr_scan"}, "lon": -77.0289915, "fusion_lon": 0.0, "is_disabled": 0, "lat": 38.902756333333336, "bike_id": "2fa3a2bc0b9ba6bd0bba23414d0439e0", "name": "2fa3a2bc0b9ba6bd0bba23414d0439e0", "is_reserved": 0, "fusion_lat": 0.0}, {"type": "electric_scooter", "rental_uris": {"ios": "https://dc.lft.to/lastmile_qr_scan", "android": "https://dc.lft.to/lastmile_qr_scan"}, "lon": -77.03181816666667, "fusion_lon": 0.0, "is_disabled": 0, "lat": 38.921229833333335, "bike_id": "25eb8cc97af7134fb8746a6e1db3450c", "name": "25eb8cc97af7134fb8746a6e1db3450c", "is_reserved": 0, "fusion_lat": 0.0}, {"type": "electric_scooter", "rental_uris": {"ios": "https://dc.lft.to/lastmile_qr_scan", "android": "https://dc.lft.to/lastmile_qr_scan"}, "lon": -77.0298235, "fusion_lon": 0.0, "is_disabled": 0, "lat": 38.91688716666667, "bike_id": "e1dc099bb4fc4135c7d4af88acf12084", "name": "e1dc099bb4fc4135c7d4af88acf12084", "is_reserved": 0, "fusion_lat": 0.0}, {"type": "electric_scooter", "rental_uris": {"ios": "https://dc.lft.to/lastmile_qr_scan", "android": "https://dc.lft.to/lastmile_qr_scan"}, "lon": -77.03213183333334, "fusion_lon": 0.0, "is_disabled": 0, "lat": 38.8922345, "bike_id": "0f4c44627c966315b55e796dccc3db60", "name": "0f4c44627c966315b55e796dccc3db60", "is_reserved": 0, "fusion_lat": 0.0}, {"type": "electric_scooter", "rental_uris": {"ios": "https://dc.lft.to/lastmile_qr_scan", "android": "https://dc.lft.to/lastmile_qr_scan"}, "lon": -77.0313885, "fusion_lon": 0.0, "is_disabled": 0, "lat": 38.9170265, "bike_id": "5132b2132c1f489214066d6dc2639020", "name": "5132b2132c1f489214066d6dc2639020", "is_reserved": 0, "fusion_lat": 0.0}, {"type": "electric_scooter", "rental_uris": {"ios": "https://dc.lft.to/lastmile_qr_scan", "android": "https://dc.lft.to/lastmile_qr_scan"}, "lon": -77.03241416666667, "fusion_lon": 0.0, "is_disabled": 0, "lat": 38.928055, "bike_id": "2bd7e426dcf2194d781cb1ea8a61192d", "name": "2bd7e426dcf2194d781cb1ea8a61192d", "is_reserved": 0, "fusion_lat": 0.0}, {"type": "electric_scooter", "rental_uris": {"ios": "https://dc.lft.to/lastmile_qr_scan", "android": "https://dc.lft.to/lastmile_qr_scan"}, "lon": -77.02235783333333, "fusion_lon": 0.0, "is_disabled": 0, "lat": 38.922344, "bike_id": "08b6e0b53b5b28e6f5469c667facf933", "name": "08b6e0b53b5b28e6f5469c667facf933", "is_reserved": 0, "fusion_lat": 0.0}, {"type": "electric_scooter", "rental_uris": {"ios": "https://dc.lft.to/lastmile_qr_scan", "android": "https://dc.lft.to/lastmile_qr_scan"}, "lon": -77.03455066666666, "fusion_lon": 0.0, "is_disabled": 0, "lat": 38.918718166666665, "bike_id": "940509b22b8a6c581aa1f11b8f63d29f", "name": "940509b22b8a6c581aa1f11b8f63d29f", "is_reserved": 0, "fusion_lat": 0.0}, {"type": "electric_scooter", "rental_uris": {"ios": "https://dc.lft.to/lastmile_qr_scan", "android": "https://dc.lft.to/lastmile_qr_scan"}, "lon": -77.00061883333333, "fusion_lon": 0.0, "is_disabled": 0, "lat": 38.874030833333336, "bike_id": "dbe9ffe23b759ea65d41a5a3c8498bc2", "name": "dbe9ffe23b759ea65d41a5a3c8498bc2", "is_reserved": 0, "fusion_lat": 0.0}, {"type": "electric_bike", "rental_uris": {"ios": "https://dc.lft.to/lastmile_qr_scan", "android": "https://dc.lft.to/lastmile_qr_scan"}, "lon": -77.22336083333333, "fusion_lon": 0.0, "is_disabled": 0, "lat": 38.91798333333333, "bike_id": "0f345406a5dd6174a8361b34e7a74599", "name": "0f345406a5dd6174a8361b34e7a74599", "is_reserved": 0, "fusion_lat": 0.0}, {"type": "electric_scooter", "rental_uris": {"ios": "https://dc.lft.to/lastmile_qr_scan", "android": "https://dc.lft.to/lastmile_qr_scan"}, "lon": -77.038705, "fusion_lon": 0.0, "is_disabled": 0, "lat": 38.91554133333333, "bike_id": "f9565dbc9949399f842001e98b3d89f4", "name": "f9565dbc9949399f842001e98b3d89f4", "is_reserved": 0, "fusion_lat": 0.0}, {"type": "electric_scooter", "rental_uris": {"ios": "https://dc.lft.to/lastmile_qr_scan", "android": "https://dc.lft.to/lastmile_qr_scan"}, "lon": -77.0111715, "fusion_lon": 0.0, "is_disabled": 0, "lat": 38.9202465, "bike_id": "1fbc1f7a5f23359b07f7119397e1a8e0", "name": "1fbc1f7a5f23359b07f7119397e1a8e0", "is_reserved": 0, "fusion_lat": 0.0}, {"type": "electric_scooter", "rental_uris": {"ios": "https://dc.lft.to/lastmile_qr_scan", "android": "https://dc.lft.to/lastmile_qr_scan"}, "lon": -77.02664416666667, "fusion_lon": 0.0, "is_disabled": 0, "lat": 38.916939, "bike_id": "874bf5560847a10537bc7442d031cbd8", "name": "874bf5560847a10537bc7442d031cbd8", "is_reserved": 0, "fusion_lat": 0.0}, {"type": "electric_scooter", "rental_uris": {"ios": "https://dc.lft.to/lastmile_qr_scan", "android": "https://dc.lft.to/lastmile_qr_scan"}, "lon": -76.936177, "fusion_lon": 0.0, "is_disabled": 0, "lat": 38.88670783333333, "bike_id": "0553f1a2af1656a31f76ff956e11de92", "name": "0553f1a2af1656a31f76ff956e11de92", "is_reserved": 0, "fusion_lat": 0.0}, {"type": "electric_scooter", "rental_uris": {"ios": "https://dc.lft.to/lastmile_qr_scan", "android": "https://dc.lft.to/lastmile_qr_scan"}, "lon": -77.025118, "fusion_lon": 0.0, "is_disabled": 0, "lat": 38.919547666666666, "bike_id": "2b3d100457fca3e37080e17fdb0df731", "name": "2b3d100457fca3e37080e17fdb0df731", "is_reserved": 0, "fusion_lat": 0.0}, {"type": "electric_scooter", "rental_uris": {"ios": "https://dc.lft.to/lastmile_qr_scan", "android": "https://dc.lft.to/lastmile_qr_scan"}, "lon": -76.99912066666667, "fusion_lon": 0.0, "is_disabled": 0, "lat": 38.898862, "bike_id": "1bcf918814cd6a7ba742c82e90850a91", "name": "1bcf918814cd6a7ba742c82e90850a91", "is_reserved": 0, "fusion_lat": 0.0}, {"type": "electric_bike", "rental_uris": {"ios": "https://dc.lft.to/lastmile_qr_scan", "android": "https://dc.lft.to/lastmile_qr_scan"}, "lon": -77.07111916666666, "fusion_lon": 0.0, "is_disabled": 0, "lat": 38.8005465, "bike_id": "573297a7d870e54aaf3f4ac850cb5ea9", "name": "573297a7d870e54aaf3f4ac850cb5ea9", "is_reserved": 0, "fusion_lat": 0.0}, {"type": "electric_scooter", "rental_uris": {"ios": "https://dc.lft.to/lastmile_qr_scan", "android": "https://dc.lft.to/lastmile_qr_scan"}, "lon": -77.04921183333333, "fusion_lon": 0.0, "is_disabled": 0, "lat": 38.9008585, "bike_id": "9dbc06acd5c6a41498cc975aceb19025", "name": "9dbc06acd5c6a41498cc975aceb19025", "is_reserved": 0, "fusion_lat": 0.0}, {"type": "electric_scooter", "rental_uris": {"ios": "https://dc.lft.to/lastmile_qr_scan", "android": "https://dc.lft.to/lastmile_qr_scan"}, "lon": -77.03191983333333, "fusion_lon": 0.0, "is_disabled": 0, "lat": 38.91859383333333, "bike_id": "bc63ad68cb9110ca4f31937cd550c15c", "name": "bc63ad68cb9110ca4f31937cd550c15c", "is_reserved": 0, "fusion_lat": 0.0}, {"type": "electric_bike", "rental_uris": {"ios": "https://dc.lft.to/lastmile_qr_scan", "android": "https://dc.lft.to/lastmile_qr_scan"}, "lon": -77.02467833333333, "fusion_lon": 0.0, "is_disabled": 0, "lat": 38.95293933333333, "bike_id": "0cac86107ecfb00c27ac26bdac8affe8", "name": "0cac86107ecfb00c27ac26bdac8affe8", "is_reserved": 0, "fusion_lat": 0.0}, {"type": "electric_bike", "rental_uris": {"ios": "https://dc.lft.to/lastmile_qr_scan", "android": "https://dc.lft.to/lastmile_qr_scan"}, "lon": -77.06329566666666, "fusion_lon": 0.0, "is_disabled": 0, "lat": 38.92105766666667, "bike_id": "7ca43c1727ebe8b9a0d911c587920761", "name": "7ca43c1727ebe8b9a0d911c587920761", "is_reserved": 0, "fusion_lat": 0.0}, {"type": "electric_scooter", "rental_uris": {"ios": "https://dc.lft.to/lastmile_qr_scan", "android": "https://dc.lft.to/lastmile_qr_scan"}, "lon": -77.040859, "fusion_lon": 0.0, "is_disabled": 0, "lat": 38.91689233333334, "bike_id": "8d88383c1303bea733c64e57979371be", "name": "8d88383c1303bea733c64e57979371be", "is_reserved": 0, "fusion_lat": 0.0}, {"type": "electric_scooter", "rental_uris": {"ios": "https://dc.lft.to/lastmile_qr_scan", "android": "https://dc.lft.to/lastmile_qr_scan"}, "lon": -76.98880766666667, "fusion_lon": 0.0, "is_disabled": 0, "lat": 38.86651466666667, "bike_id": "6896362fce4227d24bdd2116b70b89d3", "name": "6896362fce4227d24bdd2116b70b89d3", "is_reserved": 0, "fusion_lat": 0.0}, {"type": "electric_scooter", "rental_uris": {"ios": "https://dc.lft.to/lastmile_qr_scan", "android": "https://dc.lft.to/lastmile_qr_scan"}, "lon": -76.99630716666667, "fusion_lon": 0.0, "is_disabled": 0, "lat": 38.900003833333336, "bike_id": "b2cc11c39ab77605d3641415871ea2ed", "name": "b2cc11c39ab77605d3641415871ea2ed", "is_reserved": 0, "fusion_lat": 0.0}, {"type": "electric_scooter", "rental_uris": {"ios": "https://dc.lft.to/lastmile_qr_scan", "android": "https://dc.lft.to/lastmile_qr_scan"}, "lon": -77.0205765, "fusion_lon": 0.0, "is_disabled": 0, "lat": 38.90846883333333, "bike_id": "c0a36ed3046803bae46b54daa3b8f549", "name": "c0a36ed3046803bae46b54daa3b8f549", "is_reserved": 0, "fusion_lat": 0.0}, {"type": "electric_scooter", "rental_uris": {"ios": "https://dc.lft.to/lastmile_qr_scan", "android": "https://dc.lft.to/lastmile_qr_scan"}, "lon": -76.94876033333334, "fusion_lon": 0.0, "is_disabled": 0, "lat": 38.89501883333333, "bike_id": "b83380c95255efa0e99b62bf5c47c829", "name": "b83380c95255efa0e99b62bf5c47c829", "is_reserved": 0, "fusion_lat": 0.0}, {"type": "electric_bike", "rental_uris": {"ios": "https://dc.lft.to/lastmile_qr_scan", "android": "https://dc.lft.to/lastmile_qr_scan"}, "lon": -77.01033683333333, "fusion_lon": 0.0, "is_disabled": 0, "lat": 38.958792, "bike_id": "d21a3734ab182af84689e6d32fdffbca", "name": "d21a3734ab182af84689e6d32fdffbca", "is_reserved": 0, "fusion_lat": 0.0}, {"type": "electric_scooter", "rental_uris": {"ios": "https://dc.lft.to/lastmile_qr_scan", "android": "https://dc.lft.to/lastmile_qr_scan"}, "lon": -77.02496133333334, "fusion_lon": 0.0, "is_disabled": 0, "lat": 38.919759166666665, "bike_id": "e38b7d75d4aca28d11ab717f1653e47c", "name": "e38b7d75d4aca28d11ab717f1653e47c", "is_reserved": 0, "fusion_lat": 0.0}, {"type": "electric_scooter", "rental_uris": {"ios": "https://dc.lft.to/lastmile_qr_scan", "android": "https://dc.lft.to/lastmile_qr_scan"}, "lon": -77.03262183333334, "fusion_lon": 0.0, "is_disabled": 0, "lat": 38.91917183333333, "bike_id": "a0af869f38beaa9a9d19856c02865727", "name": "a0af869f38beaa9a9d19856c02865727", "is_reserved": 0, "fusion_lat": 0.0}, {"type": "electric_scooter", "rental_uris": {"ios": "https://dc.lft.to/lastmile_qr_scan", "android": "https://dc.lft.to/lastmile_qr_scan"}, "lon": -77.02437033333334, "fusion_lon": 0.0, "is_disabled": 0, "lat": 38.93799833333333, "bike_id": "23d7c527e88d1a6987dafffd28a3e18f", "name": "23d7c527e88d1a6987dafffd28a3e18f", "is_reserved": 0, "fusion_lat": 0.0}, {"type": "electric_scooter", "rental_uris": {"ios": "https://dc.lft.to/lastmile_qr_scan", "android": "https://dc.lft.to/lastmile_qr_scan"}, "lon": -77.02750716666667, "fusion_lon": 0.0, "is_disabled": 0, "lat": 38.927728333333334, "bike_id": "3effb2d4fb52132b3b042000259ba9c8", "name": "3effb2d4fb52132b3b042000259ba9c8", "is_reserved": 0, "fusion_lat": 0.0}, {"type": "electric_scooter", "rental_uris": {"ios": "https://dc.lft.to/lastmile_qr_scan", "android": "https://dc.lft.to/lastmile_qr_scan"}, "lon": -77.03221066666667, "fusion_lon": 0.0, "is_disabled": 0, "lat": 38.90976116666667, "bike_id": "2b982d8694620747a2ccb935fe58e674", "name": "2b982d8694620747a2ccb935fe58e674", "is_reserved": 0, "fusion_lat": 0.0}, {"type": "electric_scooter", "rental_uris": {"ios": "https://dc.lft.to/lastmile_qr_scan", "android": "https://dc.lft.to/lastmile_qr_scan"}, "lon": -77.02180116666666, "fusion_lon": 0.0, "is_disabled": 0, "lat": 38.89299916666667, "bike_id": "ab15bef98213183c0599be3a6f2fff8c", "name": "ab15bef98213183c0599be3a6f2fff8c", "is_reserved": 0, "fusion_lat": 0.0}, {"type": "electric_scooter", "rental_uris": {"ios": "https://dc.lft.to/lastmile_qr_scan", "android": "https://dc.lft.to/lastmile_qr_scan"}, "lon": -76.9780905, "fusion_lon": 0.0, "is_disabled": 0, "lat": 38.894527833333335, "bike_id": "4d72c453fd51e8465a408f765112b57d", "name": "4d72c453fd51e8465a408f765112b57d", "is_reserved": 0, "fusion_lat": 0.0}, {"type": "electric_scooter", "rental_uris": {"ios": "https://dc.lft.to/lastmile_qr_scan", "android": "https://dc.lft.to/lastmile_qr_scan"}, "lon": -77.03208466666666, "fusion_lon": 0.0, "is_disabled": 0, "lat": 38.9161905, "bike_id": "b48eb1e837172d891d71a8823a9b1593", "name": "b48eb1e837172d891d71a8823a9b1593", "is_reserved": 0, "fusion_lat": 0.0}, {"type": "electric_bike", "rental_uris": {"ios": "https://dc.lft.to/lastmile_qr_scan", "android": "https://dc.lft.to/lastmile_qr_scan"}, "lon": -76.98210616666667, "fusion_lon": 0.0, "is_disabled": 0, "lat": 38.985054166666664, "bike_id": "b201412c92391623e7c34c3ad20f5d7a", "name": "b201412c92391623e7c34c3ad20f5d7a", "is_reserved": 0, "fusion_lat": 0.0}, {"type": "electric_bike", "rental_uris": {"ios": "https://dc.lft.to/lastmile_qr_scan", "android": "https://dc.lft.to/lastmile_qr_scan"}, "lon": -77.0335875, "fusion_lon": 0.0, "is_disabled": 0, "lat": 38.9632345, "bike_id": "af454c20e2f58b8b7e5e294242085d8f", "name": "af454c20e2f58b8b7e5e294242085d8f", "is_reserved": 0, "fusion_lat": 0.0}, {"type": "electric_bike", "rental_uris": {"ios": "https://dc.lft.to/lastmile_qr_scan", "android": "https://dc.lft.to/lastmile_qr_scan"}, "lon": -77.0791, "fusion_lon": 0.0, "is_disabled": 0, "lat": 38.83935866666667, "bike_id": "3d3e3efba2985136f1548276af91a9e8", "name": "3d3e3efba2985136f1548276af91a9e8", "is_reserved": 0, "fusion_lat": 0.0}, {"type": "electric_bike", "rental_uris": {"ios": "https://dc.lft.to/lastmile_qr_scan", "android": "https://dc.lft.to/lastmile_qr_scan"}, "lon": -77.017707, "fusion_lon": 0.0, "is_disabled": 0, "lat": 38.98271666666667, "bike_id": "d38de903c1c6be98fe4fce4b8581683b", "name": "d38de903c1c6be98fe4fce4b8581683b", "is_reserved": 0, "fusion_lat": 0.0}, {"type": "electric_scooter", "rental_uris": {"ios": "https://dc.lft.to/lastmile_qr_scan", "android": "https://dc.lft.to/lastmile_qr_scan"}, "lon": -77.02169616666667, "fusion_lon": 0.0, "is_disabled": 0, "lat": 38.94695566666667, "bike_id": "b2f48b26216a880c803f6246c02f9266", "name": "b2f48b26216a880c803f6246c02f9266", "is_reserved": 0, "fusion_lat": 0.0}, {"type": "electric_scooter", "rental_uris": {"ios": "https://dc.lft.to/lastmile_qr_scan", "android": "https://dc.lft.to/lastmile_qr_scan"}, "lon": -77.05003083333334, "fusion_lon": 0.0, "is_disabled": 0, "lat": 38.89233433333333, "bike_id": "3865799726c72039d1f23bab61416213", "name": "3865799726c72039d1f23bab61416213", "is_reserved": 0, "fusion_lat": 0.0}, {"type": "electric_scooter", "rental_uris": {"ios": "https://dc.lft.to/lastmile_qr_scan", "android": "https://dc.lft.to/lastmile_qr_scan"}, "lon": -77.03220516666667, "fusion_lon": 0.0, "is_disabled": 0, "lat": 38.917205333333335, "bike_id": "eeba5c1b419a7c61e98f6ded69790332", "name": "eeba5c1b419a7c61e98f6ded69790332", "is_reserved": 0, "fusion_lat": 0.0}, {"type": "electric_scooter", "rental_uris": {"ios": "https://dc.lft.to/lastmile_qr_scan", "android": "https://dc.lft.to/lastmile_qr_scan"}, "lon": -77.03124916666667, "fusion_lon": 0.0, "is_disabled": 0, "lat": 38.95931916666667, "bike_id": "43f4879a5eb3449152c15bdd29e365cc", "name": "43f4879a5eb3449152c15bdd29e365cc", "is_reserved": 0, "fusion_lat": 0.0}, {"type": "electric_bike", "rental_uris": {"ios": "https://dc.lft.to/lastmile_qr_scan", "android": "https://dc.lft.to/lastmile_qr_scan"}, "lon": -77.0686175, "fusion_lon": 0.0, "is_disabled": 0, "lat": 38.805764833333335, "bike_id": "d19b453a6c24d24471072d01ba498aea", "name": "d19b453a6c24d24471072d01ba498aea", "is_reserved": 0, "fusion_lat": 0.0}, {"type": "electric_scooter", "rental_uris": {"ios": "https://dc.lft.to/lastmile_qr_scan", "android": "https://dc.lft.to/lastmile_qr_scan"}, "lon": -77.0229055, "fusion_lon": 0.0, "is_disabled": 0, "lat": 38.91672066666667, "bike_id": "9ba2011144556b73d87934c5f2a031c1", "name": "9ba2011144556b73d87934c5f2a031c1", "is_reserved": 0, "fusion_lat": 0.0}, {"type": "electric_scooter", "rental_uris": {"ios": "https://dc.lft.to/lastmile_qr_scan", "android": "https://dc.lft.to/lastmile_qr_scan"}, "lon": -77.0218215, "fusion_lon": 0.0, "is_disabled": 0, "lat": 38.914851666666664, "bike_id": "6ff8ff9148d55e5e10c040cf02f982fd", "name": "6ff8ff9148d55e5e10c040cf02f982fd", "is_reserved": 0, "fusion_lat": 0.0}, {"type": "electric_scooter", "rental_uris": {"ios": "https://dc.lft.to/lastmile_qr_scan", "android": "https://dc.lft.to/lastmile_qr_scan"}, "lon": -77.0212875, "fusion_lon": 0.0, "is_disabled": 0, "lat": 38.88743133333333, "bike_id": "482995712ae540198fe166f8cbe55967", "name": "482995712ae540198fe166f8cbe55967", "is_reserved": 0, "fusion_lat": 0.0}, {"type": "electric_scooter", "rental_uris": {"ios": "https://dc.lft.to/lastmile_qr_scan", "android": "https://dc.lft.to/lastmile_qr_scan"}, "lon": -77.0603575, "fusion_lon": 0.0, "is_disabled": 0, "lat": 38.94454416666667, "bike_id": "cdcecb81ac53f06f98a92343e78add69", "name": "cdcecb81ac53f06f98a92343e78add69", "is_reserved": 0, "fusion_lat": 0.0}, {"type": "electric_scooter", "rental_uris": {"ios": "https://dc.lft.to/lastmile_qr_scan", "android": "https://dc.lft.to/lastmile_qr_scan"}, "lon": -77.0606605, "fusion_lon": 0.0, "is_disabled": 0, "lat": 38.902412, "bike_id": "eb7c0d10c45f7473f906c5ab4fc73346", "name": "eb7c0d10c45f7473f906c5ab4fc73346", "is_reserved": 0, "fusion_lat": 0.0}, {"type": "electric_scooter", "rental_uris": {"ios": "https://dc.lft.to/lastmile_qr_scan", "android": "https://dc.lft.to/lastmile_qr_scan"}, "lon": -77.04688366666667, "fusion_lon": 0.0, "is_disabled": 0, "lat": 38.89729533333333, "bike_id": "236db7a088f1a80cf8c57b5d39aae15b", "name": "236db7a088f1a80cf8c57b5d39aae15b", "is_reserved": 0, "fusion_lat": 0.0}, {"type": "electric_scooter", "rental_uris": {"ios": "https://dc.lft.to/lastmile_qr_scan", "android": "https://dc.lft.to/lastmile_qr_scan"}, "lon": -77.04867383333334, "fusion_lon": 0.0, "is_disabled": 0, "lat": 38.90470283333333, "bike_id": "469c68cd734d6939edda130e859cf2e4", "name": "469c68cd734d6939edda130e859cf2e4", "is_reserved": 0, "fusion_lat": 0.0}, {"type": "electric_scooter", "rental_uris": {"ios": "https://dc.lft.to/lastmile_qr_scan", "android": "https://dc.lft.to/lastmile_qr_scan"}, "lon": -77.0140265, "fusion_lon": 0.0, "is_disabled": 0, "lat": 38.928689166666665, "bike_id": "df12e4542dfa09df8dbd03aea48182e0", "name": "df12e4542dfa09df8dbd03aea48182e0", "is_reserved": 0, "fusion_lat": 0.0}, {"type": "electric_scooter", "rental_uris": {"ios": "https://dc.lft.to/lastmile_qr_scan", "android": "https://dc.lft.to/lastmile_qr_scan"}, "lon": -77.03243516666667, "fusion_lon": 0.0, "is_disabled": 0, "lat": 38.90874433333333, "bike_id": "60f6aab8907b37ed3735a07304527c71", "name": "60f6aab8907b37ed3735a07304527c71", "is_reserved": 0, "fusion_lat": 0.0}, {"type": "electric_scooter", "rental_uris": {"ios": "https://dc.lft.to/lastmile_qr_scan", "android": "https://dc.lft.to/lastmile_qr_scan"}, "lon": -77.043505, "fusion_lon": 0.0, "is_disabled": 0, "lat": 38.90829883333333, "bike_id": "5cd7a3f3b9eb534ddb508c6db0794289", "name": "5cd7a3f3b9eb534ddb508c6db0794289", "is_reserved": 0, "fusion_lat": 0.0}, {"type": "electric_scooter", "rental_uris": {"ios": "https://dc.lft.to/lastmile_qr_scan", "android": "https://dc.lft.to/lastmile_qr_scan"}, "lon": -77.0321835, "fusion_lon": 0.0, "is_disabled": 0, "lat": 38.9097605, "bike_id": "e5342709ccd8744a4ac7de1db1fbf424", "name": "e5342709ccd8744a4ac7de1db1fbf424", "is_reserved": 0, "fusion_lat": 0.0}, {"type": "electric_scooter", "rental_uris": {"ios": "https://dc.lft.to/lastmile_qr_scan", "android": "https://dc.lft.to/lastmile_qr_scan"}, "lon": -76.93612716666667, "fusion_lon": 0.0, "is_disabled": 0, "lat": 38.8968625, "bike_id": "3634936ac2c1a9ca785d9d2b2d2a61f1", "name": "3634936ac2c1a9ca785d9d2b2d2a61f1", "is_reserved": 0, "fusion_lat": 0.0}, {"type": "electric_scooter", "rental_uris": {"ios": "https://dc.lft.to/lastmile_qr_scan", "android": "https://dc.lft.to/lastmile_qr_scan"}, "lon": -77.05227516666666, "fusion_lon": 0.0, "is_disabled": 0, "lat": 38.924960666666664, "bike_id": "e819f6e3b0426c9b3e037983355c6db2", "name": "e819f6e3b0426c9b3e037983355c6db2", "is_reserved": 0, "fusion_lat": 0.0}, {"type": "electric_scooter", "rental_uris": {"ios": "https://dc.lft.to/lastmile_qr_scan", "android": "https://dc.lft.to/lastmile_qr_scan"}, "lon": -77.03204383333333, "fusion_lon": 0.0, "is_disabled": 0, "lat": 38.91737833333333, "bike_id": "6dd7582eb20b15e93b38d484c5e0b0cc", "name": "6dd7582eb20b15e93b38d484c5e0b0cc", "is_reserved": 0, "fusion_lat": 0.0}, {"type": "electric_scooter", "rental_uris": {"ios": "https://dc.lft.to/lastmile_qr_scan", "android": "https://dc.lft.to/lastmile_qr_scan"}, "lon": -76.999053, "fusion_lon": 0.0, "is_disabled": 0, "lat": 38.94825866666667, "bike_id": "ca17357298b5cb37c558a514eb361372", "name": "ca17357298b5cb37c558a514eb361372", "is_reserved": 0, "fusion_lat": 0.0}, {"type": "electric_scooter", "rental_uris": {"ios": "https://dc.lft.to/lastmile_qr_scan", "android": "https://dc.lft.to/lastmile_qr_scan"}, "lon": -77.0377125, "fusion_lon": 0.0, "is_disabled": 0, "lat": 38.92945983333333, "bike_id": "f4a191e255f66be29e62748092f506f2", "name": "f4a191e255f66be29e62748092f506f2", "is_reserved": 0, "fusion_lat": 0.0}, {"type": "electric_scooter", "rental_uris": {"ios": "https://dc.lft.to/lastmile_qr_scan", "android": "https://dc.lft.to/lastmile_qr_scan"}, "lon": -77.04026666666667, "fusion_lon": 0.0, "is_disabled": 0, "lat": 38.9183805, "bike_id": "2fc5e755bb5b6d9da72eafb104711d00", "name": "2fc5e755bb5b6d9da72eafb104711d00", "is_reserved": 0, "fusion_lat": 0.0}, {"type": "electric_scooter", "rental_uris": {"ios": "https://dc.lft.to/lastmile_qr_scan", "android": "https://dc.lft.to/lastmile_qr_scan"}, "lon": -77.02675866666667, "fusion_lon": 0.0, "is_disabled": 0, "lat": 38.916904833333334, "bike_id": "4a7dcebc21edb2315a3cada80767dc64", "name": "4a7dcebc21edb2315a3cada80767dc64", "is_reserved": 0, "fusion_lat": 0.0}, {"type": "electric_scooter", "rental_uris": {"ios": "https://dc.lft.to/lastmile_qr_scan", "android": "https://dc.lft.to/lastmile_qr_scan"}, "lon": -77.03342566666667, "fusion_lon": 0.0, "is_disabled": 0, "lat": 38.892258, "bike_id": "23bc6b9b71299f16a65f1886b47be94a", "name": "23bc6b9b71299f16a65f1886b47be94a", "is_reserved": 0, "fusion_lat": 0.0}, {"type": "electric_scooter", "rental_uris": {"ios": "https://dc.lft.to/lastmile_qr_scan", "android": "https://dc.lft.to/lastmile_qr_scan"}, "lon": -77.041095, "fusion_lon": 0.0, "is_disabled": 0, "lat": 38.916956666666664, "bike_id": "36e8c9aa6d5bc82222a2b862f44f3d21", "name": "36e8c9aa6d5bc82222a2b862f44f3d21", "is_reserved": 0, "fusion_lat": 0.0}, {"type": "electric_scooter", "rental_uris": {"ios": "https://dc.lft.to/lastmile_qr_scan", "android": "https://dc.lft.to/lastmile_qr_scan"}, "lon": -77.038417, "fusion_lon": 0.0, "is_disabled": 0, "lat": 38.91759783333333, "bike_id": "2def736b5c713d0d561ec9a384f80827", "name": "2def736b5c713d0d561ec9a384f80827", "is_reserved": 0, "fusion_lat": 0.0}, {"type": "electric_scooter", "rental_uris": {"ios": "https://dc.lft.to/lastmile_qr_scan", "android": "https://dc.lft.to/lastmile_qr_scan"}, "lon": -76.91912983333333, "fusion_lon": 0.0, "is_disabled": 0, "lat": 38.885790166666666, "bike_id": "a1b0a186704c5042bad1ba1b991aa6bc", "name": "a1b0a186704c5042bad1ba1b991aa6bc", "is_reserved": 0, "fusion_lat": 0.0}, {"type": "electric_scooter", "rental_uris": {"ios": "https://dc.lft.to/lastmile_qr_scan", "android": "https://dc.lft.to/lastmile_qr_scan"}, "lon": -77.0472045, "fusion_lon": 0.0, "is_disabled": 0, "lat": 38.909493833333336, "bike_id": "930f95d90d9a5e61761b14cbbdbfa697", "name": "930f95d90d9a5e61761b14cbbdbfa697", "is_reserved": 0, "fusion_lat": 0.0}, {"type": "electric_scooter", "rental_uris": {"ios": "https://dc.lft.to/lastmile_qr_scan", "android": "https://dc.lft.to/lastmile_qr_scan"}, "lon": -77.04465566666667, "fusion_lon": 0.0, "is_disabled": 0, "lat": 38.9110615, "bike_id": "abfb195191d86b7ee56be18a754fe455", "name": "abfb195191d86b7ee56be18a754fe455", "is_reserved": 0, "fusion_lat": 0.0}, {"type": "electric_scooter", "rental_uris": {"ios": "https://dc.lft.to/lastmile_qr_scan", "android": "https://dc.lft.to/lastmile_qr_scan"}, "lon": -77.057588, "fusion_lon": 0.0, "is_disabled": 0, "lat": 38.923908833333336, "bike_id": "80277d1953ca623197a4120125b595d6", "name": "80277d1953ca623197a4120125b595d6", "is_reserved": 0, "fusion_lat": 0.0}, {"type": "electric_bike", "rental_uris": {"ios": "https://dc.lft.to/lastmile_qr_scan", "android": "https://dc.lft.to/lastmile_qr_scan"}, "lon": -77.026283, "fusion_lon": 0.0, "is_disabled": 0, "lat": 38.962225833333335, "bike_id": "7bfdd57fcef3e25ba26cf45ab98f27af", "name": "7bfdd57fcef3e25ba26cf45ab98f27af", "is_reserved": 0, "fusion_lat": 0.0}, {"type": "electric_scooter", "rental_uris": {"ios": "https://dc.lft.to/lastmile_qr_scan", "android": "https://dc.lft.to/lastmile_qr_scan"}, "lon": -77.03664183333333, "fusion_lon": 0.0, "is_disabled": 0, "lat": 38.92248283333333, "bike_id": "e79ae131fbd1c11da514a39612deb375", "name": "e79ae131fbd1c11da514a39612deb375", "is_reserved": 0, "fusion_lat": 0.0}, {"type": "electric_scooter", "rental_uris": {"ios": "https://dc.lft.to/lastmile_qr_scan", "android": "https://dc.lft.to/lastmile_qr_scan"}, "lon": -77.020092, "fusion_lon": 0.0, "is_disabled": 0, "lat": 38.924203, "bike_id": "7e2cf1faa8124da239c84e9346255623", "name": "7e2cf1faa8124da239c84e9346255623", "is_reserved": 0, "fusion_lat": 0.0}, {"type": "electric_scooter", "rental_uris": {"ios": "https://dc.lft.to/lastmile_qr_scan", "android": "https://dc.lft.to/lastmile_qr_scan"}, "lon": -77.01382583333333, "fusion_lon": 0.0, "is_disabled": 0, "lat": 38.886589666666666, "bike_id": "e0f56b698353ae192f0f3abd90ad13cf", "name": "e0f56b698353ae192f0f3abd90ad13cf", "is_reserved": 0, "fusion_lat": 0.0}, {"type": "electric_scooter", "rental_uris": {"ios": "https://dc.lft.to/lastmile_qr_scan", "android": "https://dc.lft.to/lastmile_qr_scan"}, "lon": -77.02255783333334, "fusion_lon": 0.0, "is_disabled": 0, "lat": 38.87861933333333, "bike_id": "58140ff6452c27e448914ba5213155a0", "name": "58140ff6452c27e448914ba5213155a0", "is_reserved": 0, "fusion_lat": 0.0}, {"type": "electric_scooter", "rental_uris": {"ios": "https://dc.lft.to/lastmile_qr_scan", "android": "https://dc.lft.to/lastmile_qr_scan"}, "lon": -77.03861433333333, "fusion_lon": 0.0, "is_disabled": 0, "lat": 38.910185166666665, "bike_id": "5ecc44076edeb7ae8919102c9aa8d147", "name": "5ecc44076edeb7ae8919102c9aa8d147", "is_reserved": 0, "fusion_lat": 0.0}, {"type": "electric_bike", "rental_uris": {"ios": "https://dc.lft.to/lastmile_qr_scan", "android": "https://dc.lft.to/lastmile_qr_scan"}, "lon": -77.1077965, "fusion_lon": 0.0, "is_disabled": 0, "lat": 38.892195666666666, "bike_id": "924f890ad1e290c6f043f1b92e6d1786", "name": "924f890ad1e290c6f043f1b92e6d1786", "is_reserved": 0, "fusion_lat": 0.0}, {"type": "electric_scooter", "rental_uris": {"ios": "https://dc.lft.to/lastmile_qr_scan", "android": "https://dc.lft.to/lastmile_qr_scan"}, "lon": -76.96527483333334, "fusion_lon": 0.0, "is_disabled": 0, "lat": 38.87626683333333, "bike_id": "384d7d8cd03bda1ec865df659f5ac1a2", "name": "384d7d8cd03bda1ec865df659f5ac1a2", "is_reserved": 0, "fusion_lat": 0.0}, {"type": "electric_scooter", "rental_uris": {"ios": "https://dc.lft.to/lastmile_qr_scan", "android": "https://dc.lft.to/lastmile_qr_scan"}, "lon": -77.00451766666667, "fusion_lon": 0.0, "is_disabled": 0, "lat": 38.911351333333336, "bike_id": "41076286eb8fd96298a7caf3307d22a2", "name": "41076286eb8fd96298a7caf3307d22a2", "is_reserved": 0, "fusion_lat": 0.0}, {"type": "electric_scooter", "rental_uris": {"ios": "https://dc.lft.to/lastmile_qr_scan", "android": "https://dc.lft.to/lastmile_qr_scan"}, "lon": -77.00603666666666, "fusion_lon": 0.0, "is_disabled": 0, "lat": 38.906265833333336, "bike_id": "39e0268dfc28d6991baefb6dbe934e5c", "name": "39e0268dfc28d6991baefb6dbe934e5c", "is_reserved": 0, "fusion_lat": 0.0}, {"type": "electric_scooter", "rental_uris": {"ios": "https://dc.lft.to/lastmile_qr_scan", "android": "https://dc.lft.to/lastmile_qr_scan"}, "lon": -77.0232165, "fusion_lon": 0.0, "is_disabled": 0, "lat": 38.9022135, "bike_id": "6d20ea16fdc4f39e6dcdbd711052d7c3", "name": "6d20ea16fdc4f39e6dcdbd711052d7c3", "is_reserved": 0, "fusion_lat": 0.0}, {"type": "electric_scooter", "rental_uris": {"ios": "https://dc.lft.to/lastmile_qr_scan", "android": "https://dc.lft.to/lastmile_qr_scan"}, "lon": -77.02169633333334, "fusion_lon": 0.0, "is_disabled": 0, "lat": 38.9429065, "bike_id": "ef976c9331b3ba075361ba66705c496d", "name": "ef976c9331b3ba075361ba66705c496d", "is_reserved": 0, "fusion_lat": 0.0}, {"type": "electric_bike", "rental_uris": {"ios": "https://dc.lft.to/lastmile_qr_scan", "android": "https://dc.lft.to/lastmile_qr_scan"}, "lon": -77.033452, "fusion_lon": 0.0, "is_disabled": 0, "lat": 38.96939833333333, "bike_id": "93f3b0055af0e24b5798fa25737bd827", "name": "93f3b0055af0e24b5798fa25737bd827", "is_reserved": 0, "fusion_lat": 0.0}, {"type": "electric_scooter", "rental_uris": {"ios": "https://dc.lft.to/lastmile_qr_scan", "android": "https://dc.lft.to/lastmile_qr_scan"}, "lon": -76.93137433333334, "fusion_lon": 0.0, "is_disabled": 0, "lat": 38.893443, "bike_id": "d1e9ac1d50dd6036b22fd5998f7acba8", "name": "d1e9ac1d50dd6036b22fd5998f7acba8", "is_reserved": 0, "fusion_lat": 0.0}, {"type": "electric_scooter", "rental_uris": {"ios": "https://dc.lft.to/lastmile_qr_scan", "android": "https://dc.lft.to/lastmile_qr_scan"}, "lon": -77.031962, "fusion_lon": 0.0, "is_disabled": 0, "lat": 38.911685, "bike_id": "946ab9caee0c487b76dc7b57c10d7c45", "name": "946ab9caee0c487b76dc7b57c10d7c45", "is_reserved": 0, "fusion_lat": 0.0}, {"type": "electric_scooter", "rental_uris": {"ios": "https://dc.lft.to/lastmile_qr_scan", "android": "https://dc.lft.to/lastmile_qr_scan"}, "lon": -77.00576633333333, "fusion_lon": 0.0, "is_disabled": 0, "lat": 38.908861, "bike_id": "a893aff2b9d9250c2b24c8194dbb41c0", "name": "a893aff2b9d9250c2b24c8194dbb41c0", "is_reserved": 0, "fusion_lat": 0.0}, {"type": "electric_scooter", "rental_uris": {"ios": "https://dc.lft.to/lastmile_qr_scan", "android": "https://dc.lft.to/lastmile_qr_scan"}, "lon": -76.999364, "fusion_lon": 0.0, "is_disabled": 0, "lat": 38.88976316666667, "bike_id": "e930dcdb193ba1f40f7dda35633a36e3", "name": "e930dcdb193ba1f40f7dda35633a36e3", "is_reserved": 0, "fusion_lat": 0.0}, {"type": "electric_scooter", "rental_uris": {"ios": "https://dc.lft.to/lastmile_qr_scan", "android": "https://dc.lft.to/lastmile_qr_scan"}, "lon": -76.98578966666666, "fusion_lon": 0.0, "is_disabled": 0, "lat": 38.854452, "bike_id": "e55084159e3532512bfc30f9a537f0ce", "name": "e55084159e3532512bfc30f9a537f0ce", "is_reserved": 0, "fusion_lat": 0.0}, {"type": "electric_scooter", "rental_uris": {"ios": "https://dc.lft.to/lastmile_qr_scan", "android": "https://dc.lft.to/lastmile_qr_scan"}, "lon": -77.03120583333333, "fusion_lon": 0.0, "is_disabled": 0, "lat": 38.93769566666667, "bike_id": "a64e6eaf2c346d63b5628b381f7639ee", "name": "a64e6eaf2c346d63b5628b381f7639ee", "is_reserved": 0, "fusion_lat": 0.0}, {"type": "electric_scooter", "rental_uris": {"ios": "https://dc.lft.to/lastmile_qr_scan", "android": "https://dc.lft.to/lastmile_qr_scan"}, "lon": -77.02589966666666, "fusion_lon": 0.0, "is_disabled": 0, "lat": 38.914151, "bike_id": "89f5ee4e1f46374d710438fc73c2aac8", "name": "89f5ee4e1f46374d710438fc73c2aac8", "is_reserved": 0, "fusion_lat": 0.0}, {"type": "electric_scooter", "rental_uris": {"ios": "https://dc.lft.to/lastmile_qr_scan", "android": "https://dc.lft.to/lastmile_qr_scan"}, "lon": -76.998266, "fusion_lon": 0.0, "is_disabled": 0, "lat": 38.88533866666667, "bike_id": "cdd044045f6e4d304ec72123f4929bef", "name": "cdd044045f6e4d304ec72123f4929bef", "is_reserved": 0, "fusion_lat": 0.0}, {"type": "electric_scooter", "rental_uris": {"ios": "https://dc.lft.to/lastmile_qr_scan", "android": "https://dc.lft.to/lastmile_qr_scan"}, "lon": -77.0528025, "fusion_lon": 0.0, "is_disabled": 0, "lat": 38.925420833333334, "bike_id": "51a764ffef9c25000a0137aa65cb694a", "name": "51a764ffef9c25000a0137aa65cb694a", "is_reserved": 0, "fusion_lat": 0.0}, {"type": "electric_bike", "rental_uris": {"ios": "https://dc.lft.to/lastmile_qr_scan", "android": "https://dc.lft.to/lastmile_qr_scan"}, "lon": -76.993535, "fusion_lon": 0.0, "is_disabled": 0, "lat": 38.84506066666667, "bike_id": "e9c375d294ccf04866b4f36c8a395198", "name": "e9c375d294ccf04866b4f36c8a395198", "is_reserved": 0, "fusion_lat": 0.0}, {"type": "electric_scooter", "rental_uris": {"ios": "https://dc.lft.to/lastmile_qr_scan", "android": "https://dc.lft.to/lastmile_qr_scan"}, "lon": -77.02959266666667, "fusion_lon": 0.0, "is_disabled": 0, "lat": 38.93246033333333, "bike_id": "952b85a9deab876416749418740ba5cc", "name": "952b85a9deab876416749418740ba5cc", "is_reserved": 0, "fusion_lat": 0.0}, {"type": "electric_bike", "rental_uris": {"ios": "https://dc.lft.to/lastmile_qr_scan", "android": "https://dc.lft.to/lastmile_qr_scan"}, "lon": -77.03650433333334, "fusion_lon": 0.0, "is_disabled": 0, "lat": 38.95634916666667, "bike_id": "f30961afb3671e0a801cbbedc8826a6a", "name": "f30961afb3671e0a801cbbedc8826a6a", "is_reserved": 0, "fusion_lat": 0.0}, {"type": "electric_scooter", "rental_uris": {"ios": "https://dc.lft.to/lastmile_qr_scan", "android": "https://dc.lft.to/lastmile_qr_scan"}, "lon": -77.02712583333333, "fusion_lon": 0.0, "is_disabled": 0, "lat": 38.906873, "bike_id": "7702467a10153c83517293e083d74c7b", "name": "7702467a10153c83517293e083d74c7b", "is_reserved": 0, "fusion_lat": 0.0}, {"type": "electric_scooter", "rental_uris": {"ios": "https://dc.lft.to/lastmile_qr_scan", "android": "https://dc.lft.to/lastmile_qr_scan"}, "lon": -77.04692233333333, "fusion_lon": 0.0, "is_disabled": 0, "lat": 38.89723166666667, "bike_id": "7761aef0560b7369fde5596a97025ebe", "name": "7761aef0560b7369fde5596a97025ebe", "is_reserved": 0, "fusion_lat": 0.0}, {"type": "electric_scooter", "rental_uris": {"ios": "https://dc.lft.to/lastmile_qr_scan", "android": "https://dc.lft.to/lastmile_qr_scan"}, "lon": -77.03184716666667, "fusion_lon": 0.0, "is_disabled": 0, "lat": 38.89621733333333, "bike_id": "e72fd80bfb0439ae6d247a7cab18e306", "name": "e72fd80bfb0439ae6d247a7cab18e306", "is_reserved": 0, "fusion_lat": 0.0}, {"type": "electric_bike", "rental_uris": {"ios": "https://dc.lft.to/lastmile_qr_scan", "android": "https://dc.lft.to/lastmile_qr_scan"}, "lon": -77.02772666666667, "fusion_lon": 0.0, "is_disabled": 0, "lat": 38.904294666666665, "bike_id": "fae16e2e7fdcded395318158789a0d42", "name": "fae16e2e7fdcded395318158789a0d42", "is_reserved": 0, "fusion_lat": 0.0}, {"type": "electric_bike", "rental_uris": {"ios": "https://dc.lft.to/lastmile_qr_scan", "android": "https://dc.lft.to/lastmile_qr_scan"}, "lon": -77.12487283333333, "fusion_lon": 0.0, "is_disabled": 0, "lat": 38.853949166666666, "bike_id": "a6143b335ac6e9907c44f097a1c55cf4", "name": "a6143b335ac6e9907c44f097a1c55cf4", "is_reserved": 0, "fusion_lat": 0.0}, {"type": "electric_scooter", "rental_uris": {"ios": "https://dc.lft.to/lastmile_qr_scan", "android": "https://dc.lft.to/lastmile_qr_scan"}, "lon": -77.03024416666666, "fusion_lon": 0.0, "is_disabled": 0, "lat": 38.9310565, "bike_id": "c03cbb7734f40c5e98a5387a4fbf6f9d", "name": "c03cbb7734f40c5e98a5387a4fbf6f9d", "is_reserved": 0, "fusion_lat": 0.0}, {"type": "electric_scooter", "rental_uris": {"ios": "https://dc.lft.to/lastmile_qr_scan", "android": "https://dc.lft.to/lastmile_qr_scan"}, "lon": -76.99519316666667, "fusion_lon": 0.0, "is_disabled": 0, "lat": 38.883767666666664, "bike_id": "7e7cea686de3a278f997f107e2965297", "name": "7e7cea686de3a278f997f107e2965297", "is_reserved": 0, "fusion_lat": 0.0}, {"type": "electric_bike", "rental_uris": {"ios": "https://dc.lft.to/lastmile_qr_scan", "android": "https://dc.lft.to/lastmile_qr_scan"}, "lon": -76.9752915, "fusion_lon": 0.0, "is_disabled": 0, "lat": 38.840152833333335, "bike_id": "5ca4a7c2081a3623ff734e3af17b202f", "name": "5ca4a7c2081a3623ff734e3af17b202f", "is_reserved": 0, "fusion_lat": 0.0}, {"type": "electric_scooter", "rental_uris": {"ios": "https://dc.lft.to/lastmile_qr_scan", "android": "https://dc.lft.to/lastmile_qr_scan"}, "lon": -76.9817705, "fusion_lon": 0.0, "is_disabled": 0, "lat": 38.89576183333333, "bike_id": "3c128429aada06b99e0c3e2abeec179a", "name": "3c128429aada06b99e0c3e2abeec179a", "is_reserved": 0, "fusion_lat": 0.0}, {"type": "electric_scooter", "rental_uris": {"ios": "https://dc.lft.to/lastmile_qr_scan", "android": "https://dc.lft.to/lastmile_qr_scan"}, "lon": -77.0282255, "fusion_lon": 0.0, "is_disabled": 0, "lat": 38.887313166666665, "bike_id": "2f0895b03374973b1d86c159e717da89", "name": "2f0895b03374973b1d86c159e717da89", "is_reserved": 0, "fusion_lat": 0.0}, {"type": "electric_bike", "rental_uris": {"ios": "https://dc.lft.to/lastmile_qr_scan", "android": "https://dc.lft.to/lastmile_qr_scan"}, "lon": -76.989939, "fusion_lon": 0.0, "is_disabled": 0, "lat": 38.86387366666666, "bike_id": "8bdc4badf0fd8612ea8acea206a71d06", "name": "8bdc4badf0fd8612ea8acea206a71d06", "is_reserved": 0, "fusion_lat": 0.0}, {"type": "electric_scooter", "rental_uris": {"ios": "https://dc.lft.to/lastmile_qr_scan", "android": "https://dc.lft.to/lastmile_qr_scan"}, "lon": -77.03306633333334, "fusion_lon": 0.0, "is_disabled": 0, "lat": 38.931944, "bike_id": "2998b78e81fdb8c08f91c54a370f3d05", "name": "2998b78e81fdb8c08f91c54a370f3d05", "is_reserved": 0, "fusion_lat": 0.0}, {"type": "electric_bike", "rental_uris": {"ios": "https://dc.lft.to/lastmile_qr_scan", "android": "https://dc.lft.to/lastmile_qr_scan"}, "lon": -76.98289816666667, "fusion_lon": 0.0, "is_disabled": 0, "lat": 38.962777333333335, "bike_id": "f9e6196d5e830ef6f8421a3d05e3dab6", "name": "f9e6196d5e830ef6f8421a3d05e3dab6", "is_reserved": 0, "fusion_lat": 0.0}, {"type": "electric_scooter", "rental_uris": {"ios": "https://dc.lft.to/lastmile_qr_scan", "android": "https://dc.lft.to/lastmile_qr_scan"}, "lon": -76.96682633333333, "fusion_lon": 0.0, "is_disabled": 0, "lat": 38.8695775, "bike_id": "23ca6bd678627a95d02de8c7645c5de6", "name": "23ca6bd678627a95d02de8c7645c5de6", "is_reserved": 0, "fusion_lat": 0.0}, {"type": "electric_scooter", "rental_uris": {"ios": "https://dc.lft.to/lastmile_qr_scan", "android": "https://dc.lft.to/lastmile_qr_scan"}, "lon": -77.026938, "fusion_lon": 0.0, "is_disabled": 0, "lat": 38.906816666666664, "bike_id": "7e0248bda090b863537b96524bf54715", "name": "7e0248bda090b863537b96524bf54715", "is_reserved": 0, "fusion_lat": 0.0}, {"type": "electric_scooter", "rental_uris": {"ios": "https://dc.lft.to/lastmile_qr_scan", "android": "https://dc.lft.to/lastmile_qr_scan"}, "lon": -77.02225583333333, "fusion_lon": 0.0, "is_disabled": 0, "lat": 38.935503, "bike_id": "0794f06dac8768fd2b97535c8ed9f4ea", "name": "0794f06dac8768fd2b97535c8ed9f4ea", "is_reserved": 0, "fusion_lat": 0.0}, {"type": "electric_scooter", "rental_uris": {"ios": "https://dc.lft.to/lastmile_qr_scan", "android": "https://dc.lft.to/lastmile_qr_scan"}, "lon": -77.02168116666667, "fusion_lon": 0.0, "is_disabled": 0, "lat": 38.93073616666667, "bike_id": "0c425ca94568f6aa8364b30e4dcf69ed", "name": "0c425ca94568f6aa8364b30e4dcf69ed", "is_reserved": 0, "fusion_lat": 0.0}, {"type": "electric_scooter", "rental_uris": {"ios": "https://dc.lft.to/lastmile_qr_scan", "android": "https://dc.lft.to/lastmile_qr_scan"}, "lon": -77.07522633333333, "fusion_lon": 0.0, "is_disabled": 0, "lat": 38.939437, "bike_id": "da7d6ad0b0f4c2f6b3875dc14d83a139", "name": "da7d6ad0b0f4c2f6b3875dc14d83a139", "is_reserved": 0, "fusion_lat": 0.0}, {"type": "electric_scooter", "rental_uris": {"ios": "https://dc.lft.to/lastmile_qr_scan", "android": "https://dc.lft.to/lastmile_qr_scan"}, "lon": -77.00928216666667, "fusion_lon": 0.0, "is_disabled": 0, "lat": 38.89544583333333, "bike_id": "7eef3651e47034c121768564cc66b886", "name": "7eef3651e47034c121768564cc66b886", "is_reserved": 0, "fusion_lat": 0.0}, {"type": "electric_scooter", "rental_uris": {"ios": "https://dc.lft.to/lastmile_qr_scan", "android": "https://dc.lft.to/lastmile_qr_scan"}, "lon": -77.02692633333334, "fusion_lon": 0.0, "is_disabled": 0, "lat": 38.925901, "bike_id": "8eb19c3bcb847c3ee40a55d38a80f676", "name": "8eb19c3bcb847c3ee40a55d38a80f676", "is_reserved": 0, "fusion_lat": 0.0}, {"type": "electric_scooter", "rental_uris": {"ios": "https://dc.lft.to/lastmile_qr_scan", "android": "https://dc.lft.to/lastmile_qr_scan"}, "lon": -77.04442133333333, "fusion_lon": 0.0, "is_disabled": 0, "lat": 38.92414133333333, "bike_id": "8ba6bb9e762f3faa9994204c7437e885", "name": "8ba6bb9e762f3faa9994204c7437e885", "is_reserved": 0, "fusion_lat": 0.0}, {"type": "electric_scooter", "rental_uris": {"ios": "https://dc.lft.to/lastmile_qr_scan", "android": "https://dc.lft.to/lastmile_qr_scan"}, "lon": -77.04163716666666, "fusion_lon": 0.0, "is_disabled": 0, "lat": 38.9053155, "bike_id": "f436b096fb73e2a35a2849aac022db0c", "name": "f436b096fb73e2a35a2849aac022db0c", "is_reserved": 0, "fusion_lat": 0.0}, {"type": "electric_scooter", "rental_uris": {"ios": "https://dc.lft.to/lastmile_qr_scan", "android": "https://dc.lft.to/lastmile_qr_scan"}, "lon": -77.03675883333334, "fusion_lon": 0.0, "is_disabled": 0, "lat": 38.91708033333333, "bike_id": "9b2e8cb6a76454f7775b46aa63bd63fa", "name": "9b2e8cb6a76454f7775b46aa63bd63fa", "is_reserved": 0, "fusion_lat": 0.0}, {"type": "electric_scooter", "rental_uris": {"ios": "https://dc.lft.to/lastmile_qr_scan", "android": "https://dc.lft.to/lastmile_qr_scan"}, "lon": -77.03219, "fusion_lon": 0.0, "is_disabled": 0, "lat": 38.8922255, "bike_id": "8723dfe6bbcaeee4fdb801752973d70f", "name": "8723dfe6bbcaeee4fdb801752973d70f", "is_reserved": 0, "fusion_lat": 0.0}, {"type": "electric_scooter", "rental_uris": {"ios": "https://dc.lft.to/lastmile_qr_scan", "android": "https://dc.lft.to/lastmile_qr_scan"}, "lon": -77.02407716666667, "fusion_lon": 0.0, "is_disabled": 0, "lat": 38.9571225, "bike_id": "ff5e9a4393ba1353c4a22b794f60a006", "name": "ff5e9a4393ba1353c4a22b794f60a006", "is_reserved": 0, "fusion_lat": 0.0}, {"type": "electric_scooter", "rental_uris": {"ios": "https://dc.lft.to/lastmile_qr_scan", "android": "https://dc.lft.to/lastmile_qr_scan"}, "lon": -77.04160433333334, "fusion_lon": 0.0, "is_disabled": 0, "lat": 38.9053495, "bike_id": "f12112fd07068c9670cc14785b5fc1f9", "name": "f12112fd07068c9670cc14785b5fc1f9", "is_reserved": 0, "fusion_lat": 0.0}, {"type": "electric_scooter", "rental_uris": {"ios": "https://dc.lft.to/lastmile_qr_scan", "android": "https://dc.lft.to/lastmile_qr_scan"}, "lon": -77.027773, "fusion_lon": 0.0, "is_disabled": 0, "lat": 38.89937166666667, "bike_id": "e43e6f55eaea9c0c60ff779189885553", "name": "e43e6f55eaea9c0c60ff779189885553", "is_reserved": 0, "fusion_lat": 0.0}, {"type": "electric_scooter", "rental_uris": {"ios": "https://dc.lft.to/lastmile_qr_scan", "android": "https://dc.lft.to/lastmile_qr_scan"}, "lon": -77.00371883333334, "fusion_lon": 0.0, "is_disabled": 0, "lat": 38.88263233333333, "bike_id": "79fc9bf508e4545e4638dd101914025e", "name": "79fc9bf508e4545e4638dd101914025e", "is_reserved": 0, "fusion_lat": 0.0}, {"type": "electric_scooter", "rental_uris": {"ios": "https://dc.lft.to/lastmile_qr_scan", "android": "https://dc.lft.to/lastmile_qr_scan"}, "lon": -77.04338216666666, "fusion_lon": 0.0, "is_disabled": 0, "lat": 38.90524833333333, "bike_id": "44d520d9893c8b74b630a7ba900df3ca", "name": "44d520d9893c8b74b630a7ba900df3ca", "is_reserved": 0, "fusion_lat": 0.0}, {"type": "electric_scooter", "rental_uris": {"ios": "https://dc.lft.to/lastmile_qr_scan", "android": "https://dc.lft.to/lastmile_qr_scan"}, "lon": -77.03659166666667, "fusion_lon": 0.0, "is_disabled": 0, "lat": 38.91865683333333, "bike_id": "ae00c47f9087eccd04421b31bac775f7", "name": "ae00c47f9087eccd04421b31bac775f7", "is_reserved": 0, "fusion_lat": 0.0}, {"type": "electric_bike", "rental_uris": {"ios": "https://dc.lft.to/lastmile_qr_scan", "android": "https://dc.lft.to/lastmile_qr_scan"}, "lon": -77.03596716666667, "fusion_lon": 0.0, "is_disabled": 0, "lat": 38.906950333333334, "bike_id": "025032faeb431cb41f55e070cae37a8c", "name": "025032faeb431cb41f55e070cae37a8c", "is_reserved": 0, "fusion_lat": 0.0}, {"type": "electric_scooter", "rental_uris": {"ios": "https://dc.lft.to/lastmile_qr_scan", "android": "https://dc.lft.to/lastmile_qr_scan"}, "lon": -77.03852933333333, "fusion_lon": 0.0, "is_disabled": 0, "lat": 38.91237783333333, "bike_id": "b76e9ce9e5f6eea4e0124006c4a1a828", "name": "b76e9ce9e5f6eea4e0124006c4a1a828", "is_reserved": 0, "fusion_lat": 0.0}, {"type": "electric_scooter", "rental_uris": {"ios": "https://dc.lft.to/lastmile_qr_scan", "android": "https://dc.lft.to/lastmile_qr_scan"}, "lon": -77.02987116666667, "fusion_lon": 0.0, "is_disabled": 0, "lat": 38.93063433333333, "bike_id": "eed2a91f3d0f6ea67ec5442794eb6515", "name": "eed2a91f3d0f6ea67ec5442794eb6515", "is_reserved": 0, "fusion_lat": 0.0}, {"type": "electric_scooter", "rental_uris": {"ios": "https://dc.lft.to/lastmile_qr_scan", "android": "https://dc.lft.to/lastmile_qr_scan"}, "lon": -77.01081316666667, "fusion_lon": 0.0, "is_disabled": 0, "lat": 38.907302333333334, "bike_id": "f147be66c5b725ad2644d94348b84553", "name": "f147be66c5b725ad2644d94348b84553", "is_reserved": 0, "fusion_lat": 0.0}, {"type": "electric_scooter", "rental_uris": {"ios": "https://dc.lft.to/lastmile_qr_scan", "android": "https://dc.lft.to/lastmile_qr_scan"}, "lon": -77.00394166666666, "fusion_lon": 0.0, "is_disabled": 0, "lat": 38.90572783333333, "bike_id": "bff577576d3ed68142a3389abb14cece", "name": "bff577576d3ed68142a3389abb14cece", "is_reserved": 0, "fusion_lat": 0.0}, {"type": "electric_scooter", "rental_uris": {"ios": "https://dc.lft.to/lastmile_qr_scan", "android": "https://dc.lft.to/lastmile_qr_scan"}, "lon": -76.9541545, "fusion_lon": 0.0, "is_disabled": 0, "lat": 38.89001583333334, "bike_id": "5876435b7092f4cdd2cf1480345c15a4", "name": "5876435b7092f4cdd2cf1480345c15a4", "is_reserved": 0, "fusion_lat": 0.0}, {"type": "electric_scooter", "rental_uris": {"ios": "https://dc.lft.to/lastmile_qr_scan", "android": "https://dc.lft.to/lastmile_qr_scan"}, "lon": -77.0417435, "fusion_lon": 0.0, "is_disabled": 0, "lat": 38.91548433333333, "bike_id": "003fc59580b4d030ffd9553eb277c41e", "name": "003fc59580b4d030ffd9553eb277c41e", "is_reserved": 0, "fusion_lat": 0.0}, {"type": "electric_scooter", "rental_uris": {"ios": "https://dc.lft.to/lastmile_qr_scan", "android": "https://dc.lft.to/lastmile_qr_scan"}, "lon": -76.948931, "fusion_lon": 0.0, "is_disabled": 0, "lat": 38.895275, "bike_id": "b2aeb3957975e8b9f92ec5b4cb7b19f5", "name": "b2aeb3957975e8b9f92ec5b4cb7b19f5", "is_reserved": 0, "fusion_lat": 0.0}, {"type": "electric_scooter", "rental_uris": {"ios": "https://dc.lft.to/lastmile_qr_scan", "android": "https://dc.lft.to/lastmile_qr_scan"}, "lon": -76.99418, "fusion_lon": 0.0, "is_disabled": 0, "lat": 38.87795116666667, "bike_id": "3e293e998cf082f0068f124a47e0d56e", "name": "3e293e998cf082f0068f124a47e0d56e", "is_reserved": 0, "fusion_lat": 0.0}, {"type": "electric_bike", "rental_uris": {"ios": "https://dc.lft.to/lastmile_qr_scan", "android": "https://dc.lft.to/lastmile_qr_scan"}, "lon": -77.06079966666667, "fusion_lon": 0.0, "is_disabled": 0, "lat": 38.88579933333333, "bike_id": "d83ddd1fb3af3869beb93f4a2be00d7a", "name": "d83ddd1fb3af3869beb93f4a2be00d7a", "is_reserved": 0, "fusion_lat": 0.0}, {"type": "electric_scooter", "rental_uris": {"ios": "https://dc.lft.to/lastmile_qr_scan", "android": "https://dc.lft.to/lastmile_qr_scan"}, "lon": -77.03101333333333, "fusion_lon": 0.0, "is_disabled": 0, "lat": 38.938565, "bike_id": "629987de175a4f4621c3f2cc5fe84321", "name": "629987de175a4f4621c3f2cc5fe84321", "is_reserved": 0, "fusion_lat": 0.0}, {"type": "electric_scooter", "rental_uris": {"ios": "https://dc.lft.to/lastmile_qr_scan", "android": "https://dc.lft.to/lastmile_qr_scan"}, "lon": -77.02198733333333, "fusion_lon": 0.0, "is_disabled": 0, "lat": 38.911336666666664, "bike_id": "4d598c5c8ead8ba49d75b8e6ccfa72f5", "name": "4d598c5c8ead8ba49d75b8e6ccfa72f5", "is_reserved": 0, "fusion_lat": 0.0}, {"type": "electric_scooter", "rental_uris": {"ios": "https://dc.lft.to/lastmile_qr_scan", "android": "https://dc.lft.to/lastmile_qr_scan"}, "lon": -77.02502716666666, "fusion_lon": 0.0, "is_disabled": 0, "lat": 38.91943033333333, "bike_id": "feddefd1e5ea30d962a5bed3be634eea", "name": "feddefd1e5ea30d962a5bed3be634eea", "is_reserved": 0, "fusion_lat": 0.0}, {"type": "electric_bike", "rental_uris": {"ios": "https://dc.lft.to/lastmile_qr_scan", "android": "https://dc.lft.to/lastmile_qr_scan"}, "lon": -77.09478633333333, "fusion_lon": 0.0, "is_disabled": 0, "lat": 39.0304295, "bike_id": "e9f0b4683e7a8c59dac281125862e3f8", "name": "e9f0b4683e7a8c59dac281125862e3f8", "is_reserved": 0, "fusion_lat": 0.0}, {"type": "electric_scooter", "rental_uris": {"ios": "https://dc.lft.to/lastmile_qr_scan", "android": "https://dc.lft.to/lastmile_qr_scan"}, "lon": -77.03276083333333, "fusion_lon": 0.0, "is_disabled": 0, "lat": 38.90767133333333, "bike_id": "346b90ff4dd7622e4ad25480c606f9b5", "name": "346b90ff4dd7622e4ad25480c606f9b5", "is_reserved": 0, "fusion_lat": 0.0}, {"type": "electric_scooter", "rental_uris": {"ios": "https://dc.lft.to/lastmile_qr_scan", "android": "https://dc.lft.to/lastmile_qr_scan"}, "lon": -77.01165516666667, "fusion_lon": 0.0, "is_disabled": 0, "lat": 38.90021216666667, "bike_id": "33d396d80d1c66c8b353b89dd6128fcf", "name": "33d396d80d1c66c8b353b89dd6128fcf", "is_reserved": 0, "fusion_lat": 0.0}, {"type": "electric_bike", "rental_uris": {"ios": "https://dc.lft.to/lastmile_qr_scan", "android": "https://dc.lft.to/lastmile_qr_scan"}, "lon": -77.13093966666666, "fusion_lon": 0.0, "is_disabled": 0, "lat": 39.0243945, "bike_id": "b2cd06966fc28f65b424bd9ea52a3a08", "name": "b2cd06966fc28f65b424bd9ea52a3a08", "is_reserved": 0, "fusion_lat": 0.0}, {"type": "electric_scooter", "rental_uris": {"ios": "https://dc.lft.to/lastmile_qr_scan", "android": "https://dc.lft.to/lastmile_qr_scan"}, "lon": -77.0265405, "fusion_lon": 0.0, "is_disabled": 0, "lat": 38.892206, "bike_id": "8432015bdac990690f405b482d11ffdb", "name": "8432015bdac990690f405b482d11ffdb", "is_reserved": 0, "fusion_lat": 0.0}, {"type": "electric_scooter", "rental_uris": {"ios": "https://dc.lft.to/lastmile_qr_scan", "android": "https://dc.lft.to/lastmile_qr_scan"}, "lon": -77.0284785, "fusion_lon": 0.0, "is_disabled": 0, "lat": 38.96113783333333, "bike_id": "5ec711339b0eaa2ac11524accd5b9eb4", "name": "5ec711339b0eaa2ac11524accd5b9eb4", "is_reserved": 0, "fusion_lat": 0.0}, {"type": "electric_scooter", "rental_uris": {"ios": "https://dc.lft.to/lastmile_qr_scan", "android": "https://dc.lft.to/lastmile_qr_scan"}, "lon": -77.03731833333333, "fusion_lon": 0.0, "is_disabled": 0, "lat": 38.917101833333334, "bike_id": "2c9bd0c8a3283c67c5b9bd869dda93f7", "name": "2c9bd0c8a3283c67c5b9bd869dda93f7", "is_reserved": 0, "fusion_lat": 0.0}, {"type": "electric_scooter", "rental_uris": {"ios": "https://dc.lft.to/lastmile_qr_scan", "android": "https://dc.lft.to/lastmile_qr_scan"}, "lon": -77.03343166666667, "fusion_lon": 0.0, "is_disabled": 0, "lat": 38.892225, "bike_id": "c735df7cc5045506748b1fb3e73b2fae", "name": "c735df7cc5045506748b1fb3e73b2fae", "is_reserved": 0, "fusion_lat": 0.0}, {"type": "electric_scooter", "rental_uris": {"ios": "https://dc.lft.to/lastmile_qr_scan", "android": "https://dc.lft.to/lastmile_qr_scan"}, "lon": -77.02223666666667, "fusion_lon": 0.0, "is_disabled": 0, "lat": 38.9127795, "bike_id": "5c515e4aba8aa96a8eb9fcec32ed1520", "name": "5c515e4aba8aa96a8eb9fcec32ed1520", "is_reserved": 0, "fusion_lat": 0.0}, {"type": "electric_scooter", "rental_uris": {"ios": "https://dc.lft.to/lastmile_qr_scan", "android": "https://dc.lft.to/lastmile_qr_scan"}, "lon": -77.03538566666667, "fusion_lon": 0.0, "is_disabled": 0, "lat": 38.92642133333333, "bike_id": "19900470f0a2f7d3c29601bcf49a3149", "name": "19900470f0a2f7d3c29601bcf49a3149", "is_reserved": 0, "fusion_lat": 0.0}, {"type": "electric_scooter", "rental_uris": {"ios": "https://dc.lft.to/lastmile_qr_scan", "android": "https://dc.lft.to/lastmile_qr_scan"}, "lon": -77.02802983333333, "fusion_lon": 0.0, "is_disabled": 0, "lat": 38.892335833333334, "bike_id": "c48413284075e61f836224fadc6a9502", "name": "c48413284075e61f836224fadc6a9502", "is_reserved": 0, "fusion_lat": 0.0}, {"type": "electric_scooter", "rental_uris": {"ios": "https://dc.lft.to/lastmile_qr_scan", "android": "https://dc.lft.to/lastmile_qr_scan"}, "lon": -77.02714666666667, "fusion_lon": 0.0, "is_disabled": 0, "lat": 38.907375, "bike_id": "63435030be60109dced5b8e7baa28e68", "name": "63435030be60109dced5b8e7baa28e68", "is_reserved": 0, "fusion_lat": 0.0}, {"type": "electric_scooter", "rental_uris": {"ios": "https://dc.lft.to/lastmile_qr_scan", "android": "https://dc.lft.to/lastmile_qr_scan"}, "lon": -77.02788616666666, "fusion_lon": 0.0, "is_disabled": 0, "lat": 38.897453, "bike_id": "ae23293d75131709e8061732e2d35b50", "name": "ae23293d75131709e8061732e2d35b50", "is_reserved": 0, "fusion_lat": 0.0}, {"type": "electric_scooter", "rental_uris": {"ios": "https://dc.lft.to/lastmile_qr_scan", "android": "https://dc.lft.to/lastmile_qr_scan"}, "lon": -77.04328383333333, "fusion_lon": 0.0, "is_disabled": 0, "lat": 38.892250833333335, "bike_id": "e2978e19867a0212468e168e944f125e", "name": "e2978e19867a0212468e168e944f125e", "is_reserved": 0, "fusion_lat": 0.0}, {"type": "electric_scooter", "rental_uris": {"ios": "https://dc.lft.to/lastmile_qr_scan", "android": "https://dc.lft.to/lastmile_qr_scan"}, "lon": -77.013748, "fusion_lon": 0.0, "is_disabled": 0, "lat": 38.892222833333335, "bike_id": "aa180ef329ad80e62145c40a15887c00", "name": "aa180ef329ad80e62145c40a15887c00", "is_reserved": 0, "fusion_lat": 0.0}, {"type": "electric_scooter", "rental_uris": {"ios": "https://dc.lft.to/lastmile_qr_scan", "android": "https://dc.lft.to/lastmile_qr_scan"}, "lon": -77.0248245, "fusion_lon": 0.0, "is_disabled": 0, "lat": 38.918999166666666, "bike_id": "bcd90c542ad4d38df1673acd53774201", "name": "bcd90c542ad4d38df1673acd53774201", "is_reserved": 0, "fusion_lat": 0.0}, {"type": "electric_scooter", "rental_uris": {"ios": "https://dc.lft.to/lastmile_qr_scan", "android": "https://dc.lft.to/lastmile_qr_scan"}, "lon": -76.989299, "fusion_lon": 0.0, "is_disabled": 0, "lat": 38.840746833333334, "bike_id": "b801c7b161091208a6e54783f9698693", "name": "b801c7b161091208a6e54783f9698693", "is_reserved": 0, "fusion_lat": 0.0}, {"type": "electric_scooter", "rental_uris": {"ios": "https://dc.lft.to/lastmile_qr_scan", "android": "https://dc.lft.to/lastmile_qr_scan"}, "lon": -77.02186733333333, "fusion_lon": 0.0, "is_disabled": 0, "lat": 38.90976033333333, "bike_id": "78cdc8cda80a021d6fd294ebb7df673f", "name": "78cdc8cda80a021d6fd294ebb7df673f", "is_reserved": 0, "fusion_lat": 0.0}, {"type": "electric_scooter", "rental_uris": {"ios": "https://dc.lft.to/lastmile_qr_scan", "android": "https://dc.lft.to/lastmile_qr_scan"}, "lon": -77.03873, "fusion_lon": 0.0, "is_disabled": 0, "lat": 38.91559083333333, "bike_id": "964e6e6a492182724d75b77f3664f50d", "name": "964e6e6a492182724d75b77f3664f50d", "is_reserved": 0, "fusion_lat": 0.0}, {"type": "electric_scooter", "rental_uris": {"ios": "https://dc.lft.to/lastmile_qr_scan", "android": "https://dc.lft.to/lastmile_qr_scan"}, "lon": -77.026986, "fusion_lon": 0.0, "is_disabled": 0, "lat": 38.906810666666665, "bike_id": "39f9c60111cf256b25890b944c8b1695", "name": "39f9c60111cf256b25890b944c8b1695", "is_reserved": 0, "fusion_lat": 0.0}, {"type": "electric_scooter", "rental_uris": {"ios": "https://dc.lft.to/lastmile_qr_scan", "android": "https://dc.lft.to/lastmile_qr_scan"}, "lon": -77.0297125, "fusion_lon": 0.0, "is_disabled": 0, "lat": 38.9167925, "bike_id": "5fcf67361b2b1f4985902915325eb2bb", "name": "5fcf67361b2b1f4985902915325eb2bb", "is_reserved": 0, "fusion_lat": 0.0}, {"type": "electric_bike", "rental_uris": {"ios": "https://dc.lft.to/lastmile_qr_scan", "android": "https://dc.lft.to/lastmile_qr_scan"}, "lon": -77.10128183333333, "fusion_lon": 0.0, "is_disabled": 0, "lat": 38.85209866666667, "bike_id": "a50d6aaa3413e015b24815e1c967f84d", "name": "a50d6aaa3413e015b24815e1c967f84d", "is_reserved": 0, "fusion_lat": 0.0}, {"type": "electric_scooter", "rental_uris": {"ios": "https://dc.lft.to/lastmile_qr_scan", "android": "https://dc.lft.to/lastmile_qr_scan"}, "lon": -77.01482483333334, "fusion_lon": 0.0, "is_disabled": 0, "lat": 38.88815666666667, "bike_id": "4a07ab0b9ce70cfcf656ac1ba073baf8", "name": "4a07ab0b9ce70cfcf656ac1ba073baf8", "is_reserved": 0, "fusion_lat": 0.0}, {"type": "electric_scooter", "rental_uris": {"ios": "https://dc.lft.to/lastmile_qr_scan", "android": "https://dc.lft.to/lastmile_qr_scan"}, "lon": -77.02410583333334, "fusion_lon": 0.0, "is_disabled": 0, "lat": 38.891990666666665, "bike_id": "7e00171623b30baf73104db736bbb420", "name": "7e00171623b30baf73104db736bbb420", "is_reserved": 0, "fusion_lat": 0.0}, {"type": "electric_scooter", "rental_uris": {"ios": "https://dc.lft.to/lastmile_qr_scan", "android": "https://dc.lft.to/lastmile_qr_scan"}, "lon": -77.02610933333334, "fusion_lon": 0.0, "is_disabled": 0, "lat": 38.9056385, "bike_id": "8d6f1558ec6fa856d36e68debcde3c30", "name": "8d6f1558ec6fa856d36e68debcde3c30", "is_reserved": 0, "fusion_lat": 0.0}, {"type": "electric_scooter", "rental_uris": {"ios": "https://dc.lft.to/lastmile_qr_scan", "android": "https://dc.lft.to/lastmile_qr_scan"}, "lon": -77.02910716666666, "fusion_lon": 0.0, "is_disabled": 0, "lat": 38.925724833333334, "bike_id": "f54feca236c3c2ef9ea36f1e67938a23", "name": "f54feca236c3c2ef9ea36f1e67938a23", "is_reserved": 0, "fusion_lat": 0.0}, {"type": "electric_bike", "rental_uris": {"ios": "https://dc.lft.to/lastmile_qr_scan", "android": "https://dc.lft.to/lastmile_qr_scan"}, "lon": -77.03419183333334, "fusion_lon": 0.0, "is_disabled": 0, "lat": 38.92426016666667, "bike_id": "985e6a1a35c19bb2c60b120c3c570101", "name": "985e6a1a35c19bb2c60b120c3c570101", "is_reserved": 0, "fusion_lat": 0.0}, {"type": "electric_scooter", "rental_uris": {"ios": "https://dc.lft.to/lastmile_qr_scan", "android": "https://dc.lft.to/lastmile_qr_scan"}, "lon": -77.0176485, "fusion_lon": 0.0, "is_disabled": 0, "lat": 38.87720216666666, "bike_id": "8bc96eecb0043a7a4fdad09bc98a005c", "name": "8bc96eecb0043a7a4fdad09bc98a005c", "is_reserved": 0, "fusion_lat": 0.0}, {"type": "electric_scooter", "rental_uris": {"ios": "https://dc.lft.to/lastmile_qr_scan", "android": "https://dc.lft.to/lastmile_qr_scan"}, "lon": -77.03099316666666, "fusion_lon": 0.0, "is_disabled": 0, "lat": 38.879204, "bike_id": "5243ac1702001d9f14a63bcbe53eb3b1", "name": "5243ac1702001d9f14a63bcbe53eb3b1", "is_reserved": 0, "fusion_lat": 0.0}, {"type": "electric_scooter", "rental_uris": {"ios": "https://dc.lft.to/lastmile_qr_scan", "android": "https://dc.lft.to/lastmile_qr_scan"}, "lon": -77.04097816666666, "fusion_lon": 0.0, "is_disabled": 0, "lat": 38.90489866666667, "bike_id": "b63e6e7831330f217193543782f903ea", "name": "b63e6e7831330f217193543782f903ea", "is_reserved": 0, "fusion_lat": 0.0}, {"type": "electric_scooter", "rental_uris": {"ios": "https://dc.lft.to/lastmile_qr_scan", "android": "https://dc.lft.to/lastmile_qr_scan"}, "lon": -76.93183933333333, "fusion_lon": 0.0, "is_disabled": 0, "lat": 38.898757333333336, "bike_id": "720ee2e862ccb8008ea210ef8c6f13a9", "name": "720ee2e862ccb8008ea210ef8c6f13a9", "is_reserved": 0, "fusion_lat": 0.0}, {"type": "electric_scooter", "rental_uris": {"ios": "https://dc.lft.to/lastmile_qr_scan", "android": "https://dc.lft.to/lastmile_qr_scan"}, "lon": -77.026962, "fusion_lon": 0.0, "is_disabled": 0, "lat": 38.9182685, "bike_id": "5ebd3301a68f36b1eb3058cbfe1bbe10", "name": "5ebd3301a68f36b1eb3058cbfe1bbe10", "is_reserved": 0, "fusion_lat": 0.0}, {"type": "electric_scooter", "rental_uris": {"ios": "https://dc.lft.to/lastmile_qr_scan", "android": "https://dc.lft.to/lastmile_qr_scan"}, "lon": -77.032026, "fusion_lon": 0.0, "is_disabled": 0, "lat": 38.909509166666666, "bike_id": "84340720bd942163f369f3e39409c8eb", "name": "84340720bd942163f369f3e39409c8eb", "is_reserved": 0, "fusion_lat": 0.0}, {"type": "electric_scooter", "rental_uris": {"ios": "https://dc.lft.to/lastmile_qr_scan", "android": "https://dc.lft.to/lastmile_qr_scan"}, "lon": -77.02663, "fusion_lon": 0.0, "is_disabled": 0, "lat": 38.91708166666667, "bike_id": "8e86da3578a6fff29c483f2089ea61fd", "name": "8e86da3578a6fff29c483f2089ea61fd", "is_reserved": 0, "fusion_lat": 0.0}, {"type": "electric_scooter", "rental_uris": {"ios": "https://dc.lft.to/lastmile_qr_scan", "android": "https://dc.lft.to/lastmile_qr_scan"}, "lon": -77.03403533333334, "fusion_lon": 0.0, "is_disabled": 0, "lat": 38.9071915, "bike_id": "4240be220e99661302b7514e42fe970b", "name": "4240be220e99661302b7514e42fe970b", "is_reserved": 0, "fusion_lat": 0.0}, {"type": "electric_scooter", "rental_uris": {"ios": "https://dc.lft.to/lastmile_qr_scan", "android": "https://dc.lft.to/lastmile_qr_scan"}, "lon": -77.0415035, "fusion_lon": 0.0, "is_disabled": 0, "lat": 38.892207, "bike_id": "c7a2f737f69d985e1e8046eb1aee0cd3", "name": "c7a2f737f69d985e1e8046eb1aee0cd3", "is_reserved": 0, "fusion_lat": 0.0}, {"type": "electric_scooter", "rental_uris": {"ios": "https://dc.lft.to/lastmile_qr_scan", "android": "https://dc.lft.to/lastmile_qr_scan"}, "lon": -76.96540233333333, "fusion_lon": 0.0, "is_disabled": 0, "lat": 38.918467, "bike_id": "1173010ded3120e83a35e553c6ada14b", "name": "1173010ded3120e83a35e553c6ada14b", "is_reserved": 0, "fusion_lat": 0.0}, {"type": "electric_scooter", "rental_uris": {"ios": "https://dc.lft.to/lastmile_qr_scan", "android": "https://dc.lft.to/lastmile_qr_scan"}, "lon": -77.06030066666666, "fusion_lon": 0.0, "is_disabled": 0, "lat": 38.90229816666667, "bike_id": "106e979ad6993285aaf3a5fe2a7dd21d", "name": "106e979ad6993285aaf3a5fe2a7dd21d", "is_reserved": 0, "fusion_lat": 0.0}, {"type": "electric_scooter", "rental_uris": {"ios": "https://dc.lft.to/lastmile_qr_scan", "android": "https://dc.lft.to/lastmile_qr_scan"}, "lon": -77.0525105, "fusion_lon": 0.0, "is_disabled": 0, "lat": 38.925360833333336, "bike_id": "c96e2d93366b6faff48d00b22dd45193", "name": "c96e2d93366b6faff48d00b22dd45193", "is_reserved": 0, "fusion_lat": 0.0}, {"type": "electric_scooter", "rental_uris": {"ios": "https://dc.lft.to/lastmile_qr_scan", "android": "https://dc.lft.to/lastmile_qr_scan"}, "lon": -77.02793083333333, "fusion_lon": 0.0, "is_disabled": 0, "lat": 38.930827666666666, "bike_id": "f71dbb441ec4fd07bee4f1d1757df926", "name": "f71dbb441ec4fd07bee4f1d1757df926", "is_reserved": 0, "fusion_lat": 0.0}, {"type": "electric_scooter", "rental_uris": {"ios": "https://dc.lft.to/lastmile_qr_scan", "android": "https://dc.lft.to/lastmile_qr_scan"}, "lon": -77.03640616666667, "fusion_lon": 0.0, "is_disabled": 0, "lat": 38.93278266666667, "bike_id": "b29703603520ef25b9634d65f430f074", "name": "b29703603520ef25b9634d65f430f074", "is_reserved": 0, "fusion_lat": 0.0}, {"type": "electric_scooter", "rental_uris": {"ios": "https://dc.lft.to/lastmile_qr_scan", "android": "https://dc.lft.to/lastmile_qr_scan"}, "lon": -77.0341965, "fusion_lon": 0.0, "is_disabled": 0, "lat": 38.909796666666665, "bike_id": "2f7dbc3012a1c06659bc4ef3013eebc8", "name": "2f7dbc3012a1c06659bc4ef3013eebc8", "is_reserved": 0, "fusion_lat": 0.0}, {"type": "electric_scooter", "rental_uris": {"ios": "https://dc.lft.to/lastmile_qr_scan", "android": "https://dc.lft.to/lastmile_qr_scan"}, "lon": -77.03294116666666, "fusion_lon": 0.0, "is_disabled": 0, "lat": 38.920602, "bike_id": "ab09af31989e22fc5cf36d889ff62c0a", "name": "ab09af31989e22fc5cf36d889ff62c0a", "is_reserved": 0, "fusion_lat": 0.0}, {"type": "electric_scooter", "rental_uris": {"ios": "https://dc.lft.to/lastmile_qr_scan", "android": "https://dc.lft.to/lastmile_qr_scan"}, "lon": -77.0218675, "fusion_lon": 0.0, "is_disabled": 0, "lat": 38.9062425, "bike_id": "a935a25b3d7e45655704a8a77695b8c4", "name": "a935a25b3d7e45655704a8a77695b8c4", "is_reserved": 0, "fusion_lat": 0.0}, {"type": "electric_scooter", "rental_uris": {"ios": "https://dc.lft.to/lastmile_qr_scan", "android": "https://dc.lft.to/lastmile_qr_scan"}, "lon": -77.05022216666667, "fusion_lon": 0.0, "is_disabled": 0, "lat": 38.92354683333333, "bike_id": "2e8e70e35a77bdd38f7799c6112f02a1", "name": "2e8e70e35a77bdd38f7799c6112f02a1", "is_reserved": 0, "fusion_lat": 0.0}, {"type": "electric_scooter", "rental_uris": {"ios": "https://dc.lft.to/lastmile_qr_scan", "android": "https://dc.lft.to/lastmile_qr_scan"}, "lon": -77.02534816666666, "fusion_lon": 0.0, "is_disabled": 0, "lat": 38.914806, "bike_id": "e968b4b0f132e6c8639dfd43c32225c6", "name": "e968b4b0f132e6c8639dfd43c32225c6", "is_reserved": 0, "fusion_lat": 0.0}, {"type": "electric_bike", "rental_uris": {"ios": "https://dc.lft.to/lastmile_qr_scan", "android": "https://dc.lft.to/lastmile_qr_scan"}, "lon": -76.9638615, "fusion_lon": 0.0, "is_disabled": 0, "lat": 38.897103, "bike_id": "0db7d7593859e4c4ba2019d7cdcd734e", "name": "0db7d7593859e4c4ba2019d7cdcd734e", "is_reserved": 0, "fusion_lat": 0.0}, {"type": "electric_scooter", "rental_uris": {"ios": "https://dc.lft.to/lastmile_qr_scan", "android": "https://dc.lft.to/lastmile_qr_scan"}, "lon": -77.0376195, "fusion_lon": 0.0, "is_disabled": 0, "lat": 38.935806, "bike_id": "c5c449d81a4dff6c17b8e1a0c875303f", "name": "c5c449d81a4dff6c17b8e1a0c875303f", "is_reserved": 0, "fusion_lat": 0.0}, {"type": "electric_scooter", "rental_uris": {"ios": "https://dc.lft.to/lastmile_qr_scan", "android": "https://dc.lft.to/lastmile_qr_scan"}, "lon": -77.03183116666666, "fusion_lon": 0.0, "is_disabled": 0, "lat": 38.892294666666665, "bike_id": "9fb8509dd020054807fe52246efeadd7", "name": "9fb8509dd020054807fe52246efeadd7", "is_reserved": 0, "fusion_lat": 0.0}, {"type": "electric_bike", "rental_uris": {"ios": "https://dc.lft.to/lastmile_qr_scan", "android": "https://dc.lft.to/lastmile_qr_scan"}, "lon": -77.01196366666667, "fusion_lon": 0.0, "is_disabled": 0, "lat": 38.950747666666665, "bike_id": "c33b57377022b7611c2b257c8fecc8e9", "name": "c33b57377022b7611c2b257c8fecc8e9", "is_reserved": 0, "fusion_lat": 0.0}, {"type": "electric_scooter", "rental_uris": {"ios": "https://dc.lft.to/lastmile_qr_scan", "android": "https://dc.lft.to/lastmile_qr_scan"}, "lon": -77.03828683333333, "fusion_lon": 0.0, "is_disabled": 0, "lat": 38.91110533333333, "bike_id": "55fec089cd186613034e0b09b0d73213", "name": "55fec089cd186613034e0b09b0d73213", "is_reserved": 0, "fusion_lat": 0.0}, {"type": "electric_scooter", "rental_uris": {"ios": "https://dc.lft.to/lastmile_qr_scan", "android": "https://dc.lft.to/lastmile_qr_scan"}, "lon": -77.043762, "fusion_lon": 0.0, "is_disabled": 0, "lat": 38.921439666666664, "bike_id": "55613f745a548f4e19a5a20d8ed6d7ab", "name": "55613f745a548f4e19a5a20d8ed6d7ab", "is_reserved": 0, "fusion_lat": 0.0}, {"type": "electric_scooter", "rental_uris": {"ios": "https://dc.lft.to/lastmile_qr_scan", "android": "https://dc.lft.to/lastmile_qr_scan"}, "lon": -77.04157683333334, "fusion_lon": 0.0, "is_disabled": 0, "lat": 38.902899833333336, "bike_id": "3d06b03531fb501e99b648403c6715f4", "name": "3d06b03531fb501e99b648403c6715f4", "is_reserved": 0, "fusion_lat": 0.0}, {"type": "electric_scooter", "rental_uris": {"ios": "https://dc.lft.to/lastmile_qr_scan", "android": "https://dc.lft.to/lastmile_qr_scan"}, "lon": -77.0175485, "fusion_lon": 0.0, "is_disabled": 0, "lat": 38.902593333333336, "bike_id": "f45ec9d63bc8f63f516c139894cd322e", "name": "f45ec9d63bc8f63f516c139894cd322e", "is_reserved": 0, "fusion_lat": 0.0}, {"type": "electric_scooter", "rental_uris": {"ios": "https://dc.lft.to/lastmile_qr_scan", "android": "https://dc.lft.to/lastmile_qr_scan"}, "lon": -77.02655716666666, "fusion_lon": 0.0, "is_disabled": 0, "lat": 38.8922245, "bike_id": "77acb40a4c61f700dde12986c52c7d7c", "name": "77acb40a4c61f700dde12986c52c7d7c", "is_reserved": 0, "fusion_lat": 0.0}, {"type": "electric_scooter", "rental_uris": {"ios": "https://dc.lft.to/lastmile_qr_scan", "android": "https://dc.lft.to/lastmile_qr_scan"}, "lon": -77.017441, "fusion_lon": 0.0, "is_disabled": 0, "lat": 38.9025225, "bike_id": "f41a53ac5d829f30d485b76f42f9d4ad", "name": "f41a53ac5d829f30d485b76f42f9d4ad", "is_reserved": 0, "fusion_lat": 0.0}, {"type": "electric_bike", "rental_uris": {"ios": "https://dc.lft.to/lastmile_qr_scan", "android": "https://dc.lft.to/lastmile_qr_scan"}, "lon": -77.0212175, "fusion_lon": 0.0, "is_disabled": 0, "lat": 38.93578, "bike_id": "d06a0100f0a18835015364c26298fce2", "name": "d06a0100f0a18835015364c26298fce2", "is_reserved": 0, "fusion_lat": 0.0}, {"type": "electric_scooter", "rental_uris": {"ios": "https://dc.lft.to/lastmile_qr_scan", "android": "https://dc.lft.to/lastmile_qr_scan"}, "lon": -77.03264933333334, "fusion_lon": 0.0, "is_disabled": 0, "lat": 38.91326983333333, "bike_id": "ba8404ea735680a8e11b40b2e9d7fd76", "name": "ba8404ea735680a8e11b40b2e9d7fd76", "is_reserved": 0, "fusion_lat": 0.0}, {"type": "electric_scooter", "rental_uris": {"ios": "https://dc.lft.to/lastmile_qr_scan", "android": "https://dc.lft.to/lastmile_qr_scan"}, "lon": -77.05943416666666, "fusion_lon": 0.0, "is_disabled": 0, "lat": 38.9024405, "bike_id": "8ebb88c43e2fd889a2e180fbf5ba4645", "name": "8ebb88c43e2fd889a2e180fbf5ba4645", "is_reserved": 0, "fusion_lat": 0.0}, {"type": "electric_bike", "rental_uris": {"ios": "https://dc.lft.to/lastmile_qr_scan", "android": "https://dc.lft.to/lastmile_qr_scan"}, "lon": -77.10086183333334, "fusion_lon": 0.0, "is_disabled": 0, "lat": 38.95953566666667, "bike_id": "4b80c374d50ea509eb6a73872ed45d18", "name": "4b80c374d50ea509eb6a73872ed45d18", "is_reserved": 0, "fusion_lat": 0.0}, {"type": "electric_scooter", "rental_uris": {"ios": "https://dc.lft.to/lastmile_qr_scan", "android": "https://dc.lft.to/lastmile_qr_scan"}, "lon": -77.0362205, "fusion_lon": 0.0, "is_disabled": 0, "lat": 38.936843, "bike_id": "c7c7c88010ac6a79e4d91ae7d3883ef9", "name": "c7c7c88010ac6a79e4d91ae7d3883ef9", "is_reserved": 0, "fusion_lat": 0.0}, {"type": "electric_scooter", "rental_uris": {"ios": "https://dc.lft.to/lastmile_qr_scan", "android": "https://dc.lft.to/lastmile_qr_scan"}, "lon": -77.03864816666666, "fusion_lon": 0.0, "is_disabled": 0, "lat": 38.91261933333333, "bike_id": "0702b3e4607408d918595e6ce03f9113", "name": "0702b3e4607408d918595e6ce03f9113", "is_reserved": 0, "fusion_lat": 0.0}, {"type": "electric_scooter", "rental_uris": {"ios": "https://dc.lft.to/lastmile_qr_scan", "android": "https://dc.lft.to/lastmile_qr_scan"}, "lon": -77.03871433333333, "fusion_lon": 0.0, "is_disabled": 0, "lat": 38.934606333333335, "bike_id": "7c38dca15608a0d62b1e8493edd689fb", "name": "7c38dca15608a0d62b1e8493edd689fb", "is_reserved": 0, "fusion_lat": 0.0}, {"type": "electric_scooter", "rental_uris": {"ios": "https://dc.lft.to/lastmile_qr_scan", "android": "https://dc.lft.to/lastmile_qr_scan"}, "lon": -77.03446533333333, "fusion_lon": 0.0, "is_disabled": 0, "lat": 38.90981466666667, "bike_id": "4fd1ce705ae20851643699a6948e33a6", "name": "4fd1ce705ae20851643699a6948e33a6", "is_reserved": 0, "fusion_lat": 0.0}, {"type": "electric_scooter", "rental_uris": {"ios": "https://dc.lft.to/lastmile_qr_scan", "android": "https://dc.lft.to/lastmile_qr_scan"}, "lon": -77.0167285, "fusion_lon": 0.0, "is_disabled": 0, "lat": 38.881176333333336, "bike_id": "8c9ec49dd99a3a05e1bf7a0dad266051", "name": "8c9ec49dd99a3a05e1bf7a0dad266051", "is_reserved": 0, "fusion_lat": 0.0}, {"type": "electric_bike", "rental_uris": {"ios": "https://dc.lft.to/lastmile_qr_scan", "android": "https://dc.lft.to/lastmile_qr_scan"}, "lon": -76.9895605, "fusion_lon": 0.0, "is_disabled": 0, "lat": 38.867027666666665, "bike_id": "f7dd58c0ea8252471c1a4263e1ae02bc", "name": "f7dd58c0ea8252471c1a4263e1ae02bc", "is_reserved": 0, "fusion_lat": 0.0}, {"type": "electric_scooter", "rental_uris": {"ios": "https://dc.lft.to/lastmile_qr_scan", "android": "https://dc.lft.to/lastmile_qr_scan"}, "lon": -77.04260066666667, "fusion_lon": 0.0, "is_disabled": 0, "lat": 38.916882333333334, "bike_id": "c6b9ea660668cc1a794a83e3eaebb104", "name": "c6b9ea660668cc1a794a83e3eaebb104", "is_reserved": 0, "fusion_lat": 0.0}, {"type": "electric_scooter", "rental_uris": {"ios": "https://dc.lft.to/lastmile_qr_scan", "android": "https://dc.lft.to/lastmile_qr_scan"}, "lon": -77.0259425, "fusion_lon": 0.0, "is_disabled": 0, "lat": 38.906007833333334, "bike_id": "a4a6a5ae14b2db6c4771b2e3685dfa89", "name": "a4a6a5ae14b2db6c4771b2e3685dfa89", "is_reserved": 0, "fusion_lat": 0.0}, {"type": "electric_scooter", "rental_uris": {"ios": "https://dc.lft.to/lastmile_qr_scan", "android": "https://dc.lft.to/lastmile_qr_scan"}, "lon": -77.006069, "fusion_lon": 0.0, "is_disabled": 0, "lat": 38.906461666666665, "bike_id": "75826d5e3af2ffb9cf0c0b5c68fe8f24", "name": "75826d5e3af2ffb9cf0c0b5c68fe8f24", "is_reserved": 0, "fusion_lat": 0.0}, {"type": "electric_scooter", "rental_uris": {"ios": "https://dc.lft.to/lastmile_qr_scan", "android": "https://dc.lft.to/lastmile_qr_scan"}, "lon": -77.04686166666667, "fusion_lon": 0.0, "is_disabled": 0, "lat": 38.89222216666667, "bike_id": "fa014384afa151f01ba62230f806e0b7", "name": "fa014384afa151f01ba62230f806e0b7", "is_reserved": 0, "fusion_lat": 0.0}, {"type": "electric_scooter", "rental_uris": {"ios": "https://dc.lft.to/lastmile_qr_scan", "android": "https://dc.lft.to/lastmile_qr_scan"}, "lon": -77.017602, "fusion_lon": 0.0, "is_disabled": 0, "lat": 38.902685166666664, "bike_id": "02d305b168585b6878d7020d4e8aaedb", "name": "02d305b168585b6878d7020d4e8aaedb", "is_reserved": 0, "fusion_lat": 0.0}, {"type": "electric_scooter", "rental_uris": {"ios": "https://dc.lft.to/lastmile_qr_scan", "android": "https://dc.lft.to/lastmile_qr_scan"}, "lon": -76.994979, "fusion_lon": 0.0, "is_disabled": 0, "lat": 38.86241866666667, "bike_id": "69a2767866f2f242fc76f69965d363b5", "name": "69a2767866f2f242fc76f69965d363b5", "is_reserved": 0, "fusion_lat": 0.0}, {"type": "electric_bike", "rental_uris": {"ios": "https://dc.lft.to/lastmile_qr_scan", "android": "https://dc.lft.to/lastmile_qr_scan"}, "lon": -76.970121, "fusion_lon": 0.0, "is_disabled": 0, "lat": 38.86371916666667, "bike_id": "d41cb0e5385b9e10753701f0ebb723cd", "name": "d41cb0e5385b9e10753701f0ebb723cd", "is_reserved": 0, "fusion_lat": 0.0}, {"type": "electric_scooter", "rental_uris": {"ios": "https://dc.lft.to/lastmile_qr_scan", "android": "https://dc.lft.to/lastmile_qr_scan"}, "lon": -76.9841425, "fusion_lon": 0.0, "is_disabled": 0, "lat": 38.863339333333336, "bike_id": "ef3a60f8c8fdfc42e005c004a88f4026", "name": "ef3a60f8c8fdfc42e005c004a88f4026", "is_reserved": 0, "fusion_lat": 0.0}, {"type": "electric_scooter", "rental_uris": {"ios": "https://dc.lft.to/lastmile_qr_scan", "android": "https://dc.lft.to/lastmile_qr_scan"}, "lon": -77.03922133333333, "fusion_lon": 0.0, "is_disabled": 0, "lat": 38.902552, "bike_id": "155989536da17115f82119bf7bb248ac", "name": "155989536da17115f82119bf7bb248ac", "is_reserved": 0, "fusion_lat": 0.0}, {"type": "electric_scooter", "rental_uris": {"ios": "https://dc.lft.to/lastmile_qr_scan", "android": "https://dc.lft.to/lastmile_qr_scan"}, "lon": -76.9336085, "fusion_lon": 0.0, "is_disabled": 0, "lat": 38.8990325, "bike_id": "662206943e2f4ec7f7108bdc24f27f6e", "name": "662206943e2f4ec7f7108bdc24f27f6e", "is_reserved": 0, "fusion_lat": 0.0}, {"type": "electric_scooter", "rental_uris": {"ios": "https://dc.lft.to/lastmile_qr_scan", "android": "https://dc.lft.to/lastmile_qr_scan"}, "lon": -77.032155, "fusion_lon": 0.0, "is_disabled": 0, "lat": 38.91375, "bike_id": "f0512ce5520b98d2290350602920fdd0", "name": "f0512ce5520b98d2290350602920fdd0", "is_reserved": 0, "fusion_lat": 0.0}, {"type": "electric_bike", "rental_uris": {"ios": "https://dc.lft.to/lastmile_qr_scan", "android": "https://dc.lft.to/lastmile_qr_scan"}, "lon": -77.00831266666667, "fusion_lon": 0.0, "is_disabled": 0, "lat": 38.828728166666664, "bike_id": "727a58e1951d6e528890fef6afcc1f4b", "name": "727a58e1951d6e528890fef6afcc1f4b", "is_reserved": 0, "fusion_lat": 0.0}, {"type": "electric_scooter", "rental_uris": {"ios": "https://dc.lft.to/lastmile_qr_scan", "android": "https://dc.lft.to/lastmile_qr_scan"}, "lon": -77.04286283333333, "fusion_lon": 0.0, "is_disabled": 0, "lat": 38.910417, "bike_id": "df4a310da950df7242fbf11f4fe765ec", "name": "df4a310da950df7242fbf11f4fe765ec", "is_reserved": 0, "fusion_lat": 0.0}, {"type": "electric_scooter", "rental_uris": {"ios": "https://dc.lft.to/lastmile_qr_scan", "android": "https://dc.lft.to/lastmile_qr_scan"}, "lon": -77.03161866666666, "fusion_lon": 0.0, "is_disabled": 0, "lat": 38.914059, "bike_id": "9fcff78840213319f40cd7fa4c79b93a", "name": "9fcff78840213319f40cd7fa4c79b93a", "is_reserved": 0, "fusion_lat": 0.0}, {"type": "electric_scooter", "rental_uris": {"ios": "https://dc.lft.to/lastmile_qr_scan", "android": "https://dc.lft.to/lastmile_qr_scan"}, "lon": -76.99486433333334, "fusion_lon": 0.0, "is_disabled": 0, "lat": 38.90983883333333, "bike_id": "3e6bf09f6f0ff7e9bdfbb3c43395aad7", "name": "3e6bf09f6f0ff7e9bdfbb3c43395aad7", "is_reserved": 0, "fusion_lat": 0.0}, {"type": "electric_scooter", "rental_uris": {"ios": "https://dc.lft.to/lastmile_qr_scan", "android": "https://dc.lft.to/lastmile_qr_scan"}, "lon": -77.0006045, "fusion_lon": 0.0, "is_disabled": 0, "lat": 38.9202475, "bike_id": "b84360aa7734b7f2c41875c6377f4935", "name": "b84360aa7734b7f2c41875c6377f4935", "is_reserved": 0, "fusion_lat": 0.0}, {"type": "electric_scooter", "rental_uris": {"ios": "https://dc.lft.to/lastmile_qr_scan", "android": "https://dc.lft.to/lastmile_qr_scan"}, "lon": -77.03761516666667, "fusion_lon": 0.0, "is_disabled": 0, "lat": 38.93614133333333, "bike_id": "c8e9195c0d5165b8328d202ed19d8c0b", "name": "c8e9195c0d5165b8328d202ed19d8c0b", "is_reserved": 0, "fusion_lat": 0.0}, {"type": "electric_scooter", "rental_uris": {"ios": "https://dc.lft.to/lastmile_qr_scan", "android": "https://dc.lft.to/lastmile_qr_scan"}, "lon": -77.04882816666667, "fusion_lon": 0.0, "is_disabled": 0, "lat": 38.909740166666666, "bike_id": "f4ce81c99d4649e24240d68f13d4a58a", "name": "f4ce81c99d4649e24240d68f13d4a58a", "is_reserved": 0, "fusion_lat": 0.0}, {"type": "electric_scooter", "rental_uris": {"ios": "https://dc.lft.to/lastmile_qr_scan", "android": "https://dc.lft.to/lastmile_qr_scan"}, "lon": -77.03263783333334, "fusion_lon": 0.0, "is_disabled": 0, "lat": 38.935183, "bike_id": "f484ab231f8d43ae2df853880ac6bbcd", "name": "f484ab231f8d43ae2df853880ac6bbcd", "is_reserved": 0, "fusion_lat": 0.0}, {"type": "electric_scooter", "rental_uris": {"ios": "https://dc.lft.to/lastmile_qr_scan", "android": "https://dc.lft.to/lastmile_qr_scan"}, "lon": -77.0575585, "fusion_lon": 0.0, "is_disabled": 0, "lat": 38.925725, "bike_id": "d92acdb225a55eb1e1a149a43748a3e5", "name": "d92acdb225a55eb1e1a149a43748a3e5", "is_reserved": 0, "fusion_lat": 0.0}, {"type": "electric_bike", "rental_uris": {"ios": "https://dc.lft.to/lastmile_qr_scan", "android": "https://dc.lft.to/lastmile_qr_scan"}, "lon": -76.98555833333333, "fusion_lon": 0.0, "is_disabled": 0, "lat": 38.85206316666667, "bike_id": "9edb09a88aaccab45b84aeff7d65cae1", "name": "9edb09a88aaccab45b84aeff7d65cae1", "is_reserved": 0, "fusion_lat": 0.0}, {"type": "electric_scooter", "rental_uris": {"ios": "https://dc.lft.to/lastmile_qr_scan", "android": "https://dc.lft.to/lastmile_qr_scan"}, "lon": -77.02180833333334, "fusion_lon": 0.0, "is_disabled": 0, "lat": 38.8929685, "bike_id": "d941e6b9e96af43452a496fe159ea2ac", "name": "d941e6b9e96af43452a496fe159ea2ac", "is_reserved": 0, "fusion_lat": 0.0}, {"type": "electric_bike", "rental_uris": {"ios": "https://dc.lft.to/lastmile_qr_scan", "android": "https://dc.lft.to/lastmile_qr_scan"}, "lon": -76.90434116666667, "fusion_lon": 0.0, "is_disabled": 0, "lat": 38.897802666666664, "bike_id": "e48c0bb89acae9fe8f951f7b16cc258f", "name": "e48c0bb89acae9fe8f951f7b16cc258f", "is_reserved": 0, "fusion_lat": 0.0}, {"type": "electric_scooter", "rental_uris": {"ios": "https://dc.lft.to/lastmile_qr_scan", "android": "https://dc.lft.to/lastmile_qr_scan"}, "lon": -77.03848616666667, "fusion_lon": 0.0, "is_disabled": 0, "lat": 38.916428333333336, "bike_id": "0ba182d9ce23e38b4db225fbcf775bbd", "name": "0ba182d9ce23e38b4db225fbcf775bbd", "is_reserved": 0, "fusion_lat": 0.0}, {"type": "electric_scooter", "rental_uris": {"ios": "https://dc.lft.to/lastmile_qr_scan", "android": "https://dc.lft.to/lastmile_qr_scan"}, "lon": -77.03159933333333, "fusion_lon": 0.0, "is_disabled": 0, "lat": 38.89222066666667, "bike_id": "a1f6cca2cd2d9811e9df326da59d5a0a", "name": "a1f6cca2cd2d9811e9df326da59d5a0a", "is_reserved": 0, "fusion_lat": 0.0}, {"type": "electric_scooter", "rental_uris": {"ios": "https://dc.lft.to/lastmile_qr_scan", "android": "https://dc.lft.to/lastmile_qr_scan"}, "lon": -77.022235, "fusion_lon": 0.0, "is_disabled": 0, "lat": 38.89221416666667, "bike_id": "1e3899595cf3b08f27b9bea6190998db", "name": "1e3899595cf3b08f27b9bea6190998db", "is_reserved": 0, "fusion_lat": 0.0}, {"type": "electric_scooter", "rental_uris": {"ios": "https://dc.lft.to/lastmile_qr_scan", "android": "https://dc.lft.to/lastmile_qr_scan"}, "lon": -77.04170333333333, "fusion_lon": 0.0, "is_disabled": 0, "lat": 38.9183435, "bike_id": "f28c2aa386bf149a78986f73437eac4d", "name": "f28c2aa386bf149a78986f73437eac4d", "is_reserved": 0, "fusion_lat": 0.0}, {"type": "electric_scooter", "rental_uris": {"ios": "https://dc.lft.to/lastmile_qr_scan", "android": "https://dc.lft.to/lastmile_qr_scan"}, "lon": -77.02523916666667, "fusion_lon": 0.0, "is_disabled": 0, "lat": 38.9193585, "bike_id": "f74446f17d9e4ce14126c6df101fe7f2", "name": "f74446f17d9e4ce14126c6df101fe7f2", "is_reserved": 0, "fusion_lat": 0.0}, {"type": "electric_scooter", "rental_uris": {"ios": "https://dc.lft.to/lastmile_qr_scan", "android": "https://dc.lft.to/lastmile_qr_scan"}, "lon": -77.02431416666667, "fusion_lon": 0.0, "is_disabled": 0, "lat": 38.902461833333334, "bike_id": "fbb19fa19d34cb6b2ab9b2faac89f003", "name": "fbb19fa19d34cb6b2ab9b2faac89f003", "is_reserved": 0, "fusion_lat": 0.0}, {"type": "electric_scooter", "rental_uris": {"ios": "https://dc.lft.to/lastmile_qr_scan", "android": "https://dc.lft.to/lastmile_qr_scan"}, "lon": -77.03357516666667, "fusion_lon": 0.0, "is_disabled": 0, "lat": 38.917071666666665, "bike_id": "b521767642f2e52e20071fe3ea8d533f", "name": "b521767642f2e52e20071fe3ea8d533f", "is_reserved": 0, "fusion_lat": 0.0}, {"type": "electric_scooter", "rental_uris": {"ios": "https://dc.lft.to/lastmile_qr_scan", "android": "https://dc.lft.to/lastmile_qr_scan"}, "lon": -77.00467583333334, "fusion_lon": 0.0, "is_disabled": 0, "lat": 38.877894833333336, "bike_id": "a0ca40b0eec724d46c65d370a7efe2ab", "name": "a0ca40b0eec724d46c65d370a7efe2ab", "is_reserved": 0, "fusion_lat": 0.0}, {"type": "electric_scooter", "rental_uris": {"ios": "https://dc.lft.to/lastmile_qr_scan", "android": "https://dc.lft.to/lastmile_qr_scan"}, "lon": -77.02417416666667, "fusion_lon": 0.0, "is_disabled": 0, "lat": 38.933455333333335, "bike_id": "dbd450b4a71d98e38efe6794b41a7dcc", "name": "dbd450b4a71d98e38efe6794b41a7dcc", "is_reserved": 0, "fusion_lat": 0.0}, {"type": "electric_scooter", "rental_uris": {"ios": "https://dc.lft.to/lastmile_qr_scan", "android": "https://dc.lft.to/lastmile_qr_scan"}, "lon": -77.03225166666667, "fusion_lon": 0.0, "is_disabled": 0, "lat": 38.91990366666667, "bike_id": "4f8a2a33b412e3200cca671b7c3758ea", "name": "4f8a2a33b412e3200cca671b7c3758ea", "is_reserved": 0, "fusion_lat": 0.0}, {"type": "electric_bike", "rental_uris": {"ios": "https://dc.lft.to/lastmile_qr_scan", "android": "https://dc.lft.to/lastmile_qr_scan"}, "lon": -76.936164, "fusion_lon": 0.0, "is_disabled": 0, "lat": 38.9707765, "bike_id": "46a2033f7f54f5aa6a9bae74e351c8df", "name": "46a2033f7f54f5aa6a9bae74e351c8df", "is_reserved": 0, "fusion_lat": 0.0}, {"type": "electric_scooter", "rental_uris": {"ios": "https://dc.lft.to/lastmile_qr_scan", "android": "https://dc.lft.to/lastmile_qr_scan"}, "lon": -77.0258035, "fusion_lon": 0.0, "is_disabled": 0, "lat": 38.904102, "bike_id": "e478021cc81c0b82691a83cd4f044e38", "name": "e478021cc81c0b82691a83cd4f044e38", "is_reserved": 0, "fusion_lat": 0.0}, {"type": "electric_scooter", "rental_uris": {"ios": "https://dc.lft.to/lastmile_qr_scan", "android": "https://dc.lft.to/lastmile_qr_scan"}, "lon": -77.07252166666666, "fusion_lon": 0.0, "is_disabled": 0, "lat": 38.91264366666667, "bike_id": "7f8f2927169f04bfd2f8740d01e8bb56", "name": "7f8f2927169f04bfd2f8740d01e8bb56", "is_reserved": 0, "fusion_lat": 0.0}, {"type": "electric_bike", "rental_uris": {"ios": "https://dc.lft.to/lastmile_qr_scan", "android": "https://dc.lft.to/lastmile_qr_scan"}, "lon": -77.0057465, "fusion_lon": 0.0, "is_disabled": 0, "lat": 38.83982833333334, "bike_id": "24cdb5d2180c3d4cf21e52a88b23f2ed", "name": "24cdb5d2180c3d4cf21e52a88b23f2ed", "is_reserved": 0, "fusion_lat": 0.0}, {"type": "electric_bike", "rental_uris": {"ios": "https://dc.lft.to/lastmile_qr_scan", "android": "https://dc.lft.to/lastmile_qr_scan"}, "lon": -77.02684433333333, "fusion_lon": 0.0, "is_disabled": 0, "lat": 38.93698583333333, "bike_id": "1846afbd0af121f47783b4d5a39f059b", "name": "1846afbd0af121f47783b4d5a39f059b", "is_reserved": 0, "fusion_lat": 0.0}, {"type": "electric_bike", "rental_uris": {"ios": "https://dc.lft.to/lastmile_qr_scan", "android": "https://dc.lft.to/lastmile_qr_scan"}, "lon": -77.014417, "fusion_lon": 0.0, "is_disabled": 0, "lat": 38.876694666666666, "bike_id": "2d1b2cb6dc679a3074d7f89ee3220e05", "name": "2d1b2cb6dc679a3074d7f89ee3220e05", "is_reserved": 0, "fusion_lat": 0.0}, {"type": "electric_scooter", "rental_uris": {"ios": "https://dc.lft.to/lastmile_qr_scan", "android": "https://dc.lft.to/lastmile_qr_scan"}, "lon": -77.03162716666667, "fusion_lon": 0.0, "is_disabled": 0, "lat": 38.892237333333334, "bike_id": "3d3ed43e82b0d37f721fe7cde94a174e", "name": "3d3ed43e82b0d37f721fe7cde94a174e", "is_reserved": 0, "fusion_lat": 0.0}, {"type": "electric_scooter", "rental_uris": {"ios": "https://dc.lft.to/lastmile_qr_scan", "android": "https://dc.lft.to/lastmile_qr_scan"}, "lon": -77.03404733333333, "fusion_lon": 0.0, "is_disabled": 0, "lat": 38.9204995, "bike_id": "0fbf66725de02b442d6b4e9a7b16e194", "name": "0fbf66725de02b442d6b4e9a7b16e194", "is_reserved": 0, "fusion_lat": 0.0}, {"type": "electric_scooter", "rental_uris": {"ios": "https://dc.lft.to/lastmile_qr_scan", "android": "https://dc.lft.to/lastmile_qr_scan"}, "lon": -77.07069733333333, "fusion_lon": 0.0, "is_disabled": 0, "lat": 38.931760833333335, "bike_id": "50bfc7efcbd774b8054dfd68acb721c7", "name": "50bfc7efcbd774b8054dfd68acb721c7", "is_reserved": 0, "fusion_lat": 0.0}, {"type": "electric_scooter", "rental_uris": {"ios": "https://dc.lft.to/lastmile_qr_scan", "android": "https://dc.lft.to/lastmile_qr_scan"}, "lon": -76.9852255, "fusion_lon": 0.0, "is_disabled": 0, "lat": 38.866857333333336, "bike_id": "c78194d2415757544b9f3958c98b0a13", "name": "c78194d2415757544b9f3958c98b0a13", "is_reserved": 0, "fusion_lat": 0.0}, {"type": "electric_scooter", "rental_uris": {"ios": "https://dc.lft.to/lastmile_qr_scan", "android": "https://dc.lft.to/lastmile_qr_scan"}, "lon": -77.03212566666667, "fusion_lon": 0.0, "is_disabled": 0, "lat": 38.90894333333333, "bike_id": "a52b2030d30fafebf063663fff2e3e21", "name": "a52b2030d30fafebf063663fff2e3e21", "is_reserved": 0, "fusion_lat": 0.0}, {"type": "electric_scooter", "rental_uris": {"ios": "https://dc.lft.to/lastmile_qr_scan", "android": "https://dc.lft.to/lastmile_qr_scan"}, "lon": -77.024971, "fusion_lon": 0.0, "is_disabled": 0, "lat": 38.91803383333333, "bike_id": "9773ade24b1fab399f375e283c7c3dfe", "name": "9773ade24b1fab399f375e283c7c3dfe", "is_reserved": 0, "fusion_lat": 0.0}, {"type": "electric_scooter", "rental_uris": {"ios": "https://dc.lft.to/lastmile_qr_scan", "android": "https://dc.lft.to/lastmile_qr_scan"}, "lon": -76.9334565, "fusion_lon": 0.0, "is_disabled": 0, "lat": 38.8881575, "bike_id": "5f263568fec0de55bb406e2652ccb322", "name": "5f263568fec0de55bb406e2652ccb322", "is_reserved": 0, "fusion_lat": 0.0}, {"type": "electric_scooter", "rental_uris": {"ios": "https://dc.lft.to/lastmile_qr_scan", "android": "https://dc.lft.to/lastmile_qr_scan"}, "lon": -77.0399325, "fusion_lon": 0.0, "is_disabled": 0, "lat": 38.9133425, "bike_id": "9b11e2ee4f957d8ec3cd2537d83b03ca", "name": "9b11e2ee4f957d8ec3cd2537d83b03ca", "is_reserved": 0, "fusion_lat": 0.0}, {"type": "electric_scooter", "rental_uris": {"ios": "https://dc.lft.to/lastmile_qr_scan", "android": "https://dc.lft.to/lastmile_qr_scan"}, "lon": -77.03180216666667, "fusion_lon": 0.0, "is_disabled": 0, "lat": 38.917886, "bike_id": "2914e572d18b5f9324bbf9bd73cb7435", "name": "2914e572d18b5f9324bbf9bd73cb7435", "is_reserved": 0, "fusion_lat": 0.0}, {"type": "electric_scooter", "rental_uris": {"ios": "https://dc.lft.to/lastmile_qr_scan", "android": "https://dc.lft.to/lastmile_qr_scan"}, "lon": -77.04005666666667, "fusion_lon": 0.0, "is_disabled": 0, "lat": 38.910045, "bike_id": "f152c00d35d7103677856bb105345da2", "name": "f152c00d35d7103677856bb105345da2", "is_reserved": 0, "fusion_lat": 0.0}, {"type": "electric_bike", "rental_uris": {"ios": "https://dc.lft.to/lastmile_qr_scan", "android": "https://dc.lft.to/lastmile_qr_scan"}, "lon": -76.99071983333333, "fusion_lon": 0.0, "is_disabled": 0, "lat": 38.898159, "bike_id": "8cd75afd89c90212dcc57e36c08b329d", "name": "8cd75afd89c90212dcc57e36c08b329d", "is_reserved": 0, "fusion_lat": 0.0}, {"type": "electric_scooter", "rental_uris": {"ios": "https://dc.lft.to/lastmile_qr_scan", "android": "https://dc.lft.to/lastmile_qr_scan"}, "lon": -77.0438645, "fusion_lon": 0.0, "is_disabled": 0, "lat": 38.933375, "bike_id": "302c05dc157bb024be18c45dac07d20f", "name": "302c05dc157bb024be18c45dac07d20f", "is_reserved": 0, "fusion_lat": 0.0}, {"type": "electric_bike", "rental_uris": {"ios": "https://dc.lft.to/lastmile_qr_scan", "android": "https://dc.lft.to/lastmile_qr_scan"}, "lon": -77.129645, "fusion_lon": 0.0, "is_disabled": 0, "lat": 38.85221283333333, "bike_id": "ca01269298b4ef9be2eb4b490b48e67c", "name": "ca01269298b4ef9be2eb4b490b48e67c", "is_reserved": 0, "fusion_lat": 0.0}, {"type": "electric_scooter", "rental_uris": {"ios": "https://dc.lft.to/lastmile_qr_scan", "android": "https://dc.lft.to/lastmile_qr_scan"}, "lon": -77.03179366666667, "fusion_lon": 0.0, "is_disabled": 0, "lat": 38.909847, "bike_id": "4107e211ff95cfcb4645a090cc927239", "name": "4107e211ff95cfcb4645a090cc927239", "is_reserved": 0, "fusion_lat": 0.0}, {"type": "electric_bike", "rental_uris": {"ios": "https://dc.lft.to/lastmile_qr_scan", "android": "https://dc.lft.to/lastmile_qr_scan"}, "lon": -76.9809975, "fusion_lon": 0.0, "is_disabled": 0, "lat": 38.95349783333333, "bike_id": "6fd04cf08279af9e93b94ca010abb462", "name": "6fd04cf08279af9e93b94ca010abb462", "is_reserved": 0, "fusion_lat": 0.0}, {"type": "electric_scooter", "rental_uris": {"ios": "https://dc.lft.to/lastmile_qr_scan", "android": "https://dc.lft.to/lastmile_qr_scan"}, "lon": -77.0241275, "fusion_lon": 0.0, "is_disabled": 0, "lat": 38.8982965, "bike_id": "aa17c88cd79da654bb47e3e45626a927", "name": "aa17c88cd79da654bb47e3e45626a927", "is_reserved": 0, "fusion_lat": 0.0}, {"type": "electric_scooter", "rental_uris": {"ios": "https://dc.lft.to/lastmile_qr_scan", "android": "https://dc.lft.to/lastmile_qr_scan"}, "lon": -77.0176135, "fusion_lon": 0.0, "is_disabled": 0, "lat": 38.87673816666667, "bike_id": "d06788a0ae5cad204631805faac802a5", "name": "d06788a0ae5cad204631805faac802a5", "is_reserved": 0, "fusion_lat": 0.0}, {"type": "electric_scooter", "rental_uris": {"ios": "https://dc.lft.to/lastmile_qr_scan", "android": "https://dc.lft.to/lastmile_qr_scan"}, "lon": -77.02628716666666, "fusion_lon": 0.0, "is_disabled": 0, "lat": 38.892218666666665, "bike_id": "7f6ffdbef1e4c7e307501011c70306d6", "name": "7f6ffdbef1e4c7e307501011c70306d6", "is_reserved": 0, "fusion_lat": 0.0}, {"type": "electric_bike", "rental_uris": {"ios": "https://dc.lft.to/lastmile_qr_scan", "android": "https://dc.lft.to/lastmile_qr_scan"}, "lon": -77.09482716666666, "fusion_lon": 0.0, "is_disabled": 0, "lat": 38.80754533333333, "bike_id": "8d4a5f77eee6a38ed47885f593741cae", "name": "8d4a5f77eee6a38ed47885f593741cae", "is_reserved": 0, "fusion_lat": 0.0}, {"type": "electric_bike", "rental_uris": {"ios": "https://dc.lft.to/lastmile_qr_scan", "android": "https://dc.lft.to/lastmile_qr_scan"}, "lon": -76.93235216666666, "fusion_lon": 0.0, "is_disabled": 0, "lat": 38.86593216666667, "bike_id": "0ce076dacd7180f85c74dccbee10174e", "name": "0ce076dacd7180f85c74dccbee10174e", "is_reserved": 0, "fusion_lat": 0.0}, {"type": "electric_scooter", "rental_uris": {"ios": "https://dc.lft.to/lastmile_qr_scan", "android": "https://dc.lft.to/lastmile_qr_scan"}, "lon": -77.01497566666667, "fusion_lon": 0.0, "is_disabled": 0, "lat": 38.876308333333334, "bike_id": "87289db22d691078d8cc14cf75f2a558", "name": "87289db22d691078d8cc14cf75f2a558", "is_reserved": 0, "fusion_lat": 0.0}, {"type": "electric_scooter", "rental_uris": {"ios": "https://dc.lft.to/lastmile_qr_scan", "android": "https://dc.lft.to/lastmile_qr_scan"}, "lon": -77.03960433333333, "fusion_lon": 0.0, "is_disabled": 0, "lat": 38.917101833333334, "bike_id": "23d47f5cd3aea399558ed3a357804466", "name": "23d47f5cd3aea399558ed3a357804466", "is_reserved": 0, "fusion_lat": 0.0}, {"type": "electric_scooter", "rental_uris": {"ios": "https://dc.lft.to/lastmile_qr_scan", "android": "https://dc.lft.to/lastmile_qr_scan"}, "lon": -76.99034166666667, "fusion_lon": 0.0, "is_disabled": 0, "lat": 38.86520516666667, "bike_id": "bcacb29f1d9aed7ba6b6acf64aac886c", "name": "bcacb29f1d9aed7ba6b6acf64aac886c", "is_reserved": 0, "fusion_lat": 0.0}, {"type": "electric_scooter", "rental_uris": {"ios": "https://dc.lft.to/lastmile_qr_scan", "android": "https://dc.lft.to/lastmile_qr_scan"}, "lon": -77.04020716666666, "fusion_lon": 0.0, "is_disabled": 0, "lat": 38.92449516666667, "bike_id": "84306516ec102bd6eccb1a4755e53802", "name": "84306516ec102bd6eccb1a4755e53802", "is_reserved": 0, "fusion_lat": 0.0}, {"type": "electric_scooter", "rental_uris": {"ios": "https://dc.lft.to/lastmile_qr_scan", "android": "https://dc.lft.to/lastmile_qr_scan"}, "lon": -77.04325566666667, "fusion_lon": 0.0, "is_disabled": 0, "lat": 38.9044145, "bike_id": "c665f3e89909c66da17cf43a3fdbbbcf", "name": "c665f3e89909c66da17cf43a3fdbbbcf", "is_reserved": 0, "fusion_lat": 0.0}, {"type": "electric_scooter", "rental_uris": {"ios": "https://dc.lft.to/lastmile_qr_scan", "android": "https://dc.lft.to/lastmile_qr_scan"}, "lon": -77.03674416666667, "fusion_lon": 0.0, "is_disabled": 0, "lat": 38.91709983333333, "bike_id": "a99732dd449a3a6c838a88bf1bdd381e", "name": "a99732dd449a3a6c838a88bf1bdd381e", "is_reserved": 0, "fusion_lat": 0.0}, {"type": "electric_scooter", "rental_uris": {"ios": "https://dc.lft.to/lastmile_qr_scan", "android": "https://dc.lft.to/lastmile_qr_scan"},