{"data": {"bikes": [{"name": "d52e012a9aa4cf6536713a551a62ae7d", "lon": -77.02189666666666, "lat": 38.91565216666667, "type": "electric_scooter", "fusion_lon": 0.0, "is_reserved": 0, "bike_id": "d52e012a9aa4cf6536713a551a62ae7d", "fusion_lat": 0.0, "is_disabled": 0, "rental_uris": {"ios": "https://dc.lft.to/lastmile_qr_scan", "android": "https://dc.lft.to/lastmile_qr_scan"}}, {"name": "f11abdd2fb550a30b010de4253090c5d", "lon": -77.02765283333333, "lat": 38.954272333333336, "type": "electric_scooter", "fusion_lon": 0.0, "is_reserved": 0, "bike_id": "f11abdd2fb550a30b010de4253090c5d", "fusion_lat": 0.0, "is_disabled": 0, "rental_uris": {"ios": "https://dc.lft.to/lastmile_qr_scan", "android": "https://dc.lft.to/lastmile_qr_scan"}}, {"name": "1f73c10b9cb1fb1c050706ed3a780c52", "lon": -76.99624616666667, "lat": 38.900355166666664, "type": "electric_scooter", "fusion_lon": 0.0, "is_reserved": 0, "bike_id": "1f73c10b9cb1fb1c050706ed3a780c52", "fusion_lat": 0.0, "is_disabled": 0, "rental_uris": {"ios": "https://dc.lft.to/lastmile_qr_scan", "android": "https://dc.lft.to/lastmile_qr_scan"}}, {"name": "87e0aeee835b2cd8f55b26f039d8223f", "lon": -76.9335565, "lat": 38.8990275, "type": "electric_scooter", "fusion_lon": 0.0, "is_reserved": 0, "bike_id": "87e0aeee835b2cd8f55b26f039d8223f", "fusion_lat": 0.0, "is_disabled": 0, "rental_uris": {"ios": "https://dc.lft.to/lastmile_qr_scan", "android": "https://dc.lft.to/lastmile_qr_scan"}}, {"name": "38134ae5c94500aa0fa60ac67f01381f", "lon": -77.03842516666667, "lat": 38.915569, "type": "electric_scooter", "fusion_lon": 0.0, "is_reserved": 0, "bike_id": "38134ae5c94500aa0fa60ac67f01381f", "fusion_lat": 0.0, "is_disabled": 0, "rental_uris": {"ios": "https://dc.lft.to/lastmile_qr_scan", "android": "https://dc.lft.to/lastmile_qr_scan"}}, {"name": "2fb0ded58529845fa65c3dd3b911127f", "lon": -76.97912116666667, "lat": 38.8634895, "type": "electric_scooter", "fusion_lon": 0.0, "is_reserved": 0, "bike_id": "2fb0ded58529845fa65c3dd3b911127f", "fusion_lat": 0.0, "is_disabled": 0, "rental_uris": {"ios": "https://dc.lft.to/lastmile_qr_scan", "android": "https://dc.lft.to/lastmile_qr_scan"}}, {"name": "1840264438e395c4722c51c1ebc210ea", "lon": -77.00482583333333, "lat": 38.87475533333333, "type": "electric_scooter", "fusion_lon": 0.0, "is_reserved": 0, "bike_id": "1840264438e395c4722c51c1ebc210ea", "fusion_lat": 0.0, "is_disabled": 0, "rental_uris": {"ios": "https://dc.lft.to/lastmile_qr_scan", "android": "https://dc.lft.to/lastmile_qr_scan"}}, {"name": "3b0953c9399b0c14e34f09d0b75558d5", "lon": -77.03212133333334, "lat": 38.896624333333335, "type": "electric_scooter", "fusion_lon": 0.0, "is_reserved": 0, "bike_id": "3b0953c9399b0c14e34f09d0b75558d5", "fusion_lat": 0.0, "is_disabled": 0, "rental_uris": {"ios": "https://dc.lft.to/lastmile_qr_scan", "android": "https://dc.lft.to/lastmile_qr_scan"}}, {"name": "9f0b44e2865d5a7c8f9c160a1618f340", "lon": -77.04463566666666, "lat": 38.93021266666667, "type": "electric_scooter", "fusion_lon": 0.0, "is_reserved": 0, "bike_id": "9f0b44e2865d5a7c8f9c160a1618f340", "fusion_lat": 0.0, "is_disabled": 0, "rental_uris": {"ios": "https://dc.lft.to/lastmile_qr_scan", "android": "https://dc.lft.to/lastmile_qr_scan"}}, {"name": "be97cb13f8016d39c035ca5416237c1f", "lon": -77.0685645, "lat": 38.952854333333335, "type": "electric_scooter", "fusion_lon": 0.0, "is_reserved": 0, "bike_id": "be97cb13f8016d39c035ca5416237c1f", "fusion_lat": 0.0, "is_disabled": 0, "rental_uris": {"ios": "https://dc.lft.to/lastmile_qr_scan", "android": "https://dc.lft.to/lastmile_qr_scan"}}, {"name": "47c7da7b5280ffba022283382953db3a", "lon": -77.0418285, "lat": 38.89224033333333, "type": "electric_scooter", "fusion_lon": 0.0, "is_reserved": 0, "bike_id": "47c7da7b5280ffba022283382953db3a", "fusion_lat": 0.0, "is_disabled": 0, "rental_uris": {"ios": "https://dc.lft.to/lastmile_qr_scan", "android": "https://dc.lft.to/lastmile_qr_scan"}}, {"name": "341c3de6ef6f001e6334dcfcb9c4c2e8", "lon": -76.97733033333333, "lat": 38.89515133333333, "type": "electric_scooter", "fusion_lon": 0.0, "is_reserved": 0, "bike_id": "341c3de6ef6f001e6334dcfcb9c4c2e8", "fusion_lat": 0.0, "is_disabled": 0, "rental_uris": {"ios": "https://dc.lft.to/lastmile_qr_scan", "android": "https://dc.lft.to/lastmile_qr_scan"}}, {"name": "168e48c5b2f6f0a55670d899834729c8", "lon": -77.02373833333333, "lat": 38.909521166666664, "type": "electric_scooter", "fusion_lon": 0.0, "is_reserved": 0, "bike_id": "168e48c5b2f6f0a55670d899834729c8", "fusion_lat": 0.0, "is_disabled": 0, "rental_uris": {"ios": "https://dc.lft.to/lastmile_qr_scan", "android": "https://dc.lft.to/lastmile_qr_scan"}}, {"name": "d258a1618194706c9f885212642f67b7", "lon": -77.05006433333334, "lat": 38.892322166666666, "type": "electric_scooter", "fusion_lon": 0.0, "is_reserved": 0, "bike_id": "d258a1618194706c9f885212642f67b7", "fusion_lat": 0.0, "is_disabled": 0, "rental_uris": {"ios": "https://dc.lft.to/lastmile_qr_scan", "android": "https://dc.lft.to/lastmile_qr_scan"}}, {"name": "bc94b216f6a774ef5585a54861ee41ce", "lon": -77.0365455, "lat": 38.90826933333334, "type": "electric_scooter", "fusion_lon": 0.0, "is_reserved": 0, "bike_id": "bc94b216f6a774ef5585a54861ee41ce", "fusion_lat": 0.0, "is_disabled": 0, "rental_uris": {"ios": "https://dc.lft.to/lastmile_qr_scan", "android": "https://dc.lft.to/lastmile_qr_scan"}}, {"name": "11d0571f9b45d6dd5d2d534da944d811", "lon": -76.97706966666667, "lat": 38.902510166666666, "type": "electric_scooter", "fusion_lon": 0.0, "is_reserved": 0, "bike_id": "11d0571f9b45d6dd5d2d534da944d811", "fusion_lat": 0.0, "is_disabled": 0, "rental_uris": {"ios": "https://dc.lft.to/lastmile_qr_scan", "android": "https://dc.lft.to/lastmile_qr_scan"}}, {"name": "d5649b974b8c0647a751f6dd07c2caa6", "lon": -77.01560383333333, "lat": 38.914390833333336, "type": "electric_scooter", "fusion_lon": 0.0, "is_reserved": 0, "bike_id": "d5649b974b8c0647a751f6dd07c2caa6", "fusion_lat": 0.0, "is_disabled": 0, "rental_uris": {"ios": "https://dc.lft.to/lastmile_qr_scan", "android": "https://dc.lft.to/lastmile_qr_scan"}}, {"name": "a2bf65665fc3395ff1a9def69a57bbc3", "lon": -77.036699, "lat": 38.9272505, "type": "electric_scooter", "fusion_lon": 0.0, "is_reserved": 0, "bike_id": "a2bf65665fc3395ff1a9def69a57bbc3", "fusion_lat": 0.0, "is_disabled": 0, "rental_uris": {"ios": "https://dc.lft.to/lastmile_qr_scan", "android": "https://dc.lft.to/lastmile_qr_scan"}}, {"name": "e7dfaff292d63c59e01d60d27ca975fb", "lon": -77.0773725, "lat": 38.92374316666667, "type": "electric_scooter", "fusion_lon": 0.0, "is_reserved": 0, "bike_id": "e7dfaff292d63c59e01d60d27ca975fb", "fusion_lat": 0.0, "is_disabled": 0, "rental_uris": {"ios": "https://dc.lft.to/lastmile_qr_scan", "android": "https://dc.lft.to/lastmile_qr_scan"}}, {"name": "fac1e46f819b6b01b7039d5920ed5ac7", "lon": -77.02342466666667, "lat": 38.9449875, "type": "electric_scooter", "fusion_lon": 0.0, "is_reserved": 0, "bike_id": "fac1e46f819b6b01b7039d5920ed5ac7", "fusion_lat": 0.0, "is_disabled": 0, "rental_uris": {"ios": "https://dc.lft.to/lastmile_qr_scan", "android": "https://dc.lft.to/lastmile_qr_scan"}}, {"name": "21ac815367e0744fc9a16689072b5c11", "lon": -77.05818966666666, "lat": 38.935617, "type": "electric_scooter", "fusion_lon": 0.0, "is_reserved": 0, "bike_id": "21ac815367e0744fc9a16689072b5c11", "fusion_lat": 0.0, "is_disabled": 0, "rental_uris": {"ios": "https://dc.lft.to/lastmile_qr_scan", "android": "https://dc.lft.to/lastmile_qr_scan"}}, {"name": "252d95c40a01924422060fe5226c2798", "lon": -76.99334066666667, "lat": 38.871405, "type": "electric_scooter", "fusion_lon": 0.0, "is_reserved": 0, "bike_id": "252d95c40a01924422060fe5226c2798", "fusion_lat": 0.0, "is_disabled": 0, "rental_uris": {"ios": "https://dc.lft.to/lastmile_qr_scan", "android": "https://dc.lft.to/lastmile_qr_scan"}}, {"name": "bb657325d227be11043894b0fc8eebfe", "lon": -77.02207366666667, "lat": 38.91052216666667, "type": "electric_scooter", "fusion_lon": 0.0, "is_reserved": 0, "bike_id": "bb657325d227be11043894b0fc8eebfe", "fusion_lat": 0.0, "is_disabled": 0, "rental_uris": {"ios": "https://dc.lft.to/lastmile_qr_scan", "android": "https://dc.lft.to/lastmile_qr_scan"}}, {"name": "72dab200de1b9d95e4e75931f7eba5a7", "lon": -76.92916316666667, "lat": 38.892964666666664, "type": "electric_scooter", "fusion_lon": 0.0, "is_reserved": 0, "bike_id": "72dab200de1b9d95e4e75931f7eba5a7", "fusion_lat": 0.0, "is_disabled": 0, "rental_uris": {"ios": "https://dc.lft.to/lastmile_qr_scan", "android": "https://dc.lft.to/lastmile_qr_scan"}}, {"name": "e8fd327e8a55f5b3afdf41e86106ce3e", "lon": -76.96063183333334, "lat": 38.884061833333334, "type": "electric_bike", "fusion_lon": 0.0, "is_reserved": 0, "bike_id": "e8fd327e8a55f5b3afdf41e86106ce3e", "fusion_lat": 0.0, "is_disabled": 0, "rental_uris": {"ios": "https://dc.lft.to/lastmile_qr_scan", "android": "https://dc.lft.to/lastmile_qr_scan"}}, {"name": "9482c72212b2b627f3304adadfe775e6", "lon": -76.9887, "lat": 38.954814999999996, "type": "electric_bike", "fusion_lon": 0.0, "is_reserved": 0, "bike_id": "9482c72212b2b627f3304adadfe775e6", "fusion_lat": 0.0, "is_disabled": 0, "rental_uris": {"ios": "https://dc.lft.to/lastmile_qr_scan", "android": "https://dc.lft.to/lastmile_qr_scan"}}, {"name": "461328ea0eb0d89e3e1b15cbec1fd6ed", "lon": -77.01694766666667, "lat": 38.975083833333336, "type": "electric_scooter", "fusion_lon": 0.0, "is_reserved": 0, "bike_id": "461328ea0eb0d89e3e1b15cbec1fd6ed", "fusion_lat": 0.0, "is_disabled": 0, "rental_uris": {"ios": "https://dc.lft.to/lastmile_qr_scan", "android": "https://dc.lft.to/lastmile_qr_scan"}}, {"name": "11293be8ac74a7bfa5ce75dd93c6fb1d", "lon": -76.9836585, "lat": 38.8960135, "type": "electric_bike", "fusion_lon": 0.0, "is_reserved": 0, "bike_id": "11293be8ac74a7bfa5ce75dd93c6fb1d", "fusion_lat": 0.0, "is_disabled": 0, "rental_uris": {"ios": "https://dc.lft.to/lastmile_qr_scan", "android": "https://dc.lft.to/lastmile_qr_scan"}}, {"name": "22822b1aacdff6728a8d33a570cef2a2", "lon": -76.948012, "lat": 38.89401983333333, "type": "electric_bike", "fusion_lon": 0.0, "is_reserved": 0, "bike_id": "22822b1aacdff6728a8d33a570cef2a2", "fusion_lat": 0.0, "is_disabled": 0, "rental_uris": {"ios": "https://dc.lft.to/lastmile_qr_scan", "android": "https://dc.lft.to/lastmile_qr_scan"}}, {"name": "db3b2e2889a95d03830057a8e36a8ed9", "lon": -77.0260665, "lat": 38.9314585, "type": "electric_scooter", "fusion_lon": 0.0, "is_reserved": 0, "bike_id": "db3b2e2889a95d03830057a8e36a8ed9", "fusion_lat": 0.0, "is_disabled": 0, "rental_uris": {"ios": "https://dc.lft.to/lastmile_qr_scan", "android": "https://dc.lft.to/lastmile_qr_scan"}}, {"name": "14cb6878b856bce94346615f3ddd4f6b", "lon": -77.03338366666667, "lat": 38.92049166666666, "type": "electric_scooter", "fusion_lon": 0.0, "is_reserved": 0, "bike_id": "14cb6878b856bce94346615f3ddd4f6b", "fusion_lat": 0.0, "is_disabled": 0, "rental_uris": {"ios": "https://dc.lft.to/lastmile_qr_scan", "android": "https://dc.lft.to/lastmile_qr_scan"}}, {"name": "751cb471cd39045587038ff547e7d7bf", "lon": -77.03831983333333, "lat": 38.867127333333336, "type": "electric_scooter", "fusion_lon": 0.0, "is_reserved": 0, "bike_id": "751cb471cd39045587038ff547e7d7bf", "fusion_lat": 0.0, "is_disabled": 0, "rental_uris": {"ios": "https://dc.lft.to/lastmile_qr_scan", "android": "https://dc.lft.to/lastmile_qr_scan"}}, {"name": "a5de977f8fa873feb26d9938a4303de3", "lon": -77.0140705, "lat": 38.887446833333335, "type": "electric_scooter", "fusion_lon": 0.0, "is_reserved": 0, "bike_id": "a5de977f8fa873feb26d9938a4303de3", "fusion_lat": 0.0, "is_disabled": 0, "rental_uris": {"ios": "https://dc.lft.to/lastmile_qr_scan", "android": "https://dc.lft.to/lastmile_qr_scan"}}, {"name": "2238a2439028610e8fedd01ad877dfc3", "lon": -77.0330175, "lat": 38.956354166666664, "type": "electric_scooter", "fusion_lon": 0.0, "is_reserved": 0, "bike_id": "2238a2439028610e8fedd01ad877dfc3", "fusion_lat": 0.0, "is_disabled": 0, "rental_uris": {"ios": "https://dc.lft.to/lastmile_qr_scan", "android": "https://dc.lft.to/lastmile_qr_scan"}}, {"name": "e0eda53ecf0412200b830b5febc23533", "lon": -77.04482533333334, "lat": 38.922405166666664, "type": "electric_scooter", "fusion_lon": 0.0, "is_reserved": 0, "bike_id": "e0eda53ecf0412200b830b5febc23533", "fusion_lat": 0.0, "is_disabled": 0, "rental_uris": {"ios": "https://dc.lft.to/lastmile_qr_scan", "android": "https://dc.lft.to/lastmile_qr_scan"}}, {"name": "5bf9e938c322f41fae1f21955ef36bfc", "lon": -77.0290125, "lat": 38.88745183333333, "type": "electric_scooter", "fusion_lon": 0.0, "is_reserved": 0, "bike_id": "5bf9e938c322f41fae1f21955ef36bfc", "fusion_lat": 0.0, "is_disabled": 0, "rental_uris": {"ios": "https://dc.lft.to/lastmile_qr_scan", "android": "https://dc.lft.to/lastmile_qr_scan"}}, {"name": "b638716b4798cbea794a6913c7c0e644", "lon": -77.03549833333334, "lat": 38.90781033333333, "type": "electric_scooter", "fusion_lon": 0.0, "is_reserved": 0, "bike_id": "b638716b4798cbea794a6913c7c0e644", "fusion_lat": 0.0, "is_disabled": 0, "rental_uris": {"ios": "https://dc.lft.to/lastmile_qr_scan", "android": "https://dc.lft.to/lastmile_qr_scan"}}, {"name": "eeee8c6bc4f6caaf8aa36b8cc6c2db15", "lon": -77.00338566666667, "lat": 38.8898605, "type": "electric_scooter", "fusion_lon": 0.0, "is_reserved": 0, "bike_id": "eeee8c6bc4f6caaf8aa36b8cc6c2db15", "fusion_lat": 0.0, "is_disabled": 0, "rental_uris": {"ios": "https://dc.lft.to/lastmile_qr_scan", "android": "https://dc.lft.to/lastmile_qr_scan"}}, {"name": "919bde58e9c303695128b9b6261343d6", "lon": -77.04130916666666, "lat": 38.92177183333333, "type": "electric_scooter", "fusion_lon": 0.0, "is_reserved": 0, "bike_id": "919bde58e9c303695128b9b6261343d6", "fusion_lat": 0.0, "is_disabled": 0, "rental_uris": {"ios": "https://dc.lft.to/lastmile_qr_scan", "android": "https://dc.lft.to/lastmile_qr_scan"}}, {"name": "c992b22758a247ce0fcf24cc148593e7", "lon": -77.0236915, "lat": 38.90212783333333, "type": "electric_scooter", "fusion_lon": 0.0, "is_reserved": 0, "bike_id": "c992b22758a247ce0fcf24cc148593e7", "fusion_lat": 0.0, "is_disabled": 0, "rental_uris": {"ios": "https://dc.lft.to/lastmile_qr_scan", "android": "https://dc.lft.to/lastmile_qr_scan"}}, {"name": "a971893eeab67c5dfd2484ec9895eb59", "lon": -77.0499925, "lat": 38.892292833333336, "type": "electric_scooter", "fusion_lon": 0.0, "is_reserved": 0, "bike_id": "a971893eeab67c5dfd2484ec9895eb59", "fusion_lat": 0.0, "is_disabled": 0, "rental_uris": {"ios": "https://dc.lft.to/lastmile_qr_scan", "android": "https://dc.lft.to/lastmile_qr_scan"}}, {"name": "8e57f1705a48ae19abbafa7e38aa4243", "lon": -77.09456033333333, "lat": 38.886162666666664, "type": "electric_bike", "fusion_lon": 0.0, "is_reserved": 0, "bike_id": "8e57f1705a48ae19abbafa7e38aa4243", "fusion_lat": 0.0, "is_disabled": 0, "rental_uris": {"ios": "https://dc.lft.to/lastmile_qr_scan", "android": "https://dc.lft.to/lastmile_qr_scan"}}, {"name": "7f515a72843e715eafb9d3cfd8f0eca3", "lon": -77.0312425, "lat": 38.9156025, "type": "electric_scooter", "fusion_lon": 0.0, "is_reserved": 0, "bike_id": "7f515a72843e715eafb9d3cfd8f0eca3", "fusion_lat": 0.0, "is_disabled": 0, "rental_uris": {"ios": "https://dc.lft.to/lastmile_qr_scan", "android": "https://dc.lft.to/lastmile_qr_scan"}}, {"name": "801e0618059fbf30303f0b52eee71e11", "lon": -77.0418235, "lat": 38.892240666666666, "type": "electric_scooter", "fusion_lon": 0.0, "is_reserved": 0, "bike_id": "801e0618059fbf30303f0b52eee71e11", "fusion_lat": 0.0, "is_disabled": 0, "rental_uris": {"ios": "https://dc.lft.to/lastmile_qr_scan", "android": "https://dc.lft.to/lastmile_qr_scan"}}, {"name": "fd0605e0deac0ce5215c04d38c2ae99f", "lon": -76.9883925, "lat": 38.900348666666666, "type": "electric_scooter", "fusion_lon": 0.0, "is_reserved": 0, "bike_id": "fd0605e0deac0ce5215c04d38c2ae99f", "fusion_lat": 0.0, "is_disabled": 0, "rental_uris": {"ios": "https://dc.lft.to/lastmile_qr_scan", "android": "https://dc.lft.to/lastmile_qr_scan"}}, {"name": "c71c97dd0923eb93c87fec94b7bcb3b5", "lon": -77.0384205, "lat": 38.92159616666667, "type": "electric_scooter", "fusion_lon": 0.0, "is_reserved": 0, "bike_id": "c71c97dd0923eb93c87fec94b7bcb3b5", "fusion_lat": 0.0, "is_disabled": 0, "rental_uris": {"ios": "https://dc.lft.to/lastmile_qr_scan", "android": "https://dc.lft.to/lastmile_qr_scan"}}, {"name": "0b212d556526f8920cd5afa1fa93f64d", "lon": -77.03274816666666, "lat": 38.929545833333336, "type": "electric_scooter", "fusion_lon": 0.0, "is_reserved": 0, "bike_id": "0b212d556526f8920cd5afa1fa93f64d", "fusion_lat": 0.0, "is_disabled": 0, "rental_uris": {"ios": "https://dc.lft.to/lastmile_qr_scan", "android": "https://dc.lft.to/lastmile_qr_scan"}}, {"name": "a3030d2fec5ac010888b634bfc8cc0a7", "lon": -76.9479865, "lat": 38.861942, "type": "electric_bike", "fusion_lon": 0.0, "is_reserved": 0, "bike_id": "a3030d2fec5ac010888b634bfc8cc0a7", "fusion_lat": 0.0, "is_disabled": 0, "rental_uris": {"ios": "https://dc.lft.to/lastmile_qr_scan", "android": "https://dc.lft.to/lastmile_qr_scan"}}, {"name": "e7f19b8662a5c77ad1bb043b20e1c6cf", "lon": -76.9930825, "lat": 38.90015783333333, "type": "electric_scooter", "fusion_lon": 0.0, "is_reserved": 0, "bike_id": "e7f19b8662a5c77ad1bb043b20e1c6cf", "fusion_lat": 0.0, "is_disabled": 0, "rental_uris": {"ios": "https://dc.lft.to/lastmile_qr_scan", "android": "https://dc.lft.to/lastmile_qr_scan"}}, {"name": "6e8e21eb6b27f7ff41bbc8ca5fc40473", "lon": -76.93743016666667, "lat": 38.890132333333334, "type": "electric_scooter", "fusion_lon": 0.0, "is_reserved": 0, "bike_id": "6e8e21eb6b27f7ff41bbc8ca5fc40473", "fusion_lat": 0.0, "is_disabled": 0, "rental_uris": {"ios": "https://dc.lft.to/lastmile_qr_scan", "android": "https://dc.lft.to/lastmile_qr_scan"}}, {"name": "0b011aeace25a78c049520faff3afb08", "lon": -77.0268095, "lat": 38.90233083333333, "type": "electric_scooter", "fusion_lon": 0.0, "is_reserved": 0, "bike_id": "0b011aeace25a78c049520faff3afb08", "fusion_lat": 0.0, "is_disabled": 0, "rental_uris": {"ios": "https://dc.lft.to/lastmile_qr_scan", "android": "https://dc.lft.to/lastmile_qr_scan"}}, {"name": "f49e22e673db7911a8f1707c33dcc608", "lon": -77.03285183333334, "lat": 38.9205945, "type": "electric_scooter", "fusion_lon": 0.0, "is_reserved": 0, "bike_id": "f49e22e673db7911a8f1707c33dcc608", "fusion_lat": 0.0, "is_disabled": 0, "rental_uris": {"ios": "https://dc.lft.to/lastmile_qr_scan", "android": "https://dc.lft.to/lastmile_qr_scan"}}, {"name": "f5c405063990ec259e40ae2e79c17986", "lon": -77.04479483333333, "lat": 38.923855333333336, "type": "electric_scooter", "fusion_lon": 0.0, "is_reserved": 0, "bike_id": "f5c405063990ec259e40ae2e79c17986", "fusion_lat": 0.0, "is_disabled": 0, "rental_uris": {"ios": "https://dc.lft.to/lastmile_qr_scan", "android": "https://dc.lft.to/lastmile_qr_scan"}}, {"name": "9e4c58104ee7abf364d0a2c612efbfe1", "lon": -77.033819, "lat": 38.9038965, "type": "electric_scooter", "fusion_lon": 0.0, "is_reserved": 0, "bike_id": "9e4c58104ee7abf364d0a2c612efbfe1", "fusion_lat": 0.0, "is_disabled": 0, "rental_uris": {"ios": "https://dc.lft.to/lastmile_qr_scan", "android": "https://dc.lft.to/lastmile_qr_scan"}}, {"name": "a8d7f81866ee2c43257389c5e030388d", "lon": -77.02640433333333, "lat": 38.88105783333334, "type": "electric_scooter", "fusion_lon": 0.0, "is_reserved": 0, "bike_id": "a8d7f81866ee2c43257389c5e030388d", "fusion_lat": 0.0, "is_disabled": 0, "rental_uris": {"ios": "https://dc.lft.to/lastmile_qr_scan", "android": "https://dc.lft.to/lastmile_qr_scan"}}, {"name": "4102accf2320a08d5b74124ee22c92f0", "lon": -77.0303825, "lat": 38.91332466666667, "type": "electric_scooter", "fusion_lon": 0.0, "is_reserved": 0, "bike_id": "4102accf2320a08d5b74124ee22c92f0", "fusion_lat": 0.0, "is_disabled": 0, "rental_uris": {"ios": "https://dc.lft.to/lastmile_qr_scan", "android": "https://dc.lft.to/lastmile_qr_scan"}}, {"name": "dbfd08529b6fe3d5f0ed66e45aed5689", "lon": -77.03048816666667, "lat": 38.90951316666667, "type": "electric_scooter", "fusion_lon": 0.0, "is_reserved": 0, "bike_id": "dbfd08529b6fe3d5f0ed66e45aed5689", "fusion_lat": 0.0, "is_disabled": 0, "rental_uris": {"ios": "https://dc.lft.to/lastmile_qr_scan", "android": "https://dc.lft.to/lastmile_qr_scan"}}, {"name": "ee0fa49d6a9987b14446c65c6ab0e196", "lon": -77.04566816666667, "lat": 38.941025, "type": "electric_scooter", "fusion_lon": 0.0, "is_reserved": 0, "bike_id": "ee0fa49d6a9987b14446c65c6ab0e196", "fusion_lat": 0.0, "is_disabled": 0, "rental_uris": {"ios": "https://dc.lft.to/lastmile_qr_scan", "android": "https://dc.lft.to/lastmile_qr_scan"}}, {"name": "2ced525de0c42ad46f108aca548bbabb", "lon": -76.98474883333333, "lat": 38.91092483333333, "type": "electric_bike", "fusion_lon": 0.0, "is_reserved": 0, "bike_id": "2ced525de0c42ad46f108aca548bbabb", "fusion_lat": 0.0, "is_disabled": 0, "rental_uris": {"ios": "https://dc.lft.to/lastmile_qr_scan", "android": "https://dc.lft.to/lastmile_qr_scan"}}, {"name": "271cced50857a7fe3436117ba8b97414", "lon": -76.99837183333334, "lat": 38.890784833333335, "type": "electric_scooter", "fusion_lon": 0.0, "is_reserved": 0, "bike_id": "271cced50857a7fe3436117ba8b97414", "fusion_lat": 0.0, "is_disabled": 0, "rental_uris": {"ios": "https://dc.lft.to/lastmile_qr_scan", "android": "https://dc.lft.to/lastmile_qr_scan"}}, {"name": "69f7d0973a2866afc6ae35aecc1f9a4a", "lon": -77.04268166666667, "lat": 38.905626833333336, "type": "electric_scooter", "fusion_lon": 0.0, "is_reserved": 0, "bike_id": "69f7d0973a2866afc6ae35aecc1f9a4a", "fusion_lat": 0.0, "is_disabled": 0, "rental_uris": {"ios": "https://dc.lft.to/lastmile_qr_scan", "android": "https://dc.lft.to/lastmile_qr_scan"}}, {"name": "e55e27cd04427ee93604af9983f69939", "lon": -77.0462775, "lat": 38.91918733333333, "type": "electric_scooter", "fusion_lon": 0.0, "is_reserved": 0, "bike_id": "e55e27cd04427ee93604af9983f69939", "fusion_lat": 0.0, "is_disabled": 0, "rental_uris": {"ios": "https://dc.lft.to/lastmile_qr_scan", "android": "https://dc.lft.to/lastmile_qr_scan"}}, {"name": "22fe1ac7dec15be6655a68146beb5da6", "lon": -77.0277575, "lat": 38.93958583333333, "type": "electric_scooter", "fusion_lon": 0.0, "is_reserved": 0, "bike_id": "22fe1ac7dec15be6655a68146beb5da6", "fusion_lat": 0.0, "is_disabled": 0, "rental_uris": {"ios": "https://dc.lft.to/lastmile_qr_scan", "android": "https://dc.lft.to/lastmile_qr_scan"}}, {"name": "953f5cec62e581ffab162f3fb1c383c9", "lon": -77.0233275, "lat": 38.926136166666666, "type": "electric_scooter", "fusion_lon": 0.0, "is_reserved": 0, "bike_id": "953f5cec62e581ffab162f3fb1c383c9", "fusion_lat": 0.0, "is_disabled": 0, "rental_uris": {"ios": "https://dc.lft.to/lastmile_qr_scan", "android": "https://dc.lft.to/lastmile_qr_scan"}}, {"name": "903853a22066ebe32c222da245d4dc84", "lon": -77.03223533333333, "lat": 38.9172055, "type": "electric_scooter", "fusion_lon": 0.0, "is_reserved": 0, "bike_id": "903853a22066ebe32c222da245d4dc84", "fusion_lat": 0.0, "is_disabled": 0, "rental_uris": {"ios": "https://dc.lft.to/lastmile_qr_scan", "android": "https://dc.lft.to/lastmile_qr_scan"}}, {"name": "e2ec46a1de24a083fc13504ab48466b8", "lon": -77.025949, "lat": 38.916889, "type": "electric_scooter", "fusion_lon": 0.0, "is_reserved": 0, "bike_id": "e2ec46a1de24a083fc13504ab48466b8", "fusion_lat": 0.0, "is_disabled": 0, "rental_uris": {"ios": "https://dc.lft.to/lastmile_qr_scan", "android": "https://dc.lft.to/lastmile_qr_scan"}}, {"name": "6e44a9f2a77c348b0b554d63ab02328e", "lon": -76.988485, "lat": 38.9019635, "type": "electric_scooter", "fusion_lon": 0.0, "is_reserved": 0, "bike_id": "6e44a9f2a77c348b0b554d63ab02328e", "fusion_lat": 0.0, "is_disabled": 0, "rental_uris": {"ios": "https://dc.lft.to/lastmile_qr_scan", "android": "https://dc.lft.to/lastmile_qr_scan"}}, {"name": "172387df882287d6788d10f0cc7898c2", "lon": -76.98606016666666, "lat": 38.90624716666667, "type": "electric_bike", "fusion_lon": 0.0, "is_reserved": 0, "bike_id": "172387df882287d6788d10f0cc7898c2", "fusion_lat": 0.0, "is_disabled": 0, "rental_uris": {"ios": "https://dc.lft.to/lastmile_qr_scan", "android": "https://dc.lft.to/lastmile_qr_scan"}}, {"name": "7202301ff3482b633fdd17e7b0fb9f02", "lon": -77.04360816666667, "lat": 38.921451833333336, "type": "electric_scooter", "fusion_lon": 0.0, "is_reserved": 0, "bike_id": "7202301ff3482b633fdd17e7b0fb9f02", "fusion_lat": 0.0, "is_disabled": 0, "rental_uris": {"ios": "https://dc.lft.to/lastmile_qr_scan", "android": "https://dc.lft.to/lastmile_qr_scan"}}, {"name": "71a2f80cb08a063f0f27d1516de33715", "lon": -77.0279975, "lat": 38.933014166666666, "type": "electric_scooter", "fusion_lon": 0.0, "is_reserved": 0, "bike_id": "71a2f80cb08a063f0f27d1516de33715", "fusion_lat": 0.0, "is_disabled": 0, "rental_uris": {"ios": "https://dc.lft.to/lastmile_qr_scan", "android": "https://dc.lft.to/lastmile_qr_scan"}}, {"name": "72a15d39d5a035b9fc26a46ca2347d1f", "lon": -76.923324, "lat": 38.87109133333333, "type": "electric_bike", "fusion_lon": 0.0, "is_reserved": 0, "bike_id": "72a15d39d5a035b9fc26a46ca2347d1f", "fusion_lat": 0.0, "is_disabled": 0, "rental_uris": {"ios": "https://dc.lft.to/lastmile_qr_scan", "android": "https://dc.lft.to/lastmile_qr_scan"}}, {"name": "c7b2a654c2284e50892fcaf581505a08", "lon": -76.944231, "lat": 38.9661935, "type": "electric_bike", "fusion_lon": 0.0, "is_reserved": 0, "bike_id": "c7b2a654c2284e50892fcaf581505a08", "fusion_lat": 0.0, "is_disabled": 0, "rental_uris": {"ios": "https://dc.lft.to/lastmile_qr_scan", "android": "https://dc.lft.to/lastmile_qr_scan"}}, {"name": "945b38191c66f0cea15757a37552d7b5", "lon": -77.02496916666666, "lat": 38.92085083333333, "type": "electric_scooter", "fusion_lon": 0.0, "is_reserved": 0, "bike_id": "945b38191c66f0cea15757a37552d7b5", "fusion_lat": 0.0, "is_disabled": 0, "rental_uris": {"ios": "https://dc.lft.to/lastmile_qr_scan", "android": "https://dc.lft.to/lastmile_qr_scan"}}, {"name": "128de8713213ee8757ce3782b7c34905", "lon": -77.04243066666666, "lat": 38.91339166666667, "type": "electric_scooter", "fusion_lon": 0.0, "is_reserved": 0, "bike_id": "128de8713213ee8757ce3782b7c34905", "fusion_lat": 0.0, "is_disabled": 0, "rental_uris": {"ios": "https://dc.lft.to/lastmile_qr_scan", "android": "https://dc.lft.to/lastmile_qr_scan"}}, {"name": "aa89a27d3631ecd60adc5018fab91c2c", "lon": -77.05170383333333, "lat": 38.903804, "type": "electric_scooter", "fusion_lon": 0.0, "is_reserved": 0, "bike_id": "aa89a27d3631ecd60adc5018fab91c2c", "fusion_lat": 0.0, "is_disabled": 0, "rental_uris": {"ios": "https://dc.lft.to/lastmile_qr_scan", "android": "https://dc.lft.to/lastmile_qr_scan"}}, {"name": "f8a48bd43d52c3bb58f5d0cb7b6dd926", "lon": -77.02882416666667, "lat": 38.90433766666666, "type": "electric_scooter", "fusion_lon": 0.0, "is_reserved": 0, "bike_id": "f8a48bd43d52c3bb58f5d0cb7b6dd926", "fusion_lat": 0.0, "is_disabled": 0, "rental_uris": {"ios": "https://dc.lft.to/lastmile_qr_scan", "android": "https://dc.lft.to/lastmile_qr_scan"}}, {"name": "d910666cf3a234cca70ac9446c48783c", "lon": -77.03359983333333, "lat": 38.9289005, "type": "electric_scooter", "fusion_lon": 0.0, "is_reserved": 0, "bike_id": "d910666cf3a234cca70ac9446c48783c", "fusion_lat": 0.0, "is_disabled": 0, "rental_uris": {"ios": "https://dc.lft.to/lastmile_qr_scan", "android": "https://dc.lft.to/lastmile_qr_scan"}}, {"name": "b941d0e42242d2fb09221832919b61c9", "lon": -77.00273333333334, "lat": 38.88715466666667, "type": "electric_scooter", "fusion_lon": 0.0, "is_reserved": 0, "bike_id": "b941d0e42242d2fb09221832919b61c9", "fusion_lat": 0.0, "is_disabled": 0, "rental_uris": {"ios": "https://dc.lft.to/lastmile_qr_scan", "android": "https://dc.lft.to/lastmile_qr_scan"}}, {"name": "553672cef2c59cfd6ca130777563416b", "lon": -77.04700466666667, "lat": 38.9023355, "type": "electric_scooter", "fusion_lon": 0.0, "is_reserved": 0, "bike_id": "553672cef2c59cfd6ca130777563416b", "fusion_lat": 0.0, "is_disabled": 0, "rental_uris": {"ios": "https://dc.lft.to/lastmile_qr_scan", "android": "https://dc.lft.to/lastmile_qr_scan"}}, {"name": "d1d5beec4bea303c392c5d65843da146", "lon": -77.023953, "lat": 38.91745783333333, "type": "electric_scooter", "fusion_lon": 0.0, "is_reserved": 0, "bike_id": "d1d5beec4bea303c392c5d65843da146", "fusion_lat": 0.0, "is_disabled": 0, "rental_uris": {"ios": "https://dc.lft.to/lastmile_qr_scan", "android": "https://dc.lft.to/lastmile_qr_scan"}}, {"name": "e7ed1bc921d7aec2a04611f5734e549a", "lon": -77.0234585, "lat": 38.94613483333333, "type": "electric_scooter", "fusion_lon": 0.0, "is_reserved": 0, "bike_id": "e7ed1bc921d7aec2a04611f5734e549a", "fusion_lat": 0.0, "is_disabled": 0, "rental_uris": {"ios": "https://dc.lft.to/lastmile_qr_scan", "android": "https://dc.lft.to/lastmile_qr_scan"}}, {"name": "7f7854e97e85fadc42ebb4e9dcd710b7", "lon": -77.05133083333334, "lat": 38.90711316666667, "type": "electric_scooter", "fusion_lon": 0.0, "is_reserved": 0, "bike_id": "7f7854e97e85fadc42ebb4e9dcd710b7", "fusion_lat": 0.0, "is_disabled": 0, "rental_uris": {"ios": "https://dc.lft.to/lastmile_qr_scan", "android": "https://dc.lft.to/lastmile_qr_scan"}}, {"name": "ad06fc826a810e07e92a453a71ba3843", "lon": -76.96713033333333, "lat": 38.847973, "type": "electric_scooter", "fusion_lon": 0.0, "is_reserved": 0, "bike_id": "ad06fc826a810e07e92a453a71ba3843", "fusion_lat": 0.0, "is_disabled": 0, "rental_uris": {"ios": "https://dc.lft.to/lastmile_qr_scan", "android": "https://dc.lft.to/lastmile_qr_scan"}}, {"name": "acc2ca6207f81fa58f0c6c784ff09ee6", "lon": -77.0074715, "lat": 38.89845783333333, "type": "electric_scooter", "fusion_lon": 0.0, "is_reserved": 0, "bike_id": "acc2ca6207f81fa58f0c6c784ff09ee6", "fusion_lat": 0.0, "is_disabled": 0, "rental_uris": {"ios": "https://dc.lft.to/lastmile_qr_scan", "android": "https://dc.lft.to/lastmile_qr_scan"}}, {"name": "427dd8c1b7ad14af42f2bad7f7cd934a", "lon": -77.03513983333333, "lat": 38.962011333333336, "type": "electric_bike", "fusion_lon": 0.0, "is_reserved": 0, "bike_id": "427dd8c1b7ad14af42f2bad7f7cd934a", "fusion_lat": 0.0, "is_disabled": 0, "rental_uris": {"ios": "https://dc.lft.to/lastmile_qr_scan", "android": "https://dc.lft.to/lastmile_qr_scan"}}, {"name": "e47e40eb658ed5c22447b4795be4b6ae", "lon": -77.047526, "lat": 38.916553666666665, "type": "electric_scooter", "fusion_lon": 0.0, "is_reserved": 0, "bike_id": "e47e40eb658ed5c22447b4795be4b6ae", "fusion_lat": 0.0, "is_disabled": 0, "rental_uris": {"ios": "https://dc.lft.to/lastmile_qr_scan", "android": "https://dc.lft.to/lastmile_qr_scan"}}, {"name": "1cbaa50ff0e0f630cc29da6c4d854087", "lon": -77.02499066666667, "lat": 38.90568566666666, "type": "electric_scooter", "fusion_lon": 0.0, "is_reserved": 0, "bike_id": "1cbaa50ff0e0f630cc29da6c4d854087", "fusion_lat": 0.0, "is_disabled": 0, "rental_uris": {"ios": "https://dc.lft.to/lastmile_qr_scan", "android": "https://dc.lft.to/lastmile_qr_scan"}}, {"name": "f3663acaf3d6178e87a727090324cda0", "lon": -77.02400333333334, "lat": 38.917438833333335, "type": "electric_scooter", "fusion_lon": 0.0, "is_reserved": 0, "bike_id": "f3663acaf3d6178e87a727090324cda0", "fusion_lat": 0.0, "is_disabled": 0, "rental_uris": {"ios": "https://dc.lft.to/lastmile_qr_scan", "android": "https://dc.lft.to/lastmile_qr_scan"}}, {"name": "e11e1d00decf41cacfed38f0bd60c243", "lon": -77.03181316666667, "lat": 38.9094825, "type": "electric_scooter", "fusion_lon": 0.0, "is_reserved": 0, "bike_id": "e11e1d00decf41cacfed38f0bd60c243", "fusion_lat": 0.0, "is_disabled": 0, "rental_uris": {"ios": "https://dc.lft.to/lastmile_qr_scan", "android": "https://dc.lft.to/lastmile_qr_scan"}}, {"name": "0c7006eef7771fc757e8366f0e7327a9", "lon": -77.04551083333334, "lat": 38.93407066666666, "type": "electric_scooter", "fusion_lon": 0.0, "is_reserved": 0, "bike_id": "0c7006eef7771fc757e8366f0e7327a9", "fusion_lat": 0.0, "is_disabled": 0, "rental_uris": {"ios": "https://dc.lft.to/lastmile_qr_scan", "android": "https://dc.lft.to/lastmile_qr_scan"}}, {"name": "3aec48821a763258bff85245d5ca4986", "lon": -77.0318225, "lat": 38.909493, "type": "electric_scooter", "fusion_lon": 0.0, "is_reserved": 0, "bike_id": "3aec48821a763258bff85245d5ca4986", "fusion_lat": 0.0, "is_disabled": 0, "rental_uris": {"ios": "https://dc.lft.to/lastmile_qr_scan", "android": "https://dc.lft.to/lastmile_qr_scan"}}, {"name": "432d87807876f5bedad9ad56a2bc13fc", "lon": -77.035082, "lat": 38.900513833333335, "type": "electric_scooter", "fusion_lon": 0.0, "is_reserved": 0, "bike_id": "432d87807876f5bedad9ad56a2bc13fc", "fusion_lat": 0.0, "is_disabled": 0, "rental_uris": {"ios": "https://dc.lft.to/lastmile_qr_scan", "android": "https://dc.lft.to/lastmile_qr_scan"}}, {"name": "aae335b2265f09f0b11fda59d609ccb4", "lon": -77.02173666666667, "lat": 38.91985116666667, "type": "electric_scooter", "fusion_lon": 0.0, "is_reserved": 0, "bike_id": "aae335b2265f09f0b11fda59d609ccb4", "fusion_lat": 0.0, "is_disabled": 0, "rental_uris": {"ios": "https://dc.lft.to/lastmile_qr_scan", "android": "https://dc.lft.to/lastmile_qr_scan"}}, {"name": "9ea899806c285e259a6d1c7ea64e4117", "lon": -77.05092066666667, "lat": 38.923359833333336, "type": "electric_scooter", "fusion_lon": 0.0, "is_reserved": 0, "bike_id": "9ea899806c285e259a6d1c7ea64e4117", "fusion_lat": 0.0, "is_disabled": 0, "rental_uris": {"ios": "https://dc.lft.to/lastmile_qr_scan", "android": "https://dc.lft.to/lastmile_qr_scan"}}, {"name": "9631b952a373fb3ed483b0e36ba6e339", "lon": -77.0418915, "lat": 38.9198925, "type": "electric_scooter", "fusion_lon": 0.0, "is_reserved": 0, "bike_id": "9631b952a373fb3ed483b0e36ba6e339", "fusion_lat": 0.0, "is_disabled": 0, "rental_uris": {"ios": "https://dc.lft.to/lastmile_qr_scan", "android": "https://dc.lft.to/lastmile_qr_scan"}}, {"name": "083f65de3efb340890fb3bd87a8255a6", "lon": -77.018181, "lat": 38.9236775, "type": "electric_scooter", "fusion_lon": 0.0, "is_reserved": 0, "bike_id": "083f65de3efb340890fb3bd87a8255a6", "fusion_lat": 0.0, "is_disabled": 0, "rental_uris": {"ios": "https://dc.lft.to/lastmile_qr_scan", "android": "https://dc.lft.to/lastmile_qr_scan"}}, {"name": "8b4ca72d2138c3f1443215392cc199b6", "lon": -77.01156383333333, "lat": 38.905720333333335, "type": "electric_scooter", "fusion_lon": 0.0, "is_reserved": 0, "bike_id": "8b4ca72d2138c3f1443215392cc199b6", "fusion_lat": 0.0, "is_disabled": 0, "rental_uris": {"ios": "https://dc.lft.to/lastmile_qr_scan", "android": "https://dc.lft.to/lastmile_qr_scan"}}, {"name": "51bf8e8078ae98753ce70d0d27cfd3d9", "lon": -77.045674, "lat": 38.913319, "type": "electric_scooter", "fusion_lon": 0.0, "is_reserved": 0, "bike_id": "51bf8e8078ae98753ce70d0d27cfd3d9", "fusion_lat": 0.0, "is_disabled": 0, "rental_uris": {"ios": "https://dc.lft.to/lastmile_qr_scan", "android": "https://dc.lft.to/lastmile_qr_scan"}}, {"name": "1c774895748f79f42b1c9c6fe251753a", "lon": -77.01534633333333, "lat": 38.8873665, "type": "electric_scooter", "fusion_lon": 0.0, "is_reserved": 0, "bike_id": "1c774895748f79f42b1c9c6fe251753a", "fusion_lat": 0.0, "is_disabled": 0, "rental_uris": {"ios": "https://dc.lft.to/lastmile_qr_scan", "android": "https://dc.lft.to/lastmile_qr_scan"}}, {"name": "0149e2d0768c4eb81cb485170a69014f", "lon": -77.05864933333334, "lat": 38.93608666666667, "type": "electric_scooter", "fusion_lon": 0.0, "is_reserved": 0, "bike_id": "0149e2d0768c4eb81cb485170a69014f", "fusion_lat": 0.0, "is_disabled": 0, "rental_uris": {"ios": "https://dc.lft.to/lastmile_qr_scan", "android": "https://dc.lft.to/lastmile_qr_scan"}}, {"name": "3207c8d8659b3fee5c32b0a430143a54", "lon": -77.02615883333333, "lat": 38.89674383333333, "type": "electric_scooter", "fusion_lon": 0.0, "is_reserved": 0, "bike_id": "3207c8d8659b3fee5c32b0a430143a54", "fusion_lat": 0.0, "is_disabled": 0, "rental_uris": {"ios": "https://dc.lft.to/lastmile_qr_scan", "android": "https://dc.lft.to/lastmile_qr_scan"}}, {"name": "08e89a2d07289d4cc35985ef89f0a26b", "lon": -77.04679383333334, "lat": 38.895112833333336, "type": "electric_scooter", "fusion_lon": 0.0, "is_reserved": 0, "bike_id": "08e89a2d07289d4cc35985ef89f0a26b", "fusion_lat": 0.0, "is_disabled": 0, "rental_uris": {"ios": "https://dc.lft.to/lastmile_qr_scan", "android": "https://dc.lft.to/lastmile_qr_scan"}}, {"name": "4ccae20665b561cc673ce998cfc2e3bf", "lon": -76.94632516666667, "lat": 38.89842216666667, "type": "electric_scooter", "fusion_lon": 0.0, "is_reserved": 0, "bike_id": "4ccae20665b561cc673ce998cfc2e3bf", "fusion_lat": 0.0, "is_disabled": 0, "rental_uris": {"ios": "https://dc.lft.to/lastmile_qr_scan", "android": "https://dc.lft.to/lastmile_qr_scan"}}, {"name": "00155cc801a77db98e221e5d0ff2e1ef", "lon": -77.03379183333334, "lat": 38.92153583333333, "type": "electric_scooter", "fusion_lon": 0.0, "is_reserved": 0, "bike_id": "00155cc801a77db98e221e5d0ff2e1ef", "fusion_lat": 0.0, "is_disabled": 0, "rental_uris": {"ios": "https://dc.lft.to/lastmile_qr_scan", "android": "https://dc.lft.to/lastmile_qr_scan"}}, {"name": "c045b11b085fdc4b4c84a746412c506e", "lon": -76.98395333333333, "lat": 38.86691666666667, "type": "electric_scooter", "fusion_lon": 0.0, "is_reserved": 0, "bike_id": "c045b11b085fdc4b4c84a746412c506e", "fusion_lat": 0.0, "is_disabled": 0, "rental_uris": {"ios": "https://dc.lft.to/lastmile_qr_scan", "android": "https://dc.lft.to/lastmile_qr_scan"}}, {"name": "b2609b36d80b3c9620abb4cb729c5454", "lon": -77.00470783333333, "lat": 38.8253625, "type": "electric_scooter", "fusion_lon": 0.0, "is_reserved": 0, "bike_id": "b2609b36d80b3c9620abb4cb729c5454", "fusion_lat": 0.0, "is_disabled": 0, "rental_uris": {"ios": "https://dc.lft.to/lastmile_qr_scan", "android": "https://dc.lft.to/lastmile_qr_scan"}}, {"name": "9b3da78f51138f6d064a6b8f532533ed", "lon": -77.02397616666667, "lat": 38.931012333333335, "type": "electric_scooter", "fusion_lon": 0.0, "is_reserved": 0, "bike_id": "9b3da78f51138f6d064a6b8f532533ed", "fusion_lat": 0.0, "is_disabled": 0, "rental_uris": {"ios": "https://dc.lft.to/lastmile_qr_scan", "android": "https://dc.lft.to/lastmile_qr_scan"}}, {"name": "3d7442d162f465cb206e97b6bd01da6e", "lon": -77.07304433333333, "lat": 38.9215855, "type": "electric_scooter", "fusion_lon": 0.0, "is_reserved": 0, "bike_id": "3d7442d162f465cb206e97b6bd01da6e", "fusion_lat": 0.0, "is_disabled": 0, "rental_uris": {"ios": "https://dc.lft.to/lastmile_qr_scan", "android": "https://dc.lft.to/lastmile_qr_scan"}}, {"name": "be727f50904fad13308120d923f86866", "lon": -77.04046066666666, "lat": 38.90441383333334, "type": "electric_scooter", "fusion_lon": 0.0, "is_reserved": 0, "bike_id": "be727f50904fad13308120d923f86866", "fusion_lat": 0.0, "is_disabled": 0, "rental_uris": {"ios": "https://dc.lft.to/lastmile_qr_scan", "android": "https://dc.lft.to/lastmile_qr_scan"}}, {"name": "7550bbb028b4086c3639aa943f55c141", "lon": -77.0378815, "lat": 38.932165499999996, "type": "electric_scooter", "fusion_lon": 0.0, "is_reserved": 0, "bike_id": "7550bbb028b4086c3639aa943f55c141", "fusion_lat": 0.0, "is_disabled": 0, "rental_uris": {"ios": "https://dc.lft.to/lastmile_qr_scan", "android": "https://dc.lft.to/lastmile_qr_scan"}}, {"name": "01055b69de49a1e458549094b56b4a20", "lon": -77.045533, "lat": 38.92421616666667, "type": "electric_scooter", "fusion_lon": 0.0, "is_reserved": 0, "bike_id": "01055b69de49a1e458549094b56b4a20", "fusion_lat": 0.0, "is_disabled": 0, "rental_uris": {"ios": "https://dc.lft.to/lastmile_qr_scan", "android": "https://dc.lft.to/lastmile_qr_scan"}}, {"name": "e98cf671b60d2f53ec4d29cd6105bb21", "lon": -77.03853416666666, "lat": 38.9161705, "type": "electric_scooter", "fusion_lon": 0.0, "is_reserved": 0, "bike_id": "e98cf671b60d2f53ec4d29cd6105bb21", "fusion_lat": 0.0, "is_disabled": 0, "rental_uris": {"ios": "https://dc.lft.to/lastmile_qr_scan", "android": "https://dc.lft.to/lastmile_qr_scan"}}, {"name": "4f4d199886d23f80503111fa53119048", "lon": -76.937372, "lat": 38.8901535, "type": "electric_scooter", "fusion_lon": 0.0, "is_reserved": 0, "bike_id": "4f4d199886d23f80503111fa53119048", "fusion_lat": 0.0, "is_disabled": 0, "rental_uris": {"ios": "https://dc.lft.to/lastmile_qr_scan", "android": "https://dc.lft.to/lastmile_qr_scan"}}, {"name": "11e211688e116630cb5f0d7ac93dace9", "lon": -77.0283175, "lat": 38.932736166666665, "type": "electric_scooter", "fusion_lon": 0.0, "is_reserved": 0, "bike_id": "11e211688e116630cb5f0d7ac93dace9", "fusion_lat": 0.0, "is_disabled": 0, "rental_uris": {"ios": "https://dc.lft.to/lastmile_qr_scan", "android": "https://dc.lft.to/lastmile_qr_scan"}}, {"name": "e09d50208b921bafd5c421ffbb7b59f7", "lon": -77.02525083333333, "lat": 38.909602, "type": "electric_scooter", "fusion_lon": 0.0, "is_reserved": 0, "bike_id": "e09d50208b921bafd5c421ffbb7b59f7", "fusion_lat": 0.0, "is_disabled": 0, "rental_uris": {"ios": "https://dc.lft.to/lastmile_qr_scan", "android": "https://dc.lft.to/lastmile_qr_scan"}}, {"name": "d4f0bc51f2c794d06b9ea42618214b8a", "lon": -76.97338983333333, "lat": 38.917856, "type": "electric_scooter", "fusion_lon": 0.0, "is_reserved": 0, "bike_id": "d4f0bc51f2c794d06b9ea42618214b8a", "fusion_lat": 0.0, "is_disabled": 0, "rental_uris": {"ios": "https://dc.lft.to/lastmile_qr_scan", "android": "https://dc.lft.to/lastmile_qr_scan"}}, {"name": "6d97ac3f5abb12c0112d62119aabbfa4", "lon": -77.0392315, "lat": 38.90278133333333, "type": "electric_scooter", "fusion_lon": 0.0, "is_reserved": 0, "bike_id": "6d97ac3f5abb12c0112d62119aabbfa4", "fusion_lat": 0.0, "is_disabled": 0, "rental_uris": {"ios": "https://dc.lft.to/lastmile_qr_scan", "android": "https://dc.lft.to/lastmile_qr_scan"}}, {"name": "642da4ff094fa766d04e373cc0f1addc", "lon": -77.05884483333334, "lat": 38.91823933333333, "type": "electric_scooter", "fusion_lon": 0.0, "is_reserved": 0, "bike_id": "642da4ff094fa766d04e373cc0f1addc", "fusion_lat": 0.0, "is_disabled": 0, "rental_uris": {"ios": "https://dc.lft.to/lastmile_qr_scan", "android": "https://dc.lft.to/lastmile_qr_scan"}}, {"name": "1dc8c7883ef59c7cf2696d9c875a4aa9", "lon": -77.04018316666667, "lat": 38.92198666666667, "type": "electric_scooter", "fusion_lon": 0.0, "is_reserved": 0, "bike_id": "1dc8c7883ef59c7cf2696d9c875a4aa9", "fusion_lat": 0.0, "is_disabled": 0, "rental_uris": {"ios": "https://dc.lft.to/lastmile_qr_scan", "android": "https://dc.lft.to/lastmile_qr_scan"}}, {"name": "730254ed6a8f30eb0daed40e7621bde6", "lon": -76.98397533333333, "lat": 38.866983166666664, "type": "electric_scooter", "fusion_lon": 0.0, "is_reserved": 0, "bike_id": "730254ed6a8f30eb0daed40e7621bde6", "fusion_lat": 0.0, "is_disabled": 0, "rental_uris": {"ios": "https://dc.lft.to/lastmile_qr_scan", "android": "https://dc.lft.to/lastmile_qr_scan"}}, {"name": "c6b6f66b4418d34ec6b6c953a35775c6", "lon": -77.02369916666666, "lat": 38.902148833333335, "type": "electric_scooter", "fusion_lon": 0.0, "is_reserved": 0, "bike_id": "c6b6f66b4418d34ec6b6c953a35775c6", "fusion_lat": 0.0, "is_disabled": 0, "rental_uris": {"ios": "https://dc.lft.to/lastmile_qr_scan", "android": "https://dc.lft.to/lastmile_qr_scan"}}, {"name": "d0bcda5af66e743fe73e30f0670e005e", "lon": -77.05001716666666, "lat": 38.8923095, "type": "electric_scooter", "fusion_lon": 0.0, "is_reserved": 0, "bike_id": "d0bcda5af66e743fe73e30f0670e005e", "fusion_lat": 0.0, "is_disabled": 0, "rental_uris": {"ios": "https://dc.lft.to/lastmile_qr_scan", "android": "https://dc.lft.to/lastmile_qr_scan"}}, {"name": "7068dd59a425b770b495c0a2137ca59d", "lon": -77.0432885, "lat": 38.904992166666666, "type": "electric_scooter", "fusion_lon": 0.0, "is_reserved": 0, "bike_id": "7068dd59a425b770b495c0a2137ca59d", "fusion_lat": 0.0, "is_disabled": 0, "rental_uris": {"ios": "https://dc.lft.to/lastmile_qr_scan", "android": "https://dc.lft.to/lastmile_qr_scan"}}, {"name": "fdfa3317a2432d85224dbd128958881b", "lon": -76.93346316666667, "lat": 38.88813916666667, "type": "electric_scooter", "fusion_lon": 0.0, "is_reserved": 0, "bike_id": "fdfa3317a2432d85224dbd128958881b", "fusion_lat": 0.0, "is_disabled": 0, "rental_uris": {"ios": "https://dc.lft.to/lastmile_qr_scan", "android": "https://dc.lft.to/lastmile_qr_scan"}}, {"name": "856f53fc26f07b6998a6c7d4ff6dbd2b", "lon": -77.02678833333333, "lat": 38.89622633333333, "type": "electric_scooter", "fusion_lon": 0.0, "is_reserved": 0, "bike_id": "856f53fc26f07b6998a6c7d4ff6dbd2b", "fusion_lat": 0.0, "is_disabled": 0, "rental_uris": {"ios": "https://dc.lft.to/lastmile_qr_scan", "android": "https://dc.lft.to/lastmile_qr_scan"}}, {"name": "03aa22443a099ad7e651d71a81039f88", "lon": -76.9907265, "lat": 38.904105666666666, "type": "electric_scooter", "fusion_lon": 0.0, "is_reserved": 0, "bike_id": "03aa22443a099ad7e651d71a81039f88", "fusion_lat": 0.0, "is_disabled": 0, "rental_uris": {"ios": "https://dc.lft.to/lastmile_qr_scan", "android": "https://dc.lft.to/lastmile_qr_scan"}}, {"name": "4c5ff0e09e38bee50aa59eacc4d6aca5", "lon": -77.03394433333334, "lat": 38.914038833333336, "type": "electric_scooter", "fusion_lon": 0.0, "is_reserved": 0, "bike_id": "4c5ff0e09e38bee50aa59eacc4d6aca5", "fusion_lat": 0.0, "is_disabled": 0, "rental_uris": {"ios": "https://dc.lft.to/lastmile_qr_scan", "android": "https://dc.lft.to/lastmile_qr_scan"}}, {"name": "d945f1a59f0ea01700caad3bc5e122d7", "lon": -77.030263, "lat": 38.897589833333335, "type": "electric_scooter", "fusion_lon": 0.0, "is_reserved": 0, "bike_id": "d945f1a59f0ea01700caad3bc5e122d7", "fusion_lat": 0.0, "is_disabled": 0, "rental_uris": {"ios": "https://dc.lft.to/lastmile_qr_scan", "android": "https://dc.lft.to/lastmile_qr_scan"}}, {"name": "28ebfcc729465fe3996423e31e835c14", "lon": -77.0239525, "lat": 38.9059895, "type": "electric_scooter", "fusion_lon": 0.0, "is_reserved": 0, "bike_id": "28ebfcc729465fe3996423e31e835c14", "fusion_lat": 0.0, "is_disabled": 0, "rental_uris": {"ios": "https://dc.lft.to/lastmile_qr_scan", "android": "https://dc.lft.to/lastmile_qr_scan"}}, {"name": "e3027632e0a340b5bde3210fe7325115", "lon": -77.036709, "lat": 38.927245166666665, "type": "electric_scooter", "fusion_lon": 0.0, "is_reserved": 0, "bike_id": "e3027632e0a340b5bde3210fe7325115", "fusion_lat": 0.0, "is_disabled": 0, "rental_uris": {"ios": "https://dc.lft.to/lastmile_qr_scan", "android": "https://dc.lft.to/lastmile_qr_scan"}}, {"name": "3560b423a3988f2177f7f4c74f64d8d1", "lon": -76.98688166666666, "lat": 38.944742, "type": "electric_bike", "fusion_lon": 0.0, "is_reserved": 0, "bike_id": "3560b423a3988f2177f7f4c74f64d8d1", "fusion_lat": 0.0, "is_disabled": 0, "rental_uris": {"ios": "https://dc.lft.to/lastmile_qr_scan", "android": "https://dc.lft.to/lastmile_qr_scan"}}, {"name": "3b42362668db4336b54d363380214280", "lon": -77.06026783333333, "lat": 38.90184566666667, "type": "electric_scooter", "fusion_lon": 0.0, "is_reserved": 0, "bike_id": "3b42362668db4336b54d363380214280", "fusion_lat": 0.0, "is_disabled": 0, "rental_uris": {"ios": "https://dc.lft.to/lastmile_qr_scan", "android": "https://dc.lft.to/lastmile_qr_scan"}}, {"name": "a7f38f3176a252cfdc831c7510d7464e", "lon": -77.043391, "lat": 38.90674083333333, "type": "electric_scooter", "fusion_lon": 0.0, "is_reserved": 0, "bike_id": "a7f38f3176a252cfdc831c7510d7464e", "fusion_lat": 0.0, "is_disabled": 0, "rental_uris": {"ios": "https://dc.lft.to/lastmile_qr_scan", "android": "https://dc.lft.to/lastmile_qr_scan"}}, {"name": "47f18b8295cc74cf6dc97a0217322f90", "lon": -76.98712716666667, "lat": 38.900683666666666, "type": "electric_scooter", "fusion_lon": 0.0, "is_reserved": 0, "bike_id": "47f18b8295cc74cf6dc97a0217322f90", "fusion_lat": 0.0, "is_disabled": 0, "rental_uris": {"ios": "https://dc.lft.to/lastmile_qr_scan", "android": "https://dc.lft.to/lastmile_qr_scan"}}, {"name": "150e893f5fc5f0317e6163eeaaf8d0be", "lon": -77.03209433333333, "lat": 38.89221966666667, "type": "electric_scooter", "fusion_lon": 0.0, "is_reserved": 0, "bike_id": "150e893f5fc5f0317e6163eeaaf8d0be", "fusion_lat": 0.0, "is_disabled": 0, "rental_uris": {"ios": "https://dc.lft.to/lastmile_qr_scan", "android": "https://dc.lft.to/lastmile_qr_scan"}}, {"name": "ea3d0a8c8bb07d4a2a474b021f6a90ca", "lon": -77.014141, "lat": 38.92823933333333, "type": "electric_scooter", "fusion_lon": 0.0, "is_reserved": 0, "bike_id": "ea3d0a8c8bb07d4a2a474b021f6a90ca", "fusion_lat": 0.0, "is_disabled": 0, "rental_uris": {"ios": "https://dc.lft.to/lastmile_qr_scan", "android": "https://dc.lft.to/lastmile_qr_scan"}}, {"name": "342460f2e8934e229162349e77269f32", "lon": -76.99680883333333, "lat": 38.92491533333333, "type": "electric_bike", "fusion_lon": 0.0, "is_reserved": 0, "bike_id": "342460f2e8934e229162349e77269f32", "fusion_lat": 0.0, "is_disabled": 0, "rental_uris": {"ios": "https://dc.lft.to/lastmile_qr_scan", "android": "https://dc.lft.to/lastmile_qr_scan"}}, {"name": "2b8cda7dc5e3b7015dbfa3303e2fbc29", "lon": -77.04028566666666, "lat": 38.918417833333336, "type": "electric_scooter", "fusion_lon": 0.0, "is_reserved": 0, "bike_id": "2b8cda7dc5e3b7015dbfa3303e2fbc29", "fusion_lat": 0.0, "is_disabled": 0, "rental_uris": {"ios": "https://dc.lft.to/lastmile_qr_scan", "android": "https://dc.lft.to/lastmile_qr_scan"}}, {"name": "e5566f2fc1f6449af758ab9cfaa0b476", "lon": -76.99906133333333, "lat": 38.9482465, "type": "electric_scooter", "fusion_lon": 0.0, "is_reserved": 0, "bike_id": "e5566f2fc1f6449af758ab9cfaa0b476", "fusion_lat": 0.0, "is_disabled": 0, "rental_uris": {"ios": "https://dc.lft.to/lastmile_qr_scan", "android": "https://dc.lft.to/lastmile_qr_scan"}}, {"name": "9fa32634f3db104e8d1be340f98d2034", "lon": -77.00238866666666, "lat": 38.95718683333333, "type": "electric_scooter", "fusion_lon": 0.0, "is_reserved": 0, "bike_id": "9fa32634f3db104e8d1be340f98d2034", "fusion_lat": 0.0, "is_disabled": 0, "rental_uris": {"ios": "https://dc.lft.to/lastmile_qr_scan", "android": "https://dc.lft.to/lastmile_qr_scan"}}, {"name": "4b15657e88dedc203a77424d22fc694d", "lon": -77.02491783333333, "lat": 38.943063, "type": "electric_scooter", "fusion_lon": 0.0, "is_reserved": 0, "bike_id": "4b15657e88dedc203a77424d22fc694d", "fusion_lat": 0.0, "is_disabled": 0, "rental_uris": {"ios": "https://dc.lft.to/lastmile_qr_scan", "android": "https://dc.lft.to/lastmile_qr_scan"}}, {"name": "f45987fe336bef3ab71f5298a2125b15", "lon": -76.98924466666666, "lat": 38.85811366666667, "type": "electric_scooter", "fusion_lon": 0.0, "is_reserved": 0, "bike_id": "f45987fe336bef3ab71f5298a2125b15", "fusion_lat": 0.0, "is_disabled": 0, "rental_uris": {"ios": "https://dc.lft.to/lastmile_qr_scan", "android": "https://dc.lft.to/lastmile_qr_scan"}}, {"name": "3cc0cf18763b8c18d2d5b3334389f2c9", "lon": -77.00200666666667, "lat": 38.902375166666666, "type": "electric_scooter", "fusion_lon": 0.0, "is_reserved": 0, "bike_id": "3cc0cf18763b8c18d2d5b3334389f2c9", "fusion_lat": 0.0, "is_disabled": 0, "rental_uris": {"ios": "https://dc.lft.to/lastmile_qr_scan", "android": "https://dc.lft.to/lastmile_qr_scan"}}, {"name": "8ed22aa0af30128e042a6f0f536c64d2", "lon": -77.03446133333334, "lat": 38.917108, "type": "electric_scooter", "fusion_lon": 0.0, "is_reserved": 0, "bike_id": "8ed22aa0af30128e042a6f0f536c64d2", "fusion_lat": 0.0, "is_disabled": 0, "rental_uris": {"ios": "https://dc.lft.to/lastmile_qr_scan", "android": "https://dc.lft.to/lastmile_qr_scan"}}, {"name": "6e42bc242e573144c85cf350e5a2e42e", "lon": -77.0199325, "lat": 38.922757, "type": "electric_bike", "fusion_lon": 0.0, "is_reserved": 0, "bike_id": "6e42bc242e573144c85cf350e5a2e42e", "fusion_lat": 0.0, "is_disabled": 0, "rental_uris": {"ios": "https://dc.lft.to/lastmile_qr_scan", "android": "https://dc.lft.to/lastmile_qr_scan"}}, {"name": "c007c8a801b22e51abc72ed5a6f93979", "lon": -76.98650083333334, "lat": 38.858054833333334, "type": "electric_scooter", "fusion_lon": 0.0, "is_reserved": 0, "bike_id": "c007c8a801b22e51abc72ed5a6f93979", "fusion_lat": 0.0, "is_disabled": 0, "rental_uris": {"ios": "https://dc.lft.to/lastmile_qr_scan", "android": "https://dc.lft.to/lastmile_qr_scan"}}, {"name": "15ebcb91ab4efc405d50331a8247403b", "lon": -77.02901616666666, "lat": 38.91404083333333, "type": "electric_scooter", "fusion_lon": 0.0, "is_reserved": 0, "bike_id": "15ebcb91ab4efc405d50331a8247403b", "fusion_lat": 0.0, "is_disabled": 0, "rental_uris": {"ios": "https://dc.lft.to/lastmile_qr_scan", "android": "https://dc.lft.to/lastmile_qr_scan"}}, {"name": "0b06f07bc600942a8680adb6254af7bd", "lon": -77.04161716666667, "lat": 38.919784666666665, "type": "electric_scooter", "fusion_lon": 0.0, "is_reserved": 0, "bike_id": "0b06f07bc600942a8680adb6254af7bd", "fusion_lat": 0.0, "is_disabled": 0, "rental_uris": {"ios": "https://dc.lft.to/lastmile_qr_scan", "android": "https://dc.lft.to/lastmile_qr_scan"}}, {"name": "a56ef4c0080ce0f02fe665657306a8bd", "lon": -76.99815183333334, "lat": 38.84430116666667, "type": "electric_scooter", "fusion_lon": 0.0, "is_reserved": 0, "bike_id": "a56ef4c0080ce0f02fe665657306a8bd", "fusion_lat": 0.0, "is_disabled": 0, "rental_uris": {"ios": "https://dc.lft.to/lastmile_qr_scan", "android": "https://dc.lft.to/lastmile_qr_scan"}}, {"name": "8c85b417cd6e9403d11bc25d1aeb4564", "lon": -77.00608983333333, "lat": 38.905529666666666, "type": "electric_scooter", "fusion_lon": 0.0, "is_reserved": 0, "bike_id": "8c85b417cd6e9403d11bc25d1aeb4564", "fusion_lat": 0.0, "is_disabled": 0, "rental_uris": {"ios": "https://dc.lft.to/lastmile_qr_scan", "android": "https://dc.lft.to/lastmile_qr_scan"}}, {"name": "7ab71072576c9be5fdb698a987b21a2b", "lon": -77.0027745, "lat": 38.903672, "type": "electric_scooter", "fusion_lon": 0.0, "is_reserved": 0, "bike_id": "7ab71072576c9be5fdb698a987b21a2b", "fusion_lat": 0.0, "is_disabled": 0, "rental_uris": {"ios": "https://dc.lft.to/lastmile_qr_scan", "android": "https://dc.lft.to/lastmile_qr_scan"}}, {"name": "f752d97347a116d21c0d93d9fc95ac7d", "lon": -77.02969433333334, "lat": 38.90726183333334, "type": "electric_scooter", "fusion_lon": 0.0, "is_reserved": 0, "bike_id": "f752d97347a116d21c0d93d9fc95ac7d", "fusion_lat": 0.0, "is_disabled": 0, "rental_uris": {"ios": "https://dc.lft.to/lastmile_qr_scan", "android": "https://dc.lft.to/lastmile_qr_scan"}}, {"name": "d5af0e79a86f590ac45a44be759f7fa6", "lon": -77.04035383333333, "lat": 38.899048666666665, "type": "electric_scooter", "fusion_lon": 0.0, "is_reserved": 0, "bike_id": "d5af0e79a86f590ac45a44be759f7fa6", "fusion_lat": 0.0, "is_disabled": 0, "rental_uris": {"ios": "https://dc.lft.to/lastmile_qr_scan", "android": "https://dc.lft.to/lastmile_qr_scan"}}, {"name": "2ca15472dc37340a9dc1115abc5c7f48", "lon": -77.0433185, "lat": 38.9077035, "type": "electric_scooter", "fusion_lon": 0.0, "is_reserved": 0, "bike_id": "2ca15472dc37340a9dc1115abc5c7f48", "fusion_lat": 0.0, "is_disabled": 0, "rental_uris": {"ios": "https://dc.lft.to/lastmile_qr_scan", "android": "https://dc.lft.to/lastmile_qr_scan"}}, {"name": "cece3f0bbdd7e0a7d0ec84caa62fff4f", "lon": -76.90708266666667, "lat": 38.89597533333333, "type": "electric_bike", "fusion_lon": 0.0, "is_reserved": 0, "bike_id": "cece3f0bbdd7e0a7d0ec84caa62fff4f", "fusion_lat": 0.0, "is_disabled": 0, "rental_uris": {"ios": "https://dc.lft.to/lastmile_qr_scan", "android": "https://dc.lft.to/lastmile_qr_scan"}}, {"name": "484cf0a16005fabe3d77b72177ede6e8", "lon": -76.98458383333333, "lat": 38.90015666666667, "type": "electric_scooter", "fusion_lon": 0.0, "is_reserved": 0, "bike_id": "484cf0a16005fabe3d77b72177ede6e8", "fusion_lat": 0.0, "is_disabled": 0, "rental_uris": {"ios": "https://dc.lft.to/lastmile_qr_scan", "android": "https://dc.lft.to/lastmile_qr_scan"}}, {"name": "7259221a11a78be9f4c43cd553db39fe", "lon": -77.03440433333333, "lat": 38.91801066666667, "type": "electric_scooter", "fusion_lon": 0.0, "is_reserved": 0, "bike_id": "7259221a11a78be9f4c43cd553db39fe", "fusion_lat": 0.0, "is_disabled": 0, "rental_uris": {"ios": "https://dc.lft.to/lastmile_qr_scan", "android": "https://dc.lft.to/lastmile_qr_scan"}}, {"name": "d713bb3dac7099010181369e795d5b79", "lon": -77.02723083333333, "lat": 38.949558833333334, "type": "electric_scooter", "fusion_lon": 0.0, "is_reserved": 0, "bike_id": "d713bb3dac7099010181369e795d5b79", "fusion_lat": 0.0, "is_disabled": 0, "rental_uris": {"ios": "https://dc.lft.to/lastmile_qr_scan", "android": "https://dc.lft.to/lastmile_qr_scan"}}, {"name": "4d0307cb66446d0d3106ad94e60d40ce", "lon": -77.03208116666667, "lat": 38.91222783333333, "type": "electric_scooter", "fusion_lon": 0.0, "is_reserved": 0, "bike_id": "4d0307cb66446d0d3106ad94e60d40ce", "fusion_lat": 0.0, "is_disabled": 0, "rental_uris": {"ios": "https://dc.lft.to/lastmile_qr_scan", "android": "https://dc.lft.to/lastmile_qr_scan"}}, {"name": "6dd868b0d2df7e65c7f367b6bb88aac6", "lon": -76.93615116666666, "lat": 38.886708666666664, "type": "electric_scooter", "fusion_lon": 0.0, "is_reserved": 0, "bike_id": "6dd868b0d2df7e65c7f367b6bb88aac6", "fusion_lat": 0.0, "is_disabled": 0, "rental_uris": {"ios": "https://dc.lft.to/lastmile_qr_scan", "android": "https://dc.lft.to/lastmile_qr_scan"}}, {"name": "6f4c1a1b7871f89fbf5f79117d44834a", "lon": -77.02433716666667, "lat": 38.93795466666667, "type": "electric_scooter", "fusion_lon": 0.0, "is_reserved": 0, "bike_id": "6f4c1a1b7871f89fbf5f79117d44834a", "fusion_lat": 0.0, "is_disabled": 0, "rental_uris": {"ios": "https://dc.lft.to/lastmile_qr_scan", "android": "https://dc.lft.to/lastmile_qr_scan"}}, {"name": "961fbbfe504d3f749dea83eacb798cba", "lon": -77.03445416666666, "lat": 38.917138333333334, "type": "electric_scooter", "fusion_lon": 0.0, "is_reserved": 0, "bike_id": "961fbbfe504d3f749dea83eacb798cba", "fusion_lat": 0.0, "is_disabled": 0, "rental_uris": {"ios": "https://dc.lft.to/lastmile_qr_scan", "android": "https://dc.lft.to/lastmile_qr_scan"}}, {"name": "fb4049776ffe669cc67b0b5a35433be0", "lon": -77.0383105, "lat": 38.91041966666667, "type": "electric_scooter", "fusion_lon": 0.0, "is_reserved": 0, "bike_id": "fb4049776ffe669cc67b0b5a35433be0", "fusion_lat": 0.0, "is_disabled": 0, "rental_uris": {"ios": "https://dc.lft.to/lastmile_qr_scan", "android": "https://dc.lft.to/lastmile_qr_scan"}}, {"name": "f9fbc0da97726bae90eba8ddace4a852", "lon": -77.01853333333334, "lat": 38.91522916666667, "type": "electric_scooter", "fusion_lon": 0.0, "is_reserved": 0, "bike_id": "f9fbc0da97726bae90eba8ddace4a852", "fusion_lat": 0.0, "is_disabled": 0, "rental_uris": {"ios": "https://dc.lft.to/lastmile_qr_scan", "android": "https://dc.lft.to/lastmile_qr_scan"}}, {"name": "41d772aebe2f52b6996901f8c43608f9", "lon": -77.03285066666666, "lat": 38.93879183333333, "type": "electric_scooter", "fusion_lon": 0.0, "is_reserved": 0, "bike_id": "41d772aebe2f52b6996901f8c43608f9", "fusion_lat": 0.0, "is_disabled": 0, "rental_uris": {"ios": "https://dc.lft.to/lastmile_qr_scan", "android": "https://dc.lft.to/lastmile_qr_scan"}}, {"name": "28a7e3d87676700e285686bc18e1a7eb", "lon": -77.02671666666667, "lat": 38.89732, "type": "electric_scooter", "fusion_lon": 0.0, "is_reserved": 0, "bike_id": "28a7e3d87676700e285686bc18e1a7eb", "fusion_lat": 0.0, "is_disabled": 0, "rental_uris": {"ios": "https://dc.lft.to/lastmile_qr_scan", "android": "https://dc.lft.to/lastmile_qr_scan"}}, {"name": "0d0c2988ed76771827fdc4d5563ee490", "lon": -77.03812816666667, "lat": 38.9250105, "type": "electric_scooter", "fusion_lon": 0.0, "is_reserved": 0, "bike_id": "0d0c2988ed76771827fdc4d5563ee490", "fusion_lat": 0.0, "is_disabled": 0, "rental_uris": {"ios": "https://dc.lft.to/lastmile_qr_scan", "android": "https://dc.lft.to/lastmile_qr_scan"}}, {"name": "03f49ec1b5936c67313a16ff87523c1c", "lon": -77.02296333333334, "lat": 38.910752333333335, "type": "electric_scooter", "fusion_lon": 0.0, "is_reserved": 0, "bike_id": "03f49ec1b5936c67313a16ff87523c1c", "fusion_lat": 0.0, "is_disabled": 0, "rental_uris": {"ios": "https://dc.lft.to/lastmile_qr_scan", "android": "https://dc.lft.to/lastmile_qr_scan"}}, {"name": "e7aee8db298321fe7a913108cb3c368b", "lon": -77.0229835, "lat": 38.920821833333335, "type": "electric_scooter", "fusion_lon": 0.0, "is_reserved": 0, "bike_id": "e7aee8db298321fe7a913108cb3c368b", "fusion_lat": 0.0, "is_disabled": 0, "rental_uris": {"ios": "https://dc.lft.to/lastmile_qr_scan", "android": "https://dc.lft.to/lastmile_qr_scan"}}, {"name": "f0927076f53dba816a72146a12b69d00", "lon": -76.99606983333334, "lat": 38.90359816666667, "type": "electric_scooter", "fusion_lon": 0.0, "is_reserved": 0, "bike_id": "f0927076f53dba816a72146a12b69d00", "fusion_lat": 0.0, "is_disabled": 0, "rental_uris": {"ios": "https://dc.lft.to/lastmile_qr_scan", "android": "https://dc.lft.to/lastmile_qr_scan"}}, {"name": "0222047665c1c85ffa0e09264f007f74", "lon": -77.00044116666666, "lat": 38.918990666666666, "type": "electric_scooter", "fusion_lon": 0.0, "is_reserved": 0, "bike_id": "0222047665c1c85ffa0e09264f007f74", "fusion_lat": 0.0, "is_disabled": 0, "rental_uris": {"ios": "https://dc.lft.to/lastmile_qr_scan", "android": "https://dc.lft.to/lastmile_qr_scan"}}, {"name": "10b790ff6fa654f2babf4f2f05b91ab0", "lon": -77.0366565, "lat": 38.92725333333333, "type": "electric_scooter", "fusion_lon": 0.0, "is_reserved": 0, "bike_id": "10b790ff6fa654f2babf4f2f05b91ab0", "fusion_lat": 0.0, "is_disabled": 0, "rental_uris": {"ios": "https://dc.lft.to/lastmile_qr_scan", "android": "https://dc.lft.to/lastmile_qr_scan"}}, {"name": "037df9dd1625e7f55cc8e77c2e87a5c8", "lon": -76.99778216666667, "lat": 38.909034166666665, "type": "electric_scooter", "fusion_lon": 0.0, "is_reserved": 0, "bike_id": "037df9dd1625e7f55cc8e77c2e87a5c8", "fusion_lat": 0.0, "is_disabled": 0, "rental_uris": {"ios": "https://dc.lft.to/lastmile_qr_scan", "android": "https://dc.lft.to/lastmile_qr_scan"}}, {"name": "cc0f317d4a5f83ed77c2886aa1437d27", "lon": -77.04802466666666, "lat": 38.892204666666665, "type": "electric_scooter", "fusion_lon": 0.0, "is_reserved": 0, "bike_id": "cc0f317d4a5f83ed77c2886aa1437d27", "fusion_lat": 0.0, "is_disabled": 0, "rental_uris": {"ios": "https://dc.lft.to/lastmile_qr_scan", "android": "https://dc.lft.to/lastmile_qr_scan"}}, {"name": "e1ea19387dd29d99abab2131c3e3aac3", "lon": -77.0204575, "lat": 38.9155475, "type": "electric_scooter", "fusion_lon": 0.0, "is_reserved": 0, "bike_id": "e1ea19387dd29d99abab2131c3e3aac3", "fusion_lat": 0.0, "is_disabled": 0, "rental_uris": {"ios": "https://dc.lft.to/lastmile_qr_scan", "android": "https://dc.lft.to/lastmile_qr_scan"}}, {"name": "d2d7bfd41cceaf9f4f5c227d647848a7", "lon": -77.034106, "lat": 38.920437, "type": "electric_scooter", "fusion_lon": 0.0, "is_reserved": 0, "bike_id": "d2d7bfd41cceaf9f4f5c227d647848a7", "fusion_lat": 0.0, "is_disabled": 0, "rental_uris": {"ios": "https://dc.lft.to/lastmile_qr_scan", "android": "https://dc.lft.to/lastmile_qr_scan"}}, {"name": "71cddc91309322fff534d33a1dfda4c6", "lon": -77.10091816666667, "lat": 38.959538333333334, "type": "electric_bike", "fusion_lon": 0.0, "is_reserved": 0, "bike_id": "71cddc91309322fff534d33a1dfda4c6", "fusion_lat": 0.0, "is_disabled": 0, "rental_uris": {"ios": "https://dc.lft.to/lastmile_qr_scan", "android": "https://dc.lft.to/lastmile_qr_scan"}}, {"name": "3b1442ba55efd8cc46462c2e3c3208b3", "lon": -76.95018616666667, "lat": 38.893885833333336, "type": "electric_scooter", "fusion_lon": 0.0, "is_reserved": 0, "bike_id": "3b1442ba55efd8cc46462c2e3c3208b3", "fusion_lat": 0.0, "is_disabled": 0, "rental_uris": {"ios": "https://dc.lft.to/lastmile_qr_scan", "android": "https://dc.lft.to/lastmile_qr_scan"}}, {"name": "5bbab88df9ce15f8cac775945386e372", "lon": -77.0378105, "lat": 38.924839166666665, "type": "electric_scooter", "fusion_lon": 0.0, "is_reserved": 0, "bike_id": "5bbab88df9ce15f8cac775945386e372", "fusion_lat": 0.0, "is_disabled": 0, "rental_uris": {"ios": "https://dc.lft.to/lastmile_qr_scan", "android": "https://dc.lft.to/lastmile_qr_scan"}}, {"name": "c6dd23479960d3546f60d5395d2d9209", "lon": -77.03587933333333, "lat": 38.92802616666667, "type": "electric_scooter", "fusion_lon": 0.0, "is_reserved": 0, "bike_id": "c6dd23479960d3546f60d5395d2d9209", "fusion_lat": 0.0, "is_disabled": 0, "rental_uris": {"ios": "https://dc.lft.to/lastmile_qr_scan", "android": "https://dc.lft.to/lastmile_qr_scan"}}, {"name": "5bde74360acf26cb0422b40728bcab00", "lon": -77.03828633333333, "lat": 38.931462833333335, "type": "electric_scooter", "fusion_lon": 0.0, "is_reserved": 0, "bike_id": "5bde74360acf26cb0422b40728bcab00", "fusion_lat": 0.0, "is_disabled": 0, "rental_uris": {"ios": "https://dc.lft.to/lastmile_qr_scan", "android": "https://dc.lft.to/lastmile_qr_scan"}}, {"name": "9f5bd69f338a8bc2411ade5ac90abf84", "lon": -76.9882615, "lat": 38.90034566666667, "type": "electric_scooter", "fusion_lon": 0.0, "is_reserved": 0, "bike_id": "9f5bd69f338a8bc2411ade5ac90abf84", "fusion_lat": 0.0, "is_disabled": 0, "rental_uris": {"ios": "https://dc.lft.to/lastmile_qr_scan", "android": "https://dc.lft.to/lastmile_qr_scan"}}, {"name": "1874919246970ebc8104168097eda3ab", "lon": -77.041263, "lat": 38.92310416666667, "type": "electric_scooter", "fusion_lon": 0.0, "is_reserved": 0, "bike_id": "1874919246970ebc8104168097eda3ab", "fusion_lat": 0.0, "is_disabled": 0, "rental_uris": {"ios": "https://dc.lft.to/lastmile_qr_scan", "android": "https://dc.lft.to/lastmile_qr_scan"}}, {"name": "4f5bc7b266dfd5798bc90a02b1b61818", "lon": -77.02541966666666, "lat": 38.906198333333336, "type": "electric_scooter", "fusion_lon": 0.0, "is_reserved": 0, "bike_id": "4f5bc7b266dfd5798bc90a02b1b61818", "fusion_lat": 0.0, "is_disabled": 0, "rental_uris": {"ios": "https://dc.lft.to/lastmile_qr_scan", "android": "https://dc.lft.to/lastmile_qr_scan"}}, {"name": "43263f2a12208a9c9be755a96c1d7784", "lon": -77.03460216666667, "lat": 38.92063566666667, "type": "electric_scooter", "fusion_lon": 0.0, "is_reserved": 0, "bike_id": "43263f2a12208a9c9be755a96c1d7784", "fusion_lat": 0.0, "is_disabled": 0, "rental_uris": {"ios": "https://dc.lft.to/lastmile_qr_scan", "android": "https://dc.lft.to/lastmile_qr_scan"}}, {"name": "03436d2e12e819eb557d90f2e2688392", "lon": -77.032634, "lat": 38.916229666666666, "type": "electric_scooter", "fusion_lon": 0.0, "is_reserved": 0, "bike_id": "03436d2e12e819eb557d90f2e2688392", "fusion_lat": 0.0, "is_disabled": 0, "rental_uris": {"ios": "https://dc.lft.to/lastmile_qr_scan", "android": "https://dc.lft.to/lastmile_qr_scan"}}, {"name": "02253ac625c379102eef14b6c5be7d46", "lon": -77.02981183333333, "lat": 38.9155, "type": "electric_scooter", "fusion_lon": 0.0, "is_reserved": 0, "bike_id": "02253ac625c379102eef14b6c5be7d46", "fusion_lat": 0.0, "is_disabled": 0, "rental_uris": {"ios": "https://dc.lft.to/lastmile_qr_scan", "android": "https://dc.lft.to/lastmile_qr_scan"}}, {"name": "98795d00e4568c9316747f0e9832ee10", "lon": -77.02487766666667, "lat": 38.927471, "type": "electric_scooter", "fusion_lon": 0.0, "is_reserved": 0, "bike_id": "98795d00e4568c9316747f0e9832ee10", "fusion_lat": 0.0, "is_disabled": 0, "rental_uris": {"ios": "https://dc.lft.to/lastmile_qr_scan", "android": "https://dc.lft.to/lastmile_qr_scan"}}, {"name": "f88c71077a0b0d80e380748db61d1597", "lon": -77.02228616666666, "lat": 38.89218533333333, "type": "electric_scooter", "fusion_lon": 0.0, "is_reserved": 0, "bike_id": "f88c71077a0b0d80e380748db61d1597", "fusion_lat": 0.0, "is_disabled": 0, "rental_uris": {"ios": "https://dc.lft.to/lastmile_qr_scan", "android": "https://dc.lft.to/lastmile_qr_scan"}}, {"name": "2787d3b76c9b69384d4a700959bfad47", "lon": -77.02721583333333, "lat": 38.940849666666665, "type": "electric_scooter", "fusion_lon": 0.0, "is_reserved": 0, "bike_id": "2787d3b76c9b69384d4a700959bfad47", "fusion_lat": 0.0, "is_disabled": 0, "rental_uris": {"ios": "https://dc.lft.to/lastmile_qr_scan", "android": "https://dc.lft.to/lastmile_qr_scan"}}, {"name": "5606cd8b85a3ae8c0a901150b1571d8d", "lon": -77.03161833333333, "lat": 38.911902833333336, "type": "electric_scooter", "fusion_lon": 0.0, "is_reserved": 0, "bike_id": "5606cd8b85a3ae8c0a901150b1571d8d", "fusion_lat": 0.0, "is_disabled": 0, "rental_uris": {"ios": "https://dc.lft.to/lastmile_qr_scan", "android": "https://dc.lft.to/lastmile_qr_scan"}}, {"name": "bcce0c1e92f88fbea50642e1b4942001", "lon": -76.9999255, "lat": 38.900291833333334, "type": "electric_scooter", "fusion_lon": 0.0, "is_reserved": 0, "bike_id": "bcce0c1e92f88fbea50642e1b4942001", "fusion_lat": 0.0, "is_disabled": 0, "rental_uris": {"ios": "https://dc.lft.to/lastmile_qr_scan", "android": "https://dc.lft.to/lastmile_qr_scan"}}, {"name": "0db5628d53cffc4c474b0b531939bc3e", "lon": -77.057714, "lat": 38.924857333333335, "type": "electric_bike", "fusion_lon": 0.0, "is_reserved": 0, "bike_id": "0db5628d53cffc4c474b0b531939bc3e", "fusion_lat": 0.0, "is_disabled": 0, "rental_uris": {"ios": "https://dc.lft.to/lastmile_qr_scan", "android": "https://dc.lft.to/lastmile_qr_scan"}}, {"name": "fe5e729eec002d358b003cb347b5dd4f", "lon": -77.03262, "lat": 38.946240333333336, "type": "electric_scooter", "fusion_lon": 0.0, "is_reserved": 0, "bike_id": "fe5e729eec002d358b003cb347b5dd4f", "fusion_lat": 0.0, "is_disabled": 0, "rental_uris": {"ios": "https://dc.lft.to/lastmile_qr_scan", "android": "https://dc.lft.to/lastmile_qr_scan"}}, {"name": "b4d1626f4bde0ba6d9c6e950a519baf5", "lon": -77.00859333333334, "lat": 38.879516333333335, "type": "electric_scooter", "fusion_lon": 0.0, "is_reserved": 0, "bike_id": "b4d1626f4bde0ba6d9c6e950a519baf5", "fusion_lat": 0.0, "is_disabled": 0, "rental_uris": {"ios": "https://dc.lft.to/lastmile_qr_scan", "android": "https://dc.lft.to/lastmile_qr_scan"}}, {"name": "faae83d1381689968c001ee8856366df", "lon": -76.9652705, "lat": 38.87626, "type": "electric_scooter", "fusion_lon": 0.0, "is_reserved": 0, "bike_id": "faae83d1381689968c001ee8856366df", "fusion_lat": 0.0, "is_disabled": 0, "rental_uris": {"ios": "https://dc.lft.to/lastmile_qr_scan", "android": "https://dc.lft.to/lastmile_qr_scan"}}, {"name": "0067cea8fc043900043df32036422ea2", "lon": -77.04007066666667, "lat": 38.904118, "type": "electric_scooter", "fusion_lon": 0.0, "is_reserved": 0, "bike_id": "0067cea8fc043900043df32036422ea2", "fusion_lat": 0.0, "is_disabled": 0, "rental_uris": {"ios": "https://dc.lft.to/lastmile_qr_scan", "android": "https://dc.lft.to/lastmile_qr_scan"}}, {"name": "b627d8ead69b92d68cd5e88bc4628290", "lon": -77.04163616666666, "lat": 38.901460666666665, "type": "electric_scooter", "fusion_lon": 0.0, "is_reserved": 0, "bike_id": "b627d8ead69b92d68cd5e88bc4628290", "fusion_lat": 0.0, "is_disabled": 0, "rental_uris": {"ios": "https://dc.lft.to/lastmile_qr_scan", "android": "https://dc.lft.to/lastmile_qr_scan"}}, {"name": "ede23edfee9b5464e346c2a294801691", "lon": -77.0319155, "lat": 38.909202, "type": "electric_scooter", "fusion_lon": 0.0, "is_reserved": 0, "bike_id": "ede23edfee9b5464e346c2a294801691", "fusion_lat": 0.0, "is_disabled": 0, "rental_uris": {"ios": "https://dc.lft.to/lastmile_qr_scan", "android": "https://dc.lft.to/lastmile_qr_scan"}}, {"name": "b8b5bf470f6f49664fa3675b3af2625c", "lon": -77.04008433333334, "lat": 38.922515833333335, "type": "electric_scooter", "fusion_lon": 0.0, "is_reserved": 0, "bike_id": "b8b5bf470f6f49664fa3675b3af2625c", "fusion_lat": 0.0, "is_disabled": 0, "rental_uris": {"ios": "https://dc.lft.to/lastmile_qr_scan", "android": "https://dc.lft.to/lastmile_qr_scan"}}, {"name": "a281302a9434190a99c821d9f7d42a2e", "lon": -77.02805116666667, "lat": 38.910431333333335, "type": "electric_scooter", "fusion_lon": 0.0, "is_reserved": 0, "bike_id": "a281302a9434190a99c821d9f7d42a2e", "fusion_lat": 0.0, "is_disabled": 0, "rental_uris": {"ios": "https://dc.lft.to/lastmile_qr_scan", "android": "https://dc.lft.to/lastmile_qr_scan"}}, {"name": "3b01728da39c2510d78c2f61eafeff67", "lon": -77.01178566666667, "lat": 38.90033233333333, "type": "electric_scooter", "fusion_lon": 0.0, "is_reserved": 0, "bike_id": "3b01728da39c2510d78c2f61eafeff67", "fusion_lat": 0.0, "is_disabled": 0, "rental_uris": {"ios": "https://dc.lft.to/lastmile_qr_scan", "android": "https://dc.lft.to/lastmile_qr_scan"}}, {"name": "743c3237f5323ad9a7f5aa2cd5503d45", "lon": -77.00484116666667, "lat": 38.874771333333335, "type": "electric_scooter", "fusion_lon": 0.0, "is_reserved": 0, "bike_id": "743c3237f5323ad9a7f5aa2cd5503d45", "fusion_lat": 0.0, "is_disabled": 0, "rental_uris": {"ios": "https://dc.lft.to/lastmile_qr_scan", "android": "https://dc.lft.to/lastmile_qr_scan"}}, {"name": "fd32e7202daad3cd6210eaaa30369acd", "lon": -77.02818083333334, "lat": 38.916864333333336, "type": "electric_scooter", "fusion_lon": 0.0, "is_reserved": 0, "bike_id": "fd32e7202daad3cd6210eaaa30369acd", "fusion_lat": 0.0, "is_disabled": 0, "rental_uris": {"ios": "https://dc.lft.to/lastmile_qr_scan", "android": "https://dc.lft.to/lastmile_qr_scan"}}, {"name": "e96fe18f3ba82e9e86275289d24d8520", "lon": -77.03654316666666, "lat": 38.91723483333333, "type": "electric_scooter", "fusion_lon": 0.0, "is_reserved": 0, "bike_id": "e96fe18f3ba82e9e86275289d24d8520", "fusion_lat": 0.0, "is_disabled": 0, "rental_uris": {"ios": "https://dc.lft.to/lastmile_qr_scan", "android": "https://dc.lft.to/lastmile_qr_scan"}}, {"name": "4dc05888892ab97a483e9438fa65264d", "lon": -76.98102633333333, "lat": 38.921032833333335, "type": "electric_bike", "fusion_lon": 0.0, "is_reserved": 0, "bike_id": "4dc05888892ab97a483e9438fa65264d", "fusion_lat": 0.0, "is_disabled": 0, "rental_uris": {"ios": "https://dc.lft.to/lastmile_qr_scan", "android": "https://dc.lft.to/lastmile_qr_scan"}}, {"name": "28e5a2ccc9419fe00ed1489cb283d5db", "lon": -77.04097, "lat": 38.9178205, "type": "electric_scooter", "fusion_lon": 0.0, "is_reserved": 0, "bike_id": "28e5a2ccc9419fe00ed1489cb283d5db", "fusion_lat": 0.0, "is_disabled": 0, "rental_uris": {"ios": "https://dc.lft.to/lastmile_qr_scan", "android": "https://dc.lft.to/lastmile_qr_scan"}}, {"name": "9c38c674c8bffa1bf0eb2a6e640652a1", "lon": -77.04332183333334, "lat": 38.89222216666667, "type": "electric_scooter", "fusion_lon": 0.0, "is_reserved": 0, "bike_id": "9c38c674c8bffa1bf0eb2a6e640652a1", "fusion_lat": 0.0, "is_disabled": 0, "rental_uris": {"ios": "https://dc.lft.to/lastmile_qr_scan", "android": "https://dc.lft.to/lastmile_qr_scan"}}, {"name": "81c02143f371981aab755849a77f2410", "lon": -76.909672, "lat": 38.85427883333333, "type": "electric_bike", "fusion_lon": 0.0, "is_reserved": 0, "bike_id": "81c02143f371981aab755849a77f2410", "fusion_lat": 0.0, "is_disabled": 0, "rental_uris": {"ios": "https://dc.lft.to/lastmile_qr_scan", "android": "https://dc.lft.to/lastmile_qr_scan"}}, {"name": "6c93a2e8c7daa2d81572063fa12684d5", "lon": -76.97339266666667, "lat": 38.86518183333333, "type": "electric_bike", "fusion_lon": 0.0, "is_reserved": 0, "bike_id": "6c93a2e8c7daa2d81572063fa12684d5", "fusion_lat": 0.0, "is_disabled": 0, "rental_uris": {"ios": "https://dc.lft.to/lastmile_qr_scan", "android": "https://dc.lft.to/lastmile_qr_scan"}}, {"name": "095f22f8d4d5279fdef8a81fe4d1b163", "lon": -76.9859775, "lat": 38.91039416666667, "type": "electric_scooter", "fusion_lon": 0.0, "is_reserved": 0, "bike_id": "095f22f8d4d5279fdef8a81fe4d1b163", "fusion_lat": 0.0, "is_disabled": 0, "rental_uris": {"ios": "https://dc.lft.to/lastmile_qr_scan", "android": "https://dc.lft.to/lastmile_qr_scan"}}, {"name": "8efb41de8b13d1bf621d787448141c01", "lon": -77.03792316666667, "lat": 38.915392833333335, "type": "electric_scooter", "fusion_lon": 0.0, "is_reserved": 0, "bike_id": "8efb41de8b13d1bf621d787448141c01", "fusion_lat": 0.0, "is_disabled": 0, "rental_uris": {"ios": "https://dc.lft.to/lastmile_qr_scan", "android": "https://dc.lft.to/lastmile_qr_scan"}}, {"name": "65ed60275258cddcbfe2c49ccb91745d", "lon": -77.03438616666666, "lat": 38.909699, "type": "electric_scooter", "fusion_lon": 0.0, "is_reserved": 0, "bike_id": "65ed60275258cddcbfe2c49ccb91745d", "fusion_lat": 0.0, "is_disabled": 0, "rental_uris": {"ios": "https://dc.lft.to/lastmile_qr_scan", "android": "https://dc.lft.to/lastmile_qr_scan"}}, {"name": "f82e3a013e7bb4063c162d7b2ae00f2a", "lon": -76.99536883333333, "lat": 38.86247316666667, "type": "electric_scooter", "fusion_lon": 0.0, "is_reserved": 0, "bike_id": "f82e3a013e7bb4063c162d7b2ae00f2a", "fusion_lat": 0.0, "is_disabled": 0, "rental_uris": {"ios": "https://dc.lft.to/lastmile_qr_scan", "android": "https://dc.lft.to/lastmile_qr_scan"}}, {"name": "8f8abec49bd28b778a6c39df6fa1afee", "lon": -77.02488016666666, "lat": 38.90414366666667, "type": "electric_scooter", "fusion_lon": 0.0, "is_reserved": 0, "bike_id": "8f8abec49bd28b778a6c39df6fa1afee", "fusion_lat": 0.0, "is_disabled": 0, "rental_uris": {"ios": "https://dc.lft.to/lastmile_qr_scan", "android": "https://dc.lft.to/lastmile_qr_scan"}}, {"name": "53ce75c66d6417e6ef16d2b1a9c5529a", "lon": -77.0386345, "lat": 38.9170585, "type": "electric_scooter", "fusion_lon": 0.0, "is_reserved": 0, "bike_id": "53ce75c66d6417e6ef16d2b1a9c5529a", "fusion_lat": 0.0, "is_disabled": 0, "rental_uris": {"ios": "https://dc.lft.to/lastmile_qr_scan", "android": "https://dc.lft.to/lastmile_qr_scan"}}, {"name": "ce27d387b4adf0ee16a0178fd9a1acb1", "lon": -77.04133883333333, "lat": 38.922716666666666, "type": "electric_scooter", "fusion_lon": 0.0, "is_reserved": 0, "bike_id": "ce27d387b4adf0ee16a0178fd9a1acb1", "fusion_lat": 0.0, "is_disabled": 0, "rental_uris": {"ios": "https://dc.lft.to/lastmile_qr_scan", "android": "https://dc.lft.to/lastmile_qr_scan"}}, {"name": "4cd510b7d3f1275d2c9e7e73754db9c9", "lon": -77.0365085, "lat": 38.91722133333333, "type": "electric_scooter", "fusion_lon": 0.0, "is_reserved": 0, "bike_id": "4cd510b7d3f1275d2c9e7e73754db9c9", "fusion_lat": 0.0, "is_disabled": 0, "rental_uris": {"ios": "https://dc.lft.to/lastmile_qr_scan", "android": "https://dc.lft.to/lastmile_qr_scan"}}, {"name": "9b218eb8ecf7d17f9a190ad82354ebdf", "lon": -77.03043666666667, "lat": 38.93870666666667, "type": "electric_scooter", "fusion_lon": 0.0, "is_reserved": 0, "bike_id": "9b218eb8ecf7d17f9a190ad82354ebdf", "fusion_lat": 0.0, "is_disabled": 0, "rental_uris": {"ios": "https://dc.lft.to/lastmile_qr_scan", "android": "https://dc.lft.to/lastmile_qr_scan"}}, {"name": "acbbafec6fed5a5ac3a60f20d0e9394e", "lon": -77.00829066666667, "lat": 38.829076666666666, "type": "electric_bike", "fusion_lon": 0.0, "is_reserved": 0, "bike_id": "acbbafec6fed5a5ac3a60f20d0e9394e", "fusion_lat": 0.0, "is_disabled": 0, "rental_uris": {"ios": "https://dc.lft.to/lastmile_qr_scan", "android": "https://dc.lft.to/lastmile_qr_scan"}}, {"name": "ddee2f8e307e8fd18288cab0235abbae", "lon": -77.02612366666666, "lat": 38.905613333333335, "type": "electric_scooter", "fusion_lon": 0.0, "is_reserved": 0, "bike_id": "ddee2f8e307e8fd18288cab0235abbae", "fusion_lat": 0.0, "is_disabled": 0, "rental_uris": {"ios": "https://dc.lft.to/lastmile_qr_scan", "android": "https://dc.lft.to/lastmile_qr_scan"}}, {"name": "d42400712702ef327439d20b6064335a", "lon": -77.03892016666667, "lat": 38.90791766666667, "type": "electric_scooter", "fusion_lon": 0.0, "is_reserved": 0, "bike_id": "d42400712702ef327439d20b6064335a", "fusion_lat": 0.0, "is_disabled": 0, "rental_uris": {"ios": "https://dc.lft.to/lastmile_qr_scan", "android": "https://dc.lft.to/lastmile_qr_scan"}}, {"name": "e1ecd3c58b07115f5f7452484ffcf383", "lon": -77.0089505, "lat": 38.903535833333336, "type": "electric_scooter", "fusion_lon": 0.0, "is_reserved": 0, "bike_id": "e1ecd3c58b07115f5f7452484ffcf383", "fusion_lat": 0.0, "is_disabled": 0, "rental_uris": {"ios": "https://dc.lft.to/lastmile_qr_scan", "android": "https://dc.lft.to/lastmile_qr_scan"}}, {"name": "6173524b9308d0064dd679ed2df768af", "lon": -76.949437, "lat": 38.894923, "type": "electric_scooter", "fusion_lon": 0.0, "is_reserved": 0, "bike_id": "6173524b9308d0064dd679ed2df768af", "fusion_lat": 0.0, "is_disabled": 0, "rental_uris": {"ios": "https://dc.lft.to/lastmile_qr_scan", "android": "https://dc.lft.to/lastmile_qr_scan"}}, {"name": "e59d3349b554d10945bfc02eb59ab562", "lon": -77.006032, "lat": 38.905570833333336, "type": "electric_scooter", "fusion_lon": 0.0, "is_reserved": 0, "bike_id": "e59d3349b554d10945bfc02eb59ab562", "fusion_lat": 0.0, "is_disabled": 0, "rental_uris": {"ios": "https://dc.lft.to/lastmile_qr_scan", "android": "https://dc.lft.to/lastmile_qr_scan"}}, {"name": "f248c964e571afe175253319cc75c291", "lon": -77.02465883333333, "lat": 38.9388045, "type": "electric_bike", "fusion_lon": 0.0, "is_reserved": 0, "bike_id": "f248c964e571afe175253319cc75c291", "fusion_lat": 0.0, "is_disabled": 0, "rental_uris": {"ios": "https://dc.lft.to/lastmile_qr_scan", "android": "https://dc.lft.to/lastmile_qr_scan"}}, {"name": "6ccf9fc75e0dab0d1f45ff4e320ba43c", "lon": -77.00210716666666, "lat": 38.900721, "type": "electric_scooter", "fusion_lon": 0.0, "is_reserved": 0, "bike_id": "6ccf9fc75e0dab0d1f45ff4e320ba43c", "fusion_lat": 0.0, "is_disabled": 0, "rental_uris": {"ios": "https://dc.lft.to/lastmile_qr_scan", "android": "https://dc.lft.to/lastmile_qr_scan"}}, {"name": "6b88fca5277a8866d6940ad2252bfd24", "lon": -77.00425033333333, "lat": 38.91236266666667, "type": "electric_scooter", "fusion_lon": 0.0, "is_reserved": 0, "bike_id": "6b88fca5277a8866d6940ad2252bfd24", "fusion_lat": 0.0, "is_disabled": 0, "rental_uris": {"ios": "https://dc.lft.to/lastmile_qr_scan", "android": "https://dc.lft.to/lastmile_qr_scan"}}, {"name": "d92e71e00347ea98060689f1dc1079b0", "lon": -77.038769, "lat": 38.934209, "type": "electric_scooter", "fusion_lon": 0.0, "is_reserved": 0, "bike_id": "d92e71e00347ea98060689f1dc1079b0", "fusion_lat": 0.0, "is_disabled": 0, "rental_uris": {"ios": "https://dc.lft.to/lastmile_qr_scan", "android": "https://dc.lft.to/lastmile_qr_scan"}}, {"name": "1da796ac31b6beb33e1c385e1b2d378a", "lon": -77.06159466666666, "lat": 38.91299866666667, "type": "electric_scooter", "fusion_lon": 0.0, "is_reserved": 0, "bike_id": "1da796ac31b6beb33e1c385e1b2d378a", "fusion_lat": 0.0, "is_disabled": 0, "rental_uris": {"ios": "https://dc.lft.to/lastmile_qr_scan", "android": "https://dc.lft.to/lastmile_qr_scan"}}, {"name": "b229e43fe9476d258c189622afc41c0c", "lon": -77.03543833333333, "lat": 38.917145833333336, "type": "electric_scooter", "fusion_lon": 0.0, "is_reserved": 0, "bike_id": "b229e43fe9476d258c189622afc41c0c", "fusion_lat": 0.0, "is_disabled": 0, "rental_uris": {"ios": "https://dc.lft.to/lastmile_qr_scan", "android": "https://dc.lft.to/lastmile_qr_scan"}}, {"name": "4431b0c1d623e3e8e870335975a671ff", "lon": -77.01074483333333, "lat": 38.90729133333333, "type": "electric_scooter", "fusion_lon": 0.0, "is_reserved": 0, "bike_id": "4431b0c1d623e3e8e870335975a671ff", "fusion_lat": 0.0, "is_disabled": 0, "rental_uris": {"ios": "https://dc.lft.to/lastmile_qr_scan", "android": "https://dc.lft.to/lastmile_qr_scan"}}, {"name": "6b3f19b59e36c7a8a7299845b8faa7ef", "lon": -77.03940866666667, "lat": 38.917596833333334, "type": "electric_scooter", "fusion_lon": 0.0, "is_reserved": 0, "bike_id": "6b3f19b59e36c7a8a7299845b8faa7ef", "fusion_lat": 0.0, "is_disabled": 0, "rental_uris": {"ios": "https://dc.lft.to/lastmile_qr_scan", "android": "https://dc.lft.to/lastmile_qr_scan"}}, {"name": "f5d9a7788e5786101dd3c63813b70c71", "lon": -76.96527416666666, "lat": 38.87629833333333, "type": "electric_scooter", "fusion_lon": 0.0, "is_reserved": 0, "bike_id": "f5d9a7788e5786101dd3c63813b70c71", "fusion_lat": 0.0, "is_disabled": 0, "rental_uris": {"ios": "https://dc.lft.to/lastmile_qr_scan", "android": "https://dc.lft.to/lastmile_qr_scan"}}, {"name": "ff3ca5aa77f20f2efa768ef1014626e9", "lon": -77.03230266666667, "lat": 38.914043666666664, "type": "electric_scooter", "fusion_lon": 0.0, "is_reserved": 0, "bike_id": "ff3ca5aa77f20f2efa768ef1014626e9", "fusion_lat": 0.0, "is_disabled": 0, "rental_uris": {"ios": "https://dc.lft.to/lastmile_qr_scan", "android": "https://dc.lft.to/lastmile_qr_scan"}}, {"name": "faa2c14e16d0c4b8504a00375dc5c909", "lon": -77.03907966666667, "lat": 38.918279166666665, "type": "electric_scooter", "fusion_lon": 0.0, "is_reserved": 0, "bike_id": "faa2c14e16d0c4b8504a00375dc5c909", "fusion_lat": 0.0, "is_disabled": 0, "rental_uris": {"ios": "https://dc.lft.to/lastmile_qr_scan", "android": "https://dc.lft.to/lastmile_qr_scan"}}, {"name": "cef915a34168c2444119ec9cdb40116b", "lon": -77.02948883333333, "lat": 38.928564, "type": "electric_scooter", "fusion_lon": 0.0, "is_reserved": 0, "bike_id": "cef915a34168c2444119ec9cdb40116b", "fusion_lat": 0.0, "is_disabled": 0, "rental_uris": {"ios": "https://dc.lft.to/lastmile_qr_scan", "android": "https://dc.lft.to/lastmile_qr_scan"}}, {"name": "b73fb2d9016697286476a086b945d63f", "lon": -77.02049333333333, "lat": 38.93123083333333, "type": "electric_scooter", "fusion_lon": 0.0, "is_reserved": 0, "bike_id": "b73fb2d9016697286476a086b945d63f", "fusion_lat": 0.0, "is_disabled": 0, "rental_uris": {"ios": "https://dc.lft.to/lastmile_qr_scan", "android": "https://dc.lft.to/lastmile_qr_scan"}}, {"name": "3525c32f0788d2ab4f8f910cab77b1d3", "lon": -77.00817216666667, "lat": 38.94799833333333, "type": "electric_bike", "fusion_lon": 0.0, "is_reserved": 0, "bike_id": "3525c32f0788d2ab4f8f910cab77b1d3", "fusion_lat": 0.0, "is_disabled": 0, "rental_uris": {"ios": "https://dc.lft.to/lastmile_qr_scan", "android": "https://dc.lft.to/lastmile_qr_scan"}}, {"name": "650334586b54ea58575c2fc070e39f2a", "lon": -76.96562016666667, "lat": 38.873722, "type": "electric_bike", "fusion_lon": 0.0, "is_reserved": 0, "bike_id": "650334586b54ea58575c2fc070e39f2a", "fusion_lat": 0.0, "is_disabled": 0, "rental_uris": {"ios": "https://dc.lft.to/lastmile_qr_scan", "android": "https://dc.lft.to/lastmile_qr_scan"}}, {"name": "3d7fda4a554aeaf7f8fcf65963ed9248", "lon": -77.04387666666666, "lat": 38.89829366666667, "type": "electric_scooter", "fusion_lon": 0.0, "is_reserved": 0, "bike_id": "3d7fda4a554aeaf7f8fcf65963ed9248", "fusion_lat": 0.0, "is_disabled": 0, "rental_uris": {"ios": "https://dc.lft.to/lastmile_qr_scan", "android": "https://dc.lft.to/lastmile_qr_scan"}}, {"name": "a8b5b605813e2ba416fd2f6520f8697f", "lon": -77.0417185, "lat": 38.9080015, "type": "electric_scooter", "fusion_lon": 0.0, "is_reserved": 0, "bike_id": "a8b5b605813e2ba416fd2f6520f8697f", "fusion_lat": 0.0, "is_disabled": 0, "rental_uris": {"ios": "https://dc.lft.to/lastmile_qr_scan", "android": "https://dc.lft.to/lastmile_qr_scan"}}, {"name": "abf679ca776f03a21bcd8bcc08e97961", "lon": -77.12960016666666, "lat": 38.852194, "type": "electric_bike", "fusion_lon": 0.0, "is_reserved": 0, "bike_id": "abf679ca776f03a21bcd8bcc08e97961", "fusion_lat": 0.0, "is_disabled": 0, "rental_uris": {"ios": "https://dc.lft.to/lastmile_qr_scan", "android": "https://dc.lft.to/lastmile_qr_scan"}}, {"name": "6f8943fff3e6984e3c852e0d1daf2971", "lon": -77.08943433333333, "lat": 38.862638833333335, "type": "electric_bike", "fusion_lon": 0.0, "is_reserved": 0, "bike_id": "6f8943fff3e6984e3c852e0d1daf2971", "fusion_lat": 0.0, "is_disabled": 0, "rental_uris": {"ios": "https://dc.lft.to/lastmile_qr_scan", "android": "https://dc.lft.to/lastmile_qr_scan"}}, {"name": "f1c48842cf3d4d215df432bd12f5ca0d", "lon": -77.04363983333333, "lat": 38.90742633333333, "type": "electric_scooter", "fusion_lon": 0.0, "is_reserved": 0, "bike_id": "f1c48842cf3d4d215df432bd12f5ca0d", "fusion_lat": 0.0, "is_disabled": 0, "rental_uris": {"ios": "https://dc.lft.to/lastmile_qr_scan", "android": "https://dc.lft.to/lastmile_qr_scan"}}, {"name": "82c39d6161d064678f156bcca87d353f", "lon": -77.03964683333334, "lat": 38.9003005, "type": "electric_scooter", "fusion_lon": 0.0, "is_reserved": 0, "bike_id": "82c39d6161d064678f156bcca87d353f", "fusion_lat": 0.0, "is_disabled": 0, "rental_uris": {"ios": "https://dc.lft.to/lastmile_qr_scan", "android": "https://dc.lft.to/lastmile_qr_scan"}}, {"name": "47fb4e3f8f88622144dfc955519e8ad6", "lon": -77.053073, "lat": 38.89853933333333, "type": "electric_scooter", "fusion_lon": 0.0, "is_reserved": 0, "bike_id": "47fb4e3f8f88622144dfc955519e8ad6", "fusion_lat": 0.0, "is_disabled": 0, "rental_uris": {"ios": "https://dc.lft.to/lastmile_qr_scan", "android": "https://dc.lft.to/lastmile_qr_scan"}}, {"name": "b7895df2922df8d11729bc579f891534", "lon": -77.078057, "lat": 38.9246005, "type": "electric_scooter", "fusion_lon": 0.0, "is_reserved": 0, "bike_id": "b7895df2922df8d11729bc579f891534", "fusion_lat": 0.0, "is_disabled": 0, "rental_uris": {"ios": "https://dc.lft.to/lastmile_qr_scan", "android": "https://dc.lft.to/lastmile_qr_scan"}}, {"name": "eecc4bdd7f24e8c30a7e17526f29ed85", "lon": -77.02814033333334, "lat": 38.96080716666667, "type": "electric_scooter", "fusion_lon": 0.0, "is_reserved": 0, "bike_id": "eecc4bdd7f24e8c30a7e17526f29ed85", "fusion_lat": 0.0, "is_disabled": 0, "rental_uris": {"ios": "https://dc.lft.to/lastmile_qr_scan", "android": "https://dc.lft.to/lastmile_qr_scan"}}, {"name": "f408eb39290b6e5b1cb5861ccaa990cf", "lon": -77.02571216666666, "lat": 38.90418616666667, "type": "electric_scooter", "fusion_lon": 0.0, "is_reserved": 0, "bike_id": "f408eb39290b6e5b1cb5861ccaa990cf", "fusion_lat": 0.0, "is_disabled": 0, "rental_uris": {"ios": "https://dc.lft.to/lastmile_qr_scan", "android": "https://dc.lft.to/lastmile_qr_scan"}}, {"name": "79b8cb274086c0be7aa9c24d035ead45", "lon": -77.02294983333333, "lat": 38.899879166666665, "type": "electric_scooter", "fusion_lon": 0.0, "is_reserved": 0, "bike_id": "79b8cb274086c0be7aa9c24d035ead45", "fusion_lat": 0.0, "is_disabled": 0, "rental_uris": {"ios": "https://dc.lft.to/lastmile_qr_scan", "android": "https://dc.lft.to/lastmile_qr_scan"}}, {"name": "103b06aa11ea417f66396b0ce68b75ce", "lon": -77.01213266666667, "lat": 38.86419433333333, "type": "electric_scooter", "fusion_lon": 0.0, "is_reserved": 0, "bike_id": "103b06aa11ea417f66396b0ce68b75ce", "fusion_lat": 0.0, "is_disabled": 0, "rental_uris": {"ios": "https://dc.lft.to/lastmile_qr_scan", "android": "https://dc.lft.to/lastmile_qr_scan"}}, {"name": "918e05a8725f280af76f8ef4ae14e682", "lon": -77.0122295, "lat": 38.8954085, "type": "electric_scooter", "fusion_lon": 0.0, "is_reserved": 0, "bike_id": "918e05a8725f280af76f8ef4ae14e682", "fusion_lat": 0.0, "is_disabled": 0, "rental_uris": {"ios": "https://dc.lft.to/lastmile_qr_scan", "android": "https://dc.lft.to/lastmile_qr_scan"}}, {"name": "561f5ee67c29faffbf76f9b4ad79c36e", "lon": -77.03743066666667, "lat": 38.929074, "type": "electric_scooter", "fusion_lon": 0.0, "is_reserved": 0, "bike_id": "561f5ee67c29faffbf76f9b4ad79c36e", "fusion_lat": 0.0, "is_disabled": 0, "rental_uris": {"ios": "https://dc.lft.to/lastmile_qr_scan", "android": "https://dc.lft.to/lastmile_qr_scan"}}, {"name": "e58e46374cf44c176ae46c6a67e5a0a1", "lon": -76.99702766666667, "lat": 38.908341, "type": "electric_scooter", "fusion_lon": 0.0, "is_reserved": 0, "bike_id": "e58e46374cf44c176ae46c6a67e5a0a1", "fusion_lat": 0.0, "is_disabled": 0, "rental_uris": {"ios": "https://dc.lft.to/lastmile_qr_scan", "android": "https://dc.lft.to/lastmile_qr_scan"}}, {"name": "1ff34050ea7782e8937c974c412edadc", "lon": -77.03530233333333, "lat": 38.91692033333333, "type": "electric_scooter", "fusion_lon": 0.0, "is_reserved": 0, "bike_id": "1ff34050ea7782e8937c974c412edadc", "fusion_lat": 0.0, "is_disabled": 0, "rental_uris": {"ios": "https://dc.lft.to/lastmile_qr_scan", "android": "https://dc.lft.to/lastmile_qr_scan"}}, {"name": "6b3925fca94c77392f0463c9e1c023da", "lon": -76.99936216666667, "lat": 38.90023133333333, "type": "electric_scooter", "fusion_lon": 0.0, "is_reserved": 0, "bike_id": "6b3925fca94c77392f0463c9e1c023da", "fusion_lat": 0.0, "is_disabled": 0, "rental_uris": {"ios": "https://dc.lft.to/lastmile_qr_scan", "android": "https://dc.lft.to/lastmile_qr_scan"}}, {"name": "341de199ff7ba01c4ba0349e0c8bc4ed", "lon": -76.96526216666666, "lat": 38.876285833333334, "type": "electric_scooter", "fusion_lon": 0.0, "is_reserved": 0, "bike_id": "341de199ff7ba01c4ba0349e0c8bc4ed", "fusion_lat": 0.0, "is_disabled": 0, "rental_uris": {"ios": "https://dc.lft.to/lastmile_qr_scan", "android": "https://dc.lft.to/lastmile_qr_scan"}}, {"name": "4db980ec47b8f73954ecd4da42ccd3f5", "lon": -77.04055733333334, "lat": 38.91111033333333, "type": "electric_scooter", "fusion_lon": 0.0, "is_reserved": 0, "bike_id": "4db980ec47b8f73954ecd4da42ccd3f5", "fusion_lat": 0.0, "is_disabled": 0, "rental_uris": {"ios": "https://dc.lft.to/lastmile_qr_scan", "android": "https://dc.lft.to/lastmile_qr_scan"}}, {"name": "3bef2da254a5dbc345c9dec140b346c1", "lon": -77.02902933333333, "lat": 38.92815516666667, "type": "electric_scooter", "fusion_lon": 0.0, "is_reserved": 0, "bike_id": "3bef2da254a5dbc345c9dec140b346c1", "fusion_lat": 0.0, "is_disabled": 0, "rental_uris": {"ios": "https://dc.lft.to/lastmile_qr_scan", "android": "https://dc.lft.to/lastmile_qr_scan"}}, {"name": "bfb3382aa3fc7dfcca63f05528d8ddda", "lon": -76.93733766666666, "lat": 38.89013683333334, "type": "electric_scooter", "fusion_lon": 0.0, "is_reserved": 0, "bike_id": "bfb3382aa3fc7dfcca63f05528d8ddda", "fusion_lat": 0.0, "is_disabled": 0, "rental_uris": {"ios": "https://dc.lft.to/lastmile_qr_scan", "android": "https://dc.lft.to/lastmile_qr_scan"}}, {"name": "3e790f5f5e0511965ce08aadb35f812b", "lon": -76.99402666666667, "lat": 38.93924466666667, "type": "electric_bike", "fusion_lon": 0.0, "is_reserved": 0, "bike_id": "3e790f5f5e0511965ce08aadb35f812b", "fusion_lat": 0.0, "is_disabled": 0, "rental_uris": {"ios": "https://dc.lft.to/lastmile_qr_scan", "android": "https://dc.lft.to/lastmile_qr_scan"}}, {"name": "e0798f1406183ad9a1fe90e270f46a5b", "lon": -77.02718316666666, "lat": 38.90148683333334, "type": "electric_scooter", "fusion_lon": 0.0, "is_reserved": 0, "bike_id": "e0798f1406183ad9a1fe90e270f46a5b", "fusion_lat": 0.0, "is_disabled": 0, "rental_uris": {"ios": "https://dc.lft.to/lastmile_qr_scan", "android": "https://dc.lft.to/lastmile_qr_scan"}}, {"name": "9da9532ddcd7b1c58cb0432532f32cdc", "lon": -77.002129, "lat": 38.9110455, "type": "electric_scooter", "fusion_lon": 0.0, "is_reserved": 0, "bike_id": "9da9532ddcd7b1c58cb0432532f32cdc", "fusion_lat": 0.0, "is_disabled": 0, "rental_uris": {"ios": "https://dc.lft.to/lastmile_qr_scan", "android": "https://dc.lft.to/lastmile_qr_scan"}}, {"name": "6e4d8d2e68b0d4ad2610bf1128607826", "lon": -76.9926055, "lat": 38.90296166666667, "type": "electric_scooter", "fusion_lon": 0.0, "is_reserved": 0, "bike_id": "6e4d8d2e68b0d4ad2610bf1128607826", "fusion_lat": 0.0, "is_disabled": 0, "rental_uris": {"ios": "https://dc.lft.to/lastmile_qr_scan", "android": "https://dc.lft.to/lastmile_qr_scan"}}, {"name": "83fcbecd22576b8998b8d46873c24306", "lon": -77.011278, "lat": 38.91584533333333, "type": "electric_scooter", "fusion_lon": 0.0, "is_reserved": 0, "bike_id": "83fcbecd22576b8998b8d46873c24306", "fusion_lat": 0.0, "is_disabled": 0, "rental_uris": {"ios": "https://dc.lft.to/lastmile_qr_scan", "android": "https://dc.lft.to/lastmile_qr_scan"}}, {"name": "df93a70b12e8d2b8857695889fceb9ba", "lon": -77.00710866666667, "lat": 38.88491233333333, "type": "electric_scooter", "fusion_lon": 0.0, "is_reserved": 0, "bike_id": "df93a70b12e8d2b8857695889fceb9ba", "fusion_lat": 0.0, "is_disabled": 0, "rental_uris": {"ios": "https://dc.lft.to/lastmile_qr_scan", "android": "https://dc.lft.to/lastmile_qr_scan"}}, {"name": "271609c3f729cd5f52366b798b79ee16", "lon": -76.97013533333333, "lat": 38.8636985, "type": "electric_bike", "fusion_lon": 0.0, "is_reserved": 0, "bike_id": "271609c3f729cd5f52366b798b79ee16", "fusion_lat": 0.0, "is_disabled": 0, "rental_uris": {"ios": "https://dc.lft.to/lastmile_qr_scan", "android": "https://dc.lft.to/lastmile_qr_scan"}}, {"name": "11fb110b259e50d39959602fb31dee2b", "lon": -77.11799833333333, "lat": 38.8737325, "type": "electric_bike", "fusion_lon": 0.0, "is_reserved": 0, "bike_id": "11fb110b259e50d39959602fb31dee2b", "fusion_lat": 0.0, "is_disabled": 0, "rental_uris": {"ios": "https://dc.lft.to/lastmile_qr_scan", "android": "https://dc.lft.to/lastmile_qr_scan"}}, {"name": "9d24039c7b1ea5b5eedee7464f5df027", "lon": -77.05052216666667, "lat": 38.92358683333333, "type": "electric_scooter", "fusion_lon": 0.0, "is_reserved": 0, "bike_id": "9d24039c7b1ea5b5eedee7464f5df027", "fusion_lat": 0.0, "is_disabled": 0, "rental_uris": {"ios": "https://dc.lft.to/lastmile_qr_scan", "android": "https://dc.lft.to/lastmile_qr_scan"}}, {"name": "6814391807af41e42fb8904061a5792a", "lon": -77.017526, "lat": 38.917134, "type": "electric_scooter", "fusion_lon": 0.0, "is_reserved": 0, "bike_id": "6814391807af41e42fb8904061a5792a", "fusion_lat": 0.0, "is_disabled": 0, "rental_uris": {"ios": "https://dc.lft.to/lastmile_qr_scan", "android": "https://dc.lft.to/lastmile_qr_scan"}}, {"name": "708fafbf6796443e08340f1db070f572", "lon": -77.02694283333334, "lat": 38.908686333333335, "type": "electric_scooter", "fusion_lon": 0.0, "is_reserved": 0, "bike_id": "708fafbf6796443e08340f1db070f572", "fusion_lat": 0.0, "is_disabled": 0, "rental_uris": {"ios": "https://dc.lft.to/lastmile_qr_scan", "android": "https://dc.lft.to/lastmile_qr_scan"}}, {"name": "82e39bd5a7b92a6b555ee4e060b69f31", "lon": -77.06925566666666, "lat": 38.913545, "type": "electric_scooter", "fusion_lon": 0.0, "is_reserved": 0, "bike_id": "82e39bd5a7b92a6b555ee4e060b69f31", "fusion_lat": 0.0, "is_disabled": 0, "rental_uris": {"ios": "https://dc.lft.to/lastmile_qr_scan", "android": "https://dc.lft.to/lastmile_qr_scan"}}, {"name": "4f02b833f4b53874372352cd9c896541", "lon": -76.98283, "lat": 38.899844333333334, "type": "electric_scooter", "fusion_lon": 0.0, "is_reserved": 0, "bike_id": "4f02b833f4b53874372352cd9c896541", "fusion_lat": 0.0, "is_disabled": 0, "rental_uris": {"ios": "https://dc.lft.to/lastmile_qr_scan", "android": "https://dc.lft.to/lastmile_qr_scan"}}, {"name": "1ff9a5f774b8cf8d996b7ca267a9ead9", "lon": -77.02951616666667, "lat": 38.90496, "type": "electric_scooter", "fusion_lon": 0.0, "is_reserved": 0, "bike_id": "1ff9a5f774b8cf8d996b7ca267a9ead9", "fusion_lat": 0.0, "is_disabled": 0, "rental_uris": {"ios": "https://dc.lft.to/lastmile_qr_scan", "android": "https://dc.lft.to/lastmile_qr_scan"}}, {"name": "3272bdeb4e80a06351927078615d204c", "lon": -76.998787, "lat": 38.90124083333333, "type": "electric_scooter", "fusion_lon": 0.0, "is_reserved": 0, "bike_id": "3272bdeb4e80a06351927078615d204c", "fusion_lat": 0.0, "is_disabled": 0, "rental_uris": {"ios": "https://dc.lft.to/lastmile_qr_scan", "android": "https://dc.lft.to/lastmile_qr_scan"}}, {"name": "857c36fd77fbc506346e3188846c191b", "lon": -77.053269, "lat": 38.906438666666666, "type": "electric_scooter", "fusion_lon": 0.0, "is_reserved": 0, "bike_id": "857c36fd77fbc506346e3188846c191b", "fusion_lat": 0.0, "is_disabled": 0, "rental_uris": {"ios": "https://dc.lft.to/lastmile_qr_scan", "android": "https://dc.lft.to/lastmile_qr_scan"}}, {"name": "d6b2d49fe41199ae6e489ac6348778f4", "lon": -77.0523625, "lat": 38.924636666666665, "type": "electric_scooter", "fusion_lon": 0.0, "is_reserved": 0, "bike_id": "d6b2d49fe41199ae6e489ac6348778f4", "fusion_lat": 0.0, "is_disabled": 0, "rental_uris": {"ios": "https://dc.lft.to/lastmile_qr_scan", "android": "https://dc.lft.to/lastmile_qr_scan"}}, {"name": "a4943b4cb13eae243c43eeae41f79754", "lon": -77.03839383333333, "lat": 38.912093666666664, "type": "electric_scooter", "fusion_lon": 0.0, "is_reserved": 0, "bike_id": "a4943b4cb13eae243c43eeae41f79754", "fusion_lat": 0.0, "is_disabled": 0, "rental_uris": {"ios": "https://dc.lft.to/lastmile_qr_scan", "android": "https://dc.lft.to/lastmile_qr_scan"}}, {"name": "bb5ba428788be0b6286559c13f53998f", "lon": -77.03858333333334, "lat": 38.9104415, "type": "electric_scooter", "fusion_lon": 0.0, "is_reserved": 0, "bike_id": "bb5ba428788be0b6286559c13f53998f", "fusion_lat": 0.0, "is_disabled": 0, "rental_uris": {"ios": "https://dc.lft.to/lastmile_qr_scan", "android": "https://dc.lft.to/lastmile_qr_scan"}}, {"name": "d85a95711aac78f1bae89cccde55a592", "lon": -76.94959566666667, "lat": 38.904977, "type": "electric_scooter", "fusion_lon": 0.0, "is_reserved": 0, "bike_id": "d85a95711aac78f1bae89cccde55a592", "fusion_lat": 0.0, "is_disabled": 0, "rental_uris": {"ios": "https://dc.lft.to/lastmile_qr_scan", "android": "https://dc.lft.to/lastmile_qr_scan"}}, {"name": "41b703010268ffb10ff826d1e51d4a0c", "lon": -77.031289, "lat": 38.914888166666664, "type": "electric_scooter", "fusion_lon": 0.0, "is_reserved": 0, "bike_id": "41b703010268ffb10ff826d1e51d4a0c", "fusion_lat": 0.0, "is_disabled": 0, "rental_uris": {"ios": "https://dc.lft.to/lastmile_qr_scan", "android": "https://dc.lft.to/lastmile_qr_scan"}},