{"data": {"bikes": [{"bike_id": "308845b3ce329773c54084d693c844ef", "fusion_lon": 0.0, "name": "308845b3ce329773c54084d693c844ef", "lat": 38.8579605, "is_disabled": 0, "is_reserved": 0, "lon": -77.099584, "type": "electric_bike", "fusion_lat": 0.0, "rental_uris": {"android": "https://dc.lft.to/lastmile_qr_scan", "ios": "https://dc.lft.to/lastmile_qr_scan"}}, {"bike_id": "7cff6ddee795bb3b7e0227397a0370ba", "fusion_lon": 0.0, "name": "7cff6ddee795bb3b7e0227397a0370ba", "lat": 38.914325166666664, "is_disabled": 0, "is_reserved": 0, "lon": -77.03921816666667, "type": "electric_scooter", "fusion_lat": 0.0, "rental_uris": {"android": "https://dc.lft.to/lastmile_qr_scan", "ios": "https://dc.lft.to/lastmile_qr_scan"}}, {"bike_id": "bf8976e4f9669d3ac96ebbb457041675", "fusion_lon": 0.0, "name": "bf8976e4f9669d3ac96ebbb457041675", "lat": 38.930476, "is_disabled": 0, "is_reserved": 0, "lon": -76.9583785, "type": "electric_bike", "fusion_lat": 0.0, "rental_uris": {"android": "https://dc.lft.to/lastmile_qr_scan", "ios": "https://dc.lft.to/lastmile_qr_scan"}}, {"bike_id": "c59098a310b24ffbc37e80890dff6a1f", "fusion_lon": 0.0, "name": "c59098a310b24ffbc37e80890dff6a1f", "lat": 38.93056416666667, "is_disabled": 0, "is_reserved": 0, "lon": -77.03264483333334, "type": "electric_scooter", "fusion_lat": 0.0, "rental_uris": {"android": "https://dc.lft.to/lastmile_qr_scan", "ios": "https://dc.lft.to/lastmile_qr_scan"}}, {"bike_id": "7794135bf7fb4b85415b8b6c5a1be54f", "fusion_lon": 0.0, "name": "7794135bf7fb4b85415b8b6c5a1be54f", "lat": 38.920396833333335, "is_disabled": 0, "is_reserved": 0, "lon": -77.017887, "type": "electric_scooter", "fusion_lat": 0.0, "rental_uris": {"android": "https://dc.lft.to/lastmile_qr_scan", "ios": "https://dc.lft.to/lastmile_qr_scan"}}, {"bike_id": "40a1afc85bd62f5db9e42390d11b01cc", "fusion_lon": 0.0, "name": "40a1afc85bd62f5db9e42390d11b01cc", "lat": 39.0142135, "is_disabled": 0, "is_reserved": 0, "lon": -77.04499333333334, "type": "electric_bike", "fusion_lat": 0.0, "rental_uris": {"android": "https://dc.lft.to/lastmile_qr_scan", "ios": "https://dc.lft.to/lastmile_qr_scan"}}, {"bike_id": "034cb1e167e0dd73c2913a071eebc1a5", "fusion_lon": 0.0, "name": "034cb1e167e0dd73c2913a071eebc1a5", "lat": 38.898236, "is_disabled": 0, "is_reserved": 0, "lon": -76.99071633333334, "type": "electric_bike", "fusion_lat": 0.0, "rental_uris": {"android": "https://dc.lft.to/lastmile_qr_scan", "ios": "https://dc.lft.to/lastmile_qr_scan"}}, {"bike_id": "9524a1023f6d911d7fa7389a17ab47b4", "fusion_lon": 0.0, "name": "9524a1023f6d911d7fa7389a17ab47b4", "lat": 38.8850845, "is_disabled": 0, "is_reserved": 0, "lon": -76.997533, "type": "electric_scooter", "fusion_lat": 0.0, "rental_uris": {"android": "https://dc.lft.to/lastmile_qr_scan", "ios": "https://dc.lft.to/lastmile_qr_scan"}}, {"bike_id": "64186244d353dbbcf69ce0bb4a1fb115", "fusion_lon": 0.0, "name": "64186244d353dbbcf69ce0bb4a1fb115", "lat": 38.9177995, "is_disabled": 0, "is_reserved": 0, "lon": -77.01931933333333, "type": "electric_scooter", "fusion_lat": 0.0, "rental_uris": {"android": "https://dc.lft.to/lastmile_qr_scan", "ios": "https://dc.lft.to/lastmile_qr_scan"}}, {"bike_id": "94e09f94885786b280c684a7a2103c66", "fusion_lon": 0.0, "name": "94e09f94885786b280c684a7a2103c66", "lat": 38.8161265, "is_disabled": 0, "is_reserved": 0, "lon": -76.99654583333333, "type": "electric_bike", "fusion_lat": 0.0, "rental_uris": {"android": "https://dc.lft.to/lastmile_qr_scan", "ios": "https://dc.lft.to/lastmile_qr_scan"}}, {"bike_id": "7c8a9d929c16247e10f41496bc823ee7", "fusion_lon": 0.0, "name": "7c8a9d929c16247e10f41496bc823ee7", "lat": 38.92885916666667, "is_disabled": 0, "is_reserved": 0, "lon": -77.03250033333333, "type": "electric_scooter", "fusion_lat": 0.0, "rental_uris": {"android": "https://dc.lft.to/lastmile_qr_scan", "ios": "https://dc.lft.to/lastmile_qr_scan"}}, {"bike_id": "ccc0edbe1a4a2f312ce06200d983b779", "fusion_lon": 0.0, "name": "ccc0edbe1a4a2f312ce06200d983b779", "lat": 38.86680916666667, "is_disabled": 0, "is_reserved": 0, "lon": -76.98564833333333, "type": "electric_scooter", "fusion_lat": 0.0, "rental_uris": {"android": "https://dc.lft.to/lastmile_qr_scan", "ios": "https://dc.lft.to/lastmile_qr_scan"}}, {"bike_id": "eb8e5d80540a9ff0f9360d2146abc7cb", "fusion_lon": 0.0, "name": "eb8e5d80540a9ff0f9360d2146abc7cb", "lat": 38.89902566666667, "is_disabled": 0, "is_reserved": 0, "lon": -77.09618066666667, "type": "electric_bike", "fusion_lat": 0.0, "rental_uris": {"android": "https://dc.lft.to/lastmile_qr_scan", "ios": "https://dc.lft.to/lastmile_qr_scan"}}, {"bike_id": "dc7e305d0d067ff075c88a0e2a2dc039", "fusion_lon": 0.0, "name": "dc7e305d0d067ff075c88a0e2a2dc039", "lat": 38.9083685, "is_disabled": 0, "is_reserved": 0, "lon": -77.03551116666667, "type": "electric_scooter", "fusion_lat": 0.0, "rental_uris": {"android": "https://dc.lft.to/lastmile_qr_scan", "ios": "https://dc.lft.to/lastmile_qr_scan"}}, {"bike_id": "a76f2fc80ebb727a80ac6c5993ca0bc0", "fusion_lon": 0.0, "name": "a76f2fc80ebb727a80ac6c5993ca0bc0", "lat": 38.92674183333333, "is_disabled": 0, "is_reserved": 0, "lon": -77.015092, "type": "electric_scooter", "fusion_lat": 0.0, "rental_uris": {"android": "https://dc.lft.to/lastmile_qr_scan", "ios": "https://dc.lft.to/lastmile_qr_scan"}}, {"bike_id": "b100baf995a3cdb8b0b108f9c3a35862", "fusion_lon": 0.0, "name": "b100baf995a3cdb8b0b108f9c3a35862", "lat": 38.9048705, "is_disabled": 0, "is_reserved": 0, "lon": -77.0021215, "type": "electric_scooter", "fusion_lat": 0.0, "rental_uris": {"android": "https://dc.lft.to/lastmile_qr_scan", "ios": "https://dc.lft.to/lastmile_qr_scan"}}, {"bike_id": "a8a53e97aa5fec65d4d3be9ea2a853c0", "fusion_lon": 0.0, "name": "a8a53e97aa5fec65d4d3be9ea2a853c0", "lat": 38.87720816666667, "is_disabled": 0, "is_reserved": 0, "lon": -77.00415116666667, "type": "electric_scooter", "fusion_lat": 0.0, "rental_uris": {"android": "https://dc.lft.to/lastmile_qr_scan", "ios": "https://dc.lft.to/lastmile_qr_scan"}}, {"bike_id": "dda709f910d37a209628eb9aeb8448d5", "fusion_lon": 0.0, "name": "dda709f910d37a209628eb9aeb8448d5", "lat": 38.92477783333333, "is_disabled": 0, "is_reserved": 0, "lon": -76.99030166666667, "type": "electric_scooter", "fusion_lat": 0.0, "rental_uris": {"android": "https://dc.lft.to/lastmile_qr_scan", "ios": "https://dc.lft.to/lastmile_qr_scan"}}, {"bike_id": "cdea1bc874904cacd1dd5379b2cec653", "fusion_lon": 0.0, "name": "cdea1bc874904cacd1dd5379b2cec653", "lat": 38.92376433333333, "is_disabled": 0, "is_reserved": 0, "lon": -77.050409, "type": "electric_scooter", "fusion_lat": 0.0, "rental_uris": {"android": "https://dc.lft.to/lastmile_qr_scan", "ios": "https://dc.lft.to/lastmile_qr_scan"}}, {"bike_id": "ab313ca2f5a8dba0e2f0025ce206e02b", "fusion_lon": 0.0, "name": "ab313ca2f5a8dba0e2f0025ce206e02b", "lat": 38.857615833333334, "is_disabled": 0, "is_reserved": 0, "lon": -77.08653466666667, "type": "electric_bike", "fusion_lat": 0.0, "rental_uris": {"android": "https://dc.lft.to/lastmile_qr_scan", "ios": "https://dc.lft.to/lastmile_qr_scan"}}, {"bike_id": "18d057033940a33a3f51892ee26310a8", "fusion_lon": 0.0, "name": "18d057033940a33a3f51892ee26310a8", "lat": 38.89247866666667, "is_disabled": 0, "is_reserved": 0, "lon": -77.03342166666667, "type": "electric_scooter", "fusion_lat": 0.0, "rental_uris": {"android": "https://dc.lft.to/lastmile_qr_scan", "ios": "https://dc.lft.to/lastmile_qr_scan"}}, {"bike_id": "390b140c141b1672edec205deb28150e", "fusion_lon": 0.0, "name": "390b140c141b1672edec205deb28150e", "lat": 38.923027166666664, "is_disabled": 0, "is_reserved": 0, "lon": -77.02439683333333, "type": "electric_scooter", "fusion_lat": 0.0, "rental_uris": {"android": "https://dc.lft.to/lastmile_qr_scan", "ios": "https://dc.lft.to/lastmile_qr_scan"}}, {"bike_id": "80baa0b052e14a5c387c09b6ba6e3cfd", "fusion_lon": 0.0, "name": "80baa0b052e14a5c387c09b6ba6e3cfd", "lat": 38.96198066666667, "is_disabled": 0, "is_reserved": 0, "lon": -77.00081683333333, "type": "electric_bike", "fusion_lat": 0.0, "rental_uris": {"android": "https://dc.lft.to/lastmile_qr_scan", "ios": "https://dc.lft.to/lastmile_qr_scan"}}, {"bike_id": "e879b5bf43415166df2cef870ddf67e1", "fusion_lon": 0.0, "name": "e879b5bf43415166df2cef870ddf67e1", "lat": 38.99101183333333, "is_disabled": 0, "is_reserved": 0, "lon": -76.99378083333333, "type": "electric_bike", "fusion_lat": 0.0, "rental_uris": {"android": "https://dc.lft.to/lastmile_qr_scan", "ios": "https://dc.lft.to/lastmile_qr_scan"}}, {"bike_id": "c6f4278dce21930887f32ba6734a31de", "fusion_lon": 0.0, "name": "c6f4278dce21930887f32ba6734a31de", "lat": 38.905223166666666, "is_disabled": 0, "is_reserved": 0, "lon": -77.06304133333333, "type": "electric_scooter", "fusion_lat": 0.0, "rental_uris": {"android": "https://dc.lft.to/lastmile_qr_scan", "ios": "https://dc.lft.to/lastmile_qr_scan"}}, {"bike_id": "00c9f7fd103839e1c3d792a62ea5b8b2", "fusion_lon": 0.0, "name": "00c9f7fd103839e1c3d792a62ea5b8b2", "lat": 38.90278816666667, "is_disabled": 0, "is_reserved": 0, "lon": -77.03513183333334, "type": "electric_scooter", "fusion_lat": 0.0, "rental_uris": {"android": "https://dc.lft.to/lastmile_qr_scan", "ios": "https://dc.lft.to/lastmile_qr_scan"}}, {"bike_id": "3358cce10e2d93f68956a920ea367ad9", "fusion_lon": 0.0, "name": "3358cce10e2d93f68956a920ea367ad9", "lat": 38.89744183333333, "is_disabled": 0, "is_reserved": 0, "lon": -77.04853683333333, "type": "electric_scooter", "fusion_lat": 0.0, "rental_uris": {"android": "https://dc.lft.to/lastmile_qr_scan", "ios": "https://dc.lft.to/lastmile_qr_scan"}}, {"bike_id": "14c7749f68feeba97f1e6afd36f67cfc", "fusion_lon": 0.0, "name": "14c7749f68feeba97f1e6afd36f67cfc", "lat": 38.987704, "is_disabled": 0, "is_reserved": 0, "lon": -77.14060166666667, "type": "electric_bike", "fusion_lat": 0.0, "rental_uris": {"android": "https://dc.lft.to/lastmile_qr_scan", "ios": "https://dc.lft.to/lastmile_qr_scan"}}, {"bike_id": "32d047f14a0f538318500bbae1f0c630", "fusion_lon": 0.0, "name": "32d047f14a0f538318500bbae1f0c630", "lat": 38.90578716666667, "is_disabled": 0, "is_reserved": 0, "lon": -77.02203533333333, "type": "electric_scooter", "fusion_lat": 0.0, "rental_uris": {"android": "https://dc.lft.to/lastmile_qr_scan", "ios": "https://dc.lft.to/lastmile_qr_scan"}}, {"bike_id": "378714b7a5cf76c4b65c099e18667ea9", "fusion_lon": 0.0, "name": "378714b7a5cf76c4b65c099e18667ea9", "lat": 38.915736333333335, "is_disabled": 0, "is_reserved": 0, "lon": -77.038536, "type": "electric_scooter", "fusion_lat": 0.0, "rental_uris": {"android": "https://dc.lft.to/lastmile_qr_scan", "ios": "https://dc.lft.to/lastmile_qr_scan"}}, {"bike_id": "273af6541f30fb8ea9258016d7227226", "fusion_lon": 0.0, "name": "273af6541f30fb8ea9258016d7227226", "lat": 38.942771666666665, "is_disabled": 0, "is_reserved": 0, "lon": -77.0325445, "type": "electric_scooter", "fusion_lat": 0.0, "rental_uris": {"android": "https://dc.lft.to/lastmile_qr_scan", "ios": "https://dc.lft.to/lastmile_qr_scan"}}, {"bike_id": "d26f1decf2c9cee269276e6f246416b9", "fusion_lon": 0.0, "name": "d26f1decf2c9cee269276e6f246416b9", "lat": 38.872463, "is_disabled": 0, "is_reserved": 0, "lon": -76.9772145, "type": "electric_scooter", "fusion_lat": 0.0, "rental_uris": {"android": "https://dc.lft.to/lastmile_qr_scan", "ios": "https://dc.lft.to/lastmile_qr_scan"}}, {"bike_id": "37208dd036b39b3fd95d816e40214bb8", "fusion_lon": 0.0, "name": "37208dd036b39b3fd95d816e40214bb8", "lat": 38.904146, "is_disabled": 0, "is_reserved": 0, "lon": -76.97326283333334, "type": "electric_scooter", "fusion_lat": 0.0, "rental_uris": {"android": "https://dc.lft.to/lastmile_qr_scan", "ios": "https://dc.lft.to/lastmile_qr_scan"}}, {"bike_id": "9da98961d21623048579facc9001a3d6", "fusion_lon": 0.0, "name": "9da98961d21623048579facc9001a3d6", "lat": 38.92075833333333, "is_disabled": 0, "is_reserved": 0, "lon": -77.03800216666667, "type": "electric_scooter", "fusion_lat": 0.0, "rental_uris": {"android": "https://dc.lft.to/lastmile_qr_scan", "ios": "https://dc.lft.to/lastmile_qr_scan"}}, {"bike_id": "facc79628dbd7bf97142ffa541a62b4e", "fusion_lon": 0.0, "name": "facc79628dbd7bf97142ffa541a62b4e", "lat": 38.884909666666665, "is_disabled": 0, "is_reserved": 0, "lon": -77.00711866666667, "type": "electric_scooter", "fusion_lat": 0.0, "rental_uris": {"android": "https://dc.lft.to/lastmile_qr_scan", "ios": "https://dc.lft.to/lastmile_qr_scan"}}, {"bike_id": "8bdb190013b35a0e681b2cee1305619c", "fusion_lon": 0.0, "name": "8bdb190013b35a0e681b2cee1305619c", "lat": 38.85652866666667, "is_disabled": 0, "is_reserved": 0, "lon": -77.08527883333333, "type": "electric_bike", "fusion_lat": 0.0, "rental_uris": {"android": "https://dc.lft.to/lastmile_qr_scan", "ios": "https://dc.lft.to/lastmile_qr_scan"}}, {"bike_id": "a4a22254a679e369ba4224fae2aca335", "fusion_lon": 0.0, "name": "a4a22254a679e369ba4224fae2aca335", "lat": 38.90714766666667, "is_disabled": 0, "is_reserved": 0, "lon": -77.00586033333333, "type": "electric_scooter", "fusion_lat": 0.0, "rental_uris": {"android": "https://dc.lft.to/lastmile_qr_scan", "ios": "https://dc.lft.to/lastmile_qr_scan"}}, {"bike_id": "81b7266201589b15f2b7b27309aaa76e", "fusion_lon": 0.0, "name": "81b7266201589b15f2b7b27309aaa76e", "lat": 38.88260533333333, "is_disabled": 0, "is_reserved": 0, "lon": -76.92667116666667, "type": "electric_scooter", "fusion_lat": 0.0, "rental_uris": {"android": "https://dc.lft.to/lastmile_qr_scan", "ios": "https://dc.lft.to/lastmile_qr_scan"}}, {"bike_id": "63b5253719f86b8cb3f8f1b2974cda62", "fusion_lon": 0.0, "name": "63b5253719f86b8cb3f8f1b2974cda62", "lat": 38.920433833333334, "is_disabled": 0, "is_reserved": 0, "lon": -77.016709, "type": "electric_scooter", "fusion_lat": 0.0, "rental_uris": {"android": "https://dc.lft.to/lastmile_qr_scan", "ios": "https://dc.lft.to/lastmile_qr_scan"}}, {"bike_id": "3210d2da7369ab06e8389e63e00bfbd4", "fusion_lon": 0.0, "name": "3210d2da7369ab06e8389e63e00bfbd4", "lat": 38.9153505, "is_disabled": 0, "is_reserved": 0, "lon": -77.01221533333333, "type": "electric_scooter", "fusion_lat": 0.0, "rental_uris": {"android": "https://dc.lft.to/lastmile_qr_scan", "ios": "https://dc.lft.to/lastmile_qr_scan"}}, {"bike_id": "f3b49f87c0dd953ef665ce46d2f76e7a", "fusion_lon": 0.0, "name": "f3b49f87c0dd953ef665ce46d2f76e7a", "lat": 38.897055333333334, "is_disabled": 0, "is_reserved": 0, "lon": -77.01610916666667, "type": "electric_scooter", "fusion_lat": 0.0, "rental_uris": {"android": "https://dc.lft.to/lastmile_qr_scan", "ios": "https://dc.lft.to/lastmile_qr_scan"}}, {"bike_id": "7b074f20689f944b00ca759f0cff3f6b", "fusion_lon": 0.0, "name": "7b074f20689f944b00ca759f0cff3f6b", "lat": 38.893611166666666, "is_disabled": 0, "is_reserved": 0, "lon": -77.028047, "type": "electric_scooter", "fusion_lat": 0.0, "rental_uris": {"android": "https://dc.lft.to/lastmile_qr_scan", "ios": "https://dc.lft.to/lastmile_qr_scan"}}, {"bike_id": "8af71eec7065b55868fcacf173291122", "fusion_lon": 0.0, "name": "8af71eec7065b55868fcacf173291122", "lat": 38.8664725, "is_disabled": 0, "is_reserved": 0, "lon": -76.98298866666667, "type": "electric_scooter", "fusion_lat": 0.0, "rental_uris": {"android": "https://dc.lft.to/lastmile_qr_scan", "ios": "https://dc.lft.to/lastmile_qr_scan"}}, {"bike_id": "64958179616297d197c8d9d2736f32a4", "fusion_lon": 0.0, "name": "64958179616297d197c8d9d2736f32a4", "lat": 38.9053155, "is_disabled": 0, "is_reserved": 0, "lon": -77.02703516666666, "type": "electric_scooter", "fusion_lat": 0.0, "rental_uris": {"android": "https://dc.lft.to/lastmile_qr_scan", "ios": "https://dc.lft.to/lastmile_qr_scan"}}, {"bike_id": "479f8eaf1185513104f917d3ed26c27e", "fusion_lon": 0.0, "name": "479f8eaf1185513104f917d3ed26c27e", "lat": 38.9303035, "is_disabled": 0, "is_reserved": 0, "lon": -77.03288683333334, "type": "electric_scooter", "fusion_lat": 0.0, "rental_uris": {"android": "https://dc.lft.to/lastmile_qr_scan", "ios": "https://dc.lft.to/lastmile_qr_scan"}}, {"bike_id": "e4d6e4954aa5fb08a62f54ef31843cf9", "fusion_lon": 0.0, "name": "e4d6e4954aa5fb08a62f54ef31843cf9", "lat": 38.88814566666667, "is_disabled": 0, "is_reserved": 0, "lon": -76.98355833333333, "type": "electric_scooter", "fusion_lat": 0.0, "rental_uris": {"android": "https://dc.lft.to/lastmile_qr_scan", "ios": "https://dc.lft.to/lastmile_qr_scan"}}, {"bike_id": "dedeeb3c789701bc292d2af10235f473", "fusion_lon": 0.0, "name": "dedeeb3c789701bc292d2af10235f473", "lat": 38.897374, "is_disabled": 0, "is_reserved": 0, "lon": -77.02723483333334, "type": "electric_scooter", "fusion_lat": 0.0, "rental_uris": {"android": "https://dc.lft.to/lastmile_qr_scan", "ios": "https://dc.lft.to/lastmile_qr_scan"}}, {"bike_id": "6854203bd0cd60cd2dc8034fa436cabf", "fusion_lon": 0.0, "name": "6854203bd0cd60cd2dc8034fa436cabf", "lat": 38.91912033333333, "is_disabled": 0, "is_reserved": 0, "lon": -77.04467266666667, "type": "electric_scooter", "fusion_lat": 0.0, "rental_uris": {"android": "https://dc.lft.to/lastmile_qr_scan", "ios": "https://dc.lft.to/lastmile_qr_scan"}}, {"bike_id": "d1cc15bddd490654507acdfc403d1334", "fusion_lon": 0.0, "name": "d1cc15bddd490654507acdfc403d1334", "lat": 38.892236833333335, "is_disabled": 0, "is_reserved": 0, "lon": -77.02012266666667, "type": "electric_scooter", "fusion_lat": 0.0, "rental_uris": {"android": "https://dc.lft.to/lastmile_qr_scan", "ios": "https://dc.lft.to/lastmile_qr_scan"}}, {"bike_id": "c1a14ee66fe3ac6ae815332227c73f7f", "fusion_lon": 0.0, "name": "c1a14ee66fe3ac6ae815332227c73f7f", "lat": 38.89921833333333, "is_disabled": 0, "is_reserved": 0, "lon": -76.98536716666666, "type": "electric_scooter", "fusion_lat": 0.0, "rental_uris": {"android": "https://dc.lft.to/lastmile_qr_scan", "ios": "https://dc.lft.to/lastmile_qr_scan"}}, {"bike_id": "83095b93f90f2d1572954721eb7a744f", "fusion_lon": 0.0, "name": "83095b93f90f2d1572954721eb7a744f", "lat": 38.85578133333333, "is_disabled": 0, "is_reserved": 0, "lon": -76.9665055, "type": "electric_scooter", "fusion_lat": 0.0, "rental_uris": {"android": "https://dc.lft.to/lastmile_qr_scan", "ios": "https://dc.lft.to/lastmile_qr_scan"}}, {"bike_id": "511490edafb08bec35a5e365f650e6c4", "fusion_lon": 0.0, "name": "511490edafb08bec35a5e365f650e6c4", "lat": 38.90516316666667, "is_disabled": 0, "is_reserved": 0, "lon": -77.04900416666666, "type": "electric_scooter", "fusion_lat": 0.0, "rental_uris": {"android": "https://dc.lft.to/lastmile_qr_scan", "ios": "https://dc.lft.to/lastmile_qr_scan"}}, {"bike_id": "722eda59e9d66a8c2991fcd134d451c9", "fusion_lon": 0.0, "name": "722eda59e9d66a8c2991fcd134d451c9", "lat": 38.896136, "is_disabled": 0, "is_reserved": 0, "lon": -77.02604733333334, "type": "electric_scooter", "fusion_lat": 0.0, "rental_uris": {"android": "https://dc.lft.to/lastmile_qr_scan", "ios": "https://dc.lft.to/lastmile_qr_scan"}}, {"bike_id": "90d498fa2fc53c4aa8b2026efb6c678d", "fusion_lon": 0.0, "name": "90d498fa2fc53c4aa8b2026efb6c678d", "lat": 38.93260433333333, "is_disabled": 0, "is_reserved": 0, "lon": -77.038456, "type": "electric_scooter", "fusion_lat": 0.0, "rental_uris": {"android": "https://dc.lft.to/lastmile_qr_scan", "ios": "https://dc.lft.to/lastmile_qr_scan"}}, {"bike_id": "d12ea0dffcb626e249e589105c57a2c5", "fusion_lon": 0.0, "name": "d12ea0dffcb626e249e589105c57a2c5", "lat": 38.9236435, "is_disabled": 0, "is_reserved": 0, "lon": -77.05026083333334, "type": "electric_scooter", "fusion_lat": 0.0, "rental_uris": {"android": "https://dc.lft.to/lastmile_qr_scan", "ios": "https://dc.lft.to/lastmile_qr_scan"}}, {"bike_id": "0f8f91013291f003682dceb5087a5d41", "fusion_lon": 0.0, "name": "0f8f91013291f003682dceb5087a5d41", "lat": 38.903329, "is_disabled": 0, "is_reserved": 0, "lon": -77.04467266666667, "type": "electric_scooter", "fusion_lat": 0.0, "rental_uris": {"android": "https://dc.lft.to/lastmile_qr_scan", "ios": "https://dc.lft.to/lastmile_qr_scan"}}, {"bike_id": "897f7d464e77dc2e2140c4efd3a789be", "fusion_lon": 0.0, "name": "897f7d464e77dc2e2140c4efd3a789be", "lat": 38.9232045, "is_disabled": 0, "is_reserved": 0, "lon": -77.03910666666667, "type": "electric_scooter", "fusion_lat": 0.0, "rental_uris": {"android": "https://dc.lft.to/lastmile_qr_scan", "ios": "https://dc.lft.to/lastmile_qr_scan"}}, {"bike_id": "cdf492cb35d8afea13d7451977075211", "fusion_lon": 0.0, "name": "cdf492cb35d8afea13d7451977075211", "lat": 38.919908, "is_disabled": 0, "is_reserved": 0, "lon": -76.97307333333333, "type": "electric_scooter", "fusion_lat": 0.0, "rental_uris": {"android": "https://dc.lft.to/lastmile_qr_scan", "ios": "https://dc.lft.to/lastmile_qr_scan"}}, {"bike_id": "8640e469205716a825f9921ad3d64aad", "fusion_lon": 0.0, "name": "8640e469205716a825f9921ad3d64aad", "lat": 38.89717666666667, "is_disabled": 0, "is_reserved": 0, "lon": -77.043482, "type": "electric_scooter", "fusion_lat": 0.0, "rental_uris": {"android": "https://dc.lft.to/lastmile_qr_scan", "ios": "https://dc.lft.to/lastmile_qr_scan"}}, {"bike_id": "8c261255bc1c92af38af05dfe519dc10", "fusion_lon": 0.0, "name": "8c261255bc1c92af38af05dfe519dc10", "lat": 38.89749466666667, "is_disabled": 0, "is_reserved": 0, "lon": -77.0091405, "type": "electric_scooter", "fusion_lat": 0.0, "rental_uris": {"android": "https://dc.lft.to/lastmile_qr_scan", "ios": "https://dc.lft.to/lastmile_qr_scan"}}, {"bike_id": "9951c995889a1c41eee1a7501fd82ed4", "fusion_lon": 0.0, "name": "9951c995889a1c41eee1a7501fd82ed4", "lat": 38.84088633333333, "is_disabled": 0, "is_reserved": 0, "lon": -76.97027483333333, "type": "electric_bike", "fusion_lat": 0.0, "rental_uris": {"android": "https://dc.lft.to/lastmile_qr_scan", "ios": "https://dc.lft.to/lastmile_qr_scan"}}, {"bike_id": "30572664e2354f44aa8421bf54f0e799", "fusion_lon": 0.0, "name": "30572664e2354f44aa8421bf54f0e799", "lat": 38.89745083333333, "is_disabled": 0, "is_reserved": 0, "lon": -77.04588933333334, "type": "electric_scooter", "fusion_lat": 0.0, "rental_uris": {"android": "https://dc.lft.to/lastmile_qr_scan", "ios": "https://dc.lft.to/lastmile_qr_scan"}}, {"bike_id": "cee5023b0546b8daf8b7c552757a8e58", "fusion_lon": 0.0, "name": "cee5023b0546b8daf8b7c552757a8e58", "lat": 38.8836215, "is_disabled": 0, "is_reserved": 0, "lon": -76.98211366666666, "type": "electric_bike", "fusion_lat": 0.0, "rental_uris": {"android": "https://dc.lft.to/lastmile_qr_scan", "ios": "https://dc.lft.to/lastmile_qr_scan"}}, {"bike_id": "1526b521fd9218f9f0a543780e92a89b", "fusion_lon": 0.0, "name": "1526b521fd9218f9f0a543780e92a89b", "lat": 38.929535333333334, "is_disabled": 0, "is_reserved": 0, "lon": -77.0440525, "type": "electric_scooter", "fusion_lat": 0.0, "rental_uris": {"android": "https://dc.lft.to/lastmile_qr_scan", "ios": "https://dc.lft.to/lastmile_qr_scan"}}, {"bike_id": "e526204db98a0bdccc0a0e6d41240446", "fusion_lon": 0.0, "name": "e526204db98a0bdccc0a0e6d41240446", "lat": 38.94228483333333, "is_disabled": 0, "is_reserved": 0, "lon": -76.96587483333333, "type": "electric_bike", "fusion_lat": 0.0, "rental_uris": {"android": "https://dc.lft.to/lastmile_qr_scan", "ios": "https://dc.lft.to/lastmile_qr_scan"}}, {"bike_id": "98b7f016da98e1daa3748f9e20b7a13e", "fusion_lon": 0.0, "name": "98b7f016da98e1daa3748f9e20b7a13e", "lat": 38.9205095, "is_disabled": 0, "is_reserved": 0, "lon": -77.025739, "type": "electric_scooter", "fusion_lat": 0.0, "rental_uris": {"android": "https://dc.lft.to/lastmile_qr_scan", "ios": "https://dc.lft.to/lastmile_qr_scan"}}, {"bike_id": "39ee70994069f60f6ab1b910af17adaa", "fusion_lon": 0.0, "name": "39ee70994069f60f6ab1b910af17adaa", "lat": 38.855553, "is_disabled": 0, "is_reserved": 0, "lon": -76.98753566666667, "type": "electric_scooter", "fusion_lat": 0.0, "rental_uris": {"android": "https://dc.lft.to/lastmile_qr_scan", "ios": "https://dc.lft.to/lastmile_qr_scan"}}, {"bike_id": "6727240c20739e911537129678fe2bcc", "fusion_lon": 0.0, "name": "6727240c20739e911537129678fe2bcc", "lat": 38.9230435, "is_disabled": 0, "is_reserved": 0, "lon": -77.04271783333333, "type": "electric_scooter", "fusion_lat": 0.0, "rental_uris": {"android": "https://dc.lft.to/lastmile_qr_scan", "ios": "https://dc.lft.to/lastmile_qr_scan"}}, {"bike_id": "f113c8f084243b9ad4621b39fe0114de", "fusion_lon": 0.0, "name": "f113c8f084243b9ad4621b39fe0114de", "lat": 38.90607633333333, "is_disabled": 0, "is_reserved": 0, "lon": -77.00384083333333, "type": "electric_scooter", "fusion_lat": 0.0, "rental_uris": {"android": "https://dc.lft.to/lastmile_qr_scan", "ios": "https://dc.lft.to/lastmile_qr_scan"}}, {"bike_id": "b6ea0f64654e83b9975b77d2e69eb743", "fusion_lon": 0.0, "name": "b6ea0f64654e83b9975b77d2e69eb743", "lat": 38.901133, "is_disabled": 0, "is_reserved": 0, "lon": -77.04482533333334, "type": "electric_scooter", "fusion_lat": 0.0, "rental_uris": {"android": "https://dc.lft.to/lastmile_qr_scan", "ios": "https://dc.lft.to/lastmile_qr_scan"}}, {"bike_id": "fff8ffcd9bc610a78c112526c8f3b9cd", "fusion_lon": 0.0, "name": "fff8ffcd9bc610a78c112526c8f3b9cd", "lat": 38.909409333333336, "is_disabled": 0, "is_reserved": 0, "lon": -77.02813916666666, "type": "electric_scooter", "fusion_lat": 0.0, "rental_uris": {"android": "https://dc.lft.to/lastmile_qr_scan", "ios": "https://dc.lft.to/lastmile_qr_scan"}}, {"bike_id": "cb0acb4db3aabc5d8ec1985618073b90", "fusion_lon": 0.0, "name": "cb0acb4db3aabc5d8ec1985618073b90", "lat": 38.92245533333333, "is_disabled": 0, "is_reserved": 0, "lon": -77.020887, "type": "electric_scooter", "fusion_lat": 0.0, "rental_uris": {"android": "https://dc.lft.to/lastmile_qr_scan", "ios": "https://dc.lft.to/lastmile_qr_scan"}}, {"bike_id": "6755a5a94f720ca6983ae0d98a9b427e", "fusion_lon": 0.0, "name": "6755a5a94f720ca6983ae0d98a9b427e", "lat": 38.925085, "is_disabled": 0, "is_reserved": 0, "lon": -77.002231, "type": "electric_scooter", "fusion_lat": 0.0, "rental_uris": {"android": "https://dc.lft.to/lastmile_qr_scan", "ios": "https://dc.lft.to/lastmile_qr_scan"}}, {"bike_id": "2b8182703746bbe9a66574a74de8d096", "fusion_lon": 0.0, "name": "2b8182703746bbe9a66574a74de8d096", "lat": 38.896133666666664, "is_disabled": 0, "is_reserved": 0, "lon": -76.907388, "type": "electric_bike", "fusion_lat": 0.0, "rental_uris": {"android": "https://dc.lft.to/lastmile_qr_scan", "ios": "https://dc.lft.to/lastmile_qr_scan"}}, {"bike_id": "76a83822029d8816ae7baab8a57576cf", "fusion_lon": 0.0, "name": "76a83822029d8816ae7baab8a57576cf", "lat": 38.89223, "is_disabled": 0, "is_reserved": 0, "lon": -77.04308483333334, "type": "electric_scooter", "fusion_lat": 0.0, "rental_uris": {"android": "https://dc.lft.to/lastmile_qr_scan", "ios": "https://dc.lft.to/lastmile_qr_scan"}}, {"bike_id": "1989c259cc8534d6c54e20b39c3240f2", "fusion_lon": 0.0, "name": "1989c259cc8534d6c54e20b39c3240f2", "lat": 38.926013, "is_disabled": 0, "is_reserved": 0, "lon": -77.02158866666667, "type": "electric_scooter", "fusion_lat": 0.0, "rental_uris": {"android": "https://dc.lft.to/lastmile_qr_scan", "ios": "https://dc.lft.to/lastmile_qr_scan"}}, {"bike_id": "c68d2bb4a947aed66a83fc6969faea65", "fusion_lon": 0.0, "name": "c68d2bb4a947aed66a83fc6969faea65", "lat": 38.92421433333333, "is_disabled": 0, "is_reserved": 0, "lon": -77.02061716666667, "type": "electric_scooter", "fusion_lat": 0.0, "rental_uris": {"android": "https://dc.lft.to/lastmile_qr_scan", "ios": "https://dc.lft.to/lastmile_qr_scan"}}, {"bike_id": "3727eee9c054a68c7483ad06698e22bf", "fusion_lon": 0.0, "name": "3727eee9c054a68c7483ad06698e22bf", "lat": 38.902612833333336, "is_disabled": 0, "is_reserved": 0, "lon": -77.02814983333333, "type": "electric_scooter", "fusion_lat": 0.0, "rental_uris": {"android": "https://dc.lft.to/lastmile_qr_scan", "ios": "https://dc.lft.to/lastmile_qr_scan"}}, {"bike_id": "92ba93c5323d12806b4dd184501f63e4", "fusion_lon": 0.0, "name": "92ba93c5323d12806b4dd184501f63e4", "lat": 38.942307666666665, "is_disabled": 0, "is_reserved": 0, "lon": -77.07681066666666, "type": "electric_scooter", "fusion_lat": 0.0, "rental_uris": {"android": "https://dc.lft.to/lastmile_qr_scan", "ios": "https://dc.lft.to/lastmile_qr_scan"}}, {"bike_id": "4a5e40b1d1ace9636f0c9548f34fd935", "fusion_lon": 0.0, "name": "4a5e40b1d1ace9636f0c9548f34fd935", "lat": 38.90584533333333, "is_disabled": 0, "is_reserved": 0, "lon": -77.005831, "type": "electric_scooter", "fusion_lat": 0.0, "rental_uris": {"android": "https://dc.lft.to/lastmile_qr_scan", "ios": "https://dc.lft.to/lastmile_qr_scan"}}, {"bike_id": "7725ebca1d9876293e778b4f295d1bed", "fusion_lon": 0.0, "name": "7725ebca1d9876293e778b4f295d1bed", "lat": 38.897361833333335, "is_disabled": 0, "is_reserved": 0, "lon": -77.04530883333334, "type": "electric_scooter", "fusion_lat": 0.0, "rental_uris": {"android": "https://dc.lft.to/lastmile_qr_scan", "ios": "https://dc.lft.to/lastmile_qr_scan"}}, {"bike_id": "2039e36fd73b3906b6f0bf1109d1ecdb", "fusion_lon": 0.0, "name": "2039e36fd73b3906b6f0bf1109d1ecdb", "lat": 38.908069166666664, "is_disabled": 0, "is_reserved": 0, "lon": -77.0427715, "type": "electric_scooter", "fusion_lat": 0.0, "rental_uris": {"android": "https://dc.lft.to/lastmile_qr_scan", "ios": "https://dc.lft.to/lastmile_qr_scan"}}, {"bike_id": "b9bfebce39642edc56b8288f7fca7667", "fusion_lon": 0.0, "name": "b9bfebce39642edc56b8288f7fca7667", "lat": 38.917084, "is_disabled": 0, "is_reserved": 0, "lon": -77.02300816666667, "type": "electric_scooter", "fusion_lat": 0.0, "rental_uris": {"android": "https://dc.lft.to/lastmile_qr_scan", "ios": "https://dc.lft.to/lastmile_qr_scan"}}, {"bike_id": "7e51ab60f607b731520b06027f160247", "fusion_lon": 0.0, "name": "7e51ab60f607b731520b06027f160247", "lat": 38.846158333333335, "is_disabled": 0, "is_reserved": 0, "lon": -76.96908033333334, "type": "electric_bike", "fusion_lat": 0.0, "rental_uris": {"android": "https://dc.lft.to/lastmile_qr_scan", "ios": "https://dc.lft.to/lastmile_qr_scan"}}, {"bike_id": "368e80fe5de6694ecccbb44aa41b91f1", "fusion_lon": 0.0, "name": "368e80fe5de6694ecccbb44aa41b91f1", "lat": 38.914361166666666, "is_disabled": 0, "is_reserved": 0, "lon": -77.03928933333333, "type": "electric_scooter", "fusion_lat": 0.0, "rental_uris": {"android": "https://dc.lft.to/lastmile_qr_scan", "ios": "https://dc.lft.to/lastmile_qr_scan"}}, {"bike_id": "2a1e6dfa5416bd9080f7af22a691c15b", "fusion_lon": 0.0, "name": "2a1e6dfa5416bd9080f7af22a691c15b", "lat": 38.87495333333333, "is_disabled": 0, "is_reserved": 0, "lon": -77.21121583333333, "type": "electric_bike", "fusion_lat": 0.0, "rental_uris": {"android": "https://dc.lft.to/lastmile_qr_scan", "ios": "https://dc.lft.to/lastmile_qr_scan"}}, {"bike_id": "3e7f9090a11ed31b33876dad4867e3fe", "fusion_lon": 0.0, "name": "3e7f9090a11ed31b33876dad4867e3fe", "lat": 38.918882833333335, "is_disabled": 0, "is_reserved": 0, "lon": -77.02960483333334, "type": "electric_scooter", "fusion_lat": 0.0, "rental_uris": {"android": "https://dc.lft.to/lastmile_qr_scan", "ios": "https://dc.lft.to/lastmile_qr_scan"}}, {"bike_id": "d36a5a7bbb40fe6029877c14638f742d", "fusion_lon": 0.0, "name": "d36a5a7bbb40fe6029877c14638f742d", "lat": 38.896091166666665, "is_disabled": 0, "is_reserved": 0, "lon": -77.042738, "type": "electric_scooter", "fusion_lat": 0.0, "rental_uris": {"android": "https://dc.lft.to/lastmile_qr_scan", "ios": "https://dc.lft.to/lastmile_qr_scan"}}, {"bike_id": "ce98f03e81a0ccb9dd6ea848da22f49c", "fusion_lon": 0.0, "name": "ce98f03e81a0ccb9dd6ea848da22f49c", "lat": 38.930288833333336, "is_disabled": 0, "is_reserved": 0, "lon": -77.03796733333333, "type": "electric_scooter", "fusion_lat": 0.0, "rental_uris": {"android": "https://dc.lft.to/lastmile_qr_scan", "ios": "https://dc.lft.to/lastmile_qr_scan"}}, {"bike_id": "812510802a6488726b8b5f6cd8950913", "fusion_lon": 0.0, "name": "812510802a6488726b8b5f6cd8950913", "lat": 38.9226675, "is_disabled": 0, "is_reserved": 0, "lon": -77.01945866666667, "type": "electric_scooter", "fusion_lat": 0.0, "rental_uris": {"android": "https://dc.lft.to/lastmile_qr_scan", "ios": "https://dc.lft.to/lastmile_qr_scan"}}, {"bike_id": "25ce55f3ccb6c53d16b76563ba159810", "fusion_lon": 0.0, "name": "25ce55f3ccb6c53d16b76563ba159810", "lat": 38.9300835, "is_disabled": 0, "is_reserved": 0, "lon": -77.01256566666666, "type": "electric_scooter", "fusion_lat": 0.0, "rental_uris": {"android": "https://dc.lft.to/lastmile_qr_scan", "ios": "https://dc.lft.to/lastmile_qr_scan"}}, {"bike_id": "87d11d1dd9544910be9b6f497c6a95c6", "fusion_lon": 0.0, "name": "87d11d1dd9544910be9b6f497c6a95c6", "lat": 38.903566833333336, "is_disabled": 0, "is_reserved": 0, "lon": -76.97478416666667, "type": "electric_scooter", "fusion_lat": 0.0, "rental_uris": {"android": "https://dc.lft.to/lastmile_qr_scan", "ios": "https://dc.lft.to/lastmile_qr_scan"}}, {"bike_id": "3beb0a6b3b07e85f5f78b7a732966b0f", "fusion_lon": 0.0, "name": "3beb0a6b3b07e85f5f78b7a732966b0f", "lat": 38.899140833333334, "is_disabled": 0, "is_reserved": 0, "lon": -77.00736216666667, "type": "electric_scooter", "fusion_lat": 0.0, "rental_uris": {"android": "https://dc.lft.to/lastmile_qr_scan", "ios": "https://dc.lft.to/lastmile_qr_scan"}}, {"bike_id": "e1ce994a1c75c249e3d6bf49eaceabec", "fusion_lon": 0.0, "name": "e1ce994a1c75c249e3d6bf49eaceabec", "lat": 38.917873666666665, "is_disabled": 0, "is_reserved": 0, "lon": -77.03188816666666, "type": "electric_scooter", "fusion_lat": 0.0, "rental_uris": {"android": "https://dc.lft.to/lastmile_qr_scan", "ios": "https://dc.lft.to/lastmile_qr_scan"}}, {"bike_id": "1412e8b039bb2b3e9529c8f9953a586a", "fusion_lon": 0.0, "name": "1412e8b039bb2b3e9529c8f9953a586a", "lat": 38.89668483333333, "is_disabled": 0, "is_reserved": 0, "lon": -76.93204566666667, "type": "electric_scooter", "fusion_lat": 0.0, "rental_uris": {"android": "https://dc.lft.to/lastmile_qr_scan", "ios": "https://dc.lft.to/lastmile_qr_scan"}}, {"bike_id": "9bcffacdb78007329d516fbc6959c2a8", "fusion_lon": 0.0, "name": "9bcffacdb78007329d516fbc6959c2a8", "lat": 38.902700333333335, "is_disabled": 0, "is_reserved": 0, "lon": -77.03968366666666, "type": "electric_scooter", "fusion_lat": 0.0, "rental_uris": {"android": "https://dc.lft.to/lastmile_qr_scan", "ios": "https://dc.lft.to/lastmile_qr_scan"}}, {"bike_id": "a6a16bbf05b42aaa387eee2380866cea", "fusion_lon": 0.0, "name": "a6a16bbf05b42aaa387eee2380866cea", "lat": 38.930567833333335, "is_disabled": 0, "is_reserved": 0, "lon": -77.01862716666666, "type": "electric_scooter", "fusion_lat": 0.0, "rental_uris": {"android": "https://dc.lft.to/lastmile_qr_scan", "ios": "https://dc.lft.to/lastmile_qr_scan"}}, {"bike_id": "91e26d98c1fee4a324edddd9a31916a5", "fusion_lon": 0.0, "name": "91e26d98c1fee4a324edddd9a31916a5", "lat": 38.9014045, "is_disabled": 0, "is_reserved": 0, "lon": -77.06076783333333, "type": "electric_scooter", "fusion_lat": 0.0, "rental_uris": {"android": "https://dc.lft.to/lastmile_qr_scan", "ios": "https://dc.lft.to/lastmile_qr_scan"}}, {"bike_id": "0056e712ed4d37d46febc6a3d00bfbd3", "fusion_lon": 0.0, "name": "0056e712ed4d37d46febc6a3d00bfbd3", "lat": 38.93675366666667, "is_disabled": 0, "is_reserved": 0, "lon": -77.03590466666667, "type": "electric_scooter", "fusion_lat": 0.0, "rental_uris": {"android": "https://dc.lft.to/lastmile_qr_scan", "ios": "https://dc.lft.to/lastmile_qr_scan"}}, {"bike_id": "5018cfbf954c0a00c5181f7f972a67ab", "fusion_lon": 0.0, "name": "5018cfbf954c0a00c5181f7f972a67ab", "lat": 38.8962925, "is_disabled": 0, "is_reserved": 0, "lon": -77.040745, "type": "electric_scooter", "fusion_lat": 0.0, "rental_uris": {"android": "https://dc.lft.to/lastmile_qr_scan", "ios": "https://dc.lft.to/lastmile_qr_scan"}}, {"bike_id": "4eb21f1e710f7c20e0b8ec47cdf72a3e", "fusion_lon": 0.0, "name": "4eb21f1e710f7c20e0b8ec47cdf72a3e", "lat": 38.883079333333335, "is_disabled": 0, "is_reserved": 0, "lon": -77.01374733333333, "type": "electric_scooter", "fusion_lat": 0.0, "rental_uris": {"android": "https://dc.lft.to/lastmile_qr_scan", "ios": "https://dc.lft.to/lastmile_qr_scan"}}, {"bike_id": "bd19e7cccfe0f9c135fa3f3bdf3a503e", "fusion_lon": 0.0, "name": "bd19e7cccfe0f9c135fa3f3bdf3a503e", "lat": 38.91116366666667, "is_disabled": 0, "is_reserved": 0, "lon": -77.03305733333333, "type": "electric_scooter", "fusion_lat": 0.0, "rental_uris": {"android": "https://dc.lft.to/lastmile_qr_scan", "ios": "https://dc.lft.to/lastmile_qr_scan"}}, {"bike_id": "bb17e40076fb86b7c345f4e6b266ea9b", "fusion_lon": 0.0, "name": "bb17e40076fb86b7c345f4e6b266ea9b", "lat": 38.8984965, "is_disabled": 0, "is_reserved": 0, "lon": -77.0187775, "type": "electric_scooter", "fusion_lat": 0.0, "rental_uris": {"android": "https://dc.lft.to/lastmile_qr_scan", "ios": "https://dc.lft.to/lastmile_qr_scan"}}, {"bike_id": "a6c1cbbf8139f253b374e85c71f06ff7", "fusion_lon": 0.0, "name": "a6c1cbbf8139f253b374e85c71f06ff7", "lat": 38.8768695, "is_disabled": 0, "is_reserved": 0, "lon": -77.00741133333334, "type": "electric_scooter", "fusion_lat": 0.0, "rental_uris": {"android": "https://dc.lft.to/lastmile_qr_scan", "ios": "https://dc.lft.to/lastmile_qr_scan"}}, {"bike_id": "8055f834d5aedf872053729d7bf7ecbc", "fusion_lon": 0.0, "name": "8055f834d5aedf872053729d7bf7ecbc", "lat": 38.93513866666667, "is_disabled": 0, "is_reserved": 0, "lon": -77.05835, "type": "electric_scooter", "fusion_lat": 0.0, "rental_uris": {"android": "https://dc.lft.to/lastmile_qr_scan", "ios": "https://dc.lft.to/lastmile_qr_scan"}}, {"bike_id": "ec657bbca27bf191c5e3d455bfe6384c", "fusion_lon": 0.0, "name": "ec657bbca27bf191c5e3d455bfe6384c", "lat": 38.898419, "is_disabled": 0, "is_reserved": 0, "lon": -77.0126505, "type": "electric_scooter", "fusion_lat": 0.0, "rental_uris": {"android": "https://dc.lft.to/lastmile_qr_scan", "ios": "https://dc.lft.to/lastmile_qr_scan"}}, {"bike_id": "5b12b2bcef95c1ec54c690b296ac8b7d", "fusion_lon": 0.0, "name": "5b12b2bcef95c1ec54c690b296ac8b7d", "lat": 38.93326116666667, "is_disabled": 0, "is_reserved": 0, "lon": -77.03426616666667, "type": "electric_scooter", "fusion_lat": 0.0, "rental_uris": {"android": "https://dc.lft.to/lastmile_qr_scan", "ios": "https://dc.lft.to/lastmile_qr_scan"}}, {"bike_id": "1f17dc4c88f947e41088130bf320c0fc", "fusion_lon": 0.0, "name": "1f17dc4c88f947e41088130bf320c0fc", "lat": 38.944732333333334, "is_disabled": 0, "is_reserved": 0, "lon": -77.023535, "type": "electric_scooter", "fusion_lat": 0.0, "rental_uris": {"android": "https://dc.lft.to/lastmile_qr_scan", "ios": "https://dc.lft.to/lastmile_qr_scan"}}, {"bike_id": "831215b10a5041921ebba698c8dae401", "fusion_lon": 0.0, "name": "831215b10a5041921ebba698c8dae401", "lat": 38.9324815, "is_disabled": 0, "is_reserved": 0, "lon": -76.99583916666667, "type": "electric_scooter", "fusion_lat": 0.0, "rental_uris": {"android": "https://dc.lft.to/lastmile_qr_scan", "ios": "https://dc.lft.to/lastmile_qr_scan"}}, {"bike_id": "80b50cf05818d4048aeca36e8b60500a", "fusion_lon": 0.0, "name": "80b50cf05818d4048aeca36e8b60500a", "lat": 38.9169445, "is_disabled": 0, "is_reserved": 0, "lon": -77.02596183333333, "type": "electric_scooter", "fusion_lat": 0.0, "rental_uris": {"android": "https://dc.lft.to/lastmile_qr_scan", "ios": "https://dc.lft.to/lastmile_qr_scan"}}, {"bike_id": "67c24357ded1dfe2219ab10b27a6f1d1", "fusion_lon": 0.0, "name": "67c24357ded1dfe2219ab10b27a6f1d1", "lat": 38.8922365, "is_disabled": 0, "is_reserved": 0, "lon": -77.022189, "type": "electric_scooter", "fusion_lat": 0.0, "rental_uris": {"android": "https://dc.lft.to/lastmile_qr_scan", "ios": "https://dc.lft.to/lastmile_qr_scan"}}, {"bike_id": "24a279875d1a1756dbfb0f0f7e8478f1", "fusion_lon": 0.0, "name": "24a279875d1a1756dbfb0f0f7e8478f1", "lat": 38.92863833333333, "is_disabled": 0, "is_reserved": 0, "lon": -77.0327605, "type": "electric_scooter", "fusion_lat": 0.0, "rental_uris": {"android": "https://dc.lft.to/lastmile_qr_scan", "ios": "https://dc.lft.to/lastmile_qr_scan"}}, {"bike_id": "09809c4b9cad38e9c046c10fb6dd3d98", "fusion_lon": 0.0, "name": "09809c4b9cad38e9c046c10fb6dd3d98", "lat": 38.948254666666664, "is_disabled": 0, "is_reserved": 0, "lon": -77.0294015, "type": "electric_bike", "fusion_lat": 0.0, "rental_uris": {"android": "https://dc.lft.to/lastmile_qr_scan", "ios": "https://dc.lft.to/lastmile_qr_scan"}}, {"bike_id": "ca79e93d0e5dc7851cde475827fdce9c", "fusion_lon": 0.0, "name": "ca79e93d0e5dc7851cde475827fdce9c", "lat": 38.9233435, "is_disabled": 0, "is_reserved": 0, "lon": -77.0195905, "type": "electric_scooter", "fusion_lat": 0.0, "rental_uris": {"android": "https://dc.lft.to/lastmile_qr_scan", "ios": "https://dc.lft.to/lastmile_qr_scan"}}, {"bike_id": "6662eb9689f48e0328c4fe68d83c50e2", "fusion_lon": 0.0, "name": "6662eb9689f48e0328c4fe68d83c50e2", "lat": 39.0108045, "is_disabled": 0, "is_reserved": 0, "lon": -76.91065166666667, "type": "electric_bike", "fusion_lat": 0.0, "rental_uris": {"android": "https://dc.lft.to/lastmile_qr_scan", "ios": "https://dc.lft.to/lastmile_qr_scan"}}, {"bike_id": "5ab43d94b372223d3a48a717fde6b72b", "fusion_lon": 0.0, "name": "5ab43d94b372223d3a48a717fde6b72b", "lat": 38.909737, "is_disabled": 0, "is_reserved": 0, "lon": -77.033112, "type": "electric_scooter", "fusion_lat": 0.0, "rental_uris": {"android": "https://dc.lft.to/lastmile_qr_scan", "ios": "https://dc.lft.to/lastmile_qr_scan"}}, {"bike_id": "430d9343e5a3665257f7a95837682be9", "fusion_lon": 0.0, "name": "430d9343e5a3665257f7a95837682be9", "lat": 38.91720183333334, "is_disabled": 0, "is_reserved": 0, "lon": -77.03662966666667, "type": "electric_scooter", "fusion_lat": 0.0, "rental_uris": {"android": "https://dc.lft.to/lastmile_qr_scan", "ios": "https://dc.lft.to/lastmile_qr_scan"}}, {"bike_id": "ac96d87b588bce310887dfb22edd7886", "fusion_lon": 0.0, "name": "ac96d87b588bce310887dfb22edd7886", "lat": 38.91533966666667, "is_disabled": 0, "is_reserved": 0, "lon": -77.03184966666667, "type": "electric_scooter", "fusion_lat": 0.0, "rental_uris": {"android": "https://dc.lft.to/lastmile_qr_scan", "ios": "https://dc.lft.to/lastmile_qr_scan"}}, {"bike_id": "eb0f065a73a2e292fa1d501b6093f629", "fusion_lon": 0.0, "name": "eb0f065a73a2e292fa1d501b6093f629", "lat": 38.907309, "is_disabled": 0, "is_reserved": 0, "lon": -76.99770866666667, "type": "electric_scooter", "fusion_lat": 0.0, "rental_uris": {"android": "https://dc.lft.to/lastmile_qr_scan", "ios": "https://dc.lft.to/lastmile_qr_scan"}}, {"bike_id": "8a57c213f4385a8cd8d206a51d9c814a", "fusion_lon": 0.0, "name": "8a57c213f4385a8cd8d206a51d9c814a", "lat": 38.915659166666664, "is_disabled": 0, "is_reserved": 0, "lon": -77.02127133333333, "type": "electric_scooter", "fusion_lat": 0.0, "rental_uris": {"android": "https://dc.lft.to/lastmile_qr_scan", "ios": "https://dc.lft.to/lastmile_qr_scan"}}, {"bike_id": "92412de0edd8146ac48a16636ac9b8c1", "fusion_lon": 0.0, "name": "92412de0edd8146ac48a16636ac9b8c1", "lat": 38.97888833333333, "is_disabled": 0, "is_reserved": 0, "lon": -77.060283, "type": "electric_bike", "fusion_lat": 0.0, "rental_uris": {"android": "https://dc.lft.to/lastmile_qr_scan", "ios": "https://dc.lft.to/lastmile_qr_scan"}}, {"bike_id": "7355d53d12e5e85f749963d0b567b765", "fusion_lon": 0.0, "name": "7355d53d12e5e85f749963d0b567b765", "lat": 38.935818833333336, "is_disabled": 0, "is_reserved": 0, "lon": -76.99919683333333, "type": "electric_bike", "fusion_lat": 0.0, "rental_uris": {"android": "https://dc.lft.to/lastmile_qr_scan", "ios": "https://dc.lft.to/lastmile_qr_scan"}}, {"bike_id": "dd43af4cc9ddbad6dc994799c123d9ac", "fusion_lon": 0.0, "name": "dd43af4cc9ddbad6dc994799c123d9ac", "lat": 38.91493633333333, "is_disabled": 0, "is_reserved": 0, "lon": -77.03726816666666, "type": "electric_scooter", "fusion_lat": 0.0, "rental_uris": {"android": "https://dc.lft.to/lastmile_qr_scan", "ios": "https://dc.lft.to/lastmile_qr_scan"}}, {"bike_id": "a04d038a868604a64f92e9fa1a17c6b7", "fusion_lon": 0.0, "name": "a04d038a868604a64f92e9fa1a17c6b7", "lat": 38.89227366666667, "is_disabled": 0, "is_reserved": 0, "lon": -77.04181033333333, "type": "electric_scooter", "fusion_lat": 0.0, "rental_uris": {"android": "https://dc.lft.to/lastmile_qr_scan", "ios": "https://dc.lft.to/lastmile_qr_scan"}}, {"bike_id": "e6ec4cb6c0065663fa5a0cf82c9d15ee", "fusion_lon": 0.0, "name": "e6ec4cb6c0065663fa5a0cf82c9d15ee", "lat": 38.892233166666664, "is_disabled": 0, "is_reserved": 0, "lon": -77.04771116666667, "type": "electric_scooter", "fusion_lat": 0.0, "rental_uris": {"android": "https://dc.lft.to/lastmile_qr_scan", "ios": "https://dc.lft.to/lastmile_qr_scan"}}, {"bike_id": "e24899dd39d2f337994d9de2e4058078", "fusion_lon": 0.0, "name": "e24899dd39d2f337994d9de2e4058078", "lat": 38.9051865, "is_disabled": 0, "is_reserved": 0, "lon": -77.0490695, "type": "electric_scooter", "fusion_lat": 0.0, "rental_uris": {"android": "https://dc.lft.to/lastmile_qr_scan", "ios": "https://dc.lft.to/lastmile_qr_scan"}}, {"bike_id": "83709b355c4c0bd5eb6b266efdb8720a", "fusion_lon": 0.0, "name": "83709b355c4c0bd5eb6b266efdb8720a", "lat": 38.89745766666667, "is_disabled": 0, "is_reserved": 0, "lon": -77.046375, "type": "electric_scooter", "fusion_lat": 0.0, "rental_uris": {"android": "https://dc.lft.to/lastmile_qr_scan", "ios": "https://dc.lft.to/lastmile_qr_scan"}}, {"bike_id": "4bb2cfe36c17277c642881e2de93444f", "fusion_lon": 0.0, "name": "4bb2cfe36c17277c642881e2de93444f", "lat": 38.922822333333336, "is_disabled": 0, "is_reserved": 0, "lon": -77.01944166666667, "type": "electric_scooter", "fusion_lat": 0.0, "rental_uris": {"android": "https://dc.lft.to/lastmile_qr_scan", "ios": "https://dc.lft.to/lastmile_qr_scan"}}, {"bike_id": "4ffc93f21f1f2c18fa6f4164ce33faf7", "fusion_lon": 0.0, "name": "4ffc93f21f1f2c18fa6f4164ce33faf7", "lat": 38.925312166666664, "is_disabled": 0, "is_reserved": 0, "lon": -77.02280933333333, "type": "electric_scooter", "fusion_lat": 0.0, "rental_uris": {"android": "https://dc.lft.to/lastmile_qr_scan", "ios": "https://dc.lft.to/lastmile_qr_scan"}}, {"bike_id": "749711e1478563877df9dac350a5c46e", "fusion_lon": 0.0, "name": "749711e1478563877df9dac350a5c46e", "lat": 38.9260265, "is_disabled": 0, "is_reserved": 0, "lon": -77.02382766666666, "type": "electric_scooter", "fusion_lat": 0.0, "rental_uris": {"android": "https://dc.lft.to/lastmile_qr_scan", "ios": "https://dc.lft.to/lastmile_qr_scan"}}, {"bike_id": "20151ab60f5bbe9b28d568a2f28ee223", "fusion_lon": 0.0, "name": "20151ab60f5bbe9b28d568a2f28ee223", "lat": 38.83940783333333, "is_disabled": 0, "is_reserved": 0, "lon": -77.07902466666667, "type": "electric_bike", "fusion_lat": 0.0, "rental_uris": {"android": "https://dc.lft.to/lastmile_qr_scan", "ios": "https://dc.lft.to/lastmile_qr_scan"}}, {"bike_id": "6d350323aa9ce3f9c7aa997e0462f9c4", "fusion_lon": 0.0, "name": "6d350323aa9ce3f9c7aa997e0462f9c4", "lat": 38.920313166666666, "is_disabled": 0, "is_reserved": 0, "lon": -77.031359, "type": "electric_scooter", "fusion_lat": 0.0, "rental_uris": {"android": "https://dc.lft.to/lastmile_qr_scan", "ios": "https://dc.lft.to/lastmile_qr_scan"}}, {"bike_id": "618ffd0c438e7d78a4bb1d47499ecc27", "fusion_lon": 0.0, "name": "618ffd0c438e7d78a4bb1d47499ecc27", "lat": 38.887431, "is_disabled": 0, "is_reserved": 0, "lon": -77.02579666666666, "type": "electric_scooter", "fusion_lat": 0.0, "rental_uris": {"android": "https://dc.lft.to/lastmile_qr_scan", "ios": "https://dc.lft.to/lastmile_qr_scan"}}, {"bike_id": "a154284ab7479f32aaaf512947ae0dd0", "fusion_lon": 0.0, "name": "a154284ab7479f32aaaf512947ae0dd0", "lat": 38.886094, "is_disabled": 0, "is_reserved": 0, "lon": -77.0320995, "type": "electric_scooter", "fusion_lat": 0.0, "rental_uris": {"android": "https://dc.lft.to/lastmile_qr_scan", "ios": "https://dc.lft.to/lastmile_qr_scan"}}, {"bike_id": "70002589e42730013c8e8823d83b7d2a", "fusion_lon": 0.0, "name": "70002589e42730013c8e8823d83b7d2a", "lat": 38.8981475, "is_disabled": 0, "is_reserved": 0, "lon": -77.03321116666666, "type": "electric_scooter", "fusion_lat": 0.0, "rental_uris": {"android": "https://dc.lft.to/lastmile_qr_scan", "ios": "https://dc.lft.to/lastmile_qr_scan"}}, {"bike_id": "826772b522a793f0f69d769ab852e969", "fusion_lon": 0.0, "name": "826772b522a793f0f69d769ab852e969", "lat": 38.92118133333334, "is_disabled": 0, "is_reserved": 0, "lon": -77.009171, "type": "electric_scooter", "fusion_lat": 0.0, "rental_uris": {"android": "https://dc.lft.to/lastmile_qr_scan", "ios": "https://dc.lft.to/lastmile_qr_scan"}}, {"bike_id": "73779707274031f2ac4ae8296099bc2b", "fusion_lon": 0.0, "name": "73779707274031f2ac4ae8296099bc2b", "lat": 38.880615166666665, "is_disabled": 0, "is_reserved": 0, "lon": -76.93214133333333, "type": "electric_scooter", "fusion_lat": 0.0, "rental_uris": {"android": "https://dc.lft.to/lastmile_qr_scan", "ios": "https://dc.lft.to/lastmile_qr_scan"}}, {"bike_id": "85bf95254518be8642f839fc2f98fd00", "fusion_lon": 0.0, "name": "85bf95254518be8642f839fc2f98fd00", "lat": 38.9105795, "is_disabled": 0, "is_reserved": 0, "lon": -77.04344916666666, "type": "electric_scooter", "fusion_lat": 0.0, "rental_uris": {"android": "https://dc.lft.to/lastmile_qr_scan", "ios": "https://dc.lft.to/lastmile_qr_scan"}}, {"bike_id": "bca680e8de23d71005967c19e50c4fd8", "fusion_lon": 0.0, "name": "bca680e8de23d71005967c19e50c4fd8", "lat": 38.9023745, "is_disabled": 0, "is_reserved": 0, "lon": -77.05334916666666, "type": "electric_scooter", "fusion_lat": 0.0, "rental_uris": {"android": "https://dc.lft.to/lastmile_qr_scan", "ios": "https://dc.lft.to/lastmile_qr_scan"}}, {"bike_id": "bf798a2239a6f726356ed4b6ce4fa2b9", "fusion_lon": 0.0, "name": "bf798a2239a6f726356ed4b6ce4fa2b9", "lat": 38.9375495, "is_disabled": 0, "is_reserved": 0, "lon": -77.029523, "type": "electric_scooter", "fusion_lat": 0.0, "rental_uris": {"android": "https://dc.lft.to/lastmile_qr_scan", "ios": "https://dc.lft.to/lastmile_qr_scan"}}, {"bike_id": "56f88033ef956657e715ef691eaaac32", "fusion_lon": 0.0, "name": "56f88033ef956657e715ef691eaaac32", "lat": 38.901563833333334, "is_disabled": 0, "is_reserved": 0, "lon": -76.990193, "type": "electric_scooter", "fusion_lat": 0.0, "rental_uris": {"android": "https://dc.lft.to/lastmile_qr_scan", "ios": "https://dc.lft.to/lastmile_qr_scan"}}, {"bike_id": "957a3e78af0c5627ed52171360ba7e0c", "fusion_lon": 0.0, "name": "957a3e78af0c5627ed52171360ba7e0c", "lat": 38.923446, "is_disabled": 0, "is_reserved": 0, "lon": -77.05235383333333, "type": "electric_scooter", "fusion_lat": 0.0, "rental_uris": {"android": "https://dc.lft.to/lastmile_qr_scan", "ios": "https://dc.lft.to/lastmile_qr_scan"}}, {"bike_id": "9c7d2cb657e006e2b846fc7c0fdd04ae", "fusion_lon": 0.0, "name": "9c7d2cb657e006e2b846fc7c0fdd04ae", "lat": 38.898348666666664, "is_disabled": 0, "is_reserved": 0, "lon": -77.00744283333333, "type": "electric_scooter", "fusion_lat": 0.0, "rental_uris": {"android": "https://dc.lft.to/lastmile_qr_scan", "ios": "https://dc.lft.to/lastmile_qr_scan"}}, {"bike_id": "f951ebb2bdefb595e6fa1b630676351b", "fusion_lon": 0.0, "name": "f951ebb2bdefb595e6fa1b630676351b", "lat": 38.91784283333333, "is_disabled": 0, "is_reserved": 0, "lon": -77.023061, "type": "electric_scooter", "fusion_lat": 0.0, "rental_uris": {"android": "https://dc.lft.to/lastmile_qr_scan", "ios": "https://dc.lft.to/lastmile_qr_scan"}}, {"bike_id": "485be2bda8468fbce0aa3c097928e53c", "fusion_lon": 0.0, "name": "485be2bda8468fbce0aa3c097928e53c", "lat": 38.924229, "is_disabled": 0, "is_reserved": 0, "lon": -77.0194605, "type": "electric_scooter", "fusion_lat": 0.0, "rental_uris": {"android": "https://dc.lft.to/lastmile_qr_scan", "ios": "https://dc.lft.to/lastmile_qr_scan"}}, {"bike_id": "a7574473ba1c0a77a317d0779db739f7", "fusion_lon": 0.0, "name": "a7574473ba1c0a77a317d0779db739f7", "lat": 38.88522966666667, "is_disabled": 0, "is_reserved": 0, "lon": -76.97705783333333, "type": "electric_scooter", "fusion_lat": 0.0, "rental_uris": {"android": "https://dc.lft.to/lastmile_qr_scan", "ios": "https://dc.lft.to/lastmile_qr_scan"}}, {"bike_id": "e81ba3aab919aada74d0a9f08d0282d5", "fusion_lon": 0.0, "name": "e81ba3aab919aada74d0a9f08d0282d5", "lat": 38.934277, "is_disabled": 0, "is_reserved": 0, "lon": -77.04408283333333, "type": "electric_scooter", "fusion_lat": 0.0, "rental_uris": {"android": "https://dc.lft.to/lastmile_qr_scan", "ios": "https://dc.lft.to/lastmile_qr_scan"}}, {"bike_id": "5e27dda90d1d90dde95eb242518fec88", "fusion_lon": 0.0, "name": "5e27dda90d1d90dde95eb242518fec88", "lat": 38.890146, "is_disabled": 0, "is_reserved": 0, "lon": -76.93747, "type": "electric_scooter", "fusion_lat": 0.0, "rental_uris": {"android": "https://dc.lft.to/lastmile_qr_scan", "ios": "https://dc.lft.to/lastmile_qr_scan"}}, {"bike_id": "d273980a1dd34f273b21f448a8987810", "fusion_lon": 0.0, "name": "d273980a1dd34f273b21f448a8987810", "lat": 38.89673583333333, "is_disabled": 0, "is_reserved": 0, "lon": -77.0546265, "type": "electric_scooter", "fusion_lat": 0.0, "rental_uris": {"android": "https://dc.lft.to/lastmile_qr_scan", "ios": "https://dc.lft.to/lastmile_qr_scan"}}, {"bike_id": "3f5f4c5ef4eed00241d44253c5852b03", "fusion_lon": 0.0, "name": "3f5f4c5ef4eed00241d44253c5852b03", "lat": 38.907918333333335, "is_disabled": 0, "is_reserved": 0, "lon": -76.99416716666667, "type": "electric_scooter", "fusion_lat": 0.0, "rental_uris": {"android": "https://dc.lft.to/lastmile_qr_scan", "ios": "https://dc.lft.to/lastmile_qr_scan"}}, {"bike_id": "c0bd2df719c88b4c5a64703c9aac6f0b", "fusion_lon": 0.0, "name": "c0bd2df719c88b4c5a64703c9aac6f0b", "lat": 38.91622566666667, "is_disabled": 0, "is_reserved": 0, "lon": -77.02163283333333, "type": "electric_scooter", "fusion_lat": 0.0, "rental_uris": {"android": "https://dc.lft.to/lastmile_qr_scan", "ios": "https://dc.lft.to/lastmile_qr_scan"}}, {"bike_id": "24ba41992bd7c44bbfaf3f6dd73694a4", "fusion_lon": 0.0, "name": "24ba41992bd7c44bbfaf3f6dd73694a4", "lat": 38.90965416666667, "is_disabled": 0, "is_reserved": 0, "lon": -77.22889766666667, "type": "electric_bike", "fusion_lat": 0.0, "rental_uris": {"android": "https://dc.lft.to/lastmile_qr_scan", "ios": "https://dc.lft.to/lastmile_qr_scan"}}, {"bike_id": "f7183d5de65dcef3fc26f35d1396fabc", "fusion_lon": 0.0, "name": "f7183d5de65dcef3fc26f35d1396fabc", "lat": 38.92259383333333, "is_disabled": 0, "is_reserved": 0, "lon": -77.042508, "type": "electric_scooter", "fusion_lat": 0.0, "rental_uris": {"android": "https://dc.lft.to/lastmile_qr_scan", "ios": "https://dc.lft.to/lastmile_qr_scan"}}, {"bike_id": "24d781b79c8f9b34475abdb3b9a33e39", "fusion_lon": 0.0, "name": "24d781b79c8f9b34475abdb3b9a33e39", "lat": 38.9042275, "is_disabled": 0, "is_reserved": 0, "lon": -76.99284166666666, "type": "electric_scooter", "fusion_lat": 0.0, "rental_uris": {"android": "https://dc.lft.to/lastmile_qr_scan", "ios": "https://dc.lft.to/lastmile_qr_scan"}}, {"bike_id": "8f08c427fdfe8ed220f7314edaff2f23", "fusion_lon": 0.0, "name": "8f08c427fdfe8ed220f7314edaff2f23", "lat": 38.903365, "is_disabled": 0, "is_reserved": 0, "lon": -76.97530483333334, "type": "electric_bike", "fusion_lat": 0.0, "rental_uris": {"android": "https://dc.lft.to/lastmile_qr_scan", "ios": "https://dc.lft.to/lastmile_qr_scan"}}, {"bike_id": "47574cbfed2e7e500dfa2d8fac748f1a", "fusion_lon": 0.0, "name": "47574cbfed2e7e500dfa2d8fac748f1a", "lat": 38.918172, "is_disabled": 0, "is_reserved": 0, "lon": -77.02475283333334, "type": "electric_scooter", "fusion_lat": 0.0, "rental_uris": {"android": "https://dc.lft.to/lastmile_qr_scan", "ios": "https://dc.lft.to/lastmile_qr_scan"}}, {"bike_id": "545cb808507494ceb4ac1152191b214b", "fusion_lon": 0.0, "name": "545cb808507494ceb4ac1152191b214b", "lat": 38.81593016666667, "is_disabled": 0, "is_reserved": 0, "lon": -77.05054966666667, "type": "electric_bike", "fusion_lat": 0.0, "rental_uris": {"android": "https://dc.lft.to/lastmile_qr_scan", "ios": "https://dc.lft.to/lastmile_qr_scan"}}, {"bike_id": "f246049cb500c8611b06a35bff8269bf", "fusion_lon": 0.0, "name": "f246049cb500c8611b06a35bff8269bf", "lat": 38.89885183333333, "is_disabled": 0, "is_reserved": 0, "lon": -77.052843, "type": "electric_scooter", "fusion_lat": 0.0, "rental_uris": {"android": "https://dc.lft.to/lastmile_qr_scan", "ios": "https://dc.lft.to/lastmile_qr_scan"}}, {"bike_id": "0607c4cb27756c86bc1d215eda05eaf9", "fusion_lon": 0.0, "name": "0607c4cb27756c86bc1d215eda05eaf9", "lat": 38.9204135, "is_disabled": 0, "is_reserved": 0, "lon": -77.01814933333333, "type": "electric_scooter", "fusion_lat": 0.0, "rental_uris": {"android": "https://dc.lft.to/lastmile_qr_scan", "ios": "https://dc.lft.to/lastmile_qr_scan"}}, {"bike_id": "937573b347bcfb208a5eba31b7540378", "fusion_lon": 0.0, "name": "937573b347bcfb208a5eba31b7540378", "lat": 38.941939, "is_disabled": 0, "is_reserved": 0, "lon": -77.0383255, "type": "electric_scooter", "fusion_lat": 0.0, "rental_uris": {"android": "https://dc.lft.to/lastmile_qr_scan", "ios": "https://dc.lft.to/lastmile_qr_scan"}}, {"bike_id": "529c0e3129fe182c3a7cc8f790ab0767", "fusion_lon": 0.0, "name": "529c0e3129fe182c3a7cc8f790ab0767", "lat": 38.90025933333333, "is_disabled": 0, "is_reserved": 0, "lon": -77.03711333333334, "type": "electric_scooter", "fusion_lat": 0.0, "rental_uris": {"android": "https://dc.lft.to/lastmile_qr_scan", "ios": "https://dc.lft.to/lastmile_qr_scan"}}, {"bike_id": "4d96386fcdcfa141f2b0d88d56100d94", "fusion_lon": 0.0, "name": "4d96386fcdcfa141f2b0d88d56100d94", "lat": 38.89546133333333, "is_disabled": 0, "is_reserved": 0, "lon": -76.98209516666667, "type": "electric_scooter", "fusion_lat": 0.0, "rental_uris": {"android": "https://dc.lft.to/lastmile_qr_scan", "ios": "https://dc.lft.to/lastmile_qr_scan"}}, {"bike_id": "eab34df89511048b62fc7432832b38f7", "fusion_lon": 0.0, "name": "eab34df89511048b62fc7432832b38f7", "lat": 38.89716166666667, "is_disabled": 0, "is_reserved": 0, "lon": -77.00844033333334, "type": "electric_scooter", "fusion_lat": 0.0, "rental_uris": {"android": "https://dc.lft.to/lastmile_qr_scan", "ios": "https://dc.lft.to/lastmile_qr_scan"}}, {"bike_id": "e27752e94ec888e3c08e1ebbdc7c1fc0", "fusion_lon": 0.0, "name": "e27752e94ec888e3c08e1ebbdc7c1fc0", "lat": 38.896192166666665, "is_disabled": 0, "is_reserved": 0, "lon": -77.0213865, "type": "electric_scooter", "fusion_lat": 0.0, "rental_uris": {"android": "https://dc.lft.to/lastmile_qr_scan", "ios": "https://dc.lft.to/lastmile_qr_scan"}}, {"bike_id": "14608ec540122c2e84010533c9b40ccf", "fusion_lon": 0.0, "name": "14608ec540122c2e84010533c9b40ccf", "lat": 38.92714, "is_disabled": 0, "is_reserved": 0, "lon": -77.020867, "type": "electric_scooter", "fusion_lat": 0.0, "rental_uris": {"android": "https://dc.lft.to/lastmile_qr_scan", "ios": "https://dc.lft.to/lastmile_qr_scan"}}, {"bike_id": "2d3f212c60e930821cae8c0f529954f8", "fusion_lon": 0.0, "name": "2d3f212c60e930821cae8c0f529954f8", "lat": 38.90898983333334, "is_disabled": 0, "is_reserved": 0, "lon": -77.04352366666667, "type": "electric_scooter", "fusion_lat": 0.0, "rental_uris": {"android": "https://dc.lft.to/lastmile_qr_scan", "ios": "https://dc.lft.to/lastmile_qr_scan"}}, {"bike_id": "89dedcfd6d17190da6d535b42d1d6c2c", "fusion_lon": 0.0, "name": "89dedcfd6d17190da6d535b42d1d6c2c", "lat": 38.91821483333333, "is_disabled": 0, "is_reserved": 0, "lon": -77.01209466666667, "type": "electric_scooter", "fusion_lat": 0.0, "rental_uris": {"android": "https://dc.lft.to/lastmile_qr_scan", "ios": "https://dc.lft.to/lastmile_qr_scan"}}, {"bike_id": "47ab9e7038e8bacacd34fca73f3d830f", "fusion_lon": 0.0, "name": "47ab9e7038e8bacacd34fca73f3d830f", "lat": 38.902627833333334, "is_disabled": 0, "is_reserved": 0, "lon": -77.00882333333334, "type": "electric_scooter", "fusion_lat": 0.0, "rental_uris": {"android": "https://dc.lft.to/lastmile_qr_scan", "ios": "https://dc.lft.to/lastmile_qr_scan"}}, {"bike_id": "5de0246c1b625eb3cf03b0891a842d3c", "fusion_lon": 0.0, "name": "5de0246c1b625eb3cf03b0891a842d3c", "lat": 38.9432805, "is_disabled": 0, "is_reserved": 0, "lon": -77.01315066666666, "type": "electric_scooter", "fusion_lat": 0.0, "rental_uris": {"android": "https://dc.lft.to/lastmile_qr_scan", "ios": "https://dc.lft.to/lastmile_qr_scan"}}, {"bike_id": "01a8e95226468909421711178f95122d", "fusion_lon": 0.0, "name": "01a8e95226468909421711178f95122d", "lat": 38.936860833333334, "is_disabled": 0, "is_reserved": 0, "lon": -77.03627933333334, "type": "electric_scooter", "fusion_lat": 0.0, "rental_uris": {"android": "https://dc.lft.to/lastmile_qr_scan", "ios": "https://dc.lft.to/lastmile_qr_scan"}}, {"bike_id": "74421958376d87b226499b4cb4450115", "fusion_lon": 0.0, "name": "74421958376d87b226499b4cb4450115", "lat": 38.912928, "is_disabled": 0, "is_reserved": 0, "lon": -77.048594, "type": "electric_scooter", "fusion_lat": 0.0, "rental_uris": {"android": "https://dc.lft.to/lastmile_qr_scan", "ios": "https://dc.lft.to/lastmile_qr_scan"}}, {"bike_id": "8bf1e4471cd8817525e3a4d027accddf", "fusion_lon": 0.0, "name": "8bf1e4471cd8817525e3a4d027accddf", "lat": 38.89300216666667, "is_disabled": 0, "is_reserved": 0, "lon": -76.975227, "type": "electric_scooter", "fusion_lat": 0.0, "rental_uris": {"android": "https://dc.lft.to/lastmile_qr_scan", "ios": "https://dc.lft.to/lastmile_qr_scan"}}, {"bike_id": "dd3dfb59cb02394cb913fd7ab9b43ecc", "fusion_lon": 0.0, "name": "dd3dfb59cb02394cb913fd7ab9b43ecc", "lat": 38.904845333333334, "is_disabled": 0, "is_reserved": 0, "lon": -77.04488183333333, "type": "electric_scooter", "fusion_lat": 0.0, "rental_uris": {"android": "https://dc.lft.to/lastmile_qr_scan", "ios": "https://dc.lft.to/lastmile_qr_scan"}}, {"bike_id": "e124d2ad0130b92b70ad82e390b736aa", "fusion_lon": 0.0, "name": "e124d2ad0130b92b70ad82e390b736aa", "lat": 38.90169383333333, "is_disabled": 0, "is_reserved": 0, "lon": -77.01319866666667, "type": "electric_scooter", "fusion_lat": 0.0, "rental_uris": {"android": "https://dc.lft.to/lastmile_qr_scan", "ios": "https://dc.lft.to/lastmile_qr_scan"}}, {"bike_id": "45872072d04a2432f31fd8a0c72c36f2", "fusion_lon": 0.0, "name": "45872072d04a2432f31fd8a0c72c36f2", "lat": 38.920779333333336, "is_disabled": 0, "is_reserved": 0, "lon": -77.040897, "type": "electric_scooter", "fusion_lat": 0.0, "rental_uris": {"android": "https://dc.lft.to/lastmile_qr_scan", "ios": "https://dc.lft.to/lastmile_qr_scan"}}, {"bike_id": "88f87e3900a919bcbbfd0c1395a27aae", "fusion_lon": 0.0, "name": "88f87e3900a919bcbbfd0c1395a27aae", "lat": 38.908309833333334, "is_disabled": 0, "is_reserved": 0, "lon": -76.9826335, "type": "electric_scooter", "fusion_lat": 0.0, "rental_uris": {"android": "https://dc.lft.to/lastmile_qr_scan", "ios": "https://dc.lft.to/lastmile_qr_scan"}}, {"bike_id": "e486b0817ed3084dabf2f1a6e5c2e425", "fusion_lon": 0.0, "name": "e486b0817ed3084dabf2f1a6e5c2e425", "lat": 38.89288766666667, "is_disabled": 0, "is_reserved": 0, "lon": -76.9830725, "type": "electric_scooter", "fusion_lat": 0.0, "rental_uris": {"android": "https://dc.lft.to/lastmile_qr_scan", "ios": "https://dc.lft.to/lastmile_qr_scan"}}, {"bike_id": "e4254cb4dcdd23c32b5a749d546f6d6d", "fusion_lon": 0.0, "name": "e4254cb4dcdd23c32b5a749d546f6d6d", "lat": 38.89231366666667, "is_disabled": 0, "is_reserved": 0, "lon": -77.028228, "type": "electric_scooter", "fusion_lat": 0.0, "rental_uris": {"android": "https://dc.lft.to/lastmile_qr_scan", "ios": "https://dc.lft.to/lastmile_qr_scan"}}, {"bike_id": "e40a21f5f7672ed03e943eb9b4255f68", "fusion_lon": 0.0, "name": "e40a21f5f7672ed03e943eb9b4255f68", "lat": 38.86172283333333, "is_disabled": 0, "is_reserved": 0, "lon": -76.98368616666667, "type": "electric_scooter", "fusion_lat": 0.0, "rental_uris": {"android": "https://dc.lft.to/lastmile_qr_scan", "ios": "https://dc.lft.to/lastmile_qr_scan"}}, {"bike_id": "c113db414f5d3840dcb6c5685bc0c1f0", "fusion_lon": 0.0, "name": "c113db414f5d3840dcb6c5685bc0c1f0", "lat": 38.90729, "is_disabled": 0, "is_reserved": 0, "lon": -77.02557216666666, "type": "electric_scooter", "fusion_lat": 0.0, "rental_uris": {"android": "https://dc.lft.to/lastmile_qr_scan", "ios": "https://dc.lft.to/lastmile_qr_scan"}}, {"bike_id": "471ad0417adc0ea228189b323300f5bf", "fusion_lon": 0.0, "name": "471ad0417adc0ea228189b323300f5bf", "lat": 38.900294333333335, "is_disabled": 0, "is_reserved": 0, "lon": -77.01175866666667, "type": "electric_scooter", "fusion_lat": 0.0, "rental_uris": {"android": "https://dc.lft.to/lastmile_qr_scan", "ios": "https://dc.lft.to/lastmile_qr_scan"}}, {"bike_id": "ad7e80e268e8d071c49b4a5d22b2d305", "fusion_lon": 0.0, "name": "ad7e80e268e8d071c49b4a5d22b2d305", "lat": 38.90248066666667, "is_disabled": 0, "is_reserved": 0, "lon": -77.01925283333334, "type": "electric_scooter", "fusion_lat": 0.0, "rental_uris": {"android": "https://dc.lft.to/lastmile_qr_scan", "ios": "https://dc.lft.to/lastmile_qr_scan"}}, {"bike_id": "171014118e3c26f8149c4c1d02eda2e5", "fusion_lon": 0.0, "name": "171014118e3c26f8149c4c1d02eda2e5", "lat": 38.896193333333336, "is_disabled": 0, "is_reserved": 0, "lon": -76.90741033333333, "type": "electric_bike", "fusion_lat": 0.0, "rental_uris": {"android": "https://dc.lft.to/lastmile_qr_scan", "ios": "https://dc.lft.to/lastmile_qr_scan"}}, {"bike_id": "a8901ae8a34c98a8e936bd0d053e11a4", "fusion_lon": 0.0, "name": "a8901ae8a34c98a8e936bd0d053e11a4", "lat": 38.89849566666667, "is_disabled": 0, "is_reserved": 0, "lon": -77.04158, "type": "electric_scooter", "fusion_lat": 0.0, "rental_uris": {"android": "https://dc.lft.to/lastmile_qr_scan", "ios": "https://dc.lft.to/lastmile_qr_scan"}}, {"bike_id": "3a8b7083e23903d698e78b53c84b56c7", "fusion_lon": 0.0, "name": "3a8b7083e23903d698e78b53c84b56c7", "lat": 38.924175166666664, "is_disabled": 0, "is_reserved": 0, "lon": -77.044549, "type": "electric_scooter", "fusion_lat": 0.0, "rental_uris": {"android": "https://dc.lft.to/lastmile_qr_scan", "ios": "https://dc.lft.to/lastmile_qr_scan"}}, {"bike_id": "ccf3a47255ea96fb2ea697771954af20", "fusion_lon": 0.0, "name": "ccf3a47255ea96fb2ea697771954af20", "lat": 38.92055783333333, "is_disabled": 0, "is_reserved": 0, "lon": -77.04182183333333, "type": "electric_scooter", "fusion_lat": 0.0, "rental_uris": {"android": "https://dc.lft.to/lastmile_qr_scan", "ios": "https://dc.lft.to/lastmile_qr_scan"}}, {"bike_id": "d6d549b76eee6d0f2e08f255801f7250", "fusion_lon": 0.0, "name": "d6d549b76eee6d0f2e08f255801f7250", "lat": 38.932376166666664, "is_disabled": 0, "is_reserved": 0, "lon": -77.0341665, "type": "electric_scooter", "fusion_lat": 0.0, "rental_uris": {"android": "https://dc.lft.to/lastmile_qr_scan", "ios": "https://dc.lft.to/lastmile_qr_scan"}}, {"bike_id": "d238cb931751e4145a420778fbc6b54f", "fusion_lon": 0.0, "name": "d238cb931751e4145a420778fbc6b54f", "lat": 38.909600166666664, "is_disabled": 0, "is_reserved": 0, "lon": -77.02278633333333, "type": "electric_scooter", "fusion_lat": 0.0, "rental_uris": {"android": "https://dc.lft.to/lastmile_qr_scan", "ios": "https://dc.lft.to/lastmile_qr_scan"}}, {"bike_id": "e5f020bec47967909cc8f77d8e9ef90d", "fusion_lon": 0.0, "name": "e5f020bec47967909cc8f77d8e9ef90d", "lat": 38.92688183333333, "is_disabled": 0, "is_reserved": 0, "lon": -77.01472066666666, "type": "electric_scooter", "fusion_lat": 0.0, "rental_uris": {"android": "https://dc.lft.to/lastmile_qr_scan", "ios": "https://dc.lft.to/lastmile_qr_scan"}}, {"bike_id": "d1ba6690257db59eeb3745a726e6ba10", "fusion_lon": 0.0, "name": "d1ba6690257db59eeb3745a726e6ba10", "lat": 38.88720283333333, "is_disabled": 0, "is_reserved": 0, "lon": -76.99690366666667, "type": "electric_scooter", "fusion_lat": 0.0, "rental_uris": {"android": "https://dc.lft.to/lastmile_qr_scan", "ios": "https://dc.lft.to/lastmile_qr_scan"}}, {"bike_id": "19ec001047aef9ceca62a5f555e88519", "fusion_lon": 0.0, "name": "19ec001047aef9ceca62a5f555e88519", "lat": 38.919844833333336, "is_disabled": 0, "is_reserved": 0, "lon": -77.02193183333333, "type": "electric_scooter", "fusion_lat": 0.0, "rental_uris": {"android": "https://dc.lft.to/lastmile_qr_scan", "ios": "https://dc.lft.to/lastmile_qr_scan"}}, {"bike_id": "9d01a2fec7db2d367e41d83f59ff0830", "fusion_lon": 0.0, "name": "9d01a2fec7db2d367e41d83f59ff0830", "lat": 38.902697, "is_disabled": 0, "is_reserved": 0, "lon": -77.01755483333334, "type": "electric_scooter", "fusion_lat": 0.0, "rental_uris": {"android": "https://dc.lft.to/lastmile_qr_scan", "ios": "https://dc.lft.to/lastmile_qr_scan"}}, {"bike_id": "c3a7c22b298559a7f2651ac784cb46f5", "fusion_lon": 0.0, "name": "c3a7c22b298559a7f2651ac784cb46f5", "lat": 38.910363333333336, "is_disabled": 0, "is_reserved": 0, "lon": -77.029212, "type": "electric_scooter", "fusion_lat": 0.0, "rental_uris": {"android": "https://dc.lft.to/lastmile_qr_scan", "ios": "https://dc.lft.to/lastmile_qr_scan"}}, {"bike_id": "46a6b58cb397fb99ff2190260c333d47", "fusion_lon": 0.0, "name": "46a6b58cb397fb99ff2190260c333d47", "lat": 38.924137333333334, "is_disabled": 0, "is_reserved": 0, "lon": -77.01940683333333, "type": "electric_scooter", "fusion_lat": 0.0, "rental_uris": {"android": "https://dc.lft.to/lastmile_qr_scan", "ios": "https://dc.lft.to/lastmile_qr_scan"}}, {"bike_id": "a5ce26e7930b5f1567f15f210d03f71d", "fusion_lon": 0.0, "name": "a5ce26e7930b5f1567f15f210d03f71d", "lat": 38.90534516666666, "is_disabled": 0, "is_reserved": 0, "lon": -77.04754516666667, "type": "electric_scooter", "fusion_lat": 0.0, "rental_uris": {"android": "https://dc.lft.to/lastmile_qr_scan", "ios": "https://dc.lft.to/lastmile_qr_scan"}}, {"bike_id": "4243548a26ffe6fe8ce75fa75068ce2f", "fusion_lon": 0.0, "name": "4243548a26ffe6fe8ce75fa75068ce2f", "lat": 38.97517333333333, "is_disabled": 0, "is_reserved": 0, "lon": -77.01666033333333, "type": "electric_scooter", "fusion_lat": 0.0, "rental_uris": {"android": "https://dc.lft.to/lastmile_qr_scan", "ios": "https://dc.lft.to/lastmile_qr_scan"}}, {"bike_id": "22c286308f5967d68bd0449e524485e2", "fusion_lon": 0.0, "name": "22c286308f5967d68bd0449e524485e2", "lat": 38.997832333333335, "is_disabled": 0, "is_reserved": 0, "lon": -77.04713266666667, "type": "electric_bike", "fusion_lat": 0.0, "rental_uris": {"android": "https://dc.lft.to/lastmile_qr_scan", "ios": "https://dc.lft.to/lastmile_qr_scan"}}, {"bike_id": "e2bf317d6b8e7572f563d52320752ed0", "fusion_lon": 0.0, "name": "e2bf317d6b8e7572f563d52320752ed0", "lat": 38.918272333333334, "is_disabled": 0, "is_reserved": 0, "lon": -77.036403, "type": "electric_scooter", "fusion_lat": 0.0, "rental_uris": {"android": "https://dc.lft.to/lastmile_qr_scan", "ios": "https://dc.lft.to/lastmile_qr_scan"}}, {"bike_id": "25d0d74e7a2e1e678fb7b24d803bd6c1", "fusion_lon": 0.0, "name": "25d0d74e7a2e1e678fb7b24d803bd6c1", "lat": 38.90345966666667, "is_disabled": 0, "is_reserved": 0, "lon": -77.05278533333333, "type": "electric_scooter", "fusion_lat": 0.0, "rental_uris": {"android": "https://dc.lft.to/lastmile_qr_scan", "ios": "https://dc.lft.to/lastmile_qr_scan"}}, {"bike_id": "55eedef3f9a9467a06950dbfbb142b27", "fusion_lon": 0.0, "name": "55eedef3f9a9467a06950dbfbb142b27", "lat": 38.926944166666665, "is_disabled": 0, "is_reserved": 0, "lon": -77.03248983333333, "type": "electric_scooter", "fusion_lat": 0.0, "rental_uris": {"android": "https://dc.lft.to/lastmile_qr_scan", "ios": "https://dc.lft.to/lastmile_qr_scan"}}, {"bike_id": "1895be1fc6ec75d74ee9dbd920fa46c6", "fusion_lon": 0.0, "name": "1895be1fc6ec75d74ee9dbd920fa46c6", "lat": 38.8922295, "is_disabled": 0, "is_reserved": 0, "lon": -77.0450965, "type": "electric_scooter", "fusion_lat": 0.0, "rental_uris": {"android": "https://dc.lft.to/lastmile_qr_scan", "ios": "https://dc.lft.to/lastmile_qr_scan"}}, {"bike_id": "99f8c8d3e1c52230e6166b62810a6fc5", "fusion_lon": 0.0, "name": "99f8c8d3e1c52230e6166b62810a6fc5", "lat": 38.909639166666665, "is_disabled": 0, "is_reserved": 0, "lon": -77.03339466666667, "type": "electric_scooter", "fusion_lat": 0.0, "rental_uris": {"android": "https://dc.lft.to/lastmile_qr_scan", "ios": "https://dc.lft.to/lastmile_qr_scan"}}, {"bike_id": "b6ca90e4463e196f9e3cc7f384247e1d", "fusion_lon": 0.0, "name": "b6ca90e4463e196f9e3cc7f384247e1d", "lat": 38.90265, "is_disabled": 0, "is_reserved": 0, "lon": -77.01844783333334, "type": "electric_scooter", "fusion_lat": 0.0, "rental_uris": {"android": "https://dc.lft.to/lastmile_qr_scan", "ios": "https://dc.lft.to/lastmile_qr_scan"}}, {"bike_id": "39ba58b5ee73763856a82b4e7d7a937c", "fusion_lon": 0.0, "name": "39ba58b5ee73763856a82b4e7d7a937c", "lat": 38.92615283333333, "is_disabled": 0, "is_reserved": 0, "lon": -77.02159033333334, "type": "electric_scooter", "fusion_lat": 0.0, "rental_uris": {"android": "https://dc.lft.to/lastmile_qr_scan", "ios": "https://dc.lft.to/lastmile_qr_scan"}}, {"bike_id": "97927a0257ec0acfbf3a9d1b1a64b298", "fusion_lon": 0.0, "name": "97927a0257ec0acfbf3a9d1b1a64b298", "lat": 38.9047405, "is_disabled": 0, "is_reserved": 0, "lon": -77.06522716666667, "type": "electric_scooter", "fusion_lat": 0.0, "rental_uris": {"android": "https://dc.lft.to/lastmile_qr_scan", "ios": "https://dc.lft.to/lastmile_qr_scan"}}, {"bike_id": "527a691038a2d78acae3faefce65c454", "fusion_lon": 0.0, "name": "527a691038a2d78acae3faefce65c454", "lat": 38.9405375, "is_disabled": 0, "is_reserved": 0, "lon": -77.02978716666667, "type": "electric_scooter", "fusion_lat": 0.0, "rental_uris": {"android": "https://dc.lft.to/lastmile_qr_scan", "ios": "https://dc.lft.to/lastmile_qr_scan"}}, {"bike_id": "5c484ba248872ff1f13433be54f7ffbb", "fusion_lon": 0.0, "name": "5c484ba248872ff1f13433be54f7ffbb", "lat": 38.9084235, "is_disabled": 0, "is_reserved": 0, "lon": -77.04356533333333, "type": "electric_scooter", "fusion_lat": 0.0, "rental_uris": {"android": "https://dc.lft.to/lastmile_qr_scan", "ios": "https://dc.lft.to/lastmile_qr_scan"}}, {"bike_id": "e33f41c343e1e6d5665a739c31578a3e", "fusion_lon": 0.0, "name": "e33f41c343e1e6d5665a739c31578a3e", "lat": 38.942527, "is_disabled": 0, "is_reserved": 0, "lon": -77.021681, "type": "electric_scooter", "fusion_lat": 0.0, "rental_uris": {"android": "https://dc.lft.to/lastmile_qr_scan", "ios": "https://dc.lft.to/lastmile_qr_scan"}}, {"bike_id": "aed4c9c76901beb7325b17b2b539e0f2", "fusion_lon": 0.0, "name": "aed4c9c76901beb7325b17b2b539e0f2", "lat": 38.90142783333334, "is_disabled": 0, "is_reserved": 0, "lon": -77.04220166666667, "type": "electric_scooter", "fusion_lat": 0.0, "rental_uris": {"android": "https://dc.lft.to/lastmile_qr_scan", "ios": "https://dc.lft.to/lastmile_qr_scan"}}, {"bike_id": "027341debe6ed7d852c1b6de05bdc070", "fusion_lon": 0.0, "name": "027341debe6ed7d852c1b6de05bdc070", "lat": 38.90294183333334, "is_disabled": 0, "is_reserved": 0, "lon": -76.976369, "type": "electric_scooter", "fusion_lat": 0.0, "rental_uris": {"android": "https://dc.lft.to/lastmile_qr_scan", "ios": "https://dc.lft.to/lastmile_qr_scan"}}, {"bike_id": "37337e9ce2dd26e81187b42e87a53dc3", "fusion_lon": 0.0, "name": "37337e9ce2dd26e81187b42e87a53dc3", "lat": 38.900792833333334, "is_disabled": 0, "is_reserved": 0, "lon": -77.02709033333333, "type": "electric_scooter", "fusion_lat": 0.0, "rental_uris": {"android": "https://dc.lft.to/lastmile_qr_scan", "ios": "https://dc.lft.to/lastmile_qr_scan"}}, {"bike_id": "fbcafe0e41c64d8a956ff701467534bd", "fusion_lon": 0.0, "name": "fbcafe0e41c64d8a956ff701467534bd", "lat": 38.93398533333333, "is_disabled": 0, "is_reserved": 0, "lon": -77.05743816666667, "type": "electric_scooter", "fusion_lat": 0.0, "rental_uris": {"android": "https://dc.lft.to/lastmile_qr_scan", "ios": "https://dc.lft.to/lastmile_qr_scan"}}, {"bike_id": "23ac6b3b7aecfa30f3e7ae625834075e", "fusion_lon": 0.0, "name": "23ac6b3b7aecfa30f3e7ae625834075e", "lat": 38.924654, "is_disabled": 0, "is_reserved": 0, "lon": -77.02269816666667, "type": "electric_scooter", "fusion_lat": 0.0, "rental_uris": {"android": "https://dc.lft.to/lastmile_qr_scan", "ios": "https://dc.lft.to/lastmile_qr_scan"}}, {"bike_id": "27850f3befb968809d3bcc01c6ef6bb6", "fusion_lon": 0.0, "name": "27850f3befb968809d3bcc01c6ef6bb6", "lat": 38.92016183333333, "is_disabled": 0, "is_reserved": 0, "lon": -77.03214033333333, "type": "electric_scooter", "fusion_lat": 0.0, "rental_uris": {"android": "https://dc.lft.to/lastmile_qr_scan", "ios": "https://dc.lft.to/lastmile_qr_scan"}}, {"bike_id": "8de502f652254bfe62c253c60b324c56", "fusion_lon": 0.0, "name": "8de502f652254bfe62c253c60b324c56", "lat": 38.9171035, "is_disabled": 0, "is_reserved": 0, "lon": -77.04169266666666, "type": "electric_scooter", "fusion_lat": 0.0, "rental_uris": {"android": "https://dc.lft.to/lastmile_qr_scan", "ios": "https://dc.lft.to/lastmile_qr_scan"}}, {"bike_id": "1ca9fc32ef5144cc35d7409a4d6ec7b4", "fusion_lon": 0.0, "name": "1ca9fc32ef5144cc35d7409a4d6ec7b4", "lat": 38.866290166666666, "is_disabled": 0, "is_reserved": 0, "lon": -76.98709966666667, "type": "electric_scooter", "fusion_lat": 0.0, "rental_uris": {"android": "https://dc.lft.to/lastmile_qr_scan", "ios": "https://dc.lft.to/lastmile_qr_scan"}}, {"bike_id": "068f999bdc62cdcb07f38981f65b169b", "fusion_lon": 0.0, "name": "068f999bdc62cdcb07f38981f65b169b", "lat": 38.927302833333336, "is_disabled": 0, "is_reserved": 0, "lon": -77.03999283333333, "type": "electric_scooter", "fusion_lat": 0.0, "rental_uris": {"android": "https://dc.lft.to/lastmile_qr_scan", "ios": "https://dc.lft.to/lastmile_qr_scan"}}, {"bike_id": "34f1d828529a67d5dbf87e1649dba970", "fusion_lon": 0.0, "name": "34f1d828529a67d5dbf87e1649dba970", "lat": 38.9247565, "is_disabled": 0, "is_reserved": 0, "lon": -77.0221225, "type": "electric_scooter", "fusion_lat": 0.0, "rental_uris": {"android": "https://dc.lft.to/lastmile_qr_scan", "ios": "https://dc.lft.to/lastmile_qr_scan"}}, {"bike_id": "78ec5c2ebc27f892cbae7375869c6f1c", "fusion_lon": 0.0, "name": "78ec5c2ebc27f892cbae7375869c6f1c", "lat": 38.860400166666665, "is_disabled": 0, "is_reserved": 0, "lon": -76.98369983333333, "type": "electric_scooter", "fusion_lat": 0.0, "rental_uris": {"android": "https://dc.lft.to/lastmile_qr_scan", "ios": "https://dc.lft.to/lastmile_qr_scan"}}, {"bike_id": "4e5ab947f7bfeda6d61c295329d76b51", "fusion_lon": 0.0, "name": "4e5ab947f7bfeda6d61c295329d76b51", "lat": 38.9111945, "is_disabled": 0, "is_reserved": 0, "lon": -77.08132816666667, "type": "electric_scooter", "fusion_lat": 0.0, "rental_uris": {"android": "https://dc.lft.to/lastmile_qr_scan", "ios": "https://dc.lft.to/lastmile_qr_scan"}}, {"bike_id": "ec706698206fdfba7baa8c4ee5aea9f3", "fusion_lon": 0.0, "name": "ec706698206fdfba7baa8c4ee5aea9f3", "lat": 38.89834616666667, "is_disabled": 0, "is_reserved": 0, "lon": -77.033258, "type": "electric_scooter", "fusion_lat": 0.0, "rental_uris": {"android": "https://dc.lft.to/lastmile_qr_scan", "ios": "https://dc.lft.to/lastmile_qr_scan"}}, {"bike_id": "970bfdde99e9c4d6b00eaf98709d7af3", "fusion_lon": 0.0, "name": "970bfdde99e9c4d6b00eaf98709d7af3", "lat": 38.8874285, "is_disabled": 0, "is_reserved": 0, "lon": -77.02849, "type": "electric_scooter", "fusion_lat": 0.0, "rental_uris": {"android": "https://dc.lft.to/lastmile_qr_scan", "ios": "https://dc.lft.to/lastmile_qr_scan"}}, {"bike_id": "232a6f64c75b13659670468ad8ebaf92", "fusion_lon": 0.0, "name": "232a6f64c75b13659670468ad8ebaf92", "lat": 38.865226166666666, "is_disabled": 0, "is_reserved": 0, "lon": -76.97334983333333, "type": "electric_bike", "fusion_lat": 0.0, "rental_uris": {"android": "https://dc.lft.to/lastmile_qr_scan", "ios": "https://dc.lft.to/lastmile_qr_scan"}}, {"bike_id": "fef6cd4abeb851cbc86964b9b1c52103", "fusion_lon": 0.0, "name": "fef6cd4abeb851cbc86964b9b1c52103", "lat": 38.885400833333335, "is_disabled": 0, "is_reserved": 0, "lon": -77.00050216666666, "type": "electric_scooter", "fusion_lat": 0.0, "rental_uris": {"android": "https://dc.lft.to/lastmile_qr_scan", "ios": "https://dc.lft.to/lastmile_qr_scan"}}, {"bike_id": "e6fff2803d3f2fc2214b070540a645dc", "fusion_lon": 0.0, "name": "e6fff2803d3f2fc2214b070540a645dc", "lat": 38.8922725, "is_disabled": 0, "is_reserved": 0, "lon": -77.0418095, "type": "electric_scooter", "fusion_lat": 0.0, "rental_uris": {"android": "https://dc.lft.to/lastmile_qr_scan", "ios": "https://dc.lft.to/lastmile_qr_scan"}}, {"bike_id": "47689b68aaee9b8fd1f59d048ed9eaed", "fusion_lon": 0.0, "name": "47689b68aaee9b8fd1f59d048ed9eaed", "lat": 38.90737016666667, "is_disabled": 0, "is_reserved": 0, "lon": -77.02370916666666, "type": "electric_scooter", "fusion_lat": 0.0, "rental_uris": {"android": "https://dc.lft.to/lastmile_qr_scan", "ios": "https://dc.lft.to/lastmile_qr_scan"}}, {"bike_id": "a1abb6d84f4b0ebee19e97e4b2c2534a", "fusion_lon": 0.0, "name": "a1abb6d84f4b0ebee19e97e4b2c2534a", "lat": 38.909597166666664, "is_disabled": 0, "is_reserved": 0, "lon": -76.98438083333333, "type": "electric_bike", "fusion_lat": 0.0, "rental_uris": {"android": "https://dc.lft.to/lastmile_qr_scan", "ios": "https://dc.lft.to/lastmile_qr_scan"}}, {"bike_id": "bc48c8e0e4c821dba2db4b9740a4017c", "fusion_lon": 0.0, "name": "bc48c8e0e4c821dba2db4b9740a4017c", "lat": 38.879459, "is_disabled": 0, "is_reserved": 0, "lon": -77.00525233333333, "type": "electric_scooter", "fusion_lat": 0.0, "rental_uris": {"android": "https://dc.lft.to/lastmile_qr_scan", "ios": "https://dc.lft.to/lastmile_qr_scan"}}, {"bike_id": "a6496731d9c917284649a6a89c8585b8", "fusion_lon": 0.0, "name": "a6496731d9c917284649a6a89c8585b8", "lat": 38.8280685, "is_disabled": 0, "is_reserved": 0, "lon": -77.12495216666667, "type": "electric_bike", "fusion_lat": 0.0, "rental_uris": {"android": "https://dc.lft.to/lastmile_qr_scan", "ios": "https://dc.lft.to/lastmile_qr_scan"}}, {"bike_id": "60114975bd80d200f340de3c2b2d80f4", "fusion_lon": 0.0, "name": "60114975bd80d200f340de3c2b2d80f4", "lat": 38.93609816666667, "is_disabled": 0, "is_reserved": 0, "lon": -77.05857766666666, "type": "electric_scooter", "fusion_lat": 0.0, "rental_uris": {"android": "https://dc.lft.to/lastmile_qr_scan", "ios": "https://dc.lft.to/lastmile_qr_scan"}}, {"bike_id": "24a9cf0eb53dadb5f502dc07c476aee2", "fusion_lon": 0.0, "name": "24a9cf0eb53dadb5f502dc07c476aee2", "lat": 38.902709333333334, "is_disabled": 0, "is_reserved": 0, "lon": -77.05313083333333, "type": "electric_scooter", "fusion_lat": 0.0, "rental_uris": {"android": "https://dc.lft.to/lastmile_qr_scan", "ios": "https://dc.lft.to/lastmile_qr_scan"}}, {"bike_id": "c2d526e3e3efc05f31e2adb173b24e63", "fusion_lon": 0.0, "name": "c2d526e3e3efc05f31e2adb173b24e63", "lat": 38.897341833333336, "is_disabled": 0, "is_reserved": 0, "lon": -77.027398, "type": "electric_scooter", "fusion_lat": 0.0, "rental_uris": {"android": "https://dc.lft.to/lastmile_qr_scan", "ios": "https://dc.lft.to/lastmile_qr_scan"}}, {"bike_id": "620256dd58961c973fc798a64e1b4e84", "fusion_lon": 0.0, "name": "620256dd58961c973fc798a64e1b4e84", "lat": 38.86687633333333, "is_disabled": 0, "is_reserved": 0, "lon": -76.9857065, "type": "electric_scooter", "fusion_lat": 0.0, "rental_uris": {"android": "https://dc.lft.to/lastmile_qr_scan", "ios": "https://dc.lft.to/lastmile_qr_scan"}}, {"bike_id": "bc41f8623605899cf0504c8ef6b13272", "fusion_lon": 0.0, "name": "bc41f8623605899cf0504c8ef6b13272", "lat": 38.855177166666664, "is_disabled": 0, "is_reserved": 0, "lon": -77.1053635, "type": "electric_bike", "fusion_lat": 0.0, "rental_uris": {"android": "https://dc.lft.to/lastmile_qr_scan", "ios": "https://dc.lft.to/lastmile_qr_scan"}}, {"bike_id": "9d509d0b5f52dd72e5c522cad2e51d94", "fusion_lon": 0.0, "name": "9d509d0b5f52dd72e5c522cad2e51d94", "lat": 38.880078, "is_disabled": 0, "is_reserved": 0, "lon": -76.98544216666667, "type": "electric_scooter", "fusion_lat": 0.0, "rental_uris": {"android": "https://dc.lft.to/lastmile_qr_scan", "ios": "https://dc.lft.to/lastmile_qr_scan"}}, {"bike_id": "868475d1ad632530a4818a30f7d1f589", "fusion_lon": 0.0, "name": "868475d1ad632530a4818a30f7d1f589", "lat": 38.917196, "is_disabled": 0, "is_reserved": 0, "lon": -77.03153783333333, "type": "electric_scooter", "fusion_lat": 0.0, "rental_uris": {"android": "https://dc.lft.to/lastmile_qr_scan", "ios": "https://dc.lft.to/lastmile_qr_scan"}}, {"bike_id": "44e3baabd086bd39dd913972c4c3bca0", "fusion_lon": 0.0, "name": "44e3baabd086bd39dd913972c4c3bca0", "lat": 38.9072915, "is_disabled": 0, "is_reserved": 0, "lon": -77.025442, "type": "electric_scooter", "fusion_lat": 0.0, "rental_uris": {"android": "https://dc.lft.to/lastmile_qr_scan", "ios": "https://dc.lft.to/lastmile_qr_scan"}}, {"bike_id": "0694553990a2eabe07016e3d5c8a336e", "fusion_lon": 0.0, "name": "0694553990a2eabe07016e3d5c8a336e", "lat": 38.9205405, "is_disabled": 0, "is_reserved": 0, "lon": -77.00208666666667, "type": "electric_scooter", "fusion_lat": 0.0, "rental_uris": {"android": "https://dc.lft.to/lastmile_qr_scan", "ios": "https://dc.lft.to/lastmile_qr_scan"}}, {"bike_id": "3a37d2265104d453f52265ddfa700cf1", "fusion_lon": 0.0, "name": "3a37d2265104d453f52265ddfa700cf1", "lat": 38.89222916666667, "is_disabled": 0, "is_reserved": 0, "lon": -77.02228333333333, "type": "electric_scooter", "fusion_lat": 0.0, "rental_uris": {"android": "https://dc.lft.to/lastmile_qr_scan", "ios": "https://dc.lft.to/lastmile_qr_scan"}}, {"bike_id": "6fbb30b769adb7abca71f08e6aab0cee", "fusion_lon": 0.0, "name": "6fbb30b769adb7abca71f08e6aab0cee", "lat": 38.892259833333334, "is_disabled": 0, "is_reserved": 0, "lon": -77.04806266666667, "type": "electric_scooter", "fusion_lat": 0.0, "rental_uris": {"android": "https://dc.lft.to/lastmile_qr_scan", "ios": "https://dc.lft.to/lastmile_qr_scan"}}, {"bike_id": "26215407a758759a3f6ad0cdc90fe069", "fusion_lon": 0.0, "name": "26215407a758759a3f6ad0cdc90fe069", "lat": 38.90190116666667, "is_disabled": 0, "is_reserved": 0, "lon": -76.9289435, "type": "electric_scooter", "fusion_lat": 0.0, "rental_uris": {"android": "https://dc.lft.to/lastmile_qr_scan", "ios": "https://dc.lft.to/lastmile_qr_scan"}}, {"bike_id": "b7e702354bc42b9c6b91a7046e9acd59", "fusion_lon": 0.0, "name": "b7e702354bc42b9c6b91a7046e9acd59", "lat": 38.91421116666667, "is_disabled": 0, "is_reserved": 0, "lon": -77.03810266666666, "type": "electric_scooter", "fusion_lat": 0.0, "rental_uris": {"android": "https://dc.lft.to/lastmile_qr_scan", "ios": "https://dc.lft.to/lastmile_qr_scan"}}, {"bike_id": "001e0a3017d92015b5208495ff8aa698", "fusion_lon": 0.0, "name": "001e0a3017d92015b5208495ff8aa698", "lat": 38.8761065, "is_disabled": 0, "is_reserved": 0, "lon": -76.96565066666666, "type": "electric_scooter", "fusion_lat": 0.0, "rental_uris": {"android": "https://dc.lft.to/lastmile_qr_scan", "ios": "https://dc.lft.to/lastmile_qr_scan"}}, {"bike_id": "e3d472b18919bb14a3011043da0f87a7", "fusion_lon": 0.0, "name": "e3d472b18919bb14a3011043da0f87a7", "lat": 38.886364666666665, "is_disabled": 0, "is_reserved": 0, "lon": -76.9258875, "type": "electric_scooter", "fusion_lat": 0.0, "rental_uris": {"android": "https://dc.lft.to/lastmile_qr_scan", "ios": "https://dc.lft.to/lastmile_qr_scan"}}, {"bike_id": "3b6ec330d4e3e17fe3d3da8003fdc971", "fusion_lon": 0.0, "name": "3b6ec330d4e3e17fe3d3da8003fdc971", "lat": 38.92828133333333, "is_disabled": 0, "is_reserved": 0, "lon": -77.054404, "type": "electric_scooter", "fusion_lat": 0.0, "rental_uris": {"android": "https://dc.lft.to/lastmile_qr_scan", "ios": "https://dc.lft.to/lastmile_qr_scan"}}, {"bike_id": "72fc847538b7a948c07010027cde5894", "fusion_lon": 0.0, "name": "72fc847538b7a948c07010027cde5894", "lat": 38.91624133333333, "is_disabled": 0, "is_reserved": 0, "lon": -77.03141116666667, "type": "electric_scooter", "fusion_lat": 0.0, "rental_uris": {"android": "https://dc.lft.to/lastmile_qr_scan", "ios": "https://dc.lft.to/lastmile_qr_scan"}}, {"bike_id": "eb0aee5ef4dfa0081d4612c34c01350e", "fusion_lon": 0.0, "name": "eb0aee5ef4dfa0081d4612c34c01350e", "lat": 38.895384666666665, "is_disabled": 0, "is_reserved": 0, "lon": -77.04845316666666, "type": "electric_scooter", "fusion_lat": 0.0, "rental_uris": {"android": "https://dc.lft.to/lastmile_qr_scan", "ios": "https://dc.lft.to/lastmile_qr_scan"}}, {"bike_id": "f74bb44d5195a68261c9843db46674aa", "fusion_lon": 0.0, "name": "f74bb44d5195a68261c9843db46674aa", "lat": 38.92331866666667, "is_disabled": 0, "is_reserved": 0, "lon": -77.0429, "type": "electric_scooter", "fusion_lat": 0.0, "rental_uris": {"android": "https://dc.lft.to/lastmile_qr_scan", "ios": "https://dc.lft.to/lastmile_qr_scan"}}, {"bike_id": "fdccc88afeab107730fe8623b0fc56ff", "fusion_lon": 0.0, "name": "fdccc88afeab107730fe8623b0fc56ff", "lat": 38.876613, "is_disabled": 0, "is_reserved": 0, "lon": -77.01616016666667, "type": "electric_scooter", "fusion_lat": 0.0, "rental_uris": {"android": "https://dc.lft.to/lastmile_qr_scan", "ios": "https://dc.lft.to/lastmile_qr_scan"}}, {"bike_id": "9ac1ed378cd354e59ea9a3912936fc2d", "fusion_lon": 0.0, "name": "9ac1ed378cd354e59ea9a3912936fc2d", "lat": 38.864505666666666, "is_disabled": 0, "is_reserved": 0, "lon": -77.1068345, "type": "electric_bike", "fusion_lat": 0.0, "rental_uris": {"android": "https://dc.lft.to/lastmile_qr_scan", "ios": "https://dc.lft.to/lastmile_qr_scan"}}, {"bike_id": "24c35eec4ca2aecdfb472298b0b720db", "fusion_lon": 0.0, "name": "24c35eec4ca2aecdfb472298b0b720db", "lat": 38.90277566666666, "is_disabled": 0, "is_reserved": 0, "lon": -77.04366983333334, "type": "electric_scooter", "fusion_lat": 0.0, "rental_uris": {"android": "https://dc.lft.to/lastmile_qr_scan", "ios": "https://dc.lft.to/lastmile_qr_scan"}}, {"bike_id": "b47d5cbdec46655bff33c67e78de9c2f", "fusion_lon": 0.0, "name": "b47d5cbdec46655bff33c67e78de9c2f", "lat": 38.87724166666667, "is_disabled": 0, "is_reserved": 0, "lon": -77.0043425, "type": "electric_scooter", "fusion_lat": 0.0, "rental_uris": {"android": "https://dc.lft.to/lastmile_qr_scan", "ios": "https://dc.lft.to/lastmile_qr_scan"}}, {"bike_id": "7e88daf39abe67d309b45e7c3d4dcf90", "fusion_lon": 0.0, "name": "7e88daf39abe67d309b45e7c3d4dcf90", "lat": 38.877277666666664, "is_disabled": 0, "is_reserved": 0, "lon": -77.00439483333334, "type": "electric_scooter", "fusion_lat": 0.0, "rental_uris": {"android": "https://dc.lft.to/lastmile_qr_scan", "ios": "https://dc.lft.to/lastmile_qr_scan"}}, {"bike_id": "3104fd77e1d9a14d3d367c22b81408db", "fusion_lon": 0.0, "name": "3104fd77e1d9a14d3d367c22b81408db", "lat": 38.907455166666665, "is_disabled": 0, "is_reserved": 0, "lon": -77.04168883333334, "type": "electric_scooter", "fusion_lat": 0.0, "rental_uris": {"android": "https://dc.lft.to/lastmile_qr_scan", "ios": "https://dc.lft.to/lastmile_qr_scan"}}, {"bike_id": "4a8ec39af6b444e6d495a5369ac33684", "fusion_lon": 0.0, "name": "4a8ec39af6b444e6d495a5369ac33684", "lat": 38.91926216666667, "is_disabled": 0, "is_reserved": 0, "lon": -77.00983316666667, "type": "electric_scooter", "fusion_lat": 0.0, "rental_uris": {"android": "https://dc.lft.to/lastmile_qr_scan", "ios": "https://dc.lft.to/lastmile_qr_scan"}}, {"bike_id": "17b0d6d38f5501e2ae162357a0ba2817", "fusion_lon": 0.0, "name": "17b0d6d38f5501e2ae162357a0ba2817", "lat": 38.887517333333335, "is_disabled": 0, "is_reserved": 0, "lon": -77.02843416666667, "type": "electric_scooter", "fusion_lat": 0.0, "rental_uris": {"android": "https://dc.lft.to/lastmile_qr_scan", "ios": "https://dc.lft.to/lastmile_qr_scan"}}, {"bike_id": "b8290a092ad5e402056d7d55212ca74c", "fusion_lon": 0.0, "name": "b8290a092ad5e402056d7d55212ca74c", "lat": 38.941633333333336, "is_disabled": 0, "is_reserved": 0, "lon": -77.09271166666667, "type": "electric_scooter", "fusion_lat": 0.0, "rental_uris": {"android": "https://dc.lft.to/lastmile_qr_scan", "ios": "https://dc.lft.to/lastmile_qr_scan"}}, {"bike_id": "52d04cc6188a74539f2b8f0193b5c417", "fusion_lon": 0.0, "name": "52d04cc6188a74539f2b8f0193b5c417", "lat": 38.908748, "is_disabled": 0, "is_reserved": 0, "lon": -77.02692816666666, "type": "electric_scooter", "fusion_lat": 0.0, "rental_uris": {"android": "https://dc.lft.to/lastmile_qr_scan", "ios": "https://dc.lft.to/lastmile_qr_scan"}}, {"bike_id": "63ff7bb5d24af57dcc7ec02963656043", "fusion_lon": 0.0, "name": "63ff7bb5d24af57dcc7ec02963656043", "lat": 38.9063715, "is_disabled": 0, "is_reserved": 0, "lon": -77.01028333333333, "type": "electric_scooter", "fusion_lat": 0.0, "rental_uris": {"android": "https://dc.lft.to/lastmile_qr_scan", "ios": "https://dc.lft.to/lastmile_qr_scan"}}, {"bike_id": "de15cb9e903d096f0f9cb272983786ca", "fusion_lon": 0.0, "name": "de15cb9e903d096f0f9cb272983786ca", "lat": 38.9205385, "is_disabled": 0, "is_reserved": 0, "lon": -77.04182416666667, "type": "electric_scooter", "fusion_lat": 0.0, "rental_uris": {"android": "https://dc.lft.to/lastmile_qr_scan", "ios": "https://dc.lft.to/lastmile_qr_scan"}}, {"bike_id": "78929b6ed927bc7d887940484d43886a", "fusion_lon": 0.0, "name": "78929b6ed927bc7d887940484d43886a", "lat": 38.886128166666666, "is_disabled": 0, "is_reserved": 0, "lon": -77.0152745, "type": "electric_scooter", "fusion_lat": 0.0, "rental_uris": {"android": "https://dc.lft.to/lastmile_qr_scan", "ios": "https://dc.lft.to/lastmile_qr_scan"}}, {"bike_id": "46fb0a83667df8b682b717d3cdf833e4", "fusion_lon": 0.0, "name": "46fb0a83667df8b682b717d3cdf833e4", "lat": 38.92327683333333, "is_disabled": 0, "is_reserved": 0, "lon": -77.02967566666666, "type": "electric_scooter", "fusion_lat": 0.0, "rental_uris": {"android": "https://dc.lft.to/lastmile_qr_scan", "ios": "https://dc.lft.to/lastmile_qr_scan"}}, {"bike_id": "9003798680014b6c6f1f09225635d8ee", "fusion_lon": 0.0, "name": "9003798680014b6c6f1f09225635d8ee", "lat": 38.89231383333333, "is_disabled": 0, "is_reserved": 0, "lon": -77.03136066666667, "type": "electric_scooter", "fusion_lat": 0.0, "rental_uris": {"android": "https://dc.lft.to/lastmile_qr_scan", "ios": "https://dc.lft.to/lastmile_qr_scan"}}, {"bike_id": "8e16b01b35f760c3c4e837a628858825", "fusion_lon": 0.0, "name": "8e16b01b35f760c3c4e837a628858825", "lat": 38.843978, "is_disabled": 0, "is_reserved": 0, "lon": -76.9895555, "type": "electric_scooter", "fusion_lat": 0.0, "rental_uris": {"android": "https://dc.lft.to/lastmile_qr_scan", "ios": "https://dc.lft.to/lastmile_qr_scan"}}, {"bike_id": "e590b1da0b61836ae30149813a7a543e", "fusion_lon": 0.0, "name": "e590b1da0b61836ae30149813a7a543e", "lat": 38.91670116666667, "is_disabled": 0, "is_reserved": 0, "lon": -77.0270585, "type": "electric_scooter", "fusion_lat": 0.0, "rental_uris": {"android": "https://dc.lft.to/lastmile_qr_scan", "ios": "https://dc.lft.to/lastmile_qr_scan"}}, {"bike_id": "1159a242f33a17f191fa85004595a648", "fusion_lon": 0.0, "name": "1159a242f33a17f191fa85004595a648", "lat": 38.990587, "is_disabled": 0, "is_reserved": 0, "lon": -77.03866216666667, "type": "electric_bike", "fusion_lat": 0.0, "rental_uris": {"android": "https://dc.lft.to/lastmile_qr_scan", "ios": "https://dc.lft.to/lastmile_qr_scan"}}, {"bike_id": "9db04808302a9fb7132d821b577cbd5c", "fusion_lon": 0.0, "name": "9db04808302a9fb7132d821b577cbd5c", "lat": 38.902630333333335, "is_disabled": 0, "is_reserved": 0, "lon": -77.01745483333333, "type": "electric_scooter", "fusion_lat": 0.0, "rental_uris": {"android": "https://dc.lft.to/lastmile_qr_scan", "ios": "https://dc.lft.to/lastmile_qr_scan"}}, {"bike_id": "4f672ae971840f827b2ce88068ef4c7a", "fusion_lon": 0.0, "name": "4f672ae971840f827b2ce88068ef4c7a", "lat": 38.83544716666667, "is_disabled": 0, "is_reserved": 0, "lon": -76.98728183333333, "type": "electric_bike", "fusion_lat": 0.0, "rental_uris": {"android": "https://dc.lft.to/lastmile_qr_scan", "ios": "https://dc.lft.to/lastmile_qr_scan"}}, {"bike_id": "ae8c6774fa406dac20eee0ae3e3e2f17", "fusion_lon": 0.0, "name": "ae8c6774fa406dac20eee0ae3e3e2f17", "lat": 38.9275885, "is_disabled": 0, "is_reserved": 0, "lon": -77.03264783333333, "type": "electric_scooter", "fusion_lat": 0.0, "rental_uris": {"android": "https://dc.lft.to/lastmile_qr_scan", "ios": "https://dc.lft.to/lastmile_qr_scan"}}, {"bike_id": "4932ace74a2f865f7b24a0f2707650ad", "fusion_lon": 0.0, "name": "4932ace74a2f865f7b24a0f2707650ad", "lat": 38.934350333333335, "is_disabled": 0, "is_reserved": 0, "lon": -77.03998633333333, "type": "electric_scooter", "fusion_lat": 0.0, "rental_uris": {"android": "https://dc.lft.to/lastmile_qr_scan", "ios": "https://dc.lft.to/lastmile_qr_scan"}}, {"bike_id": "80a8147b0a07029adf91bf2b0fddccd2", "fusion_lon": 0.0, "name": "80a8147b0a07029adf91bf2b0fddccd2", "lat": 38.907768, "is_disabled": 0, "is_reserved": 0, "lon": -77.04228233333333, "type": "electric_scooter", "fusion_lat": 0.0, "rental_uris": {"android": "https://dc.lft.to/lastmile_qr_scan", "ios": "https://dc.lft.to/lastmile_qr_scan"}}, {"bike_id": "cd2bd9e8fb7288e0b5d801319fe54e7c", "fusion_lon": 0.0, "name": "cd2bd9e8fb7288e0b5d801319fe54e7c", "lat": 38.89009216666667, "is_disabled": 0, "is_reserved": 0, "lon": -76.93742366666666, "type": "electric_scooter", "fusion_lat": 0.0, "rental_uris": {"android": "https://dc.lft.to/lastmile_qr_scan", "ios": "https://dc.lft.to/lastmile_qr_scan"}}, {"bike_id": "de8160b82d41a1e125eb07c59da920c3", "fusion_lon": 0.0, "name": "de8160b82d41a1e125eb07c59da920c3", "lat": 38.928434333333335, "is_disabled": 0, "is_reserved": 0, "lon": -77.03654916666666, "type": "electric_scooter", "fusion_lat": 0.0, "rental_uris": {"android": "https://dc.lft.to/lastmile_qr_scan", "ios": "https://dc.lft.to/lastmile_qr_scan"}}, {"bike_id": "d2f18bb5742c62a8c6fe4a4a792a25f6", "fusion_lon": 0.0, "name": "d2f18bb5742c62a8c6fe4a4a792a25f6", "lat": 38.89742016666667, "is_disabled": 0, "is_reserved": 0, "lon": -77.04548216666667, "type": "electric_scooter", "fusion_lat": 0.0, "rental_uris": {"android": "https://dc.lft.to/lastmile_qr_scan", "ios": "https://dc.lft.to/lastmile_qr_scan"}}, {"bike_id": "3b30a7172067b3873d1549f6aa492bc2", "fusion_lon": 0.0, "name": "3b30a7172067b3873d1549f6aa492bc2", "lat": 38.91980733333333, "is_disabled": 0, "is_reserved": 0, "lon": -77.021969, "type": "electric_scooter", "fusion_lat": 0.0, "rental_uris": {"android": "https://dc.lft.to/lastmile_qr_scan", "ios": "https://dc.lft.to/lastmile_qr_scan"}}, {"bike_id": "65744d936d6ec43ed9ab1f07ab80e87d", "fusion_lon": 0.0, "name": "65744d936d6ec43ed9ab1f07ab80e87d", "lat": 38.901355833333334, "is_disabled": 0, "is_reserved": 0, "lon": -77.0362705, "type": "electric_scooter", "fusion_lat": 0.0, "rental_uris": {"android": "https://dc.lft.to/lastmile_qr_scan", "ios": "https://dc.lft.to/lastmile_qr_scan"}}, {"bike_id": "47c2622bce7b1d235f4d6202c2f398d4", "fusion_lon": 0.0, "name": "47c2622bce7b1d235f4d6202c2f398d4", "lat": 38.901405, "is_disabled": 0, "is_reserved": 0, "lon": -76.989596, "type": "electric_scooter", "fusion_lat": 0.0, "rental_uris": {"android": "https://dc.lft.to/lastmile_qr_scan", "ios": "https://dc.lft.to/lastmile_qr_scan"}}, {"bike_id": "00b4cd8c63c0287076d0a73544ca5af0", "fusion_lon": 0.0, "name": "00b4cd8c63c0287076d0a73544ca5af0", "lat": 38.896278333333335, "is_disabled": 0, "is_reserved": 0, "lon": -76.9933115, "type": "electric_scooter", "fusion_lat": 0.0, "rental_uris": {"android": "https://dc.lft.to/lastmile_qr_scan", "ios": "https://dc.lft.to/lastmile_qr_scan"}}, {"bike_id": "23d8a86402d107a585e9d061990771fd", "fusion_lon": 0.0, "name": "23d8a86402d107a585e9d061990771fd", "lat": 38.91008983333333, "is_disabled": 0, "is_reserved": 0, "lon": -77.02174733333334, "type": "electric_scooter", "fusion_lat": 0.0, "rental_uris": {"android": "https://dc.lft.to/lastmile_qr_scan", "ios": "https://dc.lft.to/lastmile_qr_scan"}}, {"bike_id": "78df796080ffa54acfdedc657e38cf1f", "fusion_lon": 0.0, "name": "78df796080ffa54acfdedc657e38cf1f", "lat": 38.900125333333335, "is_disabled": 0, "is_reserved": 0, "lon": -77.02718783333333, "type": "electric_scooter", "fusion_lat": 0.0, "rental_uris": {"android": "https://dc.lft.to/lastmile_qr_scan", "ios": "https://dc.lft.to/lastmile_qr_scan"}}, {"bike_id": "c2b581a6caff5e5bfb64a2071173172d", "fusion_lon": 0.0, "name": "c2b581a6caff5e5bfb64a2071173172d", "lat": 38.90391133333333, "is_disabled": 0, "is_reserved": 0, "lon": -77.0437615, "type": "electric_scooter", "fusion_lat": 0.0, "rental_uris": {"android": "https://dc.lft.to/lastmile_qr_scan", "ios": "https://dc.lft.to/lastmile_qr_scan"}}, {"bike_id": "5b10e10568c302f9adb58aef8cb7325b", "fusion_lon": 0.0, "name": "5b10e10568c302f9adb58aef8cb7325b", "lat": 38.905258333333336, "is_disabled": 0, "is_reserved": 0, "lon": -77.04863483333334, "type": "electric_scooter", "fusion_lat": 0.0, "rental_uris": {"android": "https://dc.lft.to/lastmile_qr_scan", "ios": "https://dc.lft.to/lastmile_qr_scan"}},