{"data": {"bikes": [{"name": "a93a8cecb2c59d408a4c6e44800a69b3", "type": "electric_scooter", "lat": 38.903219, "is_reserved": 0, "lon": -77.03827133333333, "fusion_lon": 0.0, "is_disabled": 0, "fusion_lat": 0.0, "bike_id": "a93a8cecb2c59d408a4c6e44800a69b3", "rental_uris": {"ios": "https://dc.lft.to/lastmile_qr_scan", "android": "https://dc.lft.to/lastmile_qr_scan"}}, {"name": "be606bec3e25394e4f045dc15ad5cd05", "type": "electric_scooter", "lat": 38.89743566666667, "is_reserved": 0, "lon": -77.01314066666667, "fusion_lon": 0.0, "is_disabled": 0, "fusion_lat": 0.0, "bike_id": "be606bec3e25394e4f045dc15ad5cd05", "rental_uris": {"ios": "https://dc.lft.to/lastmile_qr_scan", "android": "https://dc.lft.to/lastmile_qr_scan"}}, {"name": "512adc7d444143e90f3de97d12dd546c", "type": "electric_scooter", "lat": 38.92741683333333, "is_reserved": 0, "lon": -77.01204066666666, "fusion_lon": 0.0, "is_disabled": 0, "fusion_lat": 0.0, "bike_id": "512adc7d444143e90f3de97d12dd546c", "rental_uris": {"ios": "https://dc.lft.to/lastmile_qr_scan", "android": "https://dc.lft.to/lastmile_qr_scan"}}, {"name": "4ebbbabde1ee0e5cd2f211b0db93d336", "type": "electric_scooter", "lat": 38.913405, "is_reserved": 0, "lon": -77.031228, "fusion_lon": 0.0, "is_disabled": 0, "fusion_lat": 0.0, "bike_id": "4ebbbabde1ee0e5cd2f211b0db93d336", "rental_uris": {"ios": "https://dc.lft.to/lastmile_qr_scan", "android": "https://dc.lft.to/lastmile_qr_scan"}}, {"name": "cc8388d1367a9ab9e86f9ab8bd8cd91b", "type": "electric_scooter", "lat": 38.884150166666664, "is_reserved": 0, "lon": -76.97606966666666, "fusion_lon": 0.0, "is_disabled": 0, "fusion_lat": 0.0, "bike_id": "cc8388d1367a9ab9e86f9ab8bd8cd91b", "rental_uris": {"ios": "https://dc.lft.to/lastmile_qr_scan", "android": "https://dc.lft.to/lastmile_qr_scan"}}, {"name": "00ece3f281eacfece9a3daf561f0a147", "type": "electric_scooter", "lat": 38.9200775, "is_reserved": 0, "lon": -77.038947, "fusion_lon": 0.0, "is_disabled": 0, "fusion_lat": 0.0, "bike_id": "00ece3f281eacfece9a3daf561f0a147", "rental_uris": {"ios": "https://dc.lft.to/lastmile_qr_scan", "android": "https://dc.lft.to/lastmile_qr_scan"}}, {"name": "b3728c509ac561e0ceb9df86b7745a02", "type": "electric_scooter", "lat": 38.90367766666667, "is_reserved": 0, "lon": -77.0190085, "fusion_lon": 0.0, "is_disabled": 0, "fusion_lat": 0.0, "bike_id": "b3728c509ac561e0ceb9df86b7745a02", "rental_uris": {"ios": "https://dc.lft.to/lastmile_qr_scan", "android": "https://dc.lft.to/lastmile_qr_scan"}}, {"name": "15dce8bedb551a1dda1e84edbf6ea6ea", "type": "electric_scooter", "lat": 38.94048433333333, "is_reserved": 0, "lon": -77.09264266666666, "fusion_lon": 0.0, "is_disabled": 0, "fusion_lat": 0.0, "bike_id": "15dce8bedb551a1dda1e84edbf6ea6ea", "rental_uris": {"ios": "https://dc.lft.to/lastmile_qr_scan", "android": "https://dc.lft.to/lastmile_qr_scan"}}, {"name": "34ec4210b39acd7414336dd1b0aea977", "type": "electric_scooter", "lat": 38.86694683333333, "is_reserved": 0, "lon": -76.98710533333333, "fusion_lon": 0.0, "is_disabled": 0, "fusion_lat": 0.0, "bike_id": "34ec4210b39acd7414336dd1b0aea977", "rental_uris": {"ios": "https://dc.lft.to/lastmile_qr_scan", "android": "https://dc.lft.to/lastmile_qr_scan"}}, {"name": "1e6a6d8f340857ee766dd60796eea89b", "type": "electric_scooter", "lat": 38.97423333333333, "is_reserved": 0, "lon": -77.0151735, "fusion_lon": 0.0, "is_disabled": 0, "fusion_lat": 0.0, "bike_id": "1e6a6d8f340857ee766dd60796eea89b", "rental_uris": {"ios": "https://dc.lft.to/lastmile_qr_scan", "android": "https://dc.lft.to/lastmile_qr_scan"}}, {"name": "3dbbe330b1388b441d144be3f4bff835", "type": "electric_scooter", "lat": 38.84292533333333, "is_reserved": 0, "lon": -76.9994905, "fusion_lon": 0.0, "is_disabled": 0, "fusion_lat": 0.0, "bike_id": "3dbbe330b1388b441d144be3f4bff835", "rental_uris": {"ios": "https://dc.lft.to/lastmile_qr_scan", "android": "https://dc.lft.to/lastmile_qr_scan"}}, {"name": "eaacaf54f9b1859767cf5b36a33aa452", "type": "electric_scooter", "lat": 38.917473666666666, "is_reserved": 0, "lon": -77.00756216666667, "fusion_lon": 0.0, "is_disabled": 0, "fusion_lat": 0.0, "bike_id": "eaacaf54f9b1859767cf5b36a33aa452", "rental_uris": {"ios": "https://dc.lft.to/lastmile_qr_scan", "android": "https://dc.lft.to/lastmile_qr_scan"}}, {"name": "093f77cb6c194dbeb1d365c8abf324ba", "type": "electric_scooter", "lat": 38.907597, "is_reserved": 0, "lon": -77.0009355, "fusion_lon": 0.0, "is_disabled": 0, "fusion_lat": 0.0, "bike_id": "093f77cb6c194dbeb1d365c8abf324ba", "rental_uris": {"ios": "https://dc.lft.to/lastmile_qr_scan", "android": "https://dc.lft.to/lastmile_qr_scan"}}, {"name": "1f5a11864b81d320a23374f3e1b9a392", "type": "electric_scooter", "lat": 38.8968395, "is_reserved": 0, "lon": -76.9962385, "fusion_lon": 0.0, "is_disabled": 0, "fusion_lat": 0.0, "bike_id": "1f5a11864b81d320a23374f3e1b9a392", "rental_uris": {"ios": "https://dc.lft.to/lastmile_qr_scan", "android": "https://dc.lft.to/lastmile_qr_scan"}}, {"name": "81b384afe5100515a1e470bebeb71a47", "type": "electric_scooter", "lat": 38.901449, "is_reserved": 0, "lon": -77.0333675, "fusion_lon": 0.0, "is_disabled": 0, "fusion_lat": 0.0, "bike_id": "81b384afe5100515a1e470bebeb71a47", "rental_uris": {"ios": "https://dc.lft.to/lastmile_qr_scan", "android": "https://dc.lft.to/lastmile_qr_scan"}}, {"name": "cd70ad3cbcebf1775280e4e2ff29080f", "type": "electric_scooter", "lat": 38.9036015, "is_reserved": 0, "lon": -77.02942166666666, "fusion_lon": 0.0, "is_disabled": 0, "fusion_lat": 0.0, "bike_id": "cd70ad3cbcebf1775280e4e2ff29080f", "rental_uris": {"ios": "https://dc.lft.to/lastmile_qr_scan", "android": "https://dc.lft.to/lastmile_qr_scan"}}, {"name": "a78d1ac7026961a6af16d3aae970a4be", "type": "electric_bike", "lat": 38.898911, "is_reserved": 0, "lon": -77.0217795, "fusion_lon": 0.0, "is_disabled": 0, "fusion_lat": 0.0, "bike_id": "a78d1ac7026961a6af16d3aae970a4be", "rental_uris": {"ios": "https://dc.lft.to/lastmile_qr_scan", "android": "https://dc.lft.to/lastmile_qr_scan"}}, {"name": "787a35e2ae6c8902e429b98f9d5d9162", "type": "electric_scooter", "lat": 38.89227916666667, "is_reserved": 0, "lon": -77.02576966666666, "fusion_lon": 0.0, "is_disabled": 0, "fusion_lat": 0.0, "bike_id": "787a35e2ae6c8902e429b98f9d5d9162", "rental_uris": {"ios": "https://dc.lft.to/lastmile_qr_scan", "android": "https://dc.lft.to/lastmile_qr_scan"}}, {"name": "f2bca28e27f4bc299ba692d2c85a483e", "type": "electric_scooter", "lat": 38.90283483333333, "is_reserved": 0, "lon": -77.0406915, "fusion_lon": 0.0, "is_disabled": 0, "fusion_lat": 0.0, "bike_id": "f2bca28e27f4bc299ba692d2c85a483e", "rental_uris": {"ios": "https://dc.lft.to/lastmile_qr_scan", "android": "https://dc.lft.to/lastmile_qr_scan"}}, {"name": "75839d79f3e5a2f4ffcb3448d0e66fab", "type": "electric_scooter", "lat": 38.896360666666666, "is_reserved": 0, "lon": -77.02961533333334, "fusion_lon": 0.0, "is_disabled": 0, "fusion_lat": 0.0, "bike_id": "75839d79f3e5a2f4ffcb3448d0e66fab", "rental_uris": {"ios": "https://dc.lft.to/lastmile_qr_scan", "android": "https://dc.lft.to/lastmile_qr_scan"}}, {"name": "3bed8f3df653a7e0317da1b6ac98b7a1", "type": "electric_bike", "lat": 38.865950833333336, "is_reserved": 0, "lon": -76.93227366666666, "fusion_lon": 0.0, "is_disabled": 0, "fusion_lat": 0.0, "bike_id": "3bed8f3df653a7e0317da1b6ac98b7a1", "rental_uris": {"ios": "https://dc.lft.to/lastmile_qr_scan", "android": "https://dc.lft.to/lastmile_qr_scan"}}, {"name": "98712860168c31e5482c3665455a1373", "type": "electric_scooter", "lat": 38.9064295, "is_reserved": 0, "lon": -77.0250235, "fusion_lon": 0.0, "is_disabled": 0, "fusion_lat": 0.0, "bike_id": "98712860168c31e5482c3665455a1373", "rental_uris": {"ios": "https://dc.lft.to/lastmile_qr_scan", "android": "https://dc.lft.to/lastmile_qr_scan"}}, {"name": "987ee70b591bc46b527cb9728a72434d", "type": "electric_scooter", "lat": 38.88594283333333, "is_reserved": 0, "lon": -76.95259133333333, "fusion_lon": 0.0, "is_disabled": 0, "fusion_lat": 0.0, "bike_id": "987ee70b591bc46b527cb9728a72434d", "rental_uris": {"ios": "https://dc.lft.to/lastmile_qr_scan", "android": "https://dc.lft.to/lastmile_qr_scan"}}, {"name": "794fe48a8cf3aa39547661179a54b370", "type": "electric_bike", "lat": 38.85221933333333, "is_reserved": 0, "lon": -77.12956783333334, "fusion_lon": 0.0, "is_disabled": 0, "fusion_lat": 0.0, "bike_id": "794fe48a8cf3aa39547661179a54b370", "rental_uris": {"ios": "https://dc.lft.to/lastmile_qr_scan", "android": "https://dc.lft.to/lastmile_qr_scan"}}, {"name": "66ec72b6ea2cb5aa4d422ee7a56b98e9", "type": "electric_scooter", "lat": 38.8971945, "is_reserved": 0, "lon": -77.02747683333334, "fusion_lon": 0.0, "is_disabled": 0, "fusion_lat": 0.0, "bike_id": "66ec72b6ea2cb5aa4d422ee7a56b98e9", "rental_uris": {"ios": "https://dc.lft.to/lastmile_qr_scan", "android": "https://dc.lft.to/lastmile_qr_scan"}}, {"name": "24a3273deb26fbf5a7f56f45b5b96ae0", "type": "electric_scooter", "lat": 38.93948016666667, "is_reserved": 0, "lon": -77.03270433333333, "fusion_lon": 0.0, "is_disabled": 0, "fusion_lat": 0.0, "bike_id": "24a3273deb26fbf5a7f56f45b5b96ae0", "rental_uris": {"ios": "https://dc.lft.to/lastmile_qr_scan", "android": "https://dc.lft.to/lastmile_qr_scan"}}, {"name": "841b4445fcf18f524642098ff1879784", "type": "electric_scooter", "lat": 38.9274915, "is_reserved": 0, "lon": -77.05392666666667, "fusion_lon": 0.0, "is_disabled": 0, "fusion_lat": 0.0, "bike_id": "841b4445fcf18f524642098ff1879784", "rental_uris": {"ios": "https://dc.lft.to/lastmile_qr_scan", "android": "https://dc.lft.to/lastmile_qr_scan"}}, {"name": "9776c17d989d5c28d6f6981f01607131", "type": "electric_scooter", "lat": 38.9249015, "is_reserved": 0, "lon": -77.02711166666667, "fusion_lon": 0.0, "is_disabled": 0, "fusion_lat": 0.0, "bike_id": "9776c17d989d5c28d6f6981f01607131", "rental_uris": {"ios": "https://dc.lft.to/lastmile_qr_scan", "android": "https://dc.lft.to/lastmile_qr_scan"}}, {"name": "8e99361269cc5a4efb658b3bd2287fdf", "type": "electric_bike", "lat": 38.80692416666667, "is_reserved": 0, "lon": -77.05975533333333, "fusion_lon": 0.0, "is_disabled": 0, "fusion_lat": 0.0, "bike_id": "8e99361269cc5a4efb658b3bd2287fdf", "rental_uris": {"ios": "https://dc.lft.to/lastmile_qr_scan", "android": "https://dc.lft.to/lastmile_qr_scan"}}, {"name": "46bad3a359d4239b21ff3ad243226141", "type": "electric_scooter", "lat": 38.90052516666667, "is_reserved": 0, "lon": -77.00751116666666, "fusion_lon": 0.0, "is_disabled": 0, "fusion_lat": 0.0, "bike_id": "46bad3a359d4239b21ff3ad243226141", "rental_uris": {"ios": "https://dc.lft.to/lastmile_qr_scan", "android": "https://dc.lft.to/lastmile_qr_scan"}}, {"name": "cc2e01b0dbcd08af3572e2c822507571", "type": "electric_scooter", "lat": 38.901943333333335, "is_reserved": 0, "lon": -77.04797433333333, "fusion_lon": 0.0, "is_disabled": 0, "fusion_lat": 0.0, "bike_id": "cc2e01b0dbcd08af3572e2c822507571", "rental_uris": {"ios": "https://dc.lft.to/lastmile_qr_scan", "android": "https://dc.lft.to/lastmile_qr_scan"}}, {"name": "514da64f78a0ea8d79cd8e1386b14f2f", "type": "electric_scooter", "lat": 38.8831335, "is_reserved": 0, "lon": -77.0174645, "fusion_lon": 0.0, "is_disabled": 0, "fusion_lat": 0.0, "bike_id": "514da64f78a0ea8d79cd8e1386b14f2f", "rental_uris": {"ios": "https://dc.lft.to/lastmile_qr_scan", "android": "https://dc.lft.to/lastmile_qr_scan"}}, {"name": "1cc296a839901e040007dc19c4832ec2", "type": "electric_scooter", "lat": 38.93947883333333, "is_reserved": 0, "lon": -77.0327185, "fusion_lon": 0.0, "is_disabled": 0, "fusion_lat": 0.0, "bike_id": "1cc296a839901e040007dc19c4832ec2", "rental_uris": {"ios": "https://dc.lft.to/lastmile_qr_scan", "android": "https://dc.lft.to/lastmile_qr_scan"}}, {"name": "4b5faa109b2317fb17b7da90e9b70d27", "type": "electric_scooter", "lat": 38.922391166666664, "is_reserved": 0, "lon": -77.03517516666666, "fusion_lon": 0.0, "is_disabled": 0, "fusion_lat": 0.0, "bike_id": "4b5faa109b2317fb17b7da90e9b70d27", "rental_uris": {"ios": "https://dc.lft.to/lastmile_qr_scan", "android": "https://dc.lft.to/lastmile_qr_scan"}}, {"name": "7ed27f28e1ac1f32d8b120bb0712f5ca", "type": "electric_bike", "lat": 38.98464883333333, "is_reserved": 0, "lon": -76.955267, "fusion_lon": 0.0, "is_disabled": 0, "fusion_lat": 0.0, "bike_id": "7ed27f28e1ac1f32d8b120bb0712f5ca", "rental_uris": {"ios": "https://dc.lft.to/lastmile_qr_scan", "android": "https://dc.lft.to/lastmile_qr_scan"}}, {"name": "255c82b1dbdfd2b94b46b7a80eee4939", "type": "electric_scooter", "lat": 38.90384566666667, "is_reserved": 0, "lon": -77.0298605, "fusion_lon": 0.0, "is_disabled": 0, "fusion_lat": 0.0, "bike_id": "255c82b1dbdfd2b94b46b7a80eee4939", "rental_uris": {"ios": "https://dc.lft.to/lastmile_qr_scan", "android": "https://dc.lft.to/lastmile_qr_scan"}}, {"name": "c9f6c543426eb9d1c9d8455cb9a665b5", "type": "electric_scooter", "lat": 38.9195765, "is_reserved": 0, "lon": -77.032072, "fusion_lon": 0.0, "is_disabled": 0, "fusion_lat": 0.0, "bike_id": "c9f6c543426eb9d1c9d8455cb9a665b5", "rental_uris": {"ios": "https://dc.lft.to/lastmile_qr_scan", "android": "https://dc.lft.to/lastmile_qr_scan"}}, {"name": "71db5fd6b857fd2c17062541f184b0f6", "type": "electric_scooter", "lat": 38.896728333333336, "is_reserved": 0, "lon": -76.94725783333334, "fusion_lon": 0.0, "is_disabled": 0, "fusion_lat": 0.0, "bike_id": "71db5fd6b857fd2c17062541f184b0f6", "rental_uris": {"ios": "https://dc.lft.to/lastmile_qr_scan", "android": "https://dc.lft.to/lastmile_qr_scan"}}, {"name": "2399f5cb1b8754bf2574fd8a70070035", "type": "electric_scooter", "lat": 38.902519, "is_reserved": 0, "lon": -77.04346883333334, "fusion_lon": 0.0, "is_disabled": 0, "fusion_lat": 0.0, "bike_id": "2399f5cb1b8754bf2574fd8a70070035", "rental_uris": {"ios": "https://dc.lft.to/lastmile_qr_scan", "android": "https://dc.lft.to/lastmile_qr_scan"}}, {"name": "e8d715a06c490772c7bcc2b650cb7ccb", "type": "electric_scooter", "lat": 38.9164555, "is_reserved": 0, "lon": -77.0320555, "fusion_lon": 0.0, "is_disabled": 0, "fusion_lat": 0.0, "bike_id": "e8d715a06c490772c7bcc2b650cb7ccb", "rental_uris": {"ios": "https://dc.lft.to/lastmile_qr_scan", "android": "https://dc.lft.to/lastmile_qr_scan"}}, {"name": "11ae419c862c5660440f2c4c40db7631", "type": "electric_scooter", "lat": 38.916624, "is_reserved": 0, "lon": -77.00514083333333, "fusion_lon": 0.0, "is_disabled": 0, "fusion_lat": 0.0, "bike_id": "11ae419c862c5660440f2c4c40db7631", "rental_uris": {"ios": "https://dc.lft.to/lastmile_qr_scan", "android": "https://dc.lft.to/lastmile_qr_scan"}}, {"name": "4996f00376e28394f3335fa1f6a88653", "type": "electric_scooter", "lat": 38.89221583333333, "is_reserved": 0, "lon": -77.048638, "fusion_lon": 0.0, "is_disabled": 0, "fusion_lat": 0.0, "bike_id": "4996f00376e28394f3335fa1f6a88653", "rental_uris": {"ios": "https://dc.lft.to/lastmile_qr_scan", "android": "https://dc.lft.to/lastmile_qr_scan"}}, {"name": "f658d9ff97be1d1ab92e76726f268839", "type": "electric_scooter", "lat": 38.931527333333335, "is_reserved": 0, "lon": -77.0435865, "fusion_lon": 0.0, "is_disabled": 0, "fusion_lat": 0.0, "bike_id": "f658d9ff97be1d1ab92e76726f268839", "rental_uris": {"ios": "https://dc.lft.to/lastmile_qr_scan", "android": "https://dc.lft.to/lastmile_qr_scan"}}, {"name": "dd3419baab6224fbc022dae6a8e51af2", "type": "electric_scooter", "lat": 38.910373, "is_reserved": 0, "lon": -77.04417983333333, "fusion_lon": 0.0, "is_disabled": 0, "fusion_lat": 0.0, "bike_id": "dd3419baab6224fbc022dae6a8e51af2", "rental_uris": {"ios": "https://dc.lft.to/lastmile_qr_scan", "android": "https://dc.lft.to/lastmile_qr_scan"}}, {"name": "f9f51ee25380c9a5944b0a073466baaa", "type": "electric_scooter", "lat": 38.934953166666666, "is_reserved": 0, "lon": -77.028567, "fusion_lon": 0.0, "is_disabled": 0, "fusion_lat": 0.0, "bike_id": "f9f51ee25380c9a5944b0a073466baaa", "rental_uris": {"ios": "https://dc.lft.to/lastmile_qr_scan", "android": "https://dc.lft.to/lastmile_qr_scan"}}, {"name": "f3b85e3bdfdf0e4e4df842a6681e365d", "type": "electric_scooter", "lat": 38.88083316666667, "is_reserved": 0, "lon": -76.98531133333333, "fusion_lon": 0.0, "is_disabled": 0, "fusion_lat": 0.0, "bike_id": "f3b85e3bdfdf0e4e4df842a6681e365d", "rental_uris": {"ios": "https://dc.lft.to/lastmile_qr_scan", "android": "https://dc.lft.to/lastmile_qr_scan"}}, {"name": "712ee94afdc9933c0f13dd0b236502ef", "type": "electric_scooter", "lat": 38.900166, "is_reserved": 0, "lon": -76.9870225, "fusion_lon": 0.0, "is_disabled": 0, "fusion_lat": 0.0, "bike_id": "712ee94afdc9933c0f13dd0b236502ef", "rental_uris": {"ios": "https://dc.lft.to/lastmile_qr_scan", "android": "https://dc.lft.to/lastmile_qr_scan"}}, {"name": "fbfa93fcc6622bbe7d66b59c46eddfb5", "type": "electric_bike", "lat": 38.854305833333335, "is_reserved": 0, "lon": -76.9096465, "fusion_lon": 0.0, "is_disabled": 0, "fusion_lat": 0.0, "bike_id": "fbfa93fcc6622bbe7d66b59c46eddfb5", "rental_uris": {"ios": "https://dc.lft.to/lastmile_qr_scan", "android": "https://dc.lft.to/lastmile_qr_scan"}}, {"name": "55f428198b7be7a577d3b93e6c1de1b7", "type": "electric_scooter", "lat": 38.90330683333333, "is_reserved": 0, "lon": -77.03321016666666, "fusion_lon": 0.0, "is_disabled": 0, "fusion_lat": 0.0, "bike_id": "55f428198b7be7a577d3b93e6c1de1b7", "rental_uris": {"ios": "https://dc.lft.to/lastmile_qr_scan", "android": "https://dc.lft.to/lastmile_qr_scan"}}, {"name": "cb4df3331ba4207ea796b35080ae69c3", "type": "electric_scooter", "lat": 38.91191516666667, "is_reserved": 0, "lon": -77.045451, "fusion_lon": 0.0, "is_disabled": 0, "fusion_lat": 0.0, "bike_id": "cb4df3331ba4207ea796b35080ae69c3", "rental_uris": {"ios": "https://dc.lft.to/lastmile_qr_scan", "android": "https://dc.lft.to/lastmile_qr_scan"}}, {"name": "6804b67342ef8aeb8fbfdc3ebe28c8fb", "type": "electric_bike", "lat": 38.8105415, "is_reserved": 0, "lon": -77.08507266666666, "fusion_lon": 0.0, "is_disabled": 0, "fusion_lat": 0.0, "bike_id": "6804b67342ef8aeb8fbfdc3ebe28c8fb", "rental_uris": {"ios": "https://dc.lft.to/lastmile_qr_scan", "android": "https://dc.lft.to/lastmile_qr_scan"}}, {"name": "d137ff43ca891e63caf04af6c5b449af", "type": "electric_scooter", "lat": 38.8860075, "is_reserved": 0, "lon": -77.00566133333334, "fusion_lon": 0.0, "is_disabled": 0, "fusion_lat": 0.0, "bike_id": "d137ff43ca891e63caf04af6c5b449af", "rental_uris": {"ios": "https://dc.lft.to/lastmile_qr_scan", "android": "https://dc.lft.to/lastmile_qr_scan"}}, {"name": "42842c0accddde03a9dac11142d220b2", "type": "electric_scooter", "lat": 38.84427566666667, "is_reserved": 0, "lon": -76.997777, "fusion_lon": 0.0, "is_disabled": 0, "fusion_lat": 0.0, "bike_id": "42842c0accddde03a9dac11142d220b2", "rental_uris": {"ios": "https://dc.lft.to/lastmile_qr_scan", "android": "https://dc.lft.to/lastmile_qr_scan"}}, {"name": "85b846a4da296fb0d4f74a2c6b248c55", "type": "electric_bike", "lat": 38.911762333333336, "is_reserved": 0, "lon": -77.00276783333334, "fusion_lon": 0.0, "is_disabled": 0, "fusion_lat": 0.0, "bike_id": "85b846a4da296fb0d4f74a2c6b248c55", "rental_uris": {"ios": "https://dc.lft.to/lastmile_qr_scan", "android": "https://dc.lft.to/lastmile_qr_scan"}}, {"name": "ddf3c929f0bac85c9e037fe8f6b9c7ed", "type": "electric_scooter", "lat": 38.92907266666667, "is_reserved": 0, "lon": -77.021645, "fusion_lon": 0.0, "is_disabled": 0, "fusion_lat": 0.0, "bike_id": "ddf3c929f0bac85c9e037fe8f6b9c7ed", "rental_uris": {"ios": "https://dc.lft.to/lastmile_qr_scan", "android": "https://dc.lft.to/lastmile_qr_scan"}}, {"name": "67c31f21d39eb6b896c4f929b3e16f2e", "type": "electric_bike", "lat": 39.02647916666667, "is_reserved": 0, "lon": -77.1254595, "fusion_lon": 0.0, "is_disabled": 0, "fusion_lat": 0.0, "bike_id": "67c31f21d39eb6b896c4f929b3e16f2e", "rental_uris": {"ios": "https://dc.lft.to/lastmile_qr_scan", "android": "https://dc.lft.to/lastmile_qr_scan"}}, {"name": "121af5d271b832758e5575999c8945c6", "type": "electric_bike", "lat": 39.000789833333336, "is_reserved": 0, "lon": -76.88778683333334, "fusion_lon": 0.0, "is_disabled": 0, "fusion_lat": 0.0, "bike_id": "121af5d271b832758e5575999c8945c6", "rental_uris": {"ios": "https://dc.lft.to/lastmile_qr_scan", "android": "https://dc.lft.to/lastmile_qr_scan"}}, {"name": "b50e2c745f9b0fa60093da412869018d", "type": "electric_scooter", "lat": 38.9417305, "is_reserved": 0, "lon": -77.0413005, "fusion_lon": 0.0, "is_disabled": 0, "fusion_lat": 0.0, "bike_id": "b50e2c745f9b0fa60093da412869018d", "rental_uris": {"ios": "https://dc.lft.to/lastmile_qr_scan", "android": "https://dc.lft.to/lastmile_qr_scan"}}, {"name": "4f5e31e1c060b09a680cf943689d4a0b", "type": "electric_scooter", "lat": 38.903698166666665, "is_reserved": 0, "lon": -77.01104366666667, "fusion_lon": 0.0, "is_disabled": 0, "fusion_lat": 0.0, "bike_id": "4f5e31e1c060b09a680cf943689d4a0b", "rental_uris": {"ios": "https://dc.lft.to/lastmile_qr_scan", "android": "https://dc.lft.to/lastmile_qr_scan"}}, {"name": "772bb603c309f7cf94d284d01b18b452", "type": "electric_scooter", "lat": 38.90331183333333, "is_reserved": 0, "lon": -77.06648766666666, "fusion_lon": 0.0, "is_disabled": 0, "fusion_lat": 0.0, "bike_id": "772bb603c309f7cf94d284d01b18b452", "rental_uris": {"ios": "https://dc.lft.to/lastmile_qr_scan", "android": "https://dc.lft.to/lastmile_qr_scan"}}, {"name": "82d1c1e4191d5a345619038957ca6c0e", "type": "electric_scooter", "lat": 38.910351166666665, "is_reserved": 0, "lon": -77.0481365, "fusion_lon": 0.0, "is_disabled": 0, "fusion_lat": 0.0, "bike_id": "82d1c1e4191d5a345619038957ca6c0e", "rental_uris": {"ios": "https://dc.lft.to/lastmile_qr_scan", "android": "https://dc.lft.to/lastmile_qr_scan"}}, {"name": "767b0a6be042d69754cb9d575dca7697", "type": "electric_scooter", "lat": 38.89875033333333, "is_reserved": 0, "lon": -76.9315795, "fusion_lon": 0.0, "is_disabled": 0, "fusion_lat": 0.0, "bike_id": "767b0a6be042d69754cb9d575dca7697", "rental_uris": {"ios": "https://dc.lft.to/lastmile_qr_scan", "android": "https://dc.lft.to/lastmile_qr_scan"}}, {"name": "7e52c374102b395685e3289073fd593a", "type": "electric_scooter", "lat": 38.921466333333335, "is_reserved": 0, "lon": -77.0349255, "fusion_lon": 0.0, "is_disabled": 0, "fusion_lat": 0.0, "bike_id": "7e52c374102b395685e3289073fd593a", "rental_uris": {"ios": "https://dc.lft.to/lastmile_qr_scan", "android": "https://dc.lft.to/lastmile_qr_scan"}}, {"name": "46f84ae5b24f4b0ed3f0f3866f6d93ab", "type": "electric_scooter", "lat": 38.856297833333336, "is_reserved": 0, "lon": -76.9745395, "fusion_lon": 0.0, "is_disabled": 0, "fusion_lat": 0.0, "bike_id": "46f84ae5b24f4b0ed3f0f3866f6d93ab", "rental_uris": {"ios": "https://dc.lft.to/lastmile_qr_scan", "android": "https://dc.lft.to/lastmile_qr_scan"}}, {"name": "1adb5f4cabbce150fe5cd877e674955a", "type": "electric_scooter", "lat": 38.929002833333335, "is_reserved": 0, "lon": -77.05450783333333, "fusion_lon": 0.0, "is_disabled": 0, "fusion_lat": 0.0, "bike_id": "1adb5f4cabbce150fe5cd877e674955a", "rental_uris": {"ios": "https://dc.lft.to/lastmile_qr_scan", "android": "https://dc.lft.to/lastmile_qr_scan"}}, {"name": "4e629800ff5c2911a3bab746a7079a0d", "type": "electric_bike", "lat": 38.956284, "is_reserved": 0, "lon": -76.96662733333334, "fusion_lon": 0.0, "is_disabled": 0, "fusion_lat": 0.0, "bike_id": "4e629800ff5c2911a3bab746a7079a0d", "rental_uris": {"ios": "https://dc.lft.to/lastmile_qr_scan", "android": "https://dc.lft.to/lastmile_qr_scan"}}, {"name": "3bfdacb4035ce96bd087e839ca768879", "type": "electric_scooter", "lat": 38.9194385, "is_reserved": 0, "lon": -77.0134765, "fusion_lon": 0.0, "is_disabled": 0, "fusion_lat": 0.0, "bike_id": "3bfdacb4035ce96bd087e839ca768879", "rental_uris": {"ios": "https://dc.lft.to/lastmile_qr_scan", "android": "https://dc.lft.to/lastmile_qr_scan"}}, {"name": "e1a374473c6e46ef67474e80133525b0", "type": "electric_scooter", "lat": 38.911891833333335, "is_reserved": 0, "lon": -76.99620416666667, "fusion_lon": 0.0, "is_disabled": 0, "fusion_lat": 0.0, "bike_id": "e1a374473c6e46ef67474e80133525b0", "rental_uris": {"ios": "https://dc.lft.to/lastmile_qr_scan", "android": "https://dc.lft.to/lastmile_qr_scan"}}, {"name": "386737de561234694520e4e6bfc5592f", "type": "electric_bike", "lat": 38.85534033333333, "is_reserved": 0, "lon": -77.113279, "fusion_lon": 0.0, "is_disabled": 0, "fusion_lat": 0.0, "bike_id": "386737de561234694520e4e6bfc5592f", "rental_uris": {"ios": "https://dc.lft.to/lastmile_qr_scan", "android": "https://dc.lft.to/lastmile_qr_scan"}}, {"name": "de0d936a1f6c61a60c719fa84ff6a5d7", "type": "electric_scooter", "lat": 38.925741333333335, "is_reserved": 0, "lon": -77.03935766666666, "fusion_lon": 0.0, "is_disabled": 0, "fusion_lat": 0.0, "bike_id": "de0d936a1f6c61a60c719fa84ff6a5d7", "rental_uris": {"ios": "https://dc.lft.to/lastmile_qr_scan", "android": "https://dc.lft.to/lastmile_qr_scan"}}, {"name": "ac59a95da7e3f8c37953ae5edbd41fc7", "type": "electric_scooter", "lat": 38.91635733333333, "is_reserved": 0, "lon": -77.03165383333334, "fusion_lon": 0.0, "is_disabled": 0, "fusion_lat": 0.0, "bike_id": "ac59a95da7e3f8c37953ae5edbd41fc7", "rental_uris": {"ios": "https://dc.lft.to/lastmile_qr_scan", "android": "https://dc.lft.to/lastmile_qr_scan"}}, {"name": "62a3eed15c3408ee403c68342d40221c", "type": "electric_scooter", "lat": 38.912806333333336, "is_reserved": 0, "lon": -77.03843316666666, "fusion_lon": 0.0, "is_disabled": 0, "fusion_lat": 0.0, "bike_id": "62a3eed15c3408ee403c68342d40221c", "rental_uris": {"ios": "https://dc.lft.to/lastmile_qr_scan", "android": "https://dc.lft.to/lastmile_qr_scan"}}, {"name": "33c9d5806d7ea9a8cb5fbfeab336e951", "type": "electric_scooter", "lat": 38.91009583333334, "is_reserved": 0, "lon": -76.99396, "fusion_lon": 0.0, "is_disabled": 0, "fusion_lat": 0.0, "bike_id": "33c9d5806d7ea9a8cb5fbfeab336e951", "rental_uris": {"ios": "https://dc.lft.to/lastmile_qr_scan", "android": "https://dc.lft.to/lastmile_qr_scan"}}, {"name": "20e25345d9db0e3f437dd977fb7a4898", "type": "electric_scooter", "lat": 38.91709383333333, "is_reserved": 0, "lon": -77.0310675, "fusion_lon": 0.0, "is_disabled": 0, "fusion_lat": 0.0, "bike_id": "20e25345d9db0e3f437dd977fb7a4898", "rental_uris": {"ios": "https://dc.lft.to/lastmile_qr_scan", "android": "https://dc.lft.to/lastmile_qr_scan"}}, {"name": "36bc627ee770e85c7bbb9cc10fdf7c4d", "type": "electric_scooter", "lat": 38.883365, "is_reserved": 0, "lon": -77.017499, "fusion_lon": 0.0, "is_disabled": 0, "fusion_lat": 0.0, "bike_id": "36bc627ee770e85c7bbb9cc10fdf7c4d", "rental_uris": {"ios": "https://dc.lft.to/lastmile_qr_scan", "android": "https://dc.lft.to/lastmile_qr_scan"}}, {"name": "7c41d374becaf6a9d4c29bd3679e4aab", "type": "electric_scooter", "lat": 38.903634833333335, "is_reserved": 0, "lon": -77.03177466666666, "fusion_lon": 0.0, "is_disabled": 0, "fusion_lat": 0.0, "bike_id": "7c41d374becaf6a9d4c29bd3679e4aab", "rental_uris": {"ios": "https://dc.lft.to/lastmile_qr_scan", "android": "https://dc.lft.to/lastmile_qr_scan"}}, {"name": "f216ba0907ea628ae43163498387cac7", "type": "electric_scooter", "lat": 38.89659616666667, "is_reserved": 0, "lon": -77.02935966666666, "fusion_lon": 0.0, "is_disabled": 0, "fusion_lat": 0.0, "bike_id": "f216ba0907ea628ae43163498387cac7", "rental_uris": {"ios": "https://dc.lft.to/lastmile_qr_scan", "android": "https://dc.lft.to/lastmile_qr_scan"}}, {"name": "4f61e2ecf98cf0177e468f77a26b50f1", "type": "electric_scooter", "lat": 38.90554816666667, "is_reserved": 0, "lon": -77.03250766666666, "fusion_lon": 0.0, "is_disabled": 0, "fusion_lat": 0.0, "bike_id": "4f61e2ecf98cf0177e468f77a26b50f1", "rental_uris": {"ios": "https://dc.lft.to/lastmile_qr_scan", "android": "https://dc.lft.to/lastmile_qr_scan"}}, {"name": "84ac4a6154f356836254802e5469b4ee", "type": "electric_scooter", "lat": 38.94440483333333, "is_reserved": 0, "lon": -77.0635165, "fusion_lon": 0.0, "is_disabled": 0, "fusion_lat": 0.0, "bike_id": "84ac4a6154f356836254802e5469b4ee", "rental_uris": {"ios": "https://dc.lft.to/lastmile_qr_scan", "android": "https://dc.lft.to/lastmile_qr_scan"}}, {"name": "4bb0b8b8e3639bfaf3306266babe63ad", "type": "electric_scooter", "lat": 38.89799933333333, "is_reserved": 0, "lon": -77.02942783333333, "fusion_lon": 0.0, "is_disabled": 0, "fusion_lat": 0.0, "bike_id": "4bb0b8b8e3639bfaf3306266babe63ad", "rental_uris": {"ios": "https://dc.lft.to/lastmile_qr_scan", "android": "https://dc.lft.to/lastmile_qr_scan"}}, {"name": "c337c9586e11220cfd47f1933c932d55", "type": "electric_scooter", "lat": 38.910535833333334, "is_reserved": 0, "lon": -77.01688933333334, "fusion_lon": 0.0, "is_disabled": 0, "fusion_lat": 0.0, "bike_id": "c337c9586e11220cfd47f1933c932d55", "rental_uris": {"ios": "https://dc.lft.to/lastmile_qr_scan", "android": "https://dc.lft.to/lastmile_qr_scan"}}, {"name": "ac27e5dbcd9952130cafa56f763bb92e", "type": "electric_scooter", "lat": 38.9198125, "is_reserved": 0, "lon": -77.04145466666667, "fusion_lon": 0.0, "is_disabled": 0, "fusion_lat": 0.0, "bike_id": "ac27e5dbcd9952130cafa56f763bb92e", "rental_uris": {"ios": "https://dc.lft.to/lastmile_qr_scan", "android": "https://dc.lft.to/lastmile_qr_scan"}}, {"name": "6a4343e495725e6cd24da6357866ff15", "type": "electric_scooter", "lat": 38.842924833333335, "is_reserved": 0, "lon": -76.99946683333333, "fusion_lon": 0.0, "is_disabled": 0, "fusion_lat": 0.0, "bike_id": "6a4343e495725e6cd24da6357866ff15", "rental_uris": {"ios": "https://dc.lft.to/lastmile_qr_scan", "android": "https://dc.lft.to/lastmile_qr_scan"}}, {"name": "e11bc64f8a0cf44c243caf9e6c9576c2", "type": "electric_scooter", "lat": 38.9330065, "is_reserved": 0, "lon": -77.0279855, "fusion_lon": 0.0, "is_disabled": 0, "fusion_lat": 0.0, "bike_id": "e11bc64f8a0cf44c243caf9e6c9576c2", "rental_uris": {"ios": "https://dc.lft.to/lastmile_qr_scan", "android": "https://dc.lft.to/lastmile_qr_scan"}}, {"name": "cdd5212941125ee22496a40aa9efb882", "type": "electric_scooter", "lat": 38.903978333333335, "is_reserved": 0, "lon": -77.04201866666666, "fusion_lon": 0.0, "is_disabled": 0, "fusion_lat": 0.0, "bike_id": "cdd5212941125ee22496a40aa9efb882", "rental_uris": {"ios": "https://dc.lft.to/lastmile_qr_scan", "android": "https://dc.lft.to/lastmile_qr_scan"}}, {"name": "44ec1de1cc9b77c55af771e479551646", "type": "electric_scooter", "lat": 38.917120833333335, "is_reserved": 0, "lon": -77.0322725, "fusion_lon": 0.0, "is_disabled": 0, "fusion_lat": 0.0, "bike_id": "44ec1de1cc9b77c55af771e479551646", "rental_uris": {"ios": "https://dc.lft.to/lastmile_qr_scan", "android": "https://dc.lft.to/lastmile_qr_scan"}}, {"name": "cd82b7a4caff4b257a09730fd75f9565", "type": "electric_scooter", "lat": 38.961124833333336, "is_reserved": 0, "lon": -77.02806516666666, "fusion_lon": 0.0, "is_disabled": 0, "fusion_lat": 0.0, "bike_id": "cd82b7a4caff4b257a09730fd75f9565", "rental_uris": {"ios": "https://dc.lft.to/lastmile_qr_scan", "android": "https://dc.lft.to/lastmile_qr_scan"}}, {"name": "843138c810d5a15dc30f91e4a76d18d9", "type": "electric_bike", "lat": 38.858013, "is_reserved": 0, "lon": -76.987483, "fusion_lon": 0.0, "is_disabled": 0, "fusion_lat": 0.0, "bike_id": "843138c810d5a15dc30f91e4a76d18d9", "rental_uris": {"ios": "https://dc.lft.to/lastmile_qr_scan", "android": "https://dc.lft.to/lastmile_qr_scan"}}, {"name": "21809e0661a07e13a8bf2ecc0dd18d05", "type": "electric_scooter", "lat": 38.920327666666665, "is_reserved": 0, "lon": -77.01116083333334, "fusion_lon": 0.0, "is_disabled": 0, "fusion_lat": 0.0, "bike_id": "21809e0661a07e13a8bf2ecc0dd18d05", "rental_uris": {"ios": "https://dc.lft.to/lastmile_qr_scan", "android": "https://dc.lft.to/lastmile_qr_scan"}}, {"name": "c4de23c35b275f0264e5901899e47afb", "type": "electric_scooter", "lat": 38.941283166666665, "is_reserved": 0, "lon": -77.01537933333333, "fusion_lon": 0.0, "is_disabled": 0, "fusion_lat": 0.0, "bike_id": "c4de23c35b275f0264e5901899e47afb", "rental_uris": {"ios": "https://dc.lft.to/lastmile_qr_scan", "android": "https://dc.lft.to/lastmile_qr_scan"}}, {"name": "ae6d14f28922764f8fe2e2e32c6127a8", "type": "electric_bike", "lat": 38.87135266666667, "is_reserved": 0, "lon": -76.9373295, "fusion_lon": 0.0, "is_disabled": 0, "fusion_lat": 0.0, "bike_id": "ae6d14f28922764f8fe2e2e32c6127a8", "rental_uris": {"ios": "https://dc.lft.to/lastmile_qr_scan", "android": "https://dc.lft.to/lastmile_qr_scan"}}, {"name": "3cd6243970a2b0097a6655ab9b77da7f", "type": "electric_scooter", "lat": 38.898118833333335, "is_reserved": 0, "lon": -77.03286333333334, "fusion_lon": 0.0, "is_disabled": 0, "fusion_lat": 0.0, "bike_id": "3cd6243970a2b0097a6655ab9b77da7f", "rental_uris": {"ios": "https://dc.lft.to/lastmile_qr_scan", "android": "https://dc.lft.to/lastmile_qr_scan"}}, {"name": "aba204c3b30fdb198efce7a87b9e373c", "type": "electric_scooter", "lat": 38.9158935, "is_reserved": 0, "lon": -76.98380566666667, "fusion_lon": 0.0, "is_disabled": 0, "fusion_lat": 0.0, "bike_id": "aba204c3b30fdb198efce7a87b9e373c", "rental_uris": {"ios": "https://dc.lft.to/lastmile_qr_scan", "android": "https://dc.lft.to/lastmile_qr_scan"}}, {"name": "9057d51557c2dc6ad50c18eb26558bd9", "type": "electric_scooter", "lat": 38.905052, "is_reserved": 0, "lon": -77.02590316666667, "fusion_lon": 0.0, "is_disabled": 0, "fusion_lat": 0.0, "bike_id": "9057d51557c2dc6ad50c18eb26558bd9", "rental_uris": {"ios": "https://dc.lft.to/lastmile_qr_scan", "android": "https://dc.lft.to/lastmile_qr_scan"}}, {"name": "67b48d405f18df6f57e9821459e0d152", "type": "electric_scooter", "lat": 38.901446666666665, "is_reserved": 0, "lon": -77.04354, "fusion_lon": 0.0, "is_disabled": 0, "fusion_lat": 0.0, "bike_id": "67b48d405f18df6f57e9821459e0d152", "rental_uris": {"ios": "https://dc.lft.to/lastmile_qr_scan", "android": "https://dc.lft.to/lastmile_qr_scan"}}, {"name": "f8aed0ddad5e178b1ab36c60ee178431", "type": "electric_scooter", "lat": 38.9237285, "is_reserved": 0, "lon": -77.0195445, "fusion_lon": 0.0, "is_disabled": 0, "fusion_lat": 0.0, "bike_id": "f8aed0ddad5e178b1ab36c60ee178431", "rental_uris": {"ios": "https://dc.lft.to/lastmile_qr_scan", "android": "https://dc.lft.to/lastmile_qr_scan"}}, {"name": "0755f959336b5828f47705de0aa0dedb", "type": "electric_scooter", "lat": 38.92988033333334, "is_reserved": 0, "lon": -77.07945216666667, "fusion_lon": 0.0, "is_disabled": 0, "fusion_lat": 0.0, "bike_id": "0755f959336b5828f47705de0aa0dedb", "rental_uris": {"ios": "https://dc.lft.to/lastmile_qr_scan", "android": "https://dc.lft.to/lastmile_qr_scan"}}, {"name": "ac74eb41574b6282afff31b1173e90a6", "type": "electric_scooter", "lat": 38.924840833333334, "is_reserved": 0, "lon": -77.02710516666667, "fusion_lon": 0.0, "is_disabled": 0, "fusion_lat": 0.0, "bike_id": "ac74eb41574b6282afff31b1173e90a6", "rental_uris": {"ios": "https://dc.lft.to/lastmile_qr_scan", "android": "https://dc.lft.to/lastmile_qr_scan"}}, {"name": "c5481a29ff01a619739c8fce69b3fa88", "type": "electric_bike", "lat": 38.83238683333333, "is_reserved": 0, "lon": -76.94623266666666, "fusion_lon": 0.0, "is_disabled": 0, "fusion_lat": 0.0, "bike_id": "c5481a29ff01a619739c8fce69b3fa88", "rental_uris": {"ios": "https://dc.lft.to/lastmile_qr_scan", "android": "https://dc.lft.to/lastmile_qr_scan"}}, {"name": "e13b0926eaaa73667d12982f97ffffc7", "type": "electric_scooter", "lat": 38.91385483333333, "is_reserved": 0, "lon": -77.01795216666666, "fusion_lon": 0.0, "is_disabled": 0, "fusion_lat": 0.0, "bike_id": "e13b0926eaaa73667d12982f97ffffc7", "rental_uris": {"ios": "https://dc.lft.to/lastmile_qr_scan", "android": "https://dc.lft.to/lastmile_qr_scan"}}, {"name": "abf6ccb2588cbcb52cce2954cee71501", "type": "electric_scooter", "lat": 38.9026465, "is_reserved": 0, "lon": -77.061056, "fusion_lon": 0.0, "is_disabled": 0, "fusion_lat": 0.0, "bike_id": "abf6ccb2588cbcb52cce2954cee71501", "rental_uris": {"ios": "https://dc.lft.to/lastmile_qr_scan", "android": "https://dc.lft.to/lastmile_qr_scan"}}, {"name": "442cc110ddfdaf8f0d91e068b156faaf", "type": "electric_scooter", "lat": 38.898295166666664, "is_reserved": 0, "lon": -77.0074275, "fusion_lon": 0.0, "is_disabled": 0, "fusion_lat": 0.0, "bike_id": "442cc110ddfdaf8f0d91e068b156faaf", "rental_uris": {"ios": "https://dc.lft.to/lastmile_qr_scan", "android": "https://dc.lft.to/lastmile_qr_scan"}}, {"name": "020484112951138e90c70db58437dbf5", "type": "electric_bike", "lat": 38.96893083333333, "is_reserved": 0, "lon": -76.95656666666666, "fusion_lon": 0.0, "is_disabled": 0, "fusion_lat": 0.0, "bike_id": "020484112951138e90c70db58437dbf5", "rental_uris": {"ios": "https://dc.lft.to/lastmile_qr_scan", "android": "https://dc.lft.to/lastmile_qr_scan"}}, {"name": "289dc2fd8c0476cbc4f88b68f00e5f9e", "type": "electric_bike", "lat": 38.9221105, "is_reserved": 0, "lon": -76.9882975, "fusion_lon": 0.0, "is_disabled": 0, "fusion_lat": 0.0, "bike_id": "289dc2fd8c0476cbc4f88b68f00e5f9e", "rental_uris": {"ios": "https://dc.lft.to/lastmile_qr_scan", "android": "https://dc.lft.to/lastmile_qr_scan"}}, {"name": "e05662ab5a51699f4f8133f48cf5ecd5", "type": "electric_scooter", "lat": 38.918058, "is_reserved": 0, "lon": -77.0343625, "fusion_lon": 0.0, "is_disabled": 0, "fusion_lat": 0.0, "bike_id": "e05662ab5a51699f4f8133f48cf5ecd5", "rental_uris": {"ios": "https://dc.lft.to/lastmile_qr_scan", "android": "https://dc.lft.to/lastmile_qr_scan"}}, {"name": "6dfd7346da545a07c4e9d195506bc06c", "type": "electric_scooter", "lat": 38.90378033333333, "is_reserved": 0, "lon": -77.04172683333333, "fusion_lon": 0.0, "is_disabled": 0, "fusion_lat": 0.0, "bike_id": "6dfd7346da545a07c4e9d195506bc06c", "rental_uris": {"ios": "https://dc.lft.to/lastmile_qr_scan", "android": "https://dc.lft.to/lastmile_qr_scan"}}, {"name": "7a457405150207d4c7faabe96e255d9c", "type": "electric_scooter", "lat": 38.913734, "is_reserved": 0, "lon": -77.019993, "fusion_lon": 0.0, "is_disabled": 0, "fusion_lat": 0.0, "bike_id": "7a457405150207d4c7faabe96e255d9c", "rental_uris": {"ios": "https://dc.lft.to/lastmile_qr_scan", "android": "https://dc.lft.to/lastmile_qr_scan"}}, {"name": "177ecfcaa6519943bc839fbc9b1ec61b", "type": "electric_scooter", "lat": 38.842929166666664, "is_reserved": 0, "lon": -76.9994945, "fusion_lon": 0.0, "is_disabled": 0, "fusion_lat": 0.0, "bike_id": "177ecfcaa6519943bc839fbc9b1ec61b", "rental_uris": {"ios": "https://dc.lft.to/lastmile_qr_scan", "android": "https://dc.lft.to/lastmile_qr_scan"}}, {"name": "f276c556ad299781e27a024169cb42d0", "type": "electric_scooter", "lat": 38.93332233333334, "is_reserved": 0, "lon": -77.03271583333333, "fusion_lon": 0.0, "is_disabled": 0, "fusion_lat": 0.0, "bike_id": "f276c556ad299781e27a024169cb42d0", "rental_uris": {"ios": "https://dc.lft.to/lastmile_qr_scan", "android": "https://dc.lft.to/lastmile_qr_scan"}}, {"name": "eedd34b5be73bc0e6dae2e214cb4105b", "type": "electric_scooter", "lat": 38.915508, "is_reserved": 0, "lon": -77.03937916666666, "fusion_lon": 0.0, "is_disabled": 0, "fusion_lat": 0.0, "bike_id": "eedd34b5be73bc0e6dae2e214cb4105b", "rental_uris": {"ios": "https://dc.lft.to/lastmile_qr_scan", "android": "https://dc.lft.to/lastmile_qr_scan"}}, {"name": "304359e471b8e2c31f6bd6313a88abbc", "type": "electric_scooter", "lat": 38.901108, "is_reserved": 0, "lon": -77.042315, "fusion_lon": 0.0, "is_disabled": 0, "fusion_lat": 0.0, "bike_id": "304359e471b8e2c31f6bd6313a88abbc", "rental_uris": {"ios": "https://dc.lft.to/lastmile_qr_scan", "android": "https://dc.lft.to/lastmile_qr_scan"}}, {"name": "c14a659d00c5254dfa51a3b3b7f5d37e", "type": "electric_scooter", "lat": 38.920308166666665, "is_reserved": 0, "lon": -77.0387435, "fusion_lon": 0.0, "is_disabled": 0, "fusion_lat": 0.0, "bike_id": "c14a659d00c5254dfa51a3b3b7f5d37e", "rental_uris": {"ios": "https://dc.lft.to/lastmile_qr_scan", "android": "https://dc.lft.to/lastmile_qr_scan"}}, {"name": "ca25378f766f316835aaf77c2a970047", "type": "electric_scooter", "lat": 38.925182, "is_reserved": 0, "lon": -77.033223, "fusion_lon": 0.0, "is_disabled": 0, "fusion_lat": 0.0, "bike_id": "ca25378f766f316835aaf77c2a970047", "rental_uris": {"ios": "https://dc.lft.to/lastmile_qr_scan", "android": "https://dc.lft.to/lastmile_qr_scan"}}, {"name": "0d1730952574cbb5045486f578b9b0b3", "type": "electric_scooter", "lat": 38.892260666666665, "is_reserved": 0, "lon": -77.043342, "fusion_lon": 0.0, "is_disabled": 0, "fusion_lat": 0.0, "bike_id": "0d1730952574cbb5045486f578b9b0b3", "rental_uris": {"ios": "https://dc.lft.to/lastmile_qr_scan", "android": "https://dc.lft.to/lastmile_qr_scan"}}, {"name": "aa127aae71e3caedccc8e102cdcb704e", "type": "electric_scooter", "lat": 38.92515733333333, "is_reserved": 0, "lon": -77.00176216666667, "fusion_lon": 0.0, "is_disabled": 0, "fusion_lat": 0.0, "bike_id": "aa127aae71e3caedccc8e102cdcb704e", "rental_uris": {"ios": "https://dc.lft.to/lastmile_qr_scan", "android": "https://dc.lft.to/lastmile_qr_scan"}}, {"name": "d63e18338eda245487171a4e15d8d2fa", "type": "electric_scooter", "lat": 38.90617966666667, "is_reserved": 0, "lon": -77.074898, "fusion_lon": 0.0, "is_disabled": 0, "fusion_lat": 0.0, "bike_id": "d63e18338eda245487171a4e15d8d2fa", "rental_uris": {"ios": "https://dc.lft.to/lastmile_qr_scan", "android": "https://dc.lft.to/lastmile_qr_scan"}}, {"name": "183f4e38b426c0430ffb5c1537e873b4", "type": "electric_scooter", "lat": 38.89607733333333, "is_reserved": 0, "lon": -77.00927116666666, "fusion_lon": 0.0, "is_disabled": 0, "fusion_lat": 0.0, "bike_id": "183f4e38b426c0430ffb5c1537e873b4", "rental_uris": {"ios": "https://dc.lft.to/lastmile_qr_scan", "android": "https://dc.lft.to/lastmile_qr_scan"}}, {"name": "6f725f4aacc55d0113314c57033a9fe0", "type": "electric_bike", "lat": 39.052002, "is_reserved": 0, "lon": -77.10916116666667, "fusion_lon": 0.0, "is_disabled": 0, "fusion_lat": 0.0, "bike_id": "6f725f4aacc55d0113314c57033a9fe0", "rental_uris": {"ios": "https://dc.lft.to/lastmile_qr_scan", "android": "https://dc.lft.to/lastmile_qr_scan"}}, {"name": "75ee3fcda95f91ca18f99a55b7a22136", "type": "electric_scooter", "lat": 38.92364966666667, "is_reserved": 0, "lon": -77.05838166666666, "fusion_lon": 0.0, "is_disabled": 0, "fusion_lat": 0.0, "bike_id": "75ee3fcda95f91ca18f99a55b7a22136", "rental_uris": {"ios": "https://dc.lft.to/lastmile_qr_scan", "android": "https://dc.lft.to/lastmile_qr_scan"}}, {"name": "518dc56b91390d3b0ec794f33753fa8e", "type": "electric_scooter", "lat": 38.89029933333333, "is_reserved": 0, "lon": -76.937515, "fusion_lon": 0.0, "is_disabled": 0, "fusion_lat": 0.0, "bike_id": "518dc56b91390d3b0ec794f33753fa8e", "rental_uris": {"ios": "https://dc.lft.to/lastmile_qr_scan", "android": "https://dc.lft.to/lastmile_qr_scan"}}, {"name": "fa6aedd8ac8786303a8d44274fd3365c", "type": "electric_scooter", "lat": 38.8666015, "is_reserved": 0, "lon": -76.98883816666667, "fusion_lon": 0.0, "is_disabled": 0, "fusion_lat": 0.0, "bike_id": "fa6aedd8ac8786303a8d44274fd3365c", "rental_uris": {"ios": "https://dc.lft.to/lastmile_qr_scan", "android": "https://dc.lft.to/lastmile_qr_scan"}}, {"name": "a9e52018eb2a68ccb80a9fd8be9723ea", "type": "electric_scooter", "lat": 38.91861266666667, "is_reserved": 0, "lon": -77.0320415, "fusion_lon": 0.0, "is_disabled": 0, "fusion_lat": 0.0, "bike_id": "a9e52018eb2a68ccb80a9fd8be9723ea", "rental_uris": {"ios": "https://dc.lft.to/lastmile_qr_scan", "android": "https://dc.lft.to/lastmile_qr_scan"}}, {"name": "de672749c85c81634b4031063adbbb0d", "type": "electric_scooter", "lat": 38.9228005, "is_reserved": 0, "lon": -77.03665933333333, "fusion_lon": 0.0, "is_disabled": 0, "fusion_lat": 0.0, "bike_id": "de672749c85c81634b4031063adbbb0d", "rental_uris": {"ios": "https://dc.lft.to/lastmile_qr_scan", "android": "https://dc.lft.to/lastmile_qr_scan"}}, {"name": "8892dd4e5e3c2d6c5e5f4ccd53fdeac1", "type": "electric_scooter", "lat": 38.90573766666667, "is_reserved": 0, "lon": -77.0400785, "fusion_lon": 0.0, "is_disabled": 0, "fusion_lat": 0.0, "bike_id": "8892dd4e5e3c2d6c5e5f4ccd53fdeac1", "rental_uris": {"ios": "https://dc.lft.to/lastmile_qr_scan", "android": "https://dc.lft.to/lastmile_qr_scan"}}, {"name": "0e03ec15fdc1d98cdf89e8c5037bf6d9", "type": "electric_scooter", "lat": 38.921912666666664, "is_reserved": 0, "lon": -77.04250083333334, "fusion_lon": 0.0, "is_disabled": 0, "fusion_lat": 0.0, "bike_id": "0e03ec15fdc1d98cdf89e8c5037bf6d9", "rental_uris": {"ios": "https://dc.lft.to/lastmile_qr_scan", "android": "https://dc.lft.to/lastmile_qr_scan"}}, {"name": "db27a23adb2aab24bd9c947d8fc01d4f", "type": "electric_scooter", "lat": 38.949588166666665, "is_reserved": 0, "lon": -77.02720366666667, "fusion_lon": 0.0, "is_disabled": 0, "fusion_lat": 0.0, "bike_id": "db27a23adb2aab24bd9c947d8fc01d4f", "rental_uris": {"ios": "https://dc.lft.to/lastmile_qr_scan", "android": "https://dc.lft.to/lastmile_qr_scan"}}, {"name": "542b7b144de4456dfe07cbcfd57e4b41", "type": "electric_scooter", "lat": 38.89902566666667, "is_reserved": 0, "lon": -77.04488333333333, "fusion_lon": 0.0, "is_disabled": 0, "fusion_lat": 0.0, "bike_id": "542b7b144de4456dfe07cbcfd57e4b41", "rental_uris": {"ios": "https://dc.lft.to/lastmile_qr_scan", "android": "https://dc.lft.to/lastmile_qr_scan"}}, {"name": "167cf4221966e3955e1c2f92bdefb58e", "type": "electric_scooter", "lat": 38.91042616666667, "is_reserved": 0, "lon": -77.02809716666667, "fusion_lon": 0.0, "is_disabled": 0, "fusion_lat": 0.0, "bike_id": "167cf4221966e3955e1c2f92bdefb58e", "rental_uris": {"ios": "https://dc.lft.to/lastmile_qr_scan", "android": "https://dc.lft.to/lastmile_qr_scan"}}, {"name": "951a8b0939929de0e57b66a561f8cda4", "type": "electric_scooter", "lat": 38.9056795, "is_reserved": 0, "lon": -77.04367, "fusion_lon": 0.0, "is_disabled": 0, "fusion_lat": 0.0, "bike_id": "951a8b0939929de0e57b66a561f8cda4", "rental_uris": {"ios": "https://dc.lft.to/lastmile_qr_scan", "android": "https://dc.lft.to/lastmile_qr_scan"}}, {"name": "af9cbe3963fbe4a7418cb8966b1560dd", "type": "electric_scooter", "lat": 38.92899283333333, "is_reserved": 0, "lon": -77.03272516666667, "fusion_lon": 0.0, "is_disabled": 0, "fusion_lat": 0.0, "bike_id": "af9cbe3963fbe4a7418cb8966b1560dd", "rental_uris": {"ios": "https://dc.lft.to/lastmile_qr_scan", "android": "https://dc.lft.to/lastmile_qr_scan"}}, {"name": "9b849f49b60984dedcfed1e3d774da68", "type": "electric_scooter", "lat": 38.9057295, "is_reserved": 0, "lon": -77.02186683333333, "fusion_lon": 0.0, "is_disabled": 0, "fusion_lat": 0.0, "bike_id": "9b849f49b60984dedcfed1e3d774da68", "rental_uris": {"ios": "https://dc.lft.to/lastmile_qr_scan", "android": "https://dc.lft.to/lastmile_qr_scan"}}, {"name": "60ee446dab7f58f3f6b0d53a026d7eda", "type": "electric_scooter", "lat": 38.925752333333335, "is_reserved": 0, "lon": -77.07311016666667, "fusion_lon": 0.0, "is_disabled": 0, "fusion_lat": 0.0, "bike_id": "60ee446dab7f58f3f6b0d53a026d7eda", "rental_uris": {"ios": "https://dc.lft.to/lastmile_qr_scan", "android": "https://dc.lft.to/lastmile_qr_scan"}}, {"name": "90da534627641a897d65c26229c2f409", "type": "electric_scooter", "lat": 38.921489333333334, "is_reserved": 0, "lon": -77.03659383333333, "fusion_lon": 0.0, "is_disabled": 0, "fusion_lat": 0.0, "bike_id": "90da534627641a897d65c26229c2f409", "rental_uris": {"ios": "https://dc.lft.to/lastmile_qr_scan", "android": "https://dc.lft.to/lastmile_qr_scan"}}, {"name": "fecf9f32fdaa5cef33589fe4e8d63711", "type": "electric_scooter", "lat": 38.921811166666664, "is_reserved": 0, "lon": -77.04283216666667, "fusion_lon": 0.0, "is_disabled": 0, "fusion_lat": 0.0, "bike_id": "fecf9f32fdaa5cef33589fe4e8d63711", "rental_uris": {"ios": "https://dc.lft.to/lastmile_qr_scan", "android": "https://dc.lft.to/lastmile_qr_scan"}}, {"name": "9abd0ddd198fd78ea7fb6541f42f7145", "type": "electric_scooter", "lat": 38.915670166666665, "is_reserved": 0, "lon": -77.03194133333334, "fusion_lon": 0.0, "is_disabled": 0, "fusion_lat": 0.0, "bike_id": "9abd0ddd198fd78ea7fb6541f42f7145", "rental_uris": {"ios": "https://dc.lft.to/lastmile_qr_scan", "android": "https://dc.lft.to/lastmile_qr_scan"}}, {"name": "6245234d37790d2ffdd9d6bd3fb120c9", "type": "electric_scooter", "lat": 38.94272183333333, "is_reserved": 0, "lon": -77.02499666666667, "fusion_lon": 0.0, "is_disabled": 0, "fusion_lat": 0.0, "bike_id": "6245234d37790d2ffdd9d6bd3fb120c9", "rental_uris": {"ios": "https://dc.lft.to/lastmile_qr_scan", "android": "https://dc.lft.to/lastmile_qr_scan"}}, {"name": "1cd00f8fe617ff20365f7c8de68377ec", "type": "electric_scooter", "lat": 38.916648333333335, "is_reserved": 0, "lon": -77.03701633333333, "fusion_lon": 0.0, "is_disabled": 0, "fusion_lat": 0.0, "bike_id": "1cd00f8fe617ff20365f7c8de68377ec", "rental_uris": {"ios": "https://dc.lft.to/lastmile_qr_scan", "android": "https://dc.lft.to/lastmile_qr_scan"}}, {"name": "82ebded1e0adc9c6f3239a434386cfb9", "type": "electric_scooter", "lat": 38.880391, "is_reserved": 0, "lon": -76.927234, "fusion_lon": 0.0, "is_disabled": 0, "fusion_lat": 0.0, "bike_id": "82ebded1e0adc9c6f3239a434386cfb9", "rental_uris": {"ios": "https://dc.lft.to/lastmile_qr_scan", "android": "https://dc.lft.to/lastmile_qr_scan"}}, {"name": "36179d8fb22025ae53ce0d62b40605c3", "type": "electric_scooter", "lat": 38.9068255, "is_reserved": 0, "lon": -76.978011, "fusion_lon": 0.0, "is_disabled": 0, "fusion_lat": 0.0, "bike_id": "36179d8fb22025ae53ce0d62b40605c3", "rental_uris": {"ios": "https://dc.lft.to/lastmile_qr_scan", "android": "https://dc.lft.to/lastmile_qr_scan"}}, {"name": "fa71860df1e1781ed494264822219032", "type": "electric_scooter", "lat": 38.906129166666666, "is_reserved": 0, "lon": -77.06514816666666, "fusion_lon": 0.0, "is_disabled": 0, "fusion_lat": 0.0, "bike_id": "fa71860df1e1781ed494264822219032", "rental_uris": {"ios": "https://dc.lft.to/lastmile_qr_scan", "android": "https://dc.lft.to/lastmile_qr_scan"}}, {"name": "7d4407965f0b4ba1424c7641c00fd8aa", "type": "electric_scooter", "lat": 38.9111295, "is_reserved": 0, "lon": -77.049294, "fusion_lon": 0.0, "is_disabled": 0, "fusion_lat": 0.0, "bike_id": "7d4407965f0b4ba1424c7641c00fd8aa", "rental_uris": {"ios": "https://dc.lft.to/lastmile_qr_scan", "android": "https://dc.lft.to/lastmile_qr_scan"}}, {"name": "5ad0720aeec5137ae90b08da2b56ceaf", "type": "electric_bike", "lat": 38.924634833333336, "is_reserved": 0, "lon": -77.20835583333333, "fusion_lon": 0.0, "is_disabled": 0, "fusion_lat": 0.0, "bike_id": "5ad0720aeec5137ae90b08da2b56ceaf", "rental_uris": {"ios": "https://dc.lft.to/lastmile_qr_scan", "android": "https://dc.lft.to/lastmile_qr_scan"}}, {"name": "e16a897ff34784ebf2bbd0de52889767", "type": "electric_scooter", "lat": 38.9110305, "is_reserved": 0, "lon": -77.04673316666667, "fusion_lon": 0.0, "is_disabled": 0, "fusion_lat": 0.0, "bike_id": "e16a897ff34784ebf2bbd0de52889767", "rental_uris": {"ios": "https://dc.lft.to/lastmile_qr_scan", "android": "https://dc.lft.to/lastmile_qr_scan"}}, {"name": "372c631b5d106e381bc4926277861ffc", "type": "electric_scooter", "lat": 38.93422283333334, "is_reserved": 0, "lon": -77.0340785, "fusion_lon": 0.0, "is_disabled": 0, "fusion_lat": 0.0, "bike_id": "372c631b5d106e381bc4926277861ffc", "rental_uris": {"ios": "https://dc.lft.to/lastmile_qr_scan", "android": "https://dc.lft.to/lastmile_qr_scan"}}, {"name": "83ba3ef95a42055bc8e22490b0500a0c", "type": "electric_scooter", "lat": 38.90829516666667, "is_reserved": 0, "lon": -76.99699583333333, "fusion_lon": 0.0, "is_disabled": 0, "fusion_lat": 0.0, "bike_id": "83ba3ef95a42055bc8e22490b0500a0c", "rental_uris": {"ios": "https://dc.lft.to/lastmile_qr_scan", "android": "https://dc.lft.to/lastmile_qr_scan"}}, {"name": "ce8076168b00d88259e441b8844f7b9f", "type": "electric_bike", "lat": 38.891899, "is_reserved": 0, "lon": -77.12264466666667, "fusion_lon": 0.0, "is_disabled": 0, "fusion_lat": 0.0, "bike_id": "ce8076168b00d88259e441b8844f7b9f", "rental_uris": {"ios": "https://dc.lft.to/lastmile_qr_scan", "android": "https://dc.lft.to/lastmile_qr_scan"}}, {"name": "f1295758c6d11739ec1b0f815cc9e1a7", "type": "electric_bike", "lat": 38.95545533333333, "is_reserved": 0, "lon": -76.93544683333333, "fusion_lon": 0.0, "is_disabled": 0, "fusion_lat": 0.0, "bike_id": "f1295758c6d11739ec1b0f815cc9e1a7", "rental_uris": {"ios": "https://dc.lft.to/lastmile_qr_scan", "android": "https://dc.lft.to/lastmile_qr_scan"}}, {"name": "d9592dc8d471144df64d4e01f87828b6", "type": "electric_scooter", "lat": 38.89818966666667, "is_reserved": 0, "lon": -77.03340033333333, "fusion_lon": 0.0, "is_disabled": 0, "fusion_lat": 0.0, "bike_id": "d9592dc8d471144df64d4e01f87828b6", "rental_uris": {"ios": "https://dc.lft.to/lastmile_qr_scan", "android": "https://dc.lft.to/lastmile_qr_scan"}}, {"name": "2bb6b230144d186cd03d8d008ebaf52e", "type": "electric_scooter", "lat": 38.92439616666667, "is_reserved": 0, "lon": -77.03407, "fusion_lon": 0.0, "is_disabled": 0, "fusion_lat": 0.0, "bike_id": "2bb6b230144d186cd03d8d008ebaf52e", "rental_uris": {"ios": "https://dc.lft.to/lastmile_qr_scan", "android": "https://dc.lft.to/lastmile_qr_scan"}}, {"name": "e448c80a309400219d5ef6a24c6d1772", "type": "electric_scooter", "lat": 38.92845483333333, "is_reserved": 0, "lon": -77.0138, "fusion_lon": 0.0, "is_disabled": 0, "fusion_lat": 0.0, "bike_id": "e448c80a309400219d5ef6a24c6d1772", "rental_uris": {"ios": "https://dc.lft.to/lastmile_qr_scan", "android": "https://dc.lft.to/lastmile_qr_scan"}}, {"name": "e6a0c4ac06fd3c31deff51e998ed3191", "type": "electric_scooter", "lat": 38.934305333333334, "is_reserved": 0, "lon": -77.03999933333333, "fusion_lon": 0.0, "is_disabled": 0, "fusion_lat": 0.0, "bike_id": "e6a0c4ac06fd3c31deff51e998ed3191", "rental_uris": {"ios": "https://dc.lft.to/lastmile_qr_scan", "android": "https://dc.lft.to/lastmile_qr_scan"}}, {"name": "c51b01a228ac5b9be90f79fd30cc638d", "type": "electric_scooter", "lat": 38.9235635, "is_reserved": 0, "lon": -77.052431, "fusion_lon": 0.0, "is_disabled": 0, "fusion_lat": 0.0, "bike_id": "c51b01a228ac5b9be90f79fd30cc638d", "rental_uris": {"ios": "https://dc.lft.to/lastmile_qr_scan", "android": "https://dc.lft.to/lastmile_qr_scan"}}, {"name": "229a0510e7266c2d6775d7dfaca66613", "type": "electric_scooter", "lat": 38.8984235, "is_reserved": 0, "lon": -77.00761733333333, "fusion_lon": 0.0, "is_disabled": 0, "fusion_lat": 0.0, "bike_id": "229a0510e7266c2d6775d7dfaca66613", "rental_uris": {"ios": "https://dc.lft.to/lastmile_qr_scan", "android": "https://dc.lft.to/lastmile_qr_scan"}}, {"name": "7b2323393497d42c081965616b379641", "type": "electric_scooter", "lat": 38.923088, "is_reserved": 0, "lon": -77.03661233333334, "fusion_lon": 0.0, "is_disabled": 0, "fusion_lat": 0.0, "bike_id": "7b2323393497d42c081965616b379641", "rental_uris": {"ios": "https://dc.lft.to/lastmile_qr_scan", "android": "https://dc.lft.to/lastmile_qr_scan"}}, {"name": "43a16df5df5e5b65bb64585caf21fecd", "type": "electric_scooter", "lat": 38.897309, "is_reserved": 0, "lon": -77.02696266666666, "fusion_lon": 0.0, "is_disabled": 0, "fusion_lat": 0.0, "bike_id": "43a16df5df5e5b65bb64585caf21fecd", "rental_uris": {"ios": "https://dc.lft.to/lastmile_qr_scan", "android": "https://dc.lft.to/lastmile_qr_scan"}}, {"name": "194aad9391415f91e559a34c11b1ddac", "type": "electric_scooter", "lat": 38.8947955, "is_reserved": 0, "lon": -76.94874066666667, "fusion_lon": 0.0, "is_disabled": 0, "fusion_lat": 0.0, "bike_id": "194aad9391415f91e559a34c11b1ddac", "rental_uris": {"ios": "https://dc.lft.to/lastmile_qr_scan", "android": "https://dc.lft.to/lastmile_qr_scan"}}, {"name": "9a7defb701c6496ab26075e3348f539a", "type": "electric_scooter", "lat": 38.897294, "is_reserved": 0, "lon": -77.03271833333334, "fusion_lon": 0.0, "is_disabled": 0, "fusion_lat": 0.0, "bike_id": "9a7defb701c6496ab26075e3348f539a", "rental_uris": {"ios": "https://dc.lft.to/lastmile_qr_scan", "android": "https://dc.lft.to/lastmile_qr_scan"}}, {"name": "c21717602c6fc01f67c8c44eeeed7b11", "type": "electric_scooter", "lat": 38.88511966666667, "is_reserved": 0, "lon": -77.00577416666667, "fusion_lon": 0.0, "is_disabled": 0, "fusion_lat": 0.0, "bike_id": "c21717602c6fc01f67c8c44eeeed7b11", "rental_uris": {"ios": "https://dc.lft.to/lastmile_qr_scan", "android": "https://dc.lft.to/lastmile_qr_scan"}}, {"name": "c2effbff6218dcdbdd99a36c007f14ba", "type": "electric_scooter", "lat": 38.89774416666667, "is_reserved": 0, "lon": -77.010967, "fusion_lon": 0.0, "is_disabled": 0, "fusion_lat": 0.0, "bike_id": "c2effbff6218dcdbdd99a36c007f14ba", "rental_uris": {"ios": "https://dc.lft.to/lastmile_qr_scan", "android": "https://dc.lft.to/lastmile_qr_scan"}}, {"name": "a999fc9f304d6f65d962e0894b405eb8", "type": "electric_scooter", "lat": 38.90109566666667, "is_reserved": 0, "lon": -77.01919983333333, "fusion_lon": 0.0, "is_disabled": 0, "fusion_lat": 0.0, "bike_id": "a999fc9f304d6f65d962e0894b405eb8", "rental_uris": {"ios": "https://dc.lft.to/lastmile_qr_scan", "android": "https://dc.lft.to/lastmile_qr_scan"}}, {"name": "360abca6080c1ed7a387a6dbbd6fa2e4", "type": "electric_scooter", "lat": 38.905904, "is_reserved": 0, "lon": -77.05108333333334, "fusion_lon": 0.0, "is_disabled": 0, "fusion_lat": 0.0, "bike_id": "360abca6080c1ed7a387a6dbbd6fa2e4", "rental_uris": {"ios": "https://dc.lft.to/lastmile_qr_scan", "android": "https://dc.lft.to/lastmile_qr_scan"}}, {"name": "50af68d436402db06c1c070468e71b02", "type": "electric_scooter", "lat": 38.93712166666667, "is_reserved": 0, "lon": -77.02934966666666, "fusion_lon": 0.0, "is_disabled": 0, "fusion_lat": 0.0, "bike_id": "50af68d436402db06c1c070468e71b02", "rental_uris": {"ios": "https://dc.lft.to/lastmile_qr_scan", "android": "https://dc.lft.to/lastmile_qr_scan"}}, {"name": "da793d3c2effd568a6d35006ee6c7c74", "type": "electric_scooter", "lat": 38.900349166666665, "is_reserved": 0, "lon": -77.00201883333334, "fusion_lon": 0.0, "is_disabled": 0, "fusion_lat": 0.0, "bike_id": "da793d3c2effd568a6d35006ee6c7c74", "rental_uris": {"ios": "https://dc.lft.to/lastmile_qr_scan", "android": "https://dc.lft.to/lastmile_qr_scan"}}, {"name": "4230bf0dde587dc42a65b3523976e6b6", "type": "electric_scooter", "lat": 38.917049, "is_reserved": 0, "lon": -77.03129616666666, "fusion_lon": 0.0, "is_disabled": 0, "fusion_lat": 0.0, "bike_id": "4230bf0dde587dc42a65b3523976e6b6", "rental_uris": {"ios": "https://dc.lft.to/lastmile_qr_scan", "android": "https://dc.lft.to/lastmile_qr_scan"}}, {"name": "d15f357381ea51f6e2fb78b12412b0b9", "type": "electric_bike", "lat": 38.83146833333333, "is_reserved": 0, "lon": -77.113079, "fusion_lon": 0.0, "is_disabled": 0, "fusion_lat": 0.0, "bike_id": "d15f357381ea51f6e2fb78b12412b0b9", "rental_uris": {"ios": "https://dc.lft.to/lastmile_qr_scan", "android": "https://dc.lft.to/lastmile_qr_scan"}}, {"name": "b442b7c42d3f8b9d587cc73edd90fdee", "type": "electric_scooter", "lat": 38.93970266666667, "is_reserved": 0, "lon": -77.0326355, "fusion_lon": 0.0, "is_disabled": 0, "fusion_lat": 0.0, "bike_id": "b442b7c42d3f8b9d587cc73edd90fdee", "rental_uris": {"ios": "https://dc.lft.to/lastmile_qr_scan", "android": "https://dc.lft.to/lastmile_qr_scan"}}, {"name": "461b7c67c29288ad7b12d934ec3f5373", "type": "electric_scooter", "lat": 38.89219666666666, "is_reserved": 0, "lon": -77.03086233333333, "fusion_lon": 0.0, "is_disabled": 0, "fusion_lat": 0.0, "bike_id": "461b7c67c29288ad7b12d934ec3f5373", "rental_uris": {"ios": "https://dc.lft.to/lastmile_qr_scan", "android": "https://dc.lft.to/lastmile_qr_scan"}}, {"name": "667f4ef35d5758a21ab357713e199668", "type": "electric_bike", "lat": 38.8372205, "is_reserved": 0, "lon": -76.99766116666666, "fusion_lon": 0.0, "is_disabled": 0, "fusion_lat": 0.0, "bike_id": "667f4ef35d5758a21ab357713e199668", "rental_uris": {"ios": "https://dc.lft.to/lastmile_qr_scan", "android": "https://dc.lft.to/lastmile_qr_scan"}}, {"name": "465af35c2a55d4c3c40cd91af4916c6a", "type": "electric_bike", "lat": 38.950716166666666, "is_reserved": 0, "lon": -77.01205516666667, "fusion_lon": 0.0, "is_disabled": 0, "fusion_lat": 0.0, "bike_id": "465af35c2a55d4c3c40cd91af4916c6a", "rental_uris": {"ios": "https://dc.lft.to/lastmile_qr_scan", "android": "https://dc.lft.to/lastmile_qr_scan"}}, {"name": "0b7667fa907770e16e4c04f18816e411", "type": "electric_scooter", "lat": 38.88542016666667, "is_reserved": 0, "lon": -76.98166083333334, "fusion_lon": 0.0, "is_disabled": 0, "fusion_lat": 0.0, "bike_id": "0b7667fa907770e16e4c04f18816e411", "rental_uris": {"ios": "https://dc.lft.to/lastmile_qr_scan", "android": "https://dc.lft.to/lastmile_qr_scan"}}, {"name": "cd6e3eb2d39e1e346a5d5417071edf65", "type": "electric_scooter", "lat": 38.8974045, "is_reserved": 0, "lon": -77.01053733333333, "fusion_lon": 0.0, "is_disabled": 0, "fusion_lat": 0.0, "bike_id": "cd6e3eb2d39e1e346a5d5417071edf65", "rental_uris": {"ios": "https://dc.lft.to/lastmile_qr_scan", "android": "https://dc.lft.to/lastmile_qr_scan"}}, {"name": "999b1eb57ec17e28dbb38745d616ba32", "type": "electric_scooter", "lat": 38.92729516666667, "is_reserved": 0, "lon": -77.0056735, "fusion_lon": 0.0, "is_disabled": 0, "fusion_lat": 0.0, "bike_id": "999b1eb57ec17e28dbb38745d616ba32", "rental_uris": {"ios": "https://dc.lft.to/lastmile_qr_scan", "android": "https://dc.lft.to/lastmile_qr_scan"}}, {"name": "d3f7cf3f8ab7ab3e40a7f851b4985987", "type": "electric_bike", "lat": 38.8279605, "is_reserved": 0, "lon": -77.009063, "fusion_lon": 0.0, "is_disabled": 0, "fusion_lat": 0.0, "bike_id": "d3f7cf3f8ab7ab3e40a7f851b4985987", "rental_uris": {"ios": "https://dc.lft.to/lastmile_qr_scan", "android": "https://dc.lft.to/lastmile_qr_scan"}}, {"name": "74a54f7b6497ca9e241f079a900e1949", "type": "electric_bike", "lat": 39.094589, "is_reserved": 0, "lon": -77.14995883333333, "fusion_lon": 0.0, "is_disabled": 0, "fusion_lat": 0.0, "bike_id": "74a54f7b6497ca9e241f079a900e1949", "rental_uris": {"ios": "https://dc.lft.to/lastmile_qr_scan", "android": "https://dc.lft.to/lastmile_qr_scan"}}, {"name": "fc5a340c4745f8d1ca752b7da3cc5b8f", "type": "electric_bike", "lat": 38.840607, "is_reserved": 0, "lon": -77.06406766666667, "fusion_lon": 0.0, "is_disabled": 0, "fusion_lat": 0.0, "bike_id": "fc5a340c4745f8d1ca752b7da3cc5b8f", "rental_uris": {"ios": "https://dc.lft.to/lastmile_qr_scan", "android": "https://dc.lft.to/lastmile_qr_scan"}}, {"name": "ecbca40314c51077647023446adcb5ce", "type": "electric_scooter", "lat": 38.89848283333333, "is_reserved": 0, "lon": -76.94481916666666, "fusion_lon": 0.0, "is_disabled": 0, "fusion_lat": 0.0, "bike_id": "ecbca40314c51077647023446adcb5ce", "rental_uris": {"ios": "https://dc.lft.to/lastmile_qr_scan", "android": "https://dc.lft.to/lastmile_qr_scan"}}, {"name": "c5c13f052efdaf94727dad7c2f8f6162", "type": "electric_scooter", "lat": 38.92151483333333, "is_reserved": 0, "lon": -77.0353065, "fusion_lon": 0.0, "is_disabled": 0, "fusion_lat": 0.0, "bike_id": "c5c13f052efdaf94727dad7c2f8f6162", "rental_uris": {"ios": "https://dc.lft.to/lastmile_qr_scan", "android": "https://dc.lft.to/lastmile_qr_scan"}}, {"name": "1ac16cd426f237b287ae4326b2fab1e6", "type": "electric_bike", "lat": 38.8627265, "is_reserved": 0, "lon": -77.06354116666667, "fusion_lon": 0.0, "is_disabled": 0, "fusion_lat": 0.0, "bike_id": "1ac16cd426f237b287ae4326b2fab1e6", "rental_uris": {"ios": "https://dc.lft.to/lastmile_qr_scan", "android": "https://dc.lft.to/lastmile_qr_scan"}}, {"name": "934b646a2c6cca3b3120070347e3f9a3", "type": "electric_bike", "lat": 38.86755616666667, "is_reserved": 0, "lon": -76.94532966666667, "fusion_lon": 0.0, "is_disabled": 0, "fusion_lat": 0.0, "bike_id": "934b646a2c6cca3b3120070347e3f9a3", "rental_uris": {"ios": "https://dc.lft.to/lastmile_qr_scan", "android": "https://dc.lft.to/lastmile_qr_scan"}}, {"name": "8584dae18ef842175e0cef2b3d8f92c0", "type": "electric_scooter", "lat": 38.909761, "is_reserved": 0, "lon": -77.04192516666667, "fusion_lon": 0.0, "is_disabled": 0, "fusion_lat": 0.0, "bike_id": "8584dae18ef842175e0cef2b3d8f92c0", "rental_uris": {"ios": "https://dc.lft.to/lastmile_qr_scan", "android": "https://dc.lft.to/lastmile_qr_scan"}}, {"name": "43e0478de8e9e709ad0eabeac88dfd7d", "type": "electric_scooter", "lat": 38.90334766666667, "is_reserved": 0, "lon": -77.03998133333333, "fusion_lon": 0.0, "is_disabled": 0, "fusion_lat": 0.0, "bike_id": "43e0478de8e9e709ad0eabeac88dfd7d", "rental_uris": {"ios": "https://dc.lft.to/lastmile_qr_scan", "android": "https://dc.lft.to/lastmile_qr_scan"}}, {"name": "0fb4ac44b932224cd6701ce2eec9c4ac", "type": "electric_scooter", "lat": 38.92751883333333, "is_reserved": 0, "lon": -77.02422166666666, "fusion_lon": 0.0, "is_disabled": 0, "fusion_lat": 0.0, "bike_id": "0fb4ac44b932224cd6701ce2eec9c4ac", "rental_uris": {"ios": "https://dc.lft.to/lastmile_qr_scan", "android": "https://dc.lft.to/lastmile_qr_scan"}}, {"name": "4fcaf114c674e7ca776e4f21e202c106", "type": "electric_scooter", "lat": 38.884561833333336, "is_reserved": 0, "lon": -77.00576483333333, "fusion_lon": 0.0, "is_disabled": 0, "fusion_lat": 0.0, "bike_id": "4fcaf114c674e7ca776e4f21e202c106", "rental_uris": {"ios": "https://dc.lft.to/lastmile_qr_scan", "android": "https://dc.lft.to/lastmile_qr_scan"}}, {"name": "bb9b4b3c46a68b966a309c1e78a0dec8", "type": "electric_scooter", "lat": 38.91801483333333, "is_reserved": 0, "lon": -77.0344245, "fusion_lon": 0.0, "is_disabled": 0, "fusion_lat": 0.0, "bike_id": "bb9b4b3c46a68b966a309c1e78a0dec8", "rental_uris": {"ios": "https://dc.lft.to/lastmile_qr_scan", "android": "https://dc.lft.to/lastmile_qr_scan"}}, {"name": "99be9e399586e3446b0c67cdb6ca771f", "type": "electric_scooter", "lat": 38.946369833333335, "is_reserved": 0, "lon": -77.01922716666667, "fusion_lon": 0.0, "is_disabled": 0, "fusion_lat": 0.0, "bike_id": "99be9e399586e3446b0c67cdb6ca771f", "rental_uris": {"ios": "https://dc.lft.to/lastmile_qr_scan", "android": "https://dc.lft.to/lastmile_qr_scan"}}, {"name": "0303398bf1b0082907a9f1ad46ba6068", "type": "electric_scooter", "lat": 38.89883833333333, "is_reserved": 0, "lon": -76.9317455, "fusion_lon": 0.0, "is_disabled": 0, "fusion_lat": 0.0, "bike_id": "0303398bf1b0082907a9f1ad46ba6068", "rental_uris": {"ios": "https://dc.lft.to/lastmile_qr_scan", "android": "https://dc.lft.to/lastmile_qr_scan"}}, {"name": "099a9c214f20cd7121b014a330b0b752", "type": "electric_scooter", "lat": 38.8961015, "is_reserved": 0, "lon": -77.04499683333333, "fusion_lon": 0.0, "is_disabled": 0, "fusion_lat": 0.0, "bike_id": "099a9c214f20cd7121b014a330b0b752", "rental_uris": {"ios": "https://dc.lft.to/lastmile_qr_scan", "android": "https://dc.lft.to/lastmile_qr_scan"}}, {"name": "7e05f4895c78a608e14cad4fb7d6e381", "type": "electric_scooter", "lat": 38.8940515, "is_reserved": 0, "lon": -76.9936645, "fusion_lon": 0.0, "is_disabled": 0, "fusion_lat": 0.0, "bike_id": "7e05f4895c78a608e14cad4fb7d6e381", "rental_uris": {"ios": "https://dc.lft.to/lastmile_qr_scan", "android": "https://dc.lft.to/lastmile_qr_scan"}}, {"name": "e3ebf41ed7888f91457c849e33f7fe16", "type": "electric_scooter", "lat": 38.9025355, "is_reserved": 0, "lon": -77.04363916666667, "fusion_lon": 0.0, "is_disabled": 0, "fusion_lat": 0.0, "bike_id": "e3ebf41ed7888f91457c849e33f7fe16", "rental_uris": {"ios": "https://dc.lft.to/lastmile_qr_scan", "android": "https://dc.lft.to/lastmile_qr_scan"}}, {"name": "9dd77de3e44ded5a82920853835464cb", "type": "electric_scooter", "lat": 38.9181125, "is_reserved": 0, "lon": -77.0101785, "fusion_lon": 0.0, "is_disabled": 0, "fusion_lat": 0.0, "bike_id": "9dd77de3e44ded5a82920853835464cb", "rental_uris": {"ios": "https://dc.lft.to/lastmile_qr_scan", "android": "https://dc.lft.to/lastmile_qr_scan"}}, {"name": "415014665db0b7596dff88bfc3c6bc4b", "type": "electric_scooter", "lat": 38.93936583333333, "is_reserved": 0, "lon": -77.017054, "fusion_lon": 0.0, "is_disabled": 0, "fusion_lat": 0.0, "bike_id": "415014665db0b7596dff88bfc3c6bc4b", "rental_uris": {"ios": "https://dc.lft.to/lastmile_qr_scan", "android": "https://dc.lft.to/lastmile_qr_scan"}}, {"name": "6c88305144c0cd06bb5ee20c2d8f2f02", "type": "electric_scooter", "lat": 38.93453916666667, "is_reserved": 0, "lon": -77.0723855, "fusion_lon": 0.0, "is_disabled": 0, "fusion_lat": 0.0, "bike_id": "6c88305144c0cd06bb5ee20c2d8f2f02", "rental_uris": {"ios": "https://dc.lft.to/lastmile_qr_scan", "android": "https://dc.lft.to/lastmile_qr_scan"}}, {"name": "a804f2861c4cde6c374eccbc7ba74300", "type": "electric_bike", "lat": 38.957692333333334, "is_reserved": 0, "lon": -77.01152866666666, "fusion_lon": 0.0, "is_disabled": 0, "fusion_lat": 0.0, "bike_id": "a804f2861c4cde6c374eccbc7ba74300", "rental_uris": {"ios": "https://dc.lft.to/lastmile_qr_scan", "android": "https://dc.lft.to/lastmile_qr_scan"}}, {"name": "b240fa5e09143e14e0d75ccb4d4c00b0", "type": "electric_bike", "lat": 38.91190116666667, "is_reserved": 0, "lon": -77.01806866666666, "fusion_lon": 0.0, "is_disabled": 0, "fusion_lat": 0.0, "bike_id": "b240fa5e09143e14e0d75ccb4d4c00b0", "rental_uris": {"ios": "https://dc.lft.to/lastmile_qr_scan", "android": "https://dc.lft.to/lastmile_qr_scan"}}, {"name": "1cd1b437d51d78511bc4eeb323a4fda8", "type": "electric_bike", "lat": 38.874792666666664, "is_reserved": 0, "lon": -76.96527983333333, "fusion_lon": 0.0, "is_disabled": 0, "fusion_lat": 0.0, "bike_id": "1cd1b437d51d78511bc4eeb323a4fda8", "rental_uris": {"ios": "https://dc.lft.to/lastmile_qr_scan", "android": "https://dc.lft.to/lastmile_qr_scan"}}, {"name": "b25212627366e5d61a3c4ff4192e8377", "type": "electric_scooter", "lat": 38.9052395, "is_reserved": 0, "lon": -77.05971716666667, "fusion_lon": 0.0, "is_disabled": 0, "fusion_lat": 0.0, "bike_id": "b25212627366e5d61a3c4ff4192e8377", "rental_uris": {"ios": "https://dc.lft.to/lastmile_qr_scan", "android": "https://dc.lft.to/lastmile_qr_scan"}}, {"name": "f3ad2c5d964d4f10035df675262f4fef", "type": "electric_scooter", "lat": 38.883163333333336, "is_reserved": 0, "lon": -77.009382, "fusion_lon": 0.0, "is_disabled": 0, "fusion_lat": 0.0, "bike_id": "f3ad2c5d964d4f10035df675262f4fef", "rental_uris": {"ios": "https://dc.lft.to/lastmile_qr_scan", "android": "https://dc.lft.to/lastmile_qr_scan"}}, {"name": "dbadc6d9825d8daf6e6208f30bc8f575", "type": "electric_bike", "lat": 38.95490933333333, "is_reserved": 0, "lon": -77.026697, "fusion_lon": 0.0, "is_disabled": 0, "fusion_lat": 0.0, "bike_id": "dbadc6d9825d8daf6e6208f30bc8f575", "rental_uris": {"ios": "https://dc.lft.to/lastmile_qr_scan", "android": "https://dc.lft.to/lastmile_qr_scan"}}, {"name": "8229bde7154e8863e52e7bcacd6a59fe", "type": "electric_scooter", "lat": 38.908004, "is_reserved": 0, "lon": -77.04350666666667, "fusion_lon": 0.0, "is_disabled": 0, "fusion_lat": 0.0, "bike_id": "8229bde7154e8863e52e7bcacd6a59fe", "rental_uris": {"ios": "https://dc.lft.to/lastmile_qr_scan", "android": "https://dc.lft.to/lastmile_qr_scan"}}, {"name": "b8f58857faa66b49e7b9d5bd222c25b2", "type": "electric_scooter", "lat": 38.90536383333333, "is_reserved": 0, "lon": -77.05295066666666, "fusion_lon": 0.0, "is_disabled": 0, "fusion_lat": 0.0, "bike_id": "b8f58857faa66b49e7b9d5bd222c25b2", "rental_uris": {"ios": "https://dc.lft.to/lastmile_qr_scan", "android": "https://dc.lft.to/lastmile_qr_scan"}}, {"name": "2f3c9545966c00047dcec1a24c6b6a63", "type": "electric_bike", "lat": 38.942728, "is_reserved": 0, "lon": -76.980743, "fusion_lon": 0.0, "is_disabled": 0, "fusion_lat": 0.0, "bike_id": "2f3c9545966c00047dcec1a24c6b6a63", "rental_uris": {"ios": "https://dc.lft.to/lastmile_qr_scan", "android": "https://dc.lft.to/lastmile_qr_scan"}}, {"name": "e713e36779c64e62bf98bffba3939d19", "type": "electric_scooter", "lat": 38.9133265, "is_reserved": 0, "lon": -77.0481875, "fusion_lon": 0.0, "is_disabled": 0, "fusion_lat": 0.0, "bike_id": "e713e36779c64e62bf98bffba3939d19", "rental_uris": {"ios": "https://dc.lft.to/lastmile_qr_scan", "android": "https://dc.lft.to/lastmile_qr_scan"}}, {"name": "845f2b70ea0cead369d2a1f3d7e98548", "type": "electric_scooter", "lat": 38.8852405, "is_reserved": 0, "lon": -76.988443, "fusion_lon": 0.0, "is_disabled": 0, "fusion_lat": 0.0, "bike_id": "845f2b70ea0cead369d2a1f3d7e98548", "rental_uris": {"ios": "https://dc.lft.to/lastmile_qr_scan", "android": "https://dc.lft.to/lastmile_qr_scan"}}, {"name": "8b83149f263c5c15a5288341e591866c", "type": "electric_scooter", "lat": 38.90657266666667, "is_reserved": 0, "lon": -77.04883133333334, "fusion_lon": 0.0, "is_disabled": 0, "fusion_lat": 0.0, "bike_id": "8b83149f263c5c15a5288341e591866c", "rental_uris": {"ios": "https://dc.lft.to/lastmile_qr_scan", "android": "https://dc.lft.to/lastmile_qr_scan"}}, {"name": "f2c72790a6f5a9f7d5277660909e002a", "type": "electric_scooter", "lat": 38.903812333333335, "is_reserved": 0, "lon": -77.044472, "fusion_lon": 0.0, "is_disabled": 0, "fusion_lat": 0.0, "bike_id": "f2c72790a6f5a9f7d5277660909e002a", "rental_uris": {"ios": "https://dc.lft.to/lastmile_qr_scan", "android": "https://dc.lft.to/lastmile_qr_scan"}}, {"name": "07692984efe1ac4e8427617c6469c0b3", "type": "electric_scooter", "lat": 38.90006783333333, "is_reserved": 0, "lon": -77.0333435, "fusion_lon": 0.0, "is_disabled": 0, "fusion_lat": 0.0, "bike_id": "07692984efe1ac4e8427617c6469c0b3", "rental_uris": {"ios": "https://dc.lft.to/lastmile_qr_scan", "android": "https://dc.lft.to/lastmile_qr_scan"}}, {"name": "bfa2ad2a41e880c5a5d1ba06c2b0a287", "type": "electric_bike", "lat": 38.8885775, "is_reserved": 0, "lon": -77.03246983333334, "fusion_lon": 0.0, "is_disabled": 0, "fusion_lat": 0.0, "bike_id": "bfa2ad2a41e880c5a5d1ba06c2b0a287", "rental_uris": {"ios": "https://dc.lft.to/lastmile_qr_scan", "android": "https://dc.lft.to/lastmile_qr_scan"}}, {"name": "7d1f8e2d8b00c04a8d3a82d9ac268ac0", "type": "electric_scooter", "lat": 38.8985675, "is_reserved": 0, "lon": -77.02805016666667, "fusion_lon": 0.0, "is_disabled": 0, "fusion_lat": 0.0, "bike_id": "7d1f8e2d8b00c04a8d3a82d9ac268ac0", "rental_uris": {"ios": "https://dc.lft.to/lastmile_qr_scan", "android": "https://dc.lft.to/lastmile_qr_scan"}}, {"name": "1c693c0b62bbc0c5672310528b51aa0b", "type": "electric_scooter", "lat": 38.94175833333333, "is_reserved": 0, "lon": -77.03656466666666, "fusion_lon": 0.0, "is_disabled": 0, "fusion_lat": 0.0, "bike_id": "1c693c0b62bbc0c5672310528b51aa0b", "rental_uris": {"ios": "https://dc.lft.to/lastmile_qr_scan", "android": "https://dc.lft.to/lastmile_qr_scan"}}, {"name": "6932d051e94941b7f06da3f4390d86da", "type": "electric_scooter", "lat": 38.92256833333333, "is_reserved": 0, "lon": -77.0430085, "fusion_lon": 0.0, "is_disabled": 0, "fusion_lat": 0.0, "bike_id": "6932d051e94941b7f06da3f4390d86da", "rental_uris": {"ios": "https://dc.lft.to/lastmile_qr_scan", "android": "https://dc.lft.to/lastmile_qr_scan"}}, {"name": "2f1f13b55e5f7e9f66379b6985257df4", "type": "electric_scooter", "lat": 38.92187633333333, "is_reserved": 0, "lon": -77.04132666666666, "fusion_lon": 0.0, "is_disabled": 0, "fusion_lat": 0.0, "bike_id": "2f1f13b55e5f7e9f66379b6985257df4", "rental_uris": {"ios": "https://dc.lft.to/lastmile_qr_scan", "android": "https://dc.lft.to/lastmile_qr_scan"}}, {"name": "95304f2ce615bf8278d31152f14a3017", "type": "electric_scooter", "lat": 38.90085233333333, "is_reserved": 0, "lon": -77.04922433333333, "fusion_lon": 0.0, "is_disabled": 0, "fusion_lat": 0.0, "bike_id": "95304f2ce615bf8278d31152f14a3017", "rental_uris": {"ios": "https://dc.lft.to/lastmile_qr_scan", "android": "https://dc.lft.to/lastmile_qr_scan"}}, {"name": "7d4e7ea359672ac70f882fe22dfeb0bc", "type": "electric_scooter", "lat": 38.905013833333335, "is_reserved": 0, "lon": -77.06941616666667, "fusion_lon": 0.0, "is_disabled": 0, "fusion_lat": 0.0, "bike_id": "7d4e7ea359672ac70f882fe22dfeb0bc", "rental_uris": {"ios": "https://dc.lft.to/lastmile_qr_scan", "android": "https://dc.lft.to/lastmile_qr_scan"}}, {"name": "ac51172cee0765c83d067f0982e4525a", "type": "electric_scooter", "lat": 38.923500833333335, "is_reserved": 0, "lon": -77.01907116666666, "fusion_lon": 0.0, "is_disabled": 0, "fusion_lat": 0.0, "bike_id": "ac51172cee0765c83d067f0982e4525a", "rental_uris": {"ios": "https://dc.lft.to/lastmile_qr_scan", "android": "https://dc.lft.to/lastmile_qr_scan"}}, {"name": "5870f903f87ab524abf50aee0c2928f0", "type": "electric_scooter", "lat": 38.892399, "is_reserved": 0, "lon": -77.0322195, "fusion_lon": 0.0, "is_disabled": 0, "fusion_lat": 0.0, "bike_id": "5870f903f87ab524abf50aee0c2928f0", "rental_uris": {"ios": "https://dc.lft.to/lastmile_qr_scan", "android": "https://dc.lft.to/lastmile_qr_scan"}}, {"name": "fa277b3d0845acac108582ad1d198e5a", "type": "electric_scooter", "lat": 38.923276666666666, "is_reserved": 0, "lon": -77.03898516666666, "fusion_lon": 0.0, "is_disabled": 0, "fusion_lat": 0.0, "bike_id": "fa277b3d0845acac108582ad1d198e5a", "rental_uris": {"ios": "https://dc.lft.to/lastmile_qr_scan", "android": "https://dc.lft.to/lastmile_qr_scan"}}, {"name": "eb57a87b678e5faa7cf4360b81d5e40c", "type": "electric_scooter", "lat": 38.90135383333333, "is_reserved": 0, "lon": -77.04467283333334, "fusion_lon": 0.0, "is_disabled": 0, "fusion_lat": 0.0, "bike_id": "eb57a87b678e5faa7cf4360b81d5e40c", "rental_uris": {"ios": "https://dc.lft.to/lastmile_qr_scan", "android": "https://dc.lft.to/lastmile_qr_scan"}}, {"name": "5b8c3d34ef6661a127a1ccd3c9242136", "type": "electric_bike", "lat": 38.861663166666666, "is_reserved": 0, "lon": -76.950671, "fusion_lon": 0.0, "is_disabled": 0, "fusion_lat": 0.0, "bike_id": "5b8c3d34ef6661a127a1ccd3c9242136", "rental_uris": {"ios": "https://dc.lft.to/lastmile_qr_scan", "android": "https://dc.lft.to/lastmile_qr_scan"}}, {"name": "4ee7a8273370050dbb01ed41979e1d32", "type": "electric_scooter", "lat": 38.90300466666667, "is_reserved": 0, "lon": -77.0432615, "fusion_lon": 0.0, "is_disabled": 0, "fusion_lat": 0.0, "bike_id": "4ee7a8273370050dbb01ed41979e1d32", "rental_uris": {"ios": "https://dc.lft.to/lastmile_qr_scan", "android": "https://dc.lft.to/lastmile_qr_scan"}}, {"name": "8182a298e9ed9faf99d7f54fef0efb6b", "type": "electric_scooter", "lat": 38.908486833333335, "is_reserved": 0, "lon": -77.085356, "fusion_lon": 0.0, "is_disabled": 0, "fusion_lat": 0.0, "bike_id": "8182a298e9ed9faf99d7f54fef0efb6b", "rental_uris": {"ios": "https://dc.lft.to/lastmile_qr_scan", "android": "https://dc.lft.to/lastmile_qr_scan"}}, {"name": "9aa549d8b74ba3b84144b6a085ad6164", "type": "electric_scooter", "lat": 38.94281633333333, "is_reserved": 0, "lon": -77.02506633333333, "fusion_lon": 0.0, "is_disabled": 0, "fusion_lat": 0.0, "bike_id": "9aa549d8b74ba3b84144b6a085ad6164", "rental_uris": {"ios": "https://dc.lft.to/lastmile_qr_scan", "android": "https://dc.lft.to/lastmile_qr_scan"}}, {"name": "9a432401c77a373a9b183864e9dfdf06", "type": "electric_scooter", "lat": 38.928845, "is_reserved": 0, "lon": -77.05454083333333, "fusion_lon": 0.0, "is_disabled": 0, "fusion_lat": 0.0, "bike_id": "9a432401c77a373a9b183864e9dfdf06", "rental_uris": {"ios": "https://dc.lft.to/lastmile_qr_scan", "android": "https://dc.lft.to/lastmile_qr_scan"}}, {"name": "2b621b6cae8361ced846d8825cd5585f", "type": "electric_scooter", "lat": 38.91702816666667, "is_reserved": 0, "lon": -77.04173833333333, "fusion_lon": 0.0, "is_disabled": 0, "fusion_lat": 0.0, "bike_id": "2b621b6cae8361ced846d8825cd5585f", "rental_uris": {"ios": "https://dc.lft.to/lastmile_qr_scan", "android": "https://dc.lft.to/lastmile_qr_scan"}}, {"name": "71083eb61fcfe67c13bb32a806490436", "type": "electric_scooter", "lat": 38.87660233333333, "is_reserved": 0, "lon": -76.9993545, "fusion_lon": 0.0, "is_disabled": 0, "fusion_lat": 0.0, "bike_id": "71083eb61fcfe67c13bb32a806490436", "rental_uris": {"ios": "https://dc.lft.to/lastmile_qr_scan", "android": "https://dc.lft.to/lastmile_qr_scan"}}, {"name": "b2bca7e326b678e2239aecfeeac9731e", "type": "electric_scooter", "lat": 38.902286, "is_reserved": 0, "lon": -77.060843, "fusion_lon": 0.0, "is_disabled": 0, "fusion_lat": 0.0, "bike_id": "b2bca7e326b678e2239aecfeeac9731e", "rental_uris": {"ios": "https://dc.lft.to/lastmile_qr_scan", "android": "https://dc.lft.to/lastmile_qr_scan"}}, {"name": "51fc06660bea79d47dfd07c5a4f5a353", "type": "electric_scooter", "lat": 38.90389566666666, "is_reserved": 0, "lon": -77.04348966666667, "fusion_lon": 0.0, "is_disabled": 0, "fusion_lat": 0.0, "bike_id": "51fc06660bea79d47dfd07c5a4f5a353", "rental_uris": {"ios": "https://dc.lft.to/lastmile_qr_scan", "android": "https://dc.lft.to/lastmile_qr_scan"}}, {"name": "5ec824b06b067bff1af6df11fb3cd0f2", "type": "electric_scooter", "lat": 38.90030083333333, "is_reserved": 0, "lon": -77.00226266666667, "fusion_lon": 0.0, "is_disabled": 0, "fusion_lat": 0.0, "bike_id": "5ec824b06b067bff1af6df11fb3cd0f2", "rental_uris": {"ios": "https://dc.lft.to/lastmile_qr_scan", "android": "https://dc.lft.to/lastmile_qr_scan"}}, {"name": "ba54a67f4d07b435dee3c2a275dce3a9", "type": "electric_scooter", "lat": 38.9143785, "is_reserved": 0, "lon": -77.00342166666667, "fusion_lon": 0.0, "is_disabled": 0, "fusion_lat": 0.0, "bike_id": "ba54a67f4d07b435dee3c2a275dce3a9", "rental_uris": {"ios": "https://dc.lft.to/lastmile_qr_scan", "android": "https://dc.lft.to/lastmile_qr_scan"}}, {"name": "b8ae26fae21c3c4c7f933fc49a68f626", "type": "electric_scooter", "lat": 38.89941183333333, "is_reserved": 0, "lon": -77.0034285, "fusion_lon": 0.0, "is_disabled": 0, "fusion_lat": 0.0, "bike_id": "b8ae26fae21c3c4c7f933fc49a68f626", "rental_uris": {"ios": "https://dc.lft.to/lastmile_qr_scan", "android": "https://dc.lft.to/lastmile_qr_scan"}}, {"name": "1ee47211bacd59278caa99796f5c6e54", "type": "electric_bike", "lat": 38.966247833333334, "is_reserved": 0, "lon": -76.97666833333334, "fusion_lon": 0.0, "is_disabled": 0, "fusion_lat": 0.0, "bike_id": "1ee47211bacd59278caa99796f5c6e54", "rental_uris": {"ios": "https://dc.lft.to/lastmile_qr_scan", "android": "https://dc.lft.to/lastmile_qr_scan"}}, {"name": "f7fc8da96366ddb5a9f3f62c378b1ca7", "type": "electric_scooter", "lat": 38.907673833333334, "is_reserved": 0, "lon": -77.06910566666667, "fusion_lon": 0.0, "is_disabled": 0, "fusion_lat": 0.0, "bike_id": "f7fc8da96366ddb5a9f3f62c378b1ca7", "rental_uris": {"ios": "https://dc.lft.to/lastmile_qr_scan", "android": "https://dc.lft.to/lastmile_qr_scan"}}, {"name": "8a8a75a7c4b37099f3e8b95e4bd8e73a", "type": "electric_scooter", "lat": 38.90962483333333, "is_reserved": 0, "lon": -77.032752, "fusion_lon": 0.0, "is_disabled": 0, "fusion_lat": 0.0, "bike_id": "8a8a75a7c4b37099f3e8b95e4bd8e73a", "rental_uris": {"ios": "https://dc.lft.to/lastmile_qr_scan", "android": "https://dc.lft.to/lastmile_qr_scan"}}, {"name": "b836ccfab1cb47390623d877b72f9328", "type": "electric_scooter", "lat": 38.930611, "is_reserved": 0, "lon": -77.03817483333333, "fusion_lon": 0.0, "is_disabled": 0, "fusion_lat": 0.0, "bike_id": "b836ccfab1cb47390623d877b72f9328", "rental_uris": {"ios": "https://dc.lft.to/lastmile_qr_scan", "android": "https://dc.lft.to/lastmile_qr_scan"}}, {"name": "e4433962b3e1ba912d91c8a724fad14d", "type": "electric_bike", "lat": 38.99937366666666, "is_reserved": 0, "lon": -77.017708, "fusion_lon": 0.0, "is_disabled": 0, "fusion_lat": 0.0, "bike_id": "e4433962b3e1ba912d91c8a724fad14d", "rental_uris": {"ios": "https://dc.lft.to/lastmile_qr_scan", "android": "https://dc.lft.to/lastmile_qr_scan"}}, {"name": "40c9a37e8f2f32fab62c4b2a9c43aa29", "type": "electric_scooter", "lat": 38.9166645, "is_reserved": 0, "lon": -77.02304216666667, "fusion_lon": 0.0, "is_disabled": 0, "fusion_lat": 0.0, "bike_id": "40c9a37e8f2f32fab62c4b2a9c43aa29", "rental_uris": {"ios": "https://dc.lft.to/lastmile_qr_scan", "android": "https://dc.lft.to/lastmile_qr_scan"}}, {"name": "cf560d632982a9ef5a1abad5ba12423b", "type": "electric_scooter", "lat": 38.9205415, "is_reserved": 0, "lon": -77.03348116666666, "fusion_lon": 0.0, "is_disabled": 0, "fusion_lat": 0.0, "bike_id": "cf560d632982a9ef5a1abad5ba12423b", "rental_uris": {"ios": "https://dc.lft.to/lastmile_qr_scan", "android": "https://dc.lft.to/lastmile_qr_scan"}}, {"name": "cfb52bc063d2a59802dbedc65a88487e", "type": "electric_scooter", "lat": 38.866977166666665, "is_reserved": 0, "lon": -76.98713183333334, "fusion_lon": 0.0, "is_disabled": 0, "fusion_lat": 0.0, "bike_id": "cfb52bc063d2a59802dbedc65a88487e", "rental_uris": {"ios": "https://dc.lft.to/lastmile_qr_scan", "android": "https://dc.lft.to/lastmile_qr_scan"}}, {"name": "e9044bad808f6265aacd89378ae726ee", "type": "electric_scooter", "lat": 38.90280466666667, "is_reserved": 0, "lon": -77.038327, "fusion_lon": 0.0, "is_disabled": 0, "fusion_lat": 0.0, "bike_id": "e9044bad808f6265aacd89378ae726ee", "rental_uris": {"ios": "https://dc.lft.to/lastmile_qr_scan", "android": "https://dc.lft.to/lastmile_qr_scan"}}, {"name": "fae87abbc443abd2a10279a5c5fd8def", "type": "electric_scooter", "lat": 38.89945866666667, "is_reserved": 0, "lon": -77.03178433333333, "fusion_lon": 0.0, "is_disabled": 0, "fusion_lat": 0.0, "bike_id": "fae87abbc443abd2a10279a5c5fd8def", "rental_uris": {"ios": "https://dc.lft.to/lastmile_qr_scan", "android": "https://dc.lft.to/lastmile_qr_scan"}}, {"name": "d885f56f1b6ae1af44b6de70fbd4d781", "type": "electric_scooter", "lat": 38.93979433333333, "is_reserved": 0, "lon": -77.0288495, "fusion_lon": 0.0, "is_disabled": 0, "fusion_lat": 0.0, "bike_id": "d885f56f1b6ae1af44b6de70fbd4d781", "rental_uris": {"ios": "https://dc.lft.to/lastmile_qr_scan", "android": "https://dc.lft.to/lastmile_qr_scan"}}, {"name": "a1f595841aa7d034578ea7c9234dad66", "type": "electric_scooter", "lat": 38.89480966666667, "is_reserved": 0, "lon": -77.0305325, "fusion_lon": 0.0, "is_disabled": 0, "fusion_lat": 0.0, "bike_id": "a1f595841aa7d034578ea7c9234dad66", "rental_uris": {"ios": "https://dc.lft.to/lastmile_qr_scan", "android": "https://dc.lft.to/lastmile_qr_scan"}}, {"name": "554edeeab94c620b5a354d1c23e76090", "type": "electric_scooter", "lat": 38.91216133333333, "is_reserved": 0, "lon": -77.07595266666667, "fusion_lon": 0.0, "is_disabled": 0, "fusion_lat": 0.0, "bike_id": "554edeeab94c620b5a354d1c23e76090", "rental_uris": {"ios": "https://dc.lft.to/lastmile_qr_scan", "android": "https://dc.lft.to/lastmile_qr_scan"}}, {"name": "122cf44cdbeb230573ea4fd43c4a3cdf", "type": "electric_scooter", "lat": 38.906005, "is_reserved": 0, "lon": -77.04039416666667, "fusion_lon": 0.0, "is_disabled": 0, "fusion_lat": 0.0, "bike_id": "122cf44cdbeb230573ea4fd43c4a3cdf", "rental_uris": {"ios": "https://dc.lft.to/lastmile_qr_scan", "android": "https://dc.lft.to/lastmile_qr_scan"}}, {"name": "5e722ac7ccc7c0b704243ddba3463e71", "type": "electric_scooter", "lat": 38.938998166666664, "is_reserved": 0, "lon": -77.07728116666667, "fusion_lon": 0.0, "is_disabled": 0, "fusion_lat": 0.0, "bike_id": "5e722ac7ccc7c0b704243ddba3463e71", "rental_uris": {"ios": "https://dc.lft.to/lastmile_qr_scan", "android": "https://dc.lft.to/lastmile_qr_scan"}}, {"name": "fffcf8b02a6c92671f5f54d78d903789", "type": "electric_scooter", "lat": 38.93376466666667, "is_reserved": 0, "lon": -77.03461983333334, "fusion_lon": 0.0, "is_disabled": 0, "fusion_lat": 0.0, "bike_id": "fffcf8b02a6c92671f5f54d78d903789", "rental_uris": {"ios": "https://dc.lft.to/lastmile_qr_scan", "android": "https://dc.lft.to/lastmile_qr_scan"}}, {"name": "9ef57aeea7b22326bd1001f6d0c4de98", "type": "electric_scooter", "lat": 38.9285235, "is_reserved": 0, "lon": -77.037339, "fusion_lon": 0.0, "is_disabled": 0, "fusion_lat": 0.0, "bike_id": "9ef57aeea7b22326bd1001f6d0c4de98", "rental_uris": {"ios": "https://dc.lft.to/lastmile_qr_scan", "android": "https://dc.lft.to/lastmile_qr_scan"}}, {"name": "b57fc957f64baffc11f3350e67d431df", "type": "electric_scooter", "lat": 38.8849375, "is_reserved": 0, "lon": -77.00895633333333, "fusion_lon": 0.0, "is_disabled": 0, "fusion_lat": 0.0, "bike_id": "b57fc957f64baffc11f3350e67d431df", "rental_uris": {"ios": "https://dc.lft.to/lastmile_qr_scan", "android": "https://dc.lft.to/lastmile_qr_scan"}}, {"name": "19d2cdf25090d318684fa2b6513c5ad7", "type": "electric_bike", "lat": 38.94831883333333, "is_reserved": 0, "lon": -77.0389965, "fusion_lon": 0.0, "is_disabled": 0, "fusion_lat": 0.0, "bike_id": "19d2cdf25090d318684fa2b6513c5ad7", "rental_uris": {"ios": "https://dc.lft.to/lastmile_qr_scan", "android": "https://dc.lft.to/lastmile_qr_scan"}}, {"name": "e0548370a314e91c022b4bd60f036e90", "type": "electric_scooter", "lat": 38.89524816666667, "is_reserved": 0, "lon": -77.016132, "fusion_lon": 0.0, "is_disabled": 0, "fusion_lat": 0.0, "bike_id": "e0548370a314e91c022b4bd60f036e90", "rental_uris": {"ios": "https://dc.lft.to/lastmile_qr_scan", "android": "https://dc.lft.to/lastmile_qr_scan"}}, {"name": "90ea7d693f2eadec3816b190e54d7a11", "type": "electric_scooter", "lat": 38.90798433333333, "is_reserved": 0, "lon": -76.997001, "fusion_lon": 0.0, "is_disabled": 0, "fusion_lat": 0.0, "bike_id": "90ea7d693f2eadec3816b190e54d7a11", "rental_uris": {"ios": "https://dc.lft.to/lastmile_qr_scan", "android": "https://dc.lft.to/lastmile_qr_scan"}}, {"name": "9bf1d118ee24486a2e7a32f42b5e3a61", "type": "electric_scooter", "lat": 38.89960833333333, "is_reserved": 0, "lon": -77.0505915, "fusion_lon": 0.0, "is_disabled": 0, "fusion_lat": 0.0, "bike_id": "9bf1d118ee24486a2e7a32f42b5e3a61", "rental_uris": {"ios": "https://dc.lft.to/lastmile_qr_scan", "android": "https://dc.lft.to/lastmile_qr_scan"}}, {"name": "4c21b65ec010f204ae09c93a2d7df453", "type": "electric_scooter", "lat": 38.93500933333333, "is_reserved": 0, "lon": -77.0285555, "fusion_lon": 0.0, "is_disabled": 0, "fusion_lat": 0.0, "bike_id": "4c21b65ec010f204ae09c93a2d7df453", "rental_uris": {"ios": "https://dc.lft.to/lastmile_qr_scan", "android": "https://dc.lft.to/lastmile_qr_scan"}}, {"name": "29ea9a657cb5984beea4a98080d5a08e", "type": "electric_scooter", "lat": 38.909717666666666, "is_reserved": 0, "lon": -77.01711, "fusion_lon": 0.0, "is_disabled": 0, "fusion_lat": 0.0, "bike_id": "29ea9a657cb5984beea4a98080d5a08e", "rental_uris": {"ios": "https://dc.lft.to/lastmile_qr_scan", "android": "https://dc.lft.to/lastmile_qr_scan"}}, {"name": "120dc99c04b2dd9bb1a9f9baee972817", "type": "electric_scooter", "lat": 38.88513916666667, "is_reserved": 0, "lon": -77.02104683333333, "fusion_lon": 0.0, "is_disabled": 0, "fusion_lat": 0.0, "bike_id": "120dc99c04b2dd9bb1a9f9baee972817", "rental_uris": {"ios": "https://dc.lft.to/lastmile_qr_scan", "android": "https://dc.lft.to/lastmile_qr_scan"}}, {"name": "1e2e1b264e241abf777a76c702ff7ab8", "type": "electric_scooter", "lat": 38.92127933333333, "is_reserved": 0, "lon": -77.01023633333334, "fusion_lon": 0.0, "is_disabled": 0, "fusion_lat": 0.0, "bike_id": "1e2e1b264e241abf777a76c702ff7ab8", "rental_uris": {"ios": "https://dc.lft.to/lastmile_qr_scan", "android": "https://dc.lft.to/lastmile_qr_scan"}}, {"name": "9b68d9d552a596a76a3e9e22e42bae46", "type": "electric_scooter", "lat": 38.941851666666665, "is_reserved": 0, "lon": -77.03097066666666, "fusion_lon": 0.0, "is_disabled": 0, "fusion_lat": 0.0, "bike_id": "9b68d9d552a596a76a3e9e22e42bae46", "rental_uris": {"ios": "https://dc.lft.to/lastmile_qr_scan", "android": "https://dc.lft.to/lastmile_qr_scan"}}, {"name": "6f35b7dfc85e86d77b3ff30012ec0d84", "type": "electric_bike", "lat": 38.92846516666667, "is_reserved": 0, "lon": -77.02053816666667, "fusion_lon": 0.0, "is_disabled": 0, "fusion_lat": 0.0, "bike_id": "6f35b7dfc85e86d77b3ff30012ec0d84", "rental_uris": {"ios": "https://dc.lft.to/lastmile_qr_scan", "android": "https://dc.lft.to/lastmile_qr_scan"}}, {"name": "71afa1388438771b639ef3a5a6ef4dcd", "type": "electric_scooter", "lat": 38.92316783333333, "is_reserved": 0, "lon": -77.0402455, "fusion_lon": 0.0, "is_disabled": 0, "fusion_lat": 0.0, "bike_id": "71afa1388438771b639ef3a5a6ef4dcd", "rental_uris": {"ios": "https://dc.lft.to/lastmile_qr_scan", "android": "https://dc.lft.to/lastmile_qr_scan"}}, {"name": "73a8bd80944455d17c59b2e7061180cd", "type": "electric_scooter", "lat": 38.921096666666664, "is_reserved": 0, "lon": -76.9938185, "fusion_lon": 0.0, "is_disabled": 0, "fusion_lat": 0.0, "bike_id": "73a8bd80944455d17c59b2e7061180cd", "rental_uris": {"ios": "https://dc.lft.to/lastmile_qr_scan", "android": "https://dc.lft.to/lastmile_qr_scan"}}, {"name": "10e3b255af658edc3e7e7bdebca42f9c", "type": "electric_scooter", "lat": 38.90528666666667, "is_reserved": 0, "lon": -77.04887083333334, "fusion_lon": 0.0, "is_disabled": 0, "fusion_lat": 0.0, "bike_id": "10e3b255af658edc3e7e7bdebca42f9c", "rental_uris": {"ios": "https://dc.lft.to/lastmile_qr_scan", "android": "https://dc.lft.to/lastmile_qr_scan"}}, {"name": "2f492a5ade81a9058b41ceb941b3e0eb", "type": "electric_bike", "lat": 38.8543705, "is_reserved": 0, "lon": -77.11707216666667, "fusion_lon": 0.0, "is_disabled": 0, "fusion_lat": 0.0, "bike_id": "2f492a5ade81a9058b41ceb941b3e0eb", "rental_uris": {"ios": "https://dc.lft.to/lastmile_qr_scan", "android": "https://dc.lft.to/lastmile_qr_scan"}}, {"name": "9ccad5cec58b583b87e776363472af66", "type": "electric_scooter", "lat": 38.908273333333334, "is_reserved": 0, "lon": -77.03942433333333, "fusion_lon": 0.0, "is_disabled": 0, "fusion_lat": 0.0, "bike_id": "9ccad5cec58b583b87e776363472af66", "rental_uris": {"ios": "https://dc.lft.to/lastmile_qr_scan", "android": "https://dc.lft.to/lastmile_qr_scan"}}, {"name": "33d024ccd36c0d60708ce73419a9d74b", "type": "electric_scooter", "lat": 38.89836433333333, "is_reserved": 0, "lon": -77.02988983333333, "fusion_lon": 0.0, "is_disabled": 0, "fusion_lat": 0.0, "bike_id": "33d024ccd36c0d60708ce73419a9d74b", "rental_uris": {"ios": "https://dc.lft.to/lastmile_qr_scan", "android": "https://dc.lft.to/lastmile_qr_scan"}}, {"name": "92648f347b5c171b9a3fdf894408240f", "type": "electric_scooter", "lat": 38.862416333333336, "is_reserved": 0, "lon": -76.99485133333333, "fusion_lon": 0.0, "is_disabled": 0, "fusion_lat": 0.0, "bike_id": "92648f347b5c171b9a3fdf894408240f", "rental_uris": {"ios": "https://dc.lft.to/lastmile_qr_scan", "android": "https://dc.lft.to/lastmile_qr_scan"}}, {"name": "e61a95e3321d69d8fc3cfff0daaacd14", "type": "electric_scooter", "lat": 38.911116, "is_reserved": 0, "lon": -77.065238, "fusion_lon": 0.0, "is_disabled": 0, "fusion_lat": 0.0, "bike_id": "e61a95e3321d69d8fc3cfff0daaacd14", "rental_uris": {"ios": "https://dc.lft.to/lastmile_qr_scan", "android": "https://dc.lft.to/lastmile_qr_scan"}}, {"name": "3a5cd9b09de7b9d890a9689ae0a56e5a", "type": "electric_scooter", "lat": 38.900091, "is_reserved": 0, "lon": -77.0113445, "fusion_lon": 0.0, "is_disabled": 0, "fusion_lat": 0.0, "bike_id": "3a5cd9b09de7b9d890a9689ae0a56e5a", "rental_uris": {"ios": "https://dc.lft.to/lastmile_qr_scan", "android": "https://dc.lft.to/lastmile_qr_scan"}}, {"name": "3b7334935f5c66a12b96b148395559b9", "type": "electric_scooter", "lat": 38.902783666666664, "is_reserved": 0, "lon": -77.039881, "fusion_lon": 0.0, "is_disabled": 0, "fusion_lat": 0.0, "bike_id": "3b7334935f5c66a12b96b148395559b9", "rental_uris": {"ios": "https://dc.lft.to/lastmile_qr_scan", "android": "https://dc.lft.to/lastmile_qr_scan"}}, {"name": "ed60ec84e7c7f32b58601bc92e19a7be", "type": "electric_scooter", "lat": 38.90519833333333, "is_reserved": 0, "lon": -77.041625, "fusion_lon": 0.0, "is_disabled": 0, "fusion_lat": 0.0, "bike_id": "ed60ec84e7c7f32b58601bc92e19a7be", "rental_uris": {"ios": "https://dc.lft.to/lastmile_qr_scan", "android": "https://dc.lft.to/lastmile_qr_scan"}}, {"name": "7be88bca08c0df00e6ee3417bf8d86a5", "type": "electric_scooter", "lat": 38.93617733333333, "is_reserved": 0, "lon": -77.032051, "fusion_lon": 0.0, "is_disabled": 0, "fusion_lat": 0.0, "bike_id": "7be88bca08c0df00e6ee3417bf8d86a5", "rental_uris": {"ios": "https://dc.lft.to/lastmile_qr_scan", "android": "https://dc.lft.to/lastmile_qr_scan"}}, {"name": "f9d970ea8f29671d4d7545808502375c", "type": "electric_scooter", "lat": 38.901394, "is_reserved": 0, "lon": -77.04490216666666, "fusion_lon": 0.0, "is_disabled": 0, "fusion_lat": 0.0, "bike_id": "f9d970ea8f29671d4d7545808502375c", "rental_uris": {"ios": "https://dc.lft.to/lastmile_qr_scan", "android": "https://dc.lft.to/lastmile_qr_scan"}}, {"name": "48304972fffa64e6bd2b48092f48b9b8", "type": "electric_scooter", "lat": 38.933528333333335, "is_reserved": 0, "lon": -77.05865, "fusion_lon": 0.0, "is_disabled": 0, "fusion_lat": 0.0, "bike_id": "48304972fffa64e6bd2b48092f48b9b8", "rental_uris": {"ios": "https://dc.lft.to/lastmile_qr_scan", "android": "https://dc.lft.to/lastmile_qr_scan"}}, {"name": "3f2c4632d18b88bd273513e37e494a4d", "type": "electric_scooter", "lat": 38.90411733333333, "is_reserved": 0, "lon": -77.036518, "fusion_lon": 0.0, "is_disabled": 0, "fusion_lat": 0.0, "bike_id": "3f2c4632d18b88bd273513e37e494a4d", "rental_uris": {"ios": "https://dc.lft.to/lastmile_qr_scan", "android": "https://dc.lft.to/lastmile_qr_scan"}}, {"name": "2311a79478ab3c8abcc56738b9af2e02", "type": "electric_scooter", "lat": 38.8988555, "is_reserved": 0, "lon": -76.93175783333334, "fusion_lon": 0.0, "is_disabled": 0, "fusion_lat": 0.0, "bike_id": "2311a79478ab3c8abcc56738b9af2e02", "rental_uris": {"ios": "https://dc.lft.to/lastmile_qr_scan", "android": "https://dc.lft.to/lastmile_qr_scan"}}, {"name": "b9fb07fa1f1e1a31b46c03f4a9fa8e7a", "type": "electric_scooter", "lat": 38.87213633333333, "is_reserved": 0, "lon": -77.00578916666667, "fusion_lon": 0.0, "is_disabled": 0, "fusion_lat": 0.0, "bike_id": "b9fb07fa1f1e1a31b46c03f4a9fa8e7a", "rental_uris": {"ios": "https://dc.lft.to/lastmile_qr_scan", "android": "https://dc.lft.to/lastmile_qr_scan"}}, {"name": "28e62b2b40d8c508a91dd47e22d959b5", "type": "electric_scooter", "lat": 38.89359866666667, "is_reserved": 0, "lon": -77.003352, "fusion_lon": 0.0, "is_disabled": 0, "fusion_lat": 0.0, "bike_id": "28e62b2b40d8c508a91dd47e22d959b5", "rental_uris": {"ios": "https://dc.lft.to/lastmile_qr_scan", "android": "https://dc.lft.to/lastmile_qr_scan"}}, {"name": "34c5810bb8e49cd3f95c9e8b692c2d70", "type": "electric_scooter", "lat": 38.84430033333334, "is_reserved": 0, "lon": -76.99776616666666, "fusion_lon": 0.0, "is_disabled": 0, "fusion_lat": 0.0, "bike_id": "34c5810bb8e49cd3f95c9e8b692c2d70", "rental_uris": {"ios": "https://dc.lft.to/lastmile_qr_scan", "android": "https://dc.lft.to/lastmile_qr_scan"}}, {"name": "4820da24e7a4ef90e3abd1632e66afbe", "type": "electric_scooter", "lat": 38.86923266666667, "is_reserved": 0, "lon": -76.98306783333334, "fusion_lon": 0.0, "is_disabled": 0, "fusion_lat": 0.0, "bike_id": "4820da24e7a4ef90e3abd1632e66afbe", "rental_uris": {"ios": "https://dc.lft.to/lastmile_qr_scan", "android": "https://dc.lft.to/lastmile_qr_scan"}}, {"name": "21000039e79c5d3f6f7bee4d961b40b1", "type": "electric_scooter", "lat": 38.89507433333333, "is_reserved": 0, "lon": -77.003381, "fusion_lon": 0.0, "is_disabled": 0, "fusion_lat": 0.0, "bike_id": "21000039e79c5d3f6f7bee4d961b40b1", "rental_uris": {"ios": "https://dc.lft.to/lastmile_qr_scan", "android": "https://dc.lft.to/lastmile_qr_scan"}}, {"name": "ff4c83f8b6c348dcb41a15261efaa25c", "type": "electric_scooter", "lat": 38.91577316666667, "is_reserved": 0, "lon": -76.9838705, "fusion_lon": 0.0, "is_disabled": 0, "fusion_lat": 0.0, "bike_id": "ff4c83f8b6c348dcb41a15261efaa25c", "rental_uris": {"ios": "https://dc.lft.to/lastmile_qr_scan", "android": "https://dc.lft.to/lastmile_qr_scan"}}, {"name": "2b4380167e51c0267e8edc64275e7fba", "type": "electric_scooter", "lat": 38.91552933333333, "is_reserved": 0, "lon": -77.03180033333334, "fusion_lon": 0.0, "is_disabled": 0, "fusion_lat": 0.0, "bike_id": "2b4380167e51c0267e8edc64275e7fba", "rental_uris": {"ios": "https://dc.lft.to/lastmile_qr_scan", "android": "https://dc.lft.to/lastmile_qr_scan"}}, {"name": "e9663060115087a1ed71ea3f7093eb5e", "type": "electric_scooter", "lat": 38.86241116666667, "is_reserved": 0, "lon": -76.99493216666667, "fusion_lon": 0.0, "is_disabled": 0, "fusion_lat": 0.0, "bike_id": "e9663060115087a1ed71ea3f7093eb5e", "rental_uris": {"ios": "https://dc.lft.to/lastmile_qr_scan", "android": "https://dc.lft.to/lastmile_qr_scan"}}, {"name": "8767b6bd1f068255dcdf80f5af23a36d", "type": "electric_scooter", "lat": 38.92270766666667, "is_reserved": 0, "lon": -77.01827183333333, "fusion_lon": 0.0, "is_disabled": 0, "fusion_lat": 0.0, "bike_id": "8767b6bd1f068255dcdf80f5af23a36d", "rental_uris": {"ios": "https://dc.lft.to/lastmile_qr_scan", "android": "https://dc.lft.to/lastmile_qr_scan"}},