{"data": {"bikes": [{"rental_uris": {"ios": "https://dc.lft.to/lastmile_qr_scan", "android": "https://dc.lft.to/lastmile_qr_scan"}, "lon": -77.02594766666667, "type": "electric_scooter", "fusion_lat": 0.0, "lat": 38.8967445, "name": "2b241b0fe908d70f17748e34e617911e", "fusion_lon": 0.0, "bike_id": "2b241b0fe908d70f17748e34e617911e", "is_disabled": 0, "is_reserved": 0}, {"rental_uris": {"ios": "https://dc.lft.to/lastmile_qr_scan", "android": "https://dc.lft.to/lastmile_qr_scan"}, "lon": -77.0419315, "type": "electric_scooter", "fusion_lat": 0.0, "lat": 38.92047133333333, "name": "178de92e6b1f364bc02e72858dbdd42e", "fusion_lon": 0.0, "bike_id": "178de92e6b1f364bc02e72858dbdd42e", "is_disabled": 0, "is_reserved": 0}, {"rental_uris": {"ios": "https://dc.lft.to/lastmile_qr_scan", "android": "https://dc.lft.to/lastmile_qr_scan"}, "lon": -77.04867416666667, "type": "electric_scooter", "fusion_lat": 0.0, "lat": 38.9007535, "name": "b24db80c61a65249693838d5031c55cd", "fusion_lon": 0.0, "bike_id": "b24db80c61a65249693838d5031c55cd", "is_disabled": 0, "is_reserved": 0}, {"rental_uris": {"ios": "https://dc.lft.to/lastmile_qr_scan", "android": "https://dc.lft.to/lastmile_qr_scan"}, "lon": -77.02471166666666, "type": "electric_scooter", "fusion_lat": 0.0, "lat": 38.938825333333334, "name": "6096274011d06fc1a9c0be6a38bb279f", "fusion_lon": 0.0, "bike_id": "6096274011d06fc1a9c0be6a38bb279f", "is_disabled": 0, "is_reserved": 0}, {"rental_uris": {"ios": "https://dc.lft.to/lastmile_qr_scan", "android": "https://dc.lft.to/lastmile_qr_scan"}, "lon": -76.9650595, "type": "electric_scooter", "fusion_lat": 0.0, "lat": 38.876484, "name": "5c73d67307b743be248e963dcd91bd30", "fusion_lon": 0.0, "bike_id": "5c73d67307b743be248e963dcd91bd30", "is_disabled": 0, "is_reserved": 0}, {"rental_uris": {"ios": "https://dc.lft.to/lastmile_qr_scan", "android": "https://dc.lft.to/lastmile_qr_scan"}, "lon": -77.03630866666667, "type": "electric_scooter", "fusion_lat": 0.0, "lat": 38.926536166666665, "name": "fce1821bbf6106fa2f3d801df2804b76", "fusion_lon": 0.0, "bike_id": "fce1821bbf6106fa2f3d801df2804b76", "is_disabled": 0, "is_reserved": 0}, {"rental_uris": {"ios": "https://dc.lft.to/lastmile_qr_scan", "android": "https://dc.lft.to/lastmile_qr_scan"}, "lon": -77.02436833333333, "type": "electric_scooter", "fusion_lat": 0.0, "lat": 38.90721466666667, "name": "7b84f2b0cfbe9a2bf813c577895865cc", "fusion_lon": 0.0, "bike_id": "7b84f2b0cfbe9a2bf813c577895865cc", "is_disabled": 0, "is_reserved": 0}, {"rental_uris": {"ios": "https://dc.lft.to/lastmile_qr_scan", "android": "https://dc.lft.to/lastmile_qr_scan"}, "lon": -77.0042825, "type": "electric_scooter", "fusion_lat": 0.0, "lat": 38.9039455, "name": "106bb91bdd0da57dd8198850d85839fa", "fusion_lon": 0.0, "bike_id": "106bb91bdd0da57dd8198850d85839fa", "is_disabled": 0, "is_reserved": 0}, {"rental_uris": {"ios": "https://dc.lft.to/lastmile_qr_scan", "android": "https://dc.lft.to/lastmile_qr_scan"}, "lon": -77.0201725, "type": "electric_scooter", "fusion_lat": 0.0, "lat": 38.91545933333333, "name": "aca2f49b62ce8aafaf477a77f24033dd", "fusion_lon": 0.0, "bike_id": "aca2f49b62ce8aafaf477a77f24033dd", "is_disabled": 0, "is_reserved": 0}, {"rental_uris": {"ios": "https://dc.lft.to/lastmile_qr_scan", "android": "https://dc.lft.to/lastmile_qr_scan"}, "lon": -77.02954633333333, "type": "electric_scooter", "fusion_lat": 0.0, "lat": 38.897149166666665, "name": "150ec7856a8fce330bb8b545398d9fc5", "fusion_lon": 0.0, "bike_id": "150ec7856a8fce330bb8b545398d9fc5", "is_disabled": 0, "is_reserved": 0}, {"rental_uris": {"ios": "https://dc.lft.to/lastmile_qr_scan", "android": "https://dc.lft.to/lastmile_qr_scan"}, "lon": -77.02683716666667, "type": "electric_scooter", "fusion_lat": 0.0, "lat": 38.903484666666664, "name": "b1615dc6a2ff08aaeedea931139fa2c2", "fusion_lon": 0.0, "bike_id": "b1615dc6a2ff08aaeedea931139fa2c2", "is_disabled": 0, "is_reserved": 0}, {"rental_uris": {"ios": "https://dc.lft.to/lastmile_qr_scan", "android": "https://dc.lft.to/lastmile_qr_scan"}, "lon": -77.0240605, "type": "electric_scooter", "fusion_lat": 0.0, "lat": 38.930938, "name": "9ade7c937eae94a0df3b219b8ab6a7ac", "fusion_lon": 0.0, "bike_id": "9ade7c937eae94a0df3b219b8ab6a7ac", "is_disabled": 0, "is_reserved": 0}, {"rental_uris": {"ios": "https://dc.lft.to/lastmile_qr_scan", "android": "https://dc.lft.to/lastmile_qr_scan"}, "lon": -77.04685233333333, "type": "electric_scooter", "fusion_lat": 0.0, "lat": 38.89219766666667, "name": "495c63182b8c945e15081c789e48839e", "fusion_lon": 0.0, "bike_id": "495c63182b8c945e15081c789e48839e", "is_disabled": 0, "is_reserved": 0}, {"rental_uris": {"ios": "https://dc.lft.to/lastmile_qr_scan", "android": "https://dc.lft.to/lastmile_qr_scan"}, "lon": -76.90434183333333, "type": "electric_bike", "fusion_lat": 0.0, "lat": 38.89782966666667, "name": "73986c6e0120a5851c3bf4daa59261ba", "fusion_lon": 0.0, "bike_id": "73986c6e0120a5851c3bf4daa59261ba", "is_disabled": 0, "is_reserved": 0}, {"rental_uris": {"ios": "https://dc.lft.to/lastmile_qr_scan", "android": "https://dc.lft.to/lastmile_qr_scan"}, "lon": -77.0482485, "type": "electric_scooter", "fusion_lat": 0.0, "lat": 38.92032066666667, "name": "f1617532531295755623cf052c96fedb", "fusion_lon": 0.0, "bike_id": "f1617532531295755623cf052c96fedb", "is_disabled": 0, "is_reserved": 0}, {"rental_uris": {"ios": "https://dc.lft.to/lastmile_qr_scan", "android": "https://dc.lft.to/lastmile_qr_scan"}, "lon": -77.04062466666667, "type": "electric_scooter", "fusion_lat": 0.0, "lat": 38.9263685, "name": "c8b2a76188d437fe832824a33377d7d9", "fusion_lon": 0.0, "bike_id": "c8b2a76188d437fe832824a33377d7d9", "is_disabled": 0, "is_reserved": 0}, {"rental_uris": {"ios": "https://dc.lft.to/lastmile_qr_scan", "android": "https://dc.lft.to/lastmile_qr_scan"}, "lon": -77.02391033333333, "type": "electric_scooter", "fusion_lat": 0.0, "lat": 38.93103966666666, "name": "af658772ec7a854a4a703722e9bb858d", "fusion_lon": 0.0, "bike_id": "af658772ec7a854a4a703722e9bb858d", "is_disabled": 0, "is_reserved": 0}, {"rental_uris": {"ios": "https://dc.lft.to/lastmile_qr_scan", "android": "https://dc.lft.to/lastmile_qr_scan"}, "lon": -77.0196215, "type": "electric_scooter", "fusion_lat": 0.0, "lat": 38.934112999999996, "name": "d3919fd5316cb14949b80dd30bb3df80", "fusion_lon": 0.0, "bike_id": "d3919fd5316cb14949b80dd30bb3df80", "is_disabled": 0, "is_reserved": 0}, {"rental_uris": {"ios": "https://dc.lft.to/lastmile_qr_scan", "android": "https://dc.lft.to/lastmile_qr_scan"}, "lon": -77.02385816666667, "type": "electric_scooter", "fusion_lat": 0.0, "lat": 38.8951255, "name": "c8a6c8f2d13f01c5443613b8f7191393", "fusion_lon": 0.0, "bike_id": "c8a6c8f2d13f01c5443613b8f7191393", "is_disabled": 0, "is_reserved": 0}, {"rental_uris": {"ios": "https://dc.lft.to/lastmile_qr_scan", "android": "https://dc.lft.to/lastmile_qr_scan"}, "lon": -77.03280466666666, "type": "electric_scooter", "fusion_lat": 0.0, "lat": 38.938983, "name": "226bc0a4f9f1a1dbc65379ed353eadf1", "fusion_lon": 0.0, "bike_id": "226bc0a4f9f1a1dbc65379ed353eadf1", "is_disabled": 0, "is_reserved": 0}, {"rental_uris": {"ios": "https://dc.lft.to/lastmile_qr_scan", "android": "https://dc.lft.to/lastmile_qr_scan"}, "lon": -76.98158933333333, "type": "electric_scooter", "fusion_lat": 0.0, "lat": 38.93297183333333, "name": "71f3bb4246a742ed3bd969bac68f920b", "fusion_lon": 0.0, "bike_id": "71f3bb4246a742ed3bd969bac68f920b", "is_disabled": 0, "is_reserved": 0}, {"rental_uris": {"ios": "https://dc.lft.to/lastmile_qr_scan", "android": "https://dc.lft.to/lastmile_qr_scan"}, "lon": -76.9869835, "type": "electric_scooter", "fusion_lat": 0.0, "lat": 38.90701333333333, "name": "a454733f2828518a3fd0c7f63aa76617", "fusion_lon": 0.0, "bike_id": "a454733f2828518a3fd0c7f63aa76617", "is_disabled": 0, "is_reserved": 0}, {"rental_uris": {"ios": "https://dc.lft.to/lastmile_qr_scan", "android": "https://dc.lft.to/lastmile_qr_scan"}, "lon": -77.04676266666667, "type": "electric_scooter", "fusion_lat": 0.0, "lat": 38.900637833333334, "name": "29f6d8761cd686e2f29b8bc624553a8b", "fusion_lon": 0.0, "bike_id": "29f6d8761cd686e2f29b8bc624553a8b", "is_disabled": 0, "is_reserved": 0}, {"rental_uris": {"ios": "https://dc.lft.to/lastmile_qr_scan", "android": "https://dc.lft.to/lastmile_qr_scan"}, "lon": -77.04018116666667, "type": "electric_scooter", "fusion_lat": 0.0, "lat": 38.9184445, "name": "8e2042d6a05582ca9fc431b8b029a2f4", "fusion_lon": 0.0, "bike_id": "8e2042d6a05582ca9fc431b8b029a2f4", "is_disabled": 0, "is_reserved": 0}, {"rental_uris": {"ios": "https://dc.lft.to/lastmile_qr_scan", "android": "https://dc.lft.to/lastmile_qr_scan"}, "lon": -77.021486, "type": "electric_scooter", "fusion_lat": 0.0, "lat": 38.92596416666667, "name": "3746f8e8cd865705379e55330331f425", "fusion_lon": 0.0, "bike_id": "3746f8e8cd865705379e55330331f425", "is_disabled": 0, "is_reserved": 0}, {"rental_uris": {"ios": "https://dc.lft.to/lastmile_qr_scan", "android": "https://dc.lft.to/lastmile_qr_scan"}, "lon": -77.07064383333334, "type": "electric_scooter", "fusion_lat": 0.0, "lat": 38.95216766666667, "name": "34a3b594be6c5c12601a55bc623dc48c", "fusion_lon": 0.0, "bike_id": "34a3b594be6c5c12601a55bc623dc48c", "is_disabled": 0, "is_reserved": 0}, {"rental_uris": {"ios": "https://dc.lft.to/lastmile_qr_scan", "android": "https://dc.lft.to/lastmile_qr_scan"}, "lon": -77.05289183333333, "type": "electric_scooter", "fusion_lat": 0.0, "lat": 38.918904833333336, "name": "45ce21fb692a85c48af92bd54fd1b303", "fusion_lon": 0.0, "bike_id": "45ce21fb692a85c48af92bd54fd1b303", "is_disabled": 0, "is_reserved": 0}, {"rental_uris": {"ios": "https://dc.lft.to/lastmile_qr_scan", "android": "https://dc.lft.to/lastmile_qr_scan"}, "lon": -77.05439033333333, "type": "electric_scooter", "fusion_lat": 0.0, "lat": 38.923232, "name": "6b32b1f1b31df6b5fe4a1c96bfd6fe2f", "fusion_lon": 0.0, "bike_id": "6b32b1f1b31df6b5fe4a1c96bfd6fe2f", "is_disabled": 0, "is_reserved": 0}, {"rental_uris": {"ios": "https://dc.lft.to/lastmile_qr_scan", "android": "https://dc.lft.to/lastmile_qr_scan"}, "lon": -77.0419255, "type": "electric_scooter", "fusion_lat": 0.0, "lat": 38.903430666666665, "name": "6bb3d2b83108e67fe5abc1d434dd5ca4", "fusion_lon": 0.0, "bike_id": "6bb3d2b83108e67fe5abc1d434dd5ca4", "is_disabled": 0, "is_reserved": 0}, {"rental_uris": {"ios": "https://dc.lft.to/lastmile_qr_scan", "android": "https://dc.lft.to/lastmile_qr_scan"}, "lon": -77.03409316666666, "type": "electric_scooter", "fusion_lat": 0.0, "lat": 38.9226765, "name": "c69e4a2e87bdfcaa8e6d53109a46cd01", "fusion_lon": 0.0, "bike_id": "c69e4a2e87bdfcaa8e6d53109a46cd01", "is_disabled": 0, "is_reserved": 0}, {"rental_uris": {"ios": "https://dc.lft.to/lastmile_qr_scan", "android": "https://dc.lft.to/lastmile_qr_scan"}, "lon": -77.04715133333333, "type": "electric_scooter", "fusion_lat": 0.0, "lat": 38.922343, "name": "1cf4d75e69355b0d5935c04fb40df815", "fusion_lon": 0.0, "bike_id": "1cf4d75e69355b0d5935c04fb40df815", "is_disabled": 0, "is_reserved": 0}, {"rental_uris": {"ios": "https://dc.lft.to/lastmile_qr_scan", "android": "https://dc.lft.to/lastmile_qr_scan"}, "lon": -77.00862383333333, "type": "electric_bike", "fusion_lat": 0.0, "lat": 38.8272915, "name": "88c16fccb16685af8f3f9dbaa460e50c", "fusion_lon": 0.0, "bike_id": "88c16fccb16685af8f3f9dbaa460e50c", "is_disabled": 0, "is_reserved": 0}, {"rental_uris": {"ios": "https://dc.lft.to/lastmile_qr_scan", "android": "https://dc.lft.to/lastmile_qr_scan"}, "lon": -76.94868816666667, "type": "electric_scooter", "fusion_lat": 0.0, "lat": 38.89478583333333, "name": "0071159cf0db55c64f0b0141814dbac0", "fusion_lon": 0.0, "bike_id": "0071159cf0db55c64f0b0141814dbac0", "is_disabled": 0, "is_reserved": 0}, {"rental_uris": {"ios": "https://dc.lft.to/lastmile_qr_scan", "android": "https://dc.lft.to/lastmile_qr_scan"}, "lon": -76.990009, "type": "electric_scooter", "fusion_lat": 0.0, "lat": 38.865044833333336, "name": "c21477eb92afec33c44f75248ca9f2d9", "fusion_lon": 0.0, "bike_id": "c21477eb92afec33c44f75248ca9f2d9", "is_disabled": 0, "is_reserved": 0}, {"rental_uris": {"ios": "https://dc.lft.to/lastmile_qr_scan", "android": "https://dc.lft.to/lastmile_qr_scan"}, "lon": -77.0239945, "type": "electric_scooter", "fusion_lat": 0.0, "lat": 38.89487033333333, "name": "4dfa2439a1faf4b8f78f3da988187230", "fusion_lon": 0.0, "bike_id": "4dfa2439a1faf4b8f78f3da988187230", "is_disabled": 0, "is_reserved": 0}, {"rental_uris": {"ios": "https://dc.lft.to/lastmile_qr_scan", "android": "https://dc.lft.to/lastmile_qr_scan"}, "lon": -76.948889, "type": "electric_scooter", "fusion_lat": 0.0, "lat": 38.895287333333336, "name": "8eb2a5f787049a5f3fcf382cfba9599f", "fusion_lon": 0.0, "bike_id": "8eb2a5f787049a5f3fcf382cfba9599f", "is_disabled": 0, "is_reserved": 0}, {"rental_uris": {"ios": "https://dc.lft.to/lastmile_qr_scan", "android": "https://dc.lft.to/lastmile_qr_scan"}, "lon": -77.00285, "type": "electric_scooter", "fusion_lat": 0.0, "lat": 38.905485666666664, "name": "59bb55e7963fb00c2e266e7b2398898c", "fusion_lon": 0.0, "bike_id": "59bb55e7963fb00c2e266e7b2398898c", "is_disabled": 0, "is_reserved": 0}, {"rental_uris": {"ios": "https://dc.lft.to/lastmile_qr_scan", "android": "https://dc.lft.to/lastmile_qr_scan"}, "lon": -76.98410416666667, "type": "electric_scooter", "fusion_lat": 0.0, "lat": 38.91384733333334, "name": "fa11c8ec3d9556f42408b61aa671d33f", "fusion_lon": 0.0, "bike_id": "fa11c8ec3d9556f42408b61aa671d33f", "is_disabled": 0, "is_reserved": 0}, {"rental_uris": {"ios": "https://dc.lft.to/lastmile_qr_scan", "android": "https://dc.lft.to/lastmile_qr_scan"}, "lon": -77.03215816666666, "type": "electric_scooter", "fusion_lat": 0.0, "lat": 38.91192433333333, "name": "1a02edd246197ffc3c128aa45507f798", "fusion_lon": 0.0, "bike_id": "1a02edd246197ffc3c128aa45507f798", "is_disabled": 0, "is_reserved": 0}, {"rental_uris": {"ios": "https://dc.lft.to/lastmile_qr_scan", "android": "https://dc.lft.to/lastmile_qr_scan"}, "lon": -77.00289316666667, "type": "electric_scooter", "fusion_lat": 0.0, "lat": 38.9086125, "name": "18c719f478156b3398e2648c13ebb971", "fusion_lon": 0.0, "bike_id": "18c719f478156b3398e2648c13ebb971", "is_disabled": 0, "is_reserved": 0}, {"rental_uris": {"ios": "https://dc.lft.to/lastmile_qr_scan", "android": "https://dc.lft.to/lastmile_qr_scan"}, "lon": -77.00226933333333, "type": "electric_scooter", "fusion_lat": 0.0, "lat": 38.9052565, "name": "3f8fcaaffaa80e0b9c109bd5b1092761", "fusion_lon": 0.0, "bike_id": "3f8fcaaffaa80e0b9c109bd5b1092761", "is_disabled": 0, "is_reserved": 0}, {"rental_uris": {"ios": "https://dc.lft.to/lastmile_qr_scan", "android": "https://dc.lft.to/lastmile_qr_scan"}, "lon": -77.02835733333333, "type": "electric_scooter", "fusion_lat": 0.0, "lat": 38.931878, "name": "1ab9487a52d4dbb12a19a90fdc2940b3", "fusion_lon": 0.0, "bike_id": "1ab9487a52d4dbb12a19a90fdc2940b3", "is_disabled": 0, "is_reserved": 0}, {"rental_uris": {"ios": "https://dc.lft.to/lastmile_qr_scan", "android": "https://dc.lft.to/lastmile_qr_scan"}, "lon": -77.045002, "type": "electric_scooter", "fusion_lat": 0.0, "lat": 38.921361833333336, "name": "f15089b03b62243bee02e7d4c9a18c18", "fusion_lon": 0.0, "bike_id": "f15089b03b62243bee02e7d4c9a18c18", "is_disabled": 0, "is_reserved": 0}, {"rental_uris": {"ios": "https://dc.lft.to/lastmile_qr_scan", "android": "https://dc.lft.to/lastmile_qr_scan"}, "lon": -77.02249566666667, "type": "electric_scooter", "fusion_lat": 0.0, "lat": 38.9230575, "name": "964df5407b5df2350bcc7cd8cb2070f6", "fusion_lon": 0.0, "bike_id": "964df5407b5df2350bcc7cd8cb2070f6", "is_disabled": 0, "is_reserved": 0}, {"rental_uris": {"ios": "https://dc.lft.to/lastmile_qr_scan", "android": "https://dc.lft.to/lastmile_qr_scan"}, "lon": -77.11428066666667, "type": "electric_bike", "fusion_lat": 0.0, "lat": 38.852450166666664, "name": "6b0019467bb4a643417fe51b4be4b072", "fusion_lon": 0.0, "bike_id": "6b0019467bb4a643417fe51b4be4b072", "is_disabled": 0, "is_reserved": 0}, {"rental_uris": {"ios": "https://dc.lft.to/lastmile_qr_scan", "android": "https://dc.lft.to/lastmile_qr_scan"}, "lon": -76.96778583333334, "type": "electric_scooter", "fusion_lat": 0.0, "lat": 38.8614335, "name": "25ad18b236c697a9ddde91fe48260cd7", "fusion_lon": 0.0, "bike_id": "25ad18b236c697a9ddde91fe48260cd7", "is_disabled": 0, "is_reserved": 0}, {"rental_uris": {"ios": "https://dc.lft.to/lastmile_qr_scan", "android": "https://dc.lft.to/lastmile_qr_scan"}, "lon": -77.02520716666666, "type": "electric_scooter", "fusion_lat": 0.0, "lat": 38.900886166666666, "name": "3d4e956a72da0cf1bb8d7d8548ec7829", "fusion_lon": 0.0, "bike_id": "3d4e956a72da0cf1bb8d7d8548ec7829", "is_disabled": 0, "is_reserved": 0}, {"rental_uris": {"ios": "https://dc.lft.to/lastmile_qr_scan", "android": "https://dc.lft.to/lastmile_qr_scan"}, "lon": -77.01979116666666, "type": "electric_scooter", "fusion_lat": 0.0, "lat": 38.9006555, "name": "fdc85558aafd501e26e3dc39c5961a5b", "fusion_lon": 0.0, "bike_id": "fdc85558aafd501e26e3dc39c5961a5b", "is_disabled": 0, "is_reserved": 0}, {"rental_uris": {"ios": "https://dc.lft.to/lastmile_qr_scan", "android": "https://dc.lft.to/lastmile_qr_scan"}, "lon": -76.94623683333333, "type": "electric_bike", "fusion_lat": 0.0, "lat": 38.83238216666667, "name": "8a15f6dcc62bd0759279ef04bf920063", "fusion_lon": 0.0, "bike_id": "8a15f6dcc62bd0759279ef04bf920063", "is_disabled": 0, "is_reserved": 0}, {"rental_uris": {"ios": "https://dc.lft.to/lastmile_qr_scan", "android": "https://dc.lft.to/lastmile_qr_scan"}, "lon": -77.0436505, "type": "electric_scooter", "fusion_lat": 0.0, "lat": 38.933305833333335, "name": "e49d12f74c178ddc18a2da7e1e14f167", "fusion_lon": 0.0, "bike_id": "e49d12f74c178ddc18a2da7e1e14f167", "is_disabled": 0, "is_reserved": 0}, {"rental_uris": {"ios": "https://dc.lft.to/lastmile_qr_scan", "android": "https://dc.lft.to/lastmile_qr_scan"}, "lon": -77.02172316666666, "type": "electric_scooter", "fusion_lat": 0.0, "lat": 38.8940005, "name": "3d30fa203d207be621d6ca8c36353d1f", "fusion_lon": 0.0, "bike_id": "3d30fa203d207be621d6ca8c36353d1f", "is_disabled": 0, "is_reserved": 0}, {"rental_uris": {"ios": "https://dc.lft.to/lastmile_qr_scan", "android": "https://dc.lft.to/lastmile_qr_scan"}, "lon": -77.02962616666667, "type": "electric_scooter", "fusion_lat": 0.0, "lat": 38.908309333333335, "name": "9c9c46247afc14cebf65370d549b4cff", "fusion_lon": 0.0, "bike_id": "9c9c46247afc14cebf65370d549b4cff", "is_disabled": 0, "is_reserved": 0}, {"rental_uris": {"ios": "https://dc.lft.to/lastmile_qr_scan", "android": "https://dc.lft.to/lastmile_qr_scan"}, "lon": -77.00986483333334, "type": "electric_scooter", "fusion_lat": 0.0, "lat": 38.872908, "name": "58b5f61afcecf3c351e0515a33ad919a", "fusion_lon": 0.0, "bike_id": "58b5f61afcecf3c351e0515a33ad919a", "is_disabled": 0, "is_reserved": 0}, {"rental_uris": {"ios": "https://dc.lft.to/lastmile_qr_scan", "android": "https://dc.lft.to/lastmile_qr_scan"}, "lon": -76.989074, "type": "electric_scooter", "fusion_lat": 0.0, "lat": 38.86691016666666, "name": "582c3aae2a0c71716c5e9324b7a6728f", "fusion_lon": 0.0, "bike_id": "582c3aae2a0c71716c5e9324b7a6728f", "is_disabled": 0, "is_reserved": 0}, {"rental_uris": {"ios": "https://dc.lft.to/lastmile_qr_scan", "android": "https://dc.lft.to/lastmile_qr_scan"}, "lon": -77.02171883333334, "type": "electric_scooter", "fusion_lat": 0.0, "lat": 38.94293, "name": "ee66b66ec87041d7a7bec21f3195cbe2", "fusion_lon": 0.0, "bike_id": "ee66b66ec87041d7a7bec21f3195cbe2", "is_disabled": 0, "is_reserved": 0}, {"rental_uris": {"ios": "https://dc.lft.to/lastmile_qr_scan", "android": "https://dc.lft.to/lastmile_qr_scan"}, "lon": -77.04016683333333, "type": "electric_scooter", "fusion_lat": 0.0, "lat": 38.921815333333335, "name": "cb012d1d82346d686c8eb9d34b6aff66", "fusion_lon": 0.0, "bike_id": "cb012d1d82346d686c8eb9d34b6aff66", "is_disabled": 0, "is_reserved": 0}, {"rental_uris": {"ios": "https://dc.lft.to/lastmile_qr_scan", "android": "https://dc.lft.to/lastmile_qr_scan"}, "lon": -77.1077785, "type": "electric_bike", "fusion_lat": 0.0, "lat": 38.892156, "name": "26ff32158b6dbedf09f88ca2e1aacb06", "fusion_lon": 0.0, "bike_id": "26ff32158b6dbedf09f88ca2e1aacb06", "is_disabled": 0, "is_reserved": 0}, {"rental_uris": {"ios": "https://dc.lft.to/lastmile_qr_scan", "android": "https://dc.lft.to/lastmile_qr_scan"}, "lon": -77.050465, "type": "electric_scooter", "fusion_lat": 0.0, "lat": 38.90341733333333, "name": "34d74d744938af7cd4915d1b364e4cb4", "fusion_lon": 0.0, "bike_id": "34d74d744938af7cd4915d1b364e4cb4", "is_disabled": 0, "is_reserved": 0}, {"rental_uris": {"ios": "https://dc.lft.to/lastmile_qr_scan", "android": "https://dc.lft.to/lastmile_qr_scan"}, "lon": -77.033256, "type": "electric_scooter", "fusion_lat": 0.0, "lat": 38.89849183333333, "name": "e4b318573b67471bf325d1907f8b8ac1", "fusion_lon": 0.0, "bike_id": "e4b318573b67471bf325d1907f8b8ac1", "is_disabled": 0, "is_reserved": 0}, {"rental_uris": {"ios": "https://dc.lft.to/lastmile_qr_scan", "android": "https://dc.lft.to/lastmile_qr_scan"}, "lon": -77.02226533333334, "type": "electric_scooter", "fusion_lat": 0.0, "lat": 38.89220233333333, "name": "2e25715395fd54e08053744af7d6a259", "fusion_lon": 0.0, "bike_id": "2e25715395fd54e08053744af7d6a259", "is_disabled": 0, "is_reserved": 0}, {"rental_uris": {"ios": "https://dc.lft.to/lastmile_qr_scan", "android": "https://dc.lft.to/lastmile_qr_scan"}, "lon": -77.0309115, "type": "electric_scooter", "fusion_lat": 0.0, "lat": 38.895684333333335, "name": "3783554381399e262431dcd0d42fbaf8", "fusion_lon": 0.0, "bike_id": "3783554381399e262431dcd0d42fbaf8", "is_disabled": 0, "is_reserved": 0}, {"rental_uris": {"ios": "https://dc.lft.to/lastmile_qr_scan", "android": "https://dc.lft.to/lastmile_qr_scan"}, "lon": -77.06994816666666, "type": "electric_bike", "fusion_lat": 0.0, "lat": 38.955034166666664, "name": "e4884681abb4cdea93840cc3ce7d71d5", "fusion_lon": 0.0, "bike_id": "e4884681abb4cdea93840cc3ce7d71d5", "is_disabled": 0, "is_reserved": 0}, {"rental_uris": {"ios": "https://dc.lft.to/lastmile_qr_scan", "android": "https://dc.lft.to/lastmile_qr_scan"}, "lon": -77.02422966666667, "type": "electric_scooter", "fusion_lat": 0.0, "lat": 38.90566966666667, "name": "192988e3cac7e08a6bf313f27d5f3f33", "fusion_lon": 0.0, "bike_id": "192988e3cac7e08a6bf313f27d5f3f33", "is_disabled": 0, "is_reserved": 0}, {"rental_uris": {"ios": "https://dc.lft.to/lastmile_qr_scan", "android": "https://dc.lft.to/lastmile_qr_scan"}, "lon": -77.00203283333333, "type": "electric_scooter", "fusion_lat": 0.0, "lat": 38.9003775, "name": "836dc515e80a8b37b56d993e1356a5f9", "fusion_lon": 0.0, "bike_id": "836dc515e80a8b37b56d993e1356a5f9", "is_disabled": 0, "is_reserved": 0}, {"rental_uris": {"ios": "https://dc.lft.to/lastmile_qr_scan", "android": "https://dc.lft.to/lastmile_qr_scan"}, "lon": -76.98905616666667, "type": "electric_scooter", "fusion_lat": 0.0, "lat": 38.86654516666667, "name": "21d82f5b9556de75be34d36dee569bef", "fusion_lon": 0.0, "bike_id": "21d82f5b9556de75be34d36dee569bef", "is_disabled": 0, "is_reserved": 0}, {"rental_uris": {"ios": "https://dc.lft.to/lastmile_qr_scan", "android": "https://dc.lft.to/lastmile_qr_scan"}, "lon": -77.01145583333333, "type": "electric_bike", "fusion_lat": 0.0, "lat": 38.911841333333335, "name": "5f5a42f05ae143c74f6a592ef412ee39", "fusion_lon": 0.0, "bike_id": "5f5a42f05ae143c74f6a592ef412ee39", "is_disabled": 0, "is_reserved": 0}, {"rental_uris": {"ios": "https://dc.lft.to/lastmile_qr_scan", "android": "https://dc.lft.to/lastmile_qr_scan"}, "lon": -77.03695316666666, "type": "electric_scooter", "fusion_lat": 0.0, "lat": 38.92644416666667, "name": "0ba4796110c43187911f72f7bf7b2299", "fusion_lon": 0.0, "bike_id": "0ba4796110c43187911f72f7bf7b2299", "is_disabled": 0, "is_reserved": 0}, {"rental_uris": {"ios": "https://dc.lft.to/lastmile_qr_scan", "android": "https://dc.lft.to/lastmile_qr_scan"}, "lon": -77.04118216666667, "type": "electric_scooter", "fusion_lat": 0.0, "lat": 38.917084333333335, "name": "5aafd0c89ca6b889acca645449b40a8b", "fusion_lon": 0.0, "bike_id": "5aafd0c89ca6b889acca645449b40a8b", "is_disabled": 0, "is_reserved": 0}, {"rental_uris": {"ios": "https://dc.lft.to/lastmile_qr_scan", "android": "https://dc.lft.to/lastmile_qr_scan"}, "lon": -77.02564616666666, "type": "electric_scooter", "fusion_lat": 0.0, "lat": 38.91479833333333, "name": "ebe4c24387eb75f713733f3af7c3ca91", "fusion_lon": 0.0, "bike_id": "ebe4c24387eb75f713733f3af7c3ca91", "is_disabled": 0, "is_reserved": 0}, {"rental_uris": {"ios": "https://dc.lft.to/lastmile_qr_scan", "android": "https://dc.lft.to/lastmile_qr_scan"}, "lon": -77.04173916666667, "type": "electric_scooter", "fusion_lat": 0.0, "lat": 38.917695333333334, "name": "4067ed3260f2ca858b84560db821d593", "fusion_lon": 0.0, "bike_id": "4067ed3260f2ca858b84560db821d593", "is_disabled": 0, "is_reserved": 0}, {"rental_uris": {"ios": "https://dc.lft.to/lastmile_qr_scan", "android": "https://dc.lft.to/lastmile_qr_scan"}, "lon": -77.02403133333334, "type": "electric_scooter", "fusion_lat": 0.0, "lat": 38.93700416666667, "name": "cc42cf082aec15736103d2689c00ebe2", "fusion_lon": 0.0, "bike_id": "cc42cf082aec15736103d2689c00ebe2", "is_disabled": 0, "is_reserved": 0}, {"rental_uris": {"ios": "https://dc.lft.to/lastmile_qr_scan", "android": "https://dc.lft.to/lastmile_qr_scan"}, "lon": -77.0007515, "type": "electric_scooter", "fusion_lat": 0.0, "lat": 38.90144933333333, "name": "26f7f8450d42258f0f472a96bbf9a72c", "fusion_lon": 0.0, "bike_id": "26f7f8450d42258f0f472a96bbf9a72c", "is_disabled": 0, "is_reserved": 0}, {"rental_uris": {"ios": "https://dc.lft.to/lastmile_qr_scan", "android": "https://dc.lft.to/lastmile_qr_scan"}, "lon": -77.0416415, "type": "electric_scooter", "fusion_lat": 0.0, "lat": 38.91637983333333, "name": "71ed7eabcf0a9e8e350288758703d0e1", "fusion_lon": 0.0, "bike_id": "71ed7eabcf0a9e8e350288758703d0e1", "is_disabled": 0, "is_reserved": 0}, {"rental_uris": {"ios": "https://dc.lft.to/lastmile_qr_scan", "android": "https://dc.lft.to/lastmile_qr_scan"}, "lon": -77.04723033333333, "type": "electric_scooter", "fusion_lat": 0.0, "lat": 38.896725833333335, "name": "f2e06bf3e5765edf0e6b0f2bb50b967e", "fusion_lon": 0.0, "bike_id": "f2e06bf3e5765edf0e6b0f2bb50b967e", "is_disabled": 0, "is_reserved": 0}, {"rental_uris": {"ios": "https://dc.lft.to/lastmile_qr_scan", "android": "https://dc.lft.to/lastmile_qr_scan"}, "lon": -77.04006633333333, "type": "electric_scooter", "fusion_lat": 0.0, "lat": 38.89628833333333, "name": "07e954116f1c472c2b1ca7c93e6f925f", "fusion_lon": 0.0, "bike_id": "07e954116f1c472c2b1ca7c93e6f925f", "is_disabled": 0, "is_reserved": 0}, {"rental_uris": {"ios": "https://dc.lft.to/lastmile_qr_scan", "android": "https://dc.lft.to/lastmile_qr_scan"}, "lon": -77.00585733333334, "type": "electric_scooter", "fusion_lat": 0.0, "lat": 38.9156045, "name": "8d82d0da8c2211ff13ad2cf1883791b6", "fusion_lon": 0.0, "bike_id": "8d82d0da8c2211ff13ad2cf1883791b6", "is_disabled": 0, "is_reserved": 0}, {"rental_uris": {"ios": "https://dc.lft.to/lastmile_qr_scan", "android": "https://dc.lft.to/lastmile_qr_scan"}, "lon": -77.124972, "type": "electric_bike", "fusion_lat": 0.0, "lat": 39.0241575, "name": "ab50c24af108d66a3832e7b1bed44d63", "fusion_lon": 0.0, "bike_id": "ab50c24af108d66a3832e7b1bed44d63", "is_disabled": 0, "is_reserved": 0}, {"rental_uris": {"ios": "https://dc.lft.to/lastmile_qr_scan", "android": "https://dc.lft.to/lastmile_qr_scan"}, "lon": -77.02961966666666, "type": "electric_scooter", "fusion_lat": 0.0, "lat": 38.9464575, "name": "4e19a863451d03e6c399d28b8bc8dd96", "fusion_lon": 0.0, "bike_id": "4e19a863451d03e6c399d28b8bc8dd96", "is_disabled": 0, "is_reserved": 0}, {"rental_uris": {"ios": "https://dc.lft.to/lastmile_qr_scan", "android": "https://dc.lft.to/lastmile_qr_scan"}, "lon": -77.03860316666666, "type": "electric_scooter", "fusion_lat": 0.0, "lat": 38.902784, "name": "ad9fd28105fe25b96de35feea9e10e0e", "fusion_lon": 0.0, "bike_id": "ad9fd28105fe25b96de35feea9e10e0e", "is_disabled": 0, "is_reserved": 0}, {"rental_uris": {"ios": "https://dc.lft.to/lastmile_qr_scan", "android": "https://dc.lft.to/lastmile_qr_scan"}, "lon": -77.0135185, "type": "electric_scooter", "fusion_lat": 0.0, "lat": 38.895701, "name": "5a79a4fd70780a5f931c4a8b8e9233df", "fusion_lon": 0.0, "bike_id": "5a79a4fd70780a5f931c4a8b8e9233df", "is_disabled": 0, "is_reserved": 0}, {"rental_uris": {"ios": "https://dc.lft.to/lastmile_qr_scan", "android": "https://dc.lft.to/lastmile_qr_scan"}, "lon": -77.04867733333333, "type": "electric_scooter", "fusion_lat": 0.0, "lat": 38.90079033333333, "name": "b7e08ce4072ea991409710d60a8c2bec", "fusion_lon": 0.0, "bike_id": "b7e08ce4072ea991409710d60a8c2bec", "is_disabled": 0, "is_reserved": 0}, {"rental_uris": {"ios": "https://dc.lft.to/lastmile_qr_scan", "android": "https://dc.lft.to/lastmile_qr_scan"}, "lon": -77.10725583333334, "type": "electric_bike", "fusion_lat": 0.0, "lat": 38.8551915, "name": "d4aaf3d2e18b79e81b6e2b98c9218718", "fusion_lon": 0.0, "bike_id": "d4aaf3d2e18b79e81b6e2b98c9218718", "is_disabled": 0, "is_reserved": 0}, {"rental_uris": {"ios": "https://dc.lft.to/lastmile_qr_scan", "android": "https://dc.lft.to/lastmile_qr_scan"}, "lon": -77.0212145, "type": "electric_scooter", "fusion_lat": 0.0, "lat": 38.89724, "name": "338f371b326bfd1a9d0f127601a1954a", "fusion_lon": 0.0, "bike_id": "338f371b326bfd1a9d0f127601a1954a", "is_disabled": 0, "is_reserved": 0}, {"rental_uris": {"ios": "https://dc.lft.to/lastmile_qr_scan", "android": "https://dc.lft.to/lastmile_qr_scan"}, "lon": -77.07089633333334, "type": "electric_scooter", "fusion_lat": 0.0, "lat": 38.89907783333334, "name": "bb66a41c12be64b9ac2069b8aa0f52ec", "fusion_lon": 0.0, "bike_id": "bb66a41c12be64b9ac2069b8aa0f52ec", "is_disabled": 0, "is_reserved": 0}, {"rental_uris": {"ios": "https://dc.lft.to/lastmile_qr_scan", "android": "https://dc.lft.to/lastmile_qr_scan"}, "lon": -77.02603733333333, "type": "electric_scooter", "fusion_lat": 0.0, "lat": 38.90202883333333, "name": "6a20784c6a90826373f53b3f222901d6", "fusion_lon": 0.0, "bike_id": "6a20784c6a90826373f53b3f222901d6", "is_disabled": 0, "is_reserved": 0}, {"rental_uris": {"ios": "https://dc.lft.to/lastmile_qr_scan", "android": "https://dc.lft.to/lastmile_qr_scan"}, "lon": -76.94868633333333, "type": "electric_scooter", "fusion_lat": 0.0, "lat": 38.89481266666667, "name": "284805117831b2eb8c4a357235d2f695", "fusion_lon": 0.0, "bike_id": "284805117831b2eb8c4a357235d2f695", "is_disabled": 0, "is_reserved": 0}, {"rental_uris": {"ios": "https://dc.lft.to/lastmile_qr_scan", "android": "https://dc.lft.to/lastmile_qr_scan"}, "lon": -77.0759315, "type": "electric_scooter", "fusion_lat": 0.0, "lat": 38.9121295, "name": "1c7bf99b0103c60cc42c94d6c4143dde", "fusion_lon": 0.0, "bike_id": "1c7bf99b0103c60cc42c94d6c4143dde", "is_disabled": 0, "is_reserved": 0}, {"rental_uris": {"ios": "https://dc.lft.to/lastmile_qr_scan", "android": "https://dc.lft.to/lastmile_qr_scan"}, "lon": -76.954137, "type": "electric_scooter", "fusion_lat": 0.0, "lat": 38.88993083333333, "name": "bc548fcc1a39c49db6032e1835875322", "fusion_lon": 0.0, "bike_id": "bc548fcc1a39c49db6032e1835875322", "is_disabled": 0, "is_reserved": 0}, {"rental_uris": {"ios": "https://dc.lft.to/lastmile_qr_scan", "android": "https://dc.lft.to/lastmile_qr_scan"}, "lon": -77.0101305, "type": "electric_scooter", "fusion_lat": 0.0, "lat": 38.91809816666667, "name": "62c39306a9eeb6341cdd2942ece9e2c5", "fusion_lon": 0.0, "bike_id": "62c39306a9eeb6341cdd2942ece9e2c5", "is_disabled": 0, "is_reserved": 0}, {"rental_uris": {"ios": "https://dc.lft.to/lastmile_qr_scan", "android": "https://dc.lft.to/lastmile_qr_scan"}, "lon": -76.98993366666667, "type": "electric_scooter", "fusion_lat": 0.0, "lat": 38.90392816666667, "name": "7dedf414498223384c62f34636295e16", "fusion_lon": 0.0, "bike_id": "7dedf414498223384c62f34636295e16", "is_disabled": 0, "is_reserved": 0}, {"rental_uris": {"ios": "https://dc.lft.to/lastmile_qr_scan", "android": "https://dc.lft.to/lastmile_qr_scan"}, "lon": -77.05403583333333, "type": "electric_scooter", "fusion_lat": 0.0, "lat": 38.90158483333333, "name": "84021d8c9f88d20684e675365f250edf", "fusion_lon": 0.0, "bike_id": "84021d8c9f88d20684e675365f250edf", "is_disabled": 0, "is_reserved": 0}, {"rental_uris": {"ios": "https://dc.lft.to/lastmile_qr_scan", "android": "https://dc.lft.to/lastmile_qr_scan"}, "lon": -77.02439133333333, "type": "electric_scooter", "fusion_lat": 0.0, "lat": 38.9371605, "name": "9029c650faec4d8a3f4cf32177c45163", "fusion_lon": 0.0, "bike_id": "9029c650faec4d8a3f4cf32177c45163", "is_disabled": 0, "is_reserved": 0}, {"rental_uris": {"ios": "https://dc.lft.to/lastmile_qr_scan", "android": "https://dc.lft.to/lastmile_qr_scan"}, "lon": -77.03839566666667, "type": "electric_scooter", "fusion_lat": 0.0, "lat": 38.93109033333333, "name": "61be2c2fa8fe4eb11f28cbb92520ceea", "fusion_lon": 0.0, "bike_id": "61be2c2fa8fe4eb11f28cbb92520ceea", "is_disabled": 0, "is_reserved": 0}, {"rental_uris": {"ios": "https://dc.lft.to/lastmile_qr_scan", "android": "https://dc.lft.to/lastmile_qr_scan"}, "lon": -77.038808, "type": "electric_scooter", "fusion_lat": 0.0, "lat": 38.93432383333333, "name": "6e124d3d78e90c64d000e0b280ee52e3", "fusion_lon": 0.0, "bike_id": "6e124d3d78e90c64d000e0b280ee52e3", "is_disabled": 0, "is_reserved": 0}, {"rental_uris": {"ios": "https://dc.lft.to/lastmile_qr_scan", "android": "https://dc.lft.to/lastmile_qr_scan"}, "lon": -77.021289, "type": "electric_scooter", "fusion_lat": 0.0, "lat": 38.916131666666665, "name": "49a2eb9e5f0cba117248bd7b1cdc16ac", "fusion_lon": 0.0, "bike_id": "49a2eb9e5f0cba117248bd7b1cdc16ac", "is_disabled": 0, "is_reserved": 0}, {"rental_uris": {"ios": "https://dc.lft.to/lastmile_qr_scan", "android": "https://dc.lft.to/lastmile_qr_scan"}, "lon": -76.93377016666666, "type": "electric_scooter", "fusion_lat": 0.0, "lat": 38.899164, "name": "73071439d5b1de70d984cf938d7f8df1", "fusion_lon": 0.0, "bike_id": "73071439d5b1de70d984cf938d7f8df1", "is_disabled": 0, "is_reserved": 0}, {"rental_uris": {"ios": "https://dc.lft.to/lastmile_qr_scan", "android": "https://dc.lft.to/lastmile_qr_scan"}, "lon": -77.0222295, "type": "electric_scooter", "fusion_lat": 0.0, "lat": 38.89219, "name": "220e81b82705ea5526e0a77c5e8268a5", "fusion_lon": 0.0, "bike_id": "220e81b82705ea5526e0a77c5e8268a5", "is_disabled": 0, "is_reserved": 0}, {"rental_uris": {"ios": "https://dc.lft.to/lastmile_qr_scan", "android": "https://dc.lft.to/lastmile_qr_scan"}, "lon": -77.048658, "type": "electric_scooter", "fusion_lat": 0.0, "lat": 38.892227166666665, "name": "13864e0dcfdf2f87f1c44f267984c070", "fusion_lon": 0.0, "bike_id": "13864e0dcfdf2f87f1c44f267984c070", "is_disabled": 0, "is_reserved": 0}, {"rental_uris": {"ios": "https://dc.lft.to/lastmile_qr_scan", "android": "https://dc.lft.to/lastmile_qr_scan"}, "lon": -77.0416875, "type": "electric_scooter", "fusion_lat": 0.0, "lat": 38.92004566666667, "name": "c3037ac0021832bfe7c4c890325dc29b", "fusion_lon": 0.0, "bike_id": "c3037ac0021832bfe7c4c890325dc29b", "is_disabled": 0, "is_reserved": 0}, {"rental_uris": {"ios": "https://dc.lft.to/lastmile_qr_scan", "android": "https://dc.lft.to/lastmile_qr_scan"}, "lon": -76.95601783333333, "type": "electric_scooter", "fusion_lat": 0.0, "lat": 38.88763566666667, "name": "c38c4fab474f65da56429992124585f0", "fusion_lon": 0.0, "bike_id": "c38c4fab474f65da56429992124585f0", "is_disabled": 0, "is_reserved": 0}, {"rental_uris": {"ios": "https://dc.lft.to/lastmile_qr_scan", "android": "https://dc.lft.to/lastmile_qr_scan"}, "lon": -77.04380516666667, "type": "electric_scooter", "fusion_lat": 0.0, "lat": 38.920665666666665, "name": "db6e1d051905185b4659edb88b0d6070", "fusion_lon": 0.0, "bike_id": "db6e1d051905185b4659edb88b0d6070", "is_disabled": 0, "is_reserved": 0}, {"rental_uris": {"ios": "https://dc.lft.to/lastmile_qr_scan", "android": "https://dc.lft.to/lastmile_qr_scan"}, "lon": -77.02182166666667, "type": "electric_scooter", "fusion_lat": 0.0, "lat": 38.91509766666667, "name": "711aa1e7df1cfddc84a7f4550fc1985f", "fusion_lon": 0.0, "bike_id": "711aa1e7df1cfddc84a7f4550fc1985f", "is_disabled": 0, "is_reserved": 0}, {"rental_uris": {"ios": "https://dc.lft.to/lastmile_qr_scan", "android": "https://dc.lft.to/lastmile_qr_scan"}, "lon": -77.04369016666666, "type": "electric_scooter", "fusion_lat": 0.0, "lat": 38.916712833333335, "name": "b856a51a2926f65f5896e74148f7fd55", "fusion_lon": 0.0, "bike_id": "b856a51a2926f65f5896e74148f7fd55", "is_disabled": 0, "is_reserved": 0}, {"rental_uris": {"ios": "https://dc.lft.to/lastmile_qr_scan", "android": "https://dc.lft.to/lastmile_qr_scan"}, "lon": -77.03224916666667, "type": "electric_scooter", "fusion_lat": 0.0, "lat": 38.92582266666667, "name": "541f78c808e8aa1c15c20aeb8e64103a", "fusion_lon": 0.0, "bike_id": "541f78c808e8aa1c15c20aeb8e64103a", "is_disabled": 0, "is_reserved": 0}, {"rental_uris": {"ios": "https://dc.lft.to/lastmile_qr_scan", "android": "https://dc.lft.to/lastmile_qr_scan"}, "lon": -77.03724183333334, "type": "electric_scooter", "fusion_lat": 0.0, "lat": 38.933598333333336, "name": "4a8a87408b254391185448a942106d3a", "fusion_lon": 0.0, "bike_id": "4a8a87408b254391185448a942106d3a", "is_disabled": 0, "is_reserved": 0}, {"rental_uris": {"ios": "https://dc.lft.to/lastmile_qr_scan", "android": "https://dc.lft.to/lastmile_qr_scan"}, "lon": -77.02410833333333, "type": "electric_scooter", "fusion_lat": 0.0, "lat": 38.892193666666664, "name": "c46af15f212f7710758b05e53a6e5862", "fusion_lon": 0.0, "bike_id": "c46af15f212f7710758b05e53a6e5862", "is_disabled": 0, "is_reserved": 0}, {"rental_uris": {"ios": "https://dc.lft.to/lastmile_qr_scan", "android": "https://dc.lft.to/lastmile_qr_scan"}, "lon": -76.97812116666667, "type": "electric_scooter", "fusion_lat": 0.0, "lat": 38.906723666666664, "name": "24fe397c0a5cd88e6f3c69cb7430d9fd", "fusion_lon": 0.0, "bike_id": "24fe397c0a5cd88e6f3c69cb7430d9fd", "is_disabled": 0, "is_reserved": 0}, {"rental_uris": {"ios": "https://dc.lft.to/lastmile_qr_scan", "android": "https://dc.lft.to/lastmile_qr_scan"}, "lon": -77.02193783333334, "type": "electric_scooter", "fusion_lat": 0.0, "lat": 38.894336833333334, "name": "030576c25cad4f7d8bc37b8e20480705", "fusion_lon": 0.0, "bike_id": "030576c25cad4f7d8bc37b8e20480705", "is_disabled": 0, "is_reserved": 0}, {"rental_uris": {"ios": "https://dc.lft.to/lastmile_qr_scan", "android": "https://dc.lft.to/lastmile_qr_scan"}, "lon": -77.05136333333333, "type": "electric_scooter", "fusion_lat": 0.0, "lat": 38.902249833333336, "name": "5f3be5fb09591c1206e14101b9280b22", "fusion_lon": 0.0, "bike_id": "5f3be5fb09591c1206e14101b9280b22", "is_disabled": 0, "is_reserved": 0}, {"rental_uris": {"ios": "https://dc.lft.to/lastmile_qr_scan", "android": "https://dc.lft.to/lastmile_qr_scan"}, "lon": -77.11201033333333, "type": "electric_bike", "fusion_lat": 0.0, "lat": 38.81304766666667, "name": "daf7c50c2c1e9fc0d08f5bb4ebe766a1", "fusion_lon": 0.0, "bike_id": "daf7c50c2c1e9fc0d08f5bb4ebe766a1", "is_disabled": 0, "is_reserved": 0}, {"rental_uris": {"ios": "https://dc.lft.to/lastmile_qr_scan", "android": "https://dc.lft.to/lastmile_qr_scan"}, "lon": -77.12262233333334, "type": "electric_bike", "fusion_lat": 0.0, "lat": 38.8919205, "name": "001dd8f23cd7948b8235047c824efd68", "fusion_lon": 0.0, "bike_id": "001dd8f23cd7948b8235047c824efd68", "is_disabled": 0, "is_reserved": 0}, {"rental_uris": {"ios": "https://dc.lft.to/lastmile_qr_scan", "android": "https://dc.lft.to/lastmile_qr_scan"}, "lon": -76.93546433333333, "type": "electric_bike", "fusion_lat": 0.0, "lat": 38.955459833333336, "name": "f18e5653a9c45666977363cdc15a92b3", "fusion_lon": 0.0, "bike_id": "f18e5653a9c45666977363cdc15a92b3", "is_disabled": 0, "is_reserved": 0}, {"rental_uris": {"ios": "https://dc.lft.to/lastmile_qr_scan", "android": "https://dc.lft.to/lastmile_qr_scan"}, "lon": -77.04493, "type": "electric_scooter", "fusion_lat": 0.0, "lat": 38.91600866666667, "name": "08dbf762c55e540830b950c5b16a2303", "fusion_lon": 0.0, "bike_id": "08dbf762c55e540830b950c5b16a2303", "is_disabled": 0, "is_reserved": 0}, {"rental_uris": {"ios": "https://dc.lft.to/lastmile_qr_scan", "android": "https://dc.lft.to/lastmile_qr_scan"}, "lon": -77.07679583333334, "type": "electric_bike", "fusion_lat": 0.0, "lat": 38.831936666666664, "name": "612f0b6a83004400d17d5cae8ad96770", "fusion_lon": 0.0, "bike_id": "612f0b6a83004400d17d5cae8ad96770", "is_disabled": 0, "is_reserved": 0}, {"rental_uris": {"ios": "https://dc.lft.to/lastmile_qr_scan", "android": "https://dc.lft.to/lastmile_qr_scan"}, "lon": -77.05018, "type": "electric_scooter", "fusion_lat": 0.0, "lat": 38.907281166666664, "name": "e15de273b5673765218005cb3ab2f52d", "fusion_lon": 0.0, "bike_id": "e15de273b5673765218005cb3ab2f52d", "is_disabled": 0, "is_reserved": 0}, {"rental_uris": {"ios": "https://dc.lft.to/lastmile_qr_scan", "android": "https://dc.lft.to/lastmile_qr_scan"}, "lon": -76.99036116666667, "type": "electric_bike", "fusion_lat": 0.0, "lat": 38.9000525, "name": "aefd8b5953ae789a3bdc9c23cd1b0eaa", "fusion_lon": 0.0, "bike_id": "aefd8b5953ae789a3bdc9c23cd1b0eaa", "is_disabled": 0, "is_reserved": 0}, {"rental_uris": {"ios": "https://dc.lft.to/lastmile_qr_scan", "android": "https://dc.lft.to/lastmile_qr_scan"}, "lon": -77.04009116666667, "type": "electric_scooter", "fusion_lat": 0.0, "lat": 38.9325775, "name": "46891abd7e7d95719d7571514e7dc2ab", "fusion_lon": 0.0, "bike_id": "46891abd7e7d95719d7571514e7dc2ab", "is_disabled": 0, "is_reserved": 0}, {"rental_uris": {"ios": "https://dc.lft.to/lastmile_qr_scan", "android": "https://dc.lft.to/lastmile_qr_scan"}, "lon": -76.996951, "type": "electric_scooter", "fusion_lat": 0.0, "lat": 38.899981833333335, "name": "4f1a86d86839f31cac91a8dbbbfc035c", "fusion_lon": 0.0, "bike_id": "4f1a86d86839f31cac91a8dbbbfc035c", "is_disabled": 0, "is_reserved": 0}, {"rental_uris": {"ios": "https://dc.lft.to/lastmile_qr_scan", "android": "https://dc.lft.to/lastmile_qr_scan"}, "lon": -77.01114333333334, "type": "electric_scooter", "fusion_lat": 0.0, "lat": 38.90009933333333, "name": "fe51522355110e5d051604b333685149", "fusion_lon": 0.0, "bike_id": "fe51522355110e5d051604b333685149", "is_disabled": 0, "is_reserved": 0}, {"rental_uris": {"ios": "https://dc.lft.to/lastmile_qr_scan", "android": "https://dc.lft.to/lastmile_qr_scan"}, "lon": -76.982603, "type": "electric_scooter", "fusion_lat": 0.0, "lat": 38.86351, "name": "a7a649b4ec97aae9538c4cf22b025f9e", "fusion_lon": 0.0, "bike_id": "a7a649b4ec97aae9538c4cf22b025f9e", "is_disabled": 0, "is_reserved": 0}, {"rental_uris": {"ios": "https://dc.lft.to/lastmile_qr_scan", "android": "https://dc.lft.to/lastmile_qr_scan"}, "lon": -76.96753166666667, "type": "electric_bike", "fusion_lat": 0.0, "lat": 38.87546233333333, "name": "98dd23123ac721b2d8ec2bc072848363", "fusion_lon": 0.0, "bike_id": "98dd23123ac721b2d8ec2bc072848363", "is_disabled": 0, "is_reserved": 0}, {"rental_uris": {"ios": "https://dc.lft.to/lastmile_qr_scan", "android": "https://dc.lft.to/lastmile_qr_scan"}, "lon": -77.02016083333334, "type": "electric_scooter", "fusion_lat": 0.0, "lat": 38.916558333333334, "name": "19a928350495bd6ece0718346f978de3", "fusion_lon": 0.0, "bike_id": "19a928350495bd6ece0718346f978de3", "is_disabled": 0, "is_reserved": 0}, {"rental_uris": {"ios": "https://dc.lft.to/lastmile_qr_scan", "android": "https://dc.lft.to/lastmile_qr_scan"}, "lon": -77.01845, "type": "electric_scooter", "fusion_lat": 0.0, "lat": 38.912702, "name": "ee0a51ffd87ffa55ddb5f47777a43a66", "fusion_lon": 0.0, "bike_id": "ee0a51ffd87ffa55ddb5f47777a43a66", "is_disabled": 0, "is_reserved": 0}, {"rental_uris": {"ios": "https://dc.lft.to/lastmile_qr_scan", "android": "https://dc.lft.to/lastmile_qr_scan"}, "lon": -77.03261433333333, "type": "electric_scooter", "fusion_lat": 0.0, "lat": 38.9352525, "name": "eaee5acd0793fcedc4f5f6b81c751aea", "fusion_lon": 0.0, "bike_id": "eaee5acd0793fcedc4f5f6b81c751aea", "is_disabled": 0, "is_reserved": 0}, {"rental_uris": {"ios": "https://dc.lft.to/lastmile_qr_scan", "android": "https://dc.lft.to/lastmile_qr_scan"}, "lon": -76.97608533333333, "type": "electric_bike", "fusion_lat": 0.0, "lat": 38.91308466666667, "name": "5eb5e083e33e6f648270dcb7253291a2", "fusion_lon": 0.0, "bike_id": "5eb5e083e33e6f648270dcb7253291a2", "is_disabled": 0, "is_reserved": 0}, {"rental_uris": {"ios": "https://dc.lft.to/lastmile_qr_scan", "android": "https://dc.lft.to/lastmile_qr_scan"}, "lon": -76.99032466666667, "type": "electric_scooter", "fusion_lat": 0.0, "lat": 38.858702, "name": "a13e9a3bdef0d40f9f7b32d3f77a8eb0", "fusion_lon": 0.0, "bike_id": "a13e9a3bdef0d40f9f7b32d3f77a8eb0", "is_disabled": 0, "is_reserved": 0}, {"rental_uris": {"ios": "https://dc.lft.to/lastmile_qr_scan", "android": "https://dc.lft.to/lastmile_qr_scan"}, "lon": -77.02793933333334, "type": "electric_scooter", "fusion_lat": 0.0, "lat": 38.930768, "name": "8666365a7c51d2d856989398008e28d8", "fusion_lon": 0.0, "bike_id": "8666365a7c51d2d856989398008e28d8", "is_disabled": 0, "is_reserved": 0}, {"rental_uris": {"ios": "https://dc.lft.to/lastmile_qr_scan", "android": "https://dc.lft.to/lastmile_qr_scan"}, "lon": -77.04144983333333, "type": "electric_scooter", "fusion_lat": 0.0, "lat": 38.90750116666667, "name": "b667e43d0d7d6db8a5f41862749652e0", "fusion_lon": 0.0, "bike_id": "b667e43d0d7d6db8a5f41862749652e0", "is_disabled": 0, "is_reserved": 0}, {"rental_uris": {"ios": "https://dc.lft.to/lastmile_qr_scan", "android": "https://dc.lft.to/lastmile_qr_scan"}, "lon": -77.01987333333334, "type": "electric_scooter", "fusion_lat": 0.0, "lat": 38.897393666666666, "name": "1ba78ff84d7928108395560cbb45239b", "fusion_lon": 0.0, "bike_id": "1ba78ff84d7928108395560cbb45239b", "is_disabled": 0, "is_reserved": 0}, {"rental_uris": {"ios": "https://dc.lft.to/lastmile_qr_scan", "android": "https://dc.lft.to/lastmile_qr_scan"}, "lon": -77.03262066666667, "type": "electric_scooter", "fusion_lat": 0.0, "lat": 38.93874266666667, "name": "bb8908895861ad08c4b27656f05b44d1", "fusion_lon": 0.0, "bike_id": "bb8908895861ad08c4b27656f05b44d1", "is_disabled": 0, "is_reserved": 0}, {"rental_uris": {"ios": "https://dc.lft.to/lastmile_qr_scan", "android": "https://dc.lft.to/lastmile_qr_scan"}, "lon": -77.0031295, "type": "electric_scooter", "fusion_lat": 0.0, "lat": 38.901319666666666, "name": "334f0727642a36193d20a00a6e9bdd8a", "fusion_lon": 0.0, "bike_id": "334f0727642a36193d20a00a6e9bdd8a", "is_disabled": 0, "is_reserved": 0}, {"rental_uris": {"ios": "https://dc.lft.to/lastmile_qr_scan", "android": "https://dc.lft.to/lastmile_qr_scan"}, "lon": -77.029698, "type": "electric_scooter", "fusion_lat": 0.0, "lat": 38.92318133333333, "name": "6571084871cf16e5809579fe55802274", "fusion_lon": 0.0, "bike_id": "6571084871cf16e5809579fe55802274", "is_disabled": 0, "is_reserved": 0}, {"rental_uris": {"ios": "https://dc.lft.to/lastmile_qr_scan", "android": "https://dc.lft.to/lastmile_qr_scan"}, "lon": -76.997765, "type": "electric_scooter", "fusion_lat": 0.0, "lat": 38.84425733333333, "name": "7ee502dfe6961cf12e0cbaeaaf2eae52", "fusion_lon": 0.0, "bike_id": "7ee502dfe6961cf12e0cbaeaaf2eae52", "is_disabled": 0, "is_reserved": 0}, {"rental_uris": {"ios": "https://dc.lft.to/lastmile_qr_scan", "android": "https://dc.lft.to/lastmile_qr_scan"}, "lon": -77.04270416666667, "type": "electric_scooter", "fusion_lat": 0.0, "lat": 38.92252883333333, "name": "715130b86e607c4ecf4246d3e6a2be68", "fusion_lon": 0.0, "bike_id": "715130b86e607c4ecf4246d3e6a2be68", "is_disabled": 0, "is_reserved": 0}, {"rental_uris": {"ios": "https://dc.lft.to/lastmile_qr_scan", "android": "https://dc.lft.to/lastmile_qr_scan"}, "lon": -77.02274083333333, "type": "electric_scooter", "fusion_lat": 0.0, "lat": 38.8984095, "name": "424ca237cb141418634a87f9ac379a2a", "fusion_lon": 0.0, "bike_id": "424ca237cb141418634a87f9ac379a2a", "is_disabled": 0, "is_reserved": 0}, {"rental_uris": {"ios": "https://dc.lft.to/lastmile_qr_scan", "android": "https://dc.lft.to/lastmile_qr_scan"}, "lon": -77.020172, "type": "electric_scooter", "fusion_lat": 0.0, "lat": 38.932469166666664, "name": "033b621c5f6b3769e8d1552833406e19", "fusion_lon": 0.0, "bike_id": "033b621c5f6b3769e8d1552833406e19", "is_disabled": 0, "is_reserved": 0}, {"rental_uris": {"ios": "https://dc.lft.to/lastmile_qr_scan", "android": "https://dc.lft.to/lastmile_qr_scan"}, "lon": -77.03758116666667, "type": "electric_scooter", "fusion_lat": 0.0, "lat": 38.92474433333334, "name": "9415af6b0df53fc9a500a867cdc81672", "fusion_lon": 0.0, "bike_id": "9415af6b0df53fc9a500a867cdc81672", "is_disabled": 0, "is_reserved": 0}, {"rental_uris": {"ios": "https://dc.lft.to/lastmile_qr_scan", "android": "https://dc.lft.to/lastmile_qr_scan"}, "lon": -77.0246525, "type": "electric_scooter", "fusion_lat": 0.0, "lat": 38.9340875, "name": "32e1158eb662e7c590dba77fe2cf703f", "fusion_lon": 0.0, "bike_id": "32e1158eb662e7c590dba77fe2cf703f", "is_disabled": 0, "is_reserved": 0}, {"rental_uris": {"ios": "https://dc.lft.to/lastmile_qr_scan", "android": "https://dc.lft.to/lastmile_qr_scan"}, "lon": -77.032653, "type": "electric_scooter", "fusion_lat": 0.0, "lat": 38.92921066666667, "name": "af49227f02dea72d3f6f922335520d87", "fusion_lon": 0.0, "bike_id": "af49227f02dea72d3f6f922335520d87", "is_disabled": 0, "is_reserved": 0}, {"rental_uris": {"ios": "https://dc.lft.to/lastmile_qr_scan", "android": "https://dc.lft.to/lastmile_qr_scan"}, "lon": -77.05807583333333, "type": "electric_scooter", "fusion_lat": 0.0, "lat": 38.902919833333335, "name": "9191bae55759617be4dba532d6dc9a7a", "fusion_lon": 0.0, "bike_id": "9191bae55759617be4dba532d6dc9a7a", "is_disabled": 0, "is_reserved": 0}, {"rental_uris": {"ios": "https://dc.lft.to/lastmile_qr_scan", "android": "https://dc.lft.to/lastmile_qr_scan"}, "lon": -76.99943766666667, "type": "electric_scooter", "fusion_lat": 0.0, "lat": 38.842898166666664, "name": "541ae000cc51cc20ac076ac2526c75eb", "fusion_lon": 0.0, "bike_id": "541ae000cc51cc20ac076ac2526c75eb", "is_disabled": 0, "is_reserved": 0}, {"rental_uris": {"ios": "https://dc.lft.to/lastmile_qr_scan", "android": "https://dc.lft.to/lastmile_qr_scan"}, "lon": -77.0815485, "type": "electric_scooter", "fusion_lat": 0.0, "lat": 38.947049, "name": "8b9819a2a555021bd1890c8e182a0fa9", "fusion_lon": 0.0, "bike_id": "8b9819a2a555021bd1890c8e182a0fa9", "is_disabled": 0, "is_reserved": 0}, {"rental_uris": {"ios": "https://dc.lft.to/lastmile_qr_scan", "android": "https://dc.lft.to/lastmile_qr_scan"}, "lon": -77.07046983333333, "type": "electric_bike", "fusion_lat": 0.0, "lat": 38.824438, "name": "c40a33ad92263c77ea4feae6e39f1236", "fusion_lon": 0.0, "bike_id": "c40a33ad92263c77ea4feae6e39f1236", "is_disabled": 0, "is_reserved": 0}, {"rental_uris": {"ios": "https://dc.lft.to/lastmile_qr_scan", "android": "https://dc.lft.to/lastmile_qr_scan"}, "lon": -77.03049283333333, "type": "electric_scooter", "fusion_lat": 0.0, "lat": 38.88429633333333, "name": "b3dee874263d34ed1dca966691c02194", "fusion_lon": 0.0, "bike_id": "b3dee874263d34ed1dca966691c02194", "is_disabled": 0, "is_reserved": 0}, {"rental_uris": {"ios": "https://dc.lft.to/lastmile_qr_scan", "android": "https://dc.lft.to/lastmile_qr_scan"}, "lon": -77.04365316666667, "type": "electric_scooter", "fusion_lat": 0.0, "lat": 38.91132433333333, "name": "0fa7af99b9d06e9f5d3a428d846b2c3c", "fusion_lon": 0.0, "bike_id": "0fa7af99b9d06e9f5d3a428d846b2c3c", "is_disabled": 0, "is_reserved": 0}, {"rental_uris": {"ios": "https://dc.lft.to/lastmile_qr_scan", "android": "https://dc.lft.to/lastmile_qr_scan"}, "lon": -77.0412335, "type": "electric_scooter", "fusion_lat": 0.0, "lat": 38.92205883333333, "name": "82f95fc5d6ab6c4c64d2be384a7dd928", "fusion_lon": 0.0, "bike_id": "82f95fc5d6ab6c4c64d2be384a7dd928", "is_disabled": 0, "is_reserved": 0}, {"rental_uris": {"ios": "https://dc.lft.to/lastmile_qr_scan", "android": "https://dc.lft.to/lastmile_qr_scan"}, "lon": -77.04061083333333, "type": "electric_scooter", "fusion_lat": 0.0, "lat": 38.9264495, "name": "736b8167f4896174247a3a40b3956646", "fusion_lon": 0.0, "bike_id": "736b8167f4896174247a3a40b3956646", "is_disabled": 0, "is_reserved": 0}, {"rental_uris": {"ios": "https://dc.lft.to/lastmile_qr_scan", "android": "https://dc.lft.to/lastmile_qr_scan"}, "lon": -77.0435075, "type": "electric_scooter", "fusion_lat": 0.0, "lat": 38.910514666666664, "name": "e73554f86a1c84e6a5bc2c0c8ff9ad42", "fusion_lon": 0.0, "bike_id": "e73554f86a1c84e6a5bc2c0c8ff9ad42", "is_disabled": 0, "is_reserved": 0}, {"rental_uris": {"ios": "https://dc.lft.to/lastmile_qr_scan", "android": "https://dc.lft.to/lastmile_qr_scan"}, "lon": -77.038972, "type": "electric_scooter", "fusion_lat": 0.0, "lat": 38.92218033333333, "name": "1c14ff8662e5ca0d33205f2a382501a3", "fusion_lon": 0.0, "bike_id": "1c14ff8662e5ca0d33205f2a382501a3", "is_disabled": 0, "is_reserved": 0}, {"rental_uris": {"ios": "https://dc.lft.to/lastmile_qr_scan", "android": "https://dc.lft.to/lastmile_qr_scan"}, "lon": -77.06983633333333, "type": "electric_scooter", "fusion_lat": 0.0, "lat": 38.9548605, "name": "1599925e28468e2bf74883c7a3f337a3", "fusion_lon": 0.0, "bike_id": "1599925e28468e2bf74883c7a3f337a3", "is_disabled": 0, "is_reserved": 0}, {"rental_uris": {"ios": "https://dc.lft.to/lastmile_qr_scan", "android": "https://dc.lft.to/lastmile_qr_scan"}, "lon": -77.00219433333334, "type": "electric_scooter", "fusion_lat": 0.0, "lat": 38.900295166666666, "name": "00cc3f4c1464284ed46578fbc3872851", "fusion_lon": 0.0, "bike_id": "00cc3f4c1464284ed46578fbc3872851", "is_disabled": 0, "is_reserved": 0}, {"rental_uris": {"ios": "https://dc.lft.to/lastmile_qr_scan", "android": "https://dc.lft.to/lastmile_qr_scan"}, "lon": -76.994952, "type": "electric_bike", "fusion_lat": 0.0, "lat": 39.000025666666666, "name": "85946876b446d5938539fab3107778ea", "fusion_lon": 0.0, "bike_id": "85946876b446d5938539fab3107778ea", "is_disabled": 0, "is_reserved": 0}, {"rental_uris": {"ios": "https://dc.lft.to/lastmile_qr_scan", "android": "https://dc.lft.to/lastmile_qr_scan"}, "lon": -76.99982316666667, "type": "electric_scooter", "fusion_lat": 0.0, "lat": 38.838359, "name": "29330db8f1d3596e10137f30038f0ea9", "fusion_lon": 0.0, "bike_id": "29330db8f1d3596e10137f30038f0ea9", "is_disabled": 0, "is_reserved": 0}, {"rental_uris": {"ios": "https://dc.lft.to/lastmile_qr_scan", "android": "https://dc.lft.to/lastmile_qr_scan"}, "lon": -77.004235, "type": "electric_scooter", "fusion_lat": 0.0, "lat": 38.90558883333333, "name": "c7d30220eb12ac6e5411837bc2decf7f", "fusion_lon": 0.0, "bike_id": "c7d30220eb12ac6e5411837bc2decf7f", "is_disabled": 0, "is_reserved": 0}, {"rental_uris": {"ios": "https://dc.lft.to/lastmile_qr_scan", "android": "https://dc.lft.to/lastmile_qr_scan"}, "lon": -77.05132716666667, "type": "electric_scooter", "fusion_lat": 0.0, "lat": 38.90116733333333, "name": "100297a8c5249171c8f0800aad8102be", "fusion_lon": 0.0, "bike_id": "100297a8c5249171c8f0800aad8102be", "is_disabled": 0, "is_reserved": 0}, {"rental_uris": {"ios": "https://dc.lft.to/lastmile_qr_scan", "android": "https://dc.lft.to/lastmile_qr_scan"}, "lon": -76.9652605, "type": "electric_scooter", "fusion_lat": 0.0, "lat": 38.878635, "name": "510b147a0508a9db49c34b0332be8205", "fusion_lon": 0.0, "bike_id": "510b147a0508a9db49c34b0332be8205", "is_disabled": 0, "is_reserved": 0}, {"rental_uris": {"ios": "https://dc.lft.to/lastmile_qr_scan", "android": "https://dc.lft.to/lastmile_qr_scan"}, "lon": -77.03430166666666, "type": "electric_scooter", "fusion_lat": 0.0, "lat": 38.91052416666667, "name": "44558c1597d9a3934a093c8bebba1c96", "fusion_lon": 0.0, "bike_id": "44558c1597d9a3934a093c8bebba1c96", "is_disabled": 0, "is_reserved": 0}, {"rental_uris": {"ios": "https://dc.lft.to/lastmile_qr_scan", "android": "https://dc.lft.to/lastmile_qr_scan"}, "lon": -77.03176266666667, "type": "electric_scooter", "fusion_lat": 0.0, "lat": 38.91275483333333, "name": "0bc917e2877ae1a1f47a6e6cc58ffcfe", "fusion_lon": 0.0, "bike_id": "0bc917e2877ae1a1f47a6e6cc58ffcfe", "is_disabled": 0, "is_reserved": 0}, {"rental_uris": {"ios": "https://dc.lft.to/lastmile_qr_scan", "android": "https://dc.lft.to/lastmile_qr_scan"}, "lon": -77.0335955, "type": "electric_scooter", "fusion_lat": 0.0, "lat": 38.885290499999996, "name": "32592fe757eb7a9f0e96a52cd2f2da95", "fusion_lon": 0.0, "bike_id": "32592fe757eb7a9f0e96a52cd2f2da95", "is_disabled": 0, "is_reserved": 0}, {"rental_uris": {"ios": "https://dc.lft.to/lastmile_qr_scan", "android": "https://dc.lft.to/lastmile_qr_scan"}, "lon": -77.00752466666667, "type": "electric_scooter", "fusion_lat": 0.0, "lat": 38.8792075, "name": "43db8f8990f1ab615d405bc1a7d99f37", "fusion_lon": 0.0, "bike_id": "43db8f8990f1ab615d405bc1a7d99f37", "is_disabled": 0, "is_reserved": 0}, {"rental_uris": {"ios": "https://dc.lft.to/lastmile_qr_scan", "android": "https://dc.lft.to/lastmile_qr_scan"}, "lon": -77.02224216666667, "type": "electric_scooter", "fusion_lat": 0.0, "lat": 38.89220683333333, "name": "d33bdb916dbc72a273c88d0a0ba62ecb", "fusion_lon": 0.0, "bike_id": "d33bdb916dbc72a273c88d0a0ba62ecb", "is_disabled": 0, "is_reserved": 0}, {"rental_uris": {"ios": "https://dc.lft.to/lastmile_qr_scan", "android": "https://dc.lft.to/lastmile_qr_scan"}, "lon": -76.96627183333334, "type": "electric_bike", "fusion_lat": 0.0, "lat": 38.941998166666664, "name": "28ef846cb6e415cfac3ce4dfb6242915", "fusion_lon": 0.0, "bike_id": "28ef846cb6e415cfac3ce4dfb6242915", "is_disabled": 0, "is_reserved": 0}, {"rental_uris": {"ios": "https://dc.lft.to/lastmile_qr_scan", "android": "https://dc.lft.to/lastmile_qr_scan"}, "lon": -76.92888533333333, "type": "electric_scooter", "fusion_lat": 0.0, "lat": 38.893284, "name": "9cdbf3f13652beeff3ba70860106d1cc", "fusion_lon": 0.0, "bike_id": "9cdbf3f13652beeff3ba70860106d1cc", "is_disabled": 0, "is_reserved": 0}, {"rental_uris": {"ios": "https://dc.lft.to/lastmile_qr_scan", "android": "https://dc.lft.to/lastmile_qr_scan"}, "lon": -77.04603966666667, "type": "electric_scooter", "fusion_lat": 0.0, "lat": 38.90384816666667, "name": "3c0f588e441ce342769c564690c97eb4", "fusion_lon": 0.0, "bike_id": "3c0f588e441ce342769c564690c97eb4", "is_disabled": 0, "is_reserved": 0}, {"rental_uris": {"ios": "https://dc.lft.to/lastmile_qr_scan", "android": "https://dc.lft.to/lastmile_qr_scan"}, "lon": -77.02699866666667, "type": "electric_scooter", "fusion_lat": 0.0, "lat": 38.94978166666667, "name": "63f9a88f11cb0934f8f725ff08429f9f", "fusion_lon": 0.0, "bike_id": "63f9a88f11cb0934f8f725ff08429f9f", "is_disabled": 0, "is_reserved": 0}, {"rental_uris": {"ios": "https://dc.lft.to/lastmile_qr_scan", "android": "https://dc.lft.to/lastmile_qr_scan"}, "lon": -77.00122133333333, "type": "electric_scooter", "fusion_lat": 0.0, "lat": 38.90374383333333, "name": "dcce489aa8bd4c1b235eec057c8a3e9b", "fusion_lon": 0.0, "bike_id": "dcce489aa8bd4c1b235eec057c8a3e9b", "is_disabled": 0, "is_reserved": 0}, {"rental_uris": {"ios": "https://dc.lft.to/lastmile_qr_scan", "android": "https://dc.lft.to/lastmile_qr_scan"}, "lon": -77.01113666666667, "type": "electric_scooter", "fusion_lat": 0.0, "lat": 38.9155405, "name": "a6ac42606c94b4e625cd9fe177029fe7", "fusion_lon": 0.0, "bike_id": "a6ac42606c94b4e625cd9fe177029fe7", "is_disabled": 0, "is_reserved": 0}, {"rental_uris": {"ios": "https://dc.lft.to/lastmile_qr_scan", "android": "https://dc.lft.to/lastmile_qr_scan"}, "lon": -77.0444835, "type": "electric_scooter", "fusion_lat": 0.0, "lat": 38.910141, "name": "3d2ece9b284d2a31372bf1c7c24d1cd8", "fusion_lon": 0.0, "bike_id": "3d2ece9b284d2a31372bf1c7c24d1cd8", "is_disabled": 0, "is_reserved": 0}, {"rental_uris": {"ios": "https://dc.lft.to/lastmile_qr_scan", "android": "https://dc.lft.to/lastmile_qr_scan"}, "lon": -77.01432266666667, "type": "electric_scooter", "fusion_lat": 0.0, "lat": 38.9299025, "name": "eeff80e30c23c0152decae6c9cd525ef", "fusion_lon": 0.0, "bike_id": "eeff80e30c23c0152decae6c9cd525ef", "is_disabled": 0, "is_reserved": 0}, {"rental_uris": {"ios": "https://dc.lft.to/lastmile_qr_scan", "android": "https://dc.lft.to/lastmile_qr_scan"}, "lon": -77.046523, "type": "electric_scooter", "fusion_lat": 0.0, "lat": 38.901289166666665, "name": "84cbded9c4d3fafd4da5007811fbe94d", "fusion_lon": 0.0, "bike_id": "84cbded9c4d3fafd4da5007811fbe94d", "is_disabled": 0, "is_reserved": 0}, {"rental_uris": {"ios": "https://dc.lft.to/lastmile_qr_scan", "android": "https://dc.lft.to/lastmile_qr_scan"}, "lon": -77.05339466666666, "type": "electric_scooter", "fusion_lat": 0.0, "lat": 38.90353983333333, "name": "05d4d4ac07fce614853551d702b5e5be", "fusion_lon": 0.0, "bike_id": "05d4d4ac07fce614853551d702b5e5be", "is_disabled": 0, "is_reserved": 0}, {"rental_uris": {"ios": "https://dc.lft.to/lastmile_qr_scan", "android": "https://dc.lft.to/lastmile_qr_scan"}, "lon": -76.931746, "type": "electric_scooter", "fusion_lat": 0.0, "lat": 38.8988425, "name": "b2af4e2bd60112fa261a963a8240193f", "fusion_lon": 0.0, "bike_id": "b2af4e2bd60112fa261a963a8240193f", "is_disabled": 0, "is_reserved": 0}, {"rental_uris": {"ios": "https://dc.lft.to/lastmile_qr_scan", "android": "https://dc.lft.to/lastmile_qr_scan"}, "lon": -77.02806116666666, "type": "electric_scooter", "fusion_lat": 0.0, "lat": 38.89240916666667, "name": "5d0ce4a63414215c59560ce0b7fb2a8f", "fusion_lon": 0.0, "bike_id": "5d0ce4a63414215c59560ce0b7fb2a8f", "is_disabled": 0, "is_reserved": 0}, {"rental_uris": {"ios": "https://dc.lft.to/lastmile_qr_scan", "android": "https://dc.lft.to/lastmile_qr_scan"}, "lon": -77.02161416666667, "type": "electric_scooter", "fusion_lat": 0.0, "lat": 38.9422555, "name": "805308d1fe9db9e4f79e73ae75fc31b8", "fusion_lon": 0.0, "bike_id": "805308d1fe9db9e4f79e73ae75fc31b8", "is_disabled": 0, "is_reserved": 0}, {"rental_uris": {"ios": "https://dc.lft.to/lastmile_qr_scan", "android": "https://dc.lft.to/lastmile_qr_scan"}, "lon": -77.02657466666666, "type": "electric_scooter", "fusion_lat": 0.0, "lat": 38.910601, "name": "80014d8ae69a49694c66cb5ae403b4c4", "fusion_lon": 0.0, "bike_id": "80014d8ae69a49694c66cb5ae403b4c4", "is_disabled": 0, "is_reserved": 0}, {"rental_uris": {"ios": "https://dc.lft.to/lastmile_qr_scan", "android": "https://dc.lft.to/lastmile_qr_scan"}, "lon": -77.03319216666667, "type": "electric_scooter", "fusion_lat": 0.0, "lat": 38.93036216666667, "name": "ea1ccc6388e11c53b9c1189633f1e542", "fusion_lon": 0.0, "bike_id": "ea1ccc6388e11c53b9c1189633f1e542", "is_disabled": 0, "is_reserved": 0}, {"rental_uris": {"ios": "https://dc.lft.to/lastmile_qr_scan", "android": "https://dc.lft.to/lastmile_qr_scan"}, "lon": -77.03180916666666, "type": "electric_scooter", "fusion_lat": 0.0, "lat": 38.92481733333334, "name": "2b967501519882538f4441cae546075f", "fusion_lon": 0.0, "bike_id": "2b967501519882538f4441cae546075f", "is_disabled": 0, "is_reserved": 0}, {"rental_uris": {"ios": "https://dc.lft.to/lastmile_qr_scan", "android": "https://dc.lft.to/lastmile_qr_scan"}, "lon": -77.0106825, "type": "electric_scooter", "fusion_lat": 0.0, "lat": 38.875771666666665, "name": "ed8ea148b4024c0ce14ac90ee1268422", "fusion_lon": 0.0, "bike_id": "ed8ea148b4024c0ce14ac90ee1268422", "is_disabled": 0, "is_reserved": 0}, {"rental_uris": {"ios": "https://dc.lft.to/lastmile_qr_scan", "android": "https://dc.lft.to/lastmile_qr_scan"}, "lon": -77.0265165, "type": "electric_scooter", "fusion_lat": 0.0, "lat": 38.895917833333336, "name": "c497c8258a480571d6339ea029b213f6", "fusion_lon": 0.0, "bike_id": "c497c8258a480571d6339ea029b213f6", "is_disabled": 0, "is_reserved": 0}, {"rental_uris": {"ios": "https://dc.lft.to/lastmile_qr_scan", "android": "https://dc.lft.to/lastmile_qr_scan"}, "lon": -76.96527683333333, "type": "electric_bike", "fusion_lat": 0.0, "lat": 38.87476016666667, "name": "4807b420976385b2f4f13f27e833a913", "fusion_lon": 0.0, "bike_id": "4807b420976385b2f4f13f27e833a913", "is_disabled": 0, "is_reserved": 0}, {"rental_uris": {"ios": "https://dc.lft.to/lastmile_qr_scan", "android": "https://dc.lft.to/lastmile_qr_scan"}, "lon": -77.01969, "type": "electric_scooter", "fusion_lat": 0.0, "lat": 38.886055999999996, "name": "dd082fd669c69386bf681cf6de9b0635", "fusion_lon": 0.0, "bike_id": "dd082fd669c69386bf681cf6de9b0635", "is_disabled": 0, "is_reserved": 0}, {"rental_uris": {"ios": "https://dc.lft.to/lastmile_qr_scan", "android": "https://dc.lft.to/lastmile_qr_scan"}, "lon": -77.1058875, "type": "electric_bike", "fusion_lat": 0.0, "lat": 38.88532433333334, "name": "2052ebe510b458b6e9e1f2ca519af22b", "fusion_lon": 0.0, "bike_id": "2052ebe510b458b6e9e1f2ca519af22b", "is_disabled": 0, "is_reserved": 0}, {"rental_uris": {"ios": "https://dc.lft.to/lastmile_qr_scan", "android": "https://dc.lft.to/lastmile_qr_scan"}, "lon": -76.98890916666667, "type": "electric_scooter", "fusion_lat": 0.0, "lat": 38.866578, "name": "36d56931c27af047eaf8e63f12bf7a9b", "fusion_lon": 0.0, "bike_id": "36d56931c27af047eaf8e63f12bf7a9b", "is_disabled": 0, "is_reserved": 0}, {"rental_uris": {"ios": "https://dc.lft.to/lastmile_qr_scan", "android": "https://dc.lft.to/lastmile_qr_scan"}, "lon": -76.99042433333334, "type": "electric_bike", "fusion_lat": 0.0, "lat": 38.924466833333334, "name": "627e54f52d67c625de34ca1fd15c37df", "fusion_lon": 0.0, "bike_id": "627e54f52d67c625de34ca1fd15c37df", "is_disabled": 0, "is_reserved": 0}, {"rental_uris": {"ios": "https://dc.lft.to/lastmile_qr_scan", "android": "https://dc.lft.to/lastmile_qr_scan"}, "lon": -77.07083833333333, "type": "electric_bike", "fusion_lat": 0.0, "lat": 38.95555933333333, "name": "795eb48f5fcdcfd32d0bf6015bbcd91d", "fusion_lon": 0.0, "bike_id": "795eb48f5fcdcfd32d0bf6015bbcd91d", "is_disabled": 0, "is_reserved": 0}, {"rental_uris": {"ios": "https://dc.lft.to/lastmile_qr_scan", "android": "https://dc.lft.to/lastmile_qr_scan"}, "lon": -77.01631516666667, "type": "electric_scooter", "fusion_lat": 0.0, "lat": 38.9003315, "name": "c3eee54aab3e7ffe3e5dfbb30fa3846b", "fusion_lon": 0.0, "bike_id": "c3eee54aab3e7ffe3e5dfbb30fa3846b", "is_disabled": 0, "is_reserved": 0}, {"rental_uris": {"ios": "https://dc.lft.to/lastmile_qr_scan", "android": "https://dc.lft.to/lastmile_qr_scan"}, "lon": -77.03823416666667, "type": "electric_scooter", "fusion_lat": 0.0, "lat": 38.93122533333333, "name": "195bdfa37ce4cd4358c957e380d10e0c", "fusion_lon": 0.0, "bike_id": "195bdfa37ce4cd4358c957e380d10e0c", "is_disabled": 0, "is_reserved": 0}, {"rental_uris": {"ios": "https://dc.lft.to/lastmile_qr_scan", "android": "https://dc.lft.to/lastmile_qr_scan"}, "lon": -76.998401, "type": "electric_scooter", "fusion_lat": 0.0, "lat": 38.9000175, "name": "86b6b199996751fb532b40b5257f42c9", "fusion_lon": 0.0, "bike_id": "86b6b199996751fb532b40b5257f42c9", "is_disabled": 0, "is_reserved": 0}, {"rental_uris": {"ios": "https://dc.lft.to/lastmile_qr_scan", "android": "https://dc.lft.to/lastmile_qr_scan"}, "lon": -77.011816, "type": "electric_scooter", "fusion_lat": 0.0, "lat": 38.911063, "name": "86ad03e448ad9009fe39313905030ee3", "fusion_lon": 0.0, "bike_id": "86ad03e448ad9009fe39313905030ee3", "is_disabled": 0, "is_reserved": 0}, {"rental_uris": {"ios": "https://dc.lft.to/lastmile_qr_scan", "android": "https://dc.lft.to/lastmile_qr_scan"}, "lon": -76.97454083333334, "type": "electric_scooter", "fusion_lat": 0.0, "lat": 38.86539883333333, "name": "eb3f3b990e271ec7b5ad3f714d358f47", "fusion_lon": 0.0, "bike_id": "eb3f3b990e271ec7b5ad3f714d358f47", "is_disabled": 0, "is_reserved": 0}, {"rental_uris": {"ios": "https://dc.lft.to/lastmile_qr_scan", "android": "https://dc.lft.to/lastmile_qr_scan"}, "lon": -76.9905785, "type": "electric_scooter", "fusion_lat": 0.0, "lat": 38.86351, "name": "083a46824f726399bf3518f28d7b236e", "fusion_lon": 0.0, "bike_id": "083a46824f726399bf3518f28d7b236e", "is_disabled": 0, "is_reserved": 0}, {"rental_uris": {"ios": "https://dc.lft.to/lastmile_qr_scan", "android": "https://dc.lft.to/lastmile_qr_scan"}, "lon": -77.11801066666666, "type": "electric_bike", "fusion_lat": 0.0, "lat": 38.89836783333333, "name": "03461c922cbeb4dc4064d5a3c62760b3", "fusion_lon": 0.0, "bike_id": "03461c922cbeb4dc4064d5a3c62760b3", "is_disabled": 0, "is_reserved": 0}, {"rental_uris": {"ios": "https://dc.lft.to/lastmile_qr_scan", "android": "https://dc.lft.to/lastmile_qr_scan"}, "lon": -76.97814283333334, "type": "electric_scooter", "fusion_lat": 0.0, "lat": 38.88608716666667, "name": "2cc5c7475bc0533650961426a8cb454b", "fusion_lon": 0.0, "bike_id": "2cc5c7475bc0533650961426a8cb454b", "is_disabled": 0, "is_reserved": 0}, {"rental_uris": {"ios": "https://dc.lft.to/lastmile_qr_scan", "android": "https://dc.lft.to/lastmile_qr_scan"}, "lon": -76.98790133333333, "type": "electric_bike", "fusion_lat": 0.0, "lat": 38.90415466666666, "name": "b4aa8574daa70c03ca37734bd2d4a7dc", "fusion_lon": 0.0, "bike_id": "b4aa8574daa70c03ca37734bd2d4a7dc", "is_disabled": 0, "is_reserved": 0}, {"rental_uris": {"ios": "https://dc.lft.to/lastmile_qr_scan", "android": "https://dc.lft.to/lastmile_qr_scan"}, "lon": -76.99856183333333, "type": "electric_scooter", "fusion_lat": 0.0, "lat": 38.90773316666667, "name": "2c220670a78d7b15eee7dfc99cfb349c", "fusion_lon": 0.0, "bike_id": "2c220670a78d7b15eee7dfc99cfb349c", "is_disabled": 0, "is_reserved": 0}, {"rental_uris": {"ios": "https://dc.lft.to/lastmile_qr_scan", "android": "https://dc.lft.to/lastmile_qr_scan"}, "lon": -77.03700033333334, "type": "electric_scooter", "fusion_lat": 0.0, "lat": 38.926473666666666, "name": "836a52d5e4c301ca9c59e5c459d3c4da", "fusion_lon": 0.0, "bike_id": "836a52d5e4c301ca9c59e5c459d3c4da", "is_disabled": 0, "is_reserved": 0}, {"rental_uris": {"ios": "https://dc.lft.to/lastmile_qr_scan", "android": "https://dc.lft.to/lastmile_qr_scan"}, "lon": -77.02958133333334, "type": "electric_scooter", "fusion_lat": 0.0, "lat": 38.91022533333334, "name": "bbba22b6b9d8504c6805e9989e99c8df", "fusion_lon": 0.0, "bike_id": "bbba22b6b9d8504c6805e9989e99c8df", "is_disabled": 0, "is_reserved": 0}, {"rental_uris": {"ios": "https://dc.lft.to/lastmile_qr_scan", "android": "https://dc.lft.to/lastmile_qr_scan"}, "lon": -77.0417015, "type": "electric_scooter", "fusion_lat": 0.0, "lat": 38.91609966666667, "name": "97138d551911c3880c6d5fbb69678b09", "fusion_lon": 0.0, "bike_id": "97138d551911c3880c6d5fbb69678b09", "is_disabled": 0, "is_reserved": 0}, {"rental_uris": {"ios": "https://dc.lft.to/lastmile_qr_scan", "android": "https://dc.lft.to/lastmile_qr_scan"}, "lon": -77.02961366666666, "type": "electric_scooter", "fusion_lat": 0.0, "lat": 38.925660666666666, "name": "ef6ba5db265226997248a7f009f4d49c", "fusion_lon": 0.0, "bike_id": "ef6ba5db265226997248a7f009f4d49c", "is_disabled": 0, "is_reserved": 0}, {"rental_uris": {"ios": "https://dc.lft.to/lastmile_qr_scan", "android": "https://dc.lft.to/lastmile_qr_scan"}, "lon": -76.95461916666666, "type": "electric_bike", "fusion_lat": 0.0, "lat": 38.88641783333333, "name": "03af5c994c92fe29a086d4b60377b31e", "fusion_lon": 0.0, "bike_id": "03af5c994c92fe29a086d4b60377b31e", "is_disabled": 0, "is_reserved": 0}, {"rental_uris": {"ios": "https://dc.lft.to/lastmile_qr_scan", "android": "https://dc.lft.to/lastmile_qr_scan"}, "lon": -77.01246816666666, "type": "electric_scooter", "fusion_lat": 0.0, "lat": 38.91708333333333, "name": "16e2fa80ad0527df787169e0b0c022e9", "fusion_lon": 0.0, "bike_id": "16e2fa80ad0527df787169e0b0c022e9", "is_disabled": 0, "is_reserved": 0}, {"rental_uris": {"ios": "https://dc.lft.to/lastmile_qr_scan", "android": "https://dc.lft.to/lastmile_qr_scan"}, "lon": -77.03201366666667, "type": "electric_scooter", "fusion_lat": 0.0, "lat": 38.90023033333333, "name": "41d65fef6e868385bad1b9ac52cbcdcf", "fusion_lon": 0.0, "bike_id": "41d65fef6e868385bad1b9ac52cbcdcf", "is_disabled": 0, "is_reserved": 0}, {"rental_uris": {"ios": "https://dc.lft.to/lastmile_qr_scan", "android": "https://dc.lft.to/lastmile_qr_scan"}, "lon": -77.05225316666667, "type": "electric_scooter", "fusion_lat": 0.0, "lat": 38.898082333333335, "name": "3ac890b89959888046e022736aa65dea", "fusion_lon": 0.0, "bike_id": "3ac890b89959888046e022736aa65dea", "is_disabled": 0, "is_reserved": 0}, {"rental_uris": {"ios": "https://dc.lft.to/lastmile_qr_scan", "android": "https://dc.lft.to/lastmile_qr_scan"}, "lon": -77.03219483333334, "type": "electric_scooter", "fusion_lat": 0.0, "lat": 38.89221233333333, "name": "bca97b9171f5930cbbfee9df6f33878a", "fusion_lon": 0.0, "bike_id": "bca97b9171f5930cbbfee9df6f33878a", "is_disabled": 0, "is_reserved": 0}, {"rental_uris": {"ios": "https://dc.lft.to/lastmile_qr_scan", "android": "https://dc.lft.to/lastmile_qr_scan"}, "lon": -77.05977983333334, "type": "electric_scooter", "fusion_lat": 0.0, "lat": 38.935466166666664, "name": "149f70f8f2f561acf14ebb38704a171c", "fusion_lon": 0.0, "bike_id": "149f70f8f2f561acf14ebb38704a171c", "is_disabled": 0, "is_reserved": 0}, {"rental_uris": {"ios": "https://dc.lft.to/lastmile_qr_scan", "android": "https://dc.lft.to/lastmile_qr_scan"}, "lon": -77.04338166666666, "type": "electric_scooter", "fusion_lat": 0.0, "lat": 38.90825866666667, "name": "7deea7d4238b563d1f3dbef9dfbf6111", "fusion_lon": 0.0, "bike_id": "7deea7d4238b563d1f3dbef9dfbf6111", "is_disabled": 0, "is_reserved": 0}, {"rental_uris": {"ios": "https://dc.lft.to/lastmile_qr_scan", "android": "https://dc.lft.to/lastmile_qr_scan"}, "lon": -77.015327, "type": "electric_scooter", "fusion_lat": 0.0, "lat": 38.8873865, "name": "54c06e4c35b1a785853b0fa6e2f12d32", "fusion_lon": 0.0, "bike_id": "54c06e4c35b1a785853b0fa6e2f12d32", "is_disabled": 0, "is_reserved": 0}, {"rental_uris": {"ios": "https://dc.lft.to/lastmile_qr_scan", "android": "https://dc.lft.to/lastmile_qr_scan"}, "lon": -77.02702466666666, "type": "electric_scooter", "fusion_lat": 0.0, "lat": 38.91627416666667, "name": "5b0719d217445f57b7bdafbeaa90f18c", "fusion_lon": 0.0, "bike_id": "5b0719d217445f57b7bdafbeaa90f18c", "is_disabled": 0, "is_reserved": 0}, {"rental_uris": {"ios": "https://dc.lft.to/lastmile_qr_scan", "android": "https://dc.lft.to/lastmile_qr_scan"}, "lon": -76.99447583333334, "type": "electric_scooter", "fusion_lat": 0.0, "lat": 38.900139833333334, "name": "ea478c7e50a70cd1f6a6c8652e049609", "fusion_lon": 0.0, "bike_id": "ea478c7e50a70cd1f6a6c8652e049609", "is_disabled": 0, "is_reserved": 0}, {"rental_uris": {"ios": "https://dc.lft.to/lastmile_qr_scan", "android": "https://dc.lft.to/lastmile_qr_scan"}, "lon": -77.0528875, "type": "electric_scooter", "fusion_lat": 0.0, "lat": 38.910555333333335, "name": "778c24023bca31c47500698ae55d97ab", "fusion_lon": 0.0, "bike_id": "778c24023bca31c47500698ae55d97ab", "is_disabled": 0, "is_reserved": 0}, {"rental_uris": {"ios": "https://dc.lft.to/lastmile_qr_scan", "android": "https://dc.lft.to/lastmile_qr_scan"}, "lon": -77.04380583333334, "type": "electric_scooter", "fusion_lat": 0.0, "lat": 38.92068416666667, "name": "70f1d36708facbe9690216f479bd8e07", "fusion_lon": 0.0, "bike_id": "70f1d36708facbe9690216f479bd8e07", "is_disabled": 0, "is_reserved": 0}, {"rental_uris": {"ios": "https://dc.lft.to/lastmile_qr_scan", "android": "https://dc.lft.to/lastmile_qr_scan"}, "lon": -77.04860366666666, "type": "electric_scooter", "fusion_lat": 0.0, "lat": 38.906381833333334, "name": "e0c921d2486499dd9aafa70f71493383", "fusion_lon": 0.0, "bike_id": "e0c921d2486499dd9aafa70f71493383", "is_disabled": 0, "is_reserved": 0}, {"rental_uris": {"ios": "https://dc.lft.to/lastmile_qr_scan", "android": "https://dc.lft.to/lastmile_qr_scan"}, "lon": -76.94871766666667, "type": "electric_scooter", "fusion_lat": 0.0, "lat": 38.89482816666667, "name": "70629293f92918ca34028355746de423", "fusion_lon": 0.0, "bike_id": "70629293f92918ca34028355746de423", "is_disabled": 0, "is_reserved": 0}, {"rental_uris": {"ios": "https://dc.lft.to/lastmile_qr_scan", "android": "https://dc.lft.to/lastmile_qr_scan"}, "lon": -76.89536233333334, "type": "electric_bike", "fusion_lat": 0.0, "lat": 38.945476, "name": "54b08c2ed9723afc034d55316b1a6831", "fusion_lon": 0.0, "bike_id": "54b08c2ed9723afc034d55316b1a6831", "is_disabled": 0, "is_reserved": 0}, {"rental_uris": {"ios": "https://dc.lft.to/lastmile_qr_scan", "android": "https://dc.lft.to/lastmile_qr_scan"}, "lon": -77.04565216666667, "type": "electric_scooter", "fusion_lat": 0.0, "lat": 38.914095333333336, "name": "07cff89482561ac92155b0724fbf3d86", "fusion_lon": 0.0, "bike_id": "07cff89482561ac92155b0724fbf3d86", "is_disabled": 0, "is_reserved": 0}, {"rental_uris": {"ios": "https://dc.lft.to/lastmile_qr_scan", "android": "https://dc.lft.to/lastmile_qr_scan"}, "lon": -77.0438065, "type": "electric_scooter", "fusion_lat": 0.0, "lat": 38.91045066666667, "name": "1fc4e641f4e7cb92a3e7105c80e001b7", "fusion_lon": 0.0, "bike_id": "1fc4e641f4e7cb92a3e7105c80e001b7", "is_disabled": 0, "is_reserved": 0}, {"rental_uris": {"ios": "https://dc.lft.to/lastmile_qr_scan", "android": "https://dc.lft.to/lastmile_qr_scan"}, "lon": -77.02273533333333, "type": "electric_scooter", "fusion_lat": 0.0, "lat": 38.89604633333333, "name": "0e0d8787d183ba9726124727f9ae72cf", "fusion_lon": 0.0, "bike_id": "0e0d8787d183ba9726124727f9ae72cf", "is_disabled": 0, "is_reserved": 0}, {"rental_uris": {"ios": "https://dc.lft.to/lastmile_qr_scan", "android": "https://dc.lft.to/lastmile_qr_scan"}, "lon": -77.045364, "type": "electric_scooter", "fusion_lat": 0.0, "lat": 38.903841166666666, "name": "1c46ebeb338cff76b42ab485b7a6ea9b", "fusion_lon": 0.0, "bike_id": "1c46ebeb338cff76b42ab485b7a6ea9b", "is_disabled": 0, "is_reserved": 0}, {"rental_uris": {"ios": "https://dc.lft.to/lastmile_qr_scan", "android": "https://dc.lft.to/lastmile_qr_scan"}, "lon": -77.0122095, "type": "electric_scooter", "fusion_lat": 0.0, "lat": 38.920335, "name": "1c3898e846afeba8ffa5c4ade89aa775", "fusion_lon": 0.0, "bike_id": "1c3898e846afeba8ffa5c4ade89aa775", "is_disabled": 0, "is_reserved": 0}, {"rental_uris": {"ios": "https://dc.lft.to/lastmile_qr_scan", "android": "https://dc.lft.to/lastmile_qr_scan"}, "lon": -77.024572, "type": "electric_scooter", "fusion_lat": 0.0, "lat": 38.9169215, "name": "938e2237d6b323d2e685acfbbdb55d27", "fusion_lon": 0.0, "bike_id": "938e2237d6b323d2e685acfbbdb55d27", "is_disabled": 0, "is_reserved": 0}, {"rental_uris": {"ios": "https://dc.lft.to/lastmile_qr_scan", "android": "https://dc.lft.to/lastmile_qr_scan"}, "lon": -77.0430845, "type": "electric_scooter", "fusion_lat": 0.0, "lat": 38.90554066666667, "name": "022d024f4e7fa0b6abafa2a1e2db6db4", "fusion_lon": 0.0, "bike_id": "022d024f4e7fa0b6abafa2a1e2db6db4", "is_disabled": 0, "is_reserved": 0}, {"rental_uris": {"ios": "https://dc.lft.to/lastmile_qr_scan", "android": "https://dc.lft.to/lastmile_qr_scan"}, "lon": -76.99140166666666, "type": "electric_scooter", "fusion_lat": 0.0, "lat": 38.89341866666667, "name": "08a62c8b8af1f6842497289946a32260", "fusion_lon": 0.0, "bike_id": "08a62c8b8af1f6842497289946a32260", "is_disabled": 0, "is_reserved": 0}, {"rental_uris": {"ios": "https://dc.lft.to/lastmile_qr_scan", "android": "https://dc.lft.to/lastmile_qr_scan"}, "lon": -77.02148316666667, "type": "electric_bike", "fusion_lat": 0.0, "lat": 38.9732805, "name": "6480e36ef9d1d4446dc4f7a79d9f5e52", "fusion_lon": 0.0, "bike_id": "6480e36ef9d1d4446dc4f7a79d9f5e52", "is_disabled": 0, "is_reserved": 0}, {"rental_uris": {"ios": "https://dc.lft.to/lastmile_qr_scan", "android": "https://dc.lft.to/lastmile_qr_scan"}, "lon": -77.0376795, "type": "electric_scooter", "fusion_lat": 0.0, "lat": 38.91697216666667, "name": "dcbf6a5d069f43f0d7f9fb630b4acaca", "fusion_lon": 0.0, "bike_id": "dcbf6a5d069f43f0d7f9fb630b4acaca", "is_disabled": 0, "is_reserved": 0}, {"rental_uris": {"ios": "https://dc.lft.to/lastmile_qr_scan", "android": "https://dc.lft.to/lastmile_qr_scan"}, "lon": -77.02704116666666, "type": "electric_bike", "fusion_lat": 0.0, "lat": 38.90663966666666, "name": "67d1c2c3849b6c5a4718bd8d3d8cb187", "fusion_lon": 0.0, "bike_id": "67d1c2c3849b6c5a4718bd8d3d8cb187", "is_disabled": 0, "is_reserved": 0}, {"rental_uris": {"ios": "https://dc.lft.to/lastmile_qr_scan", "android": "https://dc.lft.to/lastmile_qr_scan"}, "lon": -76.98431116666667, "type": "electric_scooter", "fusion_lat": 0.0, "lat": 38.914510666666665, "name": "97fff2cc57c57cbb3aa95f1ee5ae7879", "fusion_lon": 0.0, "bike_id": "97fff2cc57c57cbb3aa95f1ee5ae7879", "is_disabled": 0, "is_reserved": 0}, {"rental_uris": {"ios": "https://dc.lft.to/lastmile_qr_scan", "android": "https://dc.lft.to/lastmile_qr_scan"}, "lon": -77.02714133333333, "type": "electric_scooter", "fusion_lat": 0.0, "lat": 38.91683033333333, "name": "eab73117235bb26aa60f20ff14d837eb", "fusion_lon": 0.0, "bike_id": "eab73117235bb26aa60f20ff14d837eb", "is_disabled": 0, "is_reserved": 0}, {"rental_uris": {"ios": "https://dc.lft.to/lastmile_qr_scan", "android": "https://dc.lft.to/lastmile_qr_scan"}, "lon": -77.0534405, "type": "electric_scooter", "fusion_lat": 0.0, "lat": 38.902421, "name": "55eaffc29d8f462651ca6715ae799529", "fusion_lon": 0.0, "bike_id": "55eaffc29d8f462651ca6715ae799529", "is_disabled": 0, "is_reserved": 0}, {"rental_uris": {"ios": "https://dc.lft.to/lastmile_qr_scan", "android": "https://dc.lft.to/lastmile_qr_scan"}, "lon": -77.05007533333334, "type": "electric_scooter", "fusion_lat": 0.0, "lat": 38.90189183333333, "name": "bc17bc5149b179e4b41bb1bc8d063838", "fusion_lon": 0.0, "bike_id": "bc17bc5149b179e4b41bb1bc8d063838", "is_disabled": 0, "is_reserved": 0}, {"rental_uris": {"ios": "https://dc.lft.to/lastmile_qr_scan", "android": "https://dc.lft.to/lastmile_qr_scan"}, "lon": -77.05907633333334, "type": "electric_bike", "fusion_lat": 0.0, "lat": 38.9022125, "name": "87a0ba065785ce6bb4ad7c1187e8be65", "fusion_lon": 0.0, "bike_id": "87a0ba065785ce6bb4ad7c1187e8be65", "is_disabled": 0, "is_reserved": 0}, {"rental_uris": {"ios": "https://dc.lft.to/lastmile_qr_scan", "android": "https://dc.lft.to/lastmile_qr_scan"}, "lon": -77.02710516666667, "type": "electric_scooter", "fusion_lat": 0.0, "lat": 38.918107, "name": "b4a0c99848de02c4deccc2877b7115d8", "fusion_lon": 0.0, "bike_id": "b4a0c99848de02c4deccc2877b7115d8", "is_disabled": 0, "is_reserved": 0}, {"rental_uris": {"ios": "https://dc.lft.to/lastmile_qr_scan", "android": "https://dc.lft.to/lastmile_qr_scan"}, "lon": -76.983411, "type": "electric_bike", "fusion_lat": 0.0, "lat": 38.93500366666667, "name": "83da0ac629950fc2c66e5d4070ac2bef", "fusion_lon": 0.0, "bike_id": "83da0ac629950fc2c66e5d4070ac2bef", "is_disabled": 0, "is_reserved": 0}, {"rental_uris": {"ios": "https://dc.lft.to/lastmile_qr_scan", "android": "https://dc.lft.to/lastmile_qr_scan"}, "lon": -77.01586716666667, "type": "electric_scooter", "fusion_lat": 0.0, "lat": 38.91648766666667, "name": "648b9ebe2248d6aac56fe5b85f51e38e", "fusion_lon": 0.0, "bike_id": "648b9ebe2248d6aac56fe5b85f51e38e", "is_disabled": 0, "is_reserved": 0}, {"rental_uris": {"ios": "https://dc.lft.to/lastmile_qr_scan", "android": "https://dc.lft.to/lastmile_qr_scan"}, "lon": -77.00090016666667, "type": "electric_scooter", "fusion_lat": 0.0, "lat": 38.90751566666667, "name": "7ac8573609cf7b2db3c9aabafdc14e02", "fusion_lon": 0.0, "bike_id": "7ac8573609cf7b2db3c9aabafdc14e02", "is_disabled": 0, "is_reserved": 0}, {"rental_uris": {"ios": "https://dc.lft.to/lastmile_qr_scan", "android": "https://dc.lft.to/lastmile_qr_scan"}, "lon": -77.01414016666666, "type": "electric_scooter", "fusion_lat": 0.0, "lat": 38.91561266666667, "name": "ff855de9f35bacde8f7b285cbd52e3fd", "fusion_lon": 0.0, "bike_id": "ff855de9f35bacde8f7b285cbd52e3fd", "is_disabled": 0, "is_reserved": 0}, {"rental_uris": {"ios": "https://dc.lft.to/lastmile_qr_scan", "android": "https://dc.lft.to/lastmile_qr_scan"}, "lon": -77.02399966666667, "type": "electric_scooter", "fusion_lat": 0.0, "lat": 38.89498183333333, "name": "defff840efe36dcfaa6262288c794bb5", "fusion_lon": 0.0, "bike_id": "defff840efe36dcfaa6262288c794bb5", "is_disabled": 0, "is_reserved": 0}, {"rental_uris": {"ios": "https://dc.lft.to/lastmile_qr_scan", "android": "https://dc.lft.to/lastmile_qr_scan"}, "lon": -76.93096316666667, "type": "electric_scooter", "fusion_lat": 0.0, "lat": 38.901402166666664, "name": "a427bc098f2c5d93f0d1cb83e5e38952", "fusion_lon": 0.0, "bike_id": "a427bc098f2c5d93f0d1cb83e5e38952", "is_disabled": 0, "is_reserved": 0}, {"rental_uris": {"ios": "https://dc.lft.to/lastmile_qr_scan", "android": "https://dc.lft.to/lastmile_qr_scan"}, "lon": -76.99149916666667, "type": "electric_scooter", "fusion_lat": 0.0, "lat": 38.90044066666667, "name": "25813e2dba943a69ee2ec8f9b15aac91", "fusion_lon": 0.0, "bike_id": "25813e2dba943a69ee2ec8f9b15aac91", "is_disabled": 0, "is_reserved": 0}, {"rental_uris": {"ios": "https://dc.lft.to/lastmile_qr_scan", "android": "https://dc.lft.to/lastmile_qr_scan"}, "lon": -76.98710783333334, "type": "electric_scooter", "fusion_lat": 0.0, "lat": 38.8626675, "name": "bbc4f1caf194c1fb1675c53578c3c54c", "fusion_lon": 0.0, "bike_id": "bbc4f1caf194c1fb1675c53578c3c54c", "is_disabled": 0, "is_reserved": 0}, {"rental_uris": {"ios": "https://dc.lft.to/lastmile_qr_scan", "android": "https://dc.lft.to/lastmile_qr_scan"}, "lon": -77.135929, "type": "electric_bike", "fusion_lat": 0.0, "lat": 39.053461166666665, "name": "ea510c502d8a344cb6f961db40cf5f03", "fusion_lon": 0.0, "bike_id": "ea510c502d8a344cb6f961db40cf5f03", "is_disabled": 0, "is_reserved": 0}, {"rental_uris": {"ios": "https://dc.lft.to/lastmile_qr_scan", "android": "https://dc.lft.to/lastmile_qr_scan"}, "lon": -77.034538, "type": "electric_scooter", "fusion_lat": 0.0, "lat": 38.90730466666667, "name": "c5b20a6149abca7e1a12784b6c479c63", "fusion_lon": 0.0, "bike_id": "c5b20a6149abca7e1a12784b6c479c63", "is_disabled": 0, "is_reserved": 0}, {"rental_uris": {"ios": "https://dc.lft.to/lastmile_qr_scan", "android": "https://dc.lft.to/lastmile_qr_scan"}, "lon": -77.078512, "type": "electric_scooter", "fusion_lat": 0.0, "lat": 38.93171666666667, "name": "5fad03e63c8c770662f6e3374fa02613", "fusion_lon": 0.0, "bike_id": "5fad03e63c8c770662f6e3374fa02613", "is_disabled": 0, "is_reserved": 0}, {"rental_uris": {"ios": "https://dc.lft.to/lastmile_qr_scan", "android": "https://dc.lft.to/lastmile_qr_scan"}, "lon": -77.04167766666667, "type": "electric_scooter", "fusion_lat": 0.0, "lat": 38.900567, "name": "8840a1dfd28aa796f6cab0f3f338f4a0", "fusion_lon": 0.0, "bike_id": "8840a1dfd28aa796f6cab0f3f338f4a0", "is_disabled": 0, "is_reserved": 0}, {"rental_uris": {"ios": "https://dc.lft.to/lastmile_qr_scan", "android": "https://dc.lft.to/lastmile_qr_scan"}, "lon": -77.0125725, "type": "electric_scooter", "fusion_lat": 0.0, "lat": 38.89968233333333, "name": "753aa82628c311aeae4bb57fc237ea1d", "fusion_lon": 0.0, "bike_id": "753aa82628c311aeae4bb57fc237ea1d", "is_disabled": 0, "is_reserved": 0}, {"rental_uris": {"ios": "https://dc.lft.to/lastmile_qr_scan", "android": "https://dc.lft.to/lastmile_qr_scan"}, "lon": -77.01015133333334, "type": "electric_scooter", "fusion_lat": 0.0, "lat": 38.89493083333333, "name": "8a640ab5935c8b233ce797b57ecba423", "fusion_lon": 0.0, "bike_id": "8a640ab5935c8b233ce797b57ecba423", "is_disabled": 0, "is_reserved": 0}, {"rental_uris": {"ios": "https://dc.lft.to/lastmile_qr_scan", "android": "https://dc.lft.to/lastmile_qr_scan"}, "lon": -77.09520666666667, "type": "electric_bike", "fusion_lat": 0.0, "lat": 38.838104, "name": "909d7528672328ed17f00f808244a628", "fusion_lon": 0.0, "bike_id": "909d7528672328ed17f00f808244a628", "is_disabled": 0, "is_reserved": 0}, {"rental_uris": {"ios": "https://dc.lft.to/lastmile_qr_scan", "android": "https://dc.lft.to/lastmile_qr_scan"}, "lon": -77.03717116666667, "type": "electric_scooter", "fusion_lat": 0.0, "lat": 38.9518145, "name": "bcba187a15b41394d26546cfcf409dbb", "fusion_lon": 0.0, "bike_id": "bcba187a15b41394d26546cfcf409dbb", "is_disabled": 0, "is_reserved": 0}, {"rental_uris": {"ios": "https://dc.lft.to/lastmile_qr_scan", "android": "https://dc.lft.to/lastmile_qr_scan"}, "lon": -77.02547866666667, "type": "electric_scooter", "fusion_lat": 0.0, "lat": 38.918222666666665, "name": "7c15c269aecea8fcd58afce8ef603807", "fusion_lon": 0.0, "bike_id": "7c15c269aecea8fcd58afce8ef603807", "is_disabled": 0, "is_reserved": 0}, {"rental_uris": {"ios": "https://dc.lft.to/lastmile_qr_scan", "android": "https://dc.lft.to/lastmile_qr_scan"}, "lon": -77.04501566666667, "type": "electric_scooter", "fusion_lat": 0.0, "lat": 38.91281683333333, "name": "af6056927e6c22a5c914017b75a228b2", "fusion_lon": 0.0, "bike_id": "af6056927e6c22a5c914017b75a228b2", "is_disabled": 0, "is_reserved": 0}, {"rental_uris": {"ios": "https://dc.lft.to/lastmile_qr_scan", "android": "https://dc.lft.to/lastmile_qr_scan"}, "lon": -77.04126216666667, "type": "electric_scooter", "fusion_lat": 0.0, "lat": 38.92151166666667, "name": "1bbcb302e3359d6ffb1e47a53f23ebdc", "fusion_lon": 0.0, "bike_id": "1bbcb302e3359d6ffb1e47a53f23ebdc", "is_disabled": 0, "is_reserved": 0}, {"rental_uris": {"ios": "https://dc.lft.to/lastmile_qr_scan", "android": "https://dc.lft.to/lastmile_qr_scan"}, "lon": -77.036977, "type": "electric_scooter", "fusion_lat": 0.0, "lat": 38.926445333333334, "name": "fa148e2e2be0e55f9f4418a635f7fbbc", "fusion_lon": 0.0, "bike_id": "fa148e2e2be0e55f9f4418a635f7fbbc", "is_disabled": 0, "is_reserved": 0}, {"rental_uris": {"ios": "https://dc.lft.to/lastmile_qr_scan", "android": "https://dc.lft.to/lastmile_qr_scan"}, "lon": -77.0558475, "type": "electric_scooter", "fusion_lat": 0.0, "lat": 38.92782666666667, "name": "e73ef0933fbf470a948d153ec10af4b4", "fusion_lon": 0.0, "bike_id": "e73ef0933fbf470a948d153ec10af4b4", "is_disabled": 0, "is_reserved": 0}, {"rental_uris": {"ios": "https://dc.lft.to/lastmile_qr_scan", "android": "https://dc.lft.to/lastmile_qr_scan"}, "lon": -77.029661, "type": "electric_scooter", "fusion_lat": 0.0, "lat": 38.9302895, "name": "18aeb067f22a57086ccc43a30616928b", "fusion_lon": 0.0, "bike_id": "18aeb067f22a57086ccc43a30616928b", "is_disabled": 0, "is_reserved": 0}, {"rental_uris": {"ios": "https://dc.lft.to/lastmile_qr_scan", "android": "https://dc.lft.to/lastmile_qr_scan"}, "lon": -76.9573555, "type": "electric_scooter", "fusion_lat": 0.0, "lat": 38.891815666666666, "name": "676a5cfeb308ea993aa9ce3a99aca30f", "fusion_lon": 0.0, "bike_id": "676a5cfeb308ea993aa9ce3a99aca30f", "is_disabled": 0, "is_reserved": 0}, {"rental_uris": {"ios": "https://dc.lft.to/lastmile_qr_scan", "android": "https://dc.lft.to/lastmile_qr_scan"}, "lon": -77.03029033333334, "type": "electric_scooter", "fusion_lat": 0.0, "lat": 38.897164, "name": "36aabe6116bf65e5202b7d4f6dcece97", "fusion_lon": 0.0, "bike_id": "36aabe6116bf65e5202b7d4f6dcece97", "is_disabled": 0, "is_reserved": 0}, {"rental_uris": {"ios": "https://dc.lft.to/lastmile_qr_scan", "android": "https://dc.lft.to/lastmile_qr_scan"}, "lon": -77.02975966666666, "type": "electric_scooter", "fusion_lat": 0.0, "lat": 38.9073105, "name": "f5e966aeac84c429892d681219f15e64", "fusion_lon": 0.0, "bike_id": "f5e966aeac84c429892d681219f15e64", "is_disabled": 0, "is_reserved": 0}, {"rental_uris": {"ios": "https://dc.lft.to/lastmile_qr_scan", "android": "https://dc.lft.to/lastmile_qr_scan"}, "lon": -77.02266316666666, "type": "electric_scooter", "fusion_lat": 0.0, "lat": 38.92410916666667, "name": "872275a42f7a109cb7a616c713eafd59", "fusion_lon": 0.0, "bike_id": "872275a42f7a109cb7a616c713eafd59", "is_disabled": 0, "is_reserved": 0}, {"rental_uris": {"ios": "https://dc.lft.to/lastmile_qr_scan", "android": "https://dc.lft.to/lastmile_qr_scan"}, "lon": -77.01179133333333, "type": "electric_bike", "fusion_lat": 0.0, "lat": 38.87227683333333, "name": "d58e645b74691c4a63793cb857e8aabb", "fusion_lon": 0.0, "bike_id": "d58e645b74691c4a63793cb857e8aabb", "is_disabled": 0, "is_reserved": 0}, {"rental_uris": {"ios": "https://dc.lft.to/lastmile_qr_scan", "android": "https://dc.lft.to/lastmile_qr_scan"}, "lon": -77.02174983333333, "type": "electric_scooter", "fusion_lat": 0.0, "lat": 38.913566333333335, "name": "17aca5efa6026f821074bf450bc4f77b", "fusion_lon": 0.0, "bike_id": "17aca5efa6026f821074bf450bc4f77b", "is_disabled": 0, "is_reserved": 0}, {"rental_uris": {"ios": "https://dc.lft.to/lastmile_qr_scan", "android": "https://dc.lft.to/lastmile_qr_scan"}, "lon": -77.0595565, "type": "electric_scooter", "fusion_lat": 0.0, "lat": 38.90928483333333, "name": "fd1faa08dbf5c16f0f50ec29c1c4df21", "fusion_lon": 0.0, "bike_id": "fd1faa08dbf5c16f0f50ec29c1c4df21", "is_disabled": 0, "is_reserved": 0}, {"rental_uris": {"ios": "https://dc.lft.to/lastmile_qr_scan", "android": "https://dc.lft.to/lastmile_qr_scan"}, "lon": -77.03797633333333, "type": "electric_scooter", "fusion_lat": 0.0, "lat": 38.925068, "name": "bea298c026fabfef845d6d6462a42c98", "fusion_lon": 0.0, "bike_id": "bea298c026fabfef845d6d6462a42c98", "is_disabled": 0, "is_reserved": 0}, {"rental_uris": {"ios": "https://dc.lft.to/lastmile_qr_scan", "android": "https://dc.lft.to/lastmile_qr_scan"}, "lon": -77.0417865, "type": "electric_scooter", "fusion_lat": 0.0, "lat": 38.91958966666667, "name": "7ad34961ccbdc1bd082b19b5f1cae5ae", "fusion_lon": 0.0, "bike_id": "7ad34961ccbdc1bd082b19b5f1cae5ae", "is_disabled": 0, "is_reserved": 0}, {"rental_uris": {"ios": "https://dc.lft.to/lastmile_qr_scan", "android": "https://dc.lft.to/lastmile_qr_scan"}, "lon": -76.9081175, "type": "electric_bike", "fusion_lat": 0.0, "lat": 38.994540666666666, "name": "3e6dca92e36b5917801974a3bed325c0", "fusion_lon": 0.0, "bike_id": "3e6dca92e36b5917801974a3bed325c0", "is_disabled": 0, "is_reserved": 0}, {"rental_uris": {"ios": "https://dc.lft.to/lastmile_qr_scan", "android": "https://dc.lft.to/lastmile_qr_scan"}, "lon": -77.04818366666667, "type": "electric_scooter", "fusion_lat": 0.0, "lat": 38.913301833333335, "name": "299ce09fc059cae7edbdedc3fbc44cd7", "fusion_lon": 0.0, "bike_id": "299ce09fc059cae7edbdedc3fbc44cd7", "is_disabled": 0, "is_reserved": 0}, {"rental_uris": {"ios": "https://dc.lft.to/lastmile_qr_scan", "android": "https://dc.lft.to/lastmile_qr_scan"}, "lon": -77.0820375, "type": "electric_scooter", "fusion_lat": 0.0, "lat": 38.949259166666664, "name": "de53f0f6f6872d47dead4cd7b6954d03", "fusion_lon": 0.0, "bike_id": "de53f0f6f6872d47dead4cd7b6954d03", "is_disabled": 0, "is_reserved": 0}, {"rental_uris": {"ios": "https://dc.lft.to/lastmile_qr_scan", "android": "https://dc.lft.to/lastmile_qr_scan"}, "lon": -76.99947916666666, "type": "electric_scooter", "fusion_lat": 0.0, "lat": 38.908675333333335, "name": "aea11ef1475fba7163f23d9eebd569cd", "fusion_lon": 0.0, "bike_id": "aea11ef1475fba7163f23d9eebd569cd", "is_disabled": 0, "is_reserved": 0}, {"rental_uris": {"ios": "https://dc.lft.to/lastmile_qr_scan", "android": "https://dc.lft.to/lastmile_qr_scan"}, "lon": -76.9652415, "type": "electric_scooter", "fusion_lat": 0.0, "lat": 38.876271333333335, "name": "26957cd9582485a9868fd5b65124bd86", "fusion_lon": 0.0, "bike_id": "26957cd9582485a9868fd5b65124bd86", "is_disabled": 0, "is_reserved": 0}, {"rental_uris": {"ios": "https://dc.lft.to/lastmile_qr_scan", "android": "https://dc.lft.to/lastmile_qr_scan"}, "lon": -77.02703416666667, "type": "electric_scooter", "fusion_lat": 0.0, "lat": 38.91824583333333, "name": "93934cb5ba316dae39c2024584f9d518", "fusion_lon": 0.0, "bike_id": "93934cb5ba316dae39c2024584f9d518", "is_disabled": 0, "is_reserved": 0}, {"rental_uris": {"ios": "https://dc.lft.to/lastmile_qr_scan", "android": "https://dc.lft.to/lastmile_qr_scan"}, "lon": -77.01981083333334, "type": "electric_scooter", "fusion_lat": 0.0, "lat": 38.8974795, "name": "bbad59f2ede927dfc7f2dbdabecbb1bb", "fusion_lon": 0.0, "bike_id": "bbad59f2ede927dfc7f2dbdabecbb1bb", "is_disabled": 0, "is_reserved": 0}, {"rental_uris": {"ios": "https://dc.lft.to/lastmile_qr_scan", "android": "https://dc.lft.to/lastmile_qr_scan"}, "lon": -77.00759216666667, "type": "electric_scooter", "fusion_lat": 0.0, "lat": 38.8972645, "name": "a77d031725ae3615dc90ece3ccf31e75", "fusion_lon": 0.0, "bike_id": "a77d031725ae3615dc90ece3ccf31e75", "is_disabled": 0, "is_reserved": 0}, {"rental_uris": {"ios": "https://dc.lft.to/lastmile_qr_scan", "android": "https://dc.lft.to/lastmile_qr_scan"}, "lon": -77.06606566666666, "type": "electric_scooter", "fusion_lat": 0.0, "lat": 38.90537583333333, "name": "c3a41127bddccf6006d4d2059404b921", "fusion_lon": 0.0, "bike_id": "c3a41127bddccf6006d4d2059404b921", "is_disabled": 0, "is_reserved": 0}, {"rental_uris": {"ios": "https://dc.lft.to/lastmile_qr_scan", "android": "https://dc.lft.to/lastmile_qr_scan"}, "lon": -77.03769666666666, "type": "electric_scooter", "fusion_lat": 0.0, "lat": 38.91695566666667, "name": "17237d2982379ca45a3c2b710a27efd8", "fusion_lon": 0.0, "bike_id": "17237d2982379ca45a3c2b710a27efd8", "is_disabled": 0, "is_reserved": 0}, {"rental_uris": {"ios": "https://dc.lft.to/lastmile_qr_scan", "android": "https://dc.lft.to/lastmile_qr_scan"}, "lon": -77.04778683333333, "type": "electric_scooter", "fusion_lat": 0.0, "lat": 38.89768466666666, "name": "7ab96b8b6ac7f694dc2702e1b84a7425", "fusion_lon": 0.0, "bike_id": "7ab96b8b6ac7f694dc2702e1b84a7425", "is_disabled": 0, "is_reserved": 0}, {"rental_uris": {"ios": "https://dc.lft.to/lastmile_qr_scan", "android": "https://dc.lft.to/lastmile_qr_scan"}, "lon": -77.035042, "type": "electric_scooter", "fusion_lat": 0.0, "lat": 38.921414166666665, "name": "2a8c2a801910382b87fa17c3a238bf13", "fusion_lon": 0.0, "bike_id": "2a8c2a801910382b87fa17c3a238bf13", "is_disabled": 0, "is_reserved": 0}, {"rental_uris": {"ios": "https://dc.lft.to/lastmile_qr_scan", "android": "https://dc.lft.to/lastmile_qr_scan"}, "lon": -77.08825516666667, "type": "electric_bike", "fusion_lat": 0.0, "lat": 38.90971833333333, "name": "401bb49c8ed78aba908c2b972580989c", "fusion_lon": 0.0, "bike_id": "401bb49c8ed78aba908c2b972580989c", "is_disabled": 0, "is_reserved": 0}, {"rental_uris": {"ios": "https://dc.lft.to/lastmile_qr_scan", "android": "https://dc.lft.to/lastmile_qr_scan"}, "lon": -77.05966733333334, "type": "electric_scooter", "fusion_lat": 0.0, "lat": 38.911909666666666, "name": "2affdb1719a6f573b3966d3d0f8fd96e", "fusion_lon": 0.0, "bike_id": "2affdb1719a6f573b3966d3d0f8fd96e", "is_disabled": 0, "is_reserved": 0}, {"rental_uris": {"ios": "https://dc.lft.to/lastmile_qr_scan", "android": "https://dc.lft.to/lastmile_qr_scan"}, "lon": -77.03210216666666, "type": "electric_scooter", "fusion_lat": 0.0, "lat": 38.9181745, "name": "05ab708b07447545507fafd453b1b756", "fusion_lon": 0.0, "bike_id": "05ab708b07447545507fafd453b1b756", "is_disabled": 0, "is_reserved": 0}, {"rental_uris": {"ios": "https://dc.lft.to/lastmile_qr_scan", "android": "https://dc.lft.to/lastmile_qr_scan"}, "lon": -77.0560405, "type": "electric_scooter", "fusion_lat": 0.0, "lat": 38.936935, "name": "4fdd65adb59ac1056b202159b5443904", "fusion_lon": 0.0, "bike_id": "4fdd65adb59ac1056b202159b5443904", "is_disabled": 0, "is_reserved": 0}, {"rental_uris": {"ios": "https://dc.lft.to/lastmile_qr_scan", "android": "https://dc.lft.to/lastmile_qr_scan"}, "lon": -77.0317705, "type": "electric_scooter", "fusion_lat": 0.0, "lat": 38.92114483333334, "name": "e19231e0376909c1b7af6694c802c621", "fusion_lon": 0.0, "bike_id": "e19231e0376909c1b7af6694c802c621", "is_disabled": 0, "is_reserved": 0}, {"rental_uris": {"ios": "https://dc.lft.to/lastmile_qr_scan", "android": "https://dc.lft.to/lastmile_qr_scan"}, "lon": -77.002965, "type": "electric_scooter", "fusion_lat": 0.0, "lat": 38.90903083333333, "name": "685dc711282caf74c81f3d31e076fac5", "fusion_lon": 0.0, "bike_id": "685dc711282caf74c81f3d31e076fac5", "is_disabled": 0, "is_reserved": 0}, {"rental_uris": {"ios": "https://dc.lft.to/lastmile_qr_scan", "android": "https://dc.lft.to/lastmile_qr_scan"}, "lon": -77.00206283333333, "type": "electric_scooter", "fusion_lat": 0.0, "lat": 38.90035316666667, "name": "4d70217d66d8ec5b553a5a1a93103845", "fusion_lon": 0.0, "bike_id": "4d70217d66d8ec5b553a5a1a93103845", "is_disabled": 0, "is_reserved": 0}, {"rental_uris": {"ios": "https://dc.lft.to/lastmile_qr_scan", "android": "https://dc.lft.to/lastmile_qr_scan"}, "lon": -77.04998316666666, "type": "electric_scooter", "fusion_lat": 0.0, "lat": 38.89229383333333, "name": "6eb0905fcc9929317064ba2a4ea62308", "fusion_lon": 0.0, "bike_id": "6eb0905fcc9929317064ba2a4ea62308", "is_disabled": 0, "is_reserved": 0},